{"data": {"bikes": [{"bike_id": "55405ae4c8d1fffa4dfda1a0ff1457b8", "is_reserved": 0, "fusion_lon": 0.0, "lat": 38.901094, "is_disabled": 0, "name": "55405ae4c8d1fffa4dfda1a0ff1457b8", "fusion_lat": 0.0, "rental_uris": {"ios": "https://dc.lft.to/lastmile_qr_scan", "android": "https://dc.lft.to/lastmile_qr_scan"}, "lon": -77.05003533333333, "type": "electric_scooter"}, {"bike_id": "b02c72830a81f855129cf04d269d1758", "is_reserved": 0, "fusion_lon": 0.0, "lat": 38.92256666666667, "is_disabled": 0, "name": "b02c72830a81f855129cf04d269d1758", "fusion_lat": 0.0, "rental_uris": {"ios": "https://dc.lft.to/lastmile_qr_scan", "android": "https://dc.lft.to/lastmile_qr_scan"}, "lon": -77.042358, "type": "electric_scooter"}, {"bike_id": "08fa12b4cd2204569a7fbea44af63223", "is_reserved": 0, "fusion_lon": 0.0, "lat": 38.91561983333333, "is_disabled": 0, "name": "08fa12b4cd2204569a7fbea44af63223", "fusion_lat": 0.0, "rental_uris": {"ios": "https://dc.lft.to/lastmile_qr_scan", "android": "https://dc.lft.to/lastmile_qr_scan"}, "lon": -77.041477, "type": "electric_scooter"}, {"bike_id": "bc709c95526f04ec9e0ba260f5ddf4a0", "is_reserved": 0, "fusion_lon": 0.0, "lat": 39.01593783333333, "is_disabled": 0, "name": "bc709c95526f04ec9e0ba260f5ddf4a0", "fusion_lat": 0.0, "rental_uris": {"ios": "https://dc.lft.to/lastmile_qr_scan", "android": "https://dc.lft.to/lastmile_qr_scan"}, "lon": -77.04427883333334, "type": "electric_bike"}, {"bike_id": "6cf1ac7e8db30ce4fce83f007eba3670", "is_reserved": 0, "fusion_lon": 0.0, "lat": 38.902975833333336, "is_disabled": 0, "name": "6cf1ac7e8db30ce4fce83f007eba3670", "fusion_lat": 0.0, "rental_uris": {"ios": "https://dc.lft.to/lastmile_qr_scan", "android": "https://dc.lft.to/lastmile_qr_scan"}, "lon": -76.94443016666666, "type": "electric_bike"}, {"bike_id": "53fe9e22f98f6d85d2807ec844dfe3fc", "is_reserved": 0, "fusion_lon": 0.0, "lat": 38.838006666666665, "is_disabled": 0, "name": "53fe9e22f98f6d85d2807ec844dfe3fc", "fusion_lat": 0.0, "rental_uris": {"ios": "https://dc.lft.to/lastmile_qr_scan", "android": "https://dc.lft.to/lastmile_qr_scan"}, "lon": -76.99840783333333, "type": "electric_bike"}, {"bike_id": "0a48cf1464e269cc66a634cbbf1003cd", "is_reserved": 0, "fusion_lon": 0.0, "lat": 38.901534, "is_disabled": 0, "name": "0a48cf1464e269cc66a634cbbf1003cd", "fusion_lat": 0.0, "rental_uris": {"ios": "https://dc.lft.to/lastmile_qr_scan", "android": "https://dc.lft.to/lastmile_qr_scan"}, "lon": -76.975143, "type": "electric_scooter"}, {"bike_id": "9b95990900de4df0c3efc9ccf1dd5aca", "is_reserved": 0, "fusion_lon": 0.0, "lat": 38.905877, "is_disabled": 0, "name": "9b95990900de4df0c3efc9ccf1dd5aca", "fusion_lat": 0.0, "rental_uris": {"ios": "https://dc.lft.to/lastmile_qr_scan", "android": "https://dc.lft.to/lastmile_qr_scan"}, "lon": -77.039582, "type": "electric_scooter"}, {"bike_id": "f95a57951f43139aaa8beba9bfe8fb80", "is_reserved": 0, "fusion_lon": 0.0, "lat": 38.933350833333336, "is_disabled": 0, "name": "f95a57951f43139aaa8beba9bfe8fb80", "fusion_lat": 0.0, "rental_uris": {"ios": "https://dc.lft.to/lastmile_qr_scan", "android": "https://dc.lft.to/lastmile_qr_scan"}, "lon": -77.032841, "type": "electric_scooter"}, {"bike_id": "7ddd5850c8f43bc9bca005fb19c4256a", "is_reserved": 0, "fusion_lon": 0.0, "lat": 38.900815333333334, "is_disabled": 0, "name": "7ddd5850c8f43bc9bca005fb19c4256a", "fusion_lat": 0.0, "rental_uris": {"ios": "https://dc.lft.to/lastmile_qr_scan", "android": "https://dc.lft.to/lastmile_qr_scan"}, "lon": -77.04767983333333, "type": "electric_scooter"}, {"bike_id": "304779cbb027d34dec8bb30a9ed04161", "is_reserved": 0, "fusion_lon": 0.0, "lat": 38.898128166666666, "is_disabled": 0, "name": "304779cbb027d34dec8bb30a9ed04161", "fusion_lat": 0.0, "rental_uris": {"ios": "https://dc.lft.to/lastmile_qr_scan", "android": "https://dc.lft.to/lastmile_qr_scan"}, "lon": -77.01157333333333, "type": "electric_scooter"}, {"bike_id": "3476dc0b9faabe5f2897a712677cf91b", "is_reserved": 0, "fusion_lon": 0.0, "lat": 38.964975833333334, "is_disabled": 0, "name": "3476dc0b9faabe5f2897a712677cf91b", "fusion_lat": 0.0, "rental_uris": {"ios": "https://dc.lft.to/lastmile_qr_scan", "android": "https://dc.lft.to/lastmile_qr_scan"}, "lon": -77.06494683333334, "type": "electric_bike"}, {"bike_id": "fca6dda548d95032c57ccd5eb37abea1", "is_reserved": 0, "fusion_lon": 0.0, "lat": 38.917708166666664, "is_disabled": 0, "name": "fca6dda548d95032c57ccd5eb37abea1", "fusion_lat": 0.0, "rental_uris": {"ios": "https://dc.lft.to/lastmile_qr_scan", "android": "https://dc.lft.to/lastmile_qr_scan"}, "lon": -77.0149975, "type": "electric_scooter"}, {"bike_id": "43401f40a22ed411ae452806e58a2990", "is_reserved": 0, "fusion_lon": 0.0, "lat": 38.931394833333336, "is_disabled": 0, "name": "43401f40a22ed411ae452806e58a2990", "fusion_lat": 0.0, "rental_uris": {"ios": "https://dc.lft.to/lastmile_qr_scan", "android": "https://dc.lft.to/lastmile_qr_scan"}, "lon": -77.05710383333333, "type": "electric_scooter"}, {"bike_id": "b6fe58f08849cbcced43c2003b2f9e15", "is_reserved": 0, "fusion_lon": 0.0, "lat": 38.91877433333333, "is_disabled": 0, "name": "b6fe58f08849cbcced43c2003b2f9e15", "fusion_lat": 0.0, "rental_uris": {"ios": "https://dc.lft.to/lastmile_qr_scan", "android": "https://dc.lft.to/lastmile_qr_scan"}, "lon": -77.04462983333333, "type": "electric_scooter"}, {"bike_id": "1f2114807ebf0a8e05397f1e22b98bb4", "is_reserved": 0, "fusion_lon": 0.0, "lat": 38.89059016666667, "is_disabled": 0, "name": "1f2114807ebf0a8e05397f1e22b98bb4", "fusion_lat": 0.0, "rental_uris": {"ios": "https://dc.lft.to/lastmile_qr_scan", "android": "https://dc.lft.to/lastmile_qr_scan"}, "lon": -77.02302116666667, "type": "electric_scooter"}, {"bike_id": "e9805f36fe8dab23f26bdba0630ecb8e", "is_reserved": 0, "fusion_lon": 0.0, "lat": 38.88431683333334, "is_disabled": 0, "name": "e9805f36fe8dab23f26bdba0630ecb8e", "fusion_lat": 0.0, "rental_uris": {"ios": "https://dc.lft.to/lastmile_qr_scan", "android": "https://dc.lft.to/lastmile_qr_scan"}, "lon": -76.957553, "type": "electric_scooter"}, {"bike_id": "6ef5d541151eea6fbba3b6b8287ca05f", "is_reserved": 0, "fusion_lon": 0.0, "lat": 38.91838416666667, "is_disabled": 0, "name": "6ef5d541151eea6fbba3b6b8287ca05f", "fusion_lat": 0.0, "rental_uris": {"ios": "https://dc.lft.to/lastmile_qr_scan", "android": "https://dc.lft.to/lastmile_qr_scan"}, "lon": -77.03894583333333, "type": "electric_scooter"}, {"bike_id": "475238025e9efa59c52eb19ab7dc8bbf", "is_reserved": 0, "fusion_lon": 0.0, "lat": 38.900375833333335, "is_disabled": 0, "name": "475238025e9efa59c52eb19ab7dc8bbf", "fusion_lat": 0.0, "rental_uris": {"ios": "https://dc.lft.to/lastmile_qr_scan", "android": "https://dc.lft.to/lastmile_qr_scan"}, "lon": -77.00532416666667, "type": "electric_scooter"}, {"bike_id": "fd30dd413ab694777ff0e47f0a35ac55", "is_reserved": 0, "fusion_lon": 0.0, "lat": 38.91216133333333, "is_disabled": 0, "name": "fd30dd413ab694777ff0e47f0a35ac55", "fusion_lat": 0.0, "rental_uris": {"ios": "https://dc.lft.to/lastmile_qr_scan", "android": "https://dc.lft.to/lastmile_qr_scan"}, "lon": -77.027989, "type": "electric_scooter"}, {"bike_id": "56b0aec151286ff2352b34707a782e4d", "is_reserved": 0, "fusion_lon": 0.0, "lat": 38.89907616666667, "is_disabled": 0, "name": "56b0aec151286ff2352b34707a782e4d", "fusion_lat": 0.0, "rental_uris": {"ios": "https://dc.lft.to/lastmile_qr_scan", "android": "https://dc.lft.to/lastmile_qr_scan"}, "lon": -77.039294, "type": "electric_scooter"}, {"bike_id": "89aa8df1b5c99e8b87e1bc6f74fd3a71", "is_reserved": 0, "fusion_lon": 0.0, "lat": 38.901251333333335, "is_disabled": 0, "name": "89aa8df1b5c99e8b87e1bc6f74fd3a71", "fusion_lat": 0.0, "rental_uris": {"ios": "https://dc.lft.to/lastmile_qr_scan", "android": "https://dc.lft.to/lastmile_qr_scan"}, "lon": -76.99711416666666, "type": "electric_scooter"}, {"bike_id": "095d1b3a74aa7db4e1af460304412edb", "is_reserved": 0, "fusion_lon": 0.0, "lat": 38.927105, "is_disabled": 0, "name": "095d1b3a74aa7db4e1af460304412edb", "fusion_lat": 0.0, "rental_uris": {"ios": "https://dc.lft.to/lastmile_qr_scan", "android": "https://dc.lft.to/lastmile_qr_scan"}, "lon": -77.04049966666666, "type": "electric_scooter"}, {"bike_id": "6c291bef1b832cd0d356b8803d2c2837", "is_reserved": 0, "fusion_lon": 0.0, "lat": 38.905250833333334, "is_disabled": 0, "name": "6c291bef1b832cd0d356b8803d2c2837", "fusion_lat": 0.0, "rental_uris": {"ios": "https://dc.lft.to/lastmile_qr_scan", "android": "https://dc.lft.to/lastmile_qr_scan"}, "lon": -77.065223, "type": "electric_scooter"}, {"bike_id": "35f0212d478d65a527adfae4cb5cbf8b", "is_reserved": 0, "fusion_lon": 0.0, "lat": 38.90683933333333, "is_disabled": 0, "name": "35f0212d478d65a527adfae4cb5cbf8b", "fusion_lat": 0.0, "rental_uris": {"ios": "https://dc.lft.to/lastmile_qr_scan", "android": "https://dc.lft.to/lastmile_qr_scan"}, "lon": -77.00609583333333, "type": "electric_scooter"}, {"bike_id": "4ec70f7650bb6473c2bd1dc68eb9840d", "is_reserved": 0, "fusion_lon": 0.0, "lat": 38.90366783333333, "is_disabled": 0, "name": "4ec70f7650bb6473c2bd1dc68eb9840d", "fusion_lat": 0.0, "rental_uris": {"ios": "https://dc.lft.to/lastmile_qr_scan", "android": "https://dc.lft.to/lastmile_qr_scan"}, "lon": -77.0448665, "type": "electric_scooter"}, {"bike_id": "84ff1664fda9988e24e88e43e420d3f8", "is_reserved": 0, "fusion_lon": 0.0, "lat": 38.92270166666667, "is_disabled": 0, "name": "84ff1664fda9988e24e88e43e420d3f8", "fusion_lat": 0.0, "rental_uris": {"ios": "https://dc.lft.to/lastmile_qr_scan", "android": "https://dc.lft.to/lastmile_qr_scan"}, "lon": -77.01822533333333, "type": "electric_scooter"}, {"bike_id": "690bd099d01f688db162ad215ab8684b", "is_reserved": 0, "fusion_lon": 0.0, "lat": 38.89952666666667, "is_disabled": 0, "name": "690bd099d01f688db162ad215ab8684b", "fusion_lat": 0.0, "rental_uris": {"ios": "https://dc.lft.to/lastmile_qr_scan", "android": "https://dc.lft.to/lastmile_qr_scan"}, "lon": -77.0526985, "type": "electric_scooter"}, {"bike_id": "816c75a2cea2351a061217f63ae88213", "is_reserved": 0, "fusion_lon": 0.0, "lat": 38.86162733333333, "is_disabled": 0, "name": "816c75a2cea2351a061217f63ae88213", "fusion_lat": 0.0, "rental_uris": {"ios": "https://dc.lft.to/lastmile_qr_scan", "android": "https://dc.lft.to/lastmile_qr_scan"}, "lon": -77.13093866666667, "type": "electric_bike"}, {"bike_id": "3aa65e00086196bf9d0b93a0a63cdd74", "is_reserved": 0, "fusion_lon": 0.0, "lat": 38.89182516666666, "is_disabled": 0, "name": "3aa65e00086196bf9d0b93a0a63cdd74", "fusion_lat": 0.0, "rental_uris": {"ios": "https://dc.lft.to/lastmile_qr_scan", "android": "https://dc.lft.to/lastmile_qr_scan"}, "lon": -77.015337, "type": "electric_scooter"}, {"bike_id": "4581d3e1c211a3f0680e91971d24fff2", "is_reserved": 0, "fusion_lon": 0.0, "lat": 38.909743666666664, "is_disabled": 0, "name": "4581d3e1c211a3f0680e91971d24fff2", "fusion_lat": 0.0, "rental_uris": {"ios": "https://dc.lft.to/lastmile_qr_scan", "android": "https://dc.lft.to/lastmile_qr_scan"}, "lon": -77.027255, "type": "electric_scooter"}, {"bike_id": "aa9f5a089d6bf7648b028379800e9b25", "is_reserved": 0, "fusion_lon": 0.0, "lat": 38.90237, "is_disabled": 0, "name": "aa9f5a089d6bf7648b028379800e9b25", "fusion_lat": 0.0, "rental_uris": {"ios": "https://dc.lft.to/lastmile_qr_scan", "android": "https://dc.lft.to/lastmile_qr_scan"}, "lon": -76.9741825, "type": "electric_scooter"}, {"bike_id": "1b0ecd8cd823ce137b157c284b0d845b", "is_reserved": 0, "fusion_lon": 0.0, "lat": 38.941855833333335, "is_disabled": 0, "name": "1b0ecd8cd823ce137b157c284b0d845b", "fusion_lat": 0.0, "rental_uris": {"ios": "https://dc.lft.to/lastmile_qr_scan", "android": "https://dc.lft.to/lastmile_qr_scan"}, "lon": -77.01702566666667, "type": "electric_scooter"}, {"bike_id": "f4170c8df4ed53fd3db18b1ede948409", "is_reserved": 0, "fusion_lon": 0.0, "lat": 38.89797816666667, "is_disabled": 0, "name": "f4170c8df4ed53fd3db18b1ede948409", "fusion_lat": 0.0, "rental_uris": {"ios": "https://dc.lft.to/lastmile_qr_scan", "android": "https://dc.lft.to/lastmile_qr_scan"}, "lon": -77.0059865, "type": "electric_bike"}, {"bike_id": "2df4fdb4c6f3f482e06ac195b8dcfc32", "is_reserved": 0, "fusion_lon": 0.0, "lat": 38.915881666666664, "is_disabled": 0, "name": "2df4fdb4c6f3f482e06ac195b8dcfc32", "fusion_lat": 0.0, "rental_uris": {"ios": "https://dc.lft.to/lastmile_qr_scan", "android": "https://dc.lft.to/lastmile_qr_scan"}, "lon": -77.04179966666666, "type": "electric_scooter"}, {"bike_id": "f3302ac7629169c7c6c3441b8cfbf86e", "is_reserved": 0, "fusion_lon": 0.0, "lat": 38.967599666666665, "is_disabled": 0, "name": "f3302ac7629169c7c6c3441b8cfbf86e", "fusion_lat": 0.0, "rental_uris": {"ios": "https://dc.lft.to/lastmile_qr_scan", "android": "https://dc.lft.to/lastmile_qr_scan"}, "lon": -77.09165333333333, "type": "electric_bike"}, {"bike_id": "5d50a2586170c347026d9054e149344a", "is_reserved": 0, "fusion_lon": 0.0, "lat": 38.905709, "is_disabled": 0, "name": "5d50a2586170c347026d9054e149344a", "fusion_lat": 0.0, "rental_uris": {"ios": "https://dc.lft.to/lastmile_qr_scan", "android": "https://dc.lft.to/lastmile_qr_scan"}, "lon": -77.01510283333333, "type": "electric_scooter"}, {"bike_id": "a0de2cb7652883c34244c8c091db43aa", "is_reserved": 0, "fusion_lon": 0.0, "lat": 38.937609333333334, "is_disabled": 0, "name": "a0de2cb7652883c34244c8c091db43aa", "fusion_lat": 0.0, "rental_uris": {"ios": "https://dc.lft.to/lastmile_qr_scan", "android": "https://dc.lft.to/lastmile_qr_scan"}, "lon": -77.03574983333333, "type": "electric_scooter"}, {"bike_id": "4dcb8bb0441376d041dc8f976e7ee7d5", "is_reserved": 0, "fusion_lon": 0.0, "lat": 38.900107, "is_disabled": 0, "name": "4dcb8bb0441376d041dc8f976e7ee7d5", "fusion_lat": 0.0, "rental_uris": {"ios": "https://dc.lft.to/lastmile_qr_scan", "android": "https://dc.lft.to/lastmile_qr_scan"}, "lon": -77.043825, "type": "electric_scooter"}, {"bike_id": "0c1312502ca6d5997baa1f8723e25f01", "is_reserved": 0, "fusion_lon": 0.0, "lat": 38.90755333333333, "is_disabled": 0, "name": "0c1312502ca6d5997baa1f8723e25f01", "fusion_lat": 0.0, "rental_uris": {"ios": "https://dc.lft.to/lastmile_qr_scan", "android": "https://dc.lft.to/lastmile_qr_scan"}, "lon": -77.03601366666666, "type": "electric_scooter"}, {"bike_id": "f18ec18236fb1743f73286cf635a7c30", "is_reserved": 0, "fusion_lon": 0.0, "lat": 38.90955816666666, "is_disabled": 0, "name": "f18ec18236fb1743f73286cf635a7c30", "fusion_lat": 0.0, "rental_uris": {"ios": "https://dc.lft.to/lastmile_qr_scan", "android": "https://dc.lft.to/lastmile_qr_scan"}, "lon": -76.98467866666667, "type": "electric_scooter"}, {"bike_id": "1d8f735bd5ca41b9ca82c128e10b9157", "is_reserved": 0, "fusion_lon": 0.0, "lat": 38.9172485, "is_disabled": 0, "name": "1d8f735bd5ca41b9ca82c128e10b9157", "fusion_lat": 0.0, "rental_uris": {"ios": "https://dc.lft.to/lastmile_qr_scan", "android": "https://dc.lft.to/lastmile_qr_scan"}, "lon": -77.0366535, "type": "electric_scooter"}, {"bike_id": "4e025f11878083e8e0a822e0b85a8dc1", "is_reserved": 0, "fusion_lon": 0.0, "lat": 38.9169865, "is_disabled": 0, "name": "4e025f11878083e8e0a822e0b85a8dc1", "fusion_lat": 0.0, "rental_uris": {"ios": "https://dc.lft.to/lastmile_qr_scan", "android": "https://dc.lft.to/lastmile_qr_scan"}, "lon": -77.021977, "type": "electric_scooter"}, {"bike_id": "c35f92d299b367c87d46b87d4edc6e80", "is_reserved": 0, "fusion_lon": 0.0, "lat": 38.902605666666666, "is_disabled": 0, "name": "c35f92d299b367c87d46b87d4edc6e80", "fusion_lat": 0.0, "rental_uris": {"ios": "https://dc.lft.to/lastmile_qr_scan", "android": "https://dc.lft.to/lastmile_qr_scan"}, "lon": -77.03369633333334, "type": "electric_scooter"}, {"bike_id": "791cfd10636c524bd25d6d25d59c5f53", "is_reserved": 0, "fusion_lon": 0.0, "lat": 38.92926516666667, "is_disabled": 0, "name": "791cfd10636c524bd25d6d25d59c5f53", "fusion_lat": 0.0, "rental_uris": {"ios": "https://dc.lft.to/lastmile_qr_scan", "android": "https://dc.lft.to/lastmile_qr_scan"}, "lon": -77.02005766666667, "type": "electric_scooter"}, {"bike_id": "e0f816ae7b06e22494cf03d88bd335cc", "is_reserved": 0, "fusion_lon": 0.0, "lat": 38.89555433333334, "is_disabled": 0, "name": "e0f816ae7b06e22494cf03d88bd335cc", "fusion_lat": 0.0, "rental_uris": {"ios": "https://dc.lft.to/lastmile_qr_scan", "android": "https://dc.lft.to/lastmile_qr_scan"}, "lon": -76.95026566666667, "type": "electric_scooter"}, {"bike_id": "d8715f12c08cfb176592759e088c672f", "is_reserved": 0, "fusion_lon": 0.0, "lat": 38.939844666666666, "is_disabled": 0, "name": "d8715f12c08cfb176592759e088c672f", "fusion_lat": 0.0, "rental_uris": {"ios": "https://dc.lft.to/lastmile_qr_scan", "android": "https://dc.lft.to/lastmile_qr_scan"}, "lon": -77.02891333333334, "type": "electric_scooter"}, {"bike_id": "84f5616b6349d1448635846e7e78ba1c", "is_reserved": 0, "fusion_lon": 0.0, "lat": 38.921761333333336, "is_disabled": 0, "name": "84f5616b6349d1448635846e7e78ba1c", "fusion_lat": 0.0, "rental_uris": {"ios": "https://dc.lft.to/lastmile_qr_scan", "android": "https://dc.lft.to/lastmile_qr_scan"}, "lon": -77.02533866666667, "type": "electric_scooter"}, {"bike_id": "085c278a08ab1e1682223ed4f146a610", "is_reserved": 0, "fusion_lon": 0.0, "lat": 38.87977716666666, "is_disabled": 0, "name": "085c278a08ab1e1682223ed4f146a610", "fusion_lat": 0.0, "rental_uris": {"ios": "https://dc.lft.to/lastmile_qr_scan", "android": "https://dc.lft.to/lastmile_qr_scan"}, "lon": -77.0240005, "type": "electric_scooter"}, {"bike_id": "6e227acf32367f647d9ebb0e9bbc8773", "is_reserved": 0, "fusion_lon": 0.0, "lat": 38.9132995, "is_disabled": 0, "name": "6e227acf32367f647d9ebb0e9bbc8773", "fusion_lat": 0.0, "rental_uris": {"ios": "https://dc.lft.to/lastmile_qr_scan", "android": "https://dc.lft.to/lastmile_qr_scan"}, "lon": -77.03269866666666, "type": "electric_scooter"}, {"bike_id": "e7de436e104424cc0703dd042f9cce8b", "is_reserved": 0, "fusion_lon": 0.0, "lat": 38.813075833333336, "is_disabled": 0, "name": "e7de436e104424cc0703dd042f9cce8b", "fusion_lat": 0.0, "rental_uris": {"ios": "https://dc.lft.to/lastmile_qr_scan", "android": "https://dc.lft.to/lastmile_qr_scan"}, "lon": -77.05091283333333, "type": "electric_bike"}, {"bike_id": "257d9f7a3a015960735fdb0f4b5d48f4", "is_reserved": 0, "fusion_lon": 0.0, "lat": 38.862108, "is_disabled": 0, "name": "257d9f7a3a015960735fdb0f4b5d48f4", "fusion_lat": 0.0, "rental_uris": {"ios": "https://dc.lft.to/lastmile_qr_scan", "android": "https://dc.lft.to/lastmile_qr_scan"}, "lon": -76.99469866666666, "type": "electric_scooter"}, {"bike_id": "48c95b528ada526e722b0c566ad2377f", "is_reserved": 0, "fusion_lon": 0.0, "lat": 38.918078333333334, "is_disabled": 0, "name": "48c95b528ada526e722b0c566ad2377f", "fusion_lat": 0.0, "rental_uris": {"ios": "https://dc.lft.to/lastmile_qr_scan", "android": "https://dc.lft.to/lastmile_qr_scan"}, "lon": -77.0330435, "type": "electric_scooter"}, {"bike_id": "ac5548f79237d6b461d8d24e7094545e", "is_reserved": 0, "fusion_lon": 0.0, "lat": 38.907917166666664, "is_disabled": 0, "name": "ac5548f79237d6b461d8d24e7094545e", "fusion_lat": 0.0, "rental_uris": {"ios": "https://dc.lft.to/lastmile_qr_scan", "android": "https://dc.lft.to/lastmile_qr_scan"}, "lon": -77.04236816666666, "type": "electric_scooter"}, {"bike_id": "74296edb11eb61a20c49b00627205d54", "is_reserved": 0, "fusion_lon": 0.0, "lat": 38.936624333333334, "is_disabled": 0, "name": "74296edb11eb61a20c49b00627205d54", "fusion_lat": 0.0, "rental_uris": {"ios": "https://dc.lft.to/lastmile_qr_scan", "android": "https://dc.lft.to/lastmile_qr_scan"}, "lon": -77.05934233333333, "type": "electric_scooter"}, {"bike_id": "14441e9b9555d6622e9dddc33354f302", "is_reserved": 0, "fusion_lon": 0.0, "lat": 38.9071855, "is_disabled": 0, "name": "14441e9b9555d6622e9dddc33354f302", "fusion_lat": 0.0, "rental_uris": {"ios": "https://dc.lft.to/lastmile_qr_scan", "android": "https://dc.lft.to/lastmile_qr_scan"}, "lon": -76.98607516666667, "type": "electric_scooter"}, {"bike_id": "7123de3f4e47c2e6a3883c472a3f999d", "is_reserved": 0, "fusion_lon": 0.0, "lat": 38.89807116666667, "is_disabled": 0, "name": "7123de3f4e47c2e6a3883c472a3f999d", "fusion_lat": 0.0, "rental_uris": {"ios": "https://dc.lft.to/lastmile_qr_scan", "android": "https://dc.lft.to/lastmile_qr_scan"}, "lon": -77.00596966666667, "type": "electric_bike"}, {"bike_id": "85cb4db5916a32a26683717153c601c6", "is_reserved": 0, "fusion_lon": 0.0, "lat": 38.91911966666667, "is_disabled": 0, "name": "85cb4db5916a32a26683717153c601c6", "fusion_lat": 0.0, "rental_uris": {"ios": "https://dc.lft.to/lastmile_qr_scan", "android": "https://dc.lft.to/lastmile_qr_scan"}, "lon": -77.041792, "type": "electric_scooter"}, {"bike_id": "961d4a00a948a988affef4a669b303f7", "is_reserved": 0, "fusion_lon": 0.0, "lat": 38.91564433333333, "is_disabled": 0, "name": "961d4a00a948a988affef4a669b303f7", "fusion_lat": 0.0, "rental_uris": {"ios": "https://dc.lft.to/lastmile_qr_scan", "android": "https://dc.lft.to/lastmile_qr_scan"}, "lon": -77.0376365, "type": "electric_scooter"}, {"bike_id": "c6a4a014a3a63a2fb6461899a59aeb01", "is_reserved": 0, "fusion_lon": 0.0, "lat": 38.94011366666667, "is_disabled": 0, "name": "c6a4a014a3a63a2fb6461899a59aeb01", "fusion_lat": 0.0, "rental_uris": {"ios": "https://dc.lft.to/lastmile_qr_scan", "android": "https://dc.lft.to/lastmile_qr_scan"}, "lon": -77.07171133333334, "type": "electric_scooter"}, {"bike_id": "b206b83fac3887f3c89a942194a8db14", "is_reserved": 0, "fusion_lon": 0.0, "lat": 38.9152995, "is_disabled": 0, "name": "b206b83fac3887f3c89a942194a8db14", "fusion_lat": 0.0, "rental_uris": {"ios": "https://dc.lft.to/lastmile_qr_scan", "android": "https://dc.lft.to/lastmile_qr_scan"}, "lon": -77.0434595, "type": "electric_scooter"}, {"bike_id": "6c636f8a4dcf6e1e91ead6be857f2275", "is_reserved": 0, "fusion_lon": 0.0, "lat": 38.9037975, "is_disabled": 0, "name": "6c636f8a4dcf6e1e91ead6be857f2275", "fusion_lat": 0.0, "rental_uris": {"ios": "https://dc.lft.to/lastmile_qr_scan", "android": "https://dc.lft.to/lastmile_qr_scan"}, "lon": -77.0447485, "type": "electric_scooter"}, {"bike_id": "c5b2f9020c9d0fc4c13a9a4ad33bbd9e", "is_reserved": 0, "fusion_lon": 0.0, "lat": 38.93095316666667, "is_disabled": 0, "name": "c5b2f9020c9d0fc4c13a9a4ad33bbd9e", "fusion_lat": 0.0, "rental_uris": {"ios": "https://dc.lft.to/lastmile_qr_scan", "android": "https://dc.lft.to/lastmile_qr_scan"}, "lon": -77.02512266666666, "type": "electric_scooter"}, {"bike_id": "86937c145dd903cf2ad7396b6fa2aaf5", "is_reserved": 0, "fusion_lon": 0.0, "lat": 38.90615866666667, "is_disabled": 0, "name": "86937c145dd903cf2ad7396b6fa2aaf5", "fusion_lat": 0.0, "rental_uris": {"ios": "https://dc.lft.to/lastmile_qr_scan", "android": "https://dc.lft.to/lastmile_qr_scan"}, "lon": -77.04156316666666, "type": "electric_scooter"}, {"bike_id": "dcb0684c2154d37c9b2e5c708208f162", "is_reserved": 0, "fusion_lon": 0.0, "lat": 38.916952333333334, "is_disabled": 0, "name": "dcb0684c2154d37c9b2e5c708208f162", "fusion_lat": 0.0, "rental_uris": {"ios": "https://dc.lft.to/lastmile_qr_scan", "android": "https://dc.lft.to/lastmile_qr_scan"}, "lon": -77.0081105, "type": "electric_scooter"}, {"bike_id": "69c263ff3a85d8984c5683d34f3d0a13", "is_reserved": 0, "fusion_lon": 0.0, "lat": 38.850658833333334, "is_disabled": 0, "name": "69c263ff3a85d8984c5683d34f3d0a13", "fusion_lat": 0.0, "rental_uris": {"ios": "https://dc.lft.to/lastmile_qr_scan", "android": "https://dc.lft.to/lastmile_qr_scan"}, "lon": -76.97337966666667, "type": "electric_bike"}, {"bike_id": "5667aa8eb03c25d45084d4c2a33c252e", "is_reserved": 0, "fusion_lon": 0.0, "lat": 38.9035565, "is_disabled": 0, "name": "5667aa8eb03c25d45084d4c2a33c252e", "fusion_lat": 0.0, "rental_uris": {"ios": "https://dc.lft.to/lastmile_qr_scan", "android": "https://dc.lft.to/lastmile_qr_scan"}, "lon": -77.04011233333334, "type": "electric_scooter"}, {"bike_id": "93e9ca9e47efd151819a6319d69518c3", "is_reserved": 0, "fusion_lon": 0.0, "lat": 38.923313666666665, "is_disabled": 0, "name": "93e9ca9e47efd151819a6319d69518c3", "fusion_lat": 0.0, "rental_uris": {"ios": "https://dc.lft.to/lastmile_qr_scan", "android": "https://dc.lft.to/lastmile_qr_scan"}, "lon": -77.03894966666667, "type": "electric_scooter"}, {"bike_id": "61732541c659ed29263b4600875a444f", "is_reserved": 0, "fusion_lon": 0.0, "lat": 38.92184016666667, "is_disabled": 0, "name": "61732541c659ed29263b4600875a444f", "fusion_lat": 0.0, "rental_uris": {"ios": "https://dc.lft.to/lastmile_qr_scan", "android": "https://dc.lft.to/lastmile_qr_scan"}, "lon": -77.04134433333333, "type": "electric_scooter"}, {"bike_id": "95c0ab6f0e28d2a44ed60f16053150a2", "is_reserved": 0, "fusion_lon": 0.0, "lat": 38.903092, "is_disabled": 0, "name": "95c0ab6f0e28d2a44ed60f16053150a2", "fusion_lat": 0.0, "rental_uris": {"ios": "https://dc.lft.to/lastmile_qr_scan", "android": "https://dc.lft.to/lastmile_qr_scan"}, "lon": -77.043447, "type": "electric_scooter"}, {"bike_id": "360c472bbfad07154a172690e71ee87e", "is_reserved": 0, "fusion_lon": 0.0, "lat": 38.905113166666666, "is_disabled": 0, "name": "360c472bbfad07154a172690e71ee87e", "fusion_lat": 0.0, "rental_uris": {"ios": "https://dc.lft.to/lastmile_qr_scan", "android": "https://dc.lft.to/lastmile_qr_scan"}, "lon": -77.06865183333333, "type": "electric_scooter"}, {"bike_id": "016d9071d303a2fec8c336b443ae9a4f", "is_reserved": 0, "fusion_lon": 0.0, "lat": 38.92488733333333, "is_disabled": 0, "name": "016d9071d303a2fec8c336b443ae9a4f", "fusion_lat": 0.0, "rental_uris": {"ios": "https://dc.lft.to/lastmile_qr_scan", "android": "https://dc.lft.to/lastmile_qr_scan"}, "lon": -77.02711583333334, "type": "electric_scooter"}, {"bike_id": "f919763d6bb7d5a6a700326efe8e104a", "is_reserved": 0, "fusion_lon": 0.0, "lat": 38.90139533333333, "is_disabled": 0, "name": "f919763d6bb7d5a6a700326efe8e104a", "fusion_lat": 0.0, "rental_uris": {"ios": "https://dc.lft.to/lastmile_qr_scan", "android": "https://dc.lft.to/lastmile_qr_scan"}, "lon": -77.04467433333333, "type": "electric_scooter"}, {"bike_id": "a6ed695c49a328c54ee83cb951340eba", "is_reserved": 0, "fusion_lon": 0.0, "lat": 38.92321916666667, "is_disabled": 0, "name": "a6ed695c49a328c54ee83cb951340eba", "fusion_lat": 0.0, "rental_uris": {"ios": "https://dc.lft.to/lastmile_qr_scan", "android": "https://dc.lft.to/lastmile_qr_scan"}, "lon": -77.04482133333333, "type": "electric_scooter"}, {"bike_id": "ad1635be8b6ad995293055c5453803d0", "is_reserved": 0, "fusion_lon": 0.0, "lat": 38.90089666666667, "is_disabled": 0, "name": "ad1635be8b6ad995293055c5453803d0", "fusion_lat": 0.0, "rental_uris": {"ios": "https://dc.lft.to/lastmile_qr_scan", "android": "https://dc.lft.to/lastmile_qr_scan"}, "lon": -77.0490295, "type": "electric_scooter"}, {"bike_id": "a1d79f8bb2c3561246db21307884e651", "is_reserved": 0, "fusion_lon": 0.0, "lat": 38.901730666666666, "is_disabled": 0, "name": "a1d79f8bb2c3561246db21307884e651", "fusion_lat": 0.0, "rental_uris": {"ios": "https://dc.lft.to/lastmile_qr_scan", "android": "https://dc.lft.to/lastmile_qr_scan"}, "lon": -77.00008716666666, "type": "electric_scooter"}, {"bike_id": "670908c712c308e587c85289ad73546e", "is_reserved": 0, "fusion_lon": 0.0, "lat": 38.86350016666667, "is_disabled": 0, "name": "670908c712c308e587c85289ad73546e", "fusion_lat": 0.0, "rental_uris": {"ios": "https://dc.lft.to/lastmile_qr_scan", "android": "https://dc.lft.to/lastmile_qr_scan"}, "lon": -76.9906825, "type": "electric_scooter"}, {"bike_id": "c92826b317a07bd810b146589dd93c9c", "is_reserved": 0, "fusion_lon": 0.0, "lat": 38.95810866666667, "is_disabled": 0, "name": "c92826b317a07bd810b146589dd93c9c", "fusion_lat": 0.0, "rental_uris": {"ios": "https://dc.lft.to/lastmile_qr_scan", "android": "https://dc.lft.to/lastmile_qr_scan"}, "lon": -77.01382916666667, "type": "electric_bike"}, {"bike_id": "f2e14718906f7e4c293a427b46312602", "is_reserved": 0, "fusion_lon": 0.0, "lat": 38.884303333333335, "is_disabled": 0, "name": "f2e14718906f7e4c293a427b46312602", "fusion_lat": 0.0, "rental_uris": {"ios": "https://dc.lft.to/lastmile_qr_scan", "android": "https://dc.lft.to/lastmile_qr_scan"}, "lon": -77.03046333333333, "type": "electric_scooter"}, {"bike_id": "658fc0292f654563f9cd05dbc032271f", "is_reserved": 0, "fusion_lon": 0.0, "lat": 38.90455816666667, "is_disabled": 0, "name": "658fc0292f654563f9cd05dbc032271f", "fusion_lat": 0.0, "rental_uris": {"ios": "https://dc.lft.to/lastmile_qr_scan", "android": "https://dc.lft.to/lastmile_qr_scan"}, "lon": -77.059212, "type": "electric_scooter"}, {"bike_id": "e4cdf9903801ede7fe778b35e6929e4b", "is_reserved": 0, "fusion_lon": 0.0, "lat": 38.941794333333334, "is_disabled": 0, "name": "e4cdf9903801ede7fe778b35e6929e4b", "fusion_lat": 0.0, "rental_uris": {"ios": "https://dc.lft.to/lastmile_qr_scan", "android": "https://dc.lft.to/lastmile_qr_scan"}, "lon": -77.02531416666666, "type": "electric_scooter"}, {"bike_id": "b931f9f3123cebe944b195dfab684cfa", "is_reserved": 0, "fusion_lon": 0.0, "lat": 38.864132833333336, "is_disabled": 0, "name": "b931f9f3123cebe944b195dfab684cfa", "fusion_lat": 0.0, "rental_uris": {"ios": "https://dc.lft.to/lastmile_qr_scan", "android": "https://dc.lft.to/lastmile_qr_scan"}, "lon": -77.01359783333334, "type": "electric_scooter"}, {"bike_id": "95ee57d7e99e5a45f6d9aa0af64bcf70", "is_reserved": 0, "fusion_lon": 0.0, "lat": 38.9142055, "is_disabled": 0, "name": "95ee57d7e99e5a45f6d9aa0af64bcf70", "fusion_lat": 0.0, "rental_uris": {"ios": "https://dc.lft.to/lastmile_qr_scan", "android": "https://dc.lft.to/lastmile_qr_scan"}, "lon": -77.039081, "type": "electric_scooter"}, {"bike_id": "47a4c55c3ad2e62dd6a1b77b160cb46f", "is_reserved": 0, "fusion_lon": 0.0, "lat": 38.9095465, "is_disabled": 0, "name": "47a4c55c3ad2e62dd6a1b77b160cb46f", "fusion_lat": 0.0, "rental_uris": {"ios": "https://dc.lft.to/lastmile_qr_scan", "android": "https://dc.lft.to/lastmile_qr_scan"}, "lon": -77.03424266666667, "type": "electric_scooter"}, {"bike_id": "819e961bb205718279db23abe2d1dcda", "is_reserved": 0, "fusion_lon": 0.0, "lat": 38.905617166666666, "is_disabled": 0, "name": "819e961bb205718279db23abe2d1dcda", "fusion_lat": 0.0, "rental_uris": {"ios": "https://dc.lft.to/lastmile_qr_scan", "android": "https://dc.lft.to/lastmile_qr_scan"}, "lon": -76.997947, "type": "electric_bike"}, {"bike_id": "b4ed541e8d4859dcd374f426f907d7df", "is_reserved": 0, "fusion_lon": 0.0, "lat": 38.866972833333335, "is_disabled": 0, "name": "b4ed541e8d4859dcd374f426f907d7df", "fusion_lat": 0.0, "rental_uris": {"ios": "https://dc.lft.to/lastmile_qr_scan", "android": "https://dc.lft.to/lastmile_qr_scan"}, "lon": -76.98713566666666, "type": "electric_scooter"}, {"bike_id": "6e70b58d2ea05b03b51f29cde5dd5983", "is_reserved": 0, "fusion_lon": 0.0, "lat": 38.90064733333333, "is_disabled": 0, "name": "6e70b58d2ea05b03b51f29cde5dd5983", "fusion_lat": 0.0, "rental_uris": {"ios": "https://dc.lft.to/lastmile_qr_scan", "android": "https://dc.lft.to/lastmile_qr_scan"}, "lon": -76.93386416666667, "type": "electric_scooter"}, {"bike_id": "f112701ae6dd252467ad906de8180969", "is_reserved": 0, "fusion_lon": 0.0, "lat": 38.9073575, "is_disabled": 0, "name": "f112701ae6dd252467ad906de8180969", "fusion_lat": 0.0, "rental_uris": {"ios": "https://dc.lft.to/lastmile_qr_scan", "android": "https://dc.lft.to/lastmile_qr_scan"}, "lon": -77.03480133333333, "type": "electric_scooter"}, {"bike_id": "a8c3acff91fd6f8924d4568f9695232a", "is_reserved": 0, "fusion_lon": 0.0, "lat": 38.922918833333334, "is_disabled": 0, "name": "a8c3acff91fd6f8924d4568f9695232a", "fusion_lat": 0.0, "rental_uris": {"ios": "https://dc.lft.to/lastmile_qr_scan", "android": "https://dc.lft.to/lastmile_qr_scan"}, "lon": -77.0207635, "type": "electric_scooter"}, {"bike_id": "5e51b8e5f83c7127ac7c84628aec7567", "is_reserved": 0, "fusion_lon": 0.0, "lat": 38.94152233333333, "is_disabled": 0, "name": "5e51b8e5f83c7127ac7c84628aec7567", "fusion_lat": 0.0, "rental_uris": {"ios": "https://dc.lft.to/lastmile_qr_scan", "android": "https://dc.lft.to/lastmile_qr_scan"}, "lon": -77.03648833333334, "type": "electric_scooter"}, {"bike_id": "2997d607ec314c54edd8708ad1fcf6b0", "is_reserved": 0, "fusion_lon": 0.0, "lat": 38.90534483333333, "is_disabled": 0, "name": "2997d607ec314c54edd8708ad1fcf6b0", "fusion_lat": 0.0, "rental_uris": {"ios": "https://dc.lft.to/lastmile_qr_scan", "android": "https://dc.lft.to/lastmile_qr_scan"}, "lon": -76.99809716666667, "type": "electric_bike"}, {"bike_id": "1ef518e5937a39fcb25ac88e5c160752", "is_reserved": 0, "fusion_lon": 0.0, "lat": 38.8967415, "is_disabled": 0, "name": "1ef518e5937a39fcb25ac88e5c160752", "fusion_lat": 0.0, "rental_uris": {"ios": "https://dc.lft.to/lastmile_qr_scan", "android": "https://dc.lft.to/lastmile_qr_scan"}, "lon": -77.0540235, "type": "electric_scooter"}, {"bike_id": "3de224274e3c46e0bef758a9ac47d0c1", "is_reserved": 0, "fusion_lon": 0.0, "lat": 38.88432916666667, "is_disabled": 0, "name": "3de224274e3c46e0bef758a9ac47d0c1", "fusion_lat": 0.0, "rental_uris": {"ios": "https://dc.lft.to/lastmile_qr_scan", "android": "https://dc.lft.to/lastmile_qr_scan"}, "lon": -76.957539, "type": "electric_scooter"}, {"bike_id": "9d63225ea77b06c7f35737d83589b93f", "is_reserved": 0, "fusion_lon": 0.0, "lat": 38.91336316666667, "is_disabled": 0, "name": "9d63225ea77b06c7f35737d83589b93f", "fusion_lat": 0.0, "rental_uris": {"ios": "https://dc.lft.to/lastmile_qr_scan", "android": "https://dc.lft.to/lastmile_qr_scan"}, "lon": -77.03043266666667, "type": "electric_scooter"}, {"bike_id": "1446676eda09e99cac5c06e8b45685cd", "is_reserved": 0, "fusion_lon": 0.0, "lat": 38.99090433333333, "is_disabled": 0, "name": "1446676eda09e99cac5c06e8b45685cd", "fusion_lat": 0.0, "rental_uris": {"ios": "https://dc.lft.to/lastmile_qr_scan", "android": "https://dc.lft.to/lastmile_qr_scan"}, "lon": -76.87497316666666, "type": "electric_bike"}, {"bike_id": "d970eb77fa1784ce1f0da922d4afd2e5", "is_reserved": 0, "fusion_lon": 0.0, "lat": 38.924045666666665, "is_disabled": 0, "name": "d970eb77fa1784ce1f0da922d4afd2e5", "fusion_lat": 0.0, "rental_uris": {"ios": "https://dc.lft.to/lastmile_qr_scan", "android": "https://dc.lft.to/lastmile_qr_scan"}, "lon": -77.02544066666667, "type": "electric_scooter"}, {"bike_id": "fe6a474467cf654499a4b2c6b4959368", "is_reserved": 0, "fusion_lon": 0.0, "lat": 38.922913, "is_disabled": 0, "name": "fe6a474467cf654499a4b2c6b4959368", "fusion_lat": 0.0, "rental_uris": {"ios": "https://dc.lft.to/lastmile_qr_scan", "android": "https://dc.lft.to/lastmile_qr_scan"}, "lon": -77.03197333333334, "type": "electric_scooter"}, {"bike_id": "726b99822f05f26418d6616934bb8acc", "is_reserved": 0, "fusion_lon": 0.0, "lat": 38.93600333333333, "is_disabled": 0, "name": "726b99822f05f26418d6616934bb8acc", "fusion_lat": 0.0, "rental_uris": {"ios": "https://dc.lft.to/lastmile_qr_scan", "android": "https://dc.lft.to/lastmile_qr_scan"}, "lon": -77.0231945, "type": "electric_scooter"}, {"bike_id": "3469d42c8a51579c1f08a0066608319b", "is_reserved": 0, "fusion_lon": 0.0, "lat": 38.9342425, "is_disabled": 0, "name": "3469d42c8a51579c1f08a0066608319b", "fusion_lat": 0.0, "rental_uris": {"ios": "https://dc.lft.to/lastmile_qr_scan", "android": "https://dc.lft.to/lastmile_qr_scan"}, "lon": -77.03410383333333, "type": "electric_scooter"}, {"bike_id": "d62e05e2fc4924371edbdf8a8f53924d", "is_reserved": 0, "fusion_lon": 0.0, "lat": 38.906693, "is_disabled": 0, "name": "d62e05e2fc4924371edbdf8a8f53924d", "fusion_lat": 0.0, "rental_uris": {"ios": "https://dc.lft.to/lastmile_qr_scan", "android": "https://dc.lft.to/lastmile_qr_scan"}, "lon": -76.97814066666666, "type": "electric_scooter"}, {"bike_id": "8a33614955584d9dac08d55fe5510f39", "is_reserved": 0, "fusion_lon": 0.0, "lat": 38.924458666666666, "is_disabled": 0, "name": "8a33614955584d9dac08d55fe5510f39", "fusion_lat": 0.0, "rental_uris": {"ios": "https://dc.lft.to/lastmile_qr_scan", "android": "https://dc.lft.to/lastmile_qr_scan"}, "lon": -77.034011, "type": "electric_scooter"}, {"bike_id": "362786b83f8d53af95dfb7b03ac579dc", "is_reserved": 0, "fusion_lon": 0.0, "lat": 38.911042, "is_disabled": 0, "name": "362786b83f8d53af95dfb7b03ac579dc", "fusion_lat": 0.0, "rental_uris": {"ios": "https://dc.lft.to/lastmile_qr_scan", "android": "https://dc.lft.to/lastmile_qr_scan"}, "lon": -77.04933683333333, "type": "electric_scooter"}, {"bike_id": "ec250d6284826eeb5677935cf8134932", "is_reserved": 0, "fusion_lon": 0.0, "lat": 38.916987, "is_disabled": 0, "name": "ec250d6284826eeb5677935cf8134932", "fusion_lat": 0.0, "rental_uris": {"ios": "https://dc.lft.to/lastmile_qr_scan", "android": "https://dc.lft.to/lastmile_qr_scan"}, "lon": -77.029395, "type": "electric_scooter"}, {"bike_id": "fa67b33a72a7ccb467b903bff214e929", "is_reserved": 0, "fusion_lon": 0.0, "lat": 38.924634833333336, "is_disabled": 0, "name": "fa67b33a72a7ccb467b903bff214e929", "fusion_lat": 0.0, "rental_uris": {"ios": "https://dc.lft.to/lastmile_qr_scan", "android": "https://dc.lft.to/lastmile_qr_scan"}, "lon": -77.20844183333334, "type": "electric_bike"}, {"bike_id": "a5dbf5a897db98f298e6b17beba550b1", "is_reserved": 0, "fusion_lon": 0.0, "lat": 38.9555515, "is_disabled": 0, "name": "a5dbf5a897db98f298e6b17beba550b1", "fusion_lat": 0.0, "rental_uris": {"ios": "https://dc.lft.to/lastmile_qr_scan", "android": "https://dc.lft.to/lastmile_qr_scan"}, "lon": -76.9354465, "type": "electric_bike"}, {"bike_id": "ed7e4caa554c099c9ee8c4b2370d1912", "is_reserved": 0, "fusion_lon": 0.0, "lat": 38.925489666666664, "is_disabled": 0, "name": "ed7e4caa554c099c9ee8c4b2370d1912", "fusion_lat": 0.0, "rental_uris": {"ios": "https://dc.lft.to/lastmile_qr_scan", "android": "https://dc.lft.to/lastmile_qr_scan"}, "lon": -77.00133066666666, "type": "electric_bike"}, {"bike_id": "c2cf560a5823f89c6eedf635305d753d", "is_reserved": 0, "fusion_lon": 0.0, "lat": 38.914434166666666, "is_disabled": 0, "name": "c2cf560a5823f89c6eedf635305d753d", "fusion_lat": 0.0, "rental_uris": {"ios": "https://dc.lft.to/lastmile_qr_scan", "android": "https://dc.lft.to/lastmile_qr_scan"}, "lon": -77.04594416666667, "type": "electric_scooter"}, {"bike_id": "af7ced8e64b804e50e82d84542588c33", "is_reserved": 0, "fusion_lon": 0.0, "lat": 38.897895166666665, "is_disabled": 0, "name": "af7ced8e64b804e50e82d84542588c33", "fusion_lat": 0.0, "rental_uris": {"ios": "https://dc.lft.to/lastmile_qr_scan", "android": "https://dc.lft.to/lastmile_qr_scan"}, "lon": -76.999639, "type": "electric_bike"}, {"bike_id": "511003cf2887b48783bcfc6200396991", "is_reserved": 0, "fusion_lon": 0.0, "lat": 38.908312333333335, "is_disabled": 0, "name": "511003cf2887b48783bcfc6200396991", "fusion_lat": 0.0, "rental_uris": {"ios": "https://dc.lft.to/lastmile_qr_scan", "android": "https://dc.lft.to/lastmile_qr_scan"}, "lon": -76.9970305, "type": "electric_scooter"}, {"bike_id": "038c1f88c1939e266bc22df3fa0e7f60", "is_reserved": 0, "fusion_lon": 0.0, "lat": 38.9127095, "is_disabled": 0, "name": "038c1f88c1939e266bc22df3fa0e7f60", "fusion_lat": 0.0, "rental_uris": {"ios": "https://dc.lft.to/lastmile_qr_scan", "android": "https://dc.lft.to/lastmile_qr_scan"}, "lon": -77.022081, "type": "electric_scooter"}, {"bike_id": "ff35efd2ffeaf31a6c72fe14fc6d866d", "is_reserved": 0, "fusion_lon": 0.0, "lat": 38.912549, "is_disabled": 0, "name": "ff35efd2ffeaf31a6c72fe14fc6d866d", "fusion_lat": 0.0, "rental_uris": {"ios": "https://dc.lft.to/lastmile_qr_scan", "android": "https://dc.lft.to/lastmile_qr_scan"}, "lon": -77.03827016666666, "type": "electric_scooter"}, {"bike_id": "4831075bd71d765589196b0d77b7a6b6", "is_reserved": 0, "fusion_lon": 0.0, "lat": 38.92440583333333, "is_disabled": 0, "name": "4831075bd71d765589196b0d77b7a6b6", "fusion_lat": 0.0, "rental_uris": {"ios": "https://dc.lft.to/lastmile_qr_scan", "android": "https://dc.lft.to/lastmile_qr_scan"}, "lon": -77.03359616666667, "type": "electric_scooter"}, {"bike_id": "1cad7b7d288648b366fcc383f5f333af", "is_reserved": 0, "fusion_lon": 0.0, "lat": 38.8918645, "is_disabled": 0, "name": "1cad7b7d288648b366fcc383f5f333af", "fusion_lat": 0.0, "rental_uris": {"ios": "https://dc.lft.to/lastmile_qr_scan", "android": "https://dc.lft.to/lastmile_qr_scan"}, "lon": -77.12266016666666, "type": "electric_bike"}, {"bike_id": "33e0555b62e699bbd26b7e12bb7b2c2c", "is_reserved": 0, "fusion_lon": 0.0, "lat": 38.88040083333333, "is_disabled": 0, "name": "33e0555b62e699bbd26b7e12bb7b2c2c", "fusion_lat": 0.0, "rental_uris": {"ios": "https://dc.lft.to/lastmile_qr_scan", "android": "https://dc.lft.to/lastmile_qr_scan"}, "lon": -76.927222, "type": "electric_scooter"}, {"bike_id": "0d9a6c782285c5f003aa0ce79e2a3a8c", "is_reserved": 0, "fusion_lon": 0.0, "lat": 38.900492, "is_disabled": 0, "name": "0d9a6c782285c5f003aa0ce79e2a3a8c", "fusion_lat": 0.0, "rental_uris": {"ios": "https://dc.lft.to/lastmile_qr_scan", "android": "https://dc.lft.to/lastmile_qr_scan"}, "lon": -77.03190533333333, "type": "electric_scooter"}, {"bike_id": "a306ce8faa4105354f2586918c631617", "is_reserved": 0, "fusion_lon": 0.0, "lat": 38.91394783333333, "is_disabled": 0, "name": "a306ce8faa4105354f2586918c631617", "fusion_lat": 0.0, "rental_uris": {"ios": "https://dc.lft.to/lastmile_qr_scan", "android": "https://dc.lft.to/lastmile_qr_scan"}, "lon": -77.04611366666667, "type": "electric_scooter"}, {"bike_id": "a1b38ad69c10a08e223caa42b50628d4", "is_reserved": 0, "fusion_lon": 0.0, "lat": 38.894562666666666, "is_disabled": 0, "name": "a1b38ad69c10a08e223caa42b50628d4", "fusion_lat": 0.0, "rental_uris": {"ios": "https://dc.lft.to/lastmile_qr_scan", "android": "https://dc.lft.to/lastmile_qr_scan"}, "lon": -76.97039366666667, "type": "electric_bike"}, {"bike_id": "9da985639ee27aa0115cdc8a7bcd08e3", "is_reserved": 0, "fusion_lon": 0.0, "lat": 38.9063465, "is_disabled": 0, "name": "9da985639ee27aa0115cdc8a7bcd08e3", "fusion_lat": 0.0, "rental_uris": {"ios": "https://dc.lft.to/lastmile_qr_scan", "android": "https://dc.lft.to/lastmile_qr_scan"}, "lon": -77.034687, "type": "electric_scooter"}, {"bike_id": "9498aeb40b2e239552e5d1bbafeb2466", "is_reserved": 0, "fusion_lon": 0.0, "lat": 38.893626, "is_disabled": 0, "name": "9498aeb40b2e239552e5d1bbafeb2466", "fusion_lat": 0.0, "rental_uris": {"ios": "https://dc.lft.to/lastmile_qr_scan", "android": "https://dc.lft.to/lastmile_qr_scan"}, "lon": -77.02831083333334, "type": "electric_scooter"}, {"bike_id": "cb2b19cd7200f838593e4f3f0d5d38b6", "is_reserved": 0, "fusion_lon": 0.0, "lat": 38.90884666666667, "is_disabled": 0, "name": "cb2b19cd7200f838593e4f3f0d5d38b6", "fusion_lat": 0.0, "rental_uris": {"ios": "https://dc.lft.to/lastmile_qr_scan", "android": "https://dc.lft.to/lastmile_qr_scan"}, "lon": -77.043261, "type": "electric_scooter"}, {"bike_id": "f4c3aa0df24cc2ab2a3b817908b8b607", "is_reserved": 0, "fusion_lon": 0.0, "lat": 38.9259615, "is_disabled": 0, "name": "f4c3aa0df24cc2ab2a3b817908b8b607", "fusion_lat": 0.0, "rental_uris": {"ios": "https://dc.lft.to/lastmile_qr_scan", "android": "https://dc.lft.to/lastmile_qr_scan"}, "lon": -77.02130033333333, "type": "electric_scooter"}, {"bike_id": "5d14d7c481f28d5e8e273084d8139ac1", "is_reserved": 0, "fusion_lon": 0.0, "lat": 38.910136, "is_disabled": 0, "name": "5d14d7c481f28d5e8e273084d8139ac1", "fusion_lat": 0.0, "rental_uris": {"ios": "https://dc.lft.to/lastmile_qr_scan", "android": "https://dc.lft.to/lastmile_qr_scan"}, "lon": -77.0385415, "type": "electric_scooter"}, {"bike_id": "66f4131c13f68e094e423d4a821826c6", "is_reserved": 0, "fusion_lon": 0.0, "lat": 38.82261233333333, "is_disabled": 0, "name": "66f4131c13f68e094e423d4a821826c6", "fusion_lat": 0.0, "rental_uris": {"ios": "https://dc.lft.to/lastmile_qr_scan", "android": "https://dc.lft.to/lastmile_qr_scan"}, "lon": -77.00552966666666, "type": "electric_bike"}, {"bike_id": "9307132e4bfcd7ab1985ac059d906859", "is_reserved": 0, "fusion_lon": 0.0, "lat": 38.9337345, "is_disabled": 0, "name": "9307132e4bfcd7ab1985ac059d906859", "fusion_lat": 0.0, "rental_uris": {"ios": "https://dc.lft.to/lastmile_qr_scan", "android": "https://dc.lft.to/lastmile_qr_scan"}, "lon": -77.0571625, "type": "electric_scooter"}, {"bike_id": "810adef1e9331d71d7588ee040837533", "is_reserved": 0, "fusion_lon": 0.0, "lat": 38.91040566666667, "is_disabled": 0, "name": "810adef1e9331d71d7588ee040837533", "fusion_lat": 0.0, "rental_uris": {"ios": "https://dc.lft.to/lastmile_qr_scan", "android": "https://dc.lft.to/lastmile_qr_scan"}, "lon": -77.03581166666666, "type": "electric_scooter"}, {"bike_id": "89418c420e8a3b3a98473e8ba77ede23", "is_reserved": 0, "fusion_lon": 0.0, "lat": 38.9077405, "is_disabled": 0, "name": "89418c420e8a3b3a98473e8ba77ede23", "fusion_lat": 0.0, "rental_uris": {"ios": "https://dc.lft.to/lastmile_qr_scan", "android": "https://dc.lft.to/lastmile_qr_scan"}, "lon": -77.03822933333333, "type": "electric_scooter"}, {"bike_id": "3726d50a9a59a471a81d92d26704d040", "is_reserved": 0, "fusion_lon": 0.0, "lat": 38.933578833333335, "is_disabled": 0, "name": "3726d50a9a59a471a81d92d26704d040", "fusion_lat": 0.0, "rental_uris": {"ios": "https://dc.lft.to/lastmile_qr_scan", "android": "https://dc.lft.to/lastmile_qr_scan"}, "lon": -77.03425083333333, "type": "electric_scooter"}, {"bike_id": "106fcef0c06b2920af61339a353f704f", "is_reserved": 0, "fusion_lon": 0.0, "lat": 38.918046333333336, "is_disabled": 0, "name": "106fcef0c06b2920af61339a353f704f", "fusion_lat": 0.0, "rental_uris": {"ios": "https://dc.lft.to/lastmile_qr_scan", "android": "https://dc.lft.to/lastmile_qr_scan"}, "lon": -77.03183183333333, "type": "electric_scooter"}, {"bike_id": "bd4153cb9f8cd5ddf6b607d269ee8410", "is_reserved": 0, "fusion_lon": 0.0, "lat": 38.864232333333334, "is_disabled": 0, "name": "bd4153cb9f8cd5ddf6b607d269ee8410", "fusion_lat": 0.0, "rental_uris": {"ios": "https://dc.lft.to/lastmile_qr_scan", "android": "https://dc.lft.to/lastmile_qr_scan"}, "lon": -76.98581116666666, "type": "electric_scooter"}, {"bike_id": "27661c227fb47a23b2b10da2201aec65", "is_reserved": 0, "fusion_lon": 0.0, "lat": 38.942874833333335, "is_disabled": 0, "name": "27661c227fb47a23b2b10da2201aec65", "fusion_lat": 0.0, "rental_uris": {"ios": "https://dc.lft.to/lastmile_qr_scan", "android": "https://dc.lft.to/lastmile_qr_scan"}, "lon": -77.0217475, "type": "electric_scooter"}, {"bike_id": "d9400a41a6dcd8510b6562448e0ddfd4", "is_reserved": 0, "fusion_lon": 0.0, "lat": 38.93391666666667, "is_disabled": 0, "name": "d9400a41a6dcd8510b6562448e0ddfd4", "fusion_lat": 0.0, "rental_uris": {"ios": "https://dc.lft.to/lastmile_qr_scan", "android": "https://dc.lft.to/lastmile_qr_scan"}, "lon": -77.03582233333333, "type": "electric_scooter"}, {"bike_id": "dee0ee154e260f534b5a7b5e06745981", "is_reserved": 0, "fusion_lon": 0.0, "lat": 38.90856383333333, "is_disabled": 0, "name": "dee0ee154e260f534b5a7b5e06745981", "fusion_lat": 0.0, "rental_uris": {"ios": "https://dc.lft.to/lastmile_qr_scan", "android": "https://dc.lft.to/lastmile_qr_scan"}, "lon": -77.02731133333333, "type": "electric_scooter"}, {"bike_id": "c47ebf6e3ac4db86cc87cea4a6094be1", "is_reserved": 0, "fusion_lon": 0.0, "lat": 38.90913166666667, "is_disabled": 0, "name": "c47ebf6e3ac4db86cc87cea4a6094be1", "fusion_lat": 0.0, "rental_uris": {"ios": "https://dc.lft.to/lastmile_qr_scan", "android": "https://dc.lft.to/lastmile_qr_scan"}, "lon": -77.0092255, "type": "electric_scooter"}, {"bike_id": "53f96248f87ed229bf83749c72f9de01", "is_reserved": 0, "fusion_lon": 0.0, "lat": 38.909827666666665, "is_disabled": 0, "name": "53f96248f87ed229bf83749c72f9de01", "fusion_lat": 0.0, "rental_uris": {"ios": "https://dc.lft.to/lastmile_qr_scan", "android": "https://dc.lft.to/lastmile_qr_scan"}, "lon": -77.023896, "type": "electric_scooter"}, {"bike_id": "4e69170e02d467cdefd1e09e92a8c5c8", "is_reserved": 0, "fusion_lon": 0.0, "lat": 38.91193033333333, "is_disabled": 0, "name": "4e69170e02d467cdefd1e09e92a8c5c8", "fusion_lat": 0.0, "rental_uris": {"ios": "https://dc.lft.to/lastmile_qr_scan", "android": "https://dc.lft.to/lastmile_qr_scan"}, "lon": -77.03263966666667, "type": "electric_scooter"}, {"bike_id": "312253871b4085d79607cda719e18bf2", "is_reserved": 0, "fusion_lon": 0.0, "lat": 38.897332, "is_disabled": 0, "name": "312253871b4085d79607cda719e18bf2", "fusion_lat": 0.0, "rental_uris": {"ios": "https://dc.lft.to/lastmile_qr_scan", "android": "https://dc.lft.to/lastmile_qr_scan"}, "lon": -77.054748, "type": "electric_scooter"}, {"bike_id": "74dcdb0776375f0596b26e254bb52f30", "is_reserved": 0, "fusion_lon": 0.0, "lat": 38.902545333333336, "is_disabled": 0, "name": "74dcdb0776375f0596b26e254bb52f30", "fusion_lat": 0.0, "rental_uris": {"ios": "https://dc.lft.to/lastmile_qr_scan", "android": "https://dc.lft.to/lastmile_qr_scan"}, "lon": -77.01622216666667, "type": "electric_scooter"}, {"bike_id": "9b16220cc2e797b55bedf3e56eef070e", "is_reserved": 0, "fusion_lon": 0.0, "lat": 38.89216666666667, "is_disabled": 0, "name": "9b16220cc2e797b55bedf3e56eef070e", "fusion_lat": 0.0, "rental_uris": {"ios": "https://dc.lft.to/lastmile_qr_scan", "android": "https://dc.lft.to/lastmile_qr_scan"}, "lon": -77.10782233333333, "type": "electric_bike"}, {"bike_id": "cd740a71191f2c71a457dd61efe0b695", "is_reserved": 0, "fusion_lon": 0.0, "lat": 38.931122333333334, "is_disabled": 0, "name": "cd740a71191f2c71a457dd61efe0b695", "fusion_lat": 0.0, "rental_uris": {"ios": "https://dc.lft.to/lastmile_qr_scan", "android": "https://dc.lft.to/lastmile_qr_scan"}, "lon": -77.03819, "type": "electric_scooter"}, {"bike_id": "3b30ae49a7e436f23e946405a5d351a4", "is_reserved": 0, "fusion_lon": 0.0, "lat": 38.932500833333336, "is_disabled": 0, "name": "3b30ae49a7e436f23e946405a5d351a4", "fusion_lat": 0.0, "rental_uris": {"ios": "https://dc.lft.to/lastmile_qr_scan", "android": "https://dc.lft.to/lastmile_qr_scan"}, "lon": -77.03267916666667, "type": "electric_scooter"}, {"bike_id": "6f0362e95dd6906d53a660dc66051685", "is_reserved": 0, "fusion_lon": 0.0, "lat": 38.905108, "is_disabled": 0, "name": "6f0362e95dd6906d53a660dc66051685", "fusion_lat": 0.0, "rental_uris": {"ios": "https://dc.lft.to/lastmile_qr_scan", "android": "https://dc.lft.to/lastmile_qr_scan"}, "lon": -77.067466, "type": "electric_scooter"}, {"bike_id": "dae2efa4a97dbdce41110087d6d39f8f", "is_reserved": 0, "fusion_lon": 0.0, "lat": 38.932955166666666, "is_disabled": 0, "name": "dae2efa4a97dbdce41110087d6d39f8f", "fusion_lat": 0.0, "rental_uris": {"ios": "https://dc.lft.to/lastmile_qr_scan", "android": "https://dc.lft.to/lastmile_qr_scan"}, "lon": -77.02839733333333, "type": "electric_scooter"}, {"bike_id": "9ad51f5cbdc0cdb3e03254c56192e135", "is_reserved": 0, "fusion_lon": 0.0, "lat": 38.91802716666667, "is_disabled": 0, "name": "9ad51f5cbdc0cdb3e03254c56192e135", "fusion_lat": 0.0, "rental_uris": {"ios": "https://dc.lft.to/lastmile_qr_scan", "android": "https://dc.lft.to/lastmile_qr_scan"}, "lon": -77.03433233333334, "type": "electric_scooter"}, {"bike_id": "b10c34f4f78e8cb77459436ff35495c5", "is_reserved": 0, "fusion_lon": 0.0, "lat": 38.90269766666667, "is_disabled": 0, "name": "b10c34f4f78e8cb77459436ff35495c5", "fusion_lat": 0.0, "rental_uris": {"ios": "https://dc.lft.to/lastmile_qr_scan", "android": "https://dc.lft.to/lastmile_qr_scan"}, "lon": -77.06113416666666, "type": "electric_scooter"}, {"bike_id": "4b6e49ba49b7d279fbfe5aacfafc04df", "is_reserved": 0, "fusion_lon": 0.0, "lat": 38.913998, "is_disabled": 0, "name": "4b6e49ba49b7d279fbfe5aacfafc04df", "fusion_lat": 0.0, "rental_uris": {"ios": "https://dc.lft.to/lastmile_qr_scan", "android": "https://dc.lft.to/lastmile_qr_scan"}, "lon": -77.0414265, "type": "electric_scooter"}, {"bike_id": "49ad8e856cb74a50c46ecba490e40610", "is_reserved": 0, "fusion_lon": 0.0, "lat": 38.924142, "is_disabled": 0, "name": "49ad8e856cb74a50c46ecba490e40610", "fusion_lat": 0.0, "rental_uris": {"ios": "https://dc.lft.to/lastmile_qr_scan", "android": "https://dc.lft.to/lastmile_qr_scan"}, "lon": -76.99734183333334, "type": "electric_bike"}, {"bike_id": "6918d24993c1328d6e7368ce4e9f239c", "is_reserved": 0, "fusion_lon": 0.0, "lat": 38.842921, "is_disabled": 0, "name": "6918d24993c1328d6e7368ce4e9f239c", "fusion_lat": 0.0, "rental_uris": {"ios": "https://dc.lft.to/lastmile_qr_scan", "android": "https://dc.lft.to/lastmile_qr_scan"}, "lon": -76.99951283333333, "type": "electric_scooter"}, {"bike_id": "6990f065da74ef369e24a966931e33f5", "is_reserved": 0, "fusion_lon": 0.0, "lat": 38.89835216666667, "is_disabled": 0, "name": "6990f065da74ef369e24a966931e33f5", "fusion_lat": 0.0, "rental_uris": {"ios": "https://dc.lft.to/lastmile_qr_scan", "android": "https://dc.lft.to/lastmile_qr_scan"}, "lon": -77.00764116666667, "type": "electric_scooter"}, {"bike_id": "adb3747e93d3867c3580c593d3bccc91", "is_reserved": 0, "fusion_lon": 0.0, "lat": 38.9138465, "is_disabled": 0, "name": "adb3747e93d3867c3580c593d3bccc91", "fusion_lat": 0.0, "rental_uris": {"ios": "https://dc.lft.to/lastmile_qr_scan", "android": "https://dc.lft.to/lastmile_qr_scan"}, "lon": -77.017961, "type": "electric_scooter"}, {"bike_id": "2d746c78201c0a4bddaf493dff988db8", "is_reserved": 0, "fusion_lon": 0.0, "lat": 38.873594833333335, "is_disabled": 0, "name": "2d746c78201c0a4bddaf493dff988db8", "fusion_lat": 0.0, "rental_uris": {"ios": "https://dc.lft.to/lastmile_qr_scan", "android": "https://dc.lft.to/lastmile_qr_scan"}, "lon": -76.971669, "type": "electric_scooter"}, {"bike_id": "e99dea8cf5ee631f251340e1e8bfa6e5", "is_reserved": 0, "fusion_lon": 0.0, "lat": 38.8948455, "is_disabled": 0, "name": "e99dea8cf5ee631f251340e1e8bfa6e5", "fusion_lat": 0.0, "rental_uris": {"ios": "https://dc.lft.to/lastmile_qr_scan", "android": "https://dc.lft.to/lastmile_qr_scan"}, "lon": -77.012238, "type": "electric_scooter"}, {"bike_id": "4e8a5c230a7a080a0c685a3d6d0e9712", "is_reserved": 0, "fusion_lon": 0.0, "lat": 38.88392116666667, "is_disabled": 0, "name": "4e8a5c230a7a080a0c685a3d6d0e9712", "fusion_lat": 0.0, "rental_uris": {"ios": "https://dc.lft.to/lastmile_qr_scan", "android": "https://dc.lft.to/lastmile_qr_scan"}, "lon": -76.93043833333333, "type": "electric_scooter"}, {"bike_id": "7bb86946619bb137b06b1fb9f6bc5ee1", "is_reserved": 0, "fusion_lon": 0.0, "lat": 38.916979833333336, "is_disabled": 0, "name": "7bb86946619bb137b06b1fb9f6bc5ee1", "fusion_lat": 0.0, "rental_uris": {"ios": "https://dc.lft.to/lastmile_qr_scan", "android": "https://dc.lft.to/lastmile_qr_scan"}, "lon": -77.02254616666667, "type": "electric_scooter"}, {"bike_id": "3a0a1a9953c6962b0d4a4070413443c0", "is_reserved": 0, "fusion_lon": 0.0, "lat": 38.907402, "is_disabled": 0, "name": "3a0a1a9953c6962b0d4a4070413443c0", "fusion_lat": 0.0, "rental_uris": {"ios": "https://dc.lft.to/lastmile_qr_scan", "android": "https://dc.lft.to/lastmile_qr_scan"}, "lon": -77.03475516666667, "type": "electric_scooter"}, {"bike_id": "4bbf098f1ba2a5809c497a532671cca9", "is_reserved": 0, "fusion_lon": 0.0, "lat": 38.898321333333335, "is_disabled": 0, "name": "4bbf098f1ba2a5809c497a532671cca9", "fusion_lat": 0.0, "rental_uris": {"ios": "https://dc.lft.to/lastmile_qr_scan", "android": "https://dc.lft.to/lastmile_qr_scan"}, "lon": -76.946363, "type": "electric_scooter"}, {"bike_id": "fcabb6ad8120b7ca2c2f7aa55b500961", "is_reserved": 0, "fusion_lon": 0.0, "lat": 38.86176233333333, "is_disabled": 0, "name": "fcabb6ad8120b7ca2c2f7aa55b500961", "fusion_lat": 0.0, "rental_uris": {"ios": "https://dc.lft.to/lastmile_qr_scan", "android": "https://dc.lft.to/lastmile_qr_scan"}, "lon": -76.96909, "type": "electric_scooter"}, {"bike_id": "a861154dd140a66204c4145d187dab95", "is_reserved": 0, "fusion_lon": 0.0, "lat": 38.90741383333334, "is_disabled": 0, "name": "a861154dd140a66204c4145d187dab95", "fusion_lat": 0.0, "rental_uris": {"ios": "https://dc.lft.to/lastmile_qr_scan", "android": "https://dc.lft.to/lastmile_qr_scan"}, "lon": -77.02401683333333, "type": "electric_scooter"}, {"bike_id": "9d2cd63bfde6feaaf0e642f51defd0c6", "is_reserved": 0, "fusion_lon": 0.0, "lat": 38.90128933333333, "is_disabled": 0, "name": "9d2cd63bfde6feaaf0e642f51defd0c6", "fusion_lat": 0.0, "rental_uris": {"ios": "https://dc.lft.to/lastmile_qr_scan", "android": "https://dc.lft.to/lastmile_qr_scan"}, "lon": -77.01968133333334, "type": "electric_scooter"}, {"bike_id": "5396ab62ce981e7981eee251417b7d1e", "is_reserved": 0, "fusion_lon": 0.0, "lat": 38.973279, "is_disabled": 0, "name": "5396ab62ce981e7981eee251417b7d1e", "fusion_lat": 0.0, "rental_uris": {"ios": "https://dc.lft.to/lastmile_qr_scan", "android": "https://dc.lft.to/lastmile_qr_scan"}, "lon": -77.021466, "type": "electric_bike"}, {"bike_id": "817985f85f4c58a71a4f8807bb58ab81", "is_reserved": 0, "fusion_lon": 0.0, "lat": 38.9155235, "is_disabled": 0, "name": "817985f85f4c58a71a4f8807bb58ab81", "fusion_lat": 0.0, "rental_uris": {"ios": "https://dc.lft.to/lastmile_qr_scan", "android": "https://dc.lft.to/lastmile_qr_scan"}, "lon": -77.0317415, "type": "electric_scooter"}, {"bike_id": "f64d2c065607826a45c1ea9649b42b10", "is_reserved": 0, "fusion_lon": 0.0, "lat": 38.910574, "is_disabled": 0, "name": "f64d2c065607826a45c1ea9649b42b10", "fusion_lat": 0.0, "rental_uris": {"ios": "https://dc.lft.to/lastmile_qr_scan", "android": "https://dc.lft.to/lastmile_qr_scan"}, "lon": -77.02974066666667, "type": "electric_scooter"}, {"bike_id": "f8055bd9ec787f8bf388347983a930bf", "is_reserved": 0, "fusion_lon": 0.0, "lat": 38.900066833333334, "is_disabled": 0, "name": "f8055bd9ec787f8bf388347983a930bf", "fusion_lat": 0.0, "rental_uris": {"ios": "https://dc.lft.to/lastmile_qr_scan", "android": "https://dc.lft.to/lastmile_qr_scan"}, "lon": -77.04653016666667, "type": "electric_scooter"}, {"bike_id": "c6b005708954865aa3c1e234753228c3", "is_reserved": 0, "fusion_lon": 0.0, "lat": 38.927978833333334, "is_disabled": 0, "name": "c6b005708954865aa3c1e234753228c3", "fusion_lat": 0.0, "rental_uris": {"ios": "https://dc.lft.to/lastmile_qr_scan", "android": "https://dc.lft.to/lastmile_qr_scan"}, "lon": -77.01420483333334, "type": "electric_scooter"}, {"bike_id": "4822d20c8d8b71c5a7f45594c8e9a519", "is_reserved": 0, "fusion_lon": 0.0, "lat": 38.9332975, "is_disabled": 0, "name": "4822d20c8d8b71c5a7f45594c8e9a519", "fusion_lat": 0.0, "rental_uris": {"ios": "https://dc.lft.to/lastmile_qr_scan", "android": "https://dc.lft.to/lastmile_qr_scan"}, "lon": -77.03271483333333, "type": "electric_scooter"}, {"bike_id": "c893358e425134443baa7cfb4b3fb7c9", "is_reserved": 0, "fusion_lon": 0.0, "lat": 38.84423316666667, "is_disabled": 0, "name": "c893358e425134443baa7cfb4b3fb7c9", "fusion_lat": 0.0, "rental_uris": {"ios": "https://dc.lft.to/lastmile_qr_scan", "android": "https://dc.lft.to/lastmile_qr_scan"}, "lon": -76.997774, "type": "electric_scooter"}, {"bike_id": "a9df711c1ac152520aaf87c6d1842a77", "is_reserved": 0, "fusion_lon": 0.0, "lat": 38.94548666666667, "is_disabled": 0, "name": "a9df711c1ac152520aaf87c6d1842a77", "fusion_lat": 0.0, "rental_uris": {"ios": "https://dc.lft.to/lastmile_qr_scan", "android": "https://dc.lft.to/lastmile_qr_scan"}, "lon": -76.8953865, "type": "electric_bike"}, {"bike_id": "39c13a8300e2719a77a8f67239b31b1e", "is_reserved": 0, "fusion_lon": 0.0, "lat": 38.91010333333333, "is_disabled": 0, "name": "39c13a8300e2719a77a8f67239b31b1e", "fusion_lat": 0.0, "rental_uris": {"ios": "https://dc.lft.to/lastmile_qr_scan", "android": "https://dc.lft.to/lastmile_qr_scan"}, "lon": -76.99389766666667, "type": "electric_scooter"}, {"bike_id": "229084f8c6855eb40cc23edb6592df87", "is_reserved": 0, "fusion_lon": 0.0, "lat": 38.901172833333334, "is_disabled": 0, "name": "229084f8c6855eb40cc23edb6592df87", "fusion_lat": 0.0, "rental_uris": {"ios": "https://dc.lft.to/lastmile_qr_scan", "android": "https://dc.lft.to/lastmile_qr_scan"}, "lon": -77.05003033333334, "type": "electric_scooter"}, {"bike_id": "9f409281442f3ba95a95a683074f04cf", "is_reserved": 0, "fusion_lon": 0.0, "lat": 38.933394666666665, "is_disabled": 0, "name": "9f409281442f3ba95a95a683074f04cf", "fusion_lat": 0.0, "rental_uris": {"ios": "https://dc.lft.to/lastmile_qr_scan", "android": "https://dc.lft.to/lastmile_qr_scan"}, "lon": -77.03279533333334, "type": "electric_scooter"}, {"bike_id": "954b6c4f631d89a5b01125b95c078c45", "is_reserved": 0, "fusion_lon": 0.0, "lat": 38.887350833333336, "is_disabled": 0, "name": "954b6c4f631d89a5b01125b95c078c45", "fusion_lat": 0.0, "rental_uris": {"ios": "https://dc.lft.to/lastmile_qr_scan", "android": "https://dc.lft.to/lastmile_qr_scan"}, "lon": -77.03124266666667, "type": "electric_scooter"}, {"bike_id": "cf2c94f2abb24d233a2d649ccc3eede9", "is_reserved": 0, "fusion_lon": 0.0, "lat": 38.88495733333333, "is_disabled": 0, "name": "cf2c94f2abb24d233a2d649ccc3eede9", "fusion_lat": 0.0, "rental_uris": {"ios": "https://dc.lft.to/lastmile_qr_scan", "android": "https://dc.lft.to/lastmile_qr_scan"}, "lon": -77.0072875, "type": "electric_scooter"}, {"bike_id": "84470bcb0abed1d57120cd22928258a4", "is_reserved": 0, "fusion_lon": 0.0, "lat": 38.95641483333333, "is_disabled": 0, "name": "84470bcb0abed1d57120cd22928258a4", "fusion_lat": 0.0, "rental_uris": {"ios": "https://dc.lft.to/lastmile_qr_scan", "android": "https://dc.lft.to/lastmile_qr_scan"}, "lon": -76.9979735, "type": "electric_scooter"}, {"bike_id": "d414f7618e2bdcf16e52491a5bd8f6f7", "is_reserved": 0, "fusion_lon": 0.0, "lat": 38.937728666666665, "is_disabled": 0, "name": "d414f7618e2bdcf16e52491a5bd8f6f7", "fusion_lat": 0.0, "rental_uris": {"ios": "https://dc.lft.to/lastmile_qr_scan", "android": "https://dc.lft.to/lastmile_qr_scan"}, "lon": -77.0190945, "type": "electric_bike"}, {"bike_id": "327fade081d385d16ec643042a85696a", "is_reserved": 0, "fusion_lon": 0.0, "lat": 38.893644, "is_disabled": 0, "name": "327fade081d385d16ec643042a85696a", "fusion_lat": 0.0, "rental_uris": {"ios": "https://dc.lft.to/lastmile_qr_scan", "android": "https://dc.lft.to/lastmile_qr_scan"}, "lon": -77.028307, "type": "electric_scooter"}, {"bike_id": "d09e5c116d5924ec23d3c69bb65bb5bb", "is_reserved": 0, "fusion_lon": 0.0, "lat": 38.90970633333333, "is_disabled": 0, "name": "d09e5c116d5924ec23d3c69bb65bb5bb", "fusion_lat": 0.0, "rental_uris": {"ios": "https://dc.lft.to/lastmile_qr_scan", "android": "https://dc.lft.to/lastmile_qr_scan"}, "lon": -77.03863166666666, "type": "electric_scooter"}, {"bike_id": "5572d5523744f2e874e2885d3574c15d", "is_reserved": 0, "fusion_lon": 0.0, "lat": 38.9300325, "is_disabled": 0, "name": "5572d5523744f2e874e2885d3574c15d", "fusion_lat": 0.0, "rental_uris": {"ios": "https://dc.lft.to/lastmile_qr_scan", "android": "https://dc.lft.to/lastmile_qr_scan"}, "lon": -77.0554335, "type": "electric_scooter"}, {"bike_id": "009ce30ebcc3196616f57390ba43261d", "is_reserved": 0, "fusion_lon": 0.0, "lat": 38.887479166666665, "is_disabled": 0, "name": "009ce30ebcc3196616f57390ba43261d", "fusion_lat": 0.0, "rental_uris": {"ios": "https://dc.lft.to/lastmile_qr_scan", "android": "https://dc.lft.to/lastmile_qr_scan"}, "lon": -77.020223, "type": "electric_scooter"}, {"bike_id": "823cc1afa8df713deaf4e5763c73c5c6", "is_reserved": 0, "fusion_lon": 0.0, "lat": 38.883382833333336, "is_disabled": 0, "name": "823cc1afa8df713deaf4e5763c73c5c6", "fusion_lat": 0.0, "rental_uris": {"ios": "https://dc.lft.to/lastmile_qr_scan", "android": "https://dc.lft.to/lastmile_qr_scan"}, "lon": -76.9934875, "type": "electric_scooter"}, {"bike_id": "2c3e1e7695cae3b9c6f7ea19cf8b9c39", "is_reserved": 0, "fusion_lon": 0.0, "lat": 38.9171275, "is_disabled": 0, "name": "2c3e1e7695cae3b9c6f7ea19cf8b9c39", "fusion_lat": 0.0, "rental_uris": {"ios": "https://dc.lft.to/lastmile_qr_scan", "android": "https://dc.lft.to/lastmile_qr_scan"}, "lon": -77.02547983333334, "type": "electric_scooter"}, {"bike_id": "c0aa300882332e2de6b72dc39bbdc76f", "is_reserved": 0, "fusion_lon": 0.0, "lat": 38.92401616666667, "is_disabled": 0, "name": "c0aa300882332e2de6b72dc39bbdc76f", "fusion_lat": 0.0, "rental_uris": {"ios": "https://dc.lft.to/lastmile_qr_scan", "android": "https://dc.lft.to/lastmile_qr_scan"}, "lon": -77.01954033333334, "type": "electric_scooter"}, {"bike_id": "d8b0ede5ef96e7991a0ac28b6e085562", "is_reserved": 0, "fusion_lon": 0.0, "lat": 38.93083633333333, "is_disabled": 0, "name": "d8b0ede5ef96e7991a0ac28b6e085562", "fusion_lat": 0.0, "rental_uris": {"ios": "https://dc.lft.to/lastmile_qr_scan", "android": "https://dc.lft.to/lastmile_qr_scan"}, "lon": -77.027943, "type": "electric_scooter"}, {"bike_id": "6e4d43ef4282c86fff9beaf3775ba993", "is_reserved": 0, "fusion_lon": 0.0, "lat": 38.9610805, "is_disabled": 0, "name": "6e4d43ef4282c86fff9beaf3775ba993", "fusion_lat": 0.0, "rental_uris": {"ios": "https://dc.lft.to/lastmile_qr_scan", "android": "https://dc.lft.to/lastmile_qr_scan"}, "lon": -77.02811, "type": "electric_scooter"}, {"bike_id": "47bc0ae232521780b851d7e3b548e5ac", "is_reserved": 0, "fusion_lon": 0.0, "lat": 38.8580145, "is_disabled": 0, "name": "47bc0ae232521780b851d7e3b548e5ac", "fusion_lat": 0.0, "rental_uris": {"ios": "https://dc.lft.to/lastmile_qr_scan", "android": "https://dc.lft.to/lastmile_qr_scan"}, "lon": -76.98753633333334, "type": "electric_bike"}, {"bike_id": "18f37c21af5b40d9ea4b0d99f61affd9", "is_reserved": 0, "fusion_lon": 0.0, "lat": 38.92540733333333, "is_disabled": 0, "name": "18f37c21af5b40d9ea4b0d99f61affd9", "fusion_lat": 0.0, "rental_uris": {"ios": "https://dc.lft.to/lastmile_qr_scan", "android": "https://dc.lft.to/lastmile_qr_scan"}, "lon": -77.03465233333333, "type": "electric_scooter"}, {"bike_id": "883171c2dd8d70d5df226ef69b71d5ad", "is_reserved": 0, "fusion_lon": 0.0, "lat": 38.90380116666667, "is_disabled": 0, "name": "883171c2dd8d70d5df226ef69b71d5ad", "fusion_lat": 0.0, "rental_uris": {"ios": "https://dc.lft.to/lastmile_qr_scan", "android": "https://dc.lft.to/lastmile_qr_scan"}, "lon": -77.04194433333333, "type": "electric_scooter"}, {"bike_id": "5cb0539550d223cb472a60ede5c54d6d", "is_reserved": 0, "fusion_lon": 0.0, "lat": 38.922179, "is_disabled": 0, "name": "5cb0539550d223cb472a60ede5c54d6d", "fusion_lat": 0.0, "rental_uris": {"ios": "https://dc.lft.to/lastmile_qr_scan", "android": "https://dc.lft.to/lastmile_qr_scan"}, "lon": -77.03901416666666, "type": "electric_scooter"}, {"bike_id": "7f2d87933eb4cfab5b4feade2e2ab513", "is_reserved": 0, "fusion_lon": 0.0, "lat": 38.84289283333333, "is_disabled": 0, "name": "7f2d87933eb4cfab5b4feade2e2ab513", "fusion_lat": 0.0, "rental_uris": {"ios": "https://dc.lft.to/lastmile_qr_scan", "android": "https://dc.lft.to/lastmile_qr_scan"}, "lon": -76.99942616666667, "type": "electric_scooter"}, {"bike_id": "4189e2a8e897433f2b00f70545257d08", "is_reserved": 0, "fusion_lon": 0.0, "lat": 38.9170935, "is_disabled": 0, "name": "4189e2a8e897433f2b00f70545257d08", "fusion_lat": 0.0, "rental_uris": {"ios": "https://dc.lft.to/lastmile_qr_scan", "android": "https://dc.lft.to/lastmile_qr_scan"}, "lon": -77.03232433333334, "type": "electric_scooter"}, {"bike_id": "9259905a94ba24b7efab29f1db58b324", "is_reserved": 0, "fusion_lon": 0.0, "lat": 38.920258833333335, "is_disabled": 0, "name": "9259905a94ba24b7efab29f1db58b324", "fusion_lat": 0.0, "rental_uris": {"ios": "https://dc.lft.to/lastmile_qr_scan", "android": "https://dc.lft.to/lastmile_qr_scan"}, "lon": -77.01121516666667, "type": "electric_scooter"}, {"bike_id": "170a1ab240c242c5f1912984c6b11082", "is_reserved": 0, "fusion_lon": 0.0, "lat": 38.91052116666667, "is_disabled": 0, "name": "170a1ab240c242c5f1912984c6b11082", "fusion_lat": 0.0, "rental_uris": {"ios": "https://dc.lft.to/lastmile_qr_scan", "android": "https://dc.lft.to/lastmile_qr_scan"}, "lon": -77.01687383333334, "type": "electric_scooter"}, {"bike_id": "6df846e36e3675f9b00e3d48b9af0aa8", "is_reserved": 0, "fusion_lon": 0.0, "lat": 38.9417365, "is_disabled": 0, "name": "6df846e36e3675f9b00e3d48b9af0aa8", "fusion_lat": 0.0, "rental_uris": {"ios": "https://dc.lft.to/lastmile_qr_scan", "android": "https://dc.lft.to/lastmile_qr_scan"}, "lon": -77.02501216666667, "type": "electric_scooter"}, {"bike_id": "eb1b881d10eeb0cea2a9002d5824fa9f", "is_reserved": 0, "fusion_lon": 0.0, "lat": 38.934864, "is_disabled": 0, "name": "eb1b881d10eeb0cea2a9002d5824fa9f", "fusion_lat": 0.0, "rental_uris": {"ios": "https://dc.lft.to/lastmile_qr_scan", "android": "https://dc.lft.to/lastmile_qr_scan"}, "lon": -77.03527316666667, "type": "electric_scooter"}, {"bike_id": "7ab562c6f997b65155e4f2546013948f", "is_reserved": 0, "fusion_lon": 0.0, "lat": 38.91564183333333, "is_disabled": 0, "name": "7ab562c6f997b65155e4f2546013948f", "fusion_lat": 0.0, "rental_uris": {"ios": "https://dc.lft.to/lastmile_qr_scan", "android": "https://dc.lft.to/lastmile_qr_scan"}, "lon": -77.03910183333333, "type": "electric_scooter"}, {"bike_id": "55f049de8a3215bcd6894ef694e0442c", "is_reserved": 0, "fusion_lon": 0.0, "lat": 38.905692333333334, "is_disabled": 0, "name": "55f049de8a3215bcd6894ef694e0442c", "fusion_lat": 0.0, "rental_uris": {"ios": "https://dc.lft.to/lastmile_qr_scan", "android": "https://dc.lft.to/lastmile_qr_scan"}, "lon": -77.021806, "type": "electric_scooter"}, {"bike_id": "ea6e0690418254b43a0efb14d3957005", "is_reserved": 0, "fusion_lon": 0.0, "lat": 38.95085316666667, "is_disabled": 0, "name": "ea6e0690418254b43a0efb14d3957005", "fusion_lat": 0.0, "rental_uris": {"ios": "https://dc.lft.to/lastmile_qr_scan", "android": "https://dc.lft.to/lastmile_qr_scan"}, "lon": -77.0283215, "type": "electric_scooter"}, {"bike_id": "94245ca0f8e1ee9012bcf2c86f8f9edf", "is_reserved": 0, "fusion_lon": 0.0, "lat": 38.93064433333333, "is_disabled": 0, "name": "94245ca0f8e1ee9012bcf2c86f8f9edf", "fusion_lat": 0.0, "rental_uris": {"ios": "https://dc.lft.to/lastmile_qr_scan", "android": "https://dc.lft.to/lastmile_qr_scan"}, "lon": -77.02977833333334, "type": "electric_scooter"}, {"bike_id": "3f5df637fdd3c3a1e5cc270e8e11cad9", "is_reserved": 0, "fusion_lon": 0.0, "lat": 38.90951833333333, "is_disabled": 0, "name": "3f5df637fdd3c3a1e5cc270e8e11cad9", "fusion_lat": 0.0, "rental_uris": {"ios": "https://dc.lft.to/lastmile_qr_scan", "android": "https://dc.lft.to/lastmile_qr_scan"}, "lon": -77.02002916666666, "type": "electric_scooter"}, {"bike_id": "72a4a0602f68ae0b081b9d11cd1dfd2e", "is_reserved": 0, "fusion_lon": 0.0, "lat": 38.92191116666667, "is_disabled": 0, "name": "72a4a0602f68ae0b081b9d11cd1dfd2e", "fusion_lat": 0.0, "rental_uris": {"ios": "https://dc.lft.to/lastmile_qr_scan", "android": "https://dc.lft.to/lastmile_qr_scan"}, "lon": -77.04249116666666, "type": "electric_scooter"}, {"bike_id": "eca2a813b9f6fa7d751fb27abbfaee46", "is_reserved": 0, "fusion_lon": 0.0, "lat": 38.907199, "is_disabled": 0, "name": "eca2a813b9f6fa7d751fb27abbfaee46", "fusion_lat": 0.0, "rental_uris": {"ios": "https://dc.lft.to/lastmile_qr_scan", "android": "https://dc.lft.to/lastmile_qr_scan"}, "lon": -77.02652683333334, "type": "electric_scooter"}, {"bike_id": "87702b716afcb516b1d2e1deef784e96", "is_reserved": 0, "fusion_lon": 0.0, "lat": 38.91044083333333, "is_disabled": 0, "name": "87702b716afcb516b1d2e1deef784e96", "fusion_lat": 0.0, "rental_uris": {"ios": "https://dc.lft.to/lastmile_qr_scan", "android": "https://dc.lft.to/lastmile_qr_scan"}, "lon": -77.02812133333333, "type": "electric_scooter"}, {"bike_id": "8a1f5532ec9b8befb720e82fcc0e9588", "is_reserved": 0, "fusion_lon": 0.0, "lat": 38.921790666666666, "is_disabled": 0, "name": "8a1f5532ec9b8befb720e82fcc0e9588", "fusion_lat": 0.0, "rental_uris": {"ios": "https://dc.lft.to/lastmile_qr_scan", "android": "https://dc.lft.to/lastmile_qr_scan"}, "lon": -77.0428995, "type": "electric_scooter"}, {"bike_id": "66760682d1d36d039312538c3c520fcf", "is_reserved": 0, "fusion_lon": 0.0, "lat": 38.8990435, "is_disabled": 0, "name": "66760682d1d36d039312538c3c520fcf", "fusion_lat": 0.0, "rental_uris": {"ios": "https://dc.lft.to/lastmile_qr_scan", "android": "https://dc.lft.to/lastmile_qr_scan"}, "lon": -77.0449635, "type": "electric_scooter"}, {"bike_id": "5aae0e372b8d68078f8cfd89722f590c", "is_reserved": 0, "fusion_lon": 0.0, "lat": 38.902807333333335, "is_disabled": 0, "name": "5aae0e372b8d68078f8cfd89722f590c", "fusion_lat": 0.0, "rental_uris": {"ios": "https://dc.lft.to/lastmile_qr_scan", "android": "https://dc.lft.to/lastmile_qr_scan"}, "lon": -77.0366975, "type": "electric_scooter"}, {"bike_id": "4bd0d7511d31803a6b08eb0cdebf7b30", "is_reserved": 0, "fusion_lon": 0.0, "lat": 38.955490166666664, "is_disabled": 0, "name": "4bd0d7511d31803a6b08eb0cdebf7b30", "fusion_lat": 0.0, "rental_uris": {"ios": "https://dc.lft.to/lastmile_qr_scan", "android": "https://dc.lft.to/lastmile_qr_scan"}, "lon": -76.94015066666667, "type": "electric_bike"}, {"bike_id": "88f75b7b85424ef0abac8b484e170c2a", "is_reserved": 0, "fusion_lon": 0.0, "lat": 38.908975166666664, "is_disabled": 0, "name": "88f75b7b85424ef0abac8b484e170c2a", "fusion_lat": 0.0, "rental_uris": {"ios": "https://dc.lft.to/lastmile_qr_scan", "android": "https://dc.lft.to/lastmile_qr_scan"}, "lon": -77.08624316666666, "type": "electric_scooter"}, {"bike_id": "c21b41f35daf3991a2efe5d66fefbd17", "is_reserved": 0, "fusion_lon": 0.0, "lat": 38.91851416666667, "is_disabled": 0, "name": "c21b41f35daf3991a2efe5d66fefbd17", "fusion_lat": 0.0, "rental_uris": {"ios": "https://dc.lft.to/lastmile_qr_scan", "android": "https://dc.lft.to/lastmile_qr_scan"}, "lon": -76.9609145, "type": "electric_bike"}, {"bike_id": "225701120eb10da6c6f2bfde22a5cf07", "is_reserved": 0, "fusion_lon": 0.0, "lat": 38.9036345, "is_disabled": 0, "name": "225701120eb10da6c6f2bfde22a5cf07", "fusion_lat": 0.0, "rental_uris": {"ios": "https://dc.lft.to/lastmile_qr_scan", "android": "https://dc.lft.to/lastmile_qr_scan"}, "lon": -77.03890083333333, "type": "electric_scooter"}, {"bike_id": "eeb646316d7a9b32cd7d27c2d8f2cfa4", "is_reserved": 0, "fusion_lon": 0.0, "lat": 38.91724383333333, "is_disabled": 0, "name": "eeb646316d7a9b32cd7d27c2d8f2cfa4", "fusion_lat": 0.0, "rental_uris": {"ios": "https://dc.lft.to/lastmile_qr_scan", "android": "https://dc.lft.to/lastmile_qr_scan"}, "lon": -77.03837283333333, "type": "electric_scooter"}, {"bike_id": "c94e31c3469821058b25fa8215838e5b", "is_reserved": 0, "fusion_lon": 0.0, "lat": 38.89237583333333, "is_disabled": 0, "name": "c94e31c3469821058b25fa8215838e5b", "fusion_lat": 0.0, "rental_uris": {"ios": "https://dc.lft.to/lastmile_qr_scan", "android": "https://dc.lft.to/lastmile_qr_scan"}, "lon": -77.032165, "type": "electric_scooter"}, {"bike_id": "ad7e679994648a1f06a6f9420fecc91a", "is_reserved": 0, "fusion_lon": 0.0, "lat": 38.924037, "is_disabled": 0, "name": "ad7e679994648a1f06a6f9420fecc91a", "fusion_lat": 0.0, "rental_uris": {"ios": "https://dc.lft.to/lastmile_qr_scan", "android": "https://dc.lft.to/lastmile_qr_scan"}, "lon": -77.05177816666667, "type": "electric_scooter"}, {"bike_id": "9f6bc25f7fbf9ac7803feafa74c9a41b", "is_reserved": 0, "fusion_lon": 0.0, "lat": 38.824462, "is_disabled": 0, "name": "9f6bc25f7fbf9ac7803feafa74c9a41b", "fusion_lat": 0.0, "rental_uris": {"ios": "https://dc.lft.to/lastmile_qr_scan", "android": "https://dc.lft.to/lastmile_qr_scan"}, "lon": -77.07042633333333, "type": "electric_bike"}, {"bike_id": "284d8d254b9f4eabe69bc30254362639", "is_reserved": 0, "fusion_lon": 0.0, "lat": 38.8800455, "is_disabled": 0, "name": "284d8d254b9f4eabe69bc30254362639", "fusion_lat": 0.0, "rental_uris": {"ios": "https://dc.lft.to/lastmile_qr_scan", "android": "https://dc.lft.to/lastmile_qr_scan"}, "lon": -76.91597433333334, "type": "electric_bike"}, {"bike_id": "8bc280fc2e78097870edf1440040c6ca", "is_reserved": 0, "fusion_lon": 0.0, "lat": 38.89024083333334, "is_disabled": 0, "name": "8bc280fc2e78097870edf1440040c6ca", "fusion_lat": 0.0, "rental_uris": {"ios": "https://dc.lft.to/lastmile_qr_scan", "android": "https://dc.lft.to/lastmile_qr_scan"}, "lon": -76.93689783333333, "type": "electric_scooter"}, {"bike_id": "90eff55ab50536a3de20889046e6bd22", "is_reserved": 0, "fusion_lon": 0.0, "lat": 38.92227883333334, "is_disabled": 0, "name": "90eff55ab50536a3de20889046e6bd22", "fusion_lat": 0.0, "rental_uris": {"ios": "https://dc.lft.to/lastmile_qr_scan", "android": "https://dc.lft.to/lastmile_qr_scan"}, "lon": -77.0412835, "type": "electric_scooter"}, {"bike_id": "d07cc75d156aa9d81126c56464d69666", "is_reserved": 0, "fusion_lon": 0.0, "lat": 38.933429, "is_disabled": 0, "name": "d07cc75d156aa9d81126c56464d69666", "fusion_lat": 0.0, "rental_uris": {"ios": "https://dc.lft.to/lastmile_qr_scan", "android": "https://dc.lft.to/lastmile_qr_scan"}, "lon": -77.04207933333333, "type": "electric_bike"}, {"bike_id": "4bab706e131859a75104f3863ef70bc1", "is_reserved": 0, "fusion_lon": 0.0, "lat": 38.908597666666665, "is_disabled": 0, "name": "4bab706e131859a75104f3863ef70bc1", "fusion_lat": 0.0, "rental_uris": {"ios": "https://dc.lft.to/lastmile_qr_scan", "android": "https://dc.lft.to/lastmile_qr_scan"}, "lon": -77.02729916666667, "type": "electric_scooter"}, {"bike_id": "3f9e4693f1762a08a54a914cbadaf1bd", "is_reserved": 0, "fusion_lon": 0.0, "lat": 38.90665966666667, "is_disabled": 0, "name": "3f9e4693f1762a08a54a914cbadaf1bd", "fusion_lat": 0.0, "rental_uris": {"ios": "https://dc.lft.to/lastmile_qr_scan", "android": "https://dc.lft.to/lastmile_qr_scan"}, "lon": -76.99960366666667, "type": "electric_bike"}, {"bike_id": "af089ee9707faa4913b056aa26258bb3", "is_reserved": 0, "fusion_lon": 0.0, "lat": 38.89779933333333, "is_disabled": 0, "name": "af089ee9707faa4913b056aa26258bb3", "fusion_lat": 0.0, "rental_uris": {"ios": "https://dc.lft.to/lastmile_qr_scan", "android": "https://dc.lft.to/lastmile_qr_scan"}, "lon": -77.00749183333333, "type": "electric_bike"}, {"bike_id": "a8fefae2da5085e4435d9fa711d548ba", "is_reserved": 0, "fusion_lon": 0.0, "lat": 38.91990166666667, "is_disabled": 0, "name": "a8fefae2da5085e4435d9fa711d548ba", "fusion_lat": 0.0, "rental_uris": {"ios": "https://dc.lft.to/lastmile_qr_scan", "android": "https://dc.lft.to/lastmile_qr_scan"}, "lon": -77.041702, "type": "electric_scooter"}, {"bike_id": "225b2c821246021ac3d0f868ab0a4207", "is_reserved": 0, "fusion_lon": 0.0, "lat": 38.936969500000004, "is_disabled": 0, "name": "225b2c821246021ac3d0f868ab0a4207", "fusion_lat": 0.0, "rental_uris": {"ios": "https://dc.lft.to/lastmile_qr_scan", "android": "https://dc.lft.to/lastmile_qr_scan"}, "lon": -77.06017416666667, "type": "electric_scooter"}, {"bike_id": "6af0498b80d38708c07e7d204a8c2d54", "is_reserved": 0, "fusion_lon": 0.0, "lat": 38.90128683333333, "is_disabled": 0, "name": "6af0498b80d38708c07e7d204a8c2d54", "fusion_lat": 0.0, "rental_uris": {"ios": "https://dc.lft.to/lastmile_qr_scan", "android": "https://dc.lft.to/lastmile_qr_scan"}, "lon": -77.01616033333333, "type": "electric_scooter"}, {"bike_id": "5085f41952266c85510a7073b75a53d9", "is_reserved": 0, "fusion_lon": 0.0, "lat": 38.911852833333334, "is_disabled": 0, "name": "5085f41952266c85510a7073b75a53d9", "fusion_lat": 0.0, "rental_uris": {"ios": "https://dc.lft.to/lastmile_qr_scan", "android": "https://dc.lft.to/lastmile_qr_scan"}, "lon": -76.99625716666667, "type": "electric_scooter"}, {"bike_id": "61b66b7b5e4a0905f4ab09fb989a3ca8", "is_reserved": 0, "fusion_lon": 0.0, "lat": 38.91008, "is_disabled": 0, "name": "61b66b7b5e4a0905f4ab09fb989a3ca8", "fusion_lat": 0.0, "rental_uris": {"ios": "https://dc.lft.to/lastmile_qr_scan", "android": "https://dc.lft.to/lastmile_qr_scan"}, "lon": -76.9939885, "type": "electric_scooter"}, {"bike_id": "4676fd80823669493a78cc595bf1c178", "is_reserved": 0, "fusion_lon": 0.0, "lat": 38.8553275, "is_disabled": 0, "name": "4676fd80823669493a78cc595bf1c178", "fusion_lat": 0.0, "rental_uris": {"ios": "https://dc.lft.to/lastmile_qr_scan", "android": "https://dc.lft.to/lastmile_qr_scan"}, "lon": -77.11327933333334, "type": "electric_bike"}, {"bike_id": "4e03d69b942181ccb20070dd5bc0c1fd", "is_reserved": 0, "fusion_lon": 0.0, "lat": 38.897944333333335, "is_disabled": 0, "name": "4e03d69b942181ccb20070dd5bc0c1fd", "fusion_lat": 0.0, "rental_uris": {"ios": "https://dc.lft.to/lastmile_qr_scan", "android": "https://dc.lft.to/lastmile_qr_scan"}, "lon": -77.02971883333333, "type": "electric_scooter"}, {"bike_id": "a4c91312bf9392ef6034af137b2016fa", "is_reserved": 0, "fusion_lon": 0.0, "lat": 38.89658983333333, "is_disabled": 0, "name": "a4c91312bf9392ef6034af137b2016fa", "fusion_lat": 0.0, "rental_uris": {"ios": "https://dc.lft.to/lastmile_qr_scan", "android": "https://dc.lft.to/lastmile_qr_scan"}, "lon": -77.02961433333333, "type": "electric_scooter"}, {"bike_id": "8ab90ae8185bda6c006b4d4c68f8400f", "is_reserved": 0, "fusion_lon": 0.0, "lat": 38.917024, "is_disabled": 0, "name": "8ab90ae8185bda6c006b4d4c68f8400f", "fusion_lat": 0.0, "rental_uris": {"ios": "https://dc.lft.to/lastmile_qr_scan", "android": "https://dc.lft.to/lastmile_qr_scan"}, "lon": -77.03117916666666, "type": "electric_scooter"}, {"bike_id": "3ef0dcd894ef95f14d94263c3e389aff", "is_reserved": 0, "fusion_lon": 0.0, "lat": 38.88326583333333, "is_disabled": 0, "name": "3ef0dcd894ef95f14d94263c3e389aff", "fusion_lat": 0.0, "rental_uris": {"ios": "https://dc.lft.to/lastmile_qr_scan", "android": "https://dc.lft.to/lastmile_qr_scan"}, "lon": -77.01741266666667, "type": "electric_scooter"}, {"bike_id": "ff03ffb4c2765ce81743e04fcb4cc9d2", "is_reserved": 0, "fusion_lon": 0.0, "lat": 38.92575016666667, "is_disabled": 0, "name": "ff03ffb4c2765ce81743e04fcb4cc9d2", "fusion_lat": 0.0, "rental_uris": {"ios": "https://dc.lft.to/lastmile_qr_scan", "android": "https://dc.lft.to/lastmile_qr_scan"}, "lon": -77.03921433333333, "type": "electric_scooter"}, {"bike_id": "d9ff1fbacb2b0c39bc1a56fe7cc9c69a", "is_reserved": 0, "fusion_lon": 0.0, "lat": 38.925637333333334, "is_disabled": 0, "name": "d9ff1fbacb2b0c39bc1a56fe7cc9c69a", "fusion_lat": 0.0, "rental_uris": {"ios": "https://dc.lft.to/lastmile_qr_scan", "android": "https://dc.lft.to/lastmile_qr_scan"}, "lon": -77.03908216666666, "type": "electric_scooter"}, {"bike_id": "43310e805dad0c7c636b65bf0e0bc554", "is_reserved": 0, "fusion_lon": 0.0, "lat": 38.91281683333333, "is_disabled": 0, "name": "43310e805dad0c7c636b65bf0e0bc554", "fusion_lat": 0.0, "rental_uris": {"ios": "https://dc.lft.to/lastmile_qr_scan", "android": "https://dc.lft.to/lastmile_qr_scan"}, "lon": -77.03852466666666, "type": "electric_scooter"}, {"bike_id": "3cab7e2b87de0f3cb3ef9a608bf78979", "is_reserved": 0, "fusion_lon": 0.0, "lat": 38.916029333333334, "is_disabled": 0, "name": "3cab7e2b87de0f3cb3ef9a608bf78979", "fusion_lat": 0.0, "rental_uris": {"ios": "https://dc.lft.to/lastmile_qr_scan", "android": "https://dc.lft.to/lastmile_qr_scan"}, "lon": -76.98378033333333, "type": "electric_scooter"}, {"bike_id": "ff1d000c7931481701cf72b37773031b", "is_reserved": 0, "fusion_lon": 0.0, "lat": 38.916865666666666, "is_disabled": 0, "name": "ff1d000c7931481701cf72b37773031b", "fusion_lat": 0.0, "rental_uris": {"ios": "https://dc.lft.to/lastmile_qr_scan", "android": "https://dc.lft.to/lastmile_qr_scan"}, "lon": -77.0290435, "type": "electric_scooter"}, {"bike_id": "03761d25e66b71b519e48e10dd0b1265", "is_reserved": 0, "fusion_lon": 0.0, "lat": 38.919400333333336, "is_disabled": 0, "name": "03761d25e66b71b519e48e10dd0b1265", "fusion_lat": 0.0, "rental_uris": {"ios": "https://dc.lft.to/lastmile_qr_scan", "android": "https://dc.lft.to/lastmile_qr_scan"}, "lon": -77.013566, "type": "electric_scooter"}, {"bike_id": "86320c924ef4dcaed06d29f6eab9bc3f", "is_reserved": 0, "fusion_lon": 0.0, "lat": 38.9179585, "is_disabled": 0, "name": "86320c924ef4dcaed06d29f6eab9bc3f", "fusion_lat": 0.0, "rental_uris": {"ios": "https://dc.lft.to/lastmile_qr_scan", "android": "https://dc.lft.to/lastmile_qr_scan"}, "lon": -77.03440516666667, "type": "electric_scooter"}, {"bike_id": "fa45ba812f5f433e64266c9d80496d56", "is_reserved": 0, "fusion_lon": 0.0, "lat": 38.911198166666665, "is_disabled": 0, "name": "fa45ba812f5f433e64266c9d80496d56", "fusion_lat": 0.0, "rental_uris": {"ios": "https://dc.lft.to/lastmile_qr_scan", "android": "https://dc.lft.to/lastmile_qr_scan"}, "lon": -77.03834833333333, "type": "electric_scooter"}, {"bike_id": "b39759575b0723e189ef7574077ad944", "is_reserved": 0, "fusion_lon": 0.0, "lat": 38.8961405, "is_disabled": 0, "name": "b39759575b0723e189ef7574077ad944", "fusion_lat": 0.0, "rental_uris": {"ios": "https://dc.lft.to/lastmile_qr_scan", "android": "https://dc.lft.to/lastmile_qr_scan"}, "lon": -77.044701, "type": "electric_scooter"}, {"bike_id": "4635d9ca327cfedc0fbe97290d61bc47", "is_reserved": 0, "fusion_lon": 0.0, "lat": 38.957714333333335, "is_disabled": 0, "name": "4635d9ca327cfedc0fbe97290d61bc47", "fusion_lat": 0.0, "rental_uris": {"ios": "https://dc.lft.to/lastmile_qr_scan", "android": "https://dc.lft.to/lastmile_qr_scan"}, "lon": -77.011564, "type": "electric_bike"}, {"bike_id": "39d5259b6114c51454ded318b6e9c990", "is_reserved": 0, "fusion_lon": 0.0, "lat": 38.93455266666667, "is_disabled": 0, "name": "39d5259b6114c51454ded318b6e9c990", "fusion_lat": 0.0, "rental_uris": {"ios": "https://dc.lft.to/lastmile_qr_scan", "android": "https://dc.lft.to/lastmile_qr_scan"}, "lon": -77.07235483333334, "type": "electric_scooter"}, {"bike_id": "7bda3d850ebfd00be10a96eb0db45965", "is_reserved": 0, "fusion_lon": 0.0, "lat": 38.93720016666666, "is_disabled": 0, "name": "7bda3d850ebfd00be10a96eb0db45965", "fusion_lat": 0.0, "rental_uris": {"ios": "https://dc.lft.to/lastmile_qr_scan", "android": "https://dc.lft.to/lastmile_qr_scan"}, "lon": -77.03261433333333, "type": "electric_scooter"}, {"bike_id": "32e9507083d0f33658399e17b5f407f8", "is_reserved": 0, "fusion_lon": 0.0, "lat": 38.90961133333333, "is_disabled": 0, "name": "32e9507083d0f33658399e17b5f407f8", "fusion_lat": 0.0, "rental_uris": {"ios": "https://dc.lft.to/lastmile_qr_scan", "android": "https://dc.lft.to/lastmile_qr_scan"}, "lon": -77.04191333333333, "type": "electric_scooter"}, {"bike_id": "a78ef32dd060daa1a080237dd021bd09", "is_reserved": 0, "fusion_lon": 0.0, "lat": 38.920633, "is_disabled": 0, "name": "a78ef32dd060daa1a080237dd021bd09", "fusion_lat": 0.0, "rental_uris": {"ios": "https://dc.lft.to/lastmile_qr_scan", "android": "https://dc.lft.to/lastmile_qr_scan"}, "lon": -77.04361766666666, "type": "electric_bike"}, {"bike_id": "4e91f06cfb9441381977b31808434e7d", "is_reserved": 0, "fusion_lon": 0.0, "lat": 38.883141, "is_disabled": 0, "name": "4e91f06cfb9441381977b31808434e7d", "fusion_lat": 0.0, "rental_uris": {"ios": "https://dc.lft.to/lastmile_qr_scan", "android": "https://dc.lft.to/lastmile_qr_scan"}, "lon": -77.00935616666666, "type": "electric_scooter"}, {"bike_id": "f14c9cdf3bab463ec6257c89b9d6d73e", "is_reserved": 0, "fusion_lon": 0.0, "lat": 38.918019, "is_disabled": 0, "name": "f14c9cdf3bab463ec6257c89b9d6d73e", "fusion_lat": 0.0, "rental_uris": {"ios": "https://dc.lft.to/lastmile_qr_scan", "android": "https://dc.lft.to/lastmile_qr_scan"}, "lon": -77.010222, "type": "electric_scooter"}, {"bike_id": "7f1240f4159e0f0b181534eae564a52f", "is_reserved": 0, "fusion_lon": 0.0, "lat": 38.90247133333333, "is_disabled": 0, "name": "7f1240f4159e0f0b181534eae564a52f", "fusion_lat": 0.0, "rental_uris": {"ios": "https://dc.lft.to/lastmile_qr_scan", "android": "https://dc.lft.to/lastmile_qr_scan"}, "lon": -77.03337716666667, "type": "electric_scooter"}, {"bike_id": "a0f73be83d7cd6bb9a21636aaa22eada", "is_reserved": 0, "fusion_lon": 0.0, "lat": 38.905274666666664, "is_disabled": 0, "name": "a0f73be83d7cd6bb9a21636aaa22eada", "fusion_lat": 0.0, "rental_uris": {"ios": "https://dc.lft.to/lastmile_qr_scan", "android": "https://dc.lft.to/lastmile_qr_scan"}, "lon": -77.05972833333334, "type": "electric_scooter"}, {"bike_id": "81e419dbc7b6b2b202e7d28f8e528e93", "is_reserved": 0, "fusion_lon": 0.0, "lat": 38.88447516666667, "is_disabled": 0, "name": "81e419dbc7b6b2b202e7d28f8e528e93", "fusion_lat": 0.0, "rental_uris": {"ios": "https://dc.lft.to/lastmile_qr_scan", "android": "https://dc.lft.to/lastmile_qr_scan"}, "lon": -77.00579316666666, "type": "electric_scooter"}, {"bike_id": "3bd05ba2308314de9774704166348730", "is_reserved": 0, "fusion_lon": 0.0, "lat": 38.894008166666666, "is_disabled": 0, "name": "3bd05ba2308314de9774704166348730", "fusion_lat": 0.0, "rental_uris": {"ios": "https://dc.lft.to/lastmile_qr_scan", "android": "https://dc.lft.to/lastmile_qr_scan"}, "lon": -76.9936745, "type": "electric_scooter"}, {"bike_id": "b1d9041c354dff9e4f458ca64fa29025", "is_reserved": 0, "fusion_lon": 0.0, "lat": 38.9345655, "is_disabled": 0, "name": "b1d9041c354dff9e4f458ca64fa29025", "fusion_lat": 0.0, "rental_uris": {"ios": "https://dc.lft.to/lastmile_qr_scan", "android": "https://dc.lft.to/lastmile_qr_scan"}, "lon": -77.03631266666666, "type": "electric_bike"}, {"bike_id": "1a8293eec50ac523102e8bc3b0aa9914", "is_reserved": 0, "fusion_lon": 0.0, "lat": 38.9098455, "is_disabled": 0, "name": "1a8293eec50ac523102e8bc3b0aa9914", "fusion_lat": 0.0, "rental_uris": {"ios": "https://dc.lft.to/lastmile_qr_scan", "android": "https://dc.lft.to/lastmile_qr_scan"}, "lon": -77.03854633333333, "type": "electric_scooter"}, {"bike_id": "febf8040873e7f4d705abb24f7403c08", "is_reserved": 0, "fusion_lon": 0.0, "lat": 38.9426865, "is_disabled": 0, "name": "febf8040873e7f4d705abb24f7403c08", "fusion_lat": 0.0, "rental_uris": {"ios": "https://dc.lft.to/lastmile_qr_scan", "android": "https://dc.lft.to/lastmile_qr_scan"}, "lon": -76.9807465, "type": "electric_bike"}, {"bike_id": "c2309810d7f7d3a328e545771f308ea3", "is_reserved": 0, "fusion_lon": 0.0, "lat": 38.92754633333333, "is_disabled": 0, "name": "c2309810d7f7d3a328e545771f308ea3", "fusion_lat": 0.0, "rental_uris": {"ios": "https://dc.lft.to/lastmile_qr_scan", "android": "https://dc.lft.to/lastmile_qr_scan"}, "lon": -77.02420266666667, "type": "electric_scooter"}, {"bike_id": "dd316ee3197d8baf19c12454efb3dfea", "is_reserved": 0, "fusion_lon": 0.0, "lat": 38.91830983333333, "is_disabled": 0, "name": "dd316ee3197d8baf19c12454efb3dfea", "fusion_lat": 0.0, "rental_uris": {"ios": "https://dc.lft.to/lastmile_qr_scan", "android": "https://dc.lft.to/lastmile_qr_scan"}, "lon": -77.03519883333334, "type": "electric_scooter"}, {"bike_id": "d67ce83ceb0282774c4d9b65a9abab6b", "is_reserved": 0, "fusion_lon": 0.0, "lat": 38.9080575, "is_disabled": 0, "name": "d67ce83ceb0282774c4d9b65a9abab6b", "fusion_lat": 0.0, "rental_uris": {"ios": "https://dc.lft.to/lastmile_qr_scan", "android": "https://dc.lft.to/lastmile_qr_scan"}, "lon": -77.0433435, "type": "electric_scooter"}, {"bike_id": "f484d87a9097396ad4efe7345cc48bb8", "is_reserved": 0, "fusion_lon": 0.0, "lat": 38.871483166666664, "is_disabled": 0, "name": "f484d87a9097396ad4efe7345cc48bb8", "fusion_lat": 0.0, "rental_uris": {"ios": "https://dc.lft.to/lastmile_qr_scan", "android": "https://dc.lft.to/lastmile_qr_scan"}, "lon": -76.9366625, "type": "electric_bike"}, {"bike_id": "0e66ab1387abac62f718af4f7f77e780", "is_reserved": 0, "fusion_lon": 0.0, "lat": 38.89249683333333, "is_disabled": 0, "name": "0e66ab1387abac62f718af4f7f77e780", "fusion_lat": 0.0, "rental_uris": {"ios": "https://dc.lft.to/lastmile_qr_scan", "android": "https://dc.lft.to/lastmile_qr_scan"}, "lon": -76.94325533333334, "type": "electric_scooter"}, {"bike_id": "7051859b4918406a8722834a345fec2e", "is_reserved": 0, "fusion_lon": 0.0, "lat": 38.935278333333336, "is_disabled": 0, "name": "7051859b4918406a8722834a345fec2e", "fusion_lat": 0.0, "rental_uris": {"ios": "https://dc.lft.to/lastmile_qr_scan", "android": "https://dc.lft.to/lastmile_qr_scan"}, "lon": -77.02856716666666, "type": "electric_scooter"}, {"bike_id": "32b1240941492328c5609f3c1c172faa", "is_reserved": 0, "fusion_lon": 0.0, "lat": 38.892304333333335, "is_disabled": 0, "name": "32b1240941492328c5609f3c1c172faa", "fusion_lat": 0.0, "rental_uris": {"ios": "https://dc.lft.to/lastmile_qr_scan", "android": "https://dc.lft.to/lastmile_qr_scan"}, "lon": -77.02802583333333, "type": "electric_scooter"}, {"bike_id": "9af4a7ba57dcc6f921a95b3663949a9b", "is_reserved": 0, "fusion_lon": 0.0, "lat": 38.88361833333333, "is_disabled": 0, "name": "9af4a7ba57dcc6f921a95b3663949a9b", "fusion_lat": 0.0, "rental_uris": {"ios": "https://dc.lft.to/lastmile_qr_scan", "android": "https://dc.lft.to/lastmile_qr_scan"}, "lon": -77.03174616666666, "type": "electric_scooter"}, {"bike_id": "0217ba0870045bb91e991562a19d0ed8", "is_reserved": 0, "fusion_lon": 0.0, "lat": 38.92150383333333, "is_disabled": 0, "name": "0217ba0870045bb91e991562a19d0ed8", "fusion_lat": 0.0, "rental_uris": {"ios": "https://dc.lft.to/lastmile_qr_scan", "android": "https://dc.lft.to/lastmile_qr_scan"}, "lon": -77.03381966666667, "type": "electric_scooter"}, {"bike_id": "6d41ba3ac0fcfa6c8153dd4f17cc6e20", "is_reserved": 0, "fusion_lon": 0.0, "lat": 38.892293333333335, "is_disabled": 0, "name": "6d41ba3ac0fcfa6c8153dd4f17cc6e20", "fusion_lat": 0.0, "rental_uris": {"ios": "https://dc.lft.to/lastmile_qr_scan", "android": "https://dc.lft.to/lastmile_qr_scan"}, "lon": -77.05001916666667, "type": "electric_scooter"}, {"bike_id": "90aaadb6b2d8deb037a8cb2fc14bcc15", "is_reserved": 0, "fusion_lon": 0.0, "lat": 38.91543266666667, "is_disabled": 0, "name": "90aaadb6b2d8deb037a8cb2fc14bcc15", "fusion_lat": 0.0, "rental_uris": {"ios": "https://dc.lft.to/lastmile_qr_scan", "android": "https://dc.lft.to/lastmile_qr_scan"}, "lon": -77.03797316666666, "type": "electric_scooter"}, {"bike_id": "d61512f69e2aeb7dcab9e89181844c07", "is_reserved": 0, "fusion_lon": 0.0, "lat": 38.925905, "is_disabled": 0, "name": "d61512f69e2aeb7dcab9e89181844c07", "fusion_lat": 0.0, "rental_uris": {"ios": "https://dc.lft.to/lastmile_qr_scan", "android": "https://dc.lft.to/lastmile_qr_scan"}, "lon": -77.00487833333334, "type": "electric_scooter"}, {"bike_id": "8b3f9f125e82bcc1bc5b0941f1fd1270", "is_reserved": 0, "fusion_lon": 0.0, "lat": 38.90845133333333, "is_disabled": 0, "name": "8b3f9f125e82bcc1bc5b0941f1fd1270", "fusion_lat": 0.0, "rental_uris": {"ios": "https://dc.lft.to/lastmile_qr_scan", "android": "https://dc.lft.to/lastmile_qr_scan"}, "lon": -77.0853305, "type": "electric_scooter"}, {"bike_id": "7cbbacdfd232ffd9f46eb4f197ea2533", "is_reserved": 0, "fusion_lon": 0.0, "lat": 38.89762266666666, "is_disabled": 0, "name": "7cbbacdfd232ffd9f46eb4f197ea2533", "fusion_lat": 0.0, "rental_uris": {"ios": "https://dc.lft.to/lastmile_qr_scan", "android": "https://dc.lft.to/lastmile_qr_scan"}, "lon": -76.93911166666666, "type": "electric_scooter"}, {"bike_id": "cd80a1445bbd1415a44864a25e250412", "is_reserved": 0, "fusion_lon": 0.0, "lat": 38.90004733333333, "is_disabled": 0, "name": "cd80a1445bbd1415a44864a25e250412", "fusion_lat": 0.0, "rental_uris": {"ios": "https://dc.lft.to/lastmile_qr_scan", "android": "https://dc.lft.to/lastmile_qr_scan"}, "lon": -77.00586, "type": "electric_bike"}, {"bike_id": "eb4e0940ef6eaf90811a2b138c763f60", "is_reserved": 0, "fusion_lon": 0.0, "lat": 38.897296833333336, "is_disabled": 0, "name": "eb4e0940ef6eaf90811a2b138c763f60", "fusion_lat": 0.0, "rental_uris": {"ios": "https://dc.lft.to/lastmile_qr_scan", "android": "https://dc.lft.to/lastmile_qr_scan"}, "lon": -76.92590066666666, "type": "electric_scooter"}, {"bike_id": "7eba9bba4a32596e702c335572c7bd10", "is_reserved": 0, "fusion_lon": 0.0, "lat": 38.906459166666664, "is_disabled": 0, "name": "7eba9bba4a32596e702c335572c7bd10", "fusion_lat": 0.0, "rental_uris": {"ios": "https://dc.lft.to/lastmile_qr_scan", "android": "https://dc.lft.to/lastmile_qr_scan"}, "lon": -77.04291683333334, "type": "electric_scooter"}, {"bike_id": "acb143b45b18e2442f53bb93dcd4bb8e", "is_reserved": 0, "fusion_lon": 0.0, "lat": 38.900241, "is_disabled": 0, "name": "acb143b45b18e2442f53bb93dcd4bb8e", "fusion_lat": 0.0, "rental_uris": {"ios": "https://dc.lft.to/lastmile_qr_scan", "android": "https://dc.lft.to/lastmile_qr_scan"}, "lon": -76.98299116666666, "type": "electric_scooter"}, {"bike_id": "d8c7b8b2fbffd6f7e9da0e17682886c9", "is_reserved": 0, "fusion_lon": 0.0, "lat": 38.917131, "is_disabled": 0, "name": "d8c7b8b2fbffd6f7e9da0e17682886c9", "fusion_lat": 0.0, "rental_uris": {"ios": "https://dc.lft.to/lastmile_qr_scan", "android": "https://dc.lft.to/lastmile_qr_scan"}, "lon": -77.03233983333334, "type": "electric_scooter"}, {"bike_id": "4bb7b1ad631b86addfc5cdae34e60330", "is_reserved": 0, "fusion_lon": 0.0, "lat": 38.943131666666666, "is_disabled": 0, "name": "4bb7b1ad631b86addfc5cdae34e60330", "fusion_lat": 0.0, "rental_uris": {"ios": "https://dc.lft.to/lastmile_qr_scan", "android": "https://dc.lft.to/lastmile_qr_scan"}, "lon": -77.0591685, "type": "electric_scooter"}, {"bike_id": "b4396115c874d8ad213600000500a653", "is_reserved": 0, "fusion_lon": 0.0, "lat": 38.865727, "is_disabled": 0, "name": "b4396115c874d8ad213600000500a653", "fusion_lat": 0.0, "rental_uris": {"ios": "https://dc.lft.to/lastmile_qr_scan", "android": "https://dc.lft.to/lastmile_qr_scan"}, "lon": -76.98952183333333, "type": "electric_scooter"}, {"bike_id": "a88adae8574af239be05a4ed6b7171b9", "is_reserved": 0, "fusion_lon": 0.0, "lat": 38.903191166666666, "is_disabled": 0, "name": "a88adae8574af239be05a4ed6b7171b9", "fusion_lat": 0.0, "rental_uris": {"ios": "https://dc.lft.to/lastmile_qr_scan", "android": "https://dc.lft.to/lastmile_qr_scan"}, "lon": -77.03846616666667, "type": "electric_scooter"}, {"bike_id": "f5b479c4ccc9209c25c775e3e1e7698a", "is_reserved": 0, "fusion_lon": 0.0, "lat": 38.8961415, "is_disabled": 0, "name": "f5b479c4ccc9209c25c775e3e1e7698a", "fusion_lat": 0.0, "rental_uris": {"ios": "https://dc.lft.to/lastmile_qr_scan", "android": "https://dc.lft.to/lastmile_qr_scan"}, "lon": -76.98122416666666, "type": "electric_scooter"}, {"bike_id": "35c3f4f762aad07dfc9575ee0b5abbce", "is_reserved": 0, "fusion_lon": 0.0, "lat": 38.902447, "is_disabled": 0, "name": "35c3f4f762aad07dfc9575ee0b5abbce", "fusion_lat": 0.0, "rental_uris": {"ios": "https://dc.lft.to/lastmile_qr_scan", "android": "https://dc.lft.to/lastmile_qr_scan"}, "lon": -77.016384, "type": "electric_scooter"}, {"bike_id": "cfaef882193d50d03c140f49efced100", "is_reserved": 0, "fusion_lon": 0.0, "lat": 38.92967516666667, "is_disabled": 0, "name": "cfaef882193d50d03c140f49efced100", "fusion_lat": 0.0, "rental_uris": {"ios": "https://dc.lft.to/lastmile_qr_scan", "android": "https://dc.lft.to/lastmile_qr_scan"}, "lon": -77.032887, "type": "electric_bike"}, {"bike_id": "c88e8d22ce87ef72d6cbb16cc0b0be30", "is_reserved": 0, "fusion_lon": 0.0, "lat": 38.851525333333335, "is_disabled": 0, "name": "c88e8d22ce87ef72d6cbb16cc0b0be30", "fusion_lat": 0.0, "rental_uris": {"ios": "https://dc.lft.to/lastmile_qr_scan", "android": "https://dc.lft.to/lastmile_qr_scan"}, "lon": -77.128795, "type": "electric_bike"}, {"bike_id": "8eac537e577d9d9704b7bc0841183b31", "is_reserved": 0, "fusion_lon": 0.0, "lat": 38.90118666666667, "is_disabled": 0, "name": "8eac537e577d9d9704b7bc0841183b31", "fusion_lat": 0.0, "rental_uris": {"ios": "https://dc.lft.to/lastmile_qr_scan", "android": "https://dc.lft.to/lastmile_qr_scan"}, "lon": -77.044966, "type": "electric_scooter"}, {"bike_id": "a0080c5ea4d3a2cf7d61c5face145e3c", "is_reserved": 0, "fusion_lon": 0.0, "lat": 38.89473566666667, "is_disabled": 0, "name": "a0080c5ea4d3a2cf7d61c5face145e3c", "fusion_lat": 0.0, "rental_uris": {"ios": "https://dc.lft.to/lastmile_qr_scan", "android": "https://dc.lft.to/lastmile_qr_scan"}, "lon": -76.9839905, "type": "electric_scooter"}, {"bike_id": "96cd1f2f38a1cf9fb61c3aad09f182e0", "is_reserved": 0, "fusion_lon": 0.0, "lat": 38.88021583333333, "is_disabled": 0, "name": "96cd1f2f38a1cf9fb61c3aad09f182e0", "fusion_lat": 0.0, "rental_uris": {"ios": "https://dc.lft.to/lastmile_qr_scan", "android": "https://dc.lft.to/lastmile_qr_scan"}, "lon": -77.0249995, "type": "electric_scooter"}, {"bike_id": "72777fbd21cc74be831f2e991c35e2ce", "is_reserved": 0, "fusion_lon": 0.0, "lat": 38.95725766666666, "is_disabled": 0, "name": "72777fbd21cc74be831f2e991c35e2ce", "fusion_lat": 0.0, "rental_uris": {"ios": "https://dc.lft.to/lastmile_qr_scan", "android": "https://dc.lft.to/lastmile_qr_scan"}, "lon": -77.02406683333334, "type": "electric_scooter"}, {"bike_id": "aa2d5de65f3b75eea2ccd4b0d31cfc3e", "is_reserved": 0, "fusion_lon": 0.0, "lat": 38.878364166666664, "is_disabled": 0, "name": "aa2d5de65f3b75eea2ccd4b0d31cfc3e", "fusion_lat": 0.0, "rental_uris": {"ios": "https://dc.lft.to/lastmile_qr_scan", "android": "https://dc.lft.to/lastmile_qr_scan"}, "lon": -77.02281433333333, "type": "electric_scooter"},