{"data": {"bikes": [{"is_reserved": 0, "is_disabled": 0, "fusion_lon": 0.0, "lat": 38.8947755, "name": "46f657cffd32f92ec3611cd6a58f7d5d", "bike_id": "46f657cffd32f92ec3611cd6a58f7d5d", "lon": -76.99444283333334, "fusion_lat": 0.0, "rental_uris": {"android": "https://dc.lft.to/lastmile_qr_scan", "ios": "https://dc.lft.to/lastmile_qr_scan"}, "type": "electric_scooter"}, {"is_reserved": 0, "is_disabled": 0, "fusion_lon": 0.0, "lat": 38.998950666666666, "name": "f132900052d76d9039099b3c8a295369", "bike_id": "f132900052d76d9039099b3c8a295369", "lon": -76.90866583333333, "fusion_lat": 0.0, "rental_uris": {"android": "https://dc.lft.to/lastmile_qr_scan", "ios": "https://dc.lft.to/lastmile_qr_scan"}, "type": "electric_bike"}, {"is_reserved": 0, "is_disabled": 0, "fusion_lon": 0.0, "lat": 38.90752066666667, "name": "692fbbd87740f1fd0f437d0f2e54cdf6", "bike_id": "692fbbd87740f1fd0f437d0f2e54cdf6", "lon": -77.0307985, "fusion_lat": 0.0, "rental_uris": {"android": "https://dc.lft.to/lastmile_qr_scan", "ios": "https://dc.lft.to/lastmile_qr_scan"}, "type": "electric_scooter"}, {"is_reserved": 0, "is_disabled": 0, "fusion_lon": 0.0, "lat": 38.904452666666664, "name": "0683538fa972e8b45602013df29fac62", "bike_id": "0683538fa972e8b45602013df29fac62", "lon": -77.03666833333334, "fusion_lat": 0.0, "rental_uris": {"android": "https://dc.lft.to/lastmile_qr_scan", "ios": "https://dc.lft.to/lastmile_qr_scan"}, "type": "electric_scooter"}, {"is_reserved": 0, "is_disabled": 0, "fusion_lon": 0.0, "lat": 38.911083166666664, "name": "47818421909d52cc04ca9c9dd4b3e3be", "bike_id": "47818421909d52cc04ca9c9dd4b3e3be", "lon": -77.02516916666667, "fusion_lat": 0.0, "rental_uris": {"android": "https://dc.lft.to/lastmile_qr_scan", "ios": "https://dc.lft.to/lastmile_qr_scan"}, "type": "electric_scooter"}, {"is_reserved": 0, "is_disabled": 0, "fusion_lon": 0.0, "lat": 38.909045166666665, "name": "da2d1b9bb0dbca4c032dc3c4552de3e1", "bike_id": "da2d1b9bb0dbca4c032dc3c4552de3e1", "lon": -77.02720383333333, "fusion_lat": 0.0, "rental_uris": {"android": "https://dc.lft.to/lastmile_qr_scan", "ios": "https://dc.lft.to/lastmile_qr_scan"}, "type": "electric_scooter"}, {"is_reserved": 0, "is_disabled": 0, "fusion_lon": 0.0, "lat": 38.9017745, "name": "0be3010c1de56d00689b31e847a3086b", "bike_id": "0be3010c1de56d00689b31e847a3086b", "lon": -76.98035166666666, "fusion_lat": 0.0, "rental_uris": {"android": "https://dc.lft.to/lastmile_qr_scan", "ios": "https://dc.lft.to/lastmile_qr_scan"}, "type": "electric_scooter"}, {"is_reserved": 0, "is_disabled": 0, "fusion_lon": 0.0, "lat": 38.91168783333333, "name": "818a250d673b4af789c208c24f43972b", "bike_id": "818a250d673b4af789c208c24f43972b", "lon": -77.00214533333333, "fusion_lat": 0.0, "rental_uris": {"android": "https://dc.lft.to/lastmile_qr_scan", "ios": "https://dc.lft.to/lastmile_qr_scan"}, "type": "electric_scooter"}, {"is_reserved": 0, "is_disabled": 0, "fusion_lon": 0.0, "lat": 38.90036816666667, "name": "b7a8c54e19e82aded010fbb6c5bd8a71", "bike_id": "b7a8c54e19e82aded010fbb6c5bd8a71", "lon": -76.98841166666666, "fusion_lat": 0.0, "rental_uris": {"android": "https://dc.lft.to/lastmile_qr_scan", "ios": "https://dc.lft.to/lastmile_qr_scan"}, "type": "electric_scooter"}, {"is_reserved": 0, "is_disabled": 0, "fusion_lon": 0.0, "lat": 38.9040285, "name": "542a84a4a0fc0a72bc76ddbcf0fe7784", "bike_id": "542a84a4a0fc0a72bc76ddbcf0fe7784", "lon": -77.00434566666667, "fusion_lat": 0.0, "rental_uris": {"android": "https://dc.lft.to/lastmile_qr_scan", "ios": "https://dc.lft.to/lastmile_qr_scan"}, "type": "electric_scooter"}, {"is_reserved": 0, "is_disabled": 0, "fusion_lon": 0.0, "lat": 38.87039383333333, "name": "f4caeb0209a4781775c2a90e8be60e3e", "bike_id": "f4caeb0209a4781775c2a90e8be60e3e", "lon": -77.22914316666666, "fusion_lat": 0.0, "rental_uris": {"android": "https://dc.lft.to/lastmile_qr_scan", "ios": "https://dc.lft.to/lastmile_qr_scan"}, "type": "electric_bike"}, {"is_reserved": 0, "is_disabled": 0, "fusion_lon": 0.0, "lat": 38.87965883333333, "name": "dee903974ea5250422f902194eb35698", "bike_id": "dee903974ea5250422f902194eb35698", "lon": -77.02418083333333, "fusion_lat": 0.0, "rental_uris": {"android": "https://dc.lft.to/lastmile_qr_scan", "ios": "https://dc.lft.to/lastmile_qr_scan"}, "type": "electric_scooter"}, {"is_reserved": 0, "is_disabled": 0, "fusion_lon": 0.0, "lat": 38.9028195, "name": "1d4556d8cba96f92a1b8df9ab9cd53f2", "bike_id": "1d4556d8cba96f92a1b8df9ab9cd53f2", "lon": -77.02309666666666, "fusion_lat": 0.0, "rental_uris": {"android": "https://dc.lft.to/lastmile_qr_scan", "ios": "https://dc.lft.to/lastmile_qr_scan"}, "type": "electric_scooter"}, {"is_reserved": 0, "is_disabled": 0, "fusion_lon": 0.0, "lat": 38.92760216666667, "name": "d4107cdac92dc62230dfc7fb2cf473ff", "bike_id": "d4107cdac92dc62230dfc7fb2cf473ff", "lon": -77.032176, "fusion_lat": 0.0, "rental_uris": {"android": "https://dc.lft.to/lastmile_qr_scan", "ios": "https://dc.lft.to/lastmile_qr_scan"}, "type": "electric_scooter"}, {"is_reserved": 0, "is_disabled": 0, "fusion_lon": 0.0, "lat": 38.90454016666666, "name": "20c3728c1320a790a980ea5c386bcc05", "bike_id": "20c3728c1320a790a980ea5c386bcc05", "lon": -77.04180033333333, "fusion_lat": 0.0, "rental_uris": {"android": "https://dc.lft.to/lastmile_qr_scan", "ios": "https://dc.lft.to/lastmile_qr_scan"}, "type": "electric_scooter"}, {"is_reserved": 0, "is_disabled": 0, "fusion_lon": 0.0, "lat": 38.91404433333334, "name": "d921bac675fc0406dc0d9a9ca1e2c00d", "bike_id": "d921bac675fc0406dc0d9a9ca1e2c00d", "lon": -77.01824333333333, "fusion_lat": 0.0, "rental_uris": {"android": "https://dc.lft.to/lastmile_qr_scan", "ios": "https://dc.lft.to/lastmile_qr_scan"}, "type": "electric_scooter"}, {"is_reserved": 0, "is_disabled": 0, "fusion_lon": 0.0, "lat": 38.936275333333334, "name": "553fcd15daaa262676356b9330131721", "bike_id": "553fcd15daaa262676356b9330131721", "lon": -77.06414216666667, "fusion_lat": 0.0, "rental_uris": {"android": "https://dc.lft.to/lastmile_qr_scan", "ios": "https://dc.lft.to/lastmile_qr_scan"}, "type": "electric_scooter"}, {"is_reserved": 0, "is_disabled": 0, "fusion_lon": 0.0, "lat": 38.92365183333333, "name": "22c56e6e3d92ae7dd8ca757d2d63ff3a", "bike_id": "22c56e6e3d92ae7dd8ca757d2d63ff3a", "lon": -77.019079, "fusion_lat": 0.0, "rental_uris": {"android": "https://dc.lft.to/lastmile_qr_scan", "ios": "https://dc.lft.to/lastmile_qr_scan"}, "type": "electric_scooter"}, {"is_reserved": 0, "is_disabled": 0, "fusion_lon": 0.0, "lat": 38.9078385, "name": "409fec1d77f4cfbe78d69e37eaabe5da", "bike_id": "409fec1d77f4cfbe78d69e37eaabe5da", "lon": -77.04506733333334, "fusion_lat": 0.0, "rental_uris": {"android": "https://dc.lft.to/lastmile_qr_scan", "ios": "https://dc.lft.to/lastmile_qr_scan"}, "type": "electric_scooter"}, {"is_reserved": 0, "is_disabled": 0, "fusion_lon": 0.0, "lat": 38.91758083333333, "name": "0725b3ebefd0f8f4ee6fab0c34990c90", "bike_id": "0725b3ebefd0f8f4ee6fab0c34990c90", "lon": -77.026965, "fusion_lat": 0.0, "rental_uris": {"android": "https://dc.lft.to/lastmile_qr_scan", "ios": "https://dc.lft.to/lastmile_qr_scan"}, "type": "electric_scooter"}, {"is_reserved": 0, "is_disabled": 0, "fusion_lon": 0.0, "lat": 38.9267385, "name": "daac9f91bd986ebde32fae5550727df9", "bike_id": "daac9f91bd986ebde32fae5550727df9", "lon": -77.01475833333333, "fusion_lat": 0.0, "rental_uris": {"android": "https://dc.lft.to/lastmile_qr_scan", "ios": "https://dc.lft.to/lastmile_qr_scan"}, "type": "electric_scooter"}, {"is_reserved": 0, "is_disabled": 0, "fusion_lon": 0.0, "lat": 38.907909, "name": "d7071997e177526ed6ce8a9a2e6566bc", "bike_id": "d7071997e177526ed6ce8a9a2e6566bc", "lon": -76.99730433333333, "fusion_lat": 0.0, "rental_uris": {"android": "https://dc.lft.to/lastmile_qr_scan", "ios": "https://dc.lft.to/lastmile_qr_scan"}, "type": "electric_scooter"}, {"is_reserved": 0, "is_disabled": 0, "fusion_lon": 0.0, "lat": 38.91368383333333, "name": "8b7602b4710841f59884de81f00d891a", "bike_id": "8b7602b4710841f59884de81f00d891a", "lon": -77.04578416666666, "fusion_lat": 0.0, "rental_uris": {"android": "https://dc.lft.to/lastmile_qr_scan", "ios": "https://dc.lft.to/lastmile_qr_scan"}, "type": "electric_scooter"}, {"is_reserved": 0, "is_disabled": 0, "fusion_lon": 0.0, "lat": 38.918601333333335, "name": "30b45b349dffb5b85e3bdd7e8262d4df", "bike_id": "30b45b349dffb5b85e3bdd7e8262d4df", "lon": -76.96085516666666, "fusion_lat": 0.0, "rental_uris": {"android": "https://dc.lft.to/lastmile_qr_scan", "ios": "https://dc.lft.to/lastmile_qr_scan"}, "type": "electric_bike"}, {"is_reserved": 0, "is_disabled": 0, "fusion_lon": 0.0, "lat": 38.9465905, "name": "1e1124fee9f048b7f83d5ddd1688e169", "bike_id": "1e1124fee9f048b7f83d5ddd1688e169", "lon": -77.02256516666667, "fusion_lat": 0.0, "rental_uris": {"android": "https://dc.lft.to/lastmile_qr_scan", "ios": "https://dc.lft.to/lastmile_qr_scan"}, "type": "electric_scooter"}, {"is_reserved": 0, "is_disabled": 0, "fusion_lon": 0.0, "lat": 38.896128, "name": "7cedffcd8cb1672825edadda4fb1bb95", "bike_id": "7cedffcd8cb1672825edadda4fb1bb95", "lon": -77.0443055, "fusion_lat": 0.0, "rental_uris": {"android": "https://dc.lft.to/lastmile_qr_scan", "ios": "https://dc.lft.to/lastmile_qr_scan"}, "type": "electric_scooter"}, {"is_reserved": 0, "is_disabled": 0, "fusion_lon": 0.0, "lat": 38.91764516666667, "name": "813475c6c5ab88fd23856ec344c076c9", "bike_id": "813475c6c5ab88fd23856ec344c076c9", "lon": -77.04774716666667, "fusion_lat": 0.0, "rental_uris": {"android": "https://dc.lft.to/lastmile_qr_scan", "ios": "https://dc.lft.to/lastmile_qr_scan"}, "type": "electric_scooter"}, {"is_reserved": 0, "is_disabled": 0, "fusion_lon": 0.0, "lat": 38.9106855, "name": "ef0d6901faca09c36fbc142d615cefba", "bike_id": "ef0d6901faca09c36fbc142d615cefba", "lon": -77.04480483333333, "fusion_lat": 0.0, "rental_uris": {"android": "https://dc.lft.to/lastmile_qr_scan", "ios": "https://dc.lft.to/lastmile_qr_scan"}, "type": "electric_scooter"}, {"is_reserved": 0, "is_disabled": 0, "fusion_lon": 0.0, "lat": 38.82924933333334, "name": "002c6feabd495becac904f2b8971db05", "bike_id": "002c6feabd495becac904f2b8971db05", "lon": -77.06884733333334, "fusion_lat": 0.0, "rental_uris": {"android": "https://dc.lft.to/lastmile_qr_scan", "ios": "https://dc.lft.to/lastmile_qr_scan"}, "type": "electric_bike"}, {"is_reserved": 0, "is_disabled": 0, "fusion_lon": 0.0, "lat": 38.89707116666666, "name": "c52585e99c4b88b12b93015c48fa508b", "bike_id": "c52585e99c4b88b12b93015c48fa508b", "lon": -77.02288816666666, "fusion_lat": 0.0, "rental_uris": {"android": "https://dc.lft.to/lastmile_qr_scan", "ios": "https://dc.lft.to/lastmile_qr_scan"}, "type": "electric_scooter"}, {"is_reserved": 0, "is_disabled": 0, "fusion_lon": 0.0, "lat": 38.876347333333335, "name": "bef3bf0168c16d4929b9aaf822419e89", "bike_id": "bef3bf0168c16d4929b9aaf822419e89", "lon": -76.999451, "fusion_lat": 0.0, "rental_uris": {"android": "https://dc.lft.to/lastmile_qr_scan", "ios": "https://dc.lft.to/lastmile_qr_scan"}, "type": "electric_scooter"}, {"is_reserved": 0, "is_disabled": 0, "fusion_lon": 0.0, "lat": 38.92240483333333, "name": "42158681e90e4390251cf961d37e8d40", "bike_id": "42158681e90e4390251cf961d37e8d40", "lon": -77.03666116666666, "fusion_lat": 0.0, "rental_uris": {"android": "https://dc.lft.to/lastmile_qr_scan", "ios": "https://dc.lft.to/lastmile_qr_scan"}, "type": "electric_scooter"}, {"is_reserved": 0, "is_disabled": 0, "fusion_lon": 0.0, "lat": 38.92600733333333, "name": "1642ea031357dc603ea1525164b73692", "bike_id": "1642ea031357dc603ea1525164b73692", "lon": -77.02159316666666, "fusion_lat": 0.0, "rental_uris": {"android": "https://dc.lft.to/lastmile_qr_scan", "ios": "https://dc.lft.to/lastmile_qr_scan"}, "type": "electric_scooter"}, {"is_reserved": 0, "is_disabled": 0, "fusion_lon": 0.0, "lat": 38.9015315, "name": "db2cf76862af3213786f6d941afb6c5c", "bike_id": "db2cf76862af3213786f6d941afb6c5c", "lon": -76.97429416666667, "fusion_lat": 0.0, "rental_uris": {"android": "https://dc.lft.to/lastmile_qr_scan", "ios": "https://dc.lft.to/lastmile_qr_scan"}, "type": "electric_scooter"}, {"is_reserved": 0, "is_disabled": 0, "fusion_lon": 0.0, "lat": 38.924139833333335, "name": "99f12a65b6b6499b6b5418b5eefcfe2a", "bike_id": "99f12a65b6b6499b6b5418b5eefcfe2a", "lon": -77.02133266666667, "fusion_lat": 0.0, "rental_uris": {"android": "https://dc.lft.to/lastmile_qr_scan", "ios": "https://dc.lft.to/lastmile_qr_scan"}, "type": "electric_scooter"}, {"is_reserved": 0, "is_disabled": 0, "fusion_lon": 0.0, "lat": 38.9167625, "name": "3ff05f3b302bba8289f0f9520f423a8d", "bike_id": "3ff05f3b302bba8289f0f9520f423a8d", "lon": -77.01583083333334, "fusion_lat": 0.0, "rental_uris": {"android": "https://dc.lft.to/lastmile_qr_scan", "ios": "https://dc.lft.to/lastmile_qr_scan"}, "type": "electric_scooter"}, {"is_reserved": 0, "is_disabled": 0, "fusion_lon": 0.0, "lat": 38.87659283333333, "name": "f167a3cc5e8cdadb3bf07c6008881dbc", "bike_id": "f167a3cc5e8cdadb3bf07c6008881dbc", "lon": -77.0006195, "fusion_lat": 0.0, "rental_uris": {"android": "https://dc.lft.to/lastmile_qr_scan", "ios": "https://dc.lft.to/lastmile_qr_scan"}, "type": "electric_scooter"}, {"is_reserved": 0, "is_disabled": 0, "fusion_lon": 0.0, "lat": 38.9300585, "name": "1ef23943f8a983262129560e6855fbd6", "bike_id": "1ef23943f8a983262129560e6855fbd6", "lon": -77.02423533333334, "fusion_lat": 0.0, "rental_uris": {"android": "https://dc.lft.to/lastmile_qr_scan", "ios": "https://dc.lft.to/lastmile_qr_scan"}, "type": "electric_scooter"}, {"is_reserved": 0, "is_disabled": 0, "fusion_lon": 0.0, "lat": 38.914043166666666, "name": "3e67f6a94eea5f9d40cc565e8c5aeecf", "bike_id": "3e67f6a94eea5f9d40cc565e8c5aeecf", "lon": -77.04887666666667, "fusion_lat": 0.0, "rental_uris": {"android": "https://dc.lft.to/lastmile_qr_scan", "ios": "https://dc.lft.to/lastmile_qr_scan"}, "type": "electric_scooter"}, {"is_reserved": 0, "is_disabled": 0, "fusion_lon": 0.0, "lat": 38.91391616666667, "name": "7a25420a4c092d595876855016326a87", "bike_id": "7a25420a4c092d595876855016326a87", "lon": -76.98409183333334, "fusion_lat": 0.0, "rental_uris": {"android": "https://dc.lft.to/lastmile_qr_scan", "ios": "https://dc.lft.to/lastmile_qr_scan"}, "type": "electric_scooter"}, {"is_reserved": 0, "is_disabled": 0, "fusion_lon": 0.0, "lat": 38.9320885, "name": "08881a73ecfaf603b9ee1104b65964df", "bike_id": "08881a73ecfaf603b9ee1104b65964df", "lon": -77.032677, "fusion_lat": 0.0, "rental_uris": {"android": "https://dc.lft.to/lastmile_qr_scan", "ios": "https://dc.lft.to/lastmile_qr_scan"}, "type": "electric_scooter"}, {"is_reserved": 0, "is_disabled": 0, "fusion_lon": 0.0, "lat": 38.8960435, "name": "b2a20c951eea8d50361e20be356cc759", "bike_id": "b2a20c951eea8d50361e20be356cc759", "lon": -77.02794983333334, "fusion_lat": 0.0, "rental_uris": {"android": "https://dc.lft.to/lastmile_qr_scan", "ios": "https://dc.lft.to/lastmile_qr_scan"}, "type": "electric_scooter"}, {"is_reserved": 0, "is_disabled": 0, "fusion_lon": 0.0, "lat": 38.916254333333335, "name": "5516a4c41350e9b573f0a948d06b2b5c", "bike_id": "5516a4c41350e9b573f0a948d06b2b5c", "lon": -77.05057633333334, "fusion_lat": 0.0, "rental_uris": {"android": "https://dc.lft.to/lastmile_qr_scan", "ios": "https://dc.lft.to/lastmile_qr_scan"}, "type": "electric_scooter"}, {"is_reserved": 0, "is_disabled": 0, "fusion_lon": 0.0, "lat": 38.9286395, "name": "54267610988392b141a928b73127807a", "bike_id": "54267610988392b141a928b73127807a", "lon": -77.034122, "fusion_lat": 0.0, "rental_uris": {"android": "https://dc.lft.to/lastmile_qr_scan", "ios": "https://dc.lft.to/lastmile_qr_scan"}, "type": "electric_scooter"}, {"is_reserved": 0, "is_disabled": 0, "fusion_lon": 0.0, "lat": 38.94185483333333, "name": "970b79df150048c3d40b93baa2225230", "bike_id": "970b79df150048c3d40b93baa2225230", "lon": -77.024955, "fusion_lat": 0.0, "rental_uris": {"android": "https://dc.lft.to/lastmile_qr_scan", "ios": "https://dc.lft.to/lastmile_qr_scan"}, "type": "electric_scooter"}, {"is_reserved": 0, "is_disabled": 0, "fusion_lon": 0.0, "lat": 38.84643666666667, "name": "ecfad26832b408a2265d7527f6970e9c", "bike_id": "ecfad26832b408a2265d7527f6970e9c", "lon": -76.970745, "fusion_lat": 0.0, "rental_uris": {"android": "https://dc.lft.to/lastmile_qr_scan", "ios": "https://dc.lft.to/lastmile_qr_scan"}, "type": "electric_bike"}, {"is_reserved": 0, "is_disabled": 0, "fusion_lon": 0.0, "lat": 38.87174683333333, "name": "93cc14f6ada4c2c49863148750d933f4", "bike_id": "93cc14f6ada4c2c49863148750d933f4", "lon": -77.00664083333334, "fusion_lat": 0.0, "rental_uris": {"android": "https://dc.lft.to/lastmile_qr_scan", "ios": "https://dc.lft.to/lastmile_qr_scan"}, "type": "electric_scooter"}, {"is_reserved": 0, "is_disabled": 0, "fusion_lon": 0.0, "lat": 38.9178735, "name": "57271f213c02fe6a8e6ae1e871ab795f", "bike_id": "57271f213c02fe6a8e6ae1e871ab795f", "lon": -77.02312333333333, "fusion_lat": 0.0, "rental_uris": {"android": "https://dc.lft.to/lastmile_qr_scan", "ios": "https://dc.lft.to/lastmile_qr_scan"}, "type": "electric_scooter"}, {"is_reserved": 0, "is_disabled": 0, "fusion_lon": 0.0, "lat": 38.911167166666665, "name": "7ffbb37cbadfd37a186e7fc8d27a2398", "bike_id": "7ffbb37cbadfd37a186e7fc8d27a2398", "lon": -77.03864616666667, "fusion_lat": 0.0, "rental_uris": {"android": "https://dc.lft.to/lastmile_qr_scan", "ios": "https://dc.lft.to/lastmile_qr_scan"}, "type": "electric_scooter"}, {"is_reserved": 0, "is_disabled": 0, "fusion_lon": 0.0, "lat": 38.89629266666667, "name": "697be89e8c31c03b38630206545382cb", "bike_id": "697be89e8c31c03b38630206545382cb", "lon": -77.02196316666667, "fusion_lat": 0.0, "rental_uris": {"android": "https://dc.lft.to/lastmile_qr_scan", "ios": "https://dc.lft.to/lastmile_qr_scan"}, "type": "electric_scooter"}, {"is_reserved": 0, "is_disabled": 0, "fusion_lon": 0.0, "lat": 38.90388633333333, "name": "9c7eceacaa80fbc4f32eb8f42f80ce0f", "bike_id": "9c7eceacaa80fbc4f32eb8f42f80ce0f", "lon": -76.97382383333333, "fusion_lat": 0.0, "rental_uris": {"android": "https://dc.lft.to/lastmile_qr_scan", "ios": "https://dc.lft.to/lastmile_qr_scan"}, "type": "electric_scooter"}, {"is_reserved": 0, "is_disabled": 0, "fusion_lon": 0.0, "lat": 38.854563, "name": "9bc9dddeb8ca3a11d4ebba5a68ce2e3c", "bike_id": "9bc9dddeb8ca3a11d4ebba5a68ce2e3c", "lon": -76.9862325, "fusion_lat": 0.0, "rental_uris": {"android": "https://dc.lft.to/lastmile_qr_scan", "ios": "https://dc.lft.to/lastmile_qr_scan"}, "type": "electric_bike"}, {"is_reserved": 0, "is_disabled": 0, "fusion_lon": 0.0, "lat": 38.87863083333333, "name": "9d7c2bc333077a0922b3b95cebaf36d1", "bike_id": "9d7c2bc333077a0922b3b95cebaf36d1", "lon": -76.9966575, "fusion_lat": 0.0, "rental_uris": {"android": "https://dc.lft.to/lastmile_qr_scan", "ios": "https://dc.lft.to/lastmile_qr_scan"}, "type": "electric_scooter"}, {"is_reserved": 0, "is_disabled": 0, "fusion_lon": 0.0, "lat": 38.9025445, "name": "4c12dcf798173b4aff610e752d2aafea", "bike_id": "4c12dcf798173b4aff610e752d2aafea", "lon": -76.98476066666667, "fusion_lat": 0.0, "rental_uris": {"android": "https://dc.lft.to/lastmile_qr_scan", "ios": "https://dc.lft.to/lastmile_qr_scan"}, "type": "electric_scooter"}, {"is_reserved": 0, "is_disabled": 0, "fusion_lon": 0.0, "lat": 38.918433, "name": "61dd0626faec449129518961165fcd2a", "bike_id": "61dd0626faec449129518961165fcd2a", "lon": -77.02303516666667, "fusion_lat": 0.0, "rental_uris": {"android": "https://dc.lft.to/lastmile_qr_scan", "ios": "https://dc.lft.to/lastmile_qr_scan"}, "type": "electric_scooter"}, {"is_reserved": 0, "is_disabled": 0, "fusion_lon": 0.0, "lat": 38.92555016666667, "name": "aa7b4d169eac7232a1e29cf38475ec81", "bike_id": "aa7b4d169eac7232a1e29cf38475ec81", "lon": -76.983144, "fusion_lat": 0.0, "rental_uris": {"android": "https://dc.lft.to/lastmile_qr_scan", "ios": "https://dc.lft.to/lastmile_qr_scan"}, "type": "electric_scooter"}, {"is_reserved": 0, "is_disabled": 0, "fusion_lon": 0.0, "lat": 38.8945415, "name": "1dacf13f2d44ef668c4a9841dcf49e2c", "bike_id": "1dacf13f2d44ef668c4a9841dcf49e2c", "lon": -77.026648, "fusion_lat": 0.0, "rental_uris": {"android": "https://dc.lft.to/lastmile_qr_scan", "ios": "https://dc.lft.to/lastmile_qr_scan"}, "type": "electric_scooter"}, {"is_reserved": 0, "is_disabled": 0, "fusion_lon": 0.0, "lat": 38.944846, "name": "5d1f0fd0b06e6ecaa10c43069e76ee10", "bike_id": "5d1f0fd0b06e6ecaa10c43069e76ee10", "lon": -77.06408583333334, "fusion_lat": 0.0, "rental_uris": {"android": "https://dc.lft.to/lastmile_qr_scan", "ios": "https://dc.lft.to/lastmile_qr_scan"}, "type": "electric_scooter"}, {"is_reserved": 0, "is_disabled": 0, "fusion_lon": 0.0, "lat": 38.923314833333336, "name": "5288c221872ab5aebb56764848346c68", "bike_id": "5288c221872ab5aebb56764848346c68", "lon": -77.05684916666667, "fusion_lat": 0.0, "rental_uris": {"android": "https://dc.lft.to/lastmile_qr_scan", "ios": "https://dc.lft.to/lastmile_qr_scan"}, "type": "electric_scooter"}, {"is_reserved": 0, "is_disabled": 0, "fusion_lon": 0.0, "lat": 38.852452, "name": "6b522d070ea84edfa9a9d32ed67c87e5", "bike_id": "6b522d070ea84edfa9a9d32ed67c87e5", "lon": -77.11433583333333, "fusion_lat": 0.0, "rental_uris": {"android": "https://dc.lft.to/lastmile_qr_scan", "ios": "https://dc.lft.to/lastmile_qr_scan"}, "type": "electric_bike"}, {"is_reserved": 0, "is_disabled": 0, "fusion_lon": 0.0, "lat": 38.89331716666667, "name": "4db33b1f37aa86e6630a3e0442992e3f", "bike_id": "4db33b1f37aa86e6630a3e0442992e3f", "lon": -76.93929216666666, "fusion_lat": 0.0, "rental_uris": {"android": "https://dc.lft.to/lastmile_qr_scan", "ios": "https://dc.lft.to/lastmile_qr_scan"}, "type": "electric_scooter"}, {"is_reserved": 0, "is_disabled": 0, "fusion_lon": 0.0, "lat": 38.92156883333333, "name": "6f7464607bc21450441371b00eb1b726", "bike_id": "6f7464607bc21450441371b00eb1b726", "lon": -77.03322966666667, "fusion_lat": 0.0, "rental_uris": {"android": "https://dc.lft.to/lastmile_qr_scan", "ios": "https://dc.lft.to/lastmile_qr_scan"}, "type": "electric_scooter"}, {"is_reserved": 0, "is_disabled": 0, "fusion_lon": 0.0, "lat": 38.919862, "name": "29db4cc6fd98499cc52e294586482415", "bike_id": "29db4cc6fd98499cc52e294586482415", "lon": -77.0327255, "fusion_lat": 0.0, "rental_uris": {"android": "https://dc.lft.to/lastmile_qr_scan", "ios": "https://dc.lft.to/lastmile_qr_scan"}, "type": "electric_scooter"}, {"is_reserved": 0, "is_disabled": 0, "fusion_lon": 0.0, "lat": 38.90564716666667, "name": "a73e911fdcf2f09d883e931f550764a3", "bike_id": "a73e911fdcf2f09d883e931f550764a3", "lon": -77.033641, "fusion_lat": 0.0, "rental_uris": {"android": "https://dc.lft.to/lastmile_qr_scan", "ios": "https://dc.lft.to/lastmile_qr_scan"}, "type": "electric_scooter"}, {"is_reserved": 0, "is_disabled": 0, "fusion_lon": 0.0, "lat": 38.88622483333333, "name": "2fa44ca8840c3f12e3e2ca328561f793", "bike_id": "2fa44ca8840c3f12e3e2ca328561f793", "lon": -77.03171883333333, "fusion_lat": 0.0, "rental_uris": {"android": "https://dc.lft.to/lastmile_qr_scan", "ios": "https://dc.lft.to/lastmile_qr_scan"}, "type": "electric_scooter"}, {"is_reserved": 0, "is_disabled": 0, "fusion_lon": 0.0, "lat": 38.917868166666665, "name": "371cd20a21f00ece4e2fef919641f636", "bike_id": "371cd20a21f00ece4e2fef919641f636", "lon": -77.04249533333333, "fusion_lat": 0.0, "rental_uris": {"android": "https://dc.lft.to/lastmile_qr_scan", "ios": "https://dc.lft.to/lastmile_qr_scan"}, "type": "electric_scooter"}, {"is_reserved": 0, "is_disabled": 0, "fusion_lon": 0.0, "lat": 38.90782816666667, "name": "364f7f9838d87b283ca6ed3188f1a5a7", "bike_id": "364f7f9838d87b283ca6ed3188f1a5a7", "lon": -77.04875033333333, "fusion_lat": 0.0, "rental_uris": {"android": "https://dc.lft.to/lastmile_qr_scan", "ios": "https://dc.lft.to/lastmile_qr_scan"}, "type": "electric_scooter"}, {"is_reserved": 0, "is_disabled": 0, "fusion_lon": 0.0, "lat": 38.8751485, "name": "982112642c5931d07a0fbdd77e8e1eeb", "bike_id": "982112642c5931d07a0fbdd77e8e1eeb", "lon": -77.1176375, "fusion_lat": 0.0, "rental_uris": {"android": "https://dc.lft.to/lastmile_qr_scan", "ios": "https://dc.lft.to/lastmile_qr_scan"}, "type": "electric_bike"}, {"is_reserved": 0, "is_disabled": 0, "fusion_lon": 0.0, "lat": 38.91841, "name": "82b120ffa73f0e537b79df37ba26dd5b", "bike_id": "82b120ffa73f0e537b79df37ba26dd5b", "lon": -77.04026666666667, "fusion_lat": 0.0, "rental_uris": {"android": "https://dc.lft.to/lastmile_qr_scan", "ios": "https://dc.lft.to/lastmile_qr_scan"}, "type": "electric_scooter"}, {"is_reserved": 0, "is_disabled": 0, "fusion_lon": 0.0, "lat": 38.927601333333335, "name": "0f8caac2a9afa12b966cb2c38ed5a17e", "bike_id": "0f8caac2a9afa12b966cb2c38ed5a17e", "lon": -77.03208416666666, "fusion_lat": 0.0, "rental_uris": {"android": "https://dc.lft.to/lastmile_qr_scan", "ios": "https://dc.lft.to/lastmile_qr_scan"}, "type": "electric_scooter"}, {"is_reserved": 0, "is_disabled": 0, "fusion_lon": 0.0, "lat": 38.912694333333334, "name": "27bc12aac7c5473dc68d934076377c4d", "bike_id": "27bc12aac7c5473dc68d934076377c4d", "lon": -77.02215183333334, "fusion_lat": 0.0, "rental_uris": {"android": "https://dc.lft.to/lastmile_qr_scan", "ios": "https://dc.lft.to/lastmile_qr_scan"}, "type": "electric_scooter"}, {"is_reserved": 0, "is_disabled": 0, "fusion_lon": 0.0, "lat": 38.89270233333333, "name": "6af4a39402d961ea7c5c187a592b6a72", "bike_id": "6af4a39402d961ea7c5c187a592b6a72", "lon": -77.01282333333333, "fusion_lat": 0.0, "rental_uris": {"android": "https://dc.lft.to/lastmile_qr_scan", "ios": "https://dc.lft.to/lastmile_qr_scan"}, "type": "electric_scooter"}, {"is_reserved": 0, "is_disabled": 0, "fusion_lon": 0.0, "lat": 38.89609566666667, "name": "4c29a848289737d4e62ad4647b189e4f", "bike_id": "4c29a848289737d4e62ad4647b189e4f", "lon": -77.00895716666666, "fusion_lat": 0.0, "rental_uris": {"android": "https://dc.lft.to/lastmile_qr_scan", "ios": "https://dc.lft.to/lastmile_qr_scan"}, "type": "electric_scooter"}, {"is_reserved": 0, "is_disabled": 0, "fusion_lon": 0.0, "lat": 38.926929333333334, "name": "0572d1d87f52ac5d859ecd6636fcfb70", "bike_id": "0572d1d87f52ac5d859ecd6636fcfb70", "lon": -77.00775883333333, "fusion_lat": 0.0, "rental_uris": {"android": "https://dc.lft.to/lastmile_qr_scan", "ios": "https://dc.lft.to/lastmile_qr_scan"}, "type": "electric_scooter"}, {"is_reserved": 0, "is_disabled": 0, "fusion_lon": 0.0, "lat": 38.91545133333333, "name": "0e936db10fb642e03e91a5e3b9371b2e", "bike_id": "0e936db10fb642e03e91a5e3b9371b2e", "lon": -77.03860366666666, "fusion_lat": 0.0, "rental_uris": {"android": "https://dc.lft.to/lastmile_qr_scan", "ios": "https://dc.lft.to/lastmile_qr_scan"}, "type": "electric_scooter"}, {"is_reserved": 0, "is_disabled": 0, "fusion_lon": 0.0, "lat": 38.93172633333333, "name": "252718535ae891f234e1291e5d9650a1", "bike_id": "252718535ae891f234e1291e5d9650a1", "lon": -77.02346183333333, "fusion_lat": 0.0, "rental_uris": {"android": "https://dc.lft.to/lastmile_qr_scan", "ios": "https://dc.lft.to/lastmile_qr_scan"}, "type": "electric_scooter"}, {"is_reserved": 0, "is_disabled": 0, "fusion_lon": 0.0, "lat": 38.92650183333333, "name": "b309d2210ab1836f4e39fc5910f629fd", "bike_id": "b309d2210ab1836f4e39fc5910f629fd", "lon": -77.09018283333333, "fusion_lat": 0.0, "rental_uris": {"android": "https://dc.lft.to/lastmile_qr_scan", "ios": "https://dc.lft.to/lastmile_qr_scan"}, "type": "electric_bike"}, {"is_reserved": 0, "is_disabled": 0, "fusion_lon": 0.0, "lat": 38.89669716666667, "name": "bb2b131fd587b1a010c447bcd573e78e", "bike_id": "bb2b131fd587b1a010c447bcd573e78e", "lon": -76.93214083333334, "fusion_lat": 0.0, "rental_uris": {"android": "https://dc.lft.to/lastmile_qr_scan", "ios": "https://dc.lft.to/lastmile_qr_scan"}, "type": "electric_scooter"}, {"is_reserved": 0, "is_disabled": 0, "fusion_lon": 0.0, "lat": 38.884643, "name": "7a07125725967f8a560187e888e8514a", "bike_id": "7a07125725967f8a560187e888e8514a", "lon": -76.92623266666666, "fusion_lat": 0.0, "rental_uris": {"android": "https://dc.lft.to/lastmile_qr_scan", "ios": "https://dc.lft.to/lastmile_qr_scan"}, "type": "electric_scooter"}, {"is_reserved": 0, "is_disabled": 0, "fusion_lon": 0.0, "lat": 38.9211905, "name": "bebfa178f5364aa8aa413431c8b49914", "bike_id": "bebfa178f5364aa8aa413431c8b49914", "lon": -77.04384966666667, "fusion_lat": 0.0, "rental_uris": {"android": "https://dc.lft.to/lastmile_qr_scan", "ios": "https://dc.lft.to/lastmile_qr_scan"}, "type": "electric_scooter"}, {"is_reserved": 0, "is_disabled": 0, "fusion_lon": 0.0, "lat": 38.922282333333335, "name": "4e617ebde9574004ea026a4b88a8be6f", "bike_id": "4e617ebde9574004ea026a4b88a8be6f", "lon": -77.02214016666667, "fusion_lat": 0.0, "rental_uris": {"android": "https://dc.lft.to/lastmile_qr_scan", "ios": "https://dc.lft.to/lastmile_qr_scan"}, "type": "electric_scooter"}, {"is_reserved": 0, "is_disabled": 0, "fusion_lon": 0.0, "lat": 38.8903935, "name": "b00d97f474b942f1ee18b9b3f6a0fea0", "bike_id": "b00d97f474b942f1ee18b9b3f6a0fea0", "lon": -76.93761833333333, "fusion_lat": 0.0, "rental_uris": {"android": "https://dc.lft.to/lastmile_qr_scan", "ios": "https://dc.lft.to/lastmile_qr_scan"}, "type": "electric_scooter"}, {"is_reserved": 0, "is_disabled": 0, "fusion_lon": 0.0, "lat": 38.8924375, "name": "1088529b24d27e00912602fc0e194ab6", "bike_id": "1088529b24d27e00912602fc0e194ab6", "lon": -77.031897, "fusion_lat": 0.0, "rental_uris": {"android": "https://dc.lft.to/lastmile_qr_scan", "ios": "https://dc.lft.to/lastmile_qr_scan"}, "type": "electric_scooter"}, {"is_reserved": 0, "is_disabled": 0, "fusion_lon": 0.0, "lat": 38.901406333333334, "name": "222ca8a08109da008c0325080c49623f", "bike_id": "222ca8a08109da008c0325080c49623f", "lon": -77.03921633333333, "fusion_lat": 0.0, "rental_uris": {"android": "https://dc.lft.to/lastmile_qr_scan", "ios": "https://dc.lft.to/lastmile_qr_scan"}, "type": "electric_scooter"}, {"is_reserved": 0, "is_disabled": 0, "fusion_lon": 0.0, "lat": 38.951332, "name": "deb8c3496c526ba1f7baca9edf121225", "bike_id": "deb8c3496c526ba1f7baca9edf121225", "lon": -77.027294, "fusion_lat": 0.0, "rental_uris": {"android": "https://dc.lft.to/lastmile_qr_scan", "ios": "https://dc.lft.to/lastmile_qr_scan"}, "type": "electric_scooter"}, {"is_reserved": 0, "is_disabled": 0, "fusion_lon": 0.0, "lat": 38.901069166666666, "name": "df5b4b5bc3d9282abac1fbb083800d38", "bike_id": "df5b4b5bc3d9282abac1fbb083800d38", "lon": -77.01819133333333, "fusion_lat": 0.0, "rental_uris": {"android": "https://dc.lft.to/lastmile_qr_scan", "ios": "https://dc.lft.to/lastmile_qr_scan"}, "type": "electric_scooter"}, {"is_reserved": 0, "is_disabled": 0, "fusion_lon": 0.0, "lat": 38.9019335, "name": "d64ad79212ec001aa8681c9cc21bfc6f", "bike_id": "d64ad79212ec001aa8681c9cc21bfc6f", "lon": -77.01281866666666, "fusion_lat": 0.0, "rental_uris": {"android": "https://dc.lft.to/lastmile_qr_scan", "ios": "https://dc.lft.to/lastmile_qr_scan"}, "type": "electric_scooter"}, {"is_reserved": 0, "is_disabled": 0, "fusion_lon": 0.0, "lat": 38.89611683333333, "name": "fd8e13e5c8304cd3b5c9852121199ec4", "bike_id": "fd8e13e5c8304cd3b5c9852121199ec4", "lon": -77.005623, "fusion_lat": 0.0, "rental_uris": {"android": "https://dc.lft.to/lastmile_qr_scan", "ios": "https://dc.lft.to/lastmile_qr_scan"}, "type": "electric_scooter"}, {"is_reserved": 0, "is_disabled": 0, "fusion_lon": 0.0, "lat": 38.845803, "name": "af240d24917b774bf436a2d50afdad53", "bike_id": "af240d24917b774bf436a2d50afdad53", "lon": -77.0745765, "fusion_lat": 0.0, "rental_uris": {"android": "https://dc.lft.to/lastmile_qr_scan", "ios": "https://dc.lft.to/lastmile_qr_scan"}, "type": "electric_bike"}, {"is_reserved": 0, "is_disabled": 0, "fusion_lon": 0.0, "lat": 38.923194333333335, "name": "7f11e31061880c0df6346c8ad836dc7b", "bike_id": "7f11e31061880c0df6346c8ad836dc7b", "lon": -77.04459033333333, "fusion_lat": 0.0, "rental_uris": {"android": "https://dc.lft.to/lastmile_qr_scan", "ios": "https://dc.lft.to/lastmile_qr_scan"}, "type": "electric_scooter"}, {"is_reserved": 0, "is_disabled": 0, "fusion_lon": 0.0, "lat": 38.918982166666666, "name": "d828c5da239197d70accedfe58fb3cb7", "bike_id": "d828c5da239197d70accedfe58fb3cb7", "lon": -77.101787, "fusion_lat": 0.0, "rental_uris": {"android": "https://dc.lft.to/lastmile_qr_scan", "ios": "https://dc.lft.to/lastmile_qr_scan"}, "type": "electric_bike"}, {"is_reserved": 0, "is_disabled": 0, "fusion_lon": 0.0, "lat": 38.905158666666665, "name": "0949627f9a72ce37f481d334c9621732", "bike_id": "0949627f9a72ce37f481d334c9621732", "lon": -77.07012416666667, "fusion_lat": 0.0, "rental_uris": {"android": "https://dc.lft.to/lastmile_qr_scan", "ios": "https://dc.lft.to/lastmile_qr_scan"}, "type": "electric_scooter"}, {"is_reserved": 0, "is_disabled": 0, "fusion_lon": 0.0, "lat": 38.90026, "name": "e003d2fcb467b60f67f6c28787a2f51b", "bike_id": "e003d2fcb467b60f67f6c28787a2f51b", "lon": -76.99586683333334, "fusion_lat": 0.0, "rental_uris": {"android": "https://dc.lft.to/lastmile_qr_scan", "ios": "https://dc.lft.to/lastmile_qr_scan"}, "type": "electric_scooter"}, {"is_reserved": 0, "is_disabled": 0, "fusion_lon": 0.0, "lat": 38.933618, "name": "b8e997d5679f90d35108219a47376b10", "bike_id": "b8e997d5679f90d35108219a47376b10", "lon": -77.0238675, "fusion_lat": 0.0, "rental_uris": {"android": "https://dc.lft.to/lastmile_qr_scan", "ios": "https://dc.lft.to/lastmile_qr_scan"}, "type": "electric_scooter"}, {"is_reserved": 0, "is_disabled": 0, "fusion_lon": 0.0, "lat": 38.893566166666666, "name": "8000b168a38a7d77a0f1aacc2af9fdc4", "bike_id": "8000b168a38a7d77a0f1aacc2af9fdc4", "lon": -77.00334516666666, "fusion_lat": 0.0, "rental_uris": {"android": "https://dc.lft.to/lastmile_qr_scan", "ios": "https://dc.lft.to/lastmile_qr_scan"}, "type": "electric_scooter"}, {"is_reserved": 0, "is_disabled": 0, "fusion_lon": 0.0, "lat": 38.914924666666664, "name": "cfe91210272eaad5d265cb53455cadc2", "bike_id": "cfe91210272eaad5d265cb53455cadc2", "lon": -77.03237116666666, "fusion_lat": 0.0, "rental_uris": {"android": "https://dc.lft.to/lastmile_qr_scan", "ios": "https://dc.lft.to/lastmile_qr_scan"}, "type": "electric_scooter"}, {"is_reserved": 0, "is_disabled": 0, "fusion_lon": 0.0, "lat": 38.9033025, "name": "9e31f2d30ab7b5a928638323fd5c5674", "bike_id": "9e31f2d30ab7b5a928638323fd5c5674", "lon": -76.97593633333334, "fusion_lat": 0.0, "rental_uris": {"android": "https://dc.lft.to/lastmile_qr_scan", "ios": "https://dc.lft.to/lastmile_qr_scan"}, "type": "electric_scooter"}, {"is_reserved": 0, "is_disabled": 0, "fusion_lon": 0.0, "lat": 38.9639405, "name": "00202b9e179502315dfaf5e01dbc60d2", "bike_id": "00202b9e179502315dfaf5e01dbc60d2", "lon": -77.02593316666666, "fusion_lat": 0.0, "rental_uris": {"android": "https://dc.lft.to/lastmile_qr_scan", "ios": "https://dc.lft.to/lastmile_qr_scan"}, "type": "electric_scooter"}, {"is_reserved": 0, "is_disabled": 0, "fusion_lon": 0.0, "lat": 38.91999666666667, "name": "a82af09aedb04c5ba14e27dbf921c3b2", "bike_id": "a82af09aedb04c5ba14e27dbf921c3b2", "lon": -77.025206, "fusion_lat": 0.0, "rental_uris": {"android": "https://dc.lft.to/lastmile_qr_scan", "ios": "https://dc.lft.to/lastmile_qr_scan"}, "type": "electric_scooter"}, {"is_reserved": 0, "is_disabled": 0, "fusion_lon": 0.0, "lat": 38.924632, "name": "a7e1300c3c1c0e51153f5e781f9b7515", "bike_id": "a7e1300c3c1c0e51153f5e781f9b7515", "lon": -77.02273383333333, "fusion_lat": 0.0, "rental_uris": {"android": "https://dc.lft.to/lastmile_qr_scan", "ios": "https://dc.lft.to/lastmile_qr_scan"}, "type": "electric_scooter"}, {"is_reserved": 0, "is_disabled": 0, "fusion_lon": 0.0, "lat": 38.91322316666667, "name": "16e4d991f2c2d1375c1804e569cf23bd", "bike_id": "16e4d991f2c2d1375c1804e569cf23bd", "lon": -77.04563333333333, "fusion_lat": 0.0, "rental_uris": {"android": "https://dc.lft.to/lastmile_qr_scan", "ios": "https://dc.lft.to/lastmile_qr_scan"}, "type": "electric_scooter"}, {"is_reserved": 0, "is_disabled": 0, "fusion_lon": 0.0, "lat": 38.835872, "name": "43669f4b799ec77ecf2a4c1e85ecf80a", "bike_id": "43669f4b799ec77ecf2a4c1e85ecf80a", "lon": -76.990333, "fusion_lat": 0.0, "rental_uris": {"android": "https://dc.lft.to/lastmile_qr_scan", "ios": "https://dc.lft.to/lastmile_qr_scan"}, "type": "electric_bike"}, {"is_reserved": 0, "is_disabled": 0, "fusion_lon": 0.0, "lat": 38.8973435, "name": "3a149ac22a9fdcd800f176f58c042f3e", "bike_id": "3a149ac22a9fdcd800f176f58c042f3e", "lon": -77.04425633333334, "fusion_lat": 0.0, "rental_uris": {"android": "https://dc.lft.to/lastmile_qr_scan", "ios": "https://dc.lft.to/lastmile_qr_scan"}, "type": "electric_scooter"}, {"is_reserved": 0, "is_disabled": 0, "fusion_lon": 0.0, "lat": 38.92441133333333, "name": "be735c378870f947242cb61a4163f7b2", "bike_id": "be735c378870f947242cb61a4163f7b2", "lon": -77.02018566666666, "fusion_lat": 0.0, "rental_uris": {"android": "https://dc.lft.to/lastmile_qr_scan", "ios": "https://dc.lft.to/lastmile_qr_scan"}, "type": "electric_scooter"}, {"is_reserved": 0, "is_disabled": 0, "fusion_lon": 0.0, "lat": 38.94098816666666, "name": "386723638ac206d2db1dd22da2e1978d", "bike_id": "386723638ac206d2db1dd22da2e1978d", "lon": -77.02982516666667, "fusion_lat": 0.0, "rental_uris": {"android": "https://dc.lft.to/lastmile_qr_scan", "ios": "https://dc.lft.to/lastmile_qr_scan"}, "type": "electric_scooter"}, {"is_reserved": 0, "is_disabled": 0, "fusion_lon": 0.0, "lat": 38.89500666666667, "name": "081488339ccb5d50b52108405afb9bba", "bike_id": "081488339ccb5d50b52108405afb9bba", "lon": -77.021084, "fusion_lat": 0.0, "rental_uris": {"android": "https://dc.lft.to/lastmile_qr_scan", "ios": "https://dc.lft.to/lastmile_qr_scan"}, "type": "electric_scooter"}, {"is_reserved": 0, "is_disabled": 0, "fusion_lon": 0.0, "lat": 38.91563516666667, "name": "987de5a4b33f26718bdd40e8b2f18ef0", "bike_id": "987de5a4b33f26718bdd40e8b2f18ef0", "lon": -77.03213616666666, "fusion_lat": 0.0, "rental_uris": {"android": "https://dc.lft.to/lastmile_qr_scan", "ios": "https://dc.lft.to/lastmile_qr_scan"}, "type": "electric_scooter"}, {"is_reserved": 0, "is_disabled": 0, "fusion_lon": 0.0, "lat": 38.92265966666667, "name": "b8bb452d1799d9e13daea62cb5e2df98", "bike_id": "b8bb452d1799d9e13daea62cb5e2df98", "lon": -77.01858866666667, "fusion_lat": 0.0, "rental_uris": {"android": "https://dc.lft.to/lastmile_qr_scan", "ios": "https://dc.lft.to/lastmile_qr_scan"}, "type": "electric_scooter"}, {"is_reserved": 0, "is_disabled": 0, "fusion_lon": 0.0, "lat": 38.90039483333334, "name": "5a68593cee78198aa8bd9456e09b545b", "bike_id": "5a68593cee78198aa8bd9456e09b545b", "lon": -76.98824933333333, "fusion_lat": 0.0, "rental_uris": {"android": "https://dc.lft.to/lastmile_qr_scan", "ios": "https://dc.lft.to/lastmile_qr_scan"}, "type": "electric_scooter"}, {"is_reserved": 0, "is_disabled": 0, "fusion_lon": 0.0, "lat": 38.9057865, "name": "7c0b54b7eb3d5e661ac6bf2d00783d0f", "bike_id": "7c0b54b7eb3d5e661ac6bf2d00783d0f", "lon": -77.07026333333333, "fusion_lat": 0.0, "rental_uris": {"android": "https://dc.lft.to/lastmile_qr_scan", "ios": "https://dc.lft.to/lastmile_qr_scan"}, "type": "electric_scooter"}, {"is_reserved": 0, "is_disabled": 0, "fusion_lon": 0.0, "lat": 38.88121833333334, "name": "727940b9c664532a372593dfe8c6154f", "bike_id": "727940b9c664532a372593dfe8c6154f", "lon": -77.00456516666667, "fusion_lat": 0.0, "rental_uris": {"android": "https://dc.lft.to/lastmile_qr_scan", "ios": "https://dc.lft.to/lastmile_qr_scan"}, "type": "electric_scooter"}, {"is_reserved": 0, "is_disabled": 0, "fusion_lon": 0.0, "lat": 38.8921985, "name": "ac808168dd72f0ae5bff4656ee5f7f90", "bike_id": "ac808168dd72f0ae5bff4656ee5f7f90", "lon": -77.0314425, "fusion_lat": 0.0, "rental_uris": {"android": "https://dc.lft.to/lastmile_qr_scan", "ios": "https://dc.lft.to/lastmile_qr_scan"}, "type": "electric_scooter"}, {"is_reserved": 0, "is_disabled": 0, "fusion_lon": 0.0, "lat": 38.90571516666667, "name": "49b391640856c912aca45c8bd2586788", "bike_id": "49b391640856c912aca45c8bd2586788", "lon": -77.03977, "fusion_lat": 0.0, "rental_uris": {"android": "https://dc.lft.to/lastmile_qr_scan", "ios": "https://dc.lft.to/lastmile_qr_scan"}, "type": "electric_scooter"}, {"is_reserved": 0, "is_disabled": 0, "fusion_lon": 0.0, "lat": 38.9473065, "name": "f8925e8ecef55e57d4045a370e3a22f8", "bike_id": "f8925e8ecef55e57d4045a370e3a22f8", "lon": -77.06549566666666, "fusion_lat": 0.0, "rental_uris": {"android": "https://dc.lft.to/lastmile_qr_scan", "ios": "https://dc.lft.to/lastmile_qr_scan"}, "type": "electric_scooter"}, {"is_reserved": 0, "is_disabled": 0, "fusion_lon": 0.0, "lat": 38.926295833333334, "name": "793dacf82b0946ee345b4ead016bc4ca", "bike_id": "793dacf82b0946ee345b4ead016bc4ca", "lon": -77.035232, "fusion_lat": 0.0, "rental_uris": {"android": "https://dc.lft.to/lastmile_qr_scan", "ios": "https://dc.lft.to/lastmile_qr_scan"}, "type": "electric_scooter"}, {"is_reserved": 0, "is_disabled": 0, "fusion_lon": 0.0, "lat": 38.900136333333336, "name": "174288574c8278fc59d640d63eb79342", "bike_id": "174288574c8278fc59d640d63eb79342", "lon": -77.041245, "fusion_lat": 0.0, "rental_uris": {"android": "https://dc.lft.to/lastmile_qr_scan", "ios": "https://dc.lft.to/lastmile_qr_scan"}, "type": "electric_scooter"}, {"is_reserved": 0, "is_disabled": 0, "fusion_lon": 0.0, "lat": 38.9008695, "name": "5925c46d7008443c9abc7f3e392f2725", "bike_id": "5925c46d7008443c9abc7f3e392f2725", "lon": -77.02710833333333, "fusion_lat": 0.0, "rental_uris": {"android": "https://dc.lft.to/lastmile_qr_scan", "ios": "https://dc.lft.to/lastmile_qr_scan"}, "type": "electric_scooter"}, {"is_reserved": 0, "is_disabled": 0, "fusion_lon": 0.0, "lat": 38.892466666666664, "name": "5731f3a541650ba8bb7d93f92e8918ff", "bike_id": "5731f3a541650ba8bb7d93f92e8918ff", "lon": -77.03184533333334, "fusion_lat": 0.0, "rental_uris": {"android": "https://dc.lft.to/lastmile_qr_scan", "ios": "https://dc.lft.to/lastmile_qr_scan"}, "type": "electric_scooter"}, {"is_reserved": 0, "is_disabled": 0, "fusion_lon": 0.0, "lat": 38.8671695, "name": "1546eccdf551e69a5724fa45b60667fc", "bike_id": "1546eccdf551e69a5724fa45b60667fc", "lon": -77.01016533333333, "fusion_lat": 0.0, "rental_uris": {"android": "https://dc.lft.to/lastmile_qr_scan", "ios": "https://dc.lft.to/lastmile_qr_scan"}, "type": "electric_scooter"}, {"is_reserved": 0, "is_disabled": 0, "fusion_lon": 0.0, "lat": 38.931515833333336, "name": "260af827b3619272cd599dddbb588c1c", "bike_id": "260af827b3619272cd599dddbb588c1c", "lon": -77.0682075, "fusion_lat": 0.0, "rental_uris": {"android": "https://dc.lft.to/lastmile_qr_scan", "ios": "https://dc.lft.to/lastmile_qr_scan"}, "type": "electric_scooter"}, {"is_reserved": 0, "is_disabled": 0, "fusion_lon": 0.0, "lat": 38.90306316666667, "name": "8a795f8df30786bfd212220f572a255c", "bike_id": "8a795f8df30786bfd212220f572a255c", "lon": -77.04681816666667, "fusion_lat": 0.0, "rental_uris": {"android": "https://dc.lft.to/lastmile_qr_scan", "ios": "https://dc.lft.to/lastmile_qr_scan"}, "type": "electric_scooter"}, {"is_reserved": 0, "is_disabled": 0, "fusion_lon": 0.0, "lat": 38.916447, "name": "07e9de316f0988bb8cb727071c7eb301", "bike_id": "07e9de316f0988bb8cb727071c7eb301", "lon": -77.023063, "fusion_lat": 0.0, "rental_uris": {"android": "https://dc.lft.to/lastmile_qr_scan", "ios": "https://dc.lft.to/lastmile_qr_scan"}, "type": "electric_scooter"}, {"is_reserved": 0, "is_disabled": 0, "fusion_lon": 0.0, "lat": 38.89367283333333, "name": "c0ead66a3e1915a8db310e312d65a63e", "bike_id": "c0ead66a3e1915a8db310e312d65a63e", "lon": -77.00332966666667, "fusion_lat": 0.0, "rental_uris": {"android": "https://dc.lft.to/lastmile_qr_scan", "ios": "https://dc.lft.to/lastmile_qr_scan"}, "type": "electric_scooter"}, {"is_reserved": 0, "is_disabled": 0, "fusion_lon": 0.0, "lat": 38.9206235, "name": "3ef93ce3e7b8fdd58a69962bb58ea97f", "bike_id": "3ef93ce3e7b8fdd58a69962bb58ea97f", "lon": -77.01804866666667, "fusion_lat": 0.0, "rental_uris": {"android": "https://dc.lft.to/lastmile_qr_scan", "ios": "https://dc.lft.to/lastmile_qr_scan"}, "type": "electric_scooter"}, {"is_reserved": 0, "is_disabled": 0, "fusion_lon": 0.0, "lat": 39.007225166666665, "name": "9ca77c1d10382a174cd12a8e1b5c3781", "bike_id": "9ca77c1d10382a174cd12a8e1b5c3781", "lon": -76.98155, "fusion_lat": 0.0, "rental_uris": {"android": "https://dc.lft.to/lastmile_qr_scan", "ios": "https://dc.lft.to/lastmile_qr_scan"}, "type": "electric_bike"}, {"is_reserved": 0, "is_disabled": 0, "fusion_lon": 0.0, "lat": 38.907397833333334, "name": "20288a030c861b4fd89c4c194a8aef2d", "bike_id": "20288a030c861b4fd89c4c194a8aef2d", "lon": -77.00321933333333, "fusion_lat": 0.0, "rental_uris": {"android": "https://dc.lft.to/lastmile_qr_scan", "ios": "https://dc.lft.to/lastmile_qr_scan"}, "type": "electric_scooter"}, {"is_reserved": 0, "is_disabled": 0, "fusion_lon": 0.0, "lat": 38.940432666666666, "name": "80a71693b5d9c2c4645f3f624e0a98ca", "bike_id": "80a71693b5d9c2c4645f3f624e0a98ca", "lon": -77.03000983333334, "fusion_lat": 0.0, "rental_uris": {"android": "https://dc.lft.to/lastmile_qr_scan", "ios": "https://dc.lft.to/lastmile_qr_scan"}, "type": "electric_bike"}, {"is_reserved": 0, "is_disabled": 0, "fusion_lon": 0.0, "lat": 38.921075, "name": "e320ac496e2d2f2a0eeeb241c11fb23c", "bike_id": "e320ac496e2d2f2a0eeeb241c11fb23c", "lon": -77.02225433333334, "fusion_lat": 0.0, "rental_uris": {"android": "https://dc.lft.to/lastmile_qr_scan", "ios": "https://dc.lft.to/lastmile_qr_scan"}, "type": "electric_scooter"}, {"is_reserved": 0, "is_disabled": 0, "fusion_lon": 0.0, "lat": 38.9279775, "name": "d8099a04d073c03e520b6cdd94465b98", "bike_id": "d8099a04d073c03e520b6cdd94465b98", "lon": -77.02979816666667, "fusion_lat": 0.0, "rental_uris": {"android": "https://dc.lft.to/lastmile_qr_scan", "ios": "https://dc.lft.to/lastmile_qr_scan"}, "type": "electric_scooter"}, {"is_reserved": 0, "is_disabled": 0, "fusion_lon": 0.0, "lat": 38.911017333333334, "name": "e61a3516ca5cb5580024507ce7fc2182", "bike_id": "e61a3516ca5cb5580024507ce7fc2182", "lon": -77.03797833333333, "fusion_lat": 0.0, "rental_uris": {"android": "https://dc.lft.to/lastmile_qr_scan", "ios": "https://dc.lft.to/lastmile_qr_scan"}, "type": "electric_scooter"}, {"is_reserved": 0, "is_disabled": 0, "fusion_lon": 0.0, "lat": 38.93188283333333, "name": "776267ee56b28ca4fbebf29a4a53eceb", "bike_id": "776267ee56b28ca4fbebf29a4a53eceb", "lon": -77.01866883333334, "fusion_lat": 0.0, "rental_uris": {"android": "https://dc.lft.to/lastmile_qr_scan", "ios": "https://dc.lft.to/lastmile_qr_scan"}, "type": "electric_scooter"}, {"is_reserved": 0, "is_disabled": 0, "fusion_lon": 0.0, "lat": 38.9073085, "name": "c86b7460b7b9b5d1956d724801e43b0a", "bike_id": "c86b7460b7b9b5d1956d724801e43b0a", "lon": -77.04049383333333, "fusion_lat": 0.0, "rental_uris": {"android": "https://dc.lft.to/lastmile_qr_scan", "ios": "https://dc.lft.to/lastmile_qr_scan"}, "type": "electric_scooter"}, {"is_reserved": 0, "is_disabled": 0, "fusion_lon": 0.0, "lat": 38.8870365, "name": "37f108fcef6ac79c8e19050b8776e679", "bike_id": "37f108fcef6ac79c8e19050b8776e679", "lon": -77.02186733333333, "fusion_lat": 0.0, "rental_uris": {"android": "https://dc.lft.to/lastmile_qr_scan", "ios": "https://dc.lft.to/lastmile_qr_scan"}, "type": "electric_scooter"}, {"is_reserved": 0, "is_disabled": 0, "fusion_lon": 0.0, "lat": 38.87679283333333, "name": "c5e53834706648208c2540af216c51a3", "bike_id": "c5e53834706648208c2540af216c51a3", "lon": -77.01987333333334, "fusion_lat": 0.0, "rental_uris": {"android": "https://dc.lft.to/lastmile_qr_scan", "ios": "https://dc.lft.to/lastmile_qr_scan"}, "type": "electric_scooter"}, {"is_reserved": 0, "is_disabled": 0, "fusion_lon": 0.0, "lat": 38.91239783333333, "name": "a0ba142d74791863ca3ba919d75d6eb7", "bike_id": "a0ba142d74791863ca3ba919d75d6eb7", "lon": -76.98671366666667, "fusion_lat": 0.0, "rental_uris": {"android": "https://dc.lft.to/lastmile_qr_scan", "ios": "https://dc.lft.to/lastmile_qr_scan"}, "type": "electric_scooter"}, {"is_reserved": 0, "is_disabled": 0, "fusion_lon": 0.0, "lat": 38.88720683333333, "name": "f990c48af90c1d4510d1612e2af14d14", "bike_id": "f990c48af90c1d4510d1612e2af14d14", "lon": -77.02827716666667, "fusion_lat": 0.0, "rental_uris": {"android": "https://dc.lft.to/lastmile_qr_scan", "ios": "https://dc.lft.to/lastmile_qr_scan"}, "type": "electric_scooter"}, {"is_reserved": 0, "is_disabled": 0, "fusion_lon": 0.0, "lat": 38.900561, "name": "0f64b3cd819a7195c2427ab938205b50", "bike_id": "0f64b3cd819a7195c2427ab938205b50", "lon": -77.04845733333333, "fusion_lat": 0.0, "rental_uris": {"android": "https://dc.lft.to/lastmile_qr_scan", "ios": "https://dc.lft.to/lastmile_qr_scan"}, "type": "electric_scooter"}, {"is_reserved": 0, "is_disabled": 0, "fusion_lon": 0.0, "lat": 38.908712666666666, "name": "831b1870d81b1c9a5a1e32fbf5aae1a0", "bike_id": "831b1870d81b1c9a5a1e32fbf5aae1a0", "lon": -77.03757116666667, "fusion_lat": 0.0, "rental_uris": {"android": "https://dc.lft.to/lastmile_qr_scan", "ios": "https://dc.lft.to/lastmile_qr_scan"}, "type": "electric_scooter"}, {"is_reserved": 0, "is_disabled": 0, "fusion_lon": 0.0, "lat": 38.8737135, "name": "3e015eab0d2bd84d3eb46479e7dbf1b2", "bike_id": "3e015eab0d2bd84d3eb46479e7dbf1b2", "lon": -77.000929, "fusion_lat": 0.0, "rental_uris": {"android": "https://dc.lft.to/lastmile_qr_scan", "ios": "https://dc.lft.to/lastmile_qr_scan"}, "type": "electric_scooter"}, {"is_reserved": 0, "is_disabled": 0, "fusion_lon": 0.0, "lat": 38.922639333333336, "name": "17e5aa6d29066027af5eacc57557167b", "bike_id": "17e5aa6d29066027af5eacc57557167b", "lon": -77.0194655, "fusion_lat": 0.0, "rental_uris": {"android": "https://dc.lft.to/lastmile_qr_scan", "ios": "https://dc.lft.to/lastmile_qr_scan"}, "type": "electric_scooter"}, {"is_reserved": 0, "is_disabled": 0, "fusion_lon": 0.0, "lat": 38.886421166666665, "name": "0cdd149bb5c4330b4228cb1ee178b049", "bike_id": "0cdd149bb5c4330b4228cb1ee178b049", "lon": -77.0021595, "fusion_lat": 0.0, "rental_uris": {"android": "https://dc.lft.to/lastmile_qr_scan", "ios": "https://dc.lft.to/lastmile_qr_scan"}, "type": "electric_scooter"}, {"is_reserved": 0, "is_disabled": 0, "fusion_lon": 0.0, "lat": 38.926316, "name": "36383a800d4b0b9201a10f9812568946", "bike_id": "36383a800d4b0b9201a10f9812568946", "lon": -77.07332066666666, "fusion_lat": 0.0, "rental_uris": {"android": "https://dc.lft.to/lastmile_qr_scan", "ios": "https://dc.lft.to/lastmile_qr_scan"}, "type": "electric_scooter"}, {"is_reserved": 0, "is_disabled": 0, "fusion_lon": 0.0, "lat": 38.92094083333333, "name": "4d5b613f232371fc89726d7c4679b944", "bike_id": "4d5b613f232371fc89726d7c4679b944", "lon": -77.03164566666666, "fusion_lat": 0.0, "rental_uris": {"android": "https://dc.lft.to/lastmile_qr_scan", "ios": "https://dc.lft.to/lastmile_qr_scan"}, "type": "electric_scooter"}, {"is_reserved": 0, "is_disabled": 0, "fusion_lon": 0.0, "lat": 38.93189316666667, "name": "1d576e9fe41b528ae4eca950e04a9c01", "bike_id": "1d576e9fe41b528ae4eca950e04a9c01", "lon": -77.02017383333333, "fusion_lat": 0.0, "rental_uris": {"android": "https://dc.lft.to/lastmile_qr_scan", "ios": "https://dc.lft.to/lastmile_qr_scan"}, "type": "electric_scooter"}, {"is_reserved": 0, "is_disabled": 0, "fusion_lon": 0.0, "lat": 38.898214, "name": "158d6e4b31c7d2d8503afafdd4b8dca4", "bike_id": "158d6e4b31c7d2d8503afafdd4b8dca4", "lon": -77.0249885, "fusion_lat": 0.0, "rental_uris": {"android": "https://dc.lft.to/lastmile_qr_scan", "ios": "https://dc.lft.to/lastmile_qr_scan"}, "type": "electric_scooter"}, {"is_reserved": 0, "is_disabled": 0, "fusion_lon": 0.0, "lat": 38.8924255, "name": "1f3d625f45f0fa3735ae7d54645939da", "bike_id": "1f3d625f45f0fa3735ae7d54645939da", "lon": -77.03960416666666, "fusion_lat": 0.0, "rental_uris": {"android": "https://dc.lft.to/lastmile_qr_scan", "ios": "https://dc.lft.to/lastmile_qr_scan"}, "type": "electric_scooter"}, {"is_reserved": 0, "is_disabled": 0, "fusion_lon": 0.0, "lat": 38.93661616666667, "name": "a6aa857a3be5e5f9d1a7a8c6fcb07bbf", "bike_id": "a6aa857a3be5e5f9d1a7a8c6fcb07bbf", "lon": -77.06610933333333, "fusion_lat": 0.0, "rental_uris": {"android": "https://dc.lft.to/lastmile_qr_scan", "ios": "https://dc.lft.to/lastmile_qr_scan"}, "type": "electric_scooter"}, {"is_reserved": 0, "is_disabled": 0, "fusion_lon": 0.0, "lat": 38.901413833333336, "name": "66a7c97ac0fd7106aec3397c56386f05", "bike_id": "66a7c97ac0fd7106aec3397c56386f05", "lon": -77.029251, "fusion_lat": 0.0, "rental_uris": {"android": "https://dc.lft.to/lastmile_qr_scan", "ios": "https://dc.lft.to/lastmile_qr_scan"}, "type": "electric_scooter"}, {"is_reserved": 0, "is_disabled": 0, "fusion_lon": 0.0, "lat": 38.883924666666665, "name": "9e25f024a5a078dfc3db2d0a5e518535", "bike_id": "9e25f024a5a078dfc3db2d0a5e518535", "lon": -76.93045516666666, "fusion_lat": 0.0, "rental_uris": {"android": "https://dc.lft.to/lastmile_qr_scan", "ios": "https://dc.lft.to/lastmile_qr_scan"}, "type": "electric_scooter"}, {"is_reserved": 0, "is_disabled": 0, "fusion_lon": 0.0, "lat": 38.92476333333333, "name": "88918c5ff90b495c02863ae64886b898", "bike_id": "88918c5ff90b495c02863ae64886b898", "lon": -77.02218166666667, "fusion_lat": 0.0, "rental_uris": {"android": "https://dc.lft.to/lastmile_qr_scan", "ios": "https://dc.lft.to/lastmile_qr_scan"}, "type": "electric_scooter"}, {"is_reserved": 0, "is_disabled": 0, "fusion_lon": 0.0, "lat": 38.90616266666667, "name": "963813354ce079059adc04974c8ac92d", "bike_id": "963813354ce079059adc04974c8ac92d", "lon": -76.9779885, "fusion_lat": 0.0, "rental_uris": {"android": "https://dc.lft.to/lastmile_qr_scan", "ios": "https://dc.lft.to/lastmile_qr_scan"}, "type": "electric_scooter"}, {"is_reserved": 0, "is_disabled": 0, "fusion_lon": 0.0, "lat": 38.9213165, "name": "5d10c0f43b79a6b12d9fcf2d03a4b8d3", "bike_id": "5d10c0f43b79a6b12d9fcf2d03a4b8d3", "lon": -77.01169366666667, "fusion_lat": 0.0, "rental_uris": {"android": "https://dc.lft.to/lastmile_qr_scan", "ios": "https://dc.lft.to/lastmile_qr_scan"}, "type": "electric_scooter"}, {"is_reserved": 0, "is_disabled": 0, "fusion_lon": 0.0, "lat": 38.92848583333333, "name": "43e954b934c540ca746fd8b5361a93d2", "bike_id": "43e954b934c540ca746fd8b5361a93d2", "lon": -77.03553333333333, "fusion_lat": 0.0, "rental_uris": {"android": "https://dc.lft.to/lastmile_qr_scan", "ios": "https://dc.lft.to/lastmile_qr_scan"}, "type": "electric_scooter"}, {"is_reserved": 0, "is_disabled": 0, "fusion_lon": 0.0, "lat": 38.90360783333333, "name": "2c1c379b7964acca526158e311ef9078", "bike_id": "2c1c379b7964acca526158e311ef9078", "lon": -77.031674, "fusion_lat": 0.0, "rental_uris": {"android": "https://dc.lft.to/lastmile_qr_scan", "ios": "https://dc.lft.to/lastmile_qr_scan"}, "type": "electric_scooter"}, {"is_reserved": 0, "is_disabled": 0, "fusion_lon": 0.0, "lat": 38.9213385, "name": "5ca905e95825a46b7b52b515c992d4c9", "bike_id": "5ca905e95825a46b7b52b515c992d4c9", "lon": -77.017933, "fusion_lat": 0.0, "rental_uris": {"android": "https://dc.lft.to/lastmile_qr_scan", "ios": "https://dc.lft.to/lastmile_qr_scan"}, "type": "electric_scooter"}, {"is_reserved": 0, "is_disabled": 0, "fusion_lon": 0.0, "lat": 38.92071083333333, "name": "5dbcff99d212bf89fd5dfeee1af8e55a", "bike_id": "5dbcff99d212bf89fd5dfeee1af8e55a", "lon": -77.0455345, "fusion_lat": 0.0, "rental_uris": {"android": "https://dc.lft.to/lastmile_qr_scan", "ios": "https://dc.lft.to/lastmile_qr_scan"}, "type": "electric_scooter"}, {"is_reserved": 0, "is_disabled": 0, "fusion_lon": 0.0, "lat": 38.9198695, "name": "a4403924ea9853d90d0698fe9b477910", "bike_id": "a4403924ea9853d90d0698fe9b477910", "lon": -77.03185866666666, "fusion_lat": 0.0, "rental_uris": {"android": "https://dc.lft.to/lastmile_qr_scan", "ios": "https://dc.lft.to/lastmile_qr_scan"}, "type": "electric_scooter"}, {"is_reserved": 0, "is_disabled": 0, "fusion_lon": 0.0, "lat": 38.9570585, "name": "7cb7b0e38d2d22ec39b3ce00a4f461f7", "bike_id": "7cb7b0e38d2d22ec39b3ce00a4f461f7", "lon": -77.3597375, "fusion_lat": 0.0, "rental_uris": {"android": "https://dc.lft.to/lastmile_qr_scan", "ios": "https://dc.lft.to/lastmile_qr_scan"}, "type": "electric_bike"}, {"is_reserved": 0, "is_disabled": 0, "fusion_lon": 0.0, "lat": 38.91622066666667, "name": "d1924f994e87dcad62a7ad3159a96618", "bike_id": "d1924f994e87dcad62a7ad3159a96618", "lon": -77.03160916666667, "fusion_lat": 0.0, "rental_uris": {"android": "https://dc.lft.to/lastmile_qr_scan", "ios": "https://dc.lft.to/lastmile_qr_scan"}, "type": "electric_scooter"}, {"is_reserved": 0, "is_disabled": 0, "fusion_lon": 0.0, "lat": 38.917126333333336, "name": "f11405161f0f575994dd52525c00d5e3", "bike_id": "f11405161f0f575994dd52525c00d5e3", "lon": -77.02853883333333, "fusion_lat": 0.0, "rental_uris": {"android": "https://dc.lft.to/lastmile_qr_scan", "ios": "https://dc.lft.to/lastmile_qr_scan"}, "type": "electric_scooter"}, {"is_reserved": 0, "is_disabled": 0, "fusion_lon": 0.0, "lat": 38.926138333333334, "name": "51b6e9038edd59807e0e352711c0894d", "bike_id": "51b6e9038edd59807e0e352711c0894d", "lon": -77.02164566666667, "fusion_lat": 0.0, "rental_uris": {"android": "https://dc.lft.to/lastmile_qr_scan", "ios": "https://dc.lft.to/lastmile_qr_scan"}, "type": "electric_scooter"}, {"is_reserved": 0, "is_disabled": 0, "fusion_lon": 0.0, "lat": 38.882374166666665, "name": "26c5ee30e2c07e82c20f3b13955a9696", "bike_id": "26c5ee30e2c07e82c20f3b13955a9696", "lon": -76.99496566666667, "fusion_lat": 0.0, "rental_uris": {"android": "https://dc.lft.to/lastmile_qr_scan", "ios": "https://dc.lft.to/lastmile_qr_scan"}, "type": "electric_scooter"}, {"is_reserved": 0, "is_disabled": 0, "fusion_lon": 0.0, "lat": 38.90376, "name": "79a96f6374aa43211bc35c3d4689f2e8", "bike_id": "79a96f6374aa43211bc35c3d4689f2e8", "lon": -77.04190733333333, "fusion_lat": 0.0, "rental_uris": {"android": "https://dc.lft.to/lastmile_qr_scan", "ios": "https://dc.lft.to/lastmile_qr_scan"}, "type": "electric_scooter"}, {"is_reserved": 0, "is_disabled": 0, "fusion_lon": 0.0, "lat": 39.084315333333336, "name": "9f954903b51903e89044bec16abe37e2", "bike_id": "9f954903b51903e89044bec16abe37e2", "lon": -76.95147033333333, "fusion_lat": 0.0, "rental_uris": {"android": "https://dc.lft.to/lastmile_qr_scan", "ios": "https://dc.lft.to/lastmile_qr_scan"}, "type": "electric_bike"}, {"is_reserved": 0, "is_disabled": 0, "fusion_lon": 0.0, "lat": 38.886646999999996, "name": "17a62e46cf465afadecc475a5985666b", "bike_id": "17a62e46cf465afadecc475a5985666b", "lon": -76.93673983333333, "fusion_lat": 0.0, "rental_uris": {"android": "https://dc.lft.to/lastmile_qr_scan", "ios": "https://dc.lft.to/lastmile_qr_scan"}, "type": "electric_scooter"}, {"is_reserved": 0, "is_disabled": 0, "fusion_lon": 0.0, "lat": 38.92236833333333, "name": "2c3df474a863ca4a9d8f9259251b3b89", "bike_id": "2c3df474a863ca4a9d8f9259251b3b89", "lon": -77.021199, "fusion_lat": 0.0, "rental_uris": {"android": "https://dc.lft.to/lastmile_qr_scan", "ios": "https://dc.lft.to/lastmile_qr_scan"}, "type": "electric_scooter"}, {"is_reserved": 0, "is_disabled": 0, "fusion_lon": 0.0, "lat": 38.906441, "name": "1d7cca81b7492afeb314225c44e4f5ce", "bike_id": "1d7cca81b7492afeb314225c44e4f5ce", "lon": -77.01708333333333, "fusion_lat": 0.0, "rental_uris": {"android": "https://dc.lft.to/lastmile_qr_scan", "ios": "https://dc.lft.to/lastmile_qr_scan"}, "type": "electric_scooter"}, {"is_reserved": 0, "is_disabled": 0, "fusion_lon": 0.0, "lat": 38.931837, "name": "bc0009e7c6f521d20616d96f62dc3778", "bike_id": "bc0009e7c6f521d20616d96f62dc3778", "lon": -77.035406, "fusion_lat": 0.0, "rental_uris": {"android": "https://dc.lft.to/lastmile_qr_scan", "ios": "https://dc.lft.to/lastmile_qr_scan"}, "type": "electric_bike"}, {"is_reserved": 0, "is_disabled": 0, "fusion_lon": 0.0, "lat": 39.04232433333333, "name": "829ff8179baadf08a62c23b46bdcbd4a", "bike_id": "829ff8179baadf08a62c23b46bdcbd4a", "lon": -76.99742466666666, "fusion_lat": 0.0, "rental_uris": {"android": "https://dc.lft.to/lastmile_qr_scan", "ios": "https://dc.lft.to/lastmile_qr_scan"}, "type": "electric_bike"}, {"is_reserved": 0, "is_disabled": 0, "fusion_lon": 0.0, "lat": 38.9170845, "name": "ef0d255b046bb3290e1cae12f218a054", "bike_id": "ef0d255b046bb3290e1cae12f218a054", "lon": -77.035066, "fusion_lat": 0.0, "rental_uris": {"android": "https://dc.lft.to/lastmile_qr_scan", "ios": "https://dc.lft.to/lastmile_qr_scan"}, "type": "electric_scooter"}, {"is_reserved": 0, "is_disabled": 0, "fusion_lon": 0.0, "lat": 38.923921666666665, "name": "04f84d8305497ca382a45fd9bd3d5a81", "bike_id": "04f84d8305497ca382a45fd9bd3d5a81", "lon": -77.0007225, "fusion_lat": 0.0, "rental_uris": {"android": "https://dc.lft.to/lastmile_qr_scan", "ios": "https://dc.lft.to/lastmile_qr_scan"}, "type": "electric_scooter"}, {"is_reserved": 0, "is_disabled": 0, "fusion_lon": 0.0, "lat": 38.91997116666667, "name": "4c1b1873db2cd73832f90b83aebb169b", "bike_id": "4c1b1873db2cd73832f90b83aebb169b", "lon": -76.9849185, "fusion_lat": 0.0, "rental_uris": {"android": "https://dc.lft.to/lastmile_qr_scan", "ios": "https://dc.lft.to/lastmile_qr_scan"}, "type": "electric_scooter"}, {"is_reserved": 0, "is_disabled": 0, "fusion_lon": 0.0, "lat": 38.924043833333336, "name": "d8d5edf3b6bef5fb6db6cc5df9e18d1c", "bike_id": "d8d5edf3b6bef5fb6db6cc5df9e18d1c", "lon": -77.02029333333333, "fusion_lat": 0.0, "rental_uris": {"android": "https://dc.lft.to/lastmile_qr_scan", "ios": "https://dc.lft.to/lastmile_qr_scan"}, "type": "electric_scooter"}, {"is_reserved": 0, "is_disabled": 0, "fusion_lon": 0.0, "lat": 38.908363666666666, "name": "e5f9abf83a63f220cb01fdb2c31d96e8", "bike_id": "e5f9abf83a63f220cb01fdb2c31d96e8", "lon": -77.043526, "fusion_lat": 0.0, "rental_uris": {"android": "https://dc.lft.to/lastmile_qr_scan", "ios": "https://dc.lft.to/lastmile_qr_scan"}, "type": "electric_scooter"}, {"is_reserved": 0, "is_disabled": 0, "fusion_lon": 0.0, "lat": 38.85878816666666, "name": "ac600ea12892964c28e0839a8fdad96a", "bike_id": "ac600ea12892964c28e0839a8fdad96a", "lon": -76.98930783333333, "fusion_lat": 0.0, "rental_uris": {"android": "https://dc.lft.to/lastmile_qr_scan", "ios": "https://dc.lft.to/lastmile_qr_scan"}, "type": "electric_scooter"}, {"is_reserved": 0, "is_disabled": 0, "fusion_lon": 0.0, "lat": 38.913442833333335, "name": "b750436002ec2039fd9fbb847a994058", "bike_id": "b750436002ec2039fd9fbb847a994058", "lon": -77.020507, "fusion_lat": 0.0, "rental_uris": {"android": "https://dc.lft.to/lastmile_qr_scan", "ios": "https://dc.lft.to/lastmile_qr_scan"}, "type": "electric_scooter"}, {"is_reserved": 0, "is_disabled": 0, "fusion_lon": 0.0, "lat": 38.908683, "name": "451cf363e7985b8eeddbb8c9d4b0509c", "bike_id": "451cf363e7985b8eeddbb8c9d4b0509c", "lon": -77.07646533333333, "fusion_lat": 0.0, "rental_uris": {"android": "https://dc.lft.to/lastmile_qr_scan", "ios": "https://dc.lft.to/lastmile_qr_scan"}, "type": "electric_scooter"}, {"is_reserved": 0, "is_disabled": 0, "fusion_lon": 0.0, "lat": 38.92310633333334, "name": "ec9f7ffe8aeb3e9e1bd00f1d3520aa7c", "bike_id": "ec9f7ffe8aeb3e9e1bd00f1d3520aa7c", "lon": -77.02964966666667, "fusion_lat": 0.0, "rental_uris": {"android": "https://dc.lft.to/lastmile_qr_scan", "ios": "https://dc.lft.to/lastmile_qr_scan"}, "type": "electric_scooter"}, {"is_reserved": 0, "is_disabled": 0, "fusion_lon": 0.0, "lat": 38.889643166666666, "name": "4ea09d327c95a6eedb7dbb25cf036bc2", "bike_id": "4ea09d327c95a6eedb7dbb25cf036bc2", "lon": -76.98036066666667, "fusion_lat": 0.0, "rental_uris": {"android": "https://dc.lft.to/lastmile_qr_scan", "ios": "https://dc.lft.to/lastmile_qr_scan"}, "type": "electric_scooter"}, {"is_reserved": 0, "is_disabled": 0, "fusion_lon": 0.0, "lat": 38.91561083333333, "name": "d3548a4745484ecf96b0eee210842ce1", "bike_id": "d3548a4745484ecf96b0eee210842ce1", "lon": -77.0510055, "fusion_lat": 0.0, "rental_uris": {"android": "https://dc.lft.to/lastmile_qr_scan", "ios": "https://dc.lft.to/lastmile_qr_scan"}, "type": "electric_scooter"}, {"is_reserved": 0, "is_disabled": 0, "fusion_lon": 0.0, "lat": 38.84673466666667, "name": "0c0caad44b587b882a4803814e50bf7c", "bike_id": "0c0caad44b587b882a4803814e50bf7c", "lon": -77.13938633333333, "fusion_lat": 0.0, "rental_uris": {"android": "https://dc.lft.to/lastmile_qr_scan", "ios": "https://dc.lft.to/lastmile_qr_scan"}, "type": "electric_bike"}, {"is_reserved": 0, "is_disabled": 0, "fusion_lon": 0.0, "lat": 38.9030765, "name": "c1298c52b5e12b83f1b96043816c32a6", "bike_id": "c1298c52b5e12b83f1b96043816c32a6", "lon": -77.05060083333333, "fusion_lat": 0.0, "rental_uris": {"android": "https://dc.lft.to/lastmile_qr_scan", "ios": "https://dc.lft.to/lastmile_qr_scan"}, "type": "electric_scooter"}, {"is_reserved": 0, "is_disabled": 0, "fusion_lon": 0.0, "lat": 38.897537666666665, "name": "7cb66fde3276e4c96361198e13a3c2be", "bike_id": "7cb66fde3276e4c96361198e13a3c2be", "lon": -77.02979283333333, "fusion_lat": 0.0, "rental_uris": {"android": "https://dc.lft.to/lastmile_qr_scan", "ios": "https://dc.lft.to/lastmile_qr_scan"}, "type": "electric_scooter"}, {"is_reserved": 0, "is_disabled": 0, "fusion_lon": 0.0, "lat": 38.91552566666667, "name": "8bdf45474c414fff8daf151b8fa240ab", "bike_id": "8bdf45474c414fff8daf151b8fa240ab", "lon": -77.02984066666667, "fusion_lat": 0.0, "rental_uris": {"android": "https://dc.lft.to/lastmile_qr_scan", "ios": "https://dc.lft.to/lastmile_qr_scan"}, "type": "electric_scooter"}, {"is_reserved": 0, "is_disabled": 0, "fusion_lon": 0.0, "lat": 38.924856, "name": "b91ea5ef0eb4ae4d4ed0b402be033bbd", "bike_id": "b91ea5ef0eb4ae4d4ed0b402be033bbd", "lon": -77.02281166666667, "fusion_lat": 0.0, "rental_uris": {"android": "https://dc.lft.to/lastmile_qr_scan", "ios": "https://dc.lft.to/lastmile_qr_scan"}, "type": "electric_scooter"}, {"is_reserved": 0, "is_disabled": 0, "fusion_lon": 0.0, "lat": 38.906700666666666, "name": "f6b5f71e22e44c06e2e18bd4c3a060f2", "bike_id": "f6b5f71e22e44c06e2e18bd4c3a060f2", "lon": -77.07692466666667, "fusion_lat": 0.0, "rental_uris": {"android": "https://dc.lft.to/lastmile_qr_scan", "ios": "https://dc.lft.to/lastmile_qr_scan"}, "type": "electric_scooter"}, {"is_reserved": 0, "is_disabled": 0, "fusion_lon": 0.0, "lat": 38.9132835, "name": "ae5bb0106d1010dc50ad98117e41d0e9", "bike_id": "ae5bb0106d1010dc50ad98117e41d0e9", "lon": -77.04536816666666, "fusion_lat": 0.0, "rental_uris": {"android": "https://dc.lft.to/lastmile_qr_scan", "ios": "https://dc.lft.to/lastmile_qr_scan"}, "type": "electric_scooter"}, {"is_reserved": 0, "is_disabled": 0, "fusion_lon": 0.0, "lat": 38.90299783333333, "name": "791af01e9ea94311eb2d6de853215e7a", "bike_id": "791af01e9ea94311eb2d6de853215e7a", "lon": -77.04955733333334, "fusion_lat": 0.0, "rental_uris": {"android": "https://dc.lft.to/lastmile_qr_scan", "ios": "https://dc.lft.to/lastmile_qr_scan"}, "type": "electric_scooter"}, {"is_reserved": 0, "is_disabled": 0, "fusion_lon": 0.0, "lat": 38.8951685, "name": "14317726645a1161c25106ae86cc40a0", "bike_id": "14317726645a1161c25106ae86cc40a0", "lon": -77.04487266666666, "fusion_lat": 0.0, "rental_uris": {"android": "https://dc.lft.to/lastmile_qr_scan", "ios": "https://dc.lft.to/lastmile_qr_scan"}, "type": "electric_scooter"}, {"is_reserved": 0, "is_disabled": 0, "fusion_lon": 0.0, "lat": 38.878986, "name": "2852f4085e6f7462a734854b1bcf9e2e", "bike_id": "2852f4085e6f7462a734854b1bcf9e2e", "lon": -77.01370883333334, "fusion_lat": 0.0, "rental_uris": {"android": "https://dc.lft.to/lastmile_qr_scan", "ios": "https://dc.lft.to/lastmile_qr_scan"}, "type": "electric_scooter"}, {"is_reserved": 0, "is_disabled": 0, "fusion_lon": 0.0, "lat": 38.90565633333333, "name": "ba18d62cdbae49552396103954a04a0b", "bike_id": "ba18d62cdbae49552396103954a04a0b", "lon": -77.05699866666667, "fusion_lat": 0.0, "rental_uris": {"android": "https://dc.lft.to/lastmile_qr_scan", "ios": "https://dc.lft.to/lastmile_qr_scan"}, "type": "electric_scooter"}, {"is_reserved": 0, "is_disabled": 0, "fusion_lon": 0.0, "lat": 38.89952783333333, "name": "f8738732c06f853503e3f7e88b64a850", "bike_id": "f8738732c06f853503e3f7e88b64a850", "lon": -77.0475525, "fusion_lat": 0.0, "rental_uris": {"android": "https://dc.lft.to/lastmile_qr_scan", "ios": "https://dc.lft.to/lastmile_qr_scan"}, "type": "electric_scooter"}, {"is_reserved": 0, "is_disabled": 0, "fusion_lon": 0.0, "lat": 38.9165325, "name": "aa8b861f8d25b525253305f4e6f7a5a7", "bike_id": "aa8b861f8d25b525253305f4e6f7a5a7", "lon": -77.010255, "fusion_lat": 0.0, "rental_uris": {"android": "https://dc.lft.to/lastmile_qr_scan", "ios": "https://dc.lft.to/lastmile_qr_scan"}, "type": "electric_scooter"}, {"is_reserved": 0, "is_disabled": 0, "fusion_lon": 0.0, "lat": 38.874568, "name": "749be3e8f66d06ce3271706bbad307ea", "bike_id": "749be3e8f66d06ce3271706bbad307ea", "lon": -77.00072616666667, "fusion_lat": 0.0, "rental_uris": {"android": "https://dc.lft.to/lastmile_qr_scan", "ios": "https://dc.lft.to/lastmile_qr_scan"}, "type": "electric_scooter"}, {"is_reserved": 0, "is_disabled": 0, "fusion_lon": 0.0, "lat": 38.917149333333334, "name": "d0bb2c4d35932bed231a09f4b6501714", "bike_id": "d0bb2c4d35932bed231a09f4b6501714", "lon": -77.038736, "fusion_lat": 0.0, "rental_uris": {"android": "https://dc.lft.to/lastmile_qr_scan", "ios": "https://dc.lft.to/lastmile_qr_scan"}, "type": "electric_scooter"}, {"is_reserved": 0, "is_disabled": 0, "fusion_lon": 0.0, "lat": 38.93863316666667, "name": "2e47f0249677eaf69cfcff8374371e7d", "bike_id": "2e47f0249677eaf69cfcff8374371e7d", "lon": -77.02653366666667, "fusion_lat": 0.0, "rental_uris": {"android": "https://dc.lft.to/lastmile_qr_scan", "ios": "https://dc.lft.to/lastmile_qr_scan"}, "type": "electric_scooter"}, {"is_reserved": 0, "is_disabled": 0, "fusion_lon": 0.0, "lat": 38.9211605, "name": "8308d4cb38a8ed6335a4aab058d6467c", "bike_id": "8308d4cb38a8ed6335a4aab058d6467c", "lon": -76.988821, "fusion_lat": 0.0, "rental_uris": {"android": "https://dc.lft.to/lastmile_qr_scan", "ios": "https://dc.lft.to/lastmile_qr_scan"}, "type": "electric_bike"}, {"is_reserved": 0, "is_disabled": 0, "fusion_lon": 0.0, "lat": 38.90507933333333, "name": "2a9efe9c2cda9eaac2de6480ec812de4", "bike_id": "2a9efe9c2cda9eaac2de6480ec812de4", "lon": -77.06875666666667, "fusion_lat": 0.0, "rental_uris": {"android": "https://dc.lft.to/lastmile_qr_scan", "ios": "https://dc.lft.to/lastmile_qr_scan"}, "type": "electric_scooter"}, {"is_reserved": 0, "is_disabled": 0, "fusion_lon": 0.0, "lat": 38.90868316666667, "name": "e0bca758d57ee72c559d9fa0c3631da5", "bike_id": "e0bca758d57ee72c559d9fa0c3631da5", "lon": -77.024115, "fusion_lat": 0.0, "rental_uris": {"android": "https://dc.lft.to/lastmile_qr_scan", "ios": "https://dc.lft.to/lastmile_qr_scan"}, "type": "electric_scooter"}, {"is_reserved": 0, "is_disabled": 0, "fusion_lon": 0.0, "lat": 38.91406383333333, "name": "f873006e531ec68bffd5b44d7e31c09b", "bike_id": "f873006e531ec68bffd5b44d7e31c09b", "lon": -77.01820233333333, "fusion_lat": 0.0, "rental_uris": {"android": "https://dc.lft.to/lastmile_qr_scan", "ios": "https://dc.lft.to/lastmile_qr_scan"}, "type": "electric_scooter"}, {"is_reserved": 0, "is_disabled": 0, "fusion_lon": 0.0, "lat": 38.907238166666666, "name": "d9fc6233a516f45ee7fd7fb9bfb4b008", "bike_id": "d9fc6233a516f45ee7fd7fb9bfb4b008", "lon": -77.0457225, "fusion_lat": 0.0, "rental_uris": {"android": "https://dc.lft.to/lastmile_qr_scan", "ios": "https://dc.lft.to/lastmile_qr_scan"}, "type": "electric_scooter"}, {"is_reserved": 0, "is_disabled": 0, "fusion_lon": 0.0, "lat": 38.87207633333333, "name": "b17c4231ecddeacb63f624788c3a7d0f", "bike_id": "b17c4231ecddeacb63f624788c3a7d0f", "lon": -77.01612733333333, "fusion_lat": 0.0, "rental_uris": {"android": "https://dc.lft.to/lastmile_qr_scan", "ios": "https://dc.lft.to/lastmile_qr_scan"}, "type": "electric_scooter"}, {"is_reserved": 0, "is_disabled": 0, "fusion_lon": 0.0, "lat": 38.910443, "name": "8dbbfcb08a7538e82c943f44ecba5644", "bike_id": "8dbbfcb08a7538e82c943f44ecba5644", "lon": -77.0411235, "fusion_lat": 0.0, "rental_uris": {"android": "https://dc.lft.to/lastmile_qr_scan", "ios": "https://dc.lft.to/lastmile_qr_scan"}, "type": "electric_scooter"}, {"is_reserved": 0, "is_disabled": 0, "fusion_lon": 0.0, "lat": 38.911013833333335, "name": "0a380a72910fe10adf26043ddcae3dc1", "bike_id": "0a380a72910fe10adf26043ddcae3dc1", "lon": -77.0735125, "fusion_lat": 0.0, "rental_uris": {"android": "https://dc.lft.to/lastmile_qr_scan", "ios": "https://dc.lft.to/lastmile_qr_scan"}, "type": "electric_scooter"}, {"is_reserved": 0, "is_disabled": 0, "fusion_lon": 0.0, "lat": 38.917151, "name": "b42a30d60066a47876abffb2e62ae21b", "bike_id": "b42a30d60066a47876abffb2e62ae21b", "lon": -77.03445633333334, "fusion_lat": 0.0, "rental_uris": {"android": "https://dc.lft.to/lastmile_qr_scan", "ios": "https://dc.lft.to/lastmile_qr_scan"}, "type": "electric_scooter"}, {"is_reserved": 0, "is_disabled": 0, "fusion_lon": 0.0, "lat": 38.900525, "name": "5918075ba0c14096dac67c4b5ea43ada", "bike_id": "5918075ba0c14096dac67c4b5ea43ada", "lon": -77.03188816666666, "fusion_lat": 0.0, "rental_uris": {"android": "https://dc.lft.to/lastmile_qr_scan", "ios": "https://dc.lft.to/lastmile_qr_scan"}, "type": "electric_scooter"}, {"is_reserved": 0, "is_disabled": 0, "fusion_lon": 0.0, "lat": 38.9154485, "name": "ecfce0ff775078bf96ab5614b0fd806a", "bike_id": "ecfce0ff775078bf96ab5614b0fd806a", "lon": -77.031853, "fusion_lat": 0.0, "rental_uris": {"android": "https://dc.lft.to/lastmile_qr_scan", "ios": "https://dc.lft.to/lastmile_qr_scan"}, "type": "electric_scooter"}, {"is_reserved": 0, "is_disabled": 0, "fusion_lon": 0.0, "lat": 38.90056216666667, "name": "3e2071c07e4f89ca9b83e0b01cd9629e", "bike_id": "3e2071c07e4f89ca9b83e0b01cd9629e", "lon": -76.98708633333334, "fusion_lat": 0.0, "rental_uris": {"android": "https://dc.lft.to/lastmile_qr_scan", "ios": "https://dc.lft.to/lastmile_qr_scan"}, "type": "electric_scooter"}, {"is_reserved": 0, "is_disabled": 0, "fusion_lon": 0.0, "lat": 38.8040135, "name": "bd3e0a309b00f801e029f049429262d7", "bike_id": "bd3e0a309b00f801e029f049429262d7", "lon": -77.11330433333333, "fusion_lat": 0.0, "rental_uris": {"android": "https://dc.lft.to/lastmile_qr_scan", "ios": "https://dc.lft.to/lastmile_qr_scan"}, "type": "electric_bike"}, {"is_reserved": 0, "is_disabled": 0, "fusion_lon": 0.0, "lat": 38.902613, "name": "44e9c160b1a2005b7292048e6dcbe32a", "bike_id": "44e9c160b1a2005b7292048e6dcbe32a", "lon": -77.02833116666666, "fusion_lat": 0.0, "rental_uris": {"android": "https://dc.lft.to/lastmile_qr_scan", "ios": "https://dc.lft.to/lastmile_qr_scan"}, "type": "electric_scooter"}, {"is_reserved": 0, "is_disabled": 0, "fusion_lon": 0.0, "lat": 38.95067866666667, "name": "9f91a2bcfa4cd5588e564dc29ba90fa9", "bike_id": "9f91a2bcfa4cd5588e564dc29ba90fa9", "lon": -76.97085833333334, "fusion_lat": 0.0, "rental_uris": {"android": "https://dc.lft.to/lastmile_qr_scan", "ios": "https://dc.lft.to/lastmile_qr_scan"}, "type": "electric_bike"}, {"is_reserved": 0, "is_disabled": 0, "fusion_lon": 0.0, "lat": 38.944013166666664, "name": "3a462d91316425106e4ff628065d2b5a", "bike_id": "3a462d91316425106e4ff628065d2b5a", "lon": -77.02744933333334, "fusion_lat": 0.0, "rental_uris": {"android": "https://dc.lft.to/lastmile_qr_scan", "ios": "https://dc.lft.to/lastmile_qr_scan"}, "type": "electric_scooter"}, {"is_reserved": 0, "is_disabled": 0, "fusion_lon": 0.0, "lat": 38.8578485, "name": "796a4681897c751cea80d1434f763612", "bike_id": "796a4681897c751cea80d1434f763612", "lon": -77.09962166666666, "fusion_lat": 0.0, "rental_uris": {"android": "https://dc.lft.to/lastmile_qr_scan", "ios": "https://dc.lft.to/lastmile_qr_scan"}, "type": "electric_bike"}, {"is_reserved": 0, "is_disabled": 0, "fusion_lon": 0.0, "lat": 38.904603333333334, "name": "3a0f532c74d3721a86c50b889aecfe42", "bike_id": "3a0f532c74d3721a86c50b889aecfe42", "lon": -77.043018, "fusion_lat": 0.0, "rental_uris": {"android": "https://dc.lft.to/lastmile_qr_scan", "ios": "https://dc.lft.to/lastmile_qr_scan"}, "type": "electric_scooter"}, {"is_reserved": 0, "is_disabled": 0, "fusion_lon": 0.0, "lat": 38.92425766666667, "name": "fa88cfe9a0996bc66325480026203ff7", "bike_id": "fa88cfe9a0996bc66325480026203ff7", "lon": -77.0214275, "fusion_lat": 0.0, "rental_uris": {"android": "https://dc.lft.to/lastmile_qr_scan", "ios": "https://dc.lft.to/lastmile_qr_scan"}, "type": "electric_scooter"}, {"is_reserved": 0, "is_disabled": 0, "fusion_lon": 0.0, "lat": 38.90163916666667, "name": "6d6c5aba39f16d2363a8167f7beac9af", "bike_id": "6d6c5aba39f16d2363a8167f7beac9af", "lon": -77.04868766666667, "fusion_lat": 0.0, "rental_uris": {"android": "https://dc.lft.to/lastmile_qr_scan", "ios": "https://dc.lft.to/lastmile_qr_scan"}, "type": "electric_scooter"}, {"is_reserved": 0, "is_disabled": 0, "fusion_lon": 0.0, "lat": 38.92475533333333, "name": "a695b9cad8293394f1192be87ddc0b5b", "bike_id": "a695b9cad8293394f1192be87ddc0b5b", "lon": -77.0379205, "fusion_lat": 0.0, "rental_uris": {"android": "https://dc.lft.to/lastmile_qr_scan", "ios": "https://dc.lft.to/lastmile_qr_scan"}, "type": "electric_scooter"}, {"is_reserved": 0, "is_disabled": 0, "fusion_lon": 0.0, "lat": 38.8648595, "name": "37ad561bfbcc9caab6f60e98acebe0f6", "bike_id": "37ad561bfbcc9caab6f60e98acebe0f6", "lon": -76.97757466666667, "fusion_lat": 0.0, "rental_uris": {"android": "https://dc.lft.to/lastmile_qr_scan", "ios": "https://dc.lft.to/lastmile_qr_scan"}, "type": "electric_bike"}, {"is_reserved": 0, "is_disabled": 0, "fusion_lon": 0.0, "lat": 38.8847555, "name": "f85104ce025644f2930bcb10186c1916", "bike_id": "f85104ce025644f2930bcb10186c1916", "lon": -77.03362666666666, "fusion_lat": 0.0, "rental_uris": {"android": "https://dc.lft.to/lastmile_qr_scan", "ios": "https://dc.lft.to/lastmile_qr_scan"}, "type": "electric_scooter"}, {"is_reserved": 0, "is_disabled": 0, "fusion_lon": 0.0, "lat": 38.9234435, "name": "0998f89ba34388152fe39df0fc5912cf", "bike_id": "0998f89ba34388152fe39df0fc5912cf", "lon": -77.03651766666667, "fusion_lat": 0.0, "rental_uris": {"android": "https://dc.lft.to/lastmile_qr_scan", "ios": "https://dc.lft.to/lastmile_qr_scan"}, "type": "electric_scooter"}, {"is_reserved": 0, "is_disabled": 0, "fusion_lon": 0.0, "lat": 38.923340333333336, "name": "f94d059192adaebd026c5d36804a2b50", "bike_id": "f94d059192adaebd026c5d36804a2b50", "lon": -77.03619333333333, "fusion_lat": 0.0, "rental_uris": {"android": "https://dc.lft.to/lastmile_qr_scan", "ios": "https://dc.lft.to/lastmile_qr_scan"}, "type": "electric_scooter"}, {"is_reserved": 0, "is_disabled": 0, "fusion_lon": 0.0, "lat": 38.926810833333334, "name": "5a7db488e0a46aced93d706e55a7e89d", "bike_id": "5a7db488e0a46aced93d706e55a7e89d", "lon": -77.02750066666667, "fusion_lat": 0.0, "rental_uris": {"android": "https://dc.lft.to/lastmile_qr_scan", "ios": "https://dc.lft.to/lastmile_qr_scan"}, "type": "electric_scooter"}, {"is_reserved": 0, "is_disabled": 0, "fusion_lon": 0.0, "lat": 38.93315416666667, "name": "ab3d033402943a2396a5de6c33ac6857", "bike_id": "ab3d033402943a2396a5de6c33ac6857", "lon": -77.0319, "fusion_lat": 0.0, "rental_uris": {"android": "https://dc.lft.to/lastmile_qr_scan", "ios": "https://dc.lft.to/lastmile_qr_scan"}, "type": "electric_scooter"}, {"is_reserved": 0, "is_disabled": 0, "fusion_lon": 0.0, "lat": 38.8983485, "name": "65f6f81ce10fcf685cce2827f605efe9", "bike_id": "65f6f81ce10fcf685cce2827f605efe9", "lon": -77.0331795, "fusion_lat": 0.0, "rental_uris": {"android": "https://dc.lft.to/lastmile_qr_scan", "ios": "https://dc.lft.to/lastmile_qr_scan"}, "type": "electric_scooter"}, {"is_reserved": 0, "is_disabled": 0, "fusion_lon": 0.0, "lat": 38.8764955, "name": "c5135ca457582b88ac337d1a23e5df06", "bike_id": "c5135ca457582b88ac337d1a23e5df06", "lon": -76.935436, "fusion_lat": 0.0, "rental_uris": {"android": "https://dc.lft.to/lastmile_qr_scan", "ios": "https://dc.lft.to/lastmile_qr_scan"}, "type": "electric_bike"}, {"is_reserved": 0, "is_disabled": 0, "fusion_lon": 0.0, "lat": 38.892550666666665, "name": "bfdbd3392ce69e82c3aa13db73b8f376", "bike_id": "bfdbd3392ce69e82c3aa13db73b8f376", "lon": -77.05026783333334, "fusion_lat": 0.0, "rental_uris": {"android": "https://dc.lft.to/lastmile_qr_scan", "ios": "https://dc.lft.to/lastmile_qr_scan"}, "type": "electric_scooter"}, {"is_reserved": 0, "is_disabled": 0, "fusion_lon": 0.0, "lat": 38.89620166666667, "name": "00c10b721e7a73c338b17d9b46c39563", "bike_id": "00c10b721e7a73c338b17d9b46c39563", "lon": -77.04348083333333, "fusion_lat": 0.0, "rental_uris": {"android": "https://dc.lft.to/lastmile_qr_scan", "ios": "https://dc.lft.to/lastmile_qr_scan"}, "type": "electric_scooter"}, {"is_reserved": 0, "is_disabled": 0, "fusion_lon": 0.0, "lat": 38.90124083333333, "name": "267f35641c65a69c6712179c98c8ee0f", "bike_id": "267f35641c65a69c6712179c98c8ee0f", "lon": -77.003189, "fusion_lat": 0.0, "rental_uris": {"android": "https://dc.lft.to/lastmile_qr_scan", "ios": "https://dc.lft.to/lastmile_qr_scan"}, "type": "electric_scooter"}, {"is_reserved": 0, "is_disabled": 0, "fusion_lon": 0.0, "lat": 38.883787833333336, "name": "0469bd93cd0569076f096021777d71b8", "bike_id": "0469bd93cd0569076f096021777d71b8", "lon": -77.008847, "fusion_lat": 0.0, "rental_uris": {"android": "https://dc.lft.to/lastmile_qr_scan", "ios": "https://dc.lft.to/lastmile_qr_scan"}, "type": "electric_scooter"}, {"is_reserved": 0, "is_disabled": 0, "fusion_lon": 0.0, "lat": 38.883020333333334, "name": "fc3f9e0d5ff37eacb11d47881d7547d6", "bike_id": "fc3f9e0d5ff37eacb11d47881d7547d6", "lon": -76.93470983333333, "fusion_lat": 0.0, "rental_uris": {"android": "https://dc.lft.to/lastmile_qr_scan", "ios": "https://dc.lft.to/lastmile_qr_scan"}, "type": "electric_scooter"}, {"is_reserved": 0, "is_disabled": 0, "fusion_lon": 0.0, "lat": 38.89949816666667, "name": "db12fe69b55199e316c2e6bc8ffd612e", "bike_id": "db12fe69b55199e316c2e6bc8ffd612e", "lon": -77.04154, "fusion_lat": 0.0, "rental_uris": {"android": "https://dc.lft.to/lastmile_qr_scan", "ios": "https://dc.lft.to/lastmile_qr_scan"}, "type": "electric_scooter"}, {"is_reserved": 0, "is_disabled": 0, "fusion_lon": 0.0, "lat": 39.034249833333334, "name": "00aad934ac3aa2cd0c556b1b9c23d8bf", "bike_id": "00aad934ac3aa2cd0c556b1b9c23d8bf", "lon": -77.04328183333334, "fusion_lat": 0.0, "rental_uris": {"android": "https://dc.lft.to/lastmile_qr_scan", "ios": "https://dc.lft.to/lastmile_qr_scan"}, "type": "electric_bike"}, {"is_reserved": 0, "is_disabled": 0, "fusion_lon": 0.0, "lat": 38.92672833333334, "name": "1f07e434429403592db1ce3d2494aa59", "bike_id": "1f07e434429403592db1ce3d2494aa59", "lon": -77.02744766666666, "fusion_lat": 0.0, "rental_uris": {"android": "https://dc.lft.to/lastmile_qr_scan", "ios": "https://dc.lft.to/lastmile_qr_scan"}, "type": "electric_scooter"}, {"is_reserved": 0, "is_disabled": 0, "fusion_lon": 0.0, "lat": 38.92734933333333, "name": "82fc836d0776a1f57fe372fb191e983f", "bike_id": "82fc836d0776a1f57fe372fb191e983f", "lon": -77.03239316666667, "fusion_lat": 0.0, "rental_uris": {"android": "https://dc.lft.to/lastmile_qr_scan", "ios": "https://dc.lft.to/lastmile_qr_scan"}, "type": "electric_scooter"}, {"is_reserved": 0, "is_disabled": 0, "fusion_lon": 0.0, "lat": 38.900325, "name": "3d3cffdf38684a58ffcb8f7c4f205af9", "bike_id": "3d3cffdf38684a58ffcb8f7c4f205af9", "lon": -77.02607966666666, "fusion_lat": 0.0, "rental_uris": {"android": "https://dc.lft.to/lastmile_qr_scan", "ios": "https://dc.lft.to/lastmile_qr_scan"}, "type": "electric_scooter"}, {"is_reserved": 0, "is_disabled": 0, "fusion_lon": 0.0, "lat": 38.9170505, "name": "774e530a54539dc78b08eb95f19d00f7", "bike_id": "774e530a54539dc78b08eb95f19d00f7", "lon": -77.03423183333334, "fusion_lat": 0.0, "rental_uris": {"android": "https://dc.lft.to/lastmile_qr_scan", "ios": "https://dc.lft.to/lastmile_qr_scan"}, "type": "electric_scooter"}, {"is_reserved": 0, "is_disabled": 0, "fusion_lon": 0.0, "lat": 38.915823333333336, "name": "8b257dac98d6de8507063dba13bf2eac", "bike_id": "8b257dac98d6de8507063dba13bf2eac", "lon": -77.03176966666666, "fusion_lat": 0.0, "rental_uris": {"android": "https://dc.lft.to/lastmile_qr_scan", "ios": "https://dc.lft.to/lastmile_qr_scan"}, "type": "electric_scooter"}, {"is_reserved": 0, "is_disabled": 0, "fusion_lon": 0.0, "lat": 38.8917345, "name": "aea611707aaa138dbb9a3226606cd4e8", "bike_id": "aea611707aaa138dbb9a3226606cd4e8", "lon": -77.01556483333333, "fusion_lat": 0.0, "rental_uris": {"android": "https://dc.lft.to/lastmile_qr_scan", "ios": "https://dc.lft.to/lastmile_qr_scan"}, "type": "electric_scooter"}, {"is_reserved": 0, "is_disabled": 0, "fusion_lon": 0.0, "lat": 38.90032216666667, "name": "31f2d65c82c2d66e0ec457cb5ec1bc17", "bike_id": "31f2d65c82c2d66e0ec457cb5ec1bc17", "lon": -76.972203, "fusion_lat": 0.0, "rental_uris": {"android": "https://dc.lft.to/lastmile_qr_scan", "ios": "https://dc.lft.to/lastmile_qr_scan"}, "type": "electric_bike"}, {"is_reserved": 0, "is_disabled": 0, "fusion_lon": 0.0, "lat": 38.9024095, "name": "ec9ad63da5a77ab1e106162e5078afb3", "bike_id": "ec9ad63da5a77ab1e106162e5078afb3", "lon": -77.026927, "fusion_lat": 0.0, "rental_uris": {"android": "https://dc.lft.to/lastmile_qr_scan", "ios": "https://dc.lft.to/lastmile_qr_scan"}, "type": "electric_scooter"}, {"is_reserved": 0, "is_disabled": 0, "fusion_lon": 0.0, "lat": 38.92147933333333, "name": "83668128d7fc5fe821abb202703fa859", "bike_id": "83668128d7fc5fe821abb202703fa859", "lon": -77.038451, "fusion_lat": 0.0, "rental_uris": {"android": "https://dc.lft.to/lastmile_qr_scan", "ios": "https://dc.lft.to/lastmile_qr_scan"}, "type": "electric_scooter"}, {"is_reserved": 0, "is_disabled": 0, "fusion_lon": 0.0, "lat": 38.9141775, "name": "28a9f22aa944d02b46d9894f8e688ae5", "bike_id": "28a9f22aa944d02b46d9894f8e688ae5", "lon": -77.01813916666667, "fusion_lat": 0.0, "rental_uris": {"android": "https://dc.lft.to/lastmile_qr_scan", "ios": "https://dc.lft.to/lastmile_qr_scan"}, "type": "electric_scooter"}, {"is_reserved": 0, "is_disabled": 0, "fusion_lon": 0.0, "lat": 38.944142, "name": "60bbb21abce3b296593e8453c9c37ffd", "bike_id": "60bbb21abce3b296593e8453c9c37ffd", "lon": -77.06330683333333, "fusion_lat": 0.0, "rental_uris": {"android": "https://dc.lft.to/lastmile_qr_scan", "ios": "https://dc.lft.to/lastmile_qr_scan"}, "type": "electric_scooter"}, {"is_reserved": 0, "is_disabled": 0, "fusion_lon": 0.0, "lat": 38.926166333333335, "name": "7c6ad4cec0e732319059cd43f869ab37", "bike_id": "7c6ad4cec0e732319059cd43f869ab37", "lon": -77.021683, "fusion_lat": 0.0, "rental_uris": {"android": "https://dc.lft.to/lastmile_qr_scan", "ios": "https://dc.lft.to/lastmile_qr_scan"}, "type": "electric_scooter"}, {"is_reserved": 0, "is_disabled": 0, "fusion_lon": 0.0, "lat": 38.904822833333334, "name": "417d329a7d7534ee813bc9ea10aa97d1", "bike_id": "417d329a7d7534ee813bc9ea10aa97d1", "lon": -77.0012345, "fusion_lat": 0.0, "rental_uris": {"android": "https://dc.lft.to/lastmile_qr_scan", "ios": "https://dc.lft.to/lastmile_qr_scan"}, "type": "electric_scooter"}, {"is_reserved": 0, "is_disabled": 0, "fusion_lon": 0.0, "lat": 38.925655, "name": "77cb24c5b7d8400a378bb93d4fd2d1d8", "bike_id": "77cb24c5b7d8400a378bb93d4fd2d1d8", "lon": -77.02148133333333, "fusion_lat": 0.0, "rental_uris": {"android": "https://dc.lft.to/lastmile_qr_scan", "ios": "https://dc.lft.to/lastmile_qr_scan"}, "type": "electric_scooter"}, {"is_reserved": 0, "is_disabled": 0, "fusion_lon": 0.0, "lat": 38.9195185, "name": "ea7c1f937ba71cc95b4d448a03e6c005", "bike_id": "ea7c1f937ba71cc95b4d448a03e6c005", "lon": -77.02501633333334, "fusion_lat": 0.0, "rental_uris": {"android": "https://dc.lft.to/lastmile_qr_scan", "ios": "https://dc.lft.to/lastmile_qr_scan"}, "type": "electric_scooter"}, {"is_reserved": 0, "is_disabled": 0, "fusion_lon": 0.0, "lat": 38.874473333333334, "name": "f4628c3a5c08eb8d1fc0990f4b3ca945", "bike_id": "f4628c3a5c08eb8d1fc0990f4b3ca945", "lon": -77.0005685, "fusion_lat": 0.0, "rental_uris": {"android": "https://dc.lft.to/lastmile_qr_scan", "ios": "https://dc.lft.to/lastmile_qr_scan"}, "type": "electric_scooter"}, {"is_reserved": 0, "is_disabled": 0, "fusion_lon": 0.0, "lat": 38.919222500000004, "name": "fb33c2c152b327883ecb3a41f7c4c816", "bike_id": "fb33c2c152b327883ecb3a41f7c4c816", "lon": -77.032164, "fusion_lat": 0.0, "rental_uris": {"android": "https://dc.lft.to/lastmile_qr_scan", "ios": "https://dc.lft.to/lastmile_qr_scan"}, "type": "electric_scooter"}, {"is_reserved": 0, "is_disabled": 0, "fusion_lon": 0.0, "lat": 38.9376375, "name": "fedca40c94f3261caa2c71f83e1e1a42", "bike_id": "fedca40c94f3261caa2c71f83e1e1a42", "lon": -76.99055283333334, "fusion_lat": 0.0, "rental_uris": {"android": "https://dc.lft.to/lastmile_qr_scan", "ios": "https://dc.lft.to/lastmile_qr_scan"}, "type": "electric_bike"}, {"is_reserved": 0, "is_disabled": 0, "fusion_lon": 0.0, "lat": 38.899287666666666, "name": "28980c9b23d07fb6e8f79f5d28fb8f5b", "bike_id": "28980c9b23d07fb6e8f79f5d28fb8f5b", "lon": -77.00165283333334, "fusion_lat": 0.0, "rental_uris": {"android": "https://dc.lft.to/lastmile_qr_scan", "ios": "https://dc.lft.to/lastmile_qr_scan"}, "type": "electric_bike"}, {"is_reserved": 0, "is_disabled": 0, "fusion_lon": 0.0, "lat": 38.896044833333335, "name": "bc1a6b3980b2d15121514a0eb4d49657", "bike_id": "bc1a6b3980b2d15121514a0eb4d49657", "lon": -77.04042333333334, "fusion_lat": 0.0, "rental_uris": {"android": "https://dc.lft.to/lastmile_qr_scan", "ios": "https://dc.lft.to/lastmile_qr_scan"}, "type": "electric_scooter"}, {"is_reserved": 0, "is_disabled": 0, "fusion_lon": 0.0, "lat": 38.90269583333333, "name": "409460cb1c0bf0e058a1e07edb37bc62", "bike_id": "409460cb1c0bf0e058a1e07edb37bc62", "lon": -77.06179816666666, "fusion_lat": 0.0, "rental_uris": {"android": "https://dc.lft.to/lastmile_qr_scan", "ios": "https://dc.lft.to/lastmile_qr_scan"}, "type": "electric_scooter"}, {"is_reserved": 0, "is_disabled": 0, "fusion_lon": 0.0, "lat": 38.95901083333333, "name": "ab72745f099a478d9716e10189d9e49b", "bike_id": "ab72745f099a478d9716e10189d9e49b", "lon": -77.000218, "fusion_lat": 0.0, "rental_uris": {"android": "https://dc.lft.to/lastmile_qr_scan", "ios": "https://dc.lft.to/lastmile_qr_scan"}, "type": "electric_scooter"}, {"is_reserved": 0, "is_disabled": 0, "fusion_lon": 0.0, "lat": 38.90571283333333, "name": "31bdcb12f6518f1c219a1919e65f620f", "bike_id": "31bdcb12f6518f1c219a1919e65f620f", "lon": -77.03366816666667, "fusion_lat": 0.0, "rental_uris": {"android": "https://dc.lft.to/lastmile_qr_scan", "ios": "https://dc.lft.to/lastmile_qr_scan"}, "type": "electric_scooter"}, {"is_reserved": 0, "is_disabled": 0, "fusion_lon": 0.0, "lat": 38.9220815, "name": "3f24da9d666510cdd1cf5e9b6f291730", "bike_id": "3f24da9d666510cdd1cf5e9b6f291730", "lon": -77.020355, "fusion_lat": 0.0, "rental_uris": {"android": "https://dc.lft.to/lastmile_qr_scan", "ios": "https://dc.lft.to/lastmile_qr_scan"}, "type": "electric_scooter"}, {"is_reserved": 0, "is_disabled": 0, "fusion_lon": 0.0, "lat": 38.91108, "name": "5ddffd853a73e5f9ced66d4166aed948", "bike_id": "5ddffd853a73e5f9ced66d4166aed948", "lon": -77.00353533333333, "fusion_lat": 0.0, "rental_uris": {"android": "https://dc.lft.to/lastmile_qr_scan", "ios": "https://dc.lft.to/lastmile_qr_scan"}, "type": "electric_scooter"}, {"is_reserved": 0, "is_disabled": 0, "fusion_lon": 0.0, "lat": 38.923506833333334, "name": "d0201131160483b998f1413e951dcfac", "bike_id": "d0201131160483b998f1413e951dcfac", "lon": -77.03292633333334, "fusion_lat": 0.0, "rental_uris": {"android": "https://dc.lft.to/lastmile_qr_scan", "ios": "https://dc.lft.to/lastmile_qr_scan"}, "type": "electric_scooter"}, {"is_reserved": 0, "is_disabled": 0, "fusion_lon": 0.0, "lat": 38.91232316666667, "name": "52f6905a50b4e93285c7279fab5474b5", "bike_id": "52f6905a50b4e93285c7279fab5474b5", "lon": -77.065863, "fusion_lat": 0.0, "rental_uris": {"android": "https://dc.lft.to/lastmile_qr_scan", "ios": "https://dc.lft.to/lastmile_qr_scan"}, "type": "electric_scooter"}, {"is_reserved": 0, "is_disabled": 0, "fusion_lon": 0.0, "lat": 38.90558866666667, "name": "2ee0acfd75ae2da27d72a3e56f965668", "bike_id": "2ee0acfd75ae2da27d72a3e56f965668", "lon": -77.005787, "fusion_lat": 0.0, "rental_uris": {"android": "https://dc.lft.to/lastmile_qr_scan", "ios": "https://dc.lft.to/lastmile_qr_scan"}, "type": "electric_scooter"}, {"is_reserved": 0, "is_disabled": 0, "fusion_lon": 0.0, "lat": 38.8922335, "name": "94243aeba31f47663d6a1fd7f33a34cd", "bike_id": "94243aeba31f47663d6a1fd7f33a34cd", "lon": -77.03139633333333, "fusion_lat": 0.0, "rental_uris": {"android": "https://dc.lft.to/lastmile_qr_scan", "ios": "https://dc.lft.to/lastmile_qr_scan"}, "type": "electric_scooter"}, {"is_reserved": 0, "is_disabled": 0, "fusion_lon": 0.0, "lat": 38.9497205, "name": "2be6ff4034a6b18c375e2d0d55ed6afa", "bike_id": "2be6ff4034a6b18c375e2d0d55ed6afa", "lon": -76.960986, "fusion_lat": 0.0, "rental_uris": {"android": "https://dc.lft.to/lastmile_qr_scan", "ios": "https://dc.lft.to/lastmile_qr_scan"}, "type": "electric_bike"}, {"is_reserved": 0, "is_disabled": 0, "fusion_lon": 0.0, "lat": 38.876599, "name": "14b90baf57e0f69c67f4bba01c212e05", "bike_id": "14b90baf57e0f69c67f4bba01c212e05", "lon": -77.01172583333333, "fusion_lat": 0.0, "rental_uris": {"android": "https://dc.lft.to/lastmile_qr_scan", "ios": "https://dc.lft.to/lastmile_qr_scan"}, "type": "electric_scooter"}, {"is_reserved": 0, "is_disabled": 0, "fusion_lon": 0.0, "lat": 38.89510383333333, "name": "e45474792ed1f83d33b9569b131d6ec3", "bike_id": "e45474792ed1f83d33b9569b131d6ec3", "lon": -76.94886766666667, "fusion_lat": 0.0, "rental_uris": {"android": "https://dc.lft.to/lastmile_qr_scan", "ios": "https://dc.lft.to/lastmile_qr_scan"}, "type": "electric_scooter"}, {"is_reserved": 0, "is_disabled": 0, "fusion_lon": 0.0, "lat": 38.9243535, "name": "30451d99b485c3a431eaa321bb918301", "bike_id": "30451d99b485c3a431eaa321bb918301", "lon": -77.00329016666667, "fusion_lat": 0.0, "rental_uris": {"android": "https://dc.lft.to/lastmile_qr_scan", "ios": "https://dc.lft.to/lastmile_qr_scan"}, "type": "electric_scooter"}, {"is_reserved": 0, "is_disabled": 0, "fusion_lon": 0.0, "lat": 38.9167425, "name": "204aa7bb9c0844bff12bf458df4ea2d3", "bike_id": "204aa7bb9c0844bff12bf458df4ea2d3", "lon": -77.02316116666667, "fusion_lat": 0.0, "rental_uris": {"android": "https://dc.lft.to/lastmile_qr_scan", "ios": "https://dc.lft.to/lastmile_qr_scan"}, "type": "electric_scooter"}, {"is_reserved": 0, "is_disabled": 0, "fusion_lon": 0.0, "lat": 38.923663, "name": "94b12850c8080f59a2d9f9e93b2a5f40", "bike_id": "94b12850c8080f59a2d9f9e93b2a5f40", "lon": -77.040967, "fusion_lat": 0.0, "rental_uris": {"android": "https://dc.lft.to/lastmile_qr_scan", "ios": "https://dc.lft.to/lastmile_qr_scan"}, "type": "electric_scooter"}, {"is_reserved": 0, "is_disabled": 0, "fusion_lon": 0.0, "lat": 38.902787333333336, "name": "a9b9ea3041d26ddbef8bdf56887ce957", "bike_id": "a9b9ea3041d26ddbef8bdf56887ce957", "lon": -77.03919066666667, "fusion_lat": 0.0, "rental_uris": {"android": "https://dc.lft.to/lastmile_qr_scan", "ios": "https://dc.lft.to/lastmile_qr_scan"}, "type": "electric_scooter"}, {"is_reserved": 0, "is_disabled": 0, "fusion_lon": 0.0, "lat": 38.910324333333335, "name": "1cb86fd45d5c9e86049d9505457f13ad", "bike_id": "1cb86fd45d5c9e86049d9505457f13ad", "lon": -77.03361516666666, "fusion_lat": 0.0, "rental_uris": {"android": "https://dc.lft.to/lastmile_qr_scan", "ios": "https://dc.lft.to/lastmile_qr_scan"}, "type": "electric_scooter"}, {"is_reserved": 0, "is_disabled": 0, "fusion_lon": 0.0, "lat": 38.93017716666667, "name": "b26472d0ea521438756301d877042a2c", "bike_id": "b26472d0ea521438756301d877042a2c", "lon": -77.061925, "fusion_lat": 0.0, "rental_uris": {"android": "https://dc.lft.to/lastmile_qr_scan", "ios": "https://dc.lft.to/lastmile_qr_scan"}, "type": "electric_scooter"}, {"is_reserved": 0, "is_disabled": 0, "fusion_lon": 0.0, "lat": 38.89359533333333, "name": "55c575a9825b28873f1dbb682c666395", "bike_id": "55c575a9825b28873f1dbb682c666395", "lon": -77.04620283333334, "fusion_lat": 0.0, "rental_uris": {"android": "https://dc.lft.to/lastmile_qr_scan", "ios": "https://dc.lft.to/lastmile_qr_scan"}, "type": "electric_scooter"}, {"is_reserved": 0, "is_disabled": 0, "fusion_lon": 0.0, "lat": 38.89704783333333, "name": "d67b0984839306c7d4c87efceaa39bc4", "bike_id": "d67b0984839306c7d4c87efceaa39bc4", "lon": -76.9391475, "fusion_lat": 0.0, "rental_uris": {"android": "https://dc.lft.to/lastmile_qr_scan", "ios": "https://dc.lft.to/lastmile_qr_scan"}, "type": "electric_scooter"}, {"is_reserved": 0, "is_disabled": 0, "fusion_lon": 0.0, "lat": 38.912221833333334, "name": "74d1013bd3e112d3639f895be0fdde68", "bike_id": "74d1013bd3e112d3639f895be0fdde68", "lon": -77.03190416666666, "fusion_lat": 0.0, "rental_uris": {"android": "https://dc.lft.to/lastmile_qr_scan", "ios": "https://dc.lft.to/lastmile_qr_scan"}, "type": "electric_scooter"}, {"is_reserved": 0, "is_disabled": 0, "fusion_lon": 0.0, "lat": 38.93700033333333, "name": "fc63752e191a24a14cdf6838d1e03a0e", "bike_id": "fc63752e191a24a14cdf6838d1e03a0e", "lon": -77.056144, "fusion_lat": 0.0, "rental_uris": {"android": "https://dc.lft.to/lastmile_qr_scan", "ios": "https://dc.lft.to/lastmile_qr_scan"}, "type": "electric_scooter"}, {"is_reserved": 0, "is_disabled": 0, "fusion_lon": 0.0, "lat": 38.900232833333334, "name": "8cb4fad2a3214d203f4715131798c984", "bike_id": "8cb4fad2a3214d203f4715131798c984", "lon": -77.0319285, "fusion_lat": 0.0, "rental_uris": {"android": "https://dc.lft.to/lastmile_qr_scan", "ios": "https://dc.lft.to/lastmile_qr_scan"}, "type": "electric_scooter"}, {"is_reserved": 0, "is_disabled": 0, "fusion_lon": 0.0, "lat": 38.89490933333333, "name": "fa2a685ecc2feeefc4ee5add7c226ce1", "bike_id": "fa2a685ecc2feeefc4ee5add7c226ce1", "lon": -76.94893866666666, "fusion_lat": 0.0, "rental_uris": {"android": "https://dc.lft.to/lastmile_qr_scan", "ios": "https://dc.lft.to/lastmile_qr_scan"}, "type": "electric_scooter"}, {"is_reserved": 0, "is_disabled": 0, "fusion_lon": 0.0, "lat": 38.9363975, "name": "f07a1bac07b298e15b890ba082d14e3b", "bike_id": "f07a1bac07b298e15b890ba082d14e3b", "lon": -76.954611, "fusion_lat": 0.0, "rental_uris": {"android": "https://dc.lft.to/lastmile_qr_scan", "ios": "https://dc.lft.to/lastmile_qr_scan"}, "type": "electric_bike"}, {"is_reserved": 0, "is_disabled": 0, "fusion_lon": 0.0, "lat": 38.90829016666667, "name": "0951b9946eb5c141b00f6078fadb30d4", "bike_id": "0951b9946eb5c141b00f6078fadb30d4", "lon": -77.02179383333333, "fusion_lat": 0.0, "rental_uris": {"android": "https://dc.lft.to/lastmile_qr_scan", "ios": "https://dc.lft.to/lastmile_qr_scan"}, "type": "electric_scooter"}, {"is_reserved": 0, "is_disabled": 0, "fusion_lon": 0.0, "lat": 38.924791166666665, "name": "16f8781729ceb992f97af1eb8db69e5e", "bike_id": "16f8781729ceb992f97af1eb8db69e5e", "lon": -77.03017566666666, "fusion_lat": 0.0, "rental_uris": {"android": "https://dc.lft.to/lastmile_qr_scan", "ios": "https://dc.lft.to/lastmile_qr_scan"}, "type": "electric_scooter"}, {"is_reserved": 0, "is_disabled": 0, "fusion_lon": 0.0, "lat": 38.9231955, "name": "ced7e2c4a8014050cab39e945af02665", "bike_id": "ced7e2c4a8014050cab39e945af02665", "lon": -77.028978, "fusion_lat": 0.0, "rental_uris": {"android": "https://dc.lft.to/lastmile_qr_scan", "ios": "https://dc.lft.to/lastmile_qr_scan"}, "type": "electric_scooter"}, {"is_reserved": 0, "is_disabled": 0, "fusion_lon": 0.0, "lat": 38.91962216666667, "name": "6ab28c0b435349934203e59af7a38709", "bike_id": "6ab28c0b435349934203e59af7a38709", "lon": -77.0419055, "fusion_lat": 0.0, "rental_uris": {"android": "https://dc.lft.to/lastmile_qr_scan", "ios": "https://dc.lft.to/lastmile_qr_scan"}, "type": "electric_scooter"}, {"is_reserved": 0, "is_disabled": 0, "fusion_lon": 0.0, "lat": 38.9346285, "name": "97e6dad50df814ba01cab3fa1ba591d6", "bike_id": "97e6dad50df814ba01cab3fa1ba591d6", "lon": -77.05810683333333, "fusion_lat": 0.0, "rental_uris": {"android": "https://dc.lft.to/lastmile_qr_scan", "ios": "https://dc.lft.to/lastmile_qr_scan"}, "type": "electric_scooter"},