{"data": {"bikes": [{"lon": -77.01814933333333, "bike_id": "4f05e19e9024fbcc3d1a4d2f51b7c921", "lat": 38.920276333333334, "fusion_lon": 0.0, "fusion_lat": 0.0, "type": "electric_scooter", "name": "4f05e19e9024fbcc3d1a4d2f51b7c921", "is_disabled": 0, "rental_uris": {"ios": "https://dc.lft.to/lastmile_qr_scan", "android": "https://dc.lft.to/lastmile_qr_scan"}, "is_reserved": 0}, {"lon": -77.02330733333334, "bike_id": "c0ba87fb3e9bd3f5e4c350bc74d2897f", "lat": 38.907294666666665, "fusion_lon": 0.0, "fusion_lat": 0.0, "type": "electric_scooter", "name": "c0ba87fb3e9bd3f5e4c350bc74d2897f", "is_disabled": 0, "rental_uris": {"ios": "https://dc.lft.to/lastmile_qr_scan", "android": "https://dc.lft.to/lastmile_qr_scan"}, "is_reserved": 0}, {"lon": -77.00463033333334, "bike_id": "8df83c49232d9e84b9d9fa2c9d4447ea", "lat": 38.9118265, "fusion_lon": 0.0, "fusion_lat": 0.0, "type": "electric_scooter", "name": "8df83c49232d9e84b9d9fa2c9d4447ea", "is_disabled": 0, "rental_uris": {"ios": "https://dc.lft.to/lastmile_qr_scan", "android": "https://dc.lft.to/lastmile_qr_scan"}, "is_reserved": 0}, {"lon": -77.0217095, "bike_id": "d47c698f990bf388bb1a40fc4ca9f73c", "lat": 38.942899833333335, "fusion_lon": 0.0, "fusion_lat": 0.0, "type": "electric_scooter", "name": "d47c698f990bf388bb1a40fc4ca9f73c", "is_disabled": 0, "rental_uris": {"ios": "https://dc.lft.to/lastmile_qr_scan", "android": "https://dc.lft.to/lastmile_qr_scan"}, "is_reserved": 0}, {"lon": -76.946363, "bike_id": "e6da0c1af6e423c7ccc8aab71d64a552", "lat": 38.898311166666666, "fusion_lon": 0.0, "fusion_lat": 0.0, "type": "electric_scooter", "name": "e6da0c1af6e423c7ccc8aab71d64a552", "is_disabled": 0, "rental_uris": {"ios": "https://dc.lft.to/lastmile_qr_scan", "android": "https://dc.lft.to/lastmile_qr_scan"}, "is_reserved": 0}, {"lon": -77.07669983333334, "bike_id": "baade84fde08d51067f8b9ca434de257", "lat": 38.943250666666664, "fusion_lon": 0.0, "fusion_lat": 0.0, "type": "electric_scooter", "name": "baade84fde08d51067f8b9ca434de257", "is_disabled": 0, "rental_uris": {"ios": "https://dc.lft.to/lastmile_qr_scan", "android": "https://dc.lft.to/lastmile_qr_scan"}, "is_reserved": 0}, {"lon": -77.03944283333334, "bike_id": "c7a5a3d37fd2ddea50bc8770bcfa87cd", "lat": 38.91939083333333, "fusion_lon": 0.0, "fusion_lat": 0.0, "type": "electric_scooter", "name": "c7a5a3d37fd2ddea50bc8770bcfa87cd", "is_disabled": 0, "rental_uris": {"ios": "https://dc.lft.to/lastmile_qr_scan", "android": "https://dc.lft.to/lastmile_qr_scan"}, "is_reserved": 0}, {"lon": -76.99854566666667, "bike_id": "01904f76e767da1de34b0d32bd3a91b7", "lat": 38.90775133333333, "fusion_lon": 0.0, "fusion_lat": 0.0, "type": "electric_scooter", "name": "01904f76e767da1de34b0d32bd3a91b7", "is_disabled": 0, "rental_uris": {"ios": "https://dc.lft.to/lastmile_qr_scan", "android": "https://dc.lft.to/lastmile_qr_scan"}, "is_reserved": 0}, {"lon": -77.05619533333333, "bike_id": "3c7f3758990a7d0635b916f1e3470a85", "lat": 38.923339, "fusion_lon": 0.0, "fusion_lat": 0.0, "type": "electric_scooter", "name": "3c7f3758990a7d0635b916f1e3470a85", "is_disabled": 0, "rental_uris": {"ios": "https://dc.lft.to/lastmile_qr_scan", "android": "https://dc.lft.to/lastmile_qr_scan"}, "is_reserved": 0}, {"lon": -77.02347633333333, "bike_id": "2e9801afbde51fe3d8b6a057963e3c75", "lat": 38.92250333333333, "fusion_lon": 0.0, "fusion_lat": 0.0, "type": "electric_scooter", "name": "2e9801afbde51fe3d8b6a057963e3c75", "is_disabled": 0, "rental_uris": {"ios": "https://dc.lft.to/lastmile_qr_scan", "android": "https://dc.lft.to/lastmile_qr_scan"}, "is_reserved": 0}, {"lon": -76.9653005, "bike_id": "790f8bcc236bb7947f9622ea707dd665", "lat": 38.87479366666667, "fusion_lon": 0.0, "fusion_lat": 0.0, "type": "electric_scooter", "name": "790f8bcc236bb7947f9622ea707dd665", "is_disabled": 0, "rental_uris": {"ios": "https://dc.lft.to/lastmile_qr_scan", "android": "https://dc.lft.to/lastmile_qr_scan"}, "is_reserved": 0}, {"lon": -77.04248133333333, "bike_id": "5d5e35b66de7cd6568561dd593fc8856", "lat": 38.906503, "fusion_lon": 0.0, "fusion_lat": 0.0, "type": "electric_scooter", "name": "5d5e35b66de7cd6568561dd593fc8856", "is_disabled": 0, "rental_uris": {"ios": "https://dc.lft.to/lastmile_qr_scan", "android": "https://dc.lft.to/lastmile_qr_scan"}, "is_reserved": 0}, {"lon": -76.99202533333333, "bike_id": "44260a63e4fb010f454d8809f09d4b11", "lat": 38.898267833333335, "fusion_lon": 0.0, "fusion_lat": 0.0, "type": "electric_scooter", "name": "44260a63e4fb010f454d8809f09d4b11", "is_disabled": 0, "rental_uris": {"ios": "https://dc.lft.to/lastmile_qr_scan", "android": "https://dc.lft.to/lastmile_qr_scan"}, "is_reserved": 0}, {"lon": -77.0422325, "bike_id": "b9aa5c00ac7e0d6e9241255071dccdb1", "lat": 38.91121483333333, "fusion_lon": 0.0, "fusion_lat": 0.0, "type": "electric_scooter", "name": "b9aa5c00ac7e0d6e9241255071dccdb1", "is_disabled": 0, "rental_uris": {"ios": "https://dc.lft.to/lastmile_qr_scan", "android": "https://dc.lft.to/lastmile_qr_scan"}, "is_reserved": 0}, {"lon": -77.00921066666666, "bike_id": "ea53456bfa7b5068b010093ea7057d06", "lat": 38.8964885, "fusion_lon": 0.0, "fusion_lat": 0.0, "type": "electric_scooter", "name": "ea53456bfa7b5068b010093ea7057d06", "is_disabled": 0, "rental_uris": {"ios": "https://dc.lft.to/lastmile_qr_scan", "android": "https://dc.lft.to/lastmile_qr_scan"}, "is_reserved": 0}, {"lon": -77.04557283333334, "bike_id": "aaaf8921db89ac0bd7b8c31e8f714125", "lat": 38.91926133333333, "fusion_lon": 0.0, "fusion_lat": 0.0, "type": "electric_scooter", "name": "aaaf8921db89ac0bd7b8c31e8f714125", "is_disabled": 0, "rental_uris": {"ios": "https://dc.lft.to/lastmile_qr_scan", "android": "https://dc.lft.to/lastmile_qr_scan"}, "is_reserved": 0}, {"lon": -77.02990516666667, "bike_id": "2b92b0118454b5dd5855914f21ddeefd", "lat": 38.97439166666667, "fusion_lon": 0.0, "fusion_lat": 0.0, "type": "electric_bike", "name": "2b92b0118454b5dd5855914f21ddeefd", "is_disabled": 0, "rental_uris": {"ios": "https://dc.lft.to/lastmile_qr_scan", "android": "https://dc.lft.to/lastmile_qr_scan"}, "is_reserved": 0}, {"lon": -77.0486845, "bike_id": "0dfbbc863734e8e8150943531ceb83f6", "lat": 38.89220616666667, "fusion_lon": 0.0, "fusion_lat": 0.0, "type": "electric_scooter", "name": "0dfbbc863734e8e8150943531ceb83f6", "is_disabled": 0, "rental_uris": {"ios": "https://dc.lft.to/lastmile_qr_scan", "android": "https://dc.lft.to/lastmile_qr_scan"}, "is_reserved": 0}, {"lon": -77.01879633333333, "bike_id": "529b089f22d0a405fce6b259fc6459e1", "lat": 38.91487566666667, "fusion_lon": 0.0, "fusion_lat": 0.0, "type": "electric_scooter", "name": "529b089f22d0a405fce6b259fc6459e1", "is_disabled": 0, "rental_uris": {"ios": "https://dc.lft.to/lastmile_qr_scan", "android": "https://dc.lft.to/lastmile_qr_scan"}, "is_reserved": 0}, {"lon": -76.9976845, "bike_id": "00e614a4ed2675526a7e95fa3022cb04", "lat": 38.924496833333336, "fusion_lon": 0.0, "fusion_lat": 0.0, "type": "electric_scooter", "name": "00e614a4ed2675526a7e95fa3022cb04", "is_disabled": 0, "rental_uris": {"ios": "https://dc.lft.to/lastmile_qr_scan", "android": "https://dc.lft.to/lastmile_qr_scan"}, "is_reserved": 0}, {"lon": -77.02308533333333, "bike_id": "3efe510677ce9424f9931bc8721e98e7", "lat": 38.9095765, "fusion_lon": 0.0, "fusion_lat": 0.0, "type": "electric_scooter", "name": "3efe510677ce9424f9931bc8721e98e7", "is_disabled": 0, "rental_uris": {"ios": "https://dc.lft.to/lastmile_qr_scan", "android": "https://dc.lft.to/lastmile_qr_scan"}, "is_reserved": 0}, {"lon": -77.0513095, "bike_id": "0c6d3803dbe04b3b6895507e5786b3ce", "lat": 38.92363916666667, "fusion_lon": 0.0, "fusion_lat": 0.0, "type": "electric_scooter", "name": "0c6d3803dbe04b3b6895507e5786b3ce", "is_disabled": 0, "rental_uris": {"ios": "https://dc.lft.to/lastmile_qr_scan", "android": "https://dc.lft.to/lastmile_qr_scan"}, "is_reserved": 0}, {"lon": -77.05862166666667, "bike_id": "35362444aa4e07ca857005a90f721655", "lat": 38.93604916666666, "fusion_lon": 0.0, "fusion_lat": 0.0, "type": "electric_scooter", "name": "35362444aa4e07ca857005a90f721655", "is_disabled": 0, "rental_uris": {"ios": "https://dc.lft.to/lastmile_qr_scan", "android": "https://dc.lft.to/lastmile_qr_scan"}, "is_reserved": 0}, {"lon": -77.0034615, "bike_id": "597a3f95a932ce98d0b9f949e7574d28", "lat": 38.895179666666664, "fusion_lon": 0.0, "fusion_lat": 0.0, "type": "electric_scooter", "name": "597a3f95a932ce98d0b9f949e7574d28", "is_disabled": 0, "rental_uris": {"ios": "https://dc.lft.to/lastmile_qr_scan", "android": "https://dc.lft.to/lastmile_qr_scan"}, "is_reserved": 0}, {"lon": -77.0210975, "bike_id": "f3262c2cd7c9083b7a470593825e6627", "lat": 38.930059166666666, "fusion_lon": 0.0, "fusion_lat": 0.0, "type": "electric_scooter", "name": "f3262c2cd7c9083b7a470593825e6627", "is_disabled": 0, "rental_uris": {"ios": "https://dc.lft.to/lastmile_qr_scan", "android": "https://dc.lft.to/lastmile_qr_scan"}, "is_reserved": 0}, {"lon": -77.03070833333334, "bike_id": "f3fffbea53b2130043c2dffab41f6992", "lat": 38.8858575, "fusion_lon": 0.0, "fusion_lat": 0.0, "type": "electric_scooter", "name": "f3fffbea53b2130043c2dffab41f6992", "is_disabled": 0, "rental_uris": {"ios": "https://dc.lft.to/lastmile_qr_scan", "android": "https://dc.lft.to/lastmile_qr_scan"}, "is_reserved": 0}, {"lon": -77.05005816666667, "bike_id": "bd92c3e8148285e70ba03c4cc47c08d4", "lat": 38.89774233333333, "fusion_lon": 0.0, "fusion_lat": 0.0, "type": "electric_scooter", "name": "bd92c3e8148285e70ba03c4cc47c08d4", "is_disabled": 0, "rental_uris": {"ios": "https://dc.lft.to/lastmile_qr_scan", "android": "https://dc.lft.to/lastmile_qr_scan"}, "is_reserved": 0}, {"lon": -77.0474935, "bike_id": "17409dffa747547fae6819d0888d1109", "lat": 38.90975616666667, "fusion_lon": 0.0, "fusion_lat": 0.0, "type": "electric_scooter", "name": "17409dffa747547fae6819d0888d1109", "is_disabled": 0, "rental_uris": {"ios": "https://dc.lft.to/lastmile_qr_scan", "android": "https://dc.lft.to/lastmile_qr_scan"}, "is_reserved": 0}, {"lon": -77.00047, "bike_id": "1a9f7c544fe14db4f572e7b46a50b375", "lat": 38.900167, "fusion_lon": 0.0, "fusion_lat": 0.0, "type": "electric_scooter", "name": "1a9f7c544fe14db4f572e7b46a50b375", "is_disabled": 0, "rental_uris": {"ios": "https://dc.lft.to/lastmile_qr_scan", "android": "https://dc.lft.to/lastmile_qr_scan"}, "is_reserved": 0}, {"lon": -77.02983533333334, "bike_id": "be0e0a2387f091217e3e8a3d2783b414", "lat": 38.90731133333333, "fusion_lon": 0.0, "fusion_lat": 0.0, "type": "electric_scooter", "name": "be0e0a2387f091217e3e8a3d2783b414", "is_disabled": 0, "rental_uris": {"ios": "https://dc.lft.to/lastmile_qr_scan", "android": "https://dc.lft.to/lastmile_qr_scan"}, "is_reserved": 0}, {"lon": -77.054186, "bike_id": "c6c27030e7e4c7843156d1220ecbef24", "lat": 38.901424166666665, "fusion_lon": 0.0, "fusion_lat": 0.0, "type": "electric_scooter", "name": "c6c27030e7e4c7843156d1220ecbef24", "is_disabled": 0, "rental_uris": {"ios": "https://dc.lft.to/lastmile_qr_scan", "android": "https://dc.lft.to/lastmile_qr_scan"}, "is_reserved": 0}, {"lon": -76.98886133333333, "bike_id": "d29514317ff85072820e1f0924146ffa", "lat": 38.86658933333333, "fusion_lon": 0.0, "fusion_lat": 0.0, "type": "electric_scooter", "name": "d29514317ff85072820e1f0924146ffa", "is_disabled": 0, "rental_uris": {"ios": "https://dc.lft.to/lastmile_qr_scan", "android": "https://dc.lft.to/lastmile_qr_scan"}, "is_reserved": 0}, {"lon": -77.020826, "bike_id": "ea08f47ead9ad6f214080a7c742ddad2", "lat": 38.936318166666666, "fusion_lon": 0.0, "fusion_lat": 0.0, "type": "electric_scooter", "name": "ea08f47ead9ad6f214080a7c742ddad2", "is_disabled": 0, "rental_uris": {"ios": "https://dc.lft.to/lastmile_qr_scan", "android": "https://dc.lft.to/lastmile_qr_scan"}, "is_reserved": 0}, {"lon": -77.03827766666667, "bike_id": "3e0774687fd751b225d0940fe4bbaafe", "lat": 38.91700266666667, "fusion_lon": 0.0, "fusion_lat": 0.0, "type": "electric_scooter", "name": "3e0774687fd751b225d0940fe4bbaafe", "is_disabled": 0, "rental_uris": {"ios": "https://dc.lft.to/lastmile_qr_scan", "android": "https://dc.lft.to/lastmile_qr_scan"}, "is_reserved": 0}, {"lon": -77.02408316666667, "bike_id": "d9b9f33956890e7f7abd9b64e2acd2b0", "lat": 38.9095035, "fusion_lon": 0.0, "fusion_lat": 0.0, "type": "electric_scooter", "name": "d9b9f33956890e7f7abd9b64e2acd2b0", "is_disabled": 0, "rental_uris": {"ios": "https://dc.lft.to/lastmile_qr_scan", "android": "https://dc.lft.to/lastmile_qr_scan"}, "is_reserved": 0}, {"lon": -77.02697966666666, "bike_id": "483ed35b7af7973a86ca6508b0b30330", "lat": 38.90230666666667, "fusion_lon": 0.0, "fusion_lat": 0.0, "type": "electric_scooter", "name": "483ed35b7af7973a86ca6508b0b30330", "is_disabled": 0, "rental_uris": {"ios": "https://dc.lft.to/lastmile_qr_scan", "android": "https://dc.lft.to/lastmile_qr_scan"}, "is_reserved": 0}, {"lon": -77.03475266666666, "bike_id": "fe08d76304e0d9703a054e1d7dbcfa90", "lat": 38.884885833333335, "fusion_lon": 0.0, "fusion_lat": 0.0, "type": "electric_scooter", "name": "fe08d76304e0d9703a054e1d7dbcfa90", "is_disabled": 0, "rental_uris": {"ios": "https://dc.lft.to/lastmile_qr_scan", "android": "https://dc.lft.to/lastmile_qr_scan"}, "is_reserved": 0}, {"lon": -77.0418055, "bike_id": "0a527169520e7e0f481a8bea65d9bd90", "lat": 38.903094, "fusion_lon": 0.0, "fusion_lat": 0.0, "type": "electric_scooter", "name": "0a527169520e7e0f481a8bea65d9bd90", "is_disabled": 0, "rental_uris": {"ios": "https://dc.lft.to/lastmile_qr_scan", "android": "https://dc.lft.to/lastmile_qr_scan"}, "is_reserved": 0}, {"lon": -76.976833, "bike_id": "2119258df74d22505ee05f47b7ebb5fc", "lat": 38.896214, "fusion_lon": 0.0, "fusion_lat": 0.0, "type": "electric_scooter", "name": "2119258df74d22505ee05f47b7ebb5fc", "is_disabled": 0, "rental_uris": {"ios": "https://dc.lft.to/lastmile_qr_scan", "android": "https://dc.lft.to/lastmile_qr_scan"}, "is_reserved": 0}, {"lon": -77.03353083333333, "bike_id": "dcb48166f577d04f0798f46394389b53", "lat": 38.90288483333333, "fusion_lon": 0.0, "fusion_lat": 0.0, "type": "electric_scooter", "name": "dcb48166f577d04f0798f46394389b53", "is_disabled": 0, "rental_uris": {"ios": "https://dc.lft.to/lastmile_qr_scan", "android": "https://dc.lft.to/lastmile_qr_scan"}, "is_reserved": 0}, {"lon": -77.0217445, "bike_id": "feb0eeaef3d77b02ef8b87068eb32e5f", "lat": 38.9429115, "fusion_lon": 0.0, "fusion_lat": 0.0, "type": "electric_scooter", "name": "feb0eeaef3d77b02ef8b87068eb32e5f", "is_disabled": 0, "rental_uris": {"ios": "https://dc.lft.to/lastmile_qr_scan", "android": "https://dc.lft.to/lastmile_qr_scan"}, "is_reserved": 0}, {"lon": -77.0297365, "bike_id": "e90e6b0df7ced7eea83c2c3bb86938de", "lat": 38.93063333333333, "fusion_lon": 0.0, "fusion_lat": 0.0, "type": "electric_scooter", "name": "e90e6b0df7ced7eea83c2c3bb86938de", "is_disabled": 0, "rental_uris": {"ios": "https://dc.lft.to/lastmile_qr_scan", "android": "https://dc.lft.to/lastmile_qr_scan"}, "is_reserved": 0}, {"lon": -77.0265285, "bike_id": "5fb97367367fa21877bf9c34fdae7015", "lat": 38.9297725, "fusion_lon": 0.0, "fusion_lat": 0.0, "type": "electric_scooter", "name": "5fb97367367fa21877bf9c34fdae7015", "is_disabled": 0, "rental_uris": {"ios": "https://dc.lft.to/lastmile_qr_scan", "android": "https://dc.lft.to/lastmile_qr_scan"}, "is_reserved": 0}, {"lon": -77.05437183333333, "bike_id": "6119ec650d65acbcd97518e3efc005b9", "lat": 38.85521633333333, "fusion_lon": 0.0, "fusion_lat": 0.0, "type": "electric_bike", "name": "6119ec650d65acbcd97518e3efc005b9", "is_disabled": 0, "rental_uris": {"ios": "https://dc.lft.to/lastmile_qr_scan", "android": "https://dc.lft.to/lastmile_qr_scan"}, "is_reserved": 0}, {"lon": -77.03863783333334, "bike_id": "d743427e89185ed1c7f65dd776101bc6", "lat": 38.915530833333335, "fusion_lon": 0.0, "fusion_lat": 0.0, "type": "electric_scooter", "name": "d743427e89185ed1c7f65dd776101bc6", "is_disabled": 0, "rental_uris": {"ios": "https://dc.lft.to/lastmile_qr_scan", "android": "https://dc.lft.to/lastmile_qr_scan"}, "is_reserved": 0}, {"lon": -77.12646916666667, "bike_id": "9c3dba74f4bddcd0c879198ac8ea7649", "lat": 38.81511183333333, "fusion_lon": 0.0, "fusion_lat": 0.0, "type": "electric_bike", "name": "9c3dba74f4bddcd0c879198ac8ea7649", "is_disabled": 0, "rental_uris": {"ios": "https://dc.lft.to/lastmile_qr_scan", "android": "https://dc.lft.to/lastmile_qr_scan"}, "is_reserved": 0}, {"lon": -77.0292595, "bike_id": "142f3779ac89f86d794fcf0287d8e2e3", "lat": 38.93464566666667, "fusion_lon": 0.0, "fusion_lat": 0.0, "type": "electric_scooter", "name": "142f3779ac89f86d794fcf0287d8e2e3", "is_disabled": 0, "rental_uris": {"ios": "https://dc.lft.to/lastmile_qr_scan", "android": "https://dc.lft.to/lastmile_qr_scan"}, "is_reserved": 0}, {"lon": -77.01450016666666, "bike_id": "3a370bbd9fe035a35611747d2b4dd6f3", "lat": 38.87677766666667, "fusion_lon": 0.0, "fusion_lat": 0.0, "type": "electric_bike", "name": "3a370bbd9fe035a35611747d2b4dd6f3", "is_disabled": 0, "rental_uris": {"ios": "https://dc.lft.to/lastmile_qr_scan", "android": "https://dc.lft.to/lastmile_qr_scan"}, "is_reserved": 0}, {"lon": -77.03436766666667, "bike_id": "a80d19b43dc38470ed56819e6c137bbf", "lat": 38.9194025, "fusion_lon": 0.0, "fusion_lat": 0.0, "type": "electric_scooter", "name": "a80d19b43dc38470ed56819e6c137bbf", "is_disabled": 0, "rental_uris": {"ios": "https://dc.lft.to/lastmile_qr_scan", "android": "https://dc.lft.to/lastmile_qr_scan"}, "is_reserved": 0}, {"lon": -77.0065655, "bike_id": "091904283e0e5e6b2461f8fe04bf2041", "lat": 38.94459066666667, "fusion_lon": 0.0, "fusion_lat": 0.0, "type": "electric_scooter", "name": "091904283e0e5e6b2461f8fe04bf2041", "is_disabled": 0, "rental_uris": {"ios": "https://dc.lft.to/lastmile_qr_scan", "android": "https://dc.lft.to/lastmile_qr_scan"}, "is_reserved": 0}, {"lon": -77.028702, "bike_id": "92b26de0f857858a9ed77f3427bf326b", "lat": 38.884871, "fusion_lon": 0.0, "fusion_lat": 0.0, "type": "electric_scooter", "name": "92b26de0f857858a9ed77f3427bf326b", "is_disabled": 0, "rental_uris": {"ios": "https://dc.lft.to/lastmile_qr_scan", "android": "https://dc.lft.to/lastmile_qr_scan"}, "is_reserved": 0}, {"lon": -77.00663883333333, "bike_id": "49ee80e6178b22086e63a8e7cbeb5df8", "lat": 38.90031166666667, "fusion_lon": 0.0, "fusion_lat": 0.0, "type": "electric_scooter", "name": "49ee80e6178b22086e63a8e7cbeb5df8", "is_disabled": 0, "rental_uris": {"ios": "https://dc.lft.to/lastmile_qr_scan", "android": "https://dc.lft.to/lastmile_qr_scan"}, "is_reserved": 0}, {"lon": -76.97240233333333, "bike_id": "1075abc18402dc71d6471e2bde629899", "lat": 38.94903583333333, "fusion_lon": 0.0, "fusion_lat": 0.0, "type": "electric_bike", "name": "1075abc18402dc71d6471e2bde629899", "is_disabled": 0, "rental_uris": {"ios": "https://dc.lft.to/lastmile_qr_scan", "android": "https://dc.lft.to/lastmile_qr_scan"}, "is_reserved": 0}, {"lon": -77.0434685, "bike_id": "d07176f9bda7770e7d4002bb2b7c53b1", "lat": 38.913261166666665, "fusion_lon": 0.0, "fusion_lat": 0.0, "type": "electric_scooter", "name": "d07176f9bda7770e7d4002bb2b7c53b1", "is_disabled": 0, "rental_uris": {"ios": "https://dc.lft.to/lastmile_qr_scan", "android": "https://dc.lft.to/lastmile_qr_scan"}, "is_reserved": 0}, {"lon": -77.02286233333334, "bike_id": "5bada0a09cbcba73c4e2be7b53b8a326", "lat": 38.90902366666667, "fusion_lon": 0.0, "fusion_lat": 0.0, "type": "electric_scooter", "name": "5bada0a09cbcba73c4e2be7b53b8a326", "is_disabled": 0, "rental_uris": {"ios": "https://dc.lft.to/lastmile_qr_scan", "android": "https://dc.lft.to/lastmile_qr_scan"}, "is_reserved": 0}, {"lon": -77.05360283333333, "bike_id": "c59fae30246efc3fc7011659ed0774e1", "lat": 38.92694183333333, "fusion_lon": 0.0, "fusion_lat": 0.0, "type": "electric_scooter", "name": "c59fae30246efc3fc7011659ed0774e1", "is_disabled": 0, "rental_uris": {"ios": "https://dc.lft.to/lastmile_qr_scan", "android": "https://dc.lft.to/lastmile_qr_scan"}, "is_reserved": 0}, {"lon": -77.00775383333334, "bike_id": "c8f620beaf674da83718e64b34b6aca1", "lat": 38.90680483333333, "fusion_lon": 0.0, "fusion_lat": 0.0, "type": "electric_scooter", "name": "c8f620beaf674da83718e64b34b6aca1", "is_disabled": 0, "rental_uris": {"ios": "https://dc.lft.to/lastmile_qr_scan", "android": "https://dc.lft.to/lastmile_qr_scan"}, "is_reserved": 0}, {"lon": -77.0057665, "bike_id": "8a3127bd6abd999b383b8062e5f78651", "lat": 38.906091, "fusion_lon": 0.0, "fusion_lat": 0.0, "type": "electric_scooter", "name": "8a3127bd6abd999b383b8062e5f78651", "is_disabled": 0, "rental_uris": {"ios": "https://dc.lft.to/lastmile_qr_scan", "android": "https://dc.lft.to/lastmile_qr_scan"}, "is_reserved": 0}, {"lon": -76.92757083333333, "bike_id": "bf22dfda168ded6e581dc542743c23f7", "lat": 38.880573, "fusion_lon": 0.0, "fusion_lat": 0.0, "type": "electric_scooter", "name": "bf22dfda168ded6e581dc542743c23f7", "is_disabled": 0, "rental_uris": {"ios": "https://dc.lft.to/lastmile_qr_scan", "android": "https://dc.lft.to/lastmile_qr_scan"}, "is_reserved": 0}, {"lon": -77.05130216666667, "bike_id": "862f7c8d75263d9b4e8c8fd4289b9133", "lat": 38.9236065, "fusion_lon": 0.0, "fusion_lat": 0.0, "type": "electric_scooter", "name": "862f7c8d75263d9b4e8c8fd4289b9133", "is_disabled": 0, "rental_uris": {"ios": "https://dc.lft.to/lastmile_qr_scan", "android": "https://dc.lft.to/lastmile_qr_scan"}, "is_reserved": 0}, {"lon": -77.02493633333333, "bike_id": "377d26a926a4f5dad05b8c3526328d65", "lat": 38.93868233333333, "fusion_lon": 0.0, "fusion_lat": 0.0, "type": "electric_scooter", "name": "377d26a926a4f5dad05b8c3526328d65", "is_disabled": 0, "rental_uris": {"ios": "https://dc.lft.to/lastmile_qr_scan", "android": "https://dc.lft.to/lastmile_qr_scan"}, "is_reserved": 0}, {"lon": -77.05273333333334, "bike_id": "a8d2604d6d8736cdcd49207bc1c71b9f", "lat": 38.910162, "fusion_lon": 0.0, "fusion_lat": 0.0, "type": "electric_scooter", "name": "a8d2604d6d8736cdcd49207bc1c71b9f", "is_disabled": 0, "rental_uris": {"ios": "https://dc.lft.to/lastmile_qr_scan", "android": "https://dc.lft.to/lastmile_qr_scan"}, "is_reserved": 0}, {"lon": -77.04399583333333, "bike_id": "1ebafe4436f925d5866b812479ae126b", "lat": 38.93320883333333, "fusion_lon": 0.0, "fusion_lat": 0.0, "type": "electric_scooter", "name": "1ebafe4436f925d5866b812479ae126b", "is_disabled": 0, "rental_uris": {"ios": "https://dc.lft.to/lastmile_qr_scan", "android": "https://dc.lft.to/lastmile_qr_scan"}, "is_reserved": 0}, {"lon": -77.02290233333333, "bike_id": "0833c1cd6826c0c4e67c597e18c291b4", "lat": 38.94475083333333, "fusion_lon": 0.0, "fusion_lat": 0.0, "type": "electric_bike", "name": "0833c1cd6826c0c4e67c597e18c291b4", "is_disabled": 0, "rental_uris": {"ios": "https://dc.lft.to/lastmile_qr_scan", "android": "https://dc.lft.to/lastmile_qr_scan"}, "is_reserved": 0}, {"lon": -77.1033075, "bike_id": "c4fcf17daa812ba9cdad506a95cafae2", "lat": 38.874174833333335, "fusion_lon": 0.0, "fusion_lat": 0.0, "type": "electric_bike", "name": "c4fcf17daa812ba9cdad506a95cafae2", "is_disabled": 0, "rental_uris": {"ios": "https://dc.lft.to/lastmile_qr_scan", "android": "https://dc.lft.to/lastmile_qr_scan"}, "is_reserved": 0}, {"lon": -77.019976, "bike_id": "bc8d0310801ea18b09a9cc3a78c11c5e", "lat": 38.913652, "fusion_lon": 0.0, "fusion_lat": 0.0, "type": "electric_scooter", "name": "bc8d0310801ea18b09a9cc3a78c11c5e", "is_disabled": 0, "rental_uris": {"ios": "https://dc.lft.to/lastmile_qr_scan", "android": "https://dc.lft.to/lastmile_qr_scan"}, "is_reserved": 0}, {"lon": -77.03472416666666, "bike_id": "798386967cb56e348b6ce43eb6eb8681", "lat": 38.924807333333334, "fusion_lon": 0.0, "fusion_lat": 0.0, "type": "electric_scooter", "name": "798386967cb56e348b6ce43eb6eb8681", "is_disabled": 0, "rental_uris": {"ios": "https://dc.lft.to/lastmile_qr_scan", "android": "https://dc.lft.to/lastmile_qr_scan"}, "is_reserved": 0}, {"lon": -77.02414183333333, "bike_id": "ce234ce3c8d5f7357f0d1e7d734eb0a1", "lat": 38.909713833333335, "fusion_lon": 0.0, "fusion_lat": 0.0, "type": "electric_scooter", "name": "ce234ce3c8d5f7357f0d1e7d734eb0a1", "is_disabled": 0, "rental_uris": {"ios": "https://dc.lft.to/lastmile_qr_scan", "android": "https://dc.lft.to/lastmile_qr_scan"}, "is_reserved": 0}, {"lon": -77.0780385, "bike_id": "b7147dbc86717c2fd3d9feaae7dbaa0f", "lat": 38.92367683333333, "fusion_lon": 0.0, "fusion_lat": 0.0, "type": "electric_scooter", "name": "b7147dbc86717c2fd3d9feaae7dbaa0f", "is_disabled": 0, "rental_uris": {"ios": "https://dc.lft.to/lastmile_qr_scan", "android": "https://dc.lft.to/lastmile_qr_scan"}, "is_reserved": 0}, {"lon": -77.02397183333333, "bike_id": "6afe3637cc17e7bad89393a0da873d00", "lat": 38.957093, "fusion_lon": 0.0, "fusion_lat": 0.0, "type": "electric_scooter", "name": "6afe3637cc17e7bad89393a0da873d00", "is_disabled": 0, "rental_uris": {"ios": "https://dc.lft.to/lastmile_qr_scan", "android": "https://dc.lft.to/lastmile_qr_scan"}, "is_reserved": 0}, {"lon": -77.0153175, "bike_id": "e237edb74829cc250c7005367c3c63b0", "lat": 38.88493166666667, "fusion_lon": 0.0, "fusion_lat": 0.0, "type": "electric_scooter", "name": "e237edb74829cc250c7005367c3c63b0", "is_disabled": 0, "rental_uris": {"ios": "https://dc.lft.to/lastmile_qr_scan", "android": "https://dc.lft.to/lastmile_qr_scan"}, "is_reserved": 0}, {"lon": -77.0342915, "bike_id": "3a2abd8add83ceb7a646e5cb19f1d82d", "lat": 38.927381, "fusion_lon": 0.0, "fusion_lat": 0.0, "type": "electric_scooter", "name": "3a2abd8add83ceb7a646e5cb19f1d82d", "is_disabled": 0, "rental_uris": {"ios": "https://dc.lft.to/lastmile_qr_scan", "android": "https://dc.lft.to/lastmile_qr_scan"}, "is_reserved": 0}, {"lon": -76.9883765, "bike_id": "5de2d6b9470b4e91884ff6541391c680", "lat": 38.89668133333333, "fusion_lon": 0.0, "fusion_lat": 0.0, "type": "electric_scooter", "name": "5de2d6b9470b4e91884ff6541391c680", "is_disabled": 0, "rental_uris": {"ios": "https://dc.lft.to/lastmile_qr_scan", "android": "https://dc.lft.to/lastmile_qr_scan"}, "is_reserved": 0}, {"lon": -77.04499133333333, "bike_id": "f5502da79d1b32780875a9dc20f1b3bb", "lat": 38.905029666666664, "fusion_lon": 0.0, "fusion_lat": 0.0, "type": "electric_scooter", "name": "f5502da79d1b32780875a9dc20f1b3bb", "is_disabled": 0, "rental_uris": {"ios": "https://dc.lft.to/lastmile_qr_scan", "android": "https://dc.lft.to/lastmile_qr_scan"}, "is_reserved": 0}, {"lon": -77.02316283333333, "bike_id": "ebbd2c9603fdbbf9180615b7a676f12d", "lat": 38.92728283333334, "fusion_lon": 0.0, "fusion_lat": 0.0, "type": "electric_scooter", "name": "ebbd2c9603fdbbf9180615b7a676f12d", "is_disabled": 0, "rental_uris": {"ios": "https://dc.lft.to/lastmile_qr_scan", "android": "https://dc.lft.to/lastmile_qr_scan"}, "is_reserved": 0}, {"lon": -76.94681383333334, "bike_id": "62e1d44844f91cf207a1398186aebfe5", "lat": 38.88627116666667, "fusion_lon": 0.0, "fusion_lat": 0.0, "type": "electric_scooter", "name": "62e1d44844f91cf207a1398186aebfe5", "is_disabled": 0, "rental_uris": {"ios": "https://dc.lft.to/lastmile_qr_scan", "android": "https://dc.lft.to/lastmile_qr_scan"}, "is_reserved": 0}, {"lon": -77.0283695, "bike_id": "c2ef021f038650cffb854f651a253f63", "lat": 38.88768916666667, "fusion_lon": 0.0, "fusion_lat": 0.0, "type": "electric_scooter", "name": "c2ef021f038650cffb854f651a253f63", "is_disabled": 0, "rental_uris": {"ios": "https://dc.lft.to/lastmile_qr_scan", "android": "https://dc.lft.to/lastmile_qr_scan"}, "is_reserved": 0}, {"lon": -77.05753866666667, "bike_id": "4a42b8c938ac66caf2cfa035497f1bae", "lat": 38.9248635, "fusion_lon": 0.0, "fusion_lat": 0.0, "type": "electric_bike", "name": "4a42b8c938ac66caf2cfa035497f1bae", "is_disabled": 0, "rental_uris": {"ios": "https://dc.lft.to/lastmile_qr_scan", "android": "https://dc.lft.to/lastmile_qr_scan"}, "is_reserved": 0}, {"lon": -77.04131733333334, "bike_id": "8d473770fb9e8b7793691ae715cff872", "lat": 38.91553316666667, "fusion_lon": 0.0, "fusion_lat": 0.0, "type": "electric_scooter", "name": "8d473770fb9e8b7793691ae715cff872", "is_disabled": 0, "rental_uris": {"ios": "https://dc.lft.to/lastmile_qr_scan", "android": "https://dc.lft.to/lastmile_qr_scan"}, "is_reserved": 0}, {"lon": -77.00005866666666, "bike_id": "cb803feb072295baf31ed0afe523e41c", "lat": 38.897419666666664, "fusion_lon": 0.0, "fusion_lat": 0.0, "type": "electric_scooter", "name": "cb803feb072295baf31ed0afe523e41c", "is_disabled": 0, "rental_uris": {"ios": "https://dc.lft.to/lastmile_qr_scan", "android": "https://dc.lft.to/lastmile_qr_scan"}, "is_reserved": 0}, {"lon": -76.96500716666667, "bike_id": "8e3b7e1f75b27ba8c036f2b4b3d30bed", "lat": 38.87646016666667, "fusion_lon": 0.0, "fusion_lat": 0.0, "type": "electric_scooter", "name": "8e3b7e1f75b27ba8c036f2b4b3d30bed", "is_disabled": 0, "rental_uris": {"ios": "https://dc.lft.to/lastmile_qr_scan", "android": "https://dc.lft.to/lastmile_qr_scan"}, "is_reserved": 0}, {"lon": -77.10841133333334, "bike_id": "7b2d6535477fc81a34011d79d35f444c", "lat": 38.81200166666667, "fusion_lon": 0.0, "fusion_lat": 0.0, "type": "electric_bike", "name": "7b2d6535477fc81a34011d79d35f444c", "is_disabled": 0, "rental_uris": {"ios": "https://dc.lft.to/lastmile_qr_scan", "android": "https://dc.lft.to/lastmile_qr_scan"}, "is_reserved": 0}, {"lon": -77.02804133333333, "bike_id": "b15f1eeca684853b93e1bc5bcd8bde7b", "lat": 38.90733066666667, "fusion_lon": 0.0, "fusion_lat": 0.0, "type": "electric_scooter", "name": "b15f1eeca684853b93e1bc5bcd8bde7b", "is_disabled": 0, "rental_uris": {"ios": "https://dc.lft.to/lastmile_qr_scan", "android": "https://dc.lft.to/lastmile_qr_scan"}, "is_reserved": 0}, {"lon": -76.99755666666667, "bike_id": "d7f91f3cdb796de47086325de7755d18", "lat": 38.8876525, "fusion_lon": 0.0, "fusion_lat": 0.0, "type": "electric_scooter", "name": "d7f91f3cdb796de47086325de7755d18", "is_disabled": 0, "rental_uris": {"ios": "https://dc.lft.to/lastmile_qr_scan", "android": "https://dc.lft.to/lastmile_qr_scan"}, "is_reserved": 0}, {"lon": -76.941967, "bike_id": "dce9769d1062d9dbfd395091db483d79", "lat": 38.893747833333336, "fusion_lon": 0.0, "fusion_lat": 0.0, "type": "electric_scooter", "name": "dce9769d1062d9dbfd395091db483d79", "is_disabled": 0, "rental_uris": {"ios": "https://dc.lft.to/lastmile_qr_scan", "android": "https://dc.lft.to/lastmile_qr_scan"}, "is_reserved": 0}, {"lon": -77.037613, "bike_id": "4463998d8868f16ec017851f961325da", "lat": 38.9119095, "fusion_lon": 0.0, "fusion_lat": 0.0, "type": "electric_scooter", "name": "4463998d8868f16ec017851f961325da", "is_disabled": 0, "rental_uris": {"ios": "https://dc.lft.to/lastmile_qr_scan", "android": "https://dc.lft.to/lastmile_qr_scan"}, "is_reserved": 0}, {"lon": -77.04527616666667, "bike_id": "fc4bace5d8199ee7fb348fc277ec3f08", "lat": 38.915921166666664, "fusion_lon": 0.0, "fusion_lat": 0.0, "type": "electric_scooter", "name": "fc4bace5d8199ee7fb348fc277ec3f08", "is_disabled": 0, "rental_uris": {"ios": "https://dc.lft.to/lastmile_qr_scan", "android": "https://dc.lft.to/lastmile_qr_scan"}, "is_reserved": 0}, {"lon": -77.007356, "bike_id": "692dd600f54356df2a2bc20e91e72f92", "lat": 38.89845066666667, "fusion_lon": 0.0, "fusion_lat": 0.0, "type": "electric_scooter", "name": "692dd600f54356df2a2bc20e91e72f92", "is_disabled": 0, "rental_uris": {"ios": "https://dc.lft.to/lastmile_qr_scan", "android": "https://dc.lft.to/lastmile_qr_scan"}, "is_reserved": 0}, {"lon": -77.13238583333333, "bike_id": "0eeb5555f39a10fffd4b0e9ae129950b", "lat": 38.80567083333333, "fusion_lon": 0.0, "fusion_lat": 0.0, "type": "electric_bike", "name": "0eeb5555f39a10fffd4b0e9ae129950b", "is_disabled": 0, "rental_uris": {"ios": "https://dc.lft.to/lastmile_qr_scan", "android": "https://dc.lft.to/lastmile_qr_scan"}, "is_reserved": 0}, {"lon": -77.02096083333333, "bike_id": "cc7766a23283dd8e4e6794b0e9856abc", "lat": 38.932616, "fusion_lon": 0.0, "fusion_lat": 0.0, "type": "electric_scooter", "name": "cc7766a23283dd8e4e6794b0e9856abc", "is_disabled": 0, "rental_uris": {"ios": "https://dc.lft.to/lastmile_qr_scan", "android": "https://dc.lft.to/lastmile_qr_scan"}, "is_reserved": 0}, {"lon": -77.05049833333334, "bike_id": "d8cddd6a7343fda4bd5b7a7770cea68e", "lat": 38.923751833333334, "fusion_lon": 0.0, "fusion_lat": 0.0, "type": "electric_scooter", "name": "d8cddd6a7343fda4bd5b7a7770cea68e", "is_disabled": 0, "rental_uris": {"ios": "https://dc.lft.to/lastmile_qr_scan", "android": "https://dc.lft.to/lastmile_qr_scan"}, "is_reserved": 0}, {"lon": -77.0225735, "bike_id": "232ae10c0525501ba2f5ee7fbbb7bab8", "lat": 38.92522116666667, "fusion_lon": 0.0, "fusion_lat": 0.0, "type": "electric_scooter", "name": "232ae10c0525501ba2f5ee7fbbb7bab8", "is_disabled": 0, "rental_uris": {"ios": "https://dc.lft.to/lastmile_qr_scan", "android": "https://dc.lft.to/lastmile_qr_scan"}, "is_reserved": 0}, {"lon": -76.9500565, "bike_id": "34d2bbe3d11b05be8a715f17c519a22c", "lat": 38.893786, "fusion_lon": 0.0, "fusion_lat": 0.0, "type": "electric_scooter", "name": "34d2bbe3d11b05be8a715f17c519a22c", "is_disabled": 0, "rental_uris": {"ios": "https://dc.lft.to/lastmile_qr_scan", "android": "https://dc.lft.to/lastmile_qr_scan"}, "is_reserved": 0}, {"lon": -77.02011016666667, "bike_id": "1e11b03aeee9e81a83bea6a410aa55dd", "lat": 38.897395333333336, "fusion_lon": 0.0, "fusion_lat": 0.0, "type": "electric_scooter", "name": "1e11b03aeee9e81a83bea6a410aa55dd", "is_disabled": 0, "rental_uris": {"ios": "https://dc.lft.to/lastmile_qr_scan", "android": "https://dc.lft.to/lastmile_qr_scan"}, "is_reserved": 0}, {"lon": -77.04090666666667, "bike_id": "9003451aa76ac8ebca925ff162fea848", "lat": 38.905741, "fusion_lon": 0.0, "fusion_lat": 0.0, "type": "electric_scooter", "name": "9003451aa76ac8ebca925ff162fea848", "is_disabled": 0, "rental_uris": {"ios": "https://dc.lft.to/lastmile_qr_scan", "android": "https://dc.lft.to/lastmile_qr_scan"}, "is_reserved": 0}, {"lon": -77.03849966666667, "bike_id": "a76fd83a8b6ef367f970bdeb0ea6d885", "lat": 38.90934266666667, "fusion_lon": 0.0, "fusion_lat": 0.0, "type": "electric_scooter", "name": "a76fd83a8b6ef367f970bdeb0ea6d885", "is_disabled": 0, "rental_uris": {"ios": "https://dc.lft.to/lastmile_qr_scan", "android": "https://dc.lft.to/lastmile_qr_scan"}, "is_reserved": 0}, {"lon": -77.027672, "bike_id": "d79a35e5e05a21e5b41194b20f220500", "lat": 38.95423016666667, "fusion_lon": 0.0, "fusion_lat": 0.0, "type": "electric_scooter", "name": "d79a35e5e05a21e5b41194b20f220500", "is_disabled": 0, "rental_uris": {"ios": "https://dc.lft.to/lastmile_qr_scan", "android": "https://dc.lft.to/lastmile_qr_scan"}, "is_reserved": 0}, {"lon": -77.02480616666666, "bike_id": "70f0f5f0493da7569cf048400a090230", "lat": 38.9039565, "fusion_lon": 0.0, "fusion_lat": 0.0, "type": "electric_scooter", "name": "70f0f5f0493da7569cf048400a090230", "is_disabled": 0, "rental_uris": {"ios": "https://dc.lft.to/lastmile_qr_scan", "android": "https://dc.lft.to/lastmile_qr_scan"}, "is_reserved": 0}, {"lon": -77.0165045, "bike_id": "335dc86e3f026743674ec68f243e3626", "lat": 38.881091166666664, "fusion_lon": 0.0, "fusion_lat": 0.0, "type": "electric_scooter", "name": "335dc86e3f026743674ec68f243e3626", "is_disabled": 0, "rental_uris": {"ios": "https://dc.lft.to/lastmile_qr_scan", "android": "https://dc.lft.to/lastmile_qr_scan"}, "is_reserved": 0}, {"lon": -77.00535183333334, "bike_id": "25a248faeac467fe765b5a0cba3b1dd5", "lat": 38.92976916666667, "fusion_lon": 0.0, "fusion_lat": 0.0, "type": "electric_scooter", "name": "25a248faeac467fe765b5a0cba3b1dd5", "is_disabled": 0, "rental_uris": {"ios": "https://dc.lft.to/lastmile_qr_scan", "android": "https://dc.lft.to/lastmile_qr_scan"}, "is_reserved": 0}, {"lon": -77.0218845, "bike_id": "3c0f4fb41abb36ae33fe27c2cde70ae2", "lat": 38.912918833333336, "fusion_lon": 0.0, "fusion_lat": 0.0, "type": "electric_scooter", "name": "3c0f4fb41abb36ae33fe27c2cde70ae2", "is_disabled": 0, "rental_uris": {"ios": "https://dc.lft.to/lastmile_qr_scan", "android": "https://dc.lft.to/lastmile_qr_scan"}, "is_reserved": 0}, {"lon": -77.0465105, "bike_id": "003164252c62c497dd50baa255d4706c", "lat": 38.909716333333336, "fusion_lon": 0.0, "fusion_lat": 0.0, "type": "electric_scooter", "name": "003164252c62c497dd50baa255d4706c", "is_disabled": 0, "rental_uris": {"ios": "https://dc.lft.to/lastmile_qr_scan", "android": "https://dc.lft.to/lastmile_qr_scan"}, "is_reserved": 0}, {"lon": -76.93742, "bike_id": "df83d4ed4b6fd7d54a3984a0edf3feef", "lat": 38.890221333333336, "fusion_lon": 0.0, "fusion_lat": 0.0, "type": "electric_scooter", "name": "df83d4ed4b6fd7d54a3984a0edf3feef", "is_disabled": 0, "rental_uris": {"ios": "https://dc.lft.to/lastmile_qr_scan", "android": "https://dc.lft.to/lastmile_qr_scan"}, "is_reserved": 0}, {"lon": -77.000935, "bike_id": "2088e56b707fefc67471f9bfff9db7d3", "lat": 38.900149166666665, "fusion_lon": 0.0, "fusion_lat": 0.0, "type": "electric_scooter", "name": "2088e56b707fefc67471f9bfff9db7d3", "is_disabled": 0, "rental_uris": {"ios": "https://dc.lft.to/lastmile_qr_scan", "android": "https://dc.lft.to/lastmile_qr_scan"}, "is_reserved": 0}, {"lon": -77.02613116666667, "bike_id": "f0e01cc5393ff9aa2deae91a2bf36ff4", "lat": 38.900184, "fusion_lon": 0.0, "fusion_lat": 0.0, "type": "electric_scooter", "name": "f0e01cc5393ff9aa2deae91a2bf36ff4", "is_disabled": 0, "rental_uris": {"ios": "https://dc.lft.to/lastmile_qr_scan", "android": "https://dc.lft.to/lastmile_qr_scan"}, "is_reserved": 0}, {"lon": -76.99499866666666, "bike_id": "8e3466f84720b460f0f8cf7565da0c89", "lat": 38.922665, "fusion_lon": 0.0, "fusion_lat": 0.0, "type": "electric_scooter", "name": "8e3466f84720b460f0f8cf7565da0c89", "is_disabled": 0, "rental_uris": {"ios": "https://dc.lft.to/lastmile_qr_scan", "android": "https://dc.lft.to/lastmile_qr_scan"}, "is_reserved": 0}, {"lon": -77.02825633333333, "bike_id": "0310bfb4b40a88259d98b463e97a9e62", "lat": 38.887330666666664, "fusion_lon": 0.0, "fusion_lat": 0.0, "type": "electric_scooter", "name": "0310bfb4b40a88259d98b463e97a9e62", "is_disabled": 0, "rental_uris": {"ios": "https://dc.lft.to/lastmile_qr_scan", "android": "https://dc.lft.to/lastmile_qr_scan"}, "is_reserved": 0}, {"lon": -77.06485783333333, "bike_id": "bda6275501cae6781d847b60bddc9fde", "lat": 38.94641216666667, "fusion_lon": 0.0, "fusion_lat": 0.0, "type": "electric_scooter", "name": "bda6275501cae6781d847b60bddc9fde", "is_disabled": 0, "rental_uris": {"ios": "https://dc.lft.to/lastmile_qr_scan", "android": "https://dc.lft.to/lastmile_qr_scan"}, "is_reserved": 0}, {"lon": -76.975992, "bike_id": "46f1ee4b92abdc8f4fcf67fdbfba3ef7", "lat": 38.90567433333333, "fusion_lon": 0.0, "fusion_lat": 0.0, "type": "electric_scooter", "name": "46f1ee4b92abdc8f4fcf67fdbfba3ef7", "is_disabled": 0, "rental_uris": {"ios": "https://dc.lft.to/lastmile_qr_scan", "android": "https://dc.lft.to/lastmile_qr_scan"}, "is_reserved": 0}, {"lon": -77.00754433333333, "bike_id": "79ac3cc3ee1cf295f0d5de1758a50a9d", "lat": 38.89732466666667, "fusion_lon": 0.0, "fusion_lat": 0.0, "type": "electric_scooter", "name": "79ac3cc3ee1cf295f0d5de1758a50a9d", "is_disabled": 0, "rental_uris": {"ios": "https://dc.lft.to/lastmile_qr_scan", "android": "https://dc.lft.to/lastmile_qr_scan"}, "is_reserved": 0}, {"lon": -76.98689566666667, "bike_id": "2995b26f5318c4557a4be363a2e12363", "lat": 38.862526333333335, "fusion_lon": 0.0, "fusion_lat": 0.0, "type": "electric_scooter", "name": "2995b26f5318c4557a4be363a2e12363", "is_disabled": 0, "rental_uris": {"ios": "https://dc.lft.to/lastmile_qr_scan", "android": "https://dc.lft.to/lastmile_qr_scan"}, "is_reserved": 0}, {"lon": -77.02460383333333, "bike_id": "5b884919d7b03fbf8a12fbec2a82bcdf", "lat": 38.93881616666667, "fusion_lon": 0.0, "fusion_lat": 0.0, "type": "electric_scooter", "name": "5b884919d7b03fbf8a12fbec2a82bcdf", "is_disabled": 0, "rental_uris": {"ios": "https://dc.lft.to/lastmile_qr_scan", "android": "https://dc.lft.to/lastmile_qr_scan"}, "is_reserved": 0}, {"lon": -77.03449166666667, "bike_id": "741b4bfa791891c89828af9ee1b9f237", "lat": 38.917464833333334, "fusion_lon": 0.0, "fusion_lat": 0.0, "type": "electric_scooter", "name": "741b4bfa791891c89828af9ee1b9f237", "is_disabled": 0, "rental_uris": {"ios": "https://dc.lft.to/lastmile_qr_scan", "android": "https://dc.lft.to/lastmile_qr_scan"}, "is_reserved": 0}, {"lon": -77.00215083333333, "bike_id": "498c5a134ba0bc16f46fda32bb4679a1", "lat": 38.89543833333333, "fusion_lon": 0.0, "fusion_lat": 0.0, "type": "electric_scooter", "name": "498c5a134ba0bc16f46fda32bb4679a1", "is_disabled": 0, "rental_uris": {"ios": "https://dc.lft.to/lastmile_qr_scan", "android": "https://dc.lft.to/lastmile_qr_scan"}, "is_reserved": 0}, {"lon": -76.99543166666666, "bike_id": "ecdd74fd03de420d991783df705f2ad8", "lat": 38.86257116666667, "fusion_lon": 0.0, "fusion_lat": 0.0, "type": "electric_scooter", "name": "ecdd74fd03de420d991783df705f2ad8", "is_disabled": 0, "rental_uris": {"ios": "https://dc.lft.to/lastmile_qr_scan", "android": "https://dc.lft.to/lastmile_qr_scan"}, "is_reserved": 0}, {"lon": -77.0066185, "bike_id": "97e3af0f6ec589e22013220ae0bed665", "lat": 38.87640316666667, "fusion_lon": 0.0, "fusion_lat": 0.0, "type": "electric_scooter", "name": "97e3af0f6ec589e22013220ae0bed665", "is_disabled": 0, "rental_uris": {"ios": "https://dc.lft.to/lastmile_qr_scan", "android": "https://dc.lft.to/lastmile_qr_scan"}, "is_reserved": 0}, {"lon": -77.0083815, "bike_id": "b764b08b4330475a1134ab5063b0fccc", "lat": 38.906577, "fusion_lon": 0.0, "fusion_lat": 0.0, "type": "electric_scooter", "name": "b764b08b4330475a1134ab5063b0fccc", "is_disabled": 0, "rental_uris": {"ios": "https://dc.lft.to/lastmile_qr_scan", "android": "https://dc.lft.to/lastmile_qr_scan"}, "is_reserved": 0}, {"lon": -77.024889, "bike_id": "8ddda904cc3eaffd7c655cb240fafa87", "lat": 38.919215333333334, "fusion_lon": 0.0, "fusion_lat": 0.0, "type": "electric_scooter", "name": "8ddda904cc3eaffd7c655cb240fafa87", "is_disabled": 0, "rental_uris": {"ios": "https://dc.lft.to/lastmile_qr_scan", "android": "https://dc.lft.to/lastmile_qr_scan"}, "is_reserved": 0}, {"lon": -77.03437133333334, "bike_id": "1ef3307a99704d26b21632aa0b594ecf", "lat": 38.910317, "fusion_lon": 0.0, "fusion_lat": 0.0, "type": "electric_scooter", "name": "1ef3307a99704d26b21632aa0b594ecf", "is_disabled": 0, "rental_uris": {"ios": "https://dc.lft.to/lastmile_qr_scan", "android": "https://dc.lft.to/lastmile_qr_scan"}, "is_reserved": 0}, {"lon": -77.000547, "bike_id": "99dd3da8d02d9c4ae4e392fcade564f8", "lat": 38.896460833333336, "fusion_lon": 0.0, "fusion_lat": 0.0, "type": "electric_scooter", "name": "99dd3da8d02d9c4ae4e392fcade564f8", "is_disabled": 0, "rental_uris": {"ios": "https://dc.lft.to/lastmile_qr_scan", "android": "https://dc.lft.to/lastmile_qr_scan"}, "is_reserved": 0}, {"lon": -77.03553116666667, "bike_id": "8e3cd5208592e7700705467331cfcd77", "lat": 38.917011333333335, "fusion_lon": 0.0, "fusion_lat": 0.0, "type": "electric_scooter", "name": "8e3cd5208592e7700705467331cfcd77", "is_disabled": 0, "rental_uris": {"ios": "https://dc.lft.to/lastmile_qr_scan", "android": "https://dc.lft.to/lastmile_qr_scan"}, "is_reserved": 0}, {"lon": -77.0256115, "bike_id": "ad808f1dbd432c513f2244ad1dc2dbb0", "lat": 38.9253375, "fusion_lon": 0.0, "fusion_lat": 0.0, "type": "electric_scooter", "name": "ad808f1dbd432c513f2244ad1dc2dbb0", "is_disabled": 0, "rental_uris": {"ios": "https://dc.lft.to/lastmile_qr_scan", "android": "https://dc.lft.to/lastmile_qr_scan"}, "is_reserved": 0}, {"lon": -77.0055545, "bike_id": "4d567038a00e8ddf993080d2f1ab21aa", "lat": 38.876113333333336, "fusion_lon": 0.0, "fusion_lat": 0.0, "type": "electric_scooter", "name": "4d567038a00e8ddf993080d2f1ab21aa", "is_disabled": 0, "rental_uris": {"ios": "https://dc.lft.to/lastmile_qr_scan", "android": "https://dc.lft.to/lastmile_qr_scan"}, "is_reserved": 0}, {"lon": -76.99455166666667, "bike_id": "d0e1ef51d04c9edfd0de057f46a15bd0", "lat": 38.966181666666664, "fusion_lon": 0.0, "fusion_lat": 0.0, "type": "electric_bike", "name": "d0e1ef51d04c9edfd0de057f46a15bd0", "is_disabled": 0, "rental_uris": {"ios": "https://dc.lft.to/lastmile_qr_scan", "android": "https://dc.lft.to/lastmile_qr_scan"}, "is_reserved": 0}, {"lon": -77.01327266666667, "bike_id": "560f6753afda5da6c81468f76dbf50f2", "lat": 38.871570166666665, "fusion_lon": 0.0, "fusion_lat": 0.0, "type": "electric_scooter", "name": "560f6753afda5da6c81468f76dbf50f2", "is_disabled": 0, "rental_uris": {"ios": "https://dc.lft.to/lastmile_qr_scan", "android": "https://dc.lft.to/lastmile_qr_scan"}, "is_reserved": 0}, {"lon": -77.0986855, "bike_id": "9c7f04433a2d3aa4f91f3d9a8c6e3ba4", "lat": 38.949669, "fusion_lon": 0.0, "fusion_lat": 0.0, "type": "electric_scooter", "name": "9c7f04433a2d3aa4f91f3d9a8c6e3ba4", "is_disabled": 0, "rental_uris": {"ios": "https://dc.lft.to/lastmile_qr_scan", "android": "https://dc.lft.to/lastmile_qr_scan"}, "is_reserved": 0}, {"lon": -77.0459415, "bike_id": "44c29c8f42138fc1c7679691c2007bf4", "lat": 38.921363, "fusion_lon": 0.0, "fusion_lat": 0.0, "type": "electric_scooter", "name": "44c29c8f42138fc1c7679691c2007bf4", "is_disabled": 0, "rental_uris": {"ios": "https://dc.lft.to/lastmile_qr_scan", "android": "https://dc.lft.to/lastmile_qr_scan"}, "is_reserved": 0}, {"lon": -77.00838316666666, "bike_id": "fe16b7b4e282c92eb730b1e97d063748", "lat": 38.91557233333333, "fusion_lon": 0.0, "fusion_lat": 0.0, "type": "electric_scooter", "name": "fe16b7b4e282c92eb730b1e97d063748", "is_disabled": 0, "rental_uris": {"ios": "https://dc.lft.to/lastmile_qr_scan", "android": "https://dc.lft.to/lastmile_qr_scan"}, "is_reserved": 0}, {"lon": -76.99004083333334, "bike_id": "6fa40c60b9d52994d8b5d07c4743305d", "lat": 38.865075, "fusion_lon": 0.0, "fusion_lat": 0.0, "type": "electric_scooter", "name": "6fa40c60b9d52994d8b5d07c4743305d", "is_disabled": 0, "rental_uris": {"ios": "https://dc.lft.to/lastmile_qr_scan", "android": "https://dc.lft.to/lastmile_qr_scan"}, "is_reserved": 0}, {"lon": -77.041501, "bike_id": "e38ec23bb7996c243d0d2ce91b31929c", "lat": 38.915461666666666, "fusion_lon": 0.0, "fusion_lat": 0.0, "type": "electric_scooter", "name": "e38ec23bb7996c243d0d2ce91b31929c", "is_disabled": 0, "rental_uris": {"ios": "https://dc.lft.to/lastmile_qr_scan", "android": "https://dc.lft.to/lastmile_qr_scan"}, "is_reserved": 0}, {"lon": -77.00372366666667, "bike_id": "066ba2c3b0da24dee413de5d45cb9bf4", "lat": 38.89733583333334, "fusion_lon": 0.0, "fusion_lat": 0.0, "type": "electric_scooter", "name": "066ba2c3b0da24dee413de5d45cb9bf4", "is_disabled": 0, "rental_uris": {"ios": "https://dc.lft.to/lastmile_qr_scan", "android": "https://dc.lft.to/lastmile_qr_scan"}, "is_reserved": 0}, {"lon": -77.055602, "bike_id": "45f74bd5b2a409b15957da5a8150fcf5", "lat": 38.89984616666667, "fusion_lon": 0.0, "fusion_lat": 0.0, "type": "electric_scooter", "name": "45f74bd5b2a409b15957da5a8150fcf5", "is_disabled": 0, "rental_uris": {"ios": "https://dc.lft.to/lastmile_qr_scan", "android": "https://dc.lft.to/lastmile_qr_scan"}, "is_reserved": 0}, {"lon": -76.9802445, "bike_id": "c7db2cf41e6657ebe950c4873e763316", "lat": 38.90079433333333, "fusion_lon": 0.0, "fusion_lat": 0.0, "type": "electric_bike", "name": "c7db2cf41e6657ebe950c4873e763316", "is_disabled": 0, "rental_uris": {"ios": "https://dc.lft.to/lastmile_qr_scan", "android": "https://dc.lft.to/lastmile_qr_scan"}, "is_reserved": 0}, {"lon": -76.94634183333334, "bike_id": "500bf38b2fa10d55e6aa9b332e794640", "lat": 38.8983185, "fusion_lon": 0.0, "fusion_lat": 0.0, "type": "electric_scooter", "name": "500bf38b2fa10d55e6aa9b332e794640", "is_disabled": 0, "rental_uris": {"ios": "https://dc.lft.to/lastmile_qr_scan", "android": "https://dc.lft.to/lastmile_qr_scan"}, "is_reserved": 0}, {"lon": -77.000427, "bike_id": "5216c7b315bac793ba08241be03900df", "lat": 38.90846283333333, "fusion_lon": 0.0, "fusion_lat": 0.0, "type": "electric_scooter", "name": "5216c7b315bac793ba08241be03900df", "is_disabled": 0, "rental_uris": {"ios": "https://dc.lft.to/lastmile_qr_scan", "android": "https://dc.lft.to/lastmile_qr_scan"}, "is_reserved": 0}, {"lon": -77.02392133333333, "bike_id": "63b37a0f53225c8c0d39b8fde5ade96f", "lat": 38.920713166666665, "fusion_lon": 0.0, "fusion_lat": 0.0, "type": "electric_scooter", "name": "63b37a0f53225c8c0d39b8fde5ade96f", "is_disabled": 0, "rental_uris": {"ios": "https://dc.lft.to/lastmile_qr_scan", "android": "https://dc.lft.to/lastmile_qr_scan"}, "is_reserved": 0}, {"lon": -77.04175183333334, "bike_id": "56254c1b7714938ec5a7f2e8279b5cc2", "lat": 38.91655566666667, "fusion_lon": 0.0, "fusion_lat": 0.0, "type": "electric_scooter", "name": "56254c1b7714938ec5a7f2e8279b5cc2", "is_disabled": 0, "rental_uris": {"ios": "https://dc.lft.to/lastmile_qr_scan", "android": "https://dc.lft.to/lastmile_qr_scan"}, "is_reserved": 0}, {"lon": -77.360815, "bike_id": "cb55fea3aebe5073142a7c4815db7f82", "lat": 38.93955066666667, "fusion_lon": 0.0, "fusion_lat": 0.0, "type": "electric_bike", "name": "cb55fea3aebe5073142a7c4815db7f82", "is_disabled": 0, "rental_uris": {"ios": "https://dc.lft.to/lastmile_qr_scan", "android": "https://dc.lft.to/lastmile_qr_scan"}, "is_reserved": 0}, {"lon": -76.97704283333333, "bike_id": "7a3ae19f334ae2f5d987d093406117ab", "lat": 38.949121, "fusion_lon": 0.0, "fusion_lat": 0.0, "type": "electric_bike", "name": "7a3ae19f334ae2f5d987d093406117ab", "is_disabled": 0, "rental_uris": {"ios": "https://dc.lft.to/lastmile_qr_scan", "android": "https://dc.lft.to/lastmile_qr_scan"}, "is_reserved": 0}, {"lon": -77.03660083333334, "bike_id": "174192cd2ce2997bc229b063f541941b", "lat": 38.917473, "fusion_lon": 0.0, "fusion_lat": 0.0, "type": "electric_scooter", "name": "174192cd2ce2997bc229b063f541941b", "is_disabled": 0, "rental_uris": {"ios": "https://dc.lft.to/lastmile_qr_scan", "android": "https://dc.lft.to/lastmile_qr_scan"}, "is_reserved": 0}, {"lon": -77.01655733333334, "bike_id": "01d12be06b9c009d911dd3bb9eaaac3c", "lat": 38.8874435, "fusion_lon": 0.0, "fusion_lat": 0.0, "type": "electric_scooter", "name": "01d12be06b9c009d911dd3bb9eaaac3c", "is_disabled": 0, "rental_uris": {"ios": "https://dc.lft.to/lastmile_qr_scan", "android": "https://dc.lft.to/lastmile_qr_scan"}, "is_reserved": 0}, {"lon": -77.05119733333333, "bike_id": "d684dc6cb872961abed60a382691e5ea", "lat": 38.9021415, "fusion_lon": 0.0, "fusion_lat": 0.0, "type": "electric_scooter", "name": "d684dc6cb872961abed60a382691e5ea", "is_disabled": 0, "rental_uris": {"ios": "https://dc.lft.to/lastmile_qr_scan", "android": "https://dc.lft.to/lastmile_qr_scan"}, "is_reserved": 0}, {"lon": -77.003784, "bike_id": "9dc7f90bbd80a4981d384bdb7eaaddca", "lat": 38.89745216666667, "fusion_lon": 0.0, "fusion_lat": 0.0, "type": "electric_scooter", "name": "9dc7f90bbd80a4981d384bdb7eaaddca", "is_disabled": 0, "rental_uris": {"ios": "https://dc.lft.to/lastmile_qr_scan", "android": "https://dc.lft.to/lastmile_qr_scan"}, "is_reserved": 0}, {"lon": -76.99427116666666, "bike_id": "2b8601aa1b78e2ec9e582612eb2c0162", "lat": 38.8956275, "fusion_lon": 0.0, "fusion_lat": 0.0, "type": "electric_scooter", "name": "2b8601aa1b78e2ec9e582612eb2c0162", "is_disabled": 0, "rental_uris": {"ios": "https://dc.lft.to/lastmile_qr_scan", "android": "https://dc.lft.to/lastmile_qr_scan"}, "is_reserved": 0}, {"lon": -76.905981, "bike_id": "d5566bc725dacaec90843bb66753685d", "lat": 39.0045485, "fusion_lon": 0.0, "fusion_lat": 0.0, "type": "electric_bike", "name": "d5566bc725dacaec90843bb66753685d", "is_disabled": 0, "rental_uris": {"ios": "https://dc.lft.to/lastmile_qr_scan", "android": "https://dc.lft.to/lastmile_qr_scan"}, "is_reserved": 0}, {"lon": -77.02973833333333, "bike_id": "14019c5a85cf2190bcc59f8c101932ae", "lat": 38.907733, "fusion_lon": 0.0, "fusion_lat": 0.0, "type": "electric_scooter", "name": "14019c5a85cf2190bcc59f8c101932ae", "is_disabled": 0, "rental_uris": {"ios": "https://dc.lft.to/lastmile_qr_scan", "android": "https://dc.lft.to/lastmile_qr_scan"}, "is_reserved": 0}, {"lon": -77.01626266666666, "bike_id": "ca0a548f150271464998b68b539262cf", "lat": 38.965744666666666, "fusion_lon": 0.0, "fusion_lat": 0.0, "type": "electric_scooter", "name": "ca0a548f150271464998b68b539262cf", "is_disabled": 0, "rental_uris": {"ios": "https://dc.lft.to/lastmile_qr_scan", "android": "https://dc.lft.to/lastmile_qr_scan"}, "is_reserved": 0}, {"lon": -76.98614866666667, "bike_id": "5ef560f5d02a6693b33e92aaeb7356e3", "lat": 38.93826766666667, "fusion_lon": 0.0, "fusion_lat": 0.0, "type": "electric_scooter", "name": "5ef560f5d02a6693b33e92aaeb7356e3", "is_disabled": 0, "rental_uris": {"ios": "https://dc.lft.to/lastmile_qr_scan", "android": "https://dc.lft.to/lastmile_qr_scan"}, "is_reserved": 0}, {"lon": -76.97751766666667, "bike_id": "883c468835b46bc70c39f82e2537861b", "lat": 38.86483883333333, "fusion_lon": 0.0, "fusion_lat": 0.0, "type": "electric_bike", "name": "883c468835b46bc70c39f82e2537861b", "is_disabled": 0, "rental_uris": {"ios": "https://dc.lft.to/lastmile_qr_scan", "android": "https://dc.lft.to/lastmile_qr_scan"}, "is_reserved": 0}, {"lon": -77.18565683333334, "bike_id": "15340e0f5293e357715027cdb716a4e8", "lat": 39.09976783333333, "fusion_lon": 0.0, "fusion_lat": 0.0, "type": "electric_bike", "name": "15340e0f5293e357715027cdb716a4e8", "is_disabled": 0, "rental_uris": {"ios": "https://dc.lft.to/lastmile_qr_scan", "android": "https://dc.lft.to/lastmile_qr_scan"}, "is_reserved": 0}, {"lon": -76.9959715, "bike_id": "844f3a26c5262191f39050309c46c24b", "lat": 38.95075033333333, "fusion_lon": 0.0, "fusion_lat": 0.0, "type": "electric_bike", "name": "844f3a26c5262191f39050309c46c24b", "is_disabled": 0, "rental_uris": {"ios": "https://dc.lft.to/lastmile_qr_scan", "android": "https://dc.lft.to/lastmile_qr_scan"}, "is_reserved": 0}, {"lon": -77.032862, "bike_id": "cdb18ee481eedb540986a740e34db59d", "lat": 38.93439216666667, "fusion_lon": 0.0, "fusion_lat": 0.0, "type": "electric_scooter", "name": "cdb18ee481eedb540986a740e34db59d", "is_disabled": 0, "rental_uris": {"ios": "https://dc.lft.to/lastmile_qr_scan", "android": "https://dc.lft.to/lastmile_qr_scan"}, "is_reserved": 0}, {"lon": -77.01878533333333, "bike_id": "6e07e055df97101d1c53c0cf54e80ead", "lat": 38.91415683333334, "fusion_lon": 0.0, "fusion_lat": 0.0, "type": "electric_scooter", "name": "6e07e055df97101d1c53c0cf54e80ead", "is_disabled": 0, "rental_uris": {"ios": "https://dc.lft.to/lastmile_qr_scan", "android": "https://dc.lft.to/lastmile_qr_scan"}, "is_reserved": 0}, {"lon": -77.03172683333334, "bike_id": "dabd489b2f2d9b0005a9b93306cc7cde", "lat": 38.9360165, "fusion_lon": 0.0, "fusion_lat": 0.0, "type": "electric_scooter", "name": "dabd489b2f2d9b0005a9b93306cc7cde", "is_disabled": 0, "rental_uris": {"ios": "https://dc.lft.to/lastmile_qr_scan", "android": "https://dc.lft.to/lastmile_qr_scan"}, "is_reserved": 0}, {"lon": -77.035535, "bike_id": "16adfb1c2a70f247ae745bbc1e7977d2", "lat": 38.92416433333333, "fusion_lon": 0.0, "fusion_lat": 0.0, "type": "electric_scooter", "name": "16adfb1c2a70f247ae745bbc1e7977d2", "is_disabled": 0, "rental_uris": {"ios": "https://dc.lft.to/lastmile_qr_scan", "android": "https://dc.lft.to/lastmile_qr_scan"}, "is_reserved": 0}, {"lon": -77.03715033333333, "bike_id": "c2c9c8e4be4195b2a5e84e2effdffb50", "lat": 38.92634116666667, "fusion_lon": 0.0, "fusion_lat": 0.0, "type": "electric_scooter", "name": "c2c9c8e4be4195b2a5e84e2effdffb50", "is_disabled": 0, "rental_uris": {"ios": "https://dc.lft.to/lastmile_qr_scan", "android": "https://dc.lft.to/lastmile_qr_scan"}, "is_reserved": 0}, {"lon": -77.004499, "bike_id": "60ab975bf6fe996f6a8fbb2369ffaa7d", "lat": 38.87754916666667, "fusion_lon": 0.0, "fusion_lat": 0.0, "type": "electric_scooter", "name": "60ab975bf6fe996f6a8fbb2369ffaa7d", "is_disabled": 0, "rental_uris": {"ios": "https://dc.lft.to/lastmile_qr_scan", "android": "https://dc.lft.to/lastmile_qr_scan"}, "is_reserved": 0}, {"lon": -77.07600316666667, "bike_id": "d96e33f9de3e5daa606a3819e64cd010", "lat": 38.912147166666664, "fusion_lon": 0.0, "fusion_lat": 0.0, "type": "electric_scooter", "name": "d96e33f9de3e5daa606a3819e64cd010", "is_disabled": 0, "rental_uris": {"ios": "https://dc.lft.to/lastmile_qr_scan", "android": "https://dc.lft.to/lastmile_qr_scan"}, "is_reserved": 0}, {"lon": -77.03153183333333, "bike_id": "a951eb5cf095a0da50215aad9508aae7", "lat": 38.920888166666664, "fusion_lon": 0.0, "fusion_lat": 0.0, "type": "electric_bike", "name": "a951eb5cf095a0da50215aad9508aae7", "is_disabled": 0, "rental_uris": {"ios": "https://dc.lft.to/lastmile_qr_scan", "android": "https://dc.lft.to/lastmile_qr_scan"}, "is_reserved": 0}, {"lon": -77.014982, "bike_id": "7a2e74432e5dacc04855291bacffa4a7", "lat": 38.917643, "fusion_lon": 0.0, "fusion_lat": 0.0, "type": "electric_scooter", "name": "7a2e74432e5dacc04855291bacffa4a7", "is_disabled": 0, "rental_uris": {"ios": "https://dc.lft.to/lastmile_qr_scan", "android": "https://dc.lft.to/lastmile_qr_scan"}, "is_reserved": 0}, {"lon": -77.00562733333334, "bike_id": "d5973dc0ba3f72e01069cba5dfa076b0", "lat": 38.905602, "fusion_lon": 0.0, "fusion_lat": 0.0, "type": "electric_scooter", "name": "d5973dc0ba3f72e01069cba5dfa076b0", "is_disabled": 0, "rental_uris": {"ios": "https://dc.lft.to/lastmile_qr_scan", "android": "https://dc.lft.to/lastmile_qr_scan"}, "is_reserved": 0}, {"lon": -76.99065683333333, "bike_id": "0754b5c50f10b0eb23b8082a93e7bf9a", "lat": 38.89807916666667, "fusion_lon": 0.0, "fusion_lat": 0.0, "type": "electric_bike", "name": "0754b5c50f10b0eb23b8082a93e7bf9a", "is_disabled": 0, "rental_uris": {"ios": "https://dc.lft.to/lastmile_qr_scan", "android": "https://dc.lft.to/lastmile_qr_scan"}, "is_reserved": 0}, {"lon": -77.0773345, "bike_id": "487d9880b6725d327a3ab9f9a1dc8324", "lat": 38.922631, "fusion_lon": 0.0, "fusion_lat": 0.0, "type": "electric_scooter", "name": "487d9880b6725d327a3ab9f9a1dc8324", "is_disabled": 0, "rental_uris": {"ios": "https://dc.lft.to/lastmile_qr_scan", "android": "https://dc.lft.to/lastmile_qr_scan"}, "is_reserved": 0}, {"lon": -76.98763133333334, "bike_id": "89ee5f89644291cc33f3c9491f2d0008", "lat": 38.857681666666664, "fusion_lon": 0.0, "fusion_lat": 0.0, "type": "electric_bike", "name": "89ee5f89644291cc33f3c9491f2d0008", "is_disabled": 0, "rental_uris": {"ios": "https://dc.lft.to/lastmile_qr_scan", "android": "https://dc.lft.to/lastmile_qr_scan"}, "is_reserved": 0}, {"lon": -77.043633, "bike_id": "3a9c784b5e9cce4d75775891240611d2", "lat": 38.90775883333333, "fusion_lon": 0.0, "fusion_lat": 0.0, "type": "electric_scooter", "name": "3a9c784b5e9cce4d75775891240611d2", "is_disabled": 0, "rental_uris": {"ios": "https://dc.lft.to/lastmile_qr_scan", "android": "https://dc.lft.to/lastmile_qr_scan"}, "is_reserved": 0}, {"lon": -77.03262816666667, "bike_id": "1169c4674409ee6f2b0c8e3d3b305c74", "lat": 38.937267166666665, "fusion_lon": 0.0, "fusion_lat": 0.0, "type": "electric_scooter", "name": "1169c4674409ee6f2b0c8e3d3b305c74", "is_disabled": 0, "rental_uris": {"ios": "https://dc.lft.to/lastmile_qr_scan", "android": "https://dc.lft.to/lastmile_qr_scan"}, "is_reserved": 0}, {"lon": -77.044681, "bike_id": "6c1c6fce2732eafc62d6fd5f43e250f4", "lat": 38.90561866666667, "fusion_lon": 0.0, "fusion_lat": 0.0, "type": "electric_scooter", "name": "6c1c6fce2732eafc62d6fd5f43e250f4", "is_disabled": 0, "rental_uris": {"ios": "https://dc.lft.to/lastmile_qr_scan", "android": "https://dc.lft.to/lastmile_qr_scan"}, "is_reserved": 0}, {"lon": -77.00326233333334, "bike_id": "b804398761b3bbcaed2ba34ae19e5c82", "lat": 38.89725966666666, "fusion_lon": 0.0, "fusion_lat": 0.0, "type": "electric_scooter", "name": "b804398761b3bbcaed2ba34ae19e5c82", "is_disabled": 0, "rental_uris": {"ios": "https://dc.lft.to/lastmile_qr_scan", "android": "https://dc.lft.to/lastmile_qr_scan"}, "is_reserved": 0}, {"lon": -77.06832666666666, "bike_id": "cdf18ff75bb0da539f101a1640ccdff8", "lat": 38.8056585, "fusion_lon": 0.0, "fusion_lat": 0.0, "type": "electric_bike", "name": "cdf18ff75bb0da539f101a1640ccdff8", "is_disabled": 0, "rental_uris": {"ios": "https://dc.lft.to/lastmile_qr_scan", "android": "https://dc.lft.to/lastmile_qr_scan"}, "is_reserved": 0}, {"lon": -77.03332716666667, "bike_id": "a03af961c0c30ee287a2bd48e2a87782", "lat": 38.9156065, "fusion_lon": 0.0, "fusion_lat": 0.0, "type": "electric_scooter", "name": "a03af961c0c30ee287a2bd48e2a87782", "is_disabled": 0, "rental_uris": {"ios": "https://dc.lft.to/lastmile_qr_scan", "android": "https://dc.lft.to/lastmile_qr_scan"}, "is_reserved": 0}, {"lon": -77.02770416666667, "bike_id": "38c16e0ae4c8d014c1ebd94e58fd9156", "lat": 38.95426716666667, "fusion_lon": 0.0, "fusion_lat": 0.0, "type": "electric_scooter", "name": "38c16e0ae4c8d014c1ebd94e58fd9156", "is_disabled": 0, "rental_uris": {"ios": "https://dc.lft.to/lastmile_qr_scan", "android": "https://dc.lft.to/lastmile_qr_scan"}, "is_reserved": 0}, {"lon": -77.0176465, "bike_id": "5534f2eef1acc6cad69a66148550c9ae", "lat": 38.90074933333333, "fusion_lon": 0.0, "fusion_lat": 0.0, "type": "electric_scooter", "name": "5534f2eef1acc6cad69a66148550c9ae", "is_disabled": 0, "rental_uris": {"ios": "https://dc.lft.to/lastmile_qr_scan", "android": "https://dc.lft.to/lastmile_qr_scan"}, "is_reserved": 0}, {"lon": -77.03278766666666, "bike_id": "4841ec64c1bd207afa3b26f3d5b95df9", "lat": 38.941717, "fusion_lon": 0.0, "fusion_lat": 0.0, "type": "electric_scooter", "name": "4841ec64c1bd207afa3b26f3d5b95df9", "is_disabled": 0, "rental_uris": {"ios": "https://dc.lft.to/lastmile_qr_scan", "android": "https://dc.lft.to/lastmile_qr_scan"}, "is_reserved": 0}, {"lon": -76.98085483333334, "bike_id": "6a1edee9f6a4fa227e7fe74a32ed32a9", "lat": 38.90708383333333, "fusion_lon": 0.0, "fusion_lat": 0.0, "type": "electric_scooter", "name": "6a1edee9f6a4fa227e7fe74a32ed32a9", "is_disabled": 0, "rental_uris": {"ios": "https://dc.lft.to/lastmile_qr_scan", "android": "https://dc.lft.to/lastmile_qr_scan"}, "is_reserved": 0}, {"lon": -76.98347383333333, "bike_id": "d028b5bbf6bdad2a1508aabe1ef6c672", "lat": 38.90455383333333, "fusion_lon": 0.0, "fusion_lat": 0.0, "type": "electric_scooter", "name": "d028b5bbf6bdad2a1508aabe1ef6c672", "is_disabled": 0, "rental_uris": {"ios": "https://dc.lft.to/lastmile_qr_scan", "android": "https://dc.lft.to/lastmile_qr_scan"}, "is_reserved": 0}, {"lon": -77.033605, "bike_id": "f670a31295edd6f1259fbc9aef07ce22", "lat": 38.935728166666664, "fusion_lon": 0.0, "fusion_lat": 0.0, "type": "electric_scooter", "name": "f670a31295edd6f1259fbc9aef07ce22", "is_disabled": 0, "rental_uris": {"ios": "https://dc.lft.to/lastmile_qr_scan", "android": "https://dc.lft.to/lastmile_qr_scan"}, "is_reserved": 0}, {"lon": -76.99611366666667, "bike_id": "d484188aa9e2e6de02304ef783603ea6", "lat": 38.894668, "fusion_lon": 0.0, "fusion_lat": 0.0, "type": "electric_scooter", "name": "d484188aa9e2e6de02304ef783603ea6", "is_disabled": 0, "rental_uris": {"ios": "https://dc.lft.to/lastmile_qr_scan", "android": "https://dc.lft.to/lastmile_qr_scan"}, "is_reserved": 0}, {"lon": -77.04119216666666, "bike_id": "d332bf96f31ea1c9ec0d32577a347de1", "lat": 38.934686166666665, "fusion_lon": 0.0, "fusion_lat": 0.0, "type": "electric_scooter", "name": "d332bf96f31ea1c9ec0d32577a347de1", "is_disabled": 0, "rental_uris": {"ios": "https://dc.lft.to/lastmile_qr_scan", "android": "https://dc.lft.to/lastmile_qr_scan"}, "is_reserved": 0}, {"lon": -77.02655083333333, "bike_id": "1b310f934ab4b2bffb8e704ef4282099", "lat": 38.978143333333335, "fusion_lon": 0.0, "fusion_lat": 0.0, "type": "electric_scooter", "name": "1b310f934ab4b2bffb8e704ef4282099", "is_disabled": 0, "rental_uris": {"ios": "https://dc.lft.to/lastmile_qr_scan", "android": "https://dc.lft.to/lastmile_qr_scan"}, "is_reserved": 0}, {"lon": -76.9771375, "bike_id": "f183e51c6ef3a2d5cbf5987a8e0f0d7b", "lat": 38.8877525, "fusion_lon": 0.0, "fusion_lat": 0.0, "type": "electric_scooter", "name": "f183e51c6ef3a2d5cbf5987a8e0f0d7b", "is_disabled": 0, "rental_uris": {"ios": "https://dc.lft.to/lastmile_qr_scan", "android": "https://dc.lft.to/lastmile_qr_scan"}, "is_reserved": 0}, {"lon": -76.9787135, "bike_id": "8041db3e083adb63be3a1bc9ae2e50a1", "lat": 38.88303633333334, "fusion_lon": 0.0, "fusion_lat": 0.0, "type": "electric_scooter", "name": "8041db3e083adb63be3a1bc9ae2e50a1", "is_disabled": 0, "rental_uris": {"ios": "https://dc.lft.to/lastmile_qr_scan", "android": "https://dc.lft.to/lastmile_qr_scan"}, "is_reserved": 0}, {"lon": -77.04477666666666, "bike_id": "65393c1daa81b5eb2e6e313136d21d53", "lat": 38.91892566666667, "fusion_lon": 0.0, "fusion_lat": 0.0, "type": "electric_scooter", "name": "65393c1daa81b5eb2e6e313136d21d53", "is_disabled": 0, "rental_uris": {"ios": "https://dc.lft.to/lastmile_qr_scan", "android": "https://dc.lft.to/lastmile_qr_scan"}, "is_reserved": 0}, {"lon": -77.013575, "bike_id": "2fac9b0584ee6f15a9454e5afe4699e6", "lat": 38.89715016666667, "fusion_lon": 0.0, "fusion_lat": 0.0, "type": "electric_scooter", "name": "2fac9b0584ee6f15a9454e5afe4699e6", "is_disabled": 0, "rental_uris": {"ios": "https://dc.lft.to/lastmile_qr_scan", "android": "https://dc.lft.to/lastmile_qr_scan"}, "is_reserved": 0}, {"lon": -77.044947, "bike_id": "690797c0ed9bfa01e7c9f91257c26b4a", "lat": 38.903342333333335, "fusion_lon": 0.0, "fusion_lat": 0.0, "type": "electric_scooter", "name": "690797c0ed9bfa01e7c9f91257c26b4a", "is_disabled": 0, "rental_uris": {"ios": "https://dc.lft.to/lastmile_qr_scan", "android": "https://dc.lft.to/lastmile_qr_scan"}, "is_reserved": 0}, {"lon": -77.08777, "bike_id": "912d1e6fb90b8727b9012f53f4506976", "lat": 38.83899916666667, "fusion_lon": 0.0, "fusion_lat": 0.0, "type": "electric_bike", "name": "912d1e6fb90b8727b9012f53f4506976", "is_disabled": 0, "rental_uris": {"ios": "https://dc.lft.to/lastmile_qr_scan", "android": "https://dc.lft.to/lastmile_qr_scan"}, "is_reserved": 0}, {"lon": -77.0079515, "bike_id": "4103407de558ae567d67f9df62c1310f", "lat": 38.89642383333333, "fusion_lon": 0.0, "fusion_lat": 0.0, "type": "electric_scooter", "name": "4103407de558ae567d67f9df62c1310f", "is_disabled": 0, "rental_uris": {"ios": "https://dc.lft.to/lastmile_qr_scan", "android": "https://dc.lft.to/lastmile_qr_scan"}, "is_reserved": 0}, {"lon": -77.02848683333333, "bike_id": "f2892281e3eb30464c2fc6736a18f95a", "lat": 38.927564333333336, "fusion_lon": 0.0, "fusion_lat": 0.0, "type": "electric_scooter", "name": "f2892281e3eb30464c2fc6736a18f95a", "is_disabled": 0, "rental_uris": {"ios": "https://dc.lft.to/lastmile_qr_scan", "android": "https://dc.lft.to/lastmile_qr_scan"}, "is_reserved": 0}, {"lon": -77.09166783333333, "bike_id": "628978ea1fe00785b28ce491f9da1d0e", "lat": 38.945615333333336, "fusion_lon": 0.0, "fusion_lat": 0.0, "type": "electric_scooter", "name": "628978ea1fe00785b28ce491f9da1d0e", "is_disabled": 0, "rental_uris": {"ios": "https://dc.lft.to/lastmile_qr_scan", "android": "https://dc.lft.to/lastmile_qr_scan"}, "is_reserved": 0}, {"lon": -77.03499833333333, "bike_id": "c05ba787ec1498258a29366fc188ba82", "lat": 38.9326595, "fusion_lon": 0.0, "fusion_lat": 0.0, "type": "electric_scooter", "name": "c05ba787ec1498258a29366fc188ba82", "is_disabled": 0, "rental_uris": {"ios": "https://dc.lft.to/lastmile_qr_scan", "android": "https://dc.lft.to/lastmile_qr_scan"}, "is_reserved": 0}, {"lon": -76.988403, "bike_id": "1476c1a9d46f67a1b44d86b90ad2fd42", "lat": 38.84277183333333, "fusion_lon": 0.0, "fusion_lat": 0.0, "type": "electric_bike", "name": "1476c1a9d46f67a1b44d86b90ad2fd42", "is_disabled": 0, "rental_uris": {"ios": "https://dc.lft.to/lastmile_qr_scan", "android": "https://dc.lft.to/lastmile_qr_scan"}, "is_reserved": 0}, {"lon": -77.03807816666666, "bike_id": "f74f04191cd54a877af8b055190bd79c", "lat": 38.93389766666667, "fusion_lon": 0.0, "fusion_lat": 0.0, "type": "electric_scooter", "name": "f74f04191cd54a877af8b055190bd79c", "is_disabled": 0, "rental_uris": {"ios": "https://dc.lft.to/lastmile_qr_scan", "android": "https://dc.lft.to/lastmile_qr_scan"}, "is_reserved": 0}, {"lon": -77.05600083333333, "bike_id": "991610ef6681391f4e2945630ef97858", "lat": 38.936985, "fusion_lon": 0.0, "fusion_lat": 0.0, "type": "electric_scooter", "name": "991610ef6681391f4e2945630ef97858", "is_disabled": 0, "rental_uris": {"ios": "https://dc.lft.to/lastmile_qr_scan", "android": "https://dc.lft.to/lastmile_qr_scan"}, "is_reserved": 0}, {"lon": -76.973313, "bike_id": "11fc20a5b069b5dc872e224cf3337cf6", "lat": 38.90406983333333, "fusion_lon": 0.0, "fusion_lat": 0.0, "type": "electric_scooter", "name": "11fc20a5b069b5dc872e224cf3337cf6", "is_disabled": 0, "rental_uris": {"ios": "https://dc.lft.to/lastmile_qr_scan", "android": "https://dc.lft.to/lastmile_qr_scan"}, "is_reserved": 0}, {"lon": -76.944244, "bike_id": "953603837432bdb9736156c927460ea6", "lat": 38.96620266666667, "fusion_lon": 0.0, "fusion_lat": 0.0, "type": "electric_bike", "name": "953603837432bdb9736156c927460ea6", "is_disabled": 0, "rental_uris": {"ios": "https://dc.lft.to/lastmile_qr_scan", "android": "https://dc.lft.to/lastmile_qr_scan"}, "is_reserved": 0}, {"lon": -77.02373433333334, "bike_id": "2d1ac8397251886faac3eab34317ec8a", "lat": 38.899638833333334, "fusion_lon": 0.0, "fusion_lat": 0.0, "type": "electric_scooter", "name": "2d1ac8397251886faac3eab34317ec8a", "is_disabled": 0, "rental_uris": {"ios": "https://dc.lft.to/lastmile_qr_scan", "android": "https://dc.lft.to/lastmile_qr_scan"}, "is_reserved": 0}, {"lon": -76.94567816666667, "bike_id": "9dd9276d50bf919ec7889d2cfa010635", "lat": 38.86620466666667, "fusion_lon": 0.0, "fusion_lat": 0.0, "type": "electric_bike", "name": "9dd9276d50bf919ec7889d2cfa010635", "is_disabled": 0, "rental_uris": {"ios": "https://dc.lft.to/lastmile_qr_scan", "android": "https://dc.lft.to/lastmile_qr_scan"}, "is_reserved": 0}, {"lon": -77.00386966666667, "bike_id": "3e3ed57719e6eac51658ed67f55b315e", "lat": 38.90770966666667, "fusion_lon": 0.0, "fusion_lat": 0.0, "type": "electric_scooter", "name": "3e3ed57719e6eac51658ed67f55b315e", "is_disabled": 0, "rental_uris": {"ios": "https://dc.lft.to/lastmile_qr_scan", "android": "https://dc.lft.to/lastmile_qr_scan"}, "is_reserved": 0}, {"lon": -77.01184783333333, "bike_id": "37b7719fbc1c243b0a67580ff42a4dde", "lat": 38.90029933333334, "fusion_lon": 0.0, "fusion_lat": 0.0, "type": "electric_scooter", "name": "37b7719fbc1c243b0a67580ff42a4dde", "is_disabled": 0, "rental_uris": {"ios": "https://dc.lft.to/lastmile_qr_scan", "android": "https://dc.lft.to/lastmile_qr_scan"}, "is_reserved": 0}, {"lon": -76.9420555, "bike_id": "a1960c4c3a8725b382edbf6938e98663", "lat": 38.89312116666667, "fusion_lon": 0.0, "fusion_lat": 0.0, "type": "electric_bike", "name": "a1960c4c3a8725b382edbf6938e98663", "is_disabled": 0, "rental_uris": {"ios": "https://dc.lft.to/lastmile_qr_scan", "android": "https://dc.lft.to/lastmile_qr_scan"}, "is_reserved": 0}, {"lon": -76.99426866666667, "bike_id": "d15f5610da2ea01baf5bd698841191b3", "lat": 38.8360575, "fusion_lon": 0.0, "fusion_lat": 0.0, "type": "electric_scooter", "name": "d15f5610da2ea01baf5bd698841191b3", "is_disabled": 0, "rental_uris": {"ios": "https://dc.lft.to/lastmile_qr_scan", "android": "https://dc.lft.to/lastmile_qr_scan"}, "is_reserved": 0}, {"lon": -77.0441915, "bike_id": "856904068a099ac78c57d429be6fc767", "lat": 38.912648, "fusion_lon": 0.0, "fusion_lat": 0.0, "type": "electric_scooter", "name": "856904068a099ac78c57d429be6fc767", "is_disabled": 0, "rental_uris": {"ios": "https://dc.lft.to/lastmile_qr_scan", "android": "https://dc.lft.to/lastmile_qr_scan"}, "is_reserved": 0}, {"lon": -77.03638633333334, "bike_id": "532b21b61d407811f68c0ca31c873a8e", "lat": 38.91860966666667, "fusion_lon": 0.0, "fusion_lat": 0.0, "type": "electric_scooter", "name": "532b21b61d407811f68c0ca31c873a8e", "is_disabled": 0, "rental_uris": {"ios": "https://dc.lft.to/lastmile_qr_scan", "android": "https://dc.lft.to/lastmile_qr_scan"}, "is_reserved": 0}, {"lon": -77.02168633333334, "bike_id": "47e647aa16e649301149931418539ae8", "lat": 38.887428666666665, "fusion_lon": 0.0, "fusion_lat": 0.0, "type": "electric_scooter", "name": "47e647aa16e649301149931418539ae8", "is_disabled": 0, "rental_uris": {"ios": "https://dc.lft.to/lastmile_qr_scan", "android": "https://dc.lft.to/lastmile_qr_scan"}, "is_reserved": 0}, {"lon": -76.99506083333333, "bike_id": "03863be394b2b72ee32741932f6e65b8", "lat": 38.88348083333333, "fusion_lon": 0.0, "fusion_lat": 0.0, "type": "electric_scooter", "name": "03863be394b2b72ee32741932f6e65b8", "is_disabled": 0, "rental_uris": {"ios": "https://dc.lft.to/lastmile_qr_scan", "android": "https://dc.lft.to/lastmile_qr_scan"}, "is_reserved": 0}, {"lon": -77.006687, "bike_id": "dc2fdfd014bd16a3dc89b166196e35d3", "lat": 38.94514066666667, "fusion_lon": 0.0, "fusion_lat": 0.0, "type": "electric_bike", "name": "dc2fdfd014bd16a3dc89b166196e35d3", "is_disabled": 0, "rental_uris": {"ios": "https://dc.lft.to/lastmile_qr_scan", "android": "https://dc.lft.to/lastmile_qr_scan"}, "is_reserved": 0}, {"lon": -77.0254845, "bike_id": "bdd6a068255c5b4d63bc3f06e75b0989", "lat": 38.941371333333336, "fusion_lon": 0.0, "fusion_lat": 0.0, "type": "electric_scooter", "name": "bdd6a068255c5b4d63bc3f06e75b0989", "is_disabled": 0, "rental_uris": {"ios": "https://dc.lft.to/lastmile_qr_scan", "android": "https://dc.lft.to/lastmile_qr_scan"}, "is_reserved": 0}, {"lon": -77.017645, "bike_id": "06b4a5344c9938b1677adce086003406", "lat": 38.90015233333333, "fusion_lon": 0.0, "fusion_lat": 0.0, "type": "electric_scooter", "name": "06b4a5344c9938b1677adce086003406", "is_disabled": 0, "rental_uris": {"ios": "https://dc.lft.to/lastmile_qr_scan", "android": "https://dc.lft.to/lastmile_qr_scan"}, "is_reserved": 0}, {"lon": -76.99030916666666, "bike_id": "271bcda893d4457a8a42788a338edda8", "lat": 38.896011, "fusion_lon": 0.0, "fusion_lat": 0.0, "type": "electric_scooter", "name": "271bcda893d4457a8a42788a338edda8", "is_disabled": 0, "rental_uris": {"ios": "https://dc.lft.to/lastmile_qr_scan", "android": "https://dc.lft.to/lastmile_qr_scan"}, "is_reserved": 0}, {"lon": -77.1392885, "bike_id": "5a21fc9ffa5ace83c620b012b48523ca", "lat": 38.87298833333333, "fusion_lon": 0.0, "fusion_lat": 0.0, "type": "electric_bike", "name": "5a21fc9ffa5ace83c620b012b48523ca", "is_disabled": 0, "rental_uris": {"ios": "https://dc.lft.to/lastmile_qr_scan", "android": "https://dc.lft.to/lastmile_qr_scan"}, "is_reserved": 0}, {"lon": -77.04908683333333, "bike_id": "0fa17afb72dc0756387a7297e4de6a58", "lat": 38.916019166666665, "fusion_lon": 0.0, "fusion_lat": 0.0, "type": "electric_scooter", "name": "0fa17afb72dc0756387a7297e4de6a58", "is_disabled": 0, "rental_uris": {"ios": "https://dc.lft.to/lastmile_qr_scan", "android": "https://dc.lft.to/lastmile_qr_scan"}, "is_reserved": 0}, {"lon": -77.03430533333334, "bike_id": "338846885f4be498423dd307a00fc66f", "lat": 38.96531866666667, "fusion_lon": 0.0, "fusion_lat": 0.0, "type": "electric_bike", "name": "338846885f4be498423dd307a00fc66f", "is_disabled": 0, "rental_uris": {"ios": "https://dc.lft.to/lastmile_qr_scan", "android": "https://dc.lft.to/lastmile_qr_scan"}, "is_reserved": 0}, {"lon": -77.02579683333333, "bike_id": "102c6bd1eb2a30ae9a22c026e36c172f", "lat": 38.914067333333335, "fusion_lon": 0.0, "fusion_lat": 0.0, "type": "electric_scooter", "name": "102c6bd1eb2a30ae9a22c026e36c172f", "is_disabled": 0, "rental_uris": {"ios": "https://dc.lft.to/lastmile_qr_scan", "android": "https://dc.lft.to/lastmile_qr_scan"}, "is_reserved": 0}, {"lon": -76.972072, "bike_id": "0b09250ec02c5ac73d6579d9100a4edd", "lat": 38.892899666666665, "fusion_lon": 0.0, "fusion_lat": 0.0, "type": "electric_bike", "name": "0b09250ec02c5ac73d6579d9100a4edd", "is_disabled": 0, "rental_uris": {"ios": "https://dc.lft.to/lastmile_qr_scan", "android": "https://dc.lft.to/lastmile_qr_scan"}, "is_reserved": 0}, {"lon": -77.0531405, "bike_id": "be85705ab1d085663935d99262116cb8", "lat": 38.90075483333333, "fusion_lon": 0.0, "fusion_lat": 0.0, "type": "electric_scooter", "name": "be85705ab1d085663935d99262116cb8", "is_disabled": 0, "rental_uris": {"ios": "https://dc.lft.to/lastmile_qr_scan", "android": "https://dc.lft.to/lastmile_qr_scan"}, "is_reserved": 0}, {"lon": -77.02810866666667, "bike_id": "7e0486cad2fec8cb48f1de5f01f6d894", "lat": 38.906651333333336, "fusion_lon": 0.0, "fusion_lat": 0.0, "type": "electric_scooter", "name": "7e0486cad2fec8cb48f1de5f01f6d894", "is_disabled": 0, "rental_uris": {"ios": "https://dc.lft.to/lastmile_qr_scan", "android": "https://dc.lft.to/lastmile_qr_scan"}, "is_reserved": 0}, {"lon": -77.05580533333334, "bike_id": "cee1cc4fb6ebbcfe8582301e23550df1", "lat": 38.8972325, "fusion_lon": 0.0, "fusion_lat": 0.0, "type": "electric_scooter", "name": "cee1cc4fb6ebbcfe8582301e23550df1", "is_disabled": 0, "rental_uris": {"ios": "https://dc.lft.to/lastmile_qr_scan", "android": "https://dc.lft.to/lastmile_qr_scan"}, "is_reserved": 0}, {"lon": -76.99543283333334, "bike_id": "d7a494b8f2ff32a59ebb24817414ba37", "lat": 38.861969, "fusion_lon": 0.0, "fusion_lat": 0.0, "type": "electric_scooter", "name": "d7a494b8f2ff32a59ebb24817414ba37", "is_disabled": 0, "rental_uris": {"ios": "https://dc.lft.to/lastmile_qr_scan", "android": "https://dc.lft.to/lastmile_qr_scan"}, "is_reserved": 0}, {"lon": -76.9465395, "bike_id": "78025b3cb2074c9ee73d4ce612a1e911", "lat": 38.89824733333333, "fusion_lon": 0.0, "fusion_lat": 0.0, "type": "electric_scooter", "name": "78025b3cb2074c9ee73d4ce612a1e911", "is_disabled": 0, "rental_uris": {"ios": "https://dc.lft.to/lastmile_qr_scan", "android": "https://dc.lft.to/lastmile_qr_scan"}, "is_reserved": 0}, {"lon": -76.9823735, "bike_id": "79530bf65e70bc43621da6ff195de459", "lat": 38.864711, "fusion_lon": 0.0, "fusion_lat": 0.0, "type": "electric_scooter", "name": "79530bf65e70bc43621da6ff195de459", "is_disabled": 0, "rental_uris": {"ios": "https://dc.lft.to/lastmile_qr_scan", "android": "https://dc.lft.to/lastmile_qr_scan"}, "is_reserved": 0}, {"lon": -77.03042316666667, "bike_id": "3351d4f75afcb60f4de58c707f745770", "lat": 38.87837183333333, "fusion_lon": 0.0, "fusion_lat": 0.0, "type": "electric_scooter", "name": "3351d4f75afcb60f4de58c707f745770", "is_disabled": 0, "rental_uris": {"ios": "https://dc.lft.to/lastmile_qr_scan", "android": "https://dc.lft.to/lastmile_qr_scan"}, "is_reserved": 0}, {"lon": -77.05103383333334, "bike_id": "2ce63713b33e5aecd0b4e215b0d58386", "lat": 38.9230405, "fusion_lon": 0.0, "fusion_lat": 0.0, "type": "electric_scooter", "name": "2ce63713b33e5aecd0b4e215b0d58386", "is_disabled": 0, "rental_uris": {"ios": "https://dc.lft.to/lastmile_qr_scan", "android": "https://dc.lft.to/lastmile_qr_scan"}, "is_reserved": 0}, {"lon": -77.00552266666666, "bike_id": "0ea782a2a7c8f5f3cd45b5e3115dc907", "lat": 38.887527166666665, "fusion_lon": 0.0, "fusion_lat": 0.0, "type": "electric_scooter", "name": "0ea782a2a7c8f5f3cd45b5e3115dc907", "is_disabled": 0, "rental_uris": {"ios": "https://dc.lft.to/lastmile_qr_scan", "android": "https://dc.lft.to/lastmile_qr_scan"}, "is_reserved": 0}, {"lon": -77.01314483333333, "bike_id": "e14c49ef731db83cf2e96f2a09c312eb", "lat": 38.907353666666666, "fusion_lon": 0.0, "fusion_lat": 0.0, "type": "electric_scooter", "name": "e14c49ef731db83cf2e96f2a09c312eb", "is_disabled": 0, "rental_uris": {"ios": "https://dc.lft.to/lastmile_qr_scan", "android": "https://dc.lft.to/lastmile_qr_scan"}, "is_reserved": 0}, {"lon": -77.01025183333333, "bike_id": "eedf4e7ced7d44ce0b5c569393e3e47f", "lat": 38.86663566666667, "fusion_lon": 0.0, "fusion_lat": 0.0, "type": "electric_scooter", "name": "eedf4e7ced7d44ce0b5c569393e3e47f", "is_disabled": 0, "rental_uris": {"ios": "https://dc.lft.to/lastmile_qr_scan", "android": "https://dc.lft.to/lastmile_qr_scan"}, "is_reserved": 0}, {"lon": -77.0257625, "bike_id": "e27ca76b621e353eb01e88aadc58408f", "lat": 38.91406583333333, "fusion_lon": 0.0, "fusion_lat": 0.0, "type": "electric_scooter", "name": "e27ca76b621e353eb01e88aadc58408f", "is_disabled": 0, "rental_uris": {"ios": "https://dc.lft.to/lastmile_qr_scan", "android": "https://dc.lft.to/lastmile_qr_scan"}, "is_reserved": 0}, {"lon": -77.0263795, "bike_id": "55d23836fdac65234e6dfc41b3728928", "lat": 38.904282333333335, "fusion_lon": 0.0, "fusion_lat": 0.0, "type": "electric_scooter", "name": "55d23836fdac65234e6dfc41b3728928", "is_disabled": 0, "rental_uris": {"ios": "https://dc.lft.to/lastmile_qr_scan", "android": "https://dc.lft.to/lastmile_qr_scan"}, "is_reserved": 0}, {"lon": -77.020106, "bike_id": "e292d5d4e739384abf9f84439a8afa46", "lat": 38.924217, "fusion_lon": 0.0, "fusion_lat": 0.0, "type": "electric_scooter", "name": "e292d5d4e739384abf9f84439a8afa46", "is_disabled": 0, "rental_uris": {"ios": "https://dc.lft.to/lastmile_qr_scan", "android": "https://dc.lft.to/lastmile_qr_scan"}, "is_reserved": 0}, {"lon": -77.00307766666667, "bike_id": "98d7d7eb08576a6354ef3f516b51b848", "lat": 38.894947333333334, "fusion_lon": 0.0, "fusion_lat": 0.0, "type": "electric_scooter", "name": "98d7d7eb08576a6354ef3f516b51b848", "is_disabled": 0, "rental_uris": {"ios": "https://dc.lft.to/lastmile_qr_scan", "android": "https://dc.lft.to/lastmile_qr_scan"}, "is_reserved": 0}, {"lon": -77.08496016666666, "bike_id": "8408f8fb765eec1ac5c6a639e19a670b", "lat": 38.959345166666665, "fusion_lon": 0.0, "fusion_lat": 0.0, "type": "electric_scooter", "name": "8408f8fb765eec1ac5c6a639e19a670b", "is_disabled": 0, "rental_uris": {"ios": "https://dc.lft.to/lastmile_qr_scan", "android": "https://dc.lft.to/lastmile_qr_scan"}, "is_reserved": 0}, {"lon": -77.01109583333333, "bike_id": "7e5caceed92616963b738751297f9a6f", "lat": 38.90353233333333, "fusion_lon": 0.0, "fusion_lat": 0.0, "type": "electric_scooter", "name": "7e5caceed92616963b738751297f9a6f", "is_disabled": 0, "rental_uris": {"ios": "https://dc.lft.to/lastmile_qr_scan", "android": "https://dc.lft.to/lastmile_qr_scan"}, "is_reserved": 0}, {"lon": -77.03893033333334, "bike_id": "59cbcb9c95d06f2bbfce082be2f87f26", "lat": 38.92523166666667, "fusion_lon": 0.0, "fusion_lat": 0.0, "type": "electric_scooter", "name": "59cbcb9c95d06f2bbfce082be2f87f26", "is_disabled": 0, "rental_uris": {"ios": "https://dc.lft.to/lastmile_qr_scan", "android": "https://dc.lft.to/lastmile_qr_scan"}, "is_reserved": 0}, {"lon": -77.03974066666666, "bike_id": "ec8480895b7e934fb0b63c3c1401b89f", "lat": 38.92081733333333, "fusion_lon": 0.0, "fusion_lat": 0.0, "type": "electric_scooter", "name": "ec8480895b7e934fb0b63c3c1401b89f", "is_disabled": 0, "rental_uris": {"ios": "https://dc.lft.to/lastmile_qr_scan", "android": "https://dc.lft.to/lastmile_qr_scan"}, "is_reserved": 0}, {"lon": -77.018202, "bike_id": "25943574be19d4097bdcfc2d1f57fc03", "lat": 38.92369766666667, "fusion_lon": 0.0, "fusion_lat": 0.0, "type": "electric_scooter", "name": "25943574be19d4097bdcfc2d1f57fc03", "is_disabled": 0, "rental_uris": {"ios": "https://dc.lft.to/lastmile_qr_scan", "android": "https://dc.lft.to/lastmile_qr_scan"}, "is_reserved": 0}, {"lon": -77.02491766666667, "bike_id": "7390e72d691b892f9b6b254226fa7d1e", "lat": 38.907279, "fusion_lon": 0.0, "fusion_lat": 0.0, "type": "electric_scooter", "name": "7390e72d691b892f9b6b254226fa7d1e", "is_disabled": 0, "rental_uris": {"ios": "https://dc.lft.to/lastmile_qr_scan", "android": "https://dc.lft.to/lastmile_qr_scan"}, "is_reserved": 0}, {"lon": -77.0413455, "bike_id": "92adbd4405a02c1a90edc8c013378da1", "lat": 38.906335, "fusion_lon": 0.0, "fusion_lat": 0.0, "type": "electric_scooter", "name": "92adbd4405a02c1a90edc8c013378da1", "is_disabled": 0, "rental_uris": {"ios": "https://dc.lft.to/lastmile_qr_scan", "android": "https://dc.lft.to/lastmile_qr_scan"}, "is_reserved": 0}, {"lon": -77.03882633333333, "bike_id": "c1927729c3bdb0bb676543018e589a27", "lat": 38.9486795, "fusion_lon": 0.0, "fusion_lat": 0.0, "type": "electric_scooter", "name": "c1927729c3bdb0bb676543018e589a27", "is_disabled": 0, "rental_uris": {"ios": "https://dc.lft.to/lastmile_qr_scan", "android": "https://dc.lft.to/lastmile_qr_scan"}, "is_reserved": 0}, {"lon": -77.05593466666667, "bike_id": "79e87230676fdae596cc45cc83c67b92", "lat": 38.93142066666667, "fusion_lon": 0.0, "fusion_lat": 0.0, "type": "electric_scooter", "name": "79e87230676fdae596cc45cc83c67b92", "is_disabled": 0, "rental_uris": {"ios": "https://dc.lft.to/lastmile_qr_scan", "android": "https://dc.lft.to/lastmile_qr_scan"}, "is_reserved": 0}, {"lon": -76.98825083333334, "bike_id": "aa716596e39727519e8ddcd3c09668e5", "lat": 38.89077533333333, "fusion_lon": 0.0, "fusion_lat": 0.0, "type": "electric_scooter", "name": "aa716596e39727519e8ddcd3c09668e5", "is_disabled": 0, "rental_uris": {"ios": "https://dc.lft.to/lastmile_qr_scan", "android": "https://dc.lft.to/lastmile_qr_scan"}, "is_reserved": 0}, {"lon": -77.12733116666666, "bike_id": "8639bd44f3a1b2d0a89382c5727c8745", "lat": 38.895579, "fusion_lon": 0.0, "fusion_lat": 0.0, "type": "electric_bike", "name": "8639bd44f3a1b2d0a89382c5727c8745", "is_disabled": 0, "rental_uris": {"ios": "https://dc.lft.to/lastmile_qr_scan", "android": "https://dc.lft.to/lastmile_qr_scan"}, "is_reserved": 0}, {"lon": -77.01786466666667, "bike_id": "4181ad48a20b5e218239756348df5bdc", "lat": 38.90127066666667, "fusion_lon": 0.0, "fusion_lat": 0.0, "type": "electric_scooter", "name": "4181ad48a20b5e218239756348df5bdc", "is_disabled": 0, "rental_uris": {"ios": "https://dc.lft.to/lastmile_qr_scan", "android": "https://dc.lft.to/lastmile_qr_scan"}, "is_reserved": 0}, {"lon": -77.04834466666667, "bike_id": "0dfa5bf81694d0098becfdfff4aa8696", "lat": 38.903765666666665, "fusion_lon": 0.0, "fusion_lat": 0.0, "type": "electric_scooter", "name": "0dfa5bf81694d0098becfdfff4aa8696", "is_disabled": 0, "rental_uris": {"ios": "https://dc.lft.to/lastmile_qr_scan", "android": "https://dc.lft.to/lastmile_qr_scan"}, "is_reserved": 0}, {"lon": -76.95653016666667, "bike_id": "44f238e7d4fceae046730741a410def7", "lat": 38.896208, "fusion_lon": 0.0, "fusion_lat": 0.0, "type": "electric_scooter", "name": "44f238e7d4fceae046730741a410def7", "is_disabled": 0, "rental_uris": {"ios": "https://dc.lft.to/lastmile_qr_scan", "android": "https://dc.lft.to/lastmile_qr_scan"}, "is_reserved": 0}, {"lon": -77.00966266666667, "bike_id": "b0c64cc49318d1e0d620c9b834267031", "lat": 38.91702466666667, "fusion_lon": 0.0, "fusion_lat": 0.0, "type": "electric_scooter", "name": "b0c64cc49318d1e0d620c9b834267031", "is_disabled": 0, "rental_uris": {"ios": "https://dc.lft.to/lastmile_qr_scan", "android": "https://dc.lft.to/lastmile_qr_scan"}, "is_reserved": 0}, {"lon": -77.00474766666666, "bike_id": "3d7d69165acd664b04e197f7a2356ad3", "lat": 38.89579916666667, "fusion_lon": 0.0, "fusion_lat": 0.0, "type": "electric_scooter", "name": "3d7d69165acd664b04e197f7a2356ad3", "is_disabled": 0, "rental_uris": {"ios": "https://dc.lft.to/lastmile_qr_scan", "android": "https://dc.lft.to/lastmile_qr_scan"}, "is_reserved": 0}, {"lon": -76.8839985, "bike_id": "d58e091652c94299dd414b0720d46215", "lat": 38.931667166666664, "fusion_lon": 0.0, "fusion_lat": 0.0, "type": "electric_bike", "name": "d58e091652c94299dd414b0720d46215", "is_disabled": 0, "rental_uris": {"ios": "https://dc.lft.to/lastmile_qr_scan", "android": "https://dc.lft.to/lastmile_qr_scan"}, "is_reserved": 0}, {"lon": -77.01806883333333, "bike_id": "f5bcd54486f24a61f7fc5041e7c9c615", "lat": 38.96483283333333, "fusion_lon": 0.0, "fusion_lat": 0.0, "type": "electric_scooter", "name": "f5bcd54486f24a61f7fc5041e7c9c615", "is_disabled": 0, "rental_uris": {"ios": "https://dc.lft.to/lastmile_qr_scan", "android": "https://dc.lft.to/lastmile_qr_scan"}, "is_reserved": 0}, {"lon": -77.04648333333333, "bike_id": "d369f2faee1af1ee33ee857ee6b4d205", "lat": 39.054984833333336, "fusion_lon": 0.0, "fusion_lat": 0.0, "type": "electric_bike", "name": "d369f2faee1af1ee33ee857ee6b4d205", "is_disabled": 0, "rental_uris": {"ios": "https://dc.lft.to/lastmile_qr_scan", "android": "https://dc.lft.to/lastmile_qr_scan"}, "is_reserved": 0}, {"lon": -76.9613345, "bike_id": "90122d1ac6dba82772760eedd7367f41", "lat": 38.94211166666667, "fusion_lon": 0.0, "fusion_lat": 0.0, "type": "electric_bike", "name": "90122d1ac6dba82772760eedd7367f41", "is_disabled": 0, "rental_uris": {"ios": "https://dc.lft.to/lastmile_qr_scan", "android": "https://dc.lft.to/lastmile_qr_scan"}, "is_reserved": 0}, {"lon": -77.02753383333334, "bike_id": "9ceb753f9375797181e931210a865fd5", "lat": 38.965645333333335, "fusion_lon": 0.0, "fusion_lat": 0.0, "type": "electric_bike", "name": "9ceb753f9375797181e931210a865fd5", "is_disabled": 0, "rental_uris": {"ios": "https://dc.lft.to/lastmile_qr_scan", "android": "https://dc.lft.to/lastmile_qr_scan"}, "is_reserved": 0}, {"lon": -77.05743783333334, "bike_id": "c5a984943f52a8ffb4ee84bbb41a7234", "lat": 38.93391666666667, "fusion_lon": 0.0, "fusion_lat": 0.0, "type": "electric_scooter", "name": "c5a984943f52a8ffb4ee84bbb41a7234", "is_disabled": 0, "rental_uris": {"ios": "https://dc.lft.to/lastmile_qr_scan", "android": "https://dc.lft.to/lastmile_qr_scan"}, "is_reserved": 0}, {"lon": -77.0486645, "bike_id": "22e7ecaea7ea54f30dd1547c0302dd6a", "lat": 38.89221933333334, "fusion_lon": 0.0, "fusion_lat": 0.0, "type": "electric_scooter", "name": "22e7ecaea7ea54f30dd1547c0302dd6a", "is_disabled": 0, "rental_uris": {"ios": "https://dc.lft.to/lastmile_qr_scan", "android": "https://dc.lft.to/lastmile_qr_scan"}, "is_reserved": 0}, {"lon": -77.019902, "bike_id": "a01ab482136126e4d6a9b89ab21217b3", "lat": 38.901439333333336, "fusion_lon": 0.0, "fusion_lat": 0.0, "type": "electric_scooter", "name": "a01ab482136126e4d6a9b89ab21217b3", "is_disabled": 0, "rental_uris": {"ios": "https://dc.lft.to/lastmile_qr_scan", "android": "https://dc.lft.to/lastmile_qr_scan"}, "is_reserved": 0}, {"lon": -77.054737, "bike_id": "7d299559233797a4f659fc21b523fc7d", "lat": 38.90425883333333, "fusion_lon": 0.0, "fusion_lat": 0.0, "type": "electric_scooter", "name": "7d299559233797a4f659fc21b523fc7d", "is_disabled": 0, "rental_uris": {"ios": "https://dc.lft.to/lastmile_qr_scan", "android": "https://dc.lft.to/lastmile_qr_scan"}, "is_reserved": 0}, {"lon": -77.0166645, "bike_id": "e15f145228f360eea1127b02dd61b946", "lat": 38.87701933333334, "fusion_lon": 0.0, "fusion_lat": 0.0, "type": "electric_scooter", "name": "e15f145228f360eea1127b02dd61b946", "is_disabled": 0, "rental_uris": {"ios": "https://dc.lft.to/lastmile_qr_scan", "android": "https://dc.lft.to/lastmile_qr_scan"}, "is_reserved": 0}, {"lon": -77.01614383333333, "bike_id": "230a5284c3e74cca8294b98ed549eb7c", "lat": 38.926841833333334, "fusion_lon": 0.0, "fusion_lat": 0.0, "type": "electric_scooter", "name": "230a5284c3e74cca8294b98ed549eb7c", "is_disabled": 0, "rental_uris": {"ios": "https://dc.lft.to/lastmile_qr_scan", "android": "https://dc.lft.to/lastmile_qr_scan"}, "is_reserved": 0}, {"lon": -77.0200275, "bike_id": "7c4597ed1c80bb6d4fb467dde4cd7fb4", "lat": 38.966271666666664, "fusion_lon": 0.0, "fusion_lat": 0.0, "type": "electric_scooter", "name": "7c4597ed1c80bb6d4fb467dde4cd7fb4", "is_disabled": 0, "rental_uris": {"ios": "https://dc.lft.to/lastmile_qr_scan", "android": "https://dc.lft.to/lastmile_qr_scan"}, "is_reserved": 0}, {"lon": -77.027168, "bike_id": "4694e58208628c9c906dbf22d9ca9f56", "lat": 38.9107105, "fusion_lon": 0.0, "fusion_lat": 0.0, "type": "electric_scooter", "name": "4694e58208628c9c906dbf22d9ca9f56", "is_disabled": 0, "rental_uris": {"ios": "https://dc.lft.to/lastmile_qr_scan", "android": "https://dc.lft.to/lastmile_qr_scan"}, "is_reserved": 0}, {"lon": -76.9846855, "bike_id": "391dd6e2d0c48168e41f1d195297d006", "lat": 38.903989, "fusion_lon": 0.0, "fusion_lat": 0.0, "type": "electric_scooter", "name": "391dd6e2d0c48168e41f1d195297d006", "is_disabled": 0, "rental_uris": {"ios": "https://dc.lft.to/lastmile_qr_scan", "android": "https://dc.lft.to/lastmile_qr_scan"}, "is_reserved": 0}, {"lon": -77.0362395, "bike_id": "c4d155bff9b8966d782e4d380c03a08e", "lat": 38.936796, "fusion_lon": 0.0, "fusion_lat": 0.0, "type": "electric_scooter", "name": "c4d155bff9b8966d782e4d380c03a08e", "is_disabled": 0, "rental_uris": {"ios": "https://dc.lft.to/lastmile_qr_scan", "android": "https://dc.lft.to/lastmile_qr_scan"}, "is_reserved": 0}, {"lon": -76.99455733333333, "bike_id": "683d664a796366924e5dd2fd4bf6a043", "lat": 38.86215416666667, "fusion_lon": 0.0, "fusion_lat": 0.0, "type": "electric_scooter", "name": "683d664a796366924e5dd2fd4bf6a043", "is_disabled": 0, "rental_uris": {"ios": "https://dc.lft.to/lastmile_qr_scan", "android": "https://dc.lft.to/lastmile_qr_scan"}, "is_reserved": 0}, {"lon": -77.01894983333334, "bike_id": "38df7fb390fc81e42dfa9fdd33b14ccd", "lat": 38.898645333333334, "fusion_lon": 0.0, "fusion_lat": 0.0, "type": "electric_scooter", "name": "38df7fb390fc81e42dfa9fdd33b14ccd", "is_disabled": 0, "rental_uris": {"ios": "https://dc.lft.to/lastmile_qr_scan", "android": "https://dc.lft.to/lastmile_qr_scan"}, "is_reserved": 0}, {"lon": -77.02814083333334, "bike_id": "a37486e4f38543ed3b02c5180ef90826", "lat": 38.88177233333333, "fusion_lon": 0.0, "fusion_lat": 0.0, "type": "electric_scooter", "name": "a37486e4f38543ed3b02c5180ef90826", "is_disabled": 0, "rental_uris": {"ios": "https://dc.lft.to/lastmile_qr_scan", "android": "https://dc.lft.to/lastmile_qr_scan"}, "is_reserved": 0}, {"lon": -77.02218066666667, "bike_id": "0e61d272005929edd84c68ca105cb70e", "lat": 38.905390833333335, "fusion_lon": 0.0, "fusion_lat": 0.0, "type": "electric_scooter", "name": "0e61d272005929edd84c68ca105cb70e", "is_disabled": 0, "rental_uris": {"ios": "https://dc.lft.to/lastmile_qr_scan", "android": "https://dc.lft.to/lastmile_qr_scan"}, "is_reserved": 0}, {"lon": -77.02769716666667, "bike_id": "3798002ccc9c6de79ec8187e54c1942e", "lat": 38.95425016666667, "fusion_lon": 0.0, "fusion_lat": 0.0, "type": "electric_scooter", "name": "3798002ccc9c6de79ec8187e54c1942e", "is_disabled": 0, "rental_uris": {"ios": "https://dc.lft.to/lastmile_qr_scan", "android": "https://dc.lft.to/lastmile_qr_scan"}, "is_reserved": 0}, {"lon": -76.93179766666667, "bike_id": "ee1ce0dcb149f89c9a1841b892b30976", "lat": 38.89880566666667, "fusion_lon": 0.0, "fusion_lat": 0.0, "type": "electric_scooter", "name": "ee1ce0dcb149f89c9a1841b892b30976", "is_disabled": 0, "rental_uris": {"ios": "https://dc.lft.to/lastmile_qr_scan", "android": "https://dc.lft.to/lastmile_qr_scan"}, "is_reserved": 0}, {"lon": -77.0326465, "bike_id": "967972d13207d9a29fa29701c27293d7", "lat": 38.897177, "fusion_lon": 0.0, "fusion_lat": 0.0, "type": "electric_bike", "name": "967972d13207d9a29fa29701c27293d7", "is_disabled": 0, "rental_uris": {"ios": "https://dc.lft.to/lastmile_qr_scan", "android": "https://dc.lft.to/lastmile_qr_scan"}, "is_reserved": 0}, {"lon": -76.95015133333334, "bike_id": "2314f82053417ab5abefa14dbfbbb129", "lat": 38.893993333333334, "fusion_lon": 0.0, "fusion_lat": 0.0, "type": "electric_scooter", "name": "2314f82053417ab5abefa14dbfbbb129", "is_disabled": 0, "rental_uris": {"ios": "https://dc.lft.to/lastmile_qr_scan", "android": "https://dc.lft.to/lastmile_qr_scan"}, "is_reserved": 0}, {"lon": -77.04320066666666, "bike_id": "b1b12cbc1b12d233192366be88adb5f6", "lat": 38.9187325, "fusion_lon": 0.0, "fusion_lat": 0.0, "type": "electric_scooter", "name": "b1b12cbc1b12d233192366be88adb5f6", "is_disabled": 0, "rental_uris": {"ios": "https://dc.lft.to/lastmile_qr_scan", "android": "https://dc.lft.to/lastmile_qr_scan"}, "is_reserved": 0}, {"lon": -76.98533666666667, "bike_id": "70def616d6c4684bec8944341cd0ac56", "lat": 38.91021633333333, "fusion_lon": 0.0, "fusion_lat": 0.0, "type": "electric_scooter", "name": "70def616d6c4684bec8944341cd0ac56", "is_disabled": 0, "rental_uris": {"ios": "https://dc.lft.to/lastmile_qr_scan", "android": "https://dc.lft.to/lastmile_qr_scan"}, "is_reserved": 0}, {"lon": -77.0269495, "bike_id": "ef2bf20de8a73083e7eda6e4fd8c5e7f", "lat": 38.94884883333334, "fusion_lon": 0.0, "fusion_lat": 0.0, "type": "electric_scooter", "name": "ef2bf20de8a73083e7eda6e4fd8c5e7f", "is_disabled": 0, "rental_uris": {"ios": "https://dc.lft.to/lastmile_qr_scan", "android": "https://dc.lft.to/lastmile_qr_scan"}, "is_reserved": 0}, {"lon": -77.03669683333334, "bike_id": "36a726a79d96c0f15047dd4ca4e19929", "lat": 38.92104116666667, "fusion_lon": 0.0, "fusion_lat": 0.0, "type": "electric_scooter", "name": "36a726a79d96c0f15047dd4ca4e19929", "is_disabled": 0, "rental_uris": {"ios": "https://dc.lft.to/lastmile_qr_scan", "android": "https://dc.lft.to/lastmile_qr_scan"}, "is_reserved": 0}, {"lon": -77.02680266666667, "bike_id": "5d9862bdc3652b84652b2f8dec8e8bf0", "lat": 38.98486, "fusion_lon": 0.0, "fusion_lat": 0.0, "type": "electric_scooter", "name": "5d9862bdc3652b84652b2f8dec8e8bf0", "is_disabled": 0, "rental_uris": {"ios": "https://dc.lft.to/lastmile_qr_scan", "android": "https://dc.lft.to/lastmile_qr_scan"}, "is_reserved": 0}, {"lon": -77.04259016666667, "bike_id": "98b2ea92ab108744e63eede90e909087", "lat": 38.91698566666667, "fusion_lon": 0.0, "fusion_lat": 0.0, "type": "electric_scooter", "name": "98b2ea92ab108744e63eede90e909087", "is_disabled": 0, "rental_uris": {"ios": "https://dc.lft.to/lastmile_qr_scan", "android": "https://dc.lft.to/lastmile_qr_scan"}, "is_reserved": 0}, {"lon": -77.01540433333334, "bike_id": "20ad1508f8aa69581de901aefb28cf06", "lat": 38.883316, "fusion_lon": 0.0, "fusion_lat": 0.0, "type": "electric_scooter", "name": "20ad1508f8aa69581de901aefb28cf06", "is_disabled": 0, "rental_uris": {"ios": "https://dc.lft.to/lastmile_qr_scan", "android": "https://dc.lft.to/lastmile_qr_scan"}, "is_reserved": 0}, {"lon": -77.04504483333334, "bike_id": "ac1a893336e3202b47f71c336f1cc57a", "lat": 38.90721466666667, "fusion_lon": 0.0, "fusion_lat": 0.0, "type": "electric_scooter", "name": "ac1a893336e3202b47f71c336f1cc57a", "is_disabled": 0, "rental_uris": {"ios": "https://dc.lft.to/lastmile_qr_scan", "android": "https://dc.lft.to/lastmile_qr_scan"}, "is_reserved": 0}, {"lon": -77.002264, "bike_id": "e7c6e554f6073cf87d3cb99f92ce85a4", "lat": 38.8920075, "fusion_lon": 0.0, "fusion_lat": 0.0, "type": "electric_scooter", "name": "e7c6e554f6073cf87d3cb99f92ce85a4", "is_disabled": 0, "rental_uris": {"ios": "https://dc.lft.to/lastmile_qr_scan", "android": "https://dc.lft.to/lastmile_qr_scan"}, "is_reserved": 0}, {"lon": -77.027169, "bike_id": "c82172fa33ec19c483b004b5a106fa76", "lat": 38.90670466666667, "fusion_lon": 0.0, "fusion_lat": 0.0, "type": "electric_scooter", "name": "c82172fa33ec19c483b004b5a106fa76", "is_disabled": 0, "rental_uris": {"ios": "https://dc.lft.to/lastmile_qr_scan", "android": "https://dc.lft.to/lastmile_qr_scan"}, "is_reserved": 0}, {"lon": -77.014915, "bike_id": "32373dc39860986decdf02a34a1fbcd4", "lat": 38.926889833333334, "fusion_lon": 0.0, "fusion_lat": 0.0, "type": "electric_scooter", "name": "32373dc39860986decdf02a34a1fbcd4", "is_disabled": 0, "rental_uris": {"ios": "https://dc.lft.to/lastmile_qr_scan", "android": "https://dc.lft.to/lastmile_qr_scan"}, "is_reserved": 0}, {"lon": -77.02157933333334, "bike_id": "c6955561e01c861b323c01fd927954c3", "lat": 38.9260095, "fusion_lon": 0.0, "fusion_lat": 0.0, "type": "electric_scooter", "name": "c6955561e01c861b323c01fd927954c3", "is_disabled": 0, "rental_uris": {"ios": "https://dc.lft.to/lastmile_qr_scan", "android": "https://dc.lft.to/lastmile_qr_scan"}, "is_reserved": 0}, {"lon": -77.0634795, "bike_id": "348af03a7e959c940afbcf1e578d1adb", "lat": 38.944477666666664, "fusion_lon": 0.0, "fusion_lat": 0.0, "type": "electric_scooter", "name": "348af03a7e959c940afbcf1e578d1adb", "is_disabled": 0, "rental_uris": {"ios": "https://dc.lft.to/lastmile_qr_scan", "android": "https://dc.lft.to/lastmile_qr_scan"}, "is_reserved": 0}, {"lon": -77.04466966666666, "bike_id": "0894772a25024ef27790d678de91bed5", "lat": 38.90050183333334, "fusion_lon": 0.0, "fusion_lat": 0.0, "type": "electric_scooter", "name": "0894772a25024ef27790d678de91bed5", "is_disabled": 0, "rental_uris": {"ios": "https://dc.lft.to/lastmile_qr_scan", "android": "https://dc.lft.to/lastmile_qr_scan"}, "is_reserved": 0}, {"lon": -77.03221816666667, "bike_id": "36815f9a287312e09e8502a84e3d6f31", "lat": 38.914069833333336, "fusion_lon": 0.0, "fusion_lat": 0.0, "type": "electric_scooter", "name": "36815f9a287312e09e8502a84e3d6f31", "is_disabled": 0, "rental_uris": {"ios": "https://dc.lft.to/lastmile_qr_scan", "android": "https://dc.lft.to/lastmile_qr_scan"}, "is_reserved": 0},