{"data": {"bikes": [{"lat": 38.9224785, "is_disabled": 0, "type": "electric_scooter", "lon": -77.033934, "bike_id": "0ceef6635803ae3b32487936a93bf401", "fusion_lat": 0.0, "name": "0ceef6635803ae3b32487936a93bf401", "is_reserved": 0, "rental_uris": {"android": "https://dc.lft.to/lastmile_qr_scan", "ios": "https://dc.lft.to/lastmile_qr_scan"}, "fusion_lon": 0.0}, {"lat": 38.8961015, "is_disabled": 0, "type": "electric_scooter", "lon": -77.0266965, "bike_id": "c72d2d86ebdaa179684b8ee8c15c9473", "fusion_lat": 0.0, "name": "c72d2d86ebdaa179684b8ee8c15c9473", "is_reserved": 0, "rental_uris": {"android": "https://dc.lft.to/lastmile_qr_scan", "ios": "https://dc.lft.to/lastmile_qr_scan"}, "fusion_lon": 0.0}, {"lat": 38.90061983333333, "is_disabled": 0, "type": "electric_scooter", "lon": -77.00220783333333, "bike_id": "cd8f0e3a7c22c96c5c064fc565d898fc", "fusion_lat": 0.0, "name": "cd8f0e3a7c22c96c5c064fc565d898fc", "is_reserved": 0, "rental_uris": {"android": "https://dc.lft.to/lastmile_qr_scan", "ios": "https://dc.lft.to/lastmile_qr_scan"}, "fusion_lon": 0.0}, {"lat": 38.851903166666666, "is_disabled": 0, "type": "electric_bike", "lon": -76.96111933333333, "bike_id": "1dfa2f73c28cb5a2c593514577ecadda", "fusion_lat": 0.0, "name": "1dfa2f73c28cb5a2c593514577ecadda", "is_reserved": 0, "rental_uris": {"android": "https://dc.lft.to/lastmile_qr_scan", "ios": "https://dc.lft.to/lastmile_qr_scan"}, "fusion_lon": 0.0}, {"lat": 38.94096833333333, "is_disabled": 0, "type": "electric_scooter", "lon": -77.02109433333334, "bike_id": "b15755defcf84781a45417648d65c194", "fusion_lat": 0.0, "name": "b15755defcf84781a45417648d65c194", "is_reserved": 0, "rental_uris": {"android": "https://dc.lft.to/lastmile_qr_scan", "ios": "https://dc.lft.to/lastmile_qr_scan"}, "fusion_lon": 0.0}, {"lat": 38.85516916666667, "is_disabled": 0, "type": "electric_bike", "lon": -77.12020066666666, "bike_id": "0c0470cdbfb6c52715b1ff29ccfcf626", "fusion_lat": 0.0, "name": "0c0470cdbfb6c52715b1ff29ccfcf626", "is_reserved": 0, "rental_uris": {"android": "https://dc.lft.to/lastmile_qr_scan", "ios": "https://dc.lft.to/lastmile_qr_scan"}, "fusion_lon": 0.0}, {"lat": 38.90831216666667, "is_disabled": 0, "type": "electric_scooter", "lon": -77.038366, "bike_id": "9547f8ba951b97bdd85277d5b09a5f5b", "fusion_lat": 0.0, "name": "9547f8ba951b97bdd85277d5b09a5f5b", "is_reserved": 0, "rental_uris": {"android": "https://dc.lft.to/lastmile_qr_scan", "ios": "https://dc.lft.to/lastmile_qr_scan"}, "fusion_lon": 0.0}, {"lat": 38.944334833333336, "is_disabled": 0, "type": "electric_scooter", "lon": -77.015036, "bike_id": "a35712664aa03da2753580c330df1e94", "fusion_lat": 0.0, "name": "a35712664aa03da2753580c330df1e94", "is_reserved": 0, "rental_uris": {"android": "https://dc.lft.to/lastmile_qr_scan", "ios": "https://dc.lft.to/lastmile_qr_scan"}, "fusion_lon": 0.0}, {"lat": 38.943897, "is_disabled": 0, "type": "electric_scooter", "lon": -77.01983883333334, "bike_id": "3a3a79da4bd2fe9128974ad6d6fd3d34", "fusion_lat": 0.0, "name": "3a3a79da4bd2fe9128974ad6d6fd3d34", "is_reserved": 0, "rental_uris": {"android": "https://dc.lft.to/lastmile_qr_scan", "ios": "https://dc.lft.to/lastmile_qr_scan"}, "fusion_lon": 0.0}, {"lat": 38.917082, "is_disabled": 0, "type": "electric_scooter", "lon": -77.0295595, "bike_id": "a7fe8fedeed7dd3a0bf08408ce2a0f27", "fusion_lat": 0.0, "name": "a7fe8fedeed7dd3a0bf08408ce2a0f27", "is_reserved": 0, "rental_uris": {"android": "https://dc.lft.to/lastmile_qr_scan", "ios": "https://dc.lft.to/lastmile_qr_scan"}, "fusion_lon": 0.0}, {"lat": 38.902104666666666, "is_disabled": 0, "type": "electric_scooter", "lon": -77.02675216666667, "bike_id": "dc9dbe7768fa9fdb11e7a8fb7024133d", "fusion_lat": 0.0, "name": "dc9dbe7768fa9fdb11e7a8fb7024133d", "is_reserved": 0, "rental_uris": {"android": "https://dc.lft.to/lastmile_qr_scan", "ios": "https://dc.lft.to/lastmile_qr_scan"}, "fusion_lon": 0.0}, {"lat": 38.91254083333333, "is_disabled": 0, "type": "electric_scooter", "lon": -77.0380235, "bike_id": "d34e39c1951408cb138a8c9103b57d2e", "fusion_lat": 0.0, "name": "d34e39c1951408cb138a8c9103b57d2e", "is_reserved": 0, "rental_uris": {"android": "https://dc.lft.to/lastmile_qr_scan", "ios": "https://dc.lft.to/lastmile_qr_scan"}, "fusion_lon": 0.0}, {"lat": 38.8974165, "is_disabled": 0, "type": "electric_scooter", "lon": -77.02391216666666, "bike_id": "1ee0efaacb11beb88daade57b6fad8b7", "fusion_lat": 0.0, "name": "1ee0efaacb11beb88daade57b6fad8b7", "is_reserved": 0, "rental_uris": {"android": "https://dc.lft.to/lastmile_qr_scan", "ios": "https://dc.lft.to/lastmile_qr_scan"}, "fusion_lon": 0.0}, {"lat": 38.90371233333333, "is_disabled": 0, "type": "electric_scooter", "lon": -76.99232433333333, "bike_id": "f9d67c3bc71963026e523b14f7951e59", "fusion_lat": 0.0, "name": "f9d67c3bc71963026e523b14f7951e59", "is_reserved": 0, "rental_uris": {"android": "https://dc.lft.to/lastmile_qr_scan", "ios": "https://dc.lft.to/lastmile_qr_scan"}, "fusion_lon": 0.0}, {"lat": 38.93473566666667, "is_disabled": 0, "type": "electric_scooter", "lon": -77.041154, "bike_id": "19043e8b07d7dfa40c6ed86bb07373c4", "fusion_lat": 0.0, "name": "19043e8b07d7dfa40c6ed86bb07373c4", "is_reserved": 0, "rental_uris": {"android": "https://dc.lft.to/lastmile_qr_scan", "ios": "https://dc.lft.to/lastmile_qr_scan"}, "fusion_lon": 0.0}, {"lat": 38.895118833333335, "is_disabled": 0, "type": "electric_bike", "lon": -77.02691483333334, "bike_id": "765c893518324c01bf4a6aac4eb88648", "fusion_lat": 0.0, "name": "765c893518324c01bf4a6aac4eb88648", "is_reserved": 0, "rental_uris": {"android": "https://dc.lft.to/lastmile_qr_scan", "ios": "https://dc.lft.to/lastmile_qr_scan"}, "fusion_lon": 0.0}, {"lat": 38.8973355, "is_disabled": 0, "type": "electric_scooter", "lon": -77.00751216666667, "bike_id": "cae1e17ca5e2a27697e47fe26d7c0258", "fusion_lat": 0.0, "name": "cae1e17ca5e2a27697e47fe26d7c0258", "is_reserved": 0, "rental_uris": {"android": "https://dc.lft.to/lastmile_qr_scan", "ios": "https://dc.lft.to/lastmile_qr_scan"}, "fusion_lon": 0.0}, {"lat": 38.89550833333333, "is_disabled": 0, "type": "electric_scooter", "lon": -77.00918366666667, "bike_id": "4dd00f1028b70a191721bc8dfd799500", "fusion_lat": 0.0, "name": "4dd00f1028b70a191721bc8dfd799500", "is_reserved": 0, "rental_uris": {"android": "https://dc.lft.to/lastmile_qr_scan", "ios": "https://dc.lft.to/lastmile_qr_scan"}, "fusion_lon": 0.0}, {"lat": 38.90059466666666, "is_disabled": 0, "type": "electric_scooter", "lon": -77.0502835, "bike_id": "1d88a96d93417010aa72a486feb3d599", "fusion_lat": 0.0, "name": "1d88a96d93417010aa72a486feb3d599", "is_reserved": 0, "rental_uris": {"android": "https://dc.lft.to/lastmile_qr_scan", "ios": "https://dc.lft.to/lastmile_qr_scan"}, "fusion_lon": 0.0}, {"lat": 38.90280383333333, "is_disabled": 0, "type": "electric_scooter", "lon": -77.03654316666666, "bike_id": "09d2c073bff3d9f2ccb68d657f6fb985", "fusion_lat": 0.0, "name": "09d2c073bff3d9f2ccb68d657f6fb985", "is_reserved": 0, "rental_uris": {"android": "https://dc.lft.to/lastmile_qr_scan", "ios": "https://dc.lft.to/lastmile_qr_scan"}, "fusion_lon": 0.0}, {"lat": 38.91633483333333, "is_disabled": 0, "type": "electric_scooter", "lon": -77.0256065, "bike_id": "ee400de5c58650e3220481ee2d7f75b6", "fusion_lat": 0.0, "name": "ee400de5c58650e3220481ee2d7f75b6", "is_reserved": 0, "rental_uris": {"android": "https://dc.lft.to/lastmile_qr_scan", "ios": "https://dc.lft.to/lastmile_qr_scan"}, "fusion_lon": 0.0}, {"lat": 38.905007, "is_disabled": 0, "type": "electric_scooter", "lon": -77.04823033333334, "bike_id": "d3c1179b507e0df6e4f255337cca4370", "fusion_lat": 0.0, "name": "d3c1179b507e0df6e4f255337cca4370", "is_reserved": 0, "rental_uris": {"android": "https://dc.lft.to/lastmile_qr_scan", "ios": "https://dc.lft.to/lastmile_qr_scan"}, "fusion_lon": 0.0}, {"lat": 38.934971166666664, "is_disabled": 0, "type": "electric_scooter", "lon": -77.02731766666666, "bike_id": "7874e237a41e5ae0cdb13b97c79a0bc8", "fusion_lat": 0.0, "name": "7874e237a41e5ae0cdb13b97c79a0bc8", "is_reserved": 0, "rental_uris": {"android": "https://dc.lft.to/lastmile_qr_scan", "ios": "https://dc.lft.to/lastmile_qr_scan"}, "fusion_lon": 0.0}, {"lat": 38.922821666666664, "is_disabled": 0, "type": "electric_scooter", "lon": -77.02965516666667, "bike_id": "a64ec3bbd44d0bcea5552f0305d1e5b4", "fusion_lat": 0.0, "name": "a64ec3bbd44d0bcea5552f0305d1e5b4", "is_reserved": 0, "rental_uris": {"android": "https://dc.lft.to/lastmile_qr_scan", "ios": "https://dc.lft.to/lastmile_qr_scan"}, "fusion_lon": 0.0}, {"lat": 38.93080783333333, "is_disabled": 0, "type": "electric_scooter", "lon": -77.03745, "bike_id": "e0d01e1def151707fc1d06ca4b5764d1", "fusion_lat": 0.0, "name": "e0d01e1def151707fc1d06ca4b5764d1", "is_reserved": 0, "rental_uris": {"android": "https://dc.lft.to/lastmile_qr_scan", "ios": "https://dc.lft.to/lastmile_qr_scan"}, "fusion_lon": 0.0}, {"lat": 38.91201083333333, "is_disabled": 0, "type": "electric_scooter", "lon": -77.0146595, "bike_id": "b84826075a510125ec160d7dd5533acc", "fusion_lat": 0.0, "name": "b84826075a510125ec160d7dd5533acc", "is_reserved": 0, "rental_uris": {"android": "https://dc.lft.to/lastmile_qr_scan", "ios": "https://dc.lft.to/lastmile_qr_scan"}, "fusion_lon": 0.0}, {"lat": 38.8934535, "is_disabled": 0, "type": "electric_scooter", "lon": -77.041613, "bike_id": "81d818c98be62dd2f59fc7b2ad2cf537", "fusion_lat": 0.0, "name": "81d818c98be62dd2f59fc7b2ad2cf537", "is_reserved": 0, "rental_uris": {"android": "https://dc.lft.to/lastmile_qr_scan", "ios": "https://dc.lft.to/lastmile_qr_scan"}, "fusion_lon": 0.0}, {"lat": 38.91862033333334, "is_disabled": 0, "type": "electric_scooter", "lon": -77.03180183333333, "bike_id": "b5e57e7c02d210af79f1bb65cd6cf983", "fusion_lat": 0.0, "name": "b5e57e7c02d210af79f1bb65cd6cf983", "is_reserved": 0, "rental_uris": {"android": "https://dc.lft.to/lastmile_qr_scan", "ios": "https://dc.lft.to/lastmile_qr_scan"}, "fusion_lon": 0.0}, {"lat": 38.9548335, "is_disabled": 0, "type": "electric_scooter", "lon": -77.06555933333334, "bike_id": "8d08017abcc7871bd38523832da1b85f", "fusion_lat": 0.0, "name": "8d08017abcc7871bd38523832da1b85f", "is_reserved": 0, "rental_uris": {"android": "https://dc.lft.to/lastmile_qr_scan", "ios": "https://dc.lft.to/lastmile_qr_scan"}, "fusion_lon": 0.0}, {"lat": 38.9118615, "is_disabled": 0, "type": "electric_scooter", "lon": -77.03425333333334, "bike_id": "131fb1d7268c17f9e8e28f25124214b3", "fusion_lat": 0.0, "name": "131fb1d7268c17f9e8e28f25124214b3", "is_reserved": 0, "rental_uris": {"android": "https://dc.lft.to/lastmile_qr_scan", "ios": "https://dc.lft.to/lastmile_qr_scan"}, "fusion_lon": 0.0}, {"lat": 38.865579, "is_disabled": 0, "type": "electric_scooter", "lon": -76.97391366666666, "bike_id": "12b0814b2cc977f90c6c957e7d71e370", "fusion_lat": 0.0, "name": "12b0814b2cc977f90c6c957e7d71e370", "is_reserved": 0, "rental_uris": {"android": "https://dc.lft.to/lastmile_qr_scan", "ios": "https://dc.lft.to/lastmile_qr_scan"}, "fusion_lon": 0.0}, {"lat": 38.953306, "is_disabled": 0, "type": "electric_bike", "lon": -76.973685, "bike_id": "14ed249219101defb9c49de6d3b058ad", "fusion_lat": 0.0, "name": "14ed249219101defb9c49de6d3b058ad", "is_reserved": 0, "rental_uris": {"android": "https://dc.lft.to/lastmile_qr_scan", "ios": "https://dc.lft.to/lastmile_qr_scan"}, "fusion_lon": 0.0}, {"lat": 38.934588833333336, "is_disabled": 0, "type": "electric_scooter", "lon": -77.06195716666667, "bike_id": "82a5e39e95e86d230e481267b120d362", "fusion_lat": 0.0, "name": "82a5e39e95e86d230e481267b120d362", "is_reserved": 0, "rental_uris": {"android": "https://dc.lft.to/lastmile_qr_scan", "ios": "https://dc.lft.to/lastmile_qr_scan"}, "fusion_lon": 0.0}, {"lat": 38.94162933333333, "is_disabled": 0, "type": "electric_scooter", "lon": -77.04139516666666, "bike_id": "defa5fbfa6559bd32f9bbaf4e382d039", "fusion_lat": 0.0, "name": "defa5fbfa6559bd32f9bbaf4e382d039", "is_reserved": 0, "rental_uris": {"android": "https://dc.lft.to/lastmile_qr_scan", "ios": "https://dc.lft.to/lastmile_qr_scan"}, "fusion_lon": 0.0}, {"lat": 38.863838333333334, "is_disabled": 0, "type": "electric_bike", "lon": -76.98989983333334, "bike_id": "ad0caad5049371ab0bd20ef7b82976f0", "fusion_lat": 0.0, "name": "ad0caad5049371ab0bd20ef7b82976f0", "is_reserved": 0, "rental_uris": {"android": "https://dc.lft.to/lastmile_qr_scan", "ios": "https://dc.lft.to/lastmile_qr_scan"}, "fusion_lon": 0.0}, {"lat": 39.0000725, "is_disabled": 0, "type": "electric_bike", "lon": -76.910787, "bike_id": "765d7fd80a07789f403efb13e0a7bd08", "fusion_lat": 0.0, "name": "765d7fd80a07789f403efb13e0a7bd08", "is_reserved": 0, "rental_uris": {"android": "https://dc.lft.to/lastmile_qr_scan", "ios": "https://dc.lft.to/lastmile_qr_scan"}, "fusion_lon": 0.0}, {"lat": 38.9275025, "is_disabled": 0, "type": "electric_scooter", "lon": -77.0296315, "bike_id": "501dc9c1f406c6e5c19ca3c54936e8de", "fusion_lat": 0.0, "name": "501dc9c1f406c6e5c19ca3c54936e8de", "is_reserved": 0, "rental_uris": {"android": "https://dc.lft.to/lastmile_qr_scan", "ios": "https://dc.lft.to/lastmile_qr_scan"}, "fusion_lon": 0.0}, {"lat": 38.910893, "is_disabled": 0, "type": "electric_scooter", "lon": -77.03185233333333, "bike_id": "e541cbaf7470afbe4e6a597e7d80893d", "fusion_lat": 0.0, "name": "e541cbaf7470afbe4e6a597e7d80893d", "is_reserved": 0, "rental_uris": {"android": "https://dc.lft.to/lastmile_qr_scan", "ios": "https://dc.lft.to/lastmile_qr_scan"}, "fusion_lon": 0.0}, {"lat": 38.916942666666664, "is_disabled": 0, "type": "electric_scooter", "lon": -77.04275166666666, "bike_id": "cfb5d22be6d9565faf2dd535f4af495b", "fusion_lat": 0.0, "name": "cfb5d22be6d9565faf2dd535f4af495b", "is_reserved": 0, "rental_uris": {"android": "https://dc.lft.to/lastmile_qr_scan", "ios": "https://dc.lft.to/lastmile_qr_scan"}, "fusion_lon": 0.0}, {"lat": 38.92461683333333, "is_disabled": 0, "type": "electric_bike", "lon": -77.20834483333333, "bike_id": "6de7806cafd02f91ff911f77322b3f68", "fusion_lat": 0.0, "name": "6de7806cafd02f91ff911f77322b3f68", "is_reserved": 0, "rental_uris": {"android": "https://dc.lft.to/lastmile_qr_scan", "ios": "https://dc.lft.to/lastmile_qr_scan"}, "fusion_lon": 0.0}, {"lat": 38.91000966666667, "is_disabled": 0, "type": "electric_scooter", "lon": -77.0151255, "bike_id": "7e8e8a4838fa33873674eedd0aff2aaf", "fusion_lat": 0.0, "name": "7e8e8a4838fa33873674eedd0aff2aaf", "is_reserved": 0, "rental_uris": {"android": "https://dc.lft.to/lastmile_qr_scan", "ios": "https://dc.lft.to/lastmile_qr_scan"}, "fusion_lon": 0.0}, {"lat": 38.8425265, "is_disabled": 0, "type": "electric_bike", "lon": -77.05836983333333, "bike_id": "14de9570d75e2180d325b4cf08eb4d9e", "fusion_lat": 0.0, "name": "14de9570d75e2180d325b4cf08eb4d9e", "is_reserved": 0, "rental_uris": {"android": "https://dc.lft.to/lastmile_qr_scan", "ios": "https://dc.lft.to/lastmile_qr_scan"}, "fusion_lon": 0.0}, {"lat": 38.906842833333336, "is_disabled": 0, "type": "electric_scooter", "lon": -77.01014283333333, "bike_id": "84f714651e9f6edf5d02e27404866c77", "fusion_lat": 0.0, "name": "84f714651e9f6edf5d02e27404866c77", "is_reserved": 0, "rental_uris": {"android": "https://dc.lft.to/lastmile_qr_scan", "ios": "https://dc.lft.to/lastmile_qr_scan"}, "fusion_lon": 0.0}, {"lat": 38.920483833333336, "is_disabled": 0, "type": "electric_scooter", "lon": -77.034429, "bike_id": "3989dabf3bbd597d4f74cb145ea81306", "fusion_lat": 0.0, "name": "3989dabf3bbd597d4f74cb145ea81306", "is_reserved": 0, "rental_uris": {"android": "https://dc.lft.to/lastmile_qr_scan", "ios": "https://dc.lft.to/lastmile_qr_scan"}, "fusion_lon": 0.0}, {"lat": 38.929772666666665, "is_disabled": 0, "type": "electric_scooter", "lon": -77.032791, "bike_id": "6b0fabf6c147809c04bc947efab744bc", "fusion_lat": 0.0, "name": "6b0fabf6c147809c04bc947efab744bc", "is_reserved": 0, "rental_uris": {"android": "https://dc.lft.to/lastmile_qr_scan", "ios": "https://dc.lft.to/lastmile_qr_scan"}, "fusion_lon": 0.0}, {"lat": 38.908304666666666, "is_disabled": 0, "type": "electric_scooter", "lon": -76.99701716666667, "bike_id": "c375c96f03aa6e892ca0333c5ee185b2", "fusion_lat": 0.0, "name": "c375c96f03aa6e892ca0333c5ee185b2", "is_reserved": 0, "rental_uris": {"android": "https://dc.lft.to/lastmile_qr_scan", "ios": "https://dc.lft.to/lastmile_qr_scan"}, "fusion_lon": 0.0}, {"lat": 38.9170895, "is_disabled": 0, "type": "electric_scooter", "lon": -77.03251633333333, "bike_id": "27eb78534b8886ca77aed39a8c23bf30", "fusion_lat": 0.0, "name": "27eb78534b8886ca77aed39a8c23bf30", "is_reserved": 0, "rental_uris": {"android": "https://dc.lft.to/lastmile_qr_scan", "ios": "https://dc.lft.to/lastmile_qr_scan"}, "fusion_lon": 0.0}, {"lat": 38.911252, "is_disabled": 0, "type": "electric_scooter", "lon": -77.0032995, "bike_id": "0bd0b334f516c733cc5b954d457b5242", "fusion_lat": 0.0, "name": "0bd0b334f516c733cc5b954d457b5242", "is_reserved": 0, "rental_uris": {"android": "https://dc.lft.to/lastmile_qr_scan", "ios": "https://dc.lft.to/lastmile_qr_scan"}, "fusion_lon": 0.0}, {"lat": 38.894997333333336, "is_disabled": 0, "type": "electric_scooter", "lon": -77.00326166666666, "bike_id": "94a08eef95a6c5281b6127be967375b7", "fusion_lat": 0.0, "name": "94a08eef95a6c5281b6127be967375b7", "is_reserved": 0, "rental_uris": {"android": "https://dc.lft.to/lastmile_qr_scan", "ios": "https://dc.lft.to/lastmile_qr_scan"}, "fusion_lon": 0.0}, {"lat": 38.87061166666667, "is_disabled": 0, "type": "electric_scooter", "lon": -77.00841633333333, "bike_id": "a75e8d8ab18c3507490c00a2ab604af4", "fusion_lat": 0.0, "name": "a75e8d8ab18c3507490c00a2ab604af4", "is_reserved": 0, "rental_uris": {"android": "https://dc.lft.to/lastmile_qr_scan", "ios": "https://dc.lft.to/lastmile_qr_scan"}, "fusion_lon": 0.0}, {"lat": 38.927041333333335, "is_disabled": 0, "type": "electric_scooter", "lon": -77.02085616666666, "bike_id": "322853dc6de3a00f2c12d649c9b34275", "fusion_lat": 0.0, "name": "322853dc6de3a00f2c12d649c9b34275", "is_reserved": 0, "rental_uris": {"android": "https://dc.lft.to/lastmile_qr_scan", "ios": "https://dc.lft.to/lastmile_qr_scan"}, "fusion_lon": 0.0}, {"lat": 38.881881, "is_disabled": 0, "type": "electric_scooter", "lon": -76.99623333333334, "bike_id": "d7df577e9f1f5bb8e15cb215b5f7583e", "fusion_lat": 0.0, "name": "d7df577e9f1f5bb8e15cb215b5f7583e", "is_reserved": 0, "rental_uris": {"android": "https://dc.lft.to/lastmile_qr_scan", "ios": "https://dc.lft.to/lastmile_qr_scan"}, "fusion_lon": 0.0}, {"lat": 38.919937166666664, "is_disabled": 0, "type": "electric_scooter", "lon": -77.03234566666667, "bike_id": "b09ba390673caf86f6f25dea154f5793", "fusion_lat": 0.0, "name": "b09ba390673caf86f6f25dea154f5793", "is_reserved": 0, "rental_uris": {"android": "https://dc.lft.to/lastmile_qr_scan", "ios": "https://dc.lft.to/lastmile_qr_scan"}, "fusion_lon": 0.0}, {"lat": 38.931102833333334, "is_disabled": 0, "type": "electric_scooter", "lon": -77.03067733333333, "bike_id": "0a249ab0e7129d5eb67451e6015e74c5", "fusion_lat": 0.0, "name": "0a249ab0e7129d5eb67451e6015e74c5", "is_reserved": 0, "rental_uris": {"android": "https://dc.lft.to/lastmile_qr_scan", "ios": "https://dc.lft.to/lastmile_qr_scan"}, "fusion_lon": 0.0}, {"lat": 38.930646, "is_disabled": 0, "type": "electric_scooter", "lon": -77.0403155, "bike_id": "895609c92d86327fd4ae3ff5e2eedb2c", "fusion_lat": 0.0, "name": "895609c92d86327fd4ae3ff5e2eedb2c", "is_reserved": 0, "rental_uris": {"android": "https://dc.lft.to/lastmile_qr_scan", "ios": "https://dc.lft.to/lastmile_qr_scan"}, "fusion_lon": 0.0}, {"lat": 38.8592825, "is_disabled": 0, "type": "electric_scooter", "lon": -76.9898085, "bike_id": "18dff2396860a0eb0965402107748669", "fusion_lat": 0.0, "name": "18dff2396860a0eb0965402107748669", "is_reserved": 0, "rental_uris": {"android": "https://dc.lft.to/lastmile_qr_scan", "ios": "https://dc.lft.to/lastmile_qr_scan"}, "fusion_lon": 0.0}, {"lat": 38.905804333333336, "is_disabled": 0, "type": "electric_scooter", "lon": -77.03787166666666, "bike_id": "79b87c343eaa0b505f1620568e506846", "fusion_lat": 0.0, "name": "79b87c343eaa0b505f1620568e506846", "is_reserved": 0, "rental_uris": {"android": "https://dc.lft.to/lastmile_qr_scan", "ios": "https://dc.lft.to/lastmile_qr_scan"}, "fusion_lon": 0.0}, {"lat": 38.923977666666666, "is_disabled": 0, "type": "electric_scooter", "lon": -77.042771, "bike_id": "13c134eb916e1a72a535cffb561622a5", "fusion_lat": 0.0, "name": "13c134eb916e1a72a535cffb561622a5", "is_reserved": 0, "rental_uris": {"android": "https://dc.lft.to/lastmile_qr_scan", "ios": "https://dc.lft.to/lastmile_qr_scan"}, "fusion_lon": 0.0}, {"lat": 38.92062416666667, "is_disabled": 0, "type": "electric_scooter", "lon": -77.03210033333333, "bike_id": "9c9f836f0f38e3acc26ae6e9e4a539ad", "fusion_lat": 0.0, "name": "9c9f836f0f38e3acc26ae6e9e4a539ad", "is_reserved": 0, "rental_uris": {"android": "https://dc.lft.to/lastmile_qr_scan", "ios": "https://dc.lft.to/lastmile_qr_scan"}, "fusion_lon": 0.0}, {"lat": 38.91203383333333, "is_disabled": 0, "type": "electric_scooter", "lon": -77.004372, "bike_id": "a0417ca7353314bc6224d838b3d4a4da", "fusion_lat": 0.0, "name": "a0417ca7353314bc6224d838b3d4a4da", "is_reserved": 0, "rental_uris": {"android": "https://dc.lft.to/lastmile_qr_scan", "ios": "https://dc.lft.to/lastmile_qr_scan"}, "fusion_lon": 0.0}, {"lat": 38.91551416666667, "is_disabled": 0, "type": "electric_scooter", "lon": -77.03869016666667, "bike_id": "f0de45dc7730575c7ade097552c297df", "fusion_lat": 0.0, "name": "f0de45dc7730575c7ade097552c297df", "is_reserved": 0, "rental_uris": {"android": "https://dc.lft.to/lastmile_qr_scan", "ios": "https://dc.lft.to/lastmile_qr_scan"}, "fusion_lon": 0.0}, {"lat": 38.9261, "is_disabled": 0, "type": "electric_scooter", "lon": -76.99606433333334, "bike_id": "55ee137915bccf29aeffa935e3b0a728", "fusion_lat": 0.0, "name": "55ee137915bccf29aeffa935e3b0a728", "is_reserved": 0, "rental_uris": {"android": "https://dc.lft.to/lastmile_qr_scan", "ios": "https://dc.lft.to/lastmile_qr_scan"}, "fusion_lon": 0.0}, {"lat": 38.86620766666667, "is_disabled": 0, "type": "electric_scooter", "lon": -76.98698733333333, "bike_id": "4020820888a2a7edbe224b9dc6d0819f", "fusion_lat": 0.0, "name": "4020820888a2a7edbe224b9dc6d0819f", "is_reserved": 0, "rental_uris": {"android": "https://dc.lft.to/lastmile_qr_scan", "ios": "https://dc.lft.to/lastmile_qr_scan"}, "fusion_lon": 0.0}, {"lat": 38.88487216666667, "is_disabled": 0, "type": "electric_scooter", "lon": -77.00712583333333, "bike_id": "82d5552199f88bb2217317bcfc0d90fe", "fusion_lat": 0.0, "name": "82d5552199f88bb2217317bcfc0d90fe", "is_reserved": 0, "rental_uris": {"android": "https://dc.lft.to/lastmile_qr_scan", "ios": "https://dc.lft.to/lastmile_qr_scan"}, "fusion_lon": 0.0}, {"lat": 38.907303166666665, "is_disabled": 0, "type": "electric_scooter", "lon": -77.037184, "bike_id": "d6488581228d1612dc92d500d547118c", "fusion_lat": 0.0, "name": "d6488581228d1612dc92d500d547118c", "is_reserved": 0, "rental_uris": {"android": "https://dc.lft.to/lastmile_qr_scan", "ios": "https://dc.lft.to/lastmile_qr_scan"}, "fusion_lon": 0.0}, {"lat": 38.89522683333333, "is_disabled": 0, "type": "electric_scooter", "lon": -77.00212983333333, "bike_id": "0440e6f6cd56f9f0725b2a35032fa5b2", "fusion_lat": 0.0, "name": "0440e6f6cd56f9f0725b2a35032fa5b2", "is_reserved": 0, "rental_uris": {"android": "https://dc.lft.to/lastmile_qr_scan", "ios": "https://dc.lft.to/lastmile_qr_scan"}, "fusion_lon": 0.0}, {"lat": 38.87580666666667, "is_disabled": 0, "type": "electric_bike", "lon": -77.10564216666667, "bike_id": "fa896707c9e7efc02e4ccc02ce3bc57d", "fusion_lat": 0.0, "name": "fa896707c9e7efc02e4ccc02ce3bc57d", "is_reserved": 0, "rental_uris": {"android": "https://dc.lft.to/lastmile_qr_scan", "ios": "https://dc.lft.to/lastmile_qr_scan"}, "fusion_lon": 0.0}, {"lat": 38.942847, "is_disabled": 0, "type": "electric_scooter", "lon": -77.021707, "bike_id": "88e5c3fa94258c93e78e0f65fce8443d", "fusion_lat": 0.0, "name": "88e5c3fa94258c93e78e0f65fce8443d", "is_reserved": 0, "rental_uris": {"android": "https://dc.lft.to/lastmile_qr_scan", "ios": "https://dc.lft.to/lastmile_qr_scan"}, "fusion_lon": 0.0}, {"lat": 38.9052595, "is_disabled": 0, "type": "electric_scooter", "lon": -77.02950433333334, "bike_id": "95722e54688252c7489a244197484f17", "fusion_lat": 0.0, "name": "95722e54688252c7489a244197484f17", "is_reserved": 0, "rental_uris": {"android": "https://dc.lft.to/lastmile_qr_scan", "ios": "https://dc.lft.to/lastmile_qr_scan"}, "fusion_lon": 0.0}, {"lat": 38.84274533333333, "is_disabled": 0, "type": "electric_bike", "lon": -76.98838733333334, "bike_id": "fb95fa3655904c2f5d8f13b395152130", "fusion_lat": 0.0, "name": "fb95fa3655904c2f5d8f13b395152130", "is_reserved": 0, "rental_uris": {"android": "https://dc.lft.to/lastmile_qr_scan", "ios": "https://dc.lft.to/lastmile_qr_scan"}, "fusion_lon": 0.0}, {"lat": 38.88992866666667, "is_disabled": 0, "type": "electric_scooter", "lon": -76.95414466666666, "bike_id": "dc59a590f689d56524fb862c886fe2c4", "fusion_lat": 0.0, "name": "dc59a590f689d56524fb862c886fe2c4", "is_reserved": 0, "rental_uris": {"android": "https://dc.lft.to/lastmile_qr_scan", "ios": "https://dc.lft.to/lastmile_qr_scan"}, "fusion_lon": 0.0}, {"lat": 38.90193683333333, "is_disabled": 0, "type": "electric_scooter", "lon": -77.02409666666667, "bike_id": "ab149b318b58f7599989d5e670d56eae", "fusion_lat": 0.0, "name": "ab149b318b58f7599989d5e670d56eae", "is_reserved": 0, "rental_uris": {"android": "https://dc.lft.to/lastmile_qr_scan", "ios": "https://dc.lft.to/lastmile_qr_scan"}, "fusion_lon": 0.0}, {"lat": 38.91398066666667, "is_disabled": 0, "type": "electric_scooter", "lon": -77.03182666666666, "bike_id": "aa92b8517b49bbc377e1f68a0004cd76", "fusion_lat": 0.0, "name": "aa92b8517b49bbc377e1f68a0004cd76", "is_reserved": 0, "rental_uris": {"android": "https://dc.lft.to/lastmile_qr_scan", "ios": "https://dc.lft.to/lastmile_qr_scan"}, "fusion_lon": 0.0}, {"lat": 38.88531533333333, "is_disabled": 0, "type": "electric_scooter", "lon": -77.0151915, "bike_id": "3da9784f590cde2416efda22e6c0d32b", "fusion_lat": 0.0, "name": "3da9784f590cde2416efda22e6c0d32b", "is_reserved": 0, "rental_uris": {"android": "https://dc.lft.to/lastmile_qr_scan", "ios": "https://dc.lft.to/lastmile_qr_scan"}, "fusion_lon": 0.0}, {"lat": 38.91764166666667, "is_disabled": 0, "type": "electric_scooter", "lon": -77.004541, "bike_id": "763a6bcab0f97b8f15cfe71626c8f110", "fusion_lat": 0.0, "name": "763a6bcab0f97b8f15cfe71626c8f110", "is_reserved": 0, "rental_uris": {"android": "https://dc.lft.to/lastmile_qr_scan", "ios": "https://dc.lft.to/lastmile_qr_scan"}, "fusion_lon": 0.0}, {"lat": 38.915856166666664, "is_disabled": 0, "type": "electric_scooter", "lon": -77.020694, "bike_id": "22982436ac551e72711a3797104eafda", "fusion_lat": 0.0, "name": "22982436ac551e72711a3797104eafda", "is_reserved": 0, "rental_uris": {"android": "https://dc.lft.to/lastmile_qr_scan", "ios": "https://dc.lft.to/lastmile_qr_scan"}, "fusion_lon": 0.0}, {"lat": 38.95739366666667, "is_disabled": 0, "type": "electric_bike", "lon": -77.021736, "bike_id": "9326c402d5303cdf066af4584a433936", "fusion_lat": 0.0, "name": "9326c402d5303cdf066af4584a433936", "is_reserved": 0, "rental_uris": {"android": "https://dc.lft.to/lastmile_qr_scan", "ios": "https://dc.lft.to/lastmile_qr_scan"}, "fusion_lon": 0.0}, {"lat": 38.86592433333333, "is_disabled": 0, "type": "electric_bike", "lon": -76.93228133333334, "bike_id": "68ffa18cee271616c6821395253ef796", "fusion_lat": 0.0, "name": "68ffa18cee271616c6821395253ef796", "is_reserved": 0, "rental_uris": {"android": "https://dc.lft.to/lastmile_qr_scan", "ios": "https://dc.lft.to/lastmile_qr_scan"}, "fusion_lon": 0.0}, {"lat": 38.9216665, "is_disabled": 0, "type": "electric_scooter", "lon": -77.0513845, "bike_id": "2c2e4acdd5b493f17b6e334f2b55f1f4", "fusion_lat": 0.0, "name": "2c2e4acdd5b493f17b6e334f2b55f1f4", "is_reserved": 0, "rental_uris": {"android": "https://dc.lft.to/lastmile_qr_scan", "ios": "https://dc.lft.to/lastmile_qr_scan"}, "fusion_lon": 0.0}, {"lat": 38.86520733333333, "is_disabled": 0, "type": "electric_scooter", "lon": -76.99029216666666, "bike_id": "07cb71d7c397de975f805a81b38ae7e3", "fusion_lat": 0.0, "name": "07cb71d7c397de975f805a81b38ae7e3", "is_reserved": 0, "rental_uris": {"android": "https://dc.lft.to/lastmile_qr_scan", "ios": "https://dc.lft.to/lastmile_qr_scan"}, "fusion_lon": 0.0}, {"lat": 38.89219766666667, "is_disabled": 0, "type": "electric_scooter", "lon": -77.04865266666667, "bike_id": "115372ffabf9609ccd61556785f1bd5a", "fusion_lat": 0.0, "name": "115372ffabf9609ccd61556785f1bd5a", "is_reserved": 0, "rental_uris": {"android": "https://dc.lft.to/lastmile_qr_scan", "ios": "https://dc.lft.to/lastmile_qr_scan"}, "fusion_lon": 0.0}, {"lat": 38.909963, "is_disabled": 0, "type": "electric_scooter", "lon": -77.04003766666666, "bike_id": "29533da4e69c0266f788b95e0d56180e", "fusion_lat": 0.0, "name": "29533da4e69c0266f788b95e0d56180e", "is_reserved": 0, "rental_uris": {"android": "https://dc.lft.to/lastmile_qr_scan", "ios": "https://dc.lft.to/lastmile_qr_scan"}, "fusion_lon": 0.0}, {"lat": 38.9215725, "is_disabled": 0, "type": "electric_scooter", "lon": -77.04023183333334, "bike_id": "95af7497e5d33b514c9bd8f9b31be605", "fusion_lat": 0.0, "name": "95af7497e5d33b514c9bd8f9b31be605", "is_reserved": 0, "rental_uris": {"android": "https://dc.lft.to/lastmile_qr_scan", "ios": "https://dc.lft.to/lastmile_qr_scan"}, "fusion_lon": 0.0}, {"lat": 38.852209333333334, "is_disabled": 0, "type": "electric_bike", "lon": -77.12960883333334, "bike_id": "d9a0aecd12f94711497eaaa452f736d6", "fusion_lat": 0.0, "name": "d9a0aecd12f94711497eaaa452f736d6", "is_reserved": 0, "rental_uris": {"android": "https://dc.lft.to/lastmile_qr_scan", "ios": "https://dc.lft.to/lastmile_qr_scan"}, "fusion_lon": 0.0}, {"lat": 38.900480333333334, "is_disabled": 0, "type": "electric_scooter", "lon": -77.00768666666667, "bike_id": "c76de85c9ec51bfc851c81655162f84e", "fusion_lat": 0.0, "name": "c76de85c9ec51bfc851c81655162f84e", "is_reserved": 0, "rental_uris": {"android": "https://dc.lft.to/lastmile_qr_scan", "ios": "https://dc.lft.to/lastmile_qr_scan"}, "fusion_lon": 0.0}, {"lat": 38.924651, "is_disabled": 0, "type": "electric_scooter", "lon": -77.03541633333333, "bike_id": "20c970bfe13a1b26894947b081c91fb3", "fusion_lat": 0.0, "name": "20c970bfe13a1b26894947b081c91fb3", "is_reserved": 0, "rental_uris": {"android": "https://dc.lft.to/lastmile_qr_scan", "ios": "https://dc.lft.to/lastmile_qr_scan"}, "fusion_lon": 0.0}, {"lat": 38.93220683333333, "is_disabled": 0, "type": "electric_scooter", "lon": -77.0441465, "bike_id": "4db54f98d28e7f3acd0f4f6363fc48ee", "fusion_lat": 0.0, "name": "4db54f98d28e7f3acd0f4f6363fc48ee", "is_reserved": 0, "rental_uris": {"android": "https://dc.lft.to/lastmile_qr_scan", "ios": "https://dc.lft.to/lastmile_qr_scan"}, "fusion_lon": 0.0}, {"lat": 38.978369, "is_disabled": 0, "type": "electric_bike", "lon": -77.02656983333334, "bike_id": "357a22050fd7252858675aca95627d19", "fusion_lat": 0.0, "name": "357a22050fd7252858675aca95627d19", "is_reserved": 0, "rental_uris": {"android": "https://dc.lft.to/lastmile_qr_scan", "ios": "https://dc.lft.to/lastmile_qr_scan"}, "fusion_lon": 0.0}, {"lat": 38.863819166666666, "is_disabled": 0, "type": "electric_scooter", "lon": -76.99253666666667, "bike_id": "9f7d3ccf40a84308372f1c18ca7ed829", "fusion_lat": 0.0, "name": "9f7d3ccf40a84308372f1c18ca7ed829", "is_reserved": 0, "rental_uris": {"android": "https://dc.lft.to/lastmile_qr_scan", "ios": "https://dc.lft.to/lastmile_qr_scan"}, "fusion_lon": 0.0}, {"lat": 38.923525, "is_disabled": 0, "type": "electric_scooter", "lon": -77.04389466666667, "bike_id": "0d866c881f3b917236ba90d9fdfc850d", "fusion_lat": 0.0, "name": "0d866c881f3b917236ba90d9fdfc850d", "is_reserved": 0, "rental_uris": {"android": "https://dc.lft.to/lastmile_qr_scan", "ios": "https://dc.lft.to/lastmile_qr_scan"}, "fusion_lon": 0.0}, {"lat": 38.909634, "is_disabled": 0, "type": "electric_scooter", "lon": -77.03814316666667, "bike_id": "a727de15e5d14f3ab615d001d8aeeedb", "fusion_lat": 0.0, "name": "a727de15e5d14f3ab615d001d8aeeedb", "is_reserved": 0, "rental_uris": {"android": "https://dc.lft.to/lastmile_qr_scan", "ios": "https://dc.lft.to/lastmile_qr_scan"}, "fusion_lon": 0.0}, {"lat": 38.916581666666666, "is_disabled": 0, "type": "electric_scooter", "lon": -77.02201766666667, "bike_id": "74e4d2722e2d198d5e8b6c72afa9c641", "fusion_lat": 0.0, "name": "74e4d2722e2d198d5e8b6c72afa9c641", "is_reserved": 0, "rental_uris": {"android": "https://dc.lft.to/lastmile_qr_scan", "ios": "https://dc.lft.to/lastmile_qr_scan"}, "fusion_lon": 0.0}, {"lat": 38.918223166666664, "is_disabled": 0, "type": "electric_scooter", "lon": -77.0242645, "bike_id": "47c51717eb8309e35cf1a4f5f900dfd3", "fusion_lat": 0.0, "name": "47c51717eb8309e35cf1a4f5f900dfd3", "is_reserved": 0, "rental_uris": {"android": "https://dc.lft.to/lastmile_qr_scan", "ios": "https://dc.lft.to/lastmile_qr_scan"}, "fusion_lon": 0.0}, {"lat": 38.911116166666666, "is_disabled": 0, "type": "electric_scooter", "lon": -77.02335183333334, "bike_id": "a03b2833d2134a1423bede346de2abaf", "fusion_lat": 0.0, "name": "a03b2833d2134a1423bede346de2abaf", "is_reserved": 0, "rental_uris": {"android": "https://dc.lft.to/lastmile_qr_scan", "ios": "https://dc.lft.to/lastmile_qr_scan"}, "fusion_lon": 0.0}, {"lat": 38.854608999999996, "is_disabled": 0, "type": "electric_scooter", "lon": -76.97241466666667, "bike_id": "27b278d6b356d9deb01234cb4ec8f3a0", "fusion_lat": 0.0, "name": "27b278d6b356d9deb01234cb4ec8f3a0", "is_reserved": 0, "rental_uris": {"android": "https://dc.lft.to/lastmile_qr_scan", "ios": "https://dc.lft.to/lastmile_qr_scan"}, "fusion_lon": 0.0}, {"lat": 38.9430405, "is_disabled": 0, "type": "electric_scooter", "lon": -77.05924083333333, "bike_id": "d8a3728d44aeedba4684b080c066d25d", "fusion_lat": 0.0, "name": "d8a3728d44aeedba4684b080c066d25d", "is_reserved": 0, "rental_uris": {"android": "https://dc.lft.to/lastmile_qr_scan", "ios": "https://dc.lft.to/lastmile_qr_scan"}, "fusion_lon": 0.0}, {"lat": 38.86106616666667, "is_disabled": 0, "type": "electric_scooter", "lon": -76.96770683333334, "bike_id": "e158d4fc634fbd536c653b6d1f1f19fa", "fusion_lat": 0.0, "name": "e158d4fc634fbd536c653b6d1f1f19fa", "is_reserved": 0, "rental_uris": {"android": "https://dc.lft.to/lastmile_qr_scan", "ios": "https://dc.lft.to/lastmile_qr_scan"}, "fusion_lon": 0.0}, {"lat": 38.91319683333333, "is_disabled": 0, "type": "electric_scooter", "lon": -77.0400055, "bike_id": "eef36f3ee9197d2ac9c97a992741ed23", "fusion_lat": 0.0, "name": "eef36f3ee9197d2ac9c97a992741ed23", "is_reserved": 0, "rental_uris": {"android": "https://dc.lft.to/lastmile_qr_scan", "ios": "https://dc.lft.to/lastmile_qr_scan"}, "fusion_lon": 0.0}, {"lat": 38.92276733333333, "is_disabled": 0, "type": "electric_scooter", "lon": -77.04487033333334, "bike_id": "941ce29b0dbfd5fccdf13de61a1486c6", "fusion_lat": 0.0, "name": "941ce29b0dbfd5fccdf13de61a1486c6", "is_reserved": 0, "rental_uris": {"android": "https://dc.lft.to/lastmile_qr_scan", "ios": "https://dc.lft.to/lastmile_qr_scan"}, "fusion_lon": 0.0}, {"lat": 38.90651, "is_disabled": 0, "type": "electric_scooter", "lon": -77.0742965, "bike_id": "8f36b5768b50b140afc39b011217e62e", "fusion_lat": 0.0, "name": "8f36b5768b50b140afc39b011217e62e", "is_reserved": 0, "rental_uris": {"android": "https://dc.lft.to/lastmile_qr_scan", "ios": "https://dc.lft.to/lastmile_qr_scan"}, "fusion_lon": 0.0}, {"lat": 38.92389633333333, "is_disabled": 0, "type": "electric_scooter", "lon": -77.0354265, "bike_id": "fb7db00c27b987ba53edbe3f2297e0de", "fusion_lat": 0.0, "name": "fb7db00c27b987ba53edbe3f2297e0de", "is_reserved": 0, "rental_uris": {"android": "https://dc.lft.to/lastmile_qr_scan", "ios": "https://dc.lft.to/lastmile_qr_scan"}, "fusion_lon": 0.0}, {"lat": 38.90063, "is_disabled": 0, "type": "electric_scooter", "lon": -77.05026266666667, "bike_id": "483f2ec6910421d16afcce84c0ffb5c9", "fusion_lat": 0.0, "name": "483f2ec6910421d16afcce84c0ffb5c9", "is_reserved": 0, "rental_uris": {"android": "https://dc.lft.to/lastmile_qr_scan", "ios": "https://dc.lft.to/lastmile_qr_scan"}, "fusion_lon": 0.0}, {"lat": 38.918654833333335, "is_disabled": 0, "type": "electric_scooter", "lon": -77.0405685, "bike_id": "4ddfbb601aa677a7f356f3f27c82ba56", "fusion_lat": 0.0, "name": "4ddfbb601aa677a7f356f3f27c82ba56", "is_reserved": 0, "rental_uris": {"android": "https://dc.lft.to/lastmile_qr_scan", "ios": "https://dc.lft.to/lastmile_qr_scan"}, "fusion_lon": 0.0}, {"lat": 38.905328833333336, "is_disabled": 0, "type": "electric_scooter", "lon": -77.05151516666666, "bike_id": "42b1c382566a34b7cdf819c0da2f1774", "fusion_lat": 0.0, "name": "42b1c382566a34b7cdf819c0da2f1774", "is_reserved": 0, "rental_uris": {"android": "https://dc.lft.to/lastmile_qr_scan", "ios": "https://dc.lft.to/lastmile_qr_scan"}, "fusion_lon": 0.0}, {"lat": 38.923917833333334, "is_disabled": 0, "type": "electric_scooter", "lon": -77.00068433333334, "bike_id": "883d523e60720147806cd57654bf627a", "fusion_lat": 0.0, "name": "883d523e60720147806cd57654bf627a", "is_reserved": 0, "rental_uris": {"android": "https://dc.lft.to/lastmile_qr_scan", "ios": "https://dc.lft.to/lastmile_qr_scan"}, "fusion_lon": 0.0}, {"lat": 38.8579945, "is_disabled": 0, "type": "electric_scooter", "lon": -76.98725866666666, "bike_id": "8959bd2342d918f098ac0c18033acccd", "fusion_lat": 0.0, "name": "8959bd2342d918f098ac0c18033acccd", "is_reserved": 0, "rental_uris": {"android": "https://dc.lft.to/lastmile_qr_scan", "ios": "https://dc.lft.to/lastmile_qr_scan"}, "fusion_lon": 0.0}, {"lat": 38.9142245, "is_disabled": 0, "type": "electric_scooter", "lon": -77.03181316666667, "bike_id": "28b8464701c080db13c13bc09672a664", "fusion_lat": 0.0, "name": "28b8464701c080db13c13bc09672a664", "is_reserved": 0, "rental_uris": {"android": "https://dc.lft.to/lastmile_qr_scan", "ios": "https://dc.lft.to/lastmile_qr_scan"}, "fusion_lon": 0.0}, {"lat": 38.880329833333334, "is_disabled": 0, "type": "electric_scooter", "lon": -77.003589, "bike_id": "5988085392ed9e332305dc9ae1b4baed", "fusion_lat": 0.0, "name": "5988085392ed9e332305dc9ae1b4baed", "is_reserved": 0, "rental_uris": {"android": "https://dc.lft.to/lastmile_qr_scan", "ios": "https://dc.lft.to/lastmile_qr_scan"}, "fusion_lon": 0.0}, {"lat": 38.906011666666664, "is_disabled": 0, "type": "electric_scooter", "lon": -77.016229, "bike_id": "8491d216f4654ac16c7655b66433243c", "fusion_lat": 0.0, "name": "8491d216f4654ac16c7655b66433243c", "is_reserved": 0, "rental_uris": {"android": "https://dc.lft.to/lastmile_qr_scan", "ios": "https://dc.lft.to/lastmile_qr_scan"}, "fusion_lon": 0.0}, {"lat": 38.89927866666667, "is_disabled": 0, "type": "electric_scooter", "lon": -77.00340733333333, "bike_id": "d61309348188fa83da5c2d6586206377", "fusion_lat": 0.0, "name": "d61309348188fa83da5c2d6586206377", "is_reserved": 0, "rental_uris": {"android": "https://dc.lft.to/lastmile_qr_scan", "ios": "https://dc.lft.to/lastmile_qr_scan"}, "fusion_lon": 0.0}, {"lat": 38.926338666666666, "is_disabled": 0, "type": "electric_scooter", "lon": -77.02503916666667, "bike_id": "a1dc9c1fc1e8cca71615871ae421ca5c", "fusion_lat": 0.0, "name": "a1dc9c1fc1e8cca71615871ae421ca5c", "is_reserved": 0, "rental_uris": {"android": "https://dc.lft.to/lastmile_qr_scan", "ios": "https://dc.lft.to/lastmile_qr_scan"}, "fusion_lon": 0.0}, {"lat": 38.8933875, "is_disabled": 0, "type": "electric_scooter", "lon": -76.99158766666666, "bike_id": "fd49103856b23c2fca030fd7b7923f0b", "fusion_lat": 0.0, "name": "fd49103856b23c2fca030fd7b7923f0b", "is_reserved": 0, "rental_uris": {"android": "https://dc.lft.to/lastmile_qr_scan", "ios": "https://dc.lft.to/lastmile_qr_scan"}, "fusion_lon": 0.0}, {"lat": 38.901172833333334, "is_disabled": 0, "type": "electric_scooter", "lon": -77.01152716666667, "bike_id": "afdd71121bee210d41234a4c31e346ea", "fusion_lat": 0.0, "name": "afdd71121bee210d41234a4c31e346ea", "is_reserved": 0, "rental_uris": {"android": "https://dc.lft.to/lastmile_qr_scan", "ios": "https://dc.lft.to/lastmile_qr_scan"}, "fusion_lon": 0.0}, {"lat": 38.91792266666667, "is_disabled": 0, "type": "electric_scooter", "lon": -77.03212416666666, "bike_id": "46fd385ea07bf3961eee146e52874e47", "fusion_lat": 0.0, "name": "46fd385ea07bf3961eee146e52874e47", "is_reserved": 0, "rental_uris": {"android": "https://dc.lft.to/lastmile_qr_scan", "ios": "https://dc.lft.to/lastmile_qr_scan"}, "fusion_lon": 0.0}, {"lat": 38.929969166666666, "is_disabled": 0, "type": "electric_scooter", "lon": -77.03283183333333, "bike_id": "d344cf507ed282b4e9549916d71aa872", "fusion_lat": 0.0, "name": "d344cf507ed282b4e9549916d71aa872", "is_reserved": 0, "rental_uris": {"android": "https://dc.lft.to/lastmile_qr_scan", "ios": "https://dc.lft.to/lastmile_qr_scan"}, "fusion_lon": 0.0}, {"lat": 38.9244905, "is_disabled": 0, "type": "electric_scooter", "lon": -77.040207, "bike_id": "6b4b466eb7010e1961db86dcf2cd492b", "fusion_lat": 0.0, "name": "6b4b466eb7010e1961db86dcf2cd492b", "is_reserved": 0, "rental_uris": {"android": "https://dc.lft.to/lastmile_qr_scan", "ios": "https://dc.lft.to/lastmile_qr_scan"}, "fusion_lon": 0.0}, {"lat": 38.9541585, "is_disabled": 0, "type": "electric_bike", "lon": -76.98053066666667, "bike_id": "ce9e3d34d79af0ff4c736590f543f80c", "fusion_lat": 0.0, "name": "ce9e3d34d79af0ff4c736590f543f80c", "is_reserved": 0, "rental_uris": {"android": "https://dc.lft.to/lastmile_qr_scan", "ios": "https://dc.lft.to/lastmile_qr_scan"}, "fusion_lon": 0.0}, {"lat": 38.919068, "is_disabled": 0, "type": "electric_scooter", "lon": -77.02592416666667, "bike_id": "b52ed25a28b6c57335fb0b7c15c6f58b", "fusion_lat": 0.0, "name": "b52ed25a28b6c57335fb0b7c15c6f58b", "is_reserved": 0, "rental_uris": {"android": "https://dc.lft.to/lastmile_qr_scan", "ios": "https://dc.lft.to/lastmile_qr_scan"}, "fusion_lon": 0.0}, {"lat": 38.8734385, "is_disabled": 0, "type": "electric_scooter", "lon": -76.99166883333334, "bike_id": "ea9c5a85aa096f7ede1d3625dae227d4", "fusion_lat": 0.0, "name": "ea9c5a85aa096f7ede1d3625dae227d4", "is_reserved": 0, "rental_uris": {"android": "https://dc.lft.to/lastmile_qr_scan", "ios": "https://dc.lft.to/lastmile_qr_scan"}, "fusion_lon": 0.0}, {"lat": 38.90718, "is_disabled": 0, "type": "electric_scooter", "lon": -77.02750183333333, "bike_id": "9c9f2b400875b66cb07d6835872a5be2", "fusion_lat": 0.0, "name": "9c9f2b400875b66cb07d6835872a5be2", "is_reserved": 0, "rental_uris": {"android": "https://dc.lft.to/lastmile_qr_scan", "ios": "https://dc.lft.to/lastmile_qr_scan"}, "fusion_lon": 0.0}, {"lat": 38.9061805, "is_disabled": 0, "type": "electric_scooter", "lon": -77.02186483333334, "bike_id": "8e8897452e6e01e90a0c020928b6ef5d", "fusion_lat": 0.0, "name": "8e8897452e6e01e90a0c020928b6ef5d", "is_reserved": 0, "rental_uris": {"android": "https://dc.lft.to/lastmile_qr_scan", "ios": "https://dc.lft.to/lastmile_qr_scan"}, "fusion_lon": 0.0}, {"lat": 38.9002645, "is_disabled": 0, "type": "electric_scooter", "lon": -77.04416066666667, "bike_id": "62f0e4f306ad08e4a3a07fabbd30b83a", "fusion_lat": 0.0, "name": "62f0e4f306ad08e4a3a07fabbd30b83a", "is_reserved": 0, "rental_uris": {"android": "https://dc.lft.to/lastmile_qr_scan", "ios": "https://dc.lft.to/lastmile_qr_scan"}, "fusion_lon": 0.0}, {"lat": 38.87629116666667, "is_disabled": 0, "type": "electric_scooter", "lon": -76.96525366666667, "bike_id": "ef9b67987809f55abee428713ef2ca62", "fusion_lat": 0.0, "name": "ef9b67987809f55abee428713ef2ca62", "is_reserved": 0, "rental_uris": {"android": "https://dc.lft.to/lastmile_qr_scan", "ios": "https://dc.lft.to/lastmile_qr_scan"}, "fusion_lon": 0.0}, {"lat": 38.91560533333333, "is_disabled": 0, "type": "electric_scooter", "lon": -77.02007116666667, "bike_id": "7395ad779491e9b8f843f23b471c98ee", "fusion_lat": 0.0, "name": "7395ad779491e9b8f843f23b471c98ee", "is_reserved": 0, "rental_uris": {"android": "https://dc.lft.to/lastmile_qr_scan", "ios": "https://dc.lft.to/lastmile_qr_scan"}, "fusion_lon": 0.0}, {"lat": 38.920624333333336, "is_disabled": 0, "type": "electric_scooter", "lon": -77.04377183333334, "bike_id": "3520828b437906e10efff8e5039a15a3", "fusion_lat": 0.0, "name": "3520828b437906e10efff8e5039a15a3", "is_reserved": 0, "rental_uris": {"android": "https://dc.lft.to/lastmile_qr_scan", "ios": "https://dc.lft.to/lastmile_qr_scan"}, "fusion_lon": 0.0}, {"lat": 38.93860433333333, "is_disabled": 0, "type": "electric_scooter", "lon": -77.03089933333334, "bike_id": "0603266a244bcf516f2daf28e02d0144", "fusion_lat": 0.0, "name": "0603266a244bcf516f2daf28e02d0144", "is_reserved": 0, "rental_uris": {"android": "https://dc.lft.to/lastmile_qr_scan", "ios": "https://dc.lft.to/lastmile_qr_scan"}, "fusion_lon": 0.0}, {"lat": 38.90027116666667, "is_disabled": 0, "type": "electric_scooter", "lon": -76.98982866666667, "bike_id": "2e735c317fea2ddd8250832d8c8a9a30", "fusion_lat": 0.0, "name": "2e735c317fea2ddd8250832d8c8a9a30", "is_reserved": 0, "rental_uris": {"android": "https://dc.lft.to/lastmile_qr_scan", "ios": "https://dc.lft.to/lastmile_qr_scan"}, "fusion_lon": 0.0}, {"lat": 38.9003045, "is_disabled": 0, "type": "electric_bike", "lon": -77.01544566666666, "bike_id": "540e6be7e1aa3d18ce69f2b2af17a1d6", "fusion_lat": 0.0, "name": "540e6be7e1aa3d18ce69f2b2af17a1d6", "is_reserved": 0, "rental_uris": {"android": "https://dc.lft.to/lastmile_qr_scan", "ios": "https://dc.lft.to/lastmile_qr_scan"}, "fusion_lon": 0.0}, {"lat": 38.91708166666667, "is_disabled": 0, "type": "electric_scooter", "lon": -77.03732916666667, "bike_id": "1375deceb058f0ab8e2c31a0eb4a0c98", "fusion_lat": 0.0, "name": "1375deceb058f0ab8e2c31a0eb4a0c98", "is_reserved": 0, "rental_uris": {"android": "https://dc.lft.to/lastmile_qr_scan", "ios": "https://dc.lft.to/lastmile_qr_scan"}, "fusion_lon": 0.0}, {"lat": 38.86640466666667, "is_disabled": 0, "type": "electric_scooter", "lon": -76.98885133333333, "bike_id": "368bd568fe0d6376778e99e47a5d403d", "fusion_lat": 0.0, "name": "368bd568fe0d6376778e99e47a5d403d", "is_reserved": 0, "rental_uris": {"android": "https://dc.lft.to/lastmile_qr_scan", "ios": "https://dc.lft.to/lastmile_qr_scan"}, "fusion_lon": 0.0}, {"lat": 38.938664, "is_disabled": 0, "type": "electric_scooter", "lon": -77.031284, "bike_id": "92434ac53f9b04dad2d1d7a35254c605", "fusion_lat": 0.0, "name": "92434ac53f9b04dad2d1d7a35254c605", "is_reserved": 0, "rental_uris": {"android": "https://dc.lft.to/lastmile_qr_scan", "ios": "https://dc.lft.to/lastmile_qr_scan"}, "fusion_lon": 0.0}, {"lat": 38.88015766666667, "is_disabled": 0, "type": "electric_scooter", "lon": -76.96013733333334, "bike_id": "dde523406c275a110e3d1261a6db1b13", "fusion_lat": 0.0, "name": "dde523406c275a110e3d1261a6db1b13", "is_reserved": 0, "rental_uris": {"android": "https://dc.lft.to/lastmile_qr_scan", "ios": "https://dc.lft.to/lastmile_qr_scan"}, "fusion_lon": 0.0}, {"lat": 38.948986, "is_disabled": 0, "type": "electric_bike", "lon": -76.972385, "bike_id": "0185b5a5142e55860599a5dcb4e87420", "fusion_lat": 0.0, "name": "0185b5a5142e55860599a5dcb4e87420", "is_reserved": 0, "rental_uris": {"android": "https://dc.lft.to/lastmile_qr_scan", "ios": "https://dc.lft.to/lastmile_qr_scan"}, "fusion_lon": 0.0}, {"lat": 38.793237500000004, "is_disabled": 0, "type": "electric_bike", "lon": -77.040189, "bike_id": "1b79994002261dfb215ef9823431b4e9", "fusion_lat": 0.0, "name": "1b79994002261dfb215ef9823431b4e9", "is_reserved": 0, "rental_uris": {"android": "https://dc.lft.to/lastmile_qr_scan", "ios": "https://dc.lft.to/lastmile_qr_scan"}, "fusion_lon": 0.0}, {"lat": 38.92678683333333, "is_disabled": 0, "type": "electric_scooter", "lon": -77.01573383333333, "bike_id": "92efdabacf768c5f638b735b6da154fc", "fusion_lat": 0.0, "name": "92efdabacf768c5f638b735b6da154fc", "is_reserved": 0, "rental_uris": {"android": "https://dc.lft.to/lastmile_qr_scan", "ios": "https://dc.lft.to/lastmile_qr_scan"}, "fusion_lon": 0.0}, {"lat": 38.883358666666666, "is_disabled": 0, "type": "electric_scooter", "lon": -77.009288, "bike_id": "b6103ce9575282afa53e8d015aa4d4e6", "fusion_lat": 0.0, "name": "b6103ce9575282afa53e8d015aa4d4e6", "is_reserved": 0, "rental_uris": {"android": "https://dc.lft.to/lastmile_qr_scan", "ios": "https://dc.lft.to/lastmile_qr_scan"}, "fusion_lon": 0.0}, {"lat": 38.89717783333333, "is_disabled": 0, "type": "electric_scooter", "lon": -77.0079615, "bike_id": "22a912912e6e862b7706429255d167ae", "fusion_lat": 0.0, "name": "22a912912e6e862b7706429255d167ae", "is_reserved": 0, "rental_uris": {"android": "https://dc.lft.to/lastmile_qr_scan", "ios": "https://dc.lft.to/lastmile_qr_scan"}, "fusion_lon": 0.0}, {"lat": 38.8609785, "is_disabled": 0, "type": "electric_scooter", "lon": -76.98882666666667, "bike_id": "9aeefce58489d3f060e94c1773746899", "fusion_lat": 0.0, "name": "9aeefce58489d3f060e94c1773746899", "is_reserved": 0, "rental_uris": {"android": "https://dc.lft.to/lastmile_qr_scan", "ios": "https://dc.lft.to/lastmile_qr_scan"}, "fusion_lon": 0.0}, {"lat": 38.901490333333335, "is_disabled": 0, "type": "electric_scooter", "lon": -77.03277683333333, "bike_id": "e73d6babf73d06babee6af8e97d0db1c", "fusion_lat": 0.0, "name": "e73d6babf73d06babee6af8e97d0db1c", "is_reserved": 0, "rental_uris": {"android": "https://dc.lft.to/lastmile_qr_scan", "ios": "https://dc.lft.to/lastmile_qr_scan"}, "fusion_lon": 0.0}, {"lat": 38.917509333333335, "is_disabled": 0, "type": "electric_scooter", "lon": -77.01163833333334, "bike_id": "3c9f28014d58145aaa6f73c48343a0b4", "fusion_lat": 0.0, "name": "3c9f28014d58145aaa6f73c48343a0b4", "is_reserved": 0, "rental_uris": {"android": "https://dc.lft.to/lastmile_qr_scan", "ios": "https://dc.lft.to/lastmile_qr_scan"}, "fusion_lon": 0.0}, {"lat": 38.96604766666667, "is_disabled": 0, "type": "electric_scooter", "lon": -77.02059983333334, "bike_id": "ec6aa94db742654f8335568c0b6b8b23", "fusion_lat": 0.0, "name": "ec6aa94db742654f8335568c0b6b8b23", "is_reserved": 0, "rental_uris": {"android": "https://dc.lft.to/lastmile_qr_scan", "ios": "https://dc.lft.to/lastmile_qr_scan"}, "fusion_lon": 0.0}, {"lat": 38.9072755, "is_disabled": 0, "type": "electric_bike", "lon": -77.010718, "bike_id": "c574487c5eda2f6b49046ea1efaab919", "fusion_lat": 0.0, "name": "c574487c5eda2f6b49046ea1efaab919", "is_reserved": 0, "rental_uris": {"android": "https://dc.lft.to/lastmile_qr_scan", "ios": "https://dc.lft.to/lastmile_qr_scan"}, "fusion_lon": 0.0}, {"lat": 38.9285325, "is_disabled": 0, "type": "electric_bike", "lon": -77.03298266666667, "bike_id": "b6813d2a6d943f70e5d1a45613bd56e8", "fusion_lat": 0.0, "name": "b6813d2a6d943f70e5d1a45613bd56e8", "is_reserved": 0, "rental_uris": {"android": "https://dc.lft.to/lastmile_qr_scan", "ios": "https://dc.lft.to/lastmile_qr_scan"}, "fusion_lon": 0.0}, {"lat": 38.872335, "is_disabled": 0, "type": "electric_bike", "lon": -77.01211483333333, "bike_id": "a2b7750f1434a8f5f279b9380cbbb088", "fusion_lat": 0.0, "name": "a2b7750f1434a8f5f279b9380cbbb088", "is_reserved": 0, "rental_uris": {"android": "https://dc.lft.to/lastmile_qr_scan", "ios": "https://dc.lft.to/lastmile_qr_scan"}, "fusion_lon": 0.0}, {"lat": 39.08856266666667, "is_disabled": 0, "type": "electric_bike", "lon": -77.17840716666667, "bike_id": "90c7bd6d15d91506d05e0acca538fcec", "fusion_lat": 0.0, "name": "90c7bd6d15d91506d05e0acca538fcec", "is_reserved": 0, "rental_uris": {"android": "https://dc.lft.to/lastmile_qr_scan", "ios": "https://dc.lft.to/lastmile_qr_scan"}, "fusion_lon": 0.0}, {"lat": 38.907782, "is_disabled": 0, "type": "electric_bike", "lon": -77.06996183333334, "bike_id": "1b91fe07cd405ddf44be52d1940706f9", "fusion_lat": 0.0, "name": "1b91fe07cd405ddf44be52d1940706f9", "is_reserved": 0, "rental_uris": {"android": "https://dc.lft.to/lastmile_qr_scan", "ios": "https://dc.lft.to/lastmile_qr_scan"}, "fusion_lon": 0.0}, {"lat": 38.906321, "is_disabled": 0, "type": "electric_scooter", "lon": -77.03141466666666, "bike_id": "8e786df807f26c7a93d414bcdcaae5e1", "fusion_lat": 0.0, "name": "8e786df807f26c7a93d414bcdcaae5e1", "is_reserved": 0, "rental_uris": {"android": "https://dc.lft.to/lastmile_qr_scan", "ios": "https://dc.lft.to/lastmile_qr_scan"}, "fusion_lon": 0.0}, {"lat": 38.9113045, "is_disabled": 0, "type": "electric_bike", "lon": -77.06582033333333, "bike_id": "26911172b8265e57550e54b4c0d1375a", "fusion_lat": 0.0, "name": "26911172b8265e57550e54b4c0d1375a", "is_reserved": 0, "rental_uris": {"android": "https://dc.lft.to/lastmile_qr_scan", "ios": "https://dc.lft.to/lastmile_qr_scan"}, "fusion_lon": 0.0}, {"lat": 38.892787, "is_disabled": 0, "type": "electric_scooter", "lon": -77.05041466666667, "bike_id": "8c51cbbc3b7e3b910debb31c03f1764a", "fusion_lat": 0.0, "name": "8c51cbbc3b7e3b910debb31c03f1764a", "is_reserved": 0, "rental_uris": {"android": "https://dc.lft.to/lastmile_qr_scan", "ios": "https://dc.lft.to/lastmile_qr_scan"}, "fusion_lon": 0.0}, {"lat": 38.917629, "is_disabled": 0, "type": "electric_scooter", "lon": -77.04768216666666, "bike_id": "f0bd7d70014335c4f5a07221c4f71dca", "fusion_lat": 0.0, "name": "f0bd7d70014335c4f5a07221c4f71dca", "is_reserved": 0, "rental_uris": {"android": "https://dc.lft.to/lastmile_qr_scan", "ios": "https://dc.lft.to/lastmile_qr_scan"}, "fusion_lon": 0.0}, {"lat": 38.9247725, "is_disabled": 0, "type": "electric_bike", "lon": -76.990397, "bike_id": "3b0c9daeb8f42d2e0aa761a472a676c9", "fusion_lat": 0.0, "name": "3b0c9daeb8f42d2e0aa761a472a676c9", "is_reserved": 0, "rental_uris": {"android": "https://dc.lft.to/lastmile_qr_scan", "ios": "https://dc.lft.to/lastmile_qr_scan"}, "fusion_lon": 0.0}, {"lat": 38.928542666666665, "is_disabled": 0, "type": "electric_bike", "lon": -77.22213233333333, "bike_id": "d36c6d219e0f686df4309e4dc281c634", "fusion_lat": 0.0, "name": "d36c6d219e0f686df4309e4dc281c634", "is_reserved": 0, "rental_uris": {"android": "https://dc.lft.to/lastmile_qr_scan", "ios": "https://dc.lft.to/lastmile_qr_scan"}, "fusion_lon": 0.0}, {"lat": 38.90327666666666, "is_disabled": 0, "type": "electric_scooter", "lon": -77.0287305, "bike_id": "e0d5023f49d639663aea5bd9621ba02b", "fusion_lat": 0.0, "name": "e0d5023f49d639663aea5bd9621ba02b", "is_reserved": 0, "rental_uris": {"android": "https://dc.lft.to/lastmile_qr_scan", "ios": "https://dc.lft.to/lastmile_qr_scan"}, "fusion_lon": 0.0}, {"lat": 38.9053415, "is_disabled": 0, "type": "electric_scooter", "lon": -77.0571505, "bike_id": "0531139a82b6ffadc5a0e1b8c24c208f", "fusion_lat": 0.0, "name": "0531139a82b6ffadc5a0e1b8c24c208f", "is_reserved": 0, "rental_uris": {"android": "https://dc.lft.to/lastmile_qr_scan", "ios": "https://dc.lft.to/lastmile_qr_scan"}, "fusion_lon": 0.0}, {"lat": 38.8772995, "is_disabled": 0, "type": "electric_bike", "lon": -76.981086, "bike_id": "f606ff848ffaf39517a2a9df12aafe44", "fusion_lat": 0.0, "name": "f606ff848ffaf39517a2a9df12aafe44", "is_reserved": 0, "rental_uris": {"android": "https://dc.lft.to/lastmile_qr_scan", "ios": "https://dc.lft.to/lastmile_qr_scan"}, "fusion_lon": 0.0}, {"lat": 38.92208483333334, "is_disabled": 0, "type": "electric_scooter", "lon": -77.04023133333334, "bike_id": "f7886758e02c5b47841a67bca4119b88", "fusion_lat": 0.0, "name": "f7886758e02c5b47841a67bca4119b88", "is_reserved": 0, "rental_uris": {"android": "https://dc.lft.to/lastmile_qr_scan", "ios": "https://dc.lft.to/lastmile_qr_scan"}, "fusion_lon": 0.0}, {"lat": 38.90970983333333, "is_disabled": 0, "type": "electric_scooter", "lon": -77.03867633333333, "bike_id": "e8f1c7ac79a5e6f19392568d16cb093a", "fusion_lat": 0.0, "name": "e8f1c7ac79a5e6f19392568d16cb093a", "is_reserved": 0, "rental_uris": {"android": "https://dc.lft.to/lastmile_qr_scan", "ios": "https://dc.lft.to/lastmile_qr_scan"}, "fusion_lon": 0.0}, {"lat": 38.933098, "is_disabled": 0, "type": "electric_scooter", "lon": -77.0452335, "bike_id": "5f6ef51148fc9201021ffc0469c52fef", "fusion_lat": 0.0, "name": "5f6ef51148fc9201021ffc0469c52fef", "is_reserved": 0, "rental_uris": {"android": "https://dc.lft.to/lastmile_qr_scan", "ios": "https://dc.lft.to/lastmile_qr_scan"}, "fusion_lon": 0.0}, {"lat": 38.898771333333336, "is_disabled": 0, "type": "electric_scooter", "lon": -77.02025233333333, "bike_id": "f7c43e0d48d0f2600121b942599fee85", "fusion_lat": 0.0, "name": "f7c43e0d48d0f2600121b942599fee85", "is_reserved": 0, "rental_uris": {"android": "https://dc.lft.to/lastmile_qr_scan", "ios": "https://dc.lft.to/lastmile_qr_scan"}, "fusion_lon": 0.0}, {"lat": 38.87869883333333, "is_disabled": 0, "type": "electric_scooter", "lon": -77.00730816666666, "bike_id": "9ce6e2e21554e21b09a52887a175ee14", "fusion_lat": 0.0, "name": "9ce6e2e21554e21b09a52887a175ee14", "is_reserved": 0, "rental_uris": {"android": "https://dc.lft.to/lastmile_qr_scan", "ios": "https://dc.lft.to/lastmile_qr_scan"}, "fusion_lon": 0.0}, {"lat": 38.90611766666667, "is_disabled": 0, "type": "electric_scooter", "lon": -77.0399845, "bike_id": "485a38f25af5b210e59398b8320af2b5", "fusion_lat": 0.0, "name": "485a38f25af5b210e59398b8320af2b5", "is_reserved": 0, "rental_uris": {"android": "https://dc.lft.to/lastmile_qr_scan", "ios": "https://dc.lft.to/lastmile_qr_scan"}, "fusion_lon": 0.0}, {"lat": 38.866743666666665, "is_disabled": 0, "type": "electric_scooter", "lon": -76.98540633333333, "bike_id": "f12686b294501b5803f564c1946513ab", "fusion_lat": 0.0, "name": "f12686b294501b5803f564c1946513ab", "is_reserved": 0, "rental_uris": {"android": "https://dc.lft.to/lastmile_qr_scan", "ios": "https://dc.lft.to/lastmile_qr_scan"}, "fusion_lon": 0.0}, {"lat": 38.895951833333335, "is_disabled": 0, "type": "electric_scooter", "lon": -77.0257485, "bike_id": "b41550337e9735df27d2278cab047101", "fusion_lat": 0.0, "name": "b41550337e9735df27d2278cab047101", "is_reserved": 0, "rental_uris": {"android": "https://dc.lft.to/lastmile_qr_scan", "ios": "https://dc.lft.to/lastmile_qr_scan"}, "fusion_lon": 0.0}, {"lat": 38.89742833333333, "is_disabled": 0, "type": "electric_scooter", "lon": -77.00071833333334, "bike_id": "2475f7693fee581a5737f19cb1b62fb0", "fusion_lat": 0.0, "name": "2475f7693fee581a5737f19cb1b62fb0", "is_reserved": 0, "rental_uris": {"android": "https://dc.lft.to/lastmile_qr_scan", "ios": "https://dc.lft.to/lastmile_qr_scan"}, "fusion_lon": 0.0}, {"lat": 38.917676, "is_disabled": 0, "type": "electric_scooter", "lon": -77.036587, "bike_id": "3bf67ea37c2f9facda2501509c6196fd", "fusion_lat": 0.0, "name": "3bf67ea37c2f9facda2501509c6196fd", "is_reserved": 0, "rental_uris": {"android": "https://dc.lft.to/lastmile_qr_scan", "ios": "https://dc.lft.to/lastmile_qr_scan"}, "fusion_lon": 0.0}, {"lat": 38.915463833333334, "is_disabled": 0, "type": "electric_scooter", "lon": -77.03499783333334, "bike_id": "a9c9d3b4a805841c54bd0e56d90d0d80", "fusion_lat": 0.0, "name": "a9c9d3b4a805841c54bd0e56d90d0d80", "is_reserved": 0, "rental_uris": {"android": "https://dc.lft.to/lastmile_qr_scan", "ios": "https://dc.lft.to/lastmile_qr_scan"}, "fusion_lon": 0.0}, {"lat": 38.9171005, "is_disabled": 0, "type": "electric_scooter", "lon": -77.046781, "bike_id": "7c3a5e324d9fd93fffd36b5ba7a848ef", "fusion_lat": 0.0, "name": "7c3a5e324d9fd93fffd36b5ba7a848ef", "is_reserved": 0, "rental_uris": {"android": "https://dc.lft.to/lastmile_qr_scan", "ios": "https://dc.lft.to/lastmile_qr_scan"}, "fusion_lon": 0.0}, {"lat": 38.90361083333333, "is_disabled": 0, "type": "electric_scooter", "lon": -76.97652166666667, "bike_id": "64131be72b05a8652fed2b59e805baac", "fusion_lat": 0.0, "name": "64131be72b05a8652fed2b59e805baac", "is_reserved": 0, "rental_uris": {"android": "https://dc.lft.to/lastmile_qr_scan", "ios": "https://dc.lft.to/lastmile_qr_scan"}, "fusion_lon": 0.0}, {"lat": 38.91707483333333, "is_disabled": 0, "type": "electric_scooter", "lon": -77.03973766666667, "bike_id": "a5f1c2e06ae8743d40fb70636940af73", "fusion_lat": 0.0, "name": "a5f1c2e06ae8743d40fb70636940af73", "is_reserved": 0, "rental_uris": {"android": "https://dc.lft.to/lastmile_qr_scan", "ios": "https://dc.lft.to/lastmile_qr_scan"}, "fusion_lon": 0.0}, {"lat": 38.94769766666667, "is_disabled": 0, "type": "electric_scooter", "lon": -77.0654995, "bike_id": "1aac7080f6667080e3000cb658ca8dea", "fusion_lat": 0.0, "name": "1aac7080f6667080e3000cb658ca8dea", "is_reserved": 0, "rental_uris": {"android": "https://dc.lft.to/lastmile_qr_scan", "ios": "https://dc.lft.to/lastmile_qr_scan"}, "fusion_lon": 0.0}, {"lat": 38.931987, "is_disabled": 0, "type": "electric_scooter", "lon": -77.02357683333334, "bike_id": "c522658432d0ce1265683abd546d0a34", "fusion_lat": 0.0, "name": "c522658432d0ce1265683abd546d0a34", "is_reserved": 0, "rental_uris": {"android": "https://dc.lft.to/lastmile_qr_scan", "ios": "https://dc.lft.to/lastmile_qr_scan"}, "fusion_lon": 0.0}, {"lat": 38.90258633333333, "is_disabled": 0, "type": "electric_bike", "lon": -77.00776966666666, "bike_id": "18c23a567ac0cc62d1e5a9e4cda6ef4f", "fusion_lat": 0.0, "name": "18c23a567ac0cc62d1e5a9e4cda6ef4f", "is_reserved": 0, "rental_uris": {"android": "https://dc.lft.to/lastmile_qr_scan", "ios": "https://dc.lft.to/lastmile_qr_scan"}, "fusion_lon": 0.0}, {"lat": 38.921167, "is_disabled": 0, "type": "electric_scooter", "lon": -77.031915, "bike_id": "0bd019b15334dfe4d96ba790cd7c12e5", "fusion_lat": 0.0, "name": "0bd019b15334dfe4d96ba790cd7c12e5", "is_reserved": 0, "rental_uris": {"android": "https://dc.lft.to/lastmile_qr_scan", "ios": "https://dc.lft.to/lastmile_qr_scan"}, "fusion_lon": 0.0}, {"lat": 38.923240666666665, "is_disabled": 0, "type": "electric_scooter", "lon": -77.02968933333334, "bike_id": "e6cfd3588abca98e9af6809bc1370389", "fusion_lat": 0.0, "name": "e6cfd3588abca98e9af6809bc1370389", "is_reserved": 0, "rental_uris": {"android": "https://dc.lft.to/lastmile_qr_scan", "ios": "https://dc.lft.to/lastmile_qr_scan"}, "fusion_lon": 0.0}, {"lat": 38.873373666666666, "is_disabled": 0, "type": "electric_scooter", "lon": -76.9916505, "bike_id": "2ead45e5f9030085f07c015cfe05e7c9", "fusion_lat": 0.0, "name": "2ead45e5f9030085f07c015cfe05e7c9", "is_reserved": 0, "rental_uris": {"android": "https://dc.lft.to/lastmile_qr_scan", "ios": "https://dc.lft.to/lastmile_qr_scan"}, "fusion_lon": 0.0}, {"lat": 38.91466033333333, "is_disabled": 0, "type": "electric_scooter", "lon": -77.032133, "bike_id": "c25686aecebb3ec7d12583aae8711e08", "fusion_lat": 0.0, "name": "c25686aecebb3ec7d12583aae8711e08", "is_reserved": 0, "rental_uris": {"android": "https://dc.lft.to/lastmile_qr_scan", "ios": "https://dc.lft.to/lastmile_qr_scan"}, "fusion_lon": 0.0}, {"lat": 38.87674716666667, "is_disabled": 0, "type": "electric_scooter", "lon": -77.01791116666666, "bike_id": "155c2f093ce50f0728c0350cf8e80d09", "fusion_lat": 0.0, "name": "155c2f093ce50f0728c0350cf8e80d09", "is_reserved": 0, "rental_uris": {"android": "https://dc.lft.to/lastmile_qr_scan", "ios": "https://dc.lft.to/lastmile_qr_scan"}, "fusion_lon": 0.0}, {"lat": 38.89550283333333, "is_disabled": 0, "type": "electric_scooter", "lon": -76.9338665, "bike_id": "a594f381f375742bcef2d9fbfc99f6cb", "fusion_lat": 0.0, "name": "a594f381f375742bcef2d9fbfc99f6cb", "is_reserved": 0, "rental_uris": {"android": "https://dc.lft.to/lastmile_qr_scan", "ios": "https://dc.lft.to/lastmile_qr_scan"}, "fusion_lon": 0.0}, {"lat": 38.92663116666667, "is_disabled": 0, "type": "electric_scooter", "lon": -77.05598766666667, "bike_id": "48e31d0b38cdf40627aa68feba211274", "fusion_lat": 0.0, "name": "48e31d0b38cdf40627aa68feba211274", "is_reserved": 0, "rental_uris": {"android": "https://dc.lft.to/lastmile_qr_scan", "ios": "https://dc.lft.to/lastmile_qr_scan"}, "fusion_lon": 0.0}, {"lat": 38.938794, "is_disabled": 0, "type": "electric_scooter", "lon": -77.03260183333333, "bike_id": "82fc63cc628f198ab6168389ffba7c64", "fusion_lat": 0.0, "name": "82fc63cc628f198ab6168389ffba7c64", "is_reserved": 0, "rental_uris": {"android": "https://dc.lft.to/lastmile_qr_scan", "ios": "https://dc.lft.to/lastmile_qr_scan"}, "fusion_lon": 0.0}, {"lat": 38.935333166666666, "is_disabled": 0, "type": "electric_scooter", "lon": -77.0340975, "bike_id": "d0df082612673a6f98b2263e4ad2d852", "fusion_lat": 0.0, "name": "d0df082612673a6f98b2263e4ad2d852", "is_reserved": 0, "rental_uris": {"android": "https://dc.lft.to/lastmile_qr_scan", "ios": "https://dc.lft.to/lastmile_qr_scan"}, "fusion_lon": 0.0}, {"lat": 38.89682066666667, "is_disabled": 0, "type": "electric_scooter", "lon": -77.04512733333334, "bike_id": "264f3ba5d6662ac0c2e5c22b4652d16c", "fusion_lat": 0.0, "name": "264f3ba5d6662ac0c2e5c22b4652d16c", "is_reserved": 0, "rental_uris": {"android": "https://dc.lft.to/lastmile_qr_scan", "ios": "https://dc.lft.to/lastmile_qr_scan"}, "fusion_lon": 0.0}, {"lat": 38.91317316666667, "is_disabled": 0, "type": "electric_scooter", "lon": -77.03192566666667, "bike_id": "eacded96671fc5c6d373bf062a0e074a", "fusion_lat": 0.0, "name": "eacded96671fc5c6d373bf062a0e074a", "is_reserved": 0, "rental_uris": {"android": "https://dc.lft.to/lastmile_qr_scan", "ios": "https://dc.lft.to/lastmile_qr_scan"}, "fusion_lon": 0.0}, {"lat": 38.8443915, "is_disabled": 0, "type": "electric_bike", "lon": -77.0684115, "bike_id": "2bd2965c7068466559270323b3b8770d", "fusion_lat": 0.0, "name": "2bd2965c7068466559270323b3b8770d", "is_reserved": 0, "rental_uris": {"android": "https://dc.lft.to/lastmile_qr_scan", "ios": "https://dc.lft.to/lastmile_qr_scan"}, "fusion_lon": 0.0}, {"lat": 38.93290916666667, "is_disabled": 0, "type": "electric_scooter", "lon": -77.02193783333334, "bike_id": "6a9ea4b6f4e6ef306848061f2e83f0e3", "fusion_lat": 0.0, "name": "6a9ea4b6f4e6ef306848061f2e83f0e3", "is_reserved": 0, "rental_uris": {"android": "https://dc.lft.to/lastmile_qr_scan", "ios": "https://dc.lft.to/lastmile_qr_scan"}, "fusion_lon": 0.0}, {"lat": 38.9519095, "is_disabled": 0, "type": "electric_bike", "lon": -77.02394133333334, "bike_id": "b749e5dcf2742fbbbdb5a80777997955", "fusion_lat": 0.0, "name": "b749e5dcf2742fbbbdb5a80777997955", "is_reserved": 0, "rental_uris": {"android": "https://dc.lft.to/lastmile_qr_scan", "ios": "https://dc.lft.to/lastmile_qr_scan"}, "fusion_lon": 0.0}, {"lat": 38.92372183333333, "is_disabled": 0, "type": "electric_scooter", "lon": -77.0253925, "bike_id": "101b710af18f66632e656e514a4de79d", "fusion_lat": 0.0, "name": "101b710af18f66632e656e514a4de79d", "is_reserved": 0, "rental_uris": {"android": "https://dc.lft.to/lastmile_qr_scan", "ios": "https://dc.lft.to/lastmile_qr_scan"}, "fusion_lon": 0.0}, {"lat": 38.911886833333334, "is_disabled": 0, "type": "electric_scooter", "lon": -77.03646533333334, "bike_id": "36b7938f8491dbf1b2557abc3820ee35", "fusion_lat": 0.0, "name": "36b7938f8491dbf1b2557abc3820ee35", "is_reserved": 0, "rental_uris": {"android": "https://dc.lft.to/lastmile_qr_scan", "ios": "https://dc.lft.to/lastmile_qr_scan"}, "fusion_lon": 0.0}, {"lat": 38.939779, "is_disabled": 0, "type": "electric_scooter", "lon": -77.02629533333334, "bike_id": "3fefc7850cb98b170daa659953634dc5", "fusion_lat": 0.0, "name": "3fefc7850cb98b170daa659953634dc5", "is_reserved": 0, "rental_uris": {"android": "https://dc.lft.to/lastmile_qr_scan", "ios": "https://dc.lft.to/lastmile_qr_scan"}, "fusion_lon": 0.0}, {"lat": 38.8987985, "is_disabled": 0, "type": "electric_scooter", "lon": -77.07234116666666, "bike_id": "0df0761342b8efa4b196ce10b9867f8d", "fusion_lat": 0.0, "name": "0df0761342b8efa4b196ce10b9867f8d", "is_reserved": 0, "rental_uris": {"android": "https://dc.lft.to/lastmile_qr_scan", "ios": "https://dc.lft.to/lastmile_qr_scan"}, "fusion_lon": 0.0}, {"lat": 38.90796483333333, "is_disabled": 0, "type": "electric_scooter", "lon": -77.0344735, "bike_id": "d04f80e748730d4076645c91404f09a6", "fusion_lat": 0.0, "name": "d04f80e748730d4076645c91404f09a6", "is_reserved": 0, "rental_uris": {"android": "https://dc.lft.to/lastmile_qr_scan", "ios": "https://dc.lft.to/lastmile_qr_scan"}, "fusion_lon": 0.0}, {"lat": 38.903963, "is_disabled": 0, "type": "electric_scooter", "lon": -77.04476933333333, "bike_id": "05c7bf5b740057a4cdc209b9be446f0f", "fusion_lat": 0.0, "name": "05c7bf5b740057a4cdc209b9be446f0f", "is_reserved": 0, "rental_uris": {"android": "https://dc.lft.to/lastmile_qr_scan", "ios": "https://dc.lft.to/lastmile_qr_scan"}, "fusion_lon": 0.0}, {"lat": 38.9230175, "is_disabled": 0, "type": "electric_scooter", "lon": -77.0233345, "bike_id": "c5146d4cc08c0557d342aae9891ca9a8", "fusion_lat": 0.0, "name": "c5146d4cc08c0557d342aae9891ca9a8", "is_reserved": 0, "rental_uris": {"android": "https://dc.lft.to/lastmile_qr_scan", "ios": "https://dc.lft.to/lastmile_qr_scan"}, "fusion_lon": 0.0}, {"lat": 38.900629, "is_disabled": 0, "type": "electric_scooter", "lon": -77.00221316666666, "bike_id": "cb3eff0637e9da77434a745a498d1c71", "fusion_lat": 0.0, "name": "cb3eff0637e9da77434a745a498d1c71", "is_reserved": 0, "rental_uris": {"android": "https://dc.lft.to/lastmile_qr_scan", "ios": "https://dc.lft.to/lastmile_qr_scan"}, "fusion_lon": 0.0}, {"lat": 38.872395, "is_disabled": 0, "type": "electric_scooter", "lon": -76.977252, "bike_id": "38b0fa963be2fa36d2ae8ded0df2bd50", "fusion_lat": 0.0, "name": "38b0fa963be2fa36d2ae8ded0df2bd50", "is_reserved": 0, "rental_uris": {"android": "https://dc.lft.to/lastmile_qr_scan", "ios": "https://dc.lft.to/lastmile_qr_scan"}, "fusion_lon": 0.0}, {"lat": 38.916885, "is_disabled": 0, "type": "electric_scooter", "lon": -77.026904, "bike_id": "2fde05a39ffdabd61554d41b13fc03b7", "fusion_lat": 0.0, "name": "2fde05a39ffdabd61554d41b13fc03b7", "is_reserved": 0, "rental_uris": {"android": "https://dc.lft.to/lastmile_qr_scan", "ios": "https://dc.lft.to/lastmile_qr_scan"}, "fusion_lon": 0.0}, {"lat": 38.90848116666667, "is_disabled": 0, "type": "electric_scooter", "lon": -77.04768866666667, "bike_id": "d8c657f435a6d303eafc54a80ecf6e52", "fusion_lat": 0.0, "name": "d8c657f435a6d303eafc54a80ecf6e52", "is_reserved": 0, "rental_uris": {"android": "https://dc.lft.to/lastmile_qr_scan", "ios": "https://dc.lft.to/lastmile_qr_scan"}, "fusion_lon": 0.0}, {"lat": 38.9128405, "is_disabled": 0, "type": "electric_bike", "lon": -77.04495516666667, "bike_id": "5c31fdf0d113c37692d129f70cd1ec15", "fusion_lat": 0.0, "name": "5c31fdf0d113c37692d129f70cd1ec15", "is_reserved": 0, "rental_uris": {"android": "https://dc.lft.to/lastmile_qr_scan", "ios": "https://dc.lft.to/lastmile_qr_scan"}, "fusion_lon": 0.0}, {"lat": 38.9440395, "is_disabled": 0, "type": "electric_scooter", "lon": -77.026451, "bike_id": "0c85ff4e3edee341a91a8411447cd3b7", "fusion_lat": 0.0, "name": "0c85ff4e3edee341a91a8411447cd3b7", "is_reserved": 0, "rental_uris": {"android": "https://dc.lft.to/lastmile_qr_scan", "ios": "https://dc.lft.to/lastmile_qr_scan"}, "fusion_lon": 0.0}, {"lat": 38.88925283333333, "is_disabled": 0, "type": "electric_scooter", "lon": -76.97374866666667, "bike_id": "260033a263c1c63b89bdacc520dd17a9", "fusion_lat": 0.0, "name": "260033a263c1c63b89bdacc520dd17a9", "is_reserved": 0, "rental_uris": {"android": "https://dc.lft.to/lastmile_qr_scan", "ios": "https://dc.lft.to/lastmile_qr_scan"}, "fusion_lon": 0.0}, {"lat": 38.9170595, "is_disabled": 0, "type": "electric_scooter", "lon": -77.03354316666666, "bike_id": "68ed598deab7b706d761321bb571b3b5", "fusion_lat": 0.0, "name": "68ed598deab7b706d761321bb571b3b5", "is_reserved": 0, "rental_uris": {"android": "https://dc.lft.to/lastmile_qr_scan", "ios": "https://dc.lft.to/lastmile_qr_scan"}, "fusion_lon": 0.0}, {"lat": 38.927429333333336, "is_disabled": 0, "type": "electric_scooter", "lon": -77.02413333333334, "bike_id": "0033c2de8b5d7628f2ee004a37fd53e8", "fusion_lat": 0.0, "name": "0033c2de8b5d7628f2ee004a37fd53e8", "is_reserved": 0, "rental_uris": {"android": "https://dc.lft.to/lastmile_qr_scan", "ios": "https://dc.lft.to/lastmile_qr_scan"}, "fusion_lon": 0.0}, {"lat": 38.90516816666667, "is_disabled": 0, "type": "electric_scooter", "lon": -77.0515395, "bike_id": "8cc764970077d06649449057f4132487", "fusion_lat": 0.0, "name": "8cc764970077d06649449057f4132487", "is_reserved": 0, "rental_uris": {"android": "https://dc.lft.to/lastmile_qr_scan", "ios": "https://dc.lft.to/lastmile_qr_scan"}, "fusion_lon": 0.0}, {"lat": 38.92164733333333, "is_disabled": 0, "type": "electric_scooter", "lon": -77.03212216666667, "bike_id": "1016d9264d34a688a0aefae26668c1d7", "fusion_lat": 0.0, "name": "1016d9264d34a688a0aefae26668c1d7", "is_reserved": 0, "rental_uris": {"android": "https://dc.lft.to/lastmile_qr_scan", "ios": "https://dc.lft.to/lastmile_qr_scan"}, "fusion_lon": 0.0}, {"lat": 38.89726116666667, "is_disabled": 0, "type": "electric_scooter", "lon": -77.049118, "bike_id": "240203d45aacc939ad75a43795ad3c70", "fusion_lat": 0.0, "name": "240203d45aacc939ad75a43795ad3c70", "is_reserved": 0, "rental_uris": {"android": "https://dc.lft.to/lastmile_qr_scan", "ios": "https://dc.lft.to/lastmile_qr_scan"}, "fusion_lon": 0.0}, {"lat": 38.92181933333333, "is_disabled": 0, "type": "electric_scooter", "lon": -77.04705816666667, "bike_id": "c2cc7e556c752c427d4a40f65e9538af", "fusion_lat": 0.0, "name": "c2cc7e556c752c427d4a40f65e9538af", "is_reserved": 0, "rental_uris": {"android": "https://dc.lft.to/lastmile_qr_scan", "ios": "https://dc.lft.to/lastmile_qr_scan"}, "fusion_lon": 0.0}, {"lat": 38.94791283333333, "is_disabled": 0, "type": "electric_scooter", "lon": -77.0217105, "bike_id": "269d6b1b042ae2c092691091a52d9dec", "fusion_lat": 0.0, "name": "269d6b1b042ae2c092691091a52d9dec", "is_reserved": 0, "rental_uris": {"android": "https://dc.lft.to/lastmile_qr_scan", "ios": "https://dc.lft.to/lastmile_qr_scan"}, "fusion_lon": 0.0}, {"lat": 38.9373825, "is_disabled": 0, "type": "electric_scooter", "lon": -77.034714, "bike_id": "517e5857ca5db6e371b77b44e34a1fa1", "fusion_lat": 0.0, "name": "517e5857ca5db6e371b77b44e34a1fa1", "is_reserved": 0, "rental_uris": {"android": "https://dc.lft.to/lastmile_qr_scan", "ios": "https://dc.lft.to/lastmile_qr_scan"}, "fusion_lon": 0.0}, {"lat": 38.91644566666667, "is_disabled": 0, "type": "electric_scooter", "lon": -77.02181383333334, "bike_id": "3c8673b233c73d49d7ee121bde07dde1", "fusion_lat": 0.0, "name": "3c8673b233c73d49d7ee121bde07dde1", "is_reserved": 0, "rental_uris": {"android": "https://dc.lft.to/lastmile_qr_scan", "ios": "https://dc.lft.to/lastmile_qr_scan"}, "fusion_lon": 0.0}, {"lat": 38.901073, "is_disabled": 0, "type": "electric_scooter", "lon": -76.99624366666667, "bike_id": "5d23fc2fa582a4cb7973c67fbc8a32c3", "fusion_lat": 0.0, "name": "5d23fc2fa582a4cb7973c67fbc8a32c3", "is_reserved": 0, "rental_uris": {"android": "https://dc.lft.to/lastmile_qr_scan", "ios": "https://dc.lft.to/lastmile_qr_scan"}, "fusion_lon": 0.0}, {"lat": 38.885732, "is_disabled": 0, "type": "electric_scooter", "lon": -76.91912483333333, "bike_id": "b832d2c72b3d77db747dde3a45e258b4", "fusion_lat": 0.0, "name": "b832d2c72b3d77db747dde3a45e258b4", "is_reserved": 0, "rental_uris": {"android": "https://dc.lft.to/lastmile_qr_scan", "ios": "https://dc.lft.to/lastmile_qr_scan"}, "fusion_lon": 0.0}, {"lat": 38.902610333333335, "is_disabled": 0, "type": "electric_scooter", "lon": -77.00325216666667, "bike_id": "08c6eb53eaeacce7c6ce327b9e97abef", "fusion_lat": 0.0, "name": "08c6eb53eaeacce7c6ce327b9e97abef", "is_reserved": 0, "rental_uris": {"android": "https://dc.lft.to/lastmile_qr_scan", "ios": "https://dc.lft.to/lastmile_qr_scan"}, "fusion_lon": 0.0}, {"lat": 38.94109016666667, "is_disabled": 0, "type": "electric_scooter", "lon": -77.000514, "bike_id": "0465e963e99d09855baa3592ef4d7a5a", "fusion_lat": 0.0, "name": "0465e963e99d09855baa3592ef4d7a5a", "is_reserved": 0, "rental_uris": {"android": "https://dc.lft.to/lastmile_qr_scan", "ios": "https://dc.lft.to/lastmile_qr_scan"}, "fusion_lon": 0.0}, {"lat": 38.89552666666667, "is_disabled": 0, "type": "electric_scooter", "lon": -77.00367366666667, "bike_id": "f43f1a2a5cae906362f8bbc504ca1829", "fusion_lat": 0.0, "name": "f43f1a2a5cae906362f8bbc504ca1829", "is_reserved": 0, "rental_uris": {"android": "https://dc.lft.to/lastmile_qr_scan", "ios": "https://dc.lft.to/lastmile_qr_scan"}, "fusion_lon": 0.0}, {"lat": 38.913542, "is_disabled": 0, "type": "electric_scooter", "lon": -77.04170716666667, "bike_id": "19f32f186dc22ec4bf8ff6fccd875c16", "fusion_lat": 0.0, "name": "19f32f186dc22ec4bf8ff6fccd875c16", "is_reserved": 0, "rental_uris": {"android": "https://dc.lft.to/lastmile_qr_scan", "ios": "https://dc.lft.to/lastmile_qr_scan"}, "fusion_lon": 0.0}, {"lat": 38.871882, "is_disabled": 0, "type": "electric_scooter", "lon": -77.013641, "bike_id": "e3420660f5b392f9b5e8325c64ce2694", "fusion_lat": 0.0, "name": "e3420660f5b392f9b5e8325c64ce2694", "is_reserved": 0, "rental_uris": {"android": "https://dc.lft.to/lastmile_qr_scan", "ios": "https://dc.lft.to/lastmile_qr_scan"}, "fusion_lon": 0.0}, {"lat": 38.813508, "is_disabled": 0, "type": "electric_bike", "lon": -77.049192, "bike_id": "198a53c0e165644b8d7884cc9e8029ca", "fusion_lat": 0.0, "name": "198a53c0e165644b8d7884cc9e8029ca", "is_reserved": 0, "rental_uris": {"android": "https://dc.lft.to/lastmile_qr_scan", "ios": "https://dc.lft.to/lastmile_qr_scan"}, "fusion_lon": 0.0}, {"lat": 38.9619955, "is_disabled": 0, "type": "electric_bike", "lon": -77.03519516666667, "bike_id": "5673e806614786124b4d2335b8e11ba1", "fusion_lat": 0.0, "name": "5673e806614786124b4d2335b8e11ba1", "is_reserved": 0, "rental_uris": {"android": "https://dc.lft.to/lastmile_qr_scan", "ios": "https://dc.lft.to/lastmile_qr_scan"}, "fusion_lon": 0.0}, {"lat": 38.90725283333333, "is_disabled": 0, "type": "electric_scooter", "lon": -77.02968483333333, "bike_id": "75472310fa7b474054ff6c9c2b5d4074", "fusion_lat": 0.0, "name": "75472310fa7b474054ff6c9c2b5d4074", "is_reserved": 0, "rental_uris": {"android": "https://dc.lft.to/lastmile_qr_scan", "ios": "https://dc.lft.to/lastmile_qr_scan"}, "fusion_lon": 0.0}, {"lat": 38.925677666666665, "is_disabled": 0, "type": "electric_scooter", "lon": -77.040099, "bike_id": "23c9194c19d1c7d3085f523403057125", "fusion_lat": 0.0, "name": "23c9194c19d1c7d3085f523403057125", "is_reserved": 0, "rental_uris": {"android": "https://dc.lft.to/lastmile_qr_scan", "ios": "https://dc.lft.to/lastmile_qr_scan"}, "fusion_lon": 0.0}, {"lat": 38.91129633333333, "is_disabled": 0, "type": "electric_scooter", "lon": -77.03810383333334, "bike_id": "7de2a5ddca349f95acb1bac717e806c6", "fusion_lat": 0.0, "name": "7de2a5ddca349f95acb1bac717e806c6", "is_reserved": 0, "rental_uris": {"android": "https://dc.lft.to/lastmile_qr_scan", "ios": "https://dc.lft.to/lastmile_qr_scan"}, "fusion_lon": 0.0}, {"lat": 38.904286, "is_disabled": 0, "type": "electric_scooter", "lon": -77.00210966666667, "bike_id": "53c41110b546cf74b65068d111ff66b1", "fusion_lat": 0.0, "name": "53c41110b546cf74b65068d111ff66b1", "is_reserved": 0, "rental_uris": {"android": "https://dc.lft.to/lastmile_qr_scan", "ios": "https://dc.lft.to/lastmile_qr_scan"}, "fusion_lon": 0.0}, {"lat": 38.896254, "is_disabled": 0, "type": "electric_scooter", "lon": -76.9565715, "bike_id": "ab392b57a1a05dd21dd4f35f4b15e73e", "fusion_lat": 0.0, "name": "ab392b57a1a05dd21dd4f35f4b15e73e", "is_reserved": 0, "rental_uris": {"android": "https://dc.lft.to/lastmile_qr_scan", "ios": "https://dc.lft.to/lastmile_qr_scan"}, "fusion_lon": 0.0}, {"lat": 38.8531725, "is_disabled": 0, "type": "electric_scooter", "lon": -76.98024983333333, "bike_id": "49b973757ec3ed978042fcf9e570f3ac", "fusion_lat": 0.0, "name": "49b973757ec3ed978042fcf9e570f3ac", "is_reserved": 0, "rental_uris": {"android": "https://dc.lft.to/lastmile_qr_scan", "ios": "https://dc.lft.to/lastmile_qr_scan"}, "fusion_lon": 0.0}, {"lat": 38.912923, "is_disabled": 0, "type": "electric_scooter", "lon": -77.0385565, "bike_id": "afd0c6c5f07db1857ee0548bed516522", "fusion_lat": 0.0, "name": "afd0c6c5f07db1857ee0548bed516522", "is_reserved": 0, "rental_uris": {"android": "https://dc.lft.to/lastmile_qr_scan", "ios": "https://dc.lft.to/lastmile_qr_scan"}, "fusion_lon": 0.0}, {"lat": 38.9450785, "is_disabled": 0, "type": "electric_scooter", "lon": -77.0639335, "bike_id": "937b1e54228722ab95bd02da77ecebb6", "fusion_lat": 0.0, "name": "937b1e54228722ab95bd02da77ecebb6", "is_reserved": 0, "rental_uris": {"android": "https://dc.lft.to/lastmile_qr_scan", "ios": "https://dc.lft.to/lastmile_qr_scan"}, "fusion_lon": 0.0}, {"lat": 38.859047333333336, "is_disabled": 0, "type": "electric_scooter", "lon": -76.99151166666667, "bike_id": "4988f7d3f6ce84507a2b12a0d745a563", "fusion_lat": 0.0, "name": "4988f7d3f6ce84507a2b12a0d745a563", "is_reserved": 0, "rental_uris": {"android": "https://dc.lft.to/lastmile_qr_scan", "ios": "https://dc.lft.to/lastmile_qr_scan"}, "fusion_lon": 0.0}, {"lat": 38.9086305, "is_disabled": 0, "type": "electric_scooter", "lon": -76.99169216666667, "bike_id": "0c137339b670d3ce5f2e2fcaf77c63be", "fusion_lat": 0.0, "name": "0c137339b670d3ce5f2e2fcaf77c63be", "is_reserved": 0, "rental_uris": {"android": "https://dc.lft.to/lastmile_qr_scan", "ios": "https://dc.lft.to/lastmile_qr_scan"}, "fusion_lon": 0.0}, {"lat": 38.891095666666665, "is_disabled": 0, "type": "electric_scooter", "lon": -76.943862, "bike_id": "87ab73cb87c6970dd735a9c0f16656e0", "fusion_lat": 0.0, "name": "87ab73cb87c6970dd735a9c0f16656e0", "is_reserved": 0, "rental_uris": {"android": "https://dc.lft.to/lastmile_qr_scan", "ios": "https://dc.lft.to/lastmile_qr_scan"}, "fusion_lon": 0.0}, {"lat": 39.05199266666666, "is_disabled": 0, "type": "electric_bike", "lon": -77.109175, "bike_id": "86af9458e109f5d562910ce34209835f", "fusion_lat": 0.0, "name": "86af9458e109f5d562910ce34209835f", "is_reserved": 0, "rental_uris": {"android": "https://dc.lft.to/lastmile_qr_scan", "ios": "https://dc.lft.to/lastmile_qr_scan"}, "fusion_lon": 0.0}, {"lat": 38.952761333333335, "is_disabled": 0, "type": "electric_scooter", "lon": -77.06869833333333, "bike_id": "d865754a01a5af3d69e2a31787eebbac", "fusion_lat": 0.0, "name": "d865754a01a5af3d69e2a31787eebbac", "is_reserved": 0, "rental_uris": {"android": "https://dc.lft.to/lastmile_qr_scan", "ios": "https://dc.lft.to/lastmile_qr_scan"}, "fusion_lon": 0.0}, {"lat": 38.938787, "is_disabled": 0, "type": "electric_bike", "lon": -76.995079, "bike_id": "6a38be3428a0923b4b3a94d63444b859", "fusion_lat": 0.0, "name": "6a38be3428a0923b4b3a94d63444b859", "is_reserved": 0, "rental_uris": {"android": "https://dc.lft.to/lastmile_qr_scan", "ios": "https://dc.lft.to/lastmile_qr_scan"}, "fusion_lon": 0.0}, {"lat": 38.90034716666667, "is_disabled": 0, "type": "electric_scooter", "lon": -76.99380866666667, "bike_id": "faf54e1f421281b6e252131c109125a1", "fusion_lat": 0.0, "name": "faf54e1f421281b6e252131c109125a1", "is_reserved": 0, "rental_uris": {"android": "https://dc.lft.to/lastmile_qr_scan", "ios": "https://dc.lft.to/lastmile_qr_scan"}, "fusion_lon": 0.0}, {"lat": 38.86650866666667, "is_disabled": 0, "type": "electric_scooter", "lon": -76.98879466666666, "bike_id": "7551675722fca82fcae6449ec295a711", "fusion_lat": 0.0, "name": "7551675722fca82fcae6449ec295a711", "is_reserved": 0, "rental_uris": {"android": "https://dc.lft.to/lastmile_qr_scan", "ios": "https://dc.lft.to/lastmile_qr_scan"}, "fusion_lon": 0.0}, {"lat": 38.89904166666667, "is_disabled": 0, "type": "electric_scooter", "lon": -76.93351233333334, "bike_id": "41913d7e2691970043a34e3c977c82e1", "fusion_lat": 0.0, "name": "41913d7e2691970043a34e3c977c82e1", "is_reserved": 0, "rental_uris": {"android": "https://dc.lft.to/lastmile_qr_scan", "ios": "https://dc.lft.to/lastmile_qr_scan"}, "fusion_lon": 0.0}, {"lat": 38.900285833333335, "is_disabled": 0, "type": "electric_scooter", "lon": -77.00204983333333, "bike_id": "c08e970187d6c32fa51fbeae0a51eb09", "fusion_lat": 0.0, "name": "c08e970187d6c32fa51fbeae0a51eb09", "is_reserved": 0, "rental_uris": {"android": "https://dc.lft.to/lastmile_qr_scan", "ios": "https://dc.lft.to/lastmile_qr_scan"}, "fusion_lon": 0.0}, {"lat": 38.89621433333333, "is_disabled": 0, "type": "electric_scooter", "lon": -77.04501616666667, "bike_id": "101da95b890a6a85168e2afbd31be4e8", "fusion_lat": 0.0, "name": "101da95b890a6a85168e2afbd31be4e8", "is_reserved": 0, "rental_uris": {"android": "https://dc.lft.to/lastmile_qr_scan", "ios": "https://dc.lft.to/lastmile_qr_scan"}, "fusion_lon": 0.0}, {"lat": 38.9154985, "is_disabled": 0, "type": "electric_scooter", "lon": -77.05318666666666, "bike_id": "7c50af1dca3874245acd32212816161b", "fusion_lat": 0.0, "name": "7c50af1dca3874245acd32212816161b", "is_reserved": 0, "rental_uris": {"android": "https://dc.lft.to/lastmile_qr_scan", "ios": "https://dc.lft.to/lastmile_qr_scan"}, "fusion_lon": 0.0}, {"lat": 38.9104615, "is_disabled": 0, "type": "electric_scooter", "lon": -77.02765983333333, "bike_id": "2c1614a880e3b37f8cf2fc7a2980267c", "fusion_lat": 0.0, "name": "2c1614a880e3b37f8cf2fc7a2980267c", "is_reserved": 0, "rental_uris": {"android": "https://dc.lft.to/lastmile_qr_scan", "ios": "https://dc.lft.to/lastmile_qr_scan"}, "fusion_lon": 0.0}, {"lat": 38.91921083333333, "is_disabled": 0, "type": "electric_scooter", "lon": -77.02401666666667, "bike_id": "ee380717ce98099b5219acb6c1ed6313", "fusion_lat": 0.0, "name": "ee380717ce98099b5219acb6c1ed6313", "is_reserved": 0, "rental_uris": {"android": "https://dc.lft.to/lastmile_qr_scan", "ios": "https://dc.lft.to/lastmile_qr_scan"}, "fusion_lon": 0.0}, {"lat": 38.92665, "is_disabled": 0, "type": "electric_scooter", "lon": -76.99545033333334, "bike_id": "9270e6933edfe10389adafdf2fa73810", "fusion_lat": 0.0, "name": "9270e6933edfe10389adafdf2fa73810", "is_reserved": 0, "rental_uris": {"android": "https://dc.lft.to/lastmile_qr_scan", "ios": "https://dc.lft.to/lastmile_qr_scan"}, "fusion_lon": 0.0}, {"lat": 38.914148, "is_disabled": 0, "type": "electric_scooter", "lon": -77.039041, "bike_id": "4401192cd691828af46121fe4046d159", "fusion_lat": 0.0, "name": "4401192cd691828af46121fe4046d159", "is_reserved": 0, "rental_uris": {"android": "https://dc.lft.to/lastmile_qr_scan", "ios": "https://dc.lft.to/lastmile_qr_scan"}, "fusion_lon": 0.0}, {"lat": 38.8976135, "is_disabled": 0, "type": "electric_bike", "lon": -76.90432533333333, "bike_id": "3f6d7339a949943806f12a371f5e4f9c", "fusion_lat": 0.0, "name": "3f6d7339a949943806f12a371f5e4f9c", "is_reserved": 0, "rental_uris": {"android": "https://dc.lft.to/lastmile_qr_scan", "ios": "https://dc.lft.to/lastmile_qr_scan"}, "fusion_lon": 0.0}, {"lat": 38.922846166666666, "is_disabled": 0, "type": "electric_scooter", "lon": -77.0426045, "bike_id": "388eab4a316c2f9a077f7f4786b0b5be", "fusion_lat": 0.0, "name": "388eab4a316c2f9a077f7f4786b0b5be", "is_reserved": 0, "rental_uris": {"android": "https://dc.lft.to/lastmile_qr_scan", "ios": "https://dc.lft.to/lastmile_qr_scan"}, "fusion_lon": 0.0}, {"lat": 38.852041, "is_disabled": 0, "type": "electric_bike", "lon": -76.98552216666667, "bike_id": "5ba5eb01e6281c0ec633d23e10874ba2", "fusion_lat": 0.0, "name": "5ba5eb01e6281c0ec633d23e10874ba2", "is_reserved": 0, "rental_uris": {"android": "https://dc.lft.to/lastmile_qr_scan", "ios": "https://dc.lft.to/lastmile_qr_scan"}, "fusion_lon": 0.0}, {"lat": 38.915411, "is_disabled": 0, "type": "electric_scooter", "lon": -77.021981, "bike_id": "bdce4cca349cea3027604933827bf012", "fusion_lat": 0.0, "name": "bdce4cca349cea3027604933827bf012", "is_reserved": 0, "rental_uris": {"android": "https://dc.lft.to/lastmile_qr_scan", "ios": "https://dc.lft.to/lastmile_qr_scan"}, "fusion_lon": 0.0}, {"lat": 38.9181165, "is_disabled": 0, "type": "electric_scooter", "lon": -77.04517016666667, "bike_id": "39549c9dfc131a56fc041d74c0d3b76c", "fusion_lat": 0.0, "name": "39549c9dfc131a56fc041d74c0d3b76c", "is_reserved": 0, "rental_uris": {"android": "https://dc.lft.to/lastmile_qr_scan", "ios": "https://dc.lft.to/lastmile_qr_scan"}, "fusion_lon": 0.0}, {"lat": 38.8946695, "is_disabled": 0, "type": "electric_scooter", "lon": -76.98836866666667, "bike_id": "6e007d106111f9fc090d2f68c13366a3", "fusion_lat": 0.0, "name": "6e007d106111f9fc090d2f68c13366a3", "is_reserved": 0, "rental_uris": {"android": "https://dc.lft.to/lastmile_qr_scan", "ios": "https://dc.lft.to/lastmile_qr_scan"}, "fusion_lon": 0.0}, {"lat": 38.905021166666664, "is_disabled": 0, "type": "electric_scooter", "lon": -77.05126533333333, "bike_id": "59c064bb8d1eeb9355e92701b8fb7292", "fusion_lat": 0.0, "name": "59c064bb8d1eeb9355e92701b8fb7292", "is_reserved": 0, "rental_uris": {"android": "https://dc.lft.to/lastmile_qr_scan", "ios": "https://dc.lft.to/lastmile_qr_scan"}, "fusion_lon": 0.0}, {"lat": 38.95636183333333, "is_disabled": 0, "type": "electric_bike", "lon": -76.93887216666667, "bike_id": "6ddbd41b2c992dc1f7a4e19c45ec49bf", "fusion_lat": 0.0, "name": "6ddbd41b2c992dc1f7a4e19c45ec49bf", "is_reserved": 0, "rental_uris": {"android": "https://dc.lft.to/lastmile_qr_scan", "ios": "https://dc.lft.to/lastmile_qr_scan"}, "fusion_lon": 0.0}, {"lat": 38.92565033333333, "is_disabled": 0, "type": "electric_scooter", "lon": -77.05753583333333, "bike_id": "5a0514051b386b9747ed0f4f2c9a3ff4", "fusion_lat": 0.0, "name": "5a0514051b386b9747ed0f4f2c9a3ff4", "is_reserved": 0, "rental_uris": {"android": "https://dc.lft.to/lastmile_qr_scan", "ios": "https://dc.lft.to/lastmile_qr_scan"}, "fusion_lon": 0.0}, {"lat": 38.9145425, "is_disabled": 0, "type": "electric_scooter", "lon": -77.04162133333334, "bike_id": "04ec822e6eb8784d15ff92d9b74c3f78", "fusion_lat": 0.0, "name": "04ec822e6eb8784d15ff92d9b74c3f78", "is_reserved": 0, "rental_uris": {"android": "https://dc.lft.to/lastmile_qr_scan", "ios": "https://dc.lft.to/lastmile_qr_scan"}, "fusion_lon": 0.0}, {"lat": 38.83211683333333, "is_disabled": 0, "type": "electric_bike", "lon": -76.94631816666667, "bike_id": "8843b3dd2402c25f984c6aeb85cc3c49", "fusion_lat": 0.0, "name": "8843b3dd2402c25f984c6aeb85cc3c49", "is_reserved": 0, "rental_uris": {"android": "https://dc.lft.to/lastmile_qr_scan", "ios": "https://dc.lft.to/lastmile_qr_scan"}, "fusion_lon": 0.0}, {"lat": 38.853769, "is_disabled": 0, "type": "electric_bike", "lon": -77.12435816666667, "bike_id": "628105f4e29ed4cd0b2415d26cf5ffef", "fusion_lat": 0.0, "name": "628105f4e29ed4cd0b2415d26cf5ffef", "is_reserved": 0, "rental_uris": {"android": "https://dc.lft.to/lastmile_qr_scan", "ios": "https://dc.lft.to/lastmile_qr_scan"}, "fusion_lon": 0.0}, {"lat": 38.8998315, "is_disabled": 0, "type": "electric_scooter", "lon": -77.026569, "bike_id": "52e698fb295d7c52908683878b091e61", "fusion_lat": 0.0, "name": "52e698fb295d7c52908683878b091e61", "is_reserved": 0, "rental_uris": {"android": "https://dc.lft.to/lastmile_qr_scan", "ios": "https://dc.lft.to/lastmile_qr_scan"}, "fusion_lon": 0.0}, {"lat": 38.90064683333333, "is_disabled": 0, "type": "electric_scooter", "lon": -77.00210716666666, "bike_id": "5dc4403c4bf9770720c6f2981289e29e", "fusion_lat": 0.0, "name": "5dc4403c4bf9770720c6f2981289e29e", "is_reserved": 0, "rental_uris": {"android": "https://dc.lft.to/lastmile_qr_scan", "ios": "https://dc.lft.to/lastmile_qr_scan"}, "fusion_lon": 0.0}, {"lat": 38.925359666666665, "is_disabled": 0, "type": "electric_scooter", "lon": -77.04128083333333, "bike_id": "c029b28d68dab51bd4f0efe7dd34c21d", "fusion_lat": 0.0, "name": "c029b28d68dab51bd4f0efe7dd34c21d", "is_reserved": 0, "rental_uris": {"android": "https://dc.lft.to/lastmile_qr_scan", "ios": "https://dc.lft.to/lastmile_qr_scan"}, "fusion_lon": 0.0}, {"lat": 38.8998995, "is_disabled": 0, "type": "electric_scooter", "lon": -77.05263266666667, "bike_id": "23731c4c507a86c88d02c35218610887", "fusion_lat": 0.0, "name": "23731c4c507a86c88d02c35218610887", "is_reserved": 0, "rental_uris": {"android": "https://dc.lft.to/lastmile_qr_scan", "ios": "https://dc.lft.to/lastmile_qr_scan"}, "fusion_lon": 0.0}, {"lat": 38.9949285, "is_disabled": 0, "type": "electric_bike", "lon": -77.02901166666666, "bike_id": "36901e3de89af80e5728387f440fa1a8", "fusion_lat": 0.0, "name": "36901e3de89af80e5728387f440fa1a8", "is_reserved": 0, "rental_uris": {"android": "https://dc.lft.to/lastmile_qr_scan", "ios": "https://dc.lft.to/lastmile_qr_scan"}, "fusion_lon": 0.0}, {"lat": 38.917592666666664, "is_disabled": 0, "type": "electric_scooter", "lon": -77.031853, "bike_id": "0e362babe1515903b276616f12704236", "fusion_lat": 0.0, "name": "0e362babe1515903b276616f12704236", "is_reserved": 0, "rental_uris": {"android": "https://dc.lft.to/lastmile_qr_scan", "ios": "https://dc.lft.to/lastmile_qr_scan"}, "fusion_lon": 0.0}, {"lat": 38.895171500000004, "is_disabled": 0, "type": "electric_scooter", "lon": -76.977315, "bike_id": "59aab4e5fb567e99d6dc8ffc410881b4", "fusion_lat": 0.0, "name": "59aab4e5fb567e99d6dc8ffc410881b4", "is_reserved": 0, "rental_uris": {"android": "https://dc.lft.to/lastmile_qr_scan", "ios": "https://dc.lft.to/lastmile_qr_scan"}, "fusion_lon": 0.0}, {"lat": 38.91697166666667, "is_disabled": 0, "type": "electric_scooter", "lon": -77.0237725, "bike_id": "28ad1e3044ab74b9bdf0b44652b940f9", "fusion_lat": 0.0, "name": "28ad1e3044ab74b9bdf0b44652b940f9", "is_reserved": 0, "rental_uris": {"android": "https://dc.lft.to/lastmile_qr_scan", "ios": "https://dc.lft.to/lastmile_qr_scan"}, "fusion_lon": 0.0}, {"lat": 38.89459866666667, "is_disabled": 0, "type": "electric_scooter", "lon": -77.026882, "bike_id": "719399215cc40fd792c17a2c727d173d", "fusion_lat": 0.0, "name": "719399215cc40fd792c17a2c727d173d", "is_reserved": 0, "rental_uris": {"android": "https://dc.lft.to/lastmile_qr_scan", "ios": "https://dc.lft.to/lastmile_qr_scan"}, "fusion_lon": 0.0}, {"lat": 38.90633866666667, "is_disabled": 0, "type": "electric_scooter", "lon": -76.98571016666666, "bike_id": "66ed8731f20ab11d650d35224bf03e79", "fusion_lat": 0.0, "name": "66ed8731f20ab11d650d35224bf03e79", "is_reserved": 0, "rental_uris": {"android": "https://dc.lft.to/lastmile_qr_scan", "ios": "https://dc.lft.to/lastmile_qr_scan"}, "fusion_lon": 0.0}, {"lat": 38.914200666666666, "is_disabled": 0, "type": "electric_scooter", "lon": -77.03188366666667, "bike_id": "0ab064f9276c9e701ae092de8770ada5", "fusion_lat": 0.0, "name": "0ab064f9276c9e701ae092de8770ada5", "is_reserved": 0, "rental_uris": {"android": "https://dc.lft.to/lastmile_qr_scan", "ios": "https://dc.lft.to/lastmile_qr_scan"}, "fusion_lon": 0.0}, {"lat": 38.94916033333333, "is_disabled": 0, "type": "electric_bike", "lon": -77.00798316666666, "bike_id": "8e68178b0d8857eedc0fe8d4a2415c85", "fusion_lat": 0.0, "name": "8e68178b0d8857eedc0fe8d4a2415c85", "is_reserved": 0, "rental_uris": {"android": "https://dc.lft.to/lastmile_qr_scan", "ios": "https://dc.lft.to/lastmile_qr_scan"}, "fusion_lon": 0.0}, {"lat": 38.958826, "is_disabled": 0, "type": "electric_bike", "lon": -76.92491283333334, "bike_id": "09c07ff27936a06206828d0e26ab707f", "fusion_lat": 0.0, "name": "09c07ff27936a06206828d0e26ab707f", "is_reserved": 0, "rental_uris": {"android": "https://dc.lft.to/lastmile_qr_scan", "ios": "https://dc.lft.to/lastmile_qr_scan"}, "fusion_lon": 0.0}, {"lat": 38.9211515, "is_disabled": 0, "type": "electric_bike", "lon": -76.98576033333333, "bike_id": "c1f918721c59257bdc624edc44997c29", "fusion_lat": 0.0, "name": "c1f918721c59257bdc624edc44997c29", "is_reserved": 0, "rental_uris": {"android": "https://dc.lft.to/lastmile_qr_scan", "ios": "https://dc.lft.to/lastmile_qr_scan"}, "fusion_lon": 0.0}, {"lat": 38.90283266666667, "is_disabled": 0, "type": "electric_scooter", "lon": -77.06362283333333, "bike_id": "ae060aa164bd743a1edc3f81f1cbba6c", "fusion_lat": 0.0, "name": "ae060aa164bd743a1edc3f81f1cbba6c", "is_reserved": 0, "rental_uris": {"android": "https://dc.lft.to/lastmile_qr_scan", "ios": "https://dc.lft.to/lastmile_qr_scan"}, "fusion_lon": 0.0}, {"lat": 38.912628, "is_disabled": 0, "type": "electric_scooter", "lon": -77.0447635, "bike_id": "fd589bb8a63e592ec6c5e5dd9aed1a45", "fusion_lat": 0.0, "name": "fd589bb8a63e592ec6c5e5dd9aed1a45", "is_reserved": 0, "rental_uris": {"android": "https://dc.lft.to/lastmile_qr_scan", "ios": "https://dc.lft.to/lastmile_qr_scan"}, "fusion_lon": 0.0}, {"lat": 38.931034833333335, "is_disabled": 0, "type": "electric_scooter", "lon": -77.0340425, "bike_id": "53eeac6534546f20671765cefae82c4d", "fusion_lat": 0.0, "name": "53eeac6534546f20671765cefae82c4d", "is_reserved": 0, "rental_uris": {"android": "https://dc.lft.to/lastmile_qr_scan", "ios": "https://dc.lft.to/lastmile_qr_scan"}, "fusion_lon": 0.0}, {"lat": 38.91180516666667, "is_disabled": 0, "type": "electric_scooter", "lon": -77.04326666666667, "bike_id": "f5fd9bbdd916f14fa50f7b957213c6ae", "fusion_lat": 0.0, "name": "f5fd9bbdd916f14fa50f7b957213c6ae", "is_reserved": 0, "rental_uris": {"android": "https://dc.lft.to/lastmile_qr_scan", "ios": "https://dc.lft.to/lastmile_qr_scan"}, "fusion_lon": 0.0}, {"lat": 38.917043166666666, "is_disabled": 0, "type": "electric_scooter", "lon": -77.03562316666667, "bike_id": "55bb231b2ba104b8d5698c9084e61c67", "fusion_lat": 0.0, "name": "55bb231b2ba104b8d5698c9084e61c67", "is_reserved": 0, "rental_uris": {"android": "https://dc.lft.to/lastmile_qr_scan", "ios": "https://dc.lft.to/lastmile_qr_scan"}, "fusion_lon": 0.0}, {"lat": 38.93009133333334, "is_disabled": 0, "type": "electric_scooter", "lon": -77.02083433333334, "bike_id": "ddbcb1599139d3f5f7e7bc65a41403f1", "fusion_lat": 0.0, "name": "ddbcb1599139d3f5f7e7bc65a41403f1", "is_reserved": 0, "rental_uris": {"android": "https://dc.lft.to/lastmile_qr_scan", "ios": "https://dc.lft.to/lastmile_qr_scan"}, "fusion_lon": 0.0}, {"lat": 38.90994116666667, "is_disabled": 0, "type": "electric_scooter", "lon": -77.0400985, "bike_id": "85773be0809ba01731ee590afcbb7bde", "fusion_lat": 0.0, "name": "85773be0809ba01731ee590afcbb7bde", "is_reserved": 0, "rental_uris": {"android": "https://dc.lft.to/lastmile_qr_scan", "ios": "https://dc.lft.to/lastmile_qr_scan"}, "fusion_lon": 0.0}, {"lat": 38.8433975, "is_disabled": 0, "type": "electric_bike", "lon": -77.11456333333334, "bike_id": "dfefd55859e1b22cc26117d0ec1c270c", "fusion_lat": 0.0, "name": "dfefd55859e1b22cc26117d0ec1c270c", "is_reserved": 0, "rental_uris": {"android": "https://dc.lft.to/lastmile_qr_scan", "ios": "https://dc.lft.to/lastmile_qr_scan"}, "fusion_lon": 0.0}, {"lat": 38.89351716666667, "is_disabled": 0, "type": "electric_scooter", "lon": -77.04141716666666, "bike_id": "28e471e542d1f4748d44955144105323", "fusion_lat": 0.0, "name": "28e471e542d1f4748d44955144105323", "is_reserved": 0, "rental_uris": {"android": "https://dc.lft.to/lastmile_qr_scan", "ios": "https://dc.lft.to/lastmile_qr_scan"}, "fusion_lon": 0.0}, {"lat": 38.92065983333333, "is_disabled": 0, "type": "electric_scooter", "lon": -77.014269, "bike_id": "91a894c7539d6dc9c5956c96255363ad", "fusion_lat": 0.0, "name": "91a894c7539d6dc9c5956c96255363ad", "is_reserved": 0, "rental_uris": {"android": "https://dc.lft.to/lastmile_qr_scan", "ios": "https://dc.lft.to/lastmile_qr_scan"}, "fusion_lon": 0.0}, {"lat": 38.892214833333334, "is_disabled": 0, "type": "electric_scooter", "lon": -76.93299083333333, "bike_id": "f9c5a9b70e00ab70fa834411cb4c063a", "fusion_lat": 0.0, "name": "f9c5a9b70e00ab70fa834411cb4c063a", "is_reserved": 0, "rental_uris": {"android": "https://dc.lft.to/lastmile_qr_scan", "ios": "https://dc.lft.to/lastmile_qr_scan"}, "fusion_lon": 0.0}, {"lat": 38.900412, "is_disabled": 0, "type": "electric_scooter", "lon": -77.03308433333333, "bike_id": "ead796d2a07d94ead4fb402d5d7e108d", "fusion_lat": 0.0, "name": "ead796d2a07d94ead4fb402d5d7e108d", "is_reserved": 0, "rental_uris": {"android": "https://dc.lft.to/lastmile_qr_scan", "ios": "https://dc.lft.to/lastmile_qr_scan"}, "fusion_lon": 0.0}, {"lat": 38.91573066666667, "is_disabled": 0, "type": "electric_scooter", "lon": -77.02288016666667, "bike_id": "7f945dc85103b3cd7944ae7196c9a981", "fusion_lat": 0.0, "name": "7f945dc85103b3cd7944ae7196c9a981", "is_reserved": 0, "rental_uris": {"android": "https://dc.lft.to/lastmile_qr_scan", "ios": "https://dc.lft.to/lastmile_qr_scan"}, "fusion_lon": 0.0}, {"lat": 38.900880666666666, "is_disabled": 0, "type": "electric_scooter", "lon": -77.05601316666667, "bike_id": "48819549c0227dd2e8fd57310a5e23a8", "fusion_lat": 0.0, "name": "48819549c0227dd2e8fd57310a5e23a8", "is_reserved": 0, "rental_uris": {"android": "https://dc.lft.to/lastmile_qr_scan", "ios": "https://dc.lft.to/lastmile_qr_scan"}, "fusion_lon": 0.0}, {"lat": 38.913594833333335, "is_disabled": 0, "type": "electric_scooter", "lon": -77.0336265, "bike_id": "c93eda91b5364e0f19ba742f3bc84f8f", "fusion_lat": 0.0, "name": "c93eda91b5364e0f19ba742f3bc84f8f", "is_reserved": 0, "rental_uris": {"android": "https://dc.lft.to/lastmile_qr_scan", "ios": "https://dc.lft.to/lastmile_qr_scan"},