{"data": {"bikes": [{"rental_uris": {"ios": "https://dc.lft.to/lastmile_qr_scan", "android": "https://dc.lft.to/lastmile_qr_scan"}, "lat": 38.91937633333333, "bike_id": "02cdabbfcb6ead7396418d72527e1a2e", "lon": -77.00313, "type": "electric_scooter", "fusion_lon": 0.0, "fusion_lat": 0.0, "is_reserved": 0, "name": "02cdabbfcb6ead7396418d72527e1a2e", "is_disabled": 0}, {"rental_uris": {"ios": "https://dc.lft.to/lastmile_qr_scan", "android": "https://dc.lft.to/lastmile_qr_scan"}, "lat": 38.8742335, "bike_id": "c4d0de396cb864db40467971a12e8b0f", "lon": -76.96912316666666, "type": "electric_scooter", "fusion_lon": 0.0, "fusion_lat": 0.0, "is_reserved": 0, "name": "c4d0de396cb864db40467971a12e8b0f", "is_disabled": 0}, {"rental_uris": {"ios": "https://dc.lft.to/lastmile_qr_scan", "android": "https://dc.lft.to/lastmile_qr_scan"}, "lat": 38.9125855, "bike_id": "f2c0d9ce7f8f48923dcc3cba0ffea636", "lon": -77.02230966666667, "type": "electric_scooter", "fusion_lon": 0.0, "fusion_lat": 0.0, "is_reserved": 0, "name": "f2c0d9ce7f8f48923dcc3cba0ffea636", "is_disabled": 0}, {"rental_uris": {"ios": "https://dc.lft.to/lastmile_qr_scan", "android": "https://dc.lft.to/lastmile_qr_scan"}, "lat": 38.926036, "bike_id": "3d3649f249060a168405bce96d56b473", "lon": -77.03659533333334, "type": "electric_scooter", "fusion_lon": 0.0, "fusion_lat": 0.0, "is_reserved": 0, "name": "3d3649f249060a168405bce96d56b473", "is_disabled": 0}, {"rental_uris": {"ios": "https://dc.lft.to/lastmile_qr_scan", "android": "https://dc.lft.to/lastmile_qr_scan"}, "lat": 38.88678266666667, "bike_id": "d15fb7b0002a750811b36f01260fe2f1", "lon": -77.0006715, "type": "electric_scooter", "fusion_lon": 0.0, "fusion_lat": 0.0, "is_reserved": 0, "name": "d15fb7b0002a750811b36f01260fe2f1", "is_disabled": 0}, {"rental_uris": {"ios": "https://dc.lft.to/lastmile_qr_scan", "android": "https://dc.lft.to/lastmile_qr_scan"}, "lat": 38.896307, "bike_id": "48d884082d9ac1d3ef40f91a7a684377", "lon": -77.021988, "type": "electric_scooter", "fusion_lon": 0.0, "fusion_lat": 0.0, "is_reserved": 0, "name": "48d884082d9ac1d3ef40f91a7a684377", "is_disabled": 0}, {"rental_uris": {"ios": "https://dc.lft.to/lastmile_qr_scan", "android": "https://dc.lft.to/lastmile_qr_scan"}, "lat": 38.884089, "bike_id": "15a9b1120500a69d372971ac2db13fce", "lon": -77.01971883333333, "type": "electric_scooter", "fusion_lon": 0.0, "fusion_lat": 0.0, "is_reserved": 0, "name": "15a9b1120500a69d372971ac2db13fce", "is_disabled": 0}, {"rental_uris": {"ios": "https://dc.lft.to/lastmile_qr_scan", "android": "https://dc.lft.to/lastmile_qr_scan"}, "lat": 38.9188085, "bike_id": "a5ad966033c1d89b0c0dcec97fa70236", "lon": -77.0248085, "type": "electric_scooter", "fusion_lon": 0.0, "fusion_lat": 0.0, "is_reserved": 0, "name": "a5ad966033c1d89b0c0dcec97fa70236", "is_disabled": 0}, {"rental_uris": {"ios": "https://dc.lft.to/lastmile_qr_scan", "android": "https://dc.lft.to/lastmile_qr_scan"}, "lat": 38.87866916666667, "bike_id": "01ed626440ac8c8ad842f05e9a285768", "lon": -76.969804, "type": "electric_scooter", "fusion_lon": 0.0, "fusion_lat": 0.0, "is_reserved": 0, "name": "01ed626440ac8c8ad842f05e9a285768", "is_disabled": 0}, {"rental_uris": {"ios": "https://dc.lft.to/lastmile_qr_scan", "android": "https://dc.lft.to/lastmile_qr_scan"}, "lat": 38.89842866666667, "bike_id": "4b4855afe690578e1660784353b9ffeb", "lon": -76.94246933333334, "type": "electric_scooter", "fusion_lon": 0.0, "fusion_lat": 0.0, "is_reserved": 0, "name": "4b4855afe690578e1660784353b9ffeb", "is_disabled": 0}, {"rental_uris": {"ios": "https://dc.lft.to/lastmile_qr_scan", "android": "https://dc.lft.to/lastmile_qr_scan"}, "lat": 38.88848466666666, "bike_id": "fcd103e07d19fda251e4d9ca9fdd5987", "lon": -76.92677883333333, "type": "electric_scooter", "fusion_lon": 0.0, "fusion_lat": 0.0, "is_reserved": 0, "name": "fcd103e07d19fda251e4d9ca9fdd5987", "is_disabled": 0}, {"rental_uris": {"ios": "https://dc.lft.to/lastmile_qr_scan", "android": "https://dc.lft.to/lastmile_qr_scan"}, "lat": 38.90384383333333, "bike_id": "4c8c9e06b4521c67b4d1e6707011bc6e", "lon": -77.0534865, "type": "electric_scooter", "fusion_lon": 0.0, "fusion_lat": 0.0, "is_reserved": 0, "name": "4c8c9e06b4521c67b4d1e6707011bc6e", "is_disabled": 0}, {"rental_uris": {"ios": "https://dc.lft.to/lastmile_qr_scan", "android": "https://dc.lft.to/lastmile_qr_scan"}, "lat": 38.87724816666667, "bike_id": "7107ecd3c5714498e1cc8683e46fc6e8", "lon": -77.00521483333333, "type": "electric_scooter", "fusion_lon": 0.0, "fusion_lat": 0.0, "is_reserved": 0, "name": "7107ecd3c5714498e1cc8683e46fc6e8", "is_disabled": 0}, {"rental_uris": {"ios": "https://dc.lft.to/lastmile_qr_scan", "android": "https://dc.lft.to/lastmile_qr_scan"}, "lat": 38.91708666666667, "bike_id": "e6cbe21c570e27818d24397986fe44f3", "lon": -77.04174583333334, "type": "electric_scooter", "fusion_lon": 0.0, "fusion_lat": 0.0, "is_reserved": 0, "name": "e6cbe21c570e27818d24397986fe44f3", "is_disabled": 0}, {"rental_uris": {"ios": "https://dc.lft.to/lastmile_qr_scan", "android": "https://dc.lft.to/lastmile_qr_scan"}, "lat": 38.91711816666667, "bike_id": "0d948ca2271a261bade9c4246530d124", "lon": -77.03222666666667, "type": "electric_scooter", "fusion_lon": 0.0, "fusion_lat": 0.0, "is_reserved": 0, "name": "0d948ca2271a261bade9c4246530d124", "is_disabled": 0}, {"rental_uris": {"ios": "https://dc.lft.to/lastmile_qr_scan", "android": "https://dc.lft.to/lastmile_qr_scan"}, "lat": 38.892417333333334, "bike_id": "a5f9b6ecd167dc04b76ca634f922c6a2", "lon": -77.03342866666667, "type": "electric_scooter", "fusion_lon": 0.0, "fusion_lat": 0.0, "is_reserved": 0, "name": "a5f9b6ecd167dc04b76ca634f922c6a2", "is_disabled": 0}, {"rental_uris": {"ios": "https://dc.lft.to/lastmile_qr_scan", "android": "https://dc.lft.to/lastmile_qr_scan"}, "lat": 38.91068333333333, "bike_id": "74d94fd209a0965fe2de0e81d5cb999f", "lon": -77.03082783333333, "type": "electric_scooter", "fusion_lon": 0.0, "fusion_lat": 0.0, "is_reserved": 0, "name": "74d94fd209a0965fe2de0e81d5cb999f", "is_disabled": 0}, {"rental_uris": {"ios": "https://dc.lft.to/lastmile_qr_scan", "android": "https://dc.lft.to/lastmile_qr_scan"}, "lat": 38.909436166666666, "bike_id": "de71a38d9bb472a471423aabfaa1bfe3", "lon": -77.02295716666667, "type": "electric_scooter", "fusion_lon": 0.0, "fusion_lat": 0.0, "is_reserved": 0, "name": "de71a38d9bb472a471423aabfaa1bfe3", "is_disabled": 0}, {"rental_uris": {"ios": "https://dc.lft.to/lastmile_qr_scan", "android": "https://dc.lft.to/lastmile_qr_scan"}, "lat": 38.91170233333333, "bike_id": "5f26bf36daf91d95cda77cac269cc035", "lon": -77.0774745, "type": "electric_scooter", "fusion_lon": 0.0, "fusion_lat": 0.0, "is_reserved": 0, "name": "5f26bf36daf91d95cda77cac269cc035", "is_disabled": 0}, {"rental_uris": {"ios": "https://dc.lft.to/lastmile_qr_scan", "android": "https://dc.lft.to/lastmile_qr_scan"}, "lat": 38.940212833333334, "bike_id": "c19e848aa0affa580a8b7de96c353a96", "lon": -76.97607133333334, "type": "electric_scooter", "fusion_lon": 0.0, "fusion_lat": 0.0, "is_reserved": 0, "name": "c19e848aa0affa580a8b7de96c353a96", "is_disabled": 0}, {"rental_uris": {"ios": "https://dc.lft.to/lastmile_qr_scan", "android": "https://dc.lft.to/lastmile_qr_scan"}, "lat": 38.89480966666667, "bike_id": "02b41f20d8a807242f21b7e1ac82b0db", "lon": -76.94859316666667, "type": "electric_scooter", "fusion_lon": 0.0, "fusion_lat": 0.0, "is_reserved": 0, "name": "02b41f20d8a807242f21b7e1ac82b0db", "is_disabled": 0}, {"rental_uris": {"ios": "https://dc.lft.to/lastmile_qr_scan", "android": "https://dc.lft.to/lastmile_qr_scan"}, "lat": 38.909769, "bike_id": "e444f0a6ef2ce986c22fd12b63547ea1", "lon": -77.02176466666667, "type": "electric_scooter", "fusion_lon": 0.0, "fusion_lat": 0.0, "is_reserved": 0, "name": "e444f0a6ef2ce986c22fd12b63547ea1", "is_disabled": 0}, {"rental_uris": {"ios": "https://dc.lft.to/lastmile_qr_scan", "android": "https://dc.lft.to/lastmile_qr_scan"}, "lat": 38.911099166666666, "bike_id": "b02748ab2143475a65356fcb727a801f", "lon": -77.0432715, "type": "electric_scooter", "fusion_lon": 0.0, "fusion_lat": 0.0, "is_reserved": 0, "name": "b02748ab2143475a65356fcb727a801f", "is_disabled": 0}, {"rental_uris": {"ios": "https://dc.lft.to/lastmile_qr_scan", "android": "https://dc.lft.to/lastmile_qr_scan"}, "lat": 38.90020766666667, "bike_id": "11a1256a7acd84a384f1d26c6f902db0", "lon": -77.04477566666667, "type": "electric_scooter", "fusion_lon": 0.0, "fusion_lat": 0.0, "is_reserved": 0, "name": "11a1256a7acd84a384f1d26c6f902db0", "is_disabled": 0}, {"rental_uris": {"ios": "https://dc.lft.to/lastmile_qr_scan", "android": "https://dc.lft.to/lastmile_qr_scan"}, "lat": 38.89836016666667, "bike_id": "5fea308ecf629b2e481748b93358cd71", "lon": -77.028174, "type": "electric_scooter", "fusion_lon": 0.0, "fusion_lat": 0.0, "is_reserved": 0, "name": "5fea308ecf629b2e481748b93358cd71", "is_disabled": 0}, {"rental_uris": {"ios": "https://dc.lft.to/lastmile_qr_scan", "android": "https://dc.lft.to/lastmile_qr_scan"}, "lat": 38.9141685, "bike_id": "23b151dc86d93f16e25485e5109e9964", "lon": -77.026125, "type": "electric_scooter", "fusion_lon": 0.0, "fusion_lat": 0.0, "is_reserved": 0, "name": "23b151dc86d93f16e25485e5109e9964", "is_disabled": 0}, {"rental_uris": {"ios": "https://dc.lft.to/lastmile_qr_scan", "android": "https://dc.lft.to/lastmile_qr_scan"}, "lat": 38.930582, "bike_id": "c657740bd9ff58d77dea495f9d2918e0", "lon": -77.03631866666667, "type": "electric_scooter", "fusion_lon": 0.0, "fusion_lat": 0.0, "is_reserved": 0, "name": "c657740bd9ff58d77dea495f9d2918e0", "is_disabled": 0}, {"rental_uris": {"ios": "https://dc.lft.to/lastmile_qr_scan", "android": "https://dc.lft.to/lastmile_qr_scan"}, "lat": 38.90001083333333, "bike_id": "d3bdb9684e61cc523290f9854d997c24", "lon": -77.01024, "type": "electric_scooter", "fusion_lon": 0.0, "fusion_lat": 0.0, "is_reserved": 0, "name": "d3bdb9684e61cc523290f9854d997c24", "is_disabled": 0}, {"rental_uris": {"ios": "https://dc.lft.to/lastmile_qr_scan", "android": "https://dc.lft.to/lastmile_qr_scan"}, "lat": 38.922683, "bike_id": "93845e3be17042844e8388eec0295c1f", "lon": -77.0234515, "type": "electric_scooter", "fusion_lon": 0.0, "fusion_lat": 0.0, "is_reserved": 0, "name": "93845e3be17042844e8388eec0295c1f", "is_disabled": 0}, {"rental_uris": {"ios": "https://dc.lft.to/lastmile_qr_scan", "android": "https://dc.lft.to/lastmile_qr_scan"}, "lat": 38.920434, "bike_id": "248e6524b35850129be6c829685071de", "lon": -77.0167395, "type": "electric_scooter", "fusion_lon": 0.0, "fusion_lat": 0.0, "is_reserved": 0, "name": "248e6524b35850129be6c829685071de", "is_disabled": 0}, {"rental_uris": {"ios": "https://dc.lft.to/lastmile_qr_scan", "android": "https://dc.lft.to/lastmile_qr_scan"}, "lat": 38.95503866666667, "bike_id": "0246bee23920ec221ac23615bac0fa6f", "lon": -77.026784, "type": "electric_scooter", "fusion_lon": 0.0, "fusion_lat": 0.0, "is_reserved": 0, "name": "0246bee23920ec221ac23615bac0fa6f", "is_disabled": 0}, {"rental_uris": {"ios": "https://dc.lft.to/lastmile_qr_scan", "android": "https://dc.lft.to/lastmile_qr_scan"}, "lat": 38.931935, "bike_id": "910afa341e0b10ce8daabbf87b1169de", "lon": -77.229231, "type": "electric_bike", "fusion_lon": 0.0, "fusion_lat": 0.0, "is_reserved": 0, "name": "910afa341e0b10ce8daabbf87b1169de", "is_disabled": 0}, {"rental_uris": {"ios": "https://dc.lft.to/lastmile_qr_scan", "android": "https://dc.lft.to/lastmile_qr_scan"}, "lat": 38.92703616666667, "bike_id": "81683d5d34d2c2c63320fcf0ae1a4179", "lon": -77.023826, "type": "electric_scooter", "fusion_lon": 0.0, "fusion_lat": 0.0, "is_reserved": 0, "name": "81683d5d34d2c2c63320fcf0ae1a4179", "is_disabled": 0}, {"rental_uris": {"ios": "https://dc.lft.to/lastmile_qr_scan", "android": "https://dc.lft.to/lastmile_qr_scan"}, "lat": 38.8650775, "bike_id": "222006138fa1eebe053bfbdc2d76ed4e", "lon": -76.99007433333334, "type": "electric_scooter", "fusion_lon": 0.0, "fusion_lat": 0.0, "is_reserved": 0, "name": "222006138fa1eebe053bfbdc2d76ed4e", "is_disabled": 0}, {"rental_uris": {"ios": "https://dc.lft.to/lastmile_qr_scan", "android": "https://dc.lft.to/lastmile_qr_scan"}, "lat": 38.9738335, "bike_id": "b79c04048bf8c7a8d1bba05614ce32b4", "lon": -77.064712, "type": "electric_bike", "fusion_lon": 0.0, "fusion_lat": 0.0, "is_reserved": 0, "name": "b79c04048bf8c7a8d1bba05614ce32b4", "is_disabled": 0}, {"rental_uris": {"ios": "https://dc.lft.to/lastmile_qr_scan", "android": "https://dc.lft.to/lastmile_qr_scan"}, "lat": 38.917435833333336, "bike_id": "bac773276e718afb8a0477196479ff43", "lon": -77.0171315, "type": "electric_scooter", "fusion_lon": 0.0, "fusion_lat": 0.0, "is_reserved": 0, "name": "bac773276e718afb8a0477196479ff43", "is_disabled": 0}, {"rental_uris": {"ios": "https://dc.lft.to/lastmile_qr_scan", "android": "https://dc.lft.to/lastmile_qr_scan"}, "lat": 38.89915883333333, "bike_id": "0810d5a18ef505f7bc83c29726b22bfc", "lon": -77.01623016666667, "type": "electric_scooter", "fusion_lon": 0.0, "fusion_lat": 0.0, "is_reserved": 0, "name": "0810d5a18ef505f7bc83c29726b22bfc", "is_disabled": 0}, {"rental_uris": {"ios": "https://dc.lft.to/lastmile_qr_scan", "android": "https://dc.lft.to/lastmile_qr_scan"}, "lat": 38.917097166666665, "bike_id": "4e854cff7eaeebe79b814add67107bf7", "lon": -77.028946, "type": "electric_scooter", "fusion_lon": 0.0, "fusion_lat": 0.0, "is_reserved": 0, "name": "4e854cff7eaeebe79b814add67107bf7", "is_disabled": 0}, {"rental_uris": {"ios": "https://dc.lft.to/lastmile_qr_scan", "android": "https://dc.lft.to/lastmile_qr_scan"}, "lat": 38.916396, "bike_id": "5577caca58d7fe53f9c776a512305120", "lon": -77.03201316666667, "type": "electric_scooter", "fusion_lon": 0.0, "fusion_lat": 0.0, "is_reserved": 0, "name": "5577caca58d7fe53f9c776a512305120", "is_disabled": 0}, {"rental_uris": {"ios": "https://dc.lft.to/lastmile_qr_scan", "android": "https://dc.lft.to/lastmile_qr_scan"}, "lat": 38.8624705, "bike_id": "38929eba37b167be8f20cb4ecf317c51", "lon": -76.99501283333333, "type": "electric_scooter", "fusion_lon": 0.0, "fusion_lat": 0.0, "is_reserved": 0, "name": "38929eba37b167be8f20cb4ecf317c51", "is_disabled": 0}, {"rental_uris": {"ios": "https://dc.lft.to/lastmile_qr_scan", "android": "https://dc.lft.to/lastmile_qr_scan"}, "lat": 38.912730833333335, "bike_id": "564f668a371a5f05e64947812c12b479", "lon": -77.02388666666667, "type": "electric_scooter", "fusion_lon": 0.0, "fusion_lat": 0.0, "is_reserved": 0, "name": "564f668a371a5f05e64947812c12b479", "is_disabled": 0}, {"rental_uris": {"ios": "https://dc.lft.to/lastmile_qr_scan", "android": "https://dc.lft.to/lastmile_qr_scan"}, "lat": 38.894744333333335, "bike_id": "ed4efd8f029f3dcd0f9231f1346a02d2", "lon": -77.02322366666667, "type": "electric_bike", "fusion_lon": 0.0, "fusion_lat": 0.0, "is_reserved": 0, "name": "ed4efd8f029f3dcd0f9231f1346a02d2", "is_disabled": 0}, {"rental_uris": {"ios": "https://dc.lft.to/lastmile_qr_scan", "android": "https://dc.lft.to/lastmile_qr_scan"}, "lat": 38.8853295, "bike_id": "5886380086e1e1bcb67f84a4bf931854", "lon": -76.99822083333333, "type": "electric_scooter", "fusion_lon": 0.0, "fusion_lat": 0.0, "is_reserved": 0, "name": "5886380086e1e1bcb67f84a4bf931854", "is_disabled": 0}, {"rental_uris": {"ios": "https://dc.lft.to/lastmile_qr_scan", "android": "https://dc.lft.to/lastmile_qr_scan"}, "lat": 38.902752666666665, "bike_id": "d63456df0e068cadcc1058504b8280c8", "lon": -77.03841, "type": "electric_scooter", "fusion_lon": 0.0, "fusion_lat": 0.0, "is_reserved": 0, "name": "d63456df0e068cadcc1058504b8280c8", "is_disabled": 0}, {"rental_uris": {"ios": "https://dc.lft.to/lastmile_qr_scan", "android": "https://dc.lft.to/lastmile_qr_scan"}, "lat": 38.884429, "bike_id": "29915916b95a9e57aeff6ea9a26437ff", "lon": -77.024621, "type": "electric_scooter", "fusion_lon": 0.0, "fusion_lat": 0.0, "is_reserved": 0, "name": "29915916b95a9e57aeff6ea9a26437ff", "is_disabled": 0}, {"rental_uris": {"ios": "https://dc.lft.to/lastmile_qr_scan", "android": "https://dc.lft.to/lastmile_qr_scan"}, "lat": 38.89739933333333, "bike_id": "6f83bfc1db8031cf0f97cbd7ace073cf", "lon": -77.02465433333333, "type": "electric_scooter", "fusion_lon": 0.0, "fusion_lat": 0.0, "is_reserved": 0, "name": "6f83bfc1db8031cf0f97cbd7ace073cf", "is_disabled": 0}, {"rental_uris": {"ios": "https://dc.lft.to/lastmile_qr_scan", "android": "https://dc.lft.to/lastmile_qr_scan"}, "lat": 38.898681833333335, "bike_id": "0f130003daf30c28dd267ece012dfffc", "lon": -76.94630716666667, "type": "electric_scooter", "fusion_lon": 0.0, "fusion_lat": 0.0, "is_reserved": 0, "name": "0f130003daf30c28dd267ece012dfffc", "is_disabled": 0}, {"rental_uris": {"ios": "https://dc.lft.to/lastmile_qr_scan", "android": "https://dc.lft.to/lastmile_qr_scan"}, "lat": 38.95792133333333, "bike_id": "a8d1f13b17a9d82a47ffe064d69343b4", "lon": -77.03214066666666, "type": "electric_scooter", "fusion_lon": 0.0, "fusion_lat": 0.0, "is_reserved": 0, "name": "a8d1f13b17a9d82a47ffe064d69343b4", "is_disabled": 0}, {"rental_uris": {"ios": "https://dc.lft.to/lastmile_qr_scan", "android": "https://dc.lft.to/lastmile_qr_scan"}, "lat": 38.92838716666667, "bike_id": "33e9cf9f89ac983c55ffce333686a0ce", "lon": -77.0550535, "type": "electric_scooter", "fusion_lon": 0.0, "fusion_lat": 0.0, "is_reserved": 0, "name": "33e9cf9f89ac983c55ffce333686a0ce", "is_disabled": 0}, {"rental_uris": {"ios": "https://dc.lft.to/lastmile_qr_scan", "android": "https://dc.lft.to/lastmile_qr_scan"}, "lat": 38.8738495, "bike_id": "f20242b93bbdde1ef727977d40502d12", "lon": -77.00071866666667, "type": "electric_scooter", "fusion_lon": 0.0, "fusion_lat": 0.0, "is_reserved": 0, "name": "f20242b93bbdde1ef727977d40502d12", "is_disabled": 0}, {"rental_uris": {"ios": "https://dc.lft.to/lastmile_qr_scan", "android": "https://dc.lft.to/lastmile_qr_scan"}, "lat": 38.90114966666667, "bike_id": "7c26d35a259daaa84d183ca494727339", "lon": -77.0280455, "type": "electric_scooter", "fusion_lon": 0.0, "fusion_lat": 0.0, "is_reserved": 0, "name": "7c26d35a259daaa84d183ca494727339", "is_disabled": 0}, {"rental_uris": {"ios": "https://dc.lft.to/lastmile_qr_scan", "android": "https://dc.lft.to/lastmile_qr_scan"}, "lat": 38.90657083333333, "bike_id": "eab5c94a0db3886a78cb61514488e00a", "lon": -77.0413415, "type": "electric_scooter", "fusion_lon": 0.0, "fusion_lat": 0.0, "is_reserved": 0, "name": "eab5c94a0db3886a78cb61514488e00a", "is_disabled": 0}, {"rental_uris": {"ios": "https://dc.lft.to/lastmile_qr_scan", "android": "https://dc.lft.to/lastmile_qr_scan"}, "lat": 38.910467833333335, "bike_id": "b06f443acc5692eee4c09890af142b32", "lon": -77.0435685, "type": "electric_scooter", "fusion_lon": 0.0, "fusion_lat": 0.0, "is_reserved": 0, "name": "b06f443acc5692eee4c09890af142b32", "is_disabled": 0}, {"rental_uris": {"ios": "https://dc.lft.to/lastmile_qr_scan", "android": "https://dc.lft.to/lastmile_qr_scan"}, "lat": 38.90499, "bike_id": "2a6209d3e12b3a987d86857c8c2b78f4", "lon": -77.069555, "type": "electric_bike", "fusion_lon": 0.0, "fusion_lat": 0.0, "is_reserved": 0, "name": "2a6209d3e12b3a987d86857c8c2b78f4", "is_disabled": 0}, {"rental_uris": {"ios": "https://dc.lft.to/lastmile_qr_scan", "android": "https://dc.lft.to/lastmile_qr_scan"}, "lat": 38.91411683333333, "bike_id": "a49746c4ac4b38fa1c67c2dbc540bdac", "lon": -77.02126566666666, "type": "electric_scooter", "fusion_lon": 0.0, "fusion_lat": 0.0, "is_reserved": 0, "name": "a49746c4ac4b38fa1c67c2dbc540bdac", "is_disabled": 0}, {"rental_uris": {"ios": "https://dc.lft.to/lastmile_qr_scan", "android": "https://dc.lft.to/lastmile_qr_scan"}, "lat": 38.897024333333334, "bike_id": "2c72e2b873e8b08432d4fe91cb0165b4", "lon": -77.0228245, "type": "electric_scooter", "fusion_lon": 0.0, "fusion_lat": 0.0, "is_reserved": 0, "name": "2c72e2b873e8b08432d4fe91cb0165b4", "is_disabled": 0}, {"rental_uris": {"ios": "https://dc.lft.to/lastmile_qr_scan", "android": "https://dc.lft.to/lastmile_qr_scan"}, "lat": 38.8923515, "bike_id": "8c71b36b635d392b9b8937b9ca63b2fb", "lon": -77.025853, "type": "electric_scooter", "fusion_lon": 0.0, "fusion_lat": 0.0, "is_reserved": 0, "name": "8c71b36b635d392b9b8937b9ca63b2fb", "is_disabled": 0}, {"rental_uris": {"ios": "https://dc.lft.to/lastmile_qr_scan", "android": "https://dc.lft.to/lastmile_qr_scan"}, "lat": 38.904917833333336, "bike_id": "254082e413ece9e777bda1609d0f586c", "lon": -77.04065516666667, "type": "electric_scooter", "fusion_lon": 0.0, "fusion_lat": 0.0, "is_reserved": 0, "name": "254082e413ece9e777bda1609d0f586c", "is_disabled": 0}, {"rental_uris": {"ios": "https://dc.lft.to/lastmile_qr_scan", "android": "https://dc.lft.to/lastmile_qr_scan"}, "lat": 38.886404166666665, "bike_id": "269906de6fba2b9330da350e39efda3e", "lon": -77.01372416666666, "type": "electric_scooter", "fusion_lon": 0.0, "fusion_lat": 0.0, "is_reserved": 0, "name": "269906de6fba2b9330da350e39efda3e", "is_disabled": 0}, {"rental_uris": {"ios": "https://dc.lft.to/lastmile_qr_scan", "android": "https://dc.lft.to/lastmile_qr_scan"}, "lat": 38.90040316666666, "bike_id": "25596b2c49bf472e71d7bb3cfafebd98", "lon": -77.0323075, "type": "electric_scooter", "fusion_lon": 0.0, "fusion_lat": 0.0, "is_reserved": 0, "name": "25596b2c49bf472e71d7bb3cfafebd98", "is_disabled": 0}, {"rental_uris": {"ios": "https://dc.lft.to/lastmile_qr_scan", "android": "https://dc.lft.to/lastmile_qr_scan"}, "lat": 38.91561766666667, "bike_id": "c63f14dad39b50fb9c47098339f5edff", "lon": -76.97364533333334, "type": "electric_scooter", "fusion_lon": 0.0, "fusion_lat": 0.0, "is_reserved": 0, "name": "c63f14dad39b50fb9c47098339f5edff", "is_disabled": 0}, {"rental_uris": {"ios": "https://dc.lft.to/lastmile_qr_scan", "android": "https://dc.lft.to/lastmile_qr_scan"}, "lat": 38.897374, "bike_id": "44524ec4400a24ebf570fe54923dcd1f", "lon": -76.94250866666667, "type": "electric_bike", "fusion_lon": 0.0, "fusion_lat": 0.0, "is_reserved": 0, "name": "44524ec4400a24ebf570fe54923dcd1f", "is_disabled": 0}, {"rental_uris": {"ios": "https://dc.lft.to/lastmile_qr_scan", "android": "https://dc.lft.to/lastmile_qr_scan"}, "lat": 38.86685416666667, "bike_id": "e676709e1128873a188b638448e00fc7", "lon": -76.98568283333333, "type": "electric_scooter", "fusion_lon": 0.0, "fusion_lat": 0.0, "is_reserved": 0, "name": "e676709e1128873a188b638448e00fc7", "is_disabled": 0}, {"rental_uris": {"ios": "https://dc.lft.to/lastmile_qr_scan", "android": "https://dc.lft.to/lastmile_qr_scan"}, "lat": 38.8967445, "bike_id": "07efaa3f6182e2abb1ef790fc489557a", "lon": -77.10431266666667, "type": "electric_bike", "fusion_lon": 0.0, "fusion_lat": 0.0, "is_reserved": 0, "name": "07efaa3f6182e2abb1ef790fc489557a", "is_disabled": 0}, {"rental_uris": {"ios": "https://dc.lft.to/lastmile_qr_scan", "android": "https://dc.lft.to/lastmile_qr_scan"}, "lat": 38.908426, "bike_id": "e36da66f25f4bf500ae75d9d489711d6", "lon": -77.00208166666667, "type": "electric_scooter", "fusion_lon": 0.0, "fusion_lat": 0.0, "is_reserved": 0, "name": "e36da66f25f4bf500ae75d9d489711d6", "is_disabled": 0}, {"rental_uris": {"ios": "https://dc.lft.to/lastmile_qr_scan", "android": "https://dc.lft.to/lastmile_qr_scan"}, "lat": 38.866293, "bike_id": "f0ef100fc93adf8b14a0319c8fbdd43f", "lon": -76.98714283333334, "type": "electric_scooter", "fusion_lon": 0.0, "fusion_lat": 0.0, "is_reserved": 0, "name": "f0ef100fc93adf8b14a0319c8fbdd43f", "is_disabled": 0}, {"rental_uris": {"ios": "https://dc.lft.to/lastmile_qr_scan", "android": "https://dc.lft.to/lastmile_qr_scan"}, "lat": 38.90185983333333, "bike_id": "627ee1a596ed571b251a0420912e6d1f", "lon": -76.93470166666667, "type": "electric_scooter", "fusion_lon": 0.0, "fusion_lat": 0.0, "is_reserved": 0, "name": "627ee1a596ed571b251a0420912e6d1f", "is_disabled": 0}, {"rental_uris": {"ios": "https://dc.lft.to/lastmile_qr_scan", "android": "https://dc.lft.to/lastmile_qr_scan"}, "lat": 38.91475783333333, "bike_id": "e97f9ae528d238c871e9f92a97aa16c5", "lon": -77.045529, "type": "electric_scooter", "fusion_lon": 0.0, "fusion_lat": 0.0, "is_reserved": 0, "name": "e97f9ae528d238c871e9f92a97aa16c5", "is_disabled": 0}, {"rental_uris": {"ios": "https://dc.lft.to/lastmile_qr_scan", "android": "https://dc.lft.to/lastmile_qr_scan"}, "lat": 38.906969833333335, "bike_id": "defc3c25e6ea1343a2db8f938f4ad2b1", "lon": -77.0239465, "type": "electric_scooter", "fusion_lon": 0.0, "fusion_lat": 0.0, "is_reserved": 0, "name": "defc3c25e6ea1343a2db8f938f4ad2b1", "is_disabled": 0}, {"rental_uris": {"ios": "https://dc.lft.to/lastmile_qr_scan", "android": "https://dc.lft.to/lastmile_qr_scan"}, "lat": 38.9221275, "bike_id": "1aafa471781e79c68f375be48dbe89b4", "lon": -77.04191333333333, "type": "electric_bike", "fusion_lon": 0.0, "fusion_lat": 0.0, "is_reserved": 0, "name": "1aafa471781e79c68f375be48dbe89b4", "is_disabled": 0}, {"rental_uris": {"ios": "https://dc.lft.to/lastmile_qr_scan", "android": "https://dc.lft.to/lastmile_qr_scan"}, "lat": 38.908655833333334, "bike_id": "13c5ecab804137642c4657634273cbac", "lon": -77.00356816666667, "type": "electric_scooter", "fusion_lon": 0.0, "fusion_lat": 0.0, "is_reserved": 0, "name": "13c5ecab804137642c4657634273cbac", "is_disabled": 0}, {"rental_uris": {"ios": "https://dc.lft.to/lastmile_qr_scan", "android": "https://dc.lft.to/lastmile_qr_scan"}, "lat": 38.903795, "bike_id": "d1c18b25baa37fe3596e17fd3c44e49f", "lon": -77.03205716666666, "type": "electric_scooter", "fusion_lon": 0.0, "fusion_lat": 0.0, "is_reserved": 0, "name": "d1c18b25baa37fe3596e17fd3c44e49f", "is_disabled": 0}, {"rental_uris": {"ios": "https://dc.lft.to/lastmile_qr_scan", "android": "https://dc.lft.to/lastmile_qr_scan"}, "lat": 38.899884166666666, "bike_id": "5782ca00ba5b3ef939bd87e917242133", "lon": -77.02078466666667, "type": "electric_bike", "fusion_lon": 0.0, "fusion_lat": 0.0, "is_reserved": 0, "name": "5782ca00ba5b3ef939bd87e917242133", "is_disabled": 0}, {"rental_uris": {"ios": "https://dc.lft.to/lastmile_qr_scan", "android": "https://dc.lft.to/lastmile_qr_scan"}, "lat": 38.90309466666667, "bike_id": "c6853a28e78d4feeeae6ee6c0b1520ca", "lon": -77.03447483333333, "type": "electric_scooter", "fusion_lon": 0.0, "fusion_lat": 0.0, "is_reserved": 0, "name": "c6853a28e78d4feeeae6ee6c0b1520ca", "is_disabled": 0}, {"rental_uris": {"ios": "https://dc.lft.to/lastmile_qr_scan", "android": "https://dc.lft.to/lastmile_qr_scan"}, "lat": 38.901229, "bike_id": "c31b6531902319d941d91960a667afc0", "lon": -77.0281515, "type": "electric_scooter", "fusion_lon": 0.0, "fusion_lat": 0.0, "is_reserved": 0, "name": "c31b6531902319d941d91960a667afc0", "is_disabled": 0}, {"rental_uris": {"ios": "https://dc.lft.to/lastmile_qr_scan", "android": "https://dc.lft.to/lastmile_qr_scan"}, "lat": 38.90806333333333, "bike_id": "110ecc3865d2061a5bfddf69aa9ad08a", "lon": -77.0384525, "type": "electric_scooter", "fusion_lon": 0.0, "fusion_lat": 0.0, "is_reserved": 0, "name": "110ecc3865d2061a5bfddf69aa9ad08a", "is_disabled": 0}, {"rental_uris": {"ios": "https://dc.lft.to/lastmile_qr_scan", "android": "https://dc.lft.to/lastmile_qr_scan"}, "lat": 38.956412, "bike_id": "ad6cc4846935f69154b15bb6e5ee3976", "lon": -76.93869616666667, "type": "electric_bike", "fusion_lon": 0.0, "fusion_lat": 0.0, "is_reserved": 0, "name": "ad6cc4846935f69154b15bb6e5ee3976", "is_disabled": 0}, {"rental_uris": {"ios": "https://dc.lft.to/lastmile_qr_scan", "android": "https://dc.lft.to/lastmile_qr_scan"}, "lat": 38.8748525, "bike_id": "5a62f8d7e35732a3fbbe3a318a10ef75", "lon": -76.99977666666666, "type": "electric_scooter", "fusion_lon": 0.0, "fusion_lat": 0.0, "is_reserved": 0, "name": "5a62f8d7e35732a3fbbe3a318a10ef75", "is_disabled": 0}, {"rental_uris": {"ios": "https://dc.lft.to/lastmile_qr_scan", "android": "https://dc.lft.to/lastmile_qr_scan"}, "lat": 38.924466833333334, "bike_id": "c3dae732a9274e599a58233fcd7b28aa", "lon": -77.033549, "type": "electric_scooter", "fusion_lon": 0.0, "fusion_lat": 0.0, "is_reserved": 0, "name": "c3dae732a9274e599a58233fcd7b28aa", "is_disabled": 0}, {"rental_uris": {"ios": "https://dc.lft.to/lastmile_qr_scan", "android": "https://dc.lft.to/lastmile_qr_scan"}, "lat": 38.878798833333335, "bike_id": "6b7c3b944de5820e789163a554eeb080", "lon": -77.10108216666667, "type": "electric_bike", "fusion_lon": 0.0, "fusion_lat": 0.0, "is_reserved": 0, "name": "6b7c3b944de5820e789163a554eeb080", "is_disabled": 0}, {"rental_uris": {"ios": "https://dc.lft.to/lastmile_qr_scan", "android": "https://dc.lft.to/lastmile_qr_scan"}, "lat": 38.92054666666667, "bike_id": "1ee957bf71e28d2f41bb0916caac6968", "lon": -77.04190966666667, "type": "electric_scooter", "fusion_lon": 0.0, "fusion_lat": 0.0, "is_reserved": 0, "name": "1ee957bf71e28d2f41bb0916caac6968", "is_disabled": 0}, {"rental_uris": {"ios": "https://dc.lft.to/lastmile_qr_scan", "android": "https://dc.lft.to/lastmile_qr_scan"}, "lat": 38.91166583333333, "bike_id": "0ef67fab929047fce15154f99d4a191a", "lon": -77.0726675, "type": "electric_scooter", "fusion_lon": 0.0, "fusion_lat": 0.0, "is_reserved": 0, "name": "0ef67fab929047fce15154f99d4a191a", "is_disabled": 0}, {"rental_uris": {"ios": "https://dc.lft.to/lastmile_qr_scan", "android": "https://dc.lft.to/lastmile_qr_scan"}, "lat": 38.823685, "bike_id": "c9d6ae2566b501235988012a6109fa0d", "lon": -77.00211616666667, "type": "electric_bike", "fusion_lon": 0.0, "fusion_lat": 0.0, "is_reserved": 0, "name": "c9d6ae2566b501235988012a6109fa0d", "is_disabled": 0}, {"rental_uris": {"ios": "https://dc.lft.to/lastmile_qr_scan", "android": "https://dc.lft.to/lastmile_qr_scan"}, "lat": 38.919289666666664, "bike_id": "dbfecf5fab812cb083bb7e512121b6ee", "lon": -77.00926733333333, "type": "electric_scooter", "fusion_lon": 0.0, "fusion_lat": 0.0, "is_reserved": 0, "name": "dbfecf5fab812cb083bb7e512121b6ee", "is_disabled": 0}, {"rental_uris": {"ios": "https://dc.lft.to/lastmile_qr_scan", "android": "https://dc.lft.to/lastmile_qr_scan"}, "lat": 38.85936816666667, "bike_id": "22b8f5454d14434a3927104b94bd5d8d", "lon": -77.11825483333334, "type": "electric_bike", "fusion_lon": 0.0, "fusion_lat": 0.0, "is_reserved": 0, "name": "22b8f5454d14434a3927104b94bd5d8d", "is_disabled": 0}, {"rental_uris": {"ios": "https://dc.lft.to/lastmile_qr_scan", "android": "https://dc.lft.to/lastmile_qr_scan"}, "lat": 38.902266, "bike_id": "5646b03dbf83839cdfd4100e607b30f9", "lon": -77.03717016666667, "type": "electric_scooter", "fusion_lon": 0.0, "fusion_lat": 0.0, "is_reserved": 0, "name": "5646b03dbf83839cdfd4100e607b30f9", "is_disabled": 0}, {"rental_uris": {"ios": "https://dc.lft.to/lastmile_qr_scan", "android": "https://dc.lft.to/lastmile_qr_scan"}, "lat": 38.911568333333335, "bike_id": "69828fa12592b3da4c4ffede6dda743c", "lon": -77.00187166666667, "type": "electric_scooter", "fusion_lon": 0.0, "fusion_lat": 0.0, "is_reserved": 0, "name": "69828fa12592b3da4c4ffede6dda743c", "is_disabled": 0}, {"rental_uris": {"ios": "https://dc.lft.to/lastmile_qr_scan", "android": "https://dc.lft.to/lastmile_qr_scan"}, "lat": 38.88740983333334, "bike_id": "c4e90d29791f07d38315e3cdb886968f", "lon": -77.01531216666666, "type": "electric_scooter", "fusion_lon": 0.0, "fusion_lat": 0.0, "is_reserved": 0, "name": "c4e90d29791f07d38315e3cdb886968f", "is_disabled": 0}, {"rental_uris": {"ios": "https://dc.lft.to/lastmile_qr_scan", "android": "https://dc.lft.to/lastmile_qr_scan"}, "lat": 38.91400683333333, "bike_id": "4c75271251dca6b99897616488c92900", "lon": -77.02407016666666, "type": "electric_scooter", "fusion_lon": 0.0, "fusion_lat": 0.0, "is_reserved": 0, "name": "4c75271251dca6b99897616488c92900", "is_disabled": 0}, {"rental_uris": {"ios": "https://dc.lft.to/lastmile_qr_scan", "android": "https://dc.lft.to/lastmile_qr_scan"}, "lat": 38.8687575, "bike_id": "b6d9b9c0b0972633412a55c30fe3f441", "lon": -76.95780183333333, "type": "electric_bike", "fusion_lon": 0.0, "fusion_lat": 0.0, "is_reserved": 0, "name": "b6d9b9c0b0972633412a55c30fe3f441", "is_disabled": 0}, {"rental_uris": {"ios": "https://dc.lft.to/lastmile_qr_scan", "android": "https://dc.lft.to/lastmile_qr_scan"}, "lat": 38.92529, "bike_id": "e6fa0e1fde281342292c6da7a980c00e", "lon": -77.0771305, "type": "electric_scooter", "fusion_lon": 0.0, "fusion_lat": 0.0, "is_reserved": 0, "name": "e6fa0e1fde281342292c6da7a980c00e", "is_disabled": 0}, {"rental_uris": {"ios": "https://dc.lft.to/lastmile_qr_scan", "android": "https://dc.lft.to/lastmile_qr_scan"}, "lat": 38.9149735, "bike_id": "6a0f6c3756543331ecdd14aae9a5ffe9", "lon": -77.04489683333334, "type": "electric_scooter", "fusion_lon": 0.0, "fusion_lat": 0.0, "is_reserved": 0, "name": "6a0f6c3756543331ecdd14aae9a5ffe9", "is_disabled": 0}, {"rental_uris": {"ios": "https://dc.lft.to/lastmile_qr_scan", "android": "https://dc.lft.to/lastmile_qr_scan"}, "lat": 38.904423333333334, "bike_id": "a6ad854b8a751ff0dab3f5f1d2950834", "lon": -77.0346295, "type": "electric_scooter", "fusion_lon": 0.0, "fusion_lat": 0.0, "is_reserved": 0, "name": "a6ad854b8a751ff0dab3f5f1d2950834", "is_disabled": 0}, {"rental_uris": {"ios": "https://dc.lft.to/lastmile_qr_scan", "android": "https://dc.lft.to/lastmile_qr_scan"}, "lat": 38.87467066666667, "bike_id": "b20cd420e59412b7b1416b56a55490a5", "lon": -77.00487966666667, "type": "electric_scooter", "fusion_lon": 0.0, "fusion_lat": 0.0, "is_reserved": 0, "name": "b20cd420e59412b7b1416b56a55490a5", "is_disabled": 0}, {"rental_uris": {"ios": "https://dc.lft.to/lastmile_qr_scan", "android": "https://dc.lft.to/lastmile_qr_scan"}, "lat": 38.902786666666664, "bike_id": "eb934271a4ed41455dfe766d126a72b9", "lon": -77.03856966666666, "type": "electric_scooter", "fusion_lon": 0.0, "fusion_lat": 0.0, "is_reserved": 0, "name": "eb934271a4ed41455dfe766d126a72b9", "is_disabled": 0}, {"rental_uris": {"ios": "https://dc.lft.to/lastmile_qr_scan", "android": "https://dc.lft.to/lastmile_qr_scan"}, "lat": 38.933411666666665, "bike_id": "6566b3cb51d64ceec6a76883835d5fe8", "lon": -77.02054766666667, "type": "electric_scooter", "fusion_lon": 0.0, "fusion_lat": 0.0, "is_reserved": 0, "name": "6566b3cb51d64ceec6a76883835d5fe8", "is_disabled": 0}, {"rental_uris": {"ios": "https://dc.lft.to/lastmile_qr_scan", "android": "https://dc.lft.to/lastmile_qr_scan"}, "lat": 39.05254133333333, "bike_id": "2c23003c91c0e0f6626a5472c3a24194", "lon": -77.08064433333334, "type": "electric_bike", "fusion_lon": 0.0, "fusion_lat": 0.0, "is_reserved": 0, "name": "2c23003c91c0e0f6626a5472c3a24194", "is_disabled": 0}, {"rental_uris": {"ios": "https://dc.lft.to/lastmile_qr_scan", "android": "https://dc.lft.to/lastmile_qr_scan"}, "lat": 38.873609333333334, "bike_id": "9eb78110ea447eb56a02a5f30b993844", "lon": -76.97021866666667, "type": "electric_scooter", "fusion_lon": 0.0, "fusion_lat": 0.0, "is_reserved": 0, "name": "9eb78110ea447eb56a02a5f30b993844", "is_disabled": 0}, {"rental_uris": {"ios": "https://dc.lft.to/lastmile_qr_scan", "android": "https://dc.lft.to/lastmile_qr_scan"}, "lat": 38.897455, "bike_id": "fcd7d4890e943577a8f875d2e5a88bb2", "lon": -77.046907, "type": "electric_scooter", "fusion_lon": 0.0, "fusion_lat": 0.0, "is_reserved": 0, "name": "fcd7d4890e943577a8f875d2e5a88bb2", "is_disabled": 0}, {"rental_uris": {"ios": "https://dc.lft.to/lastmile_qr_scan", "android": "https://dc.lft.to/lastmile_qr_scan"}, "lat": 38.929185333333336, "bike_id": "46285297c2f7b39a6f0657e12f0e1a3f", "lon": -77.03256533333334, "type": "electric_scooter", "fusion_lon": 0.0, "fusion_lat": 0.0, "is_reserved": 0, "name": "46285297c2f7b39a6f0657e12f0e1a3f", "is_disabled": 0}, {"rental_uris": {"ios": "https://dc.lft.to/lastmile_qr_scan", "android": "https://dc.lft.to/lastmile_qr_scan"}, "lat": 38.905212666666664, "bike_id": "661b203162ca27a9679d067a57b52b21", "lon": -77.04348916666666, "type": "electric_scooter", "fusion_lon": 0.0, "fusion_lat": 0.0, "is_reserved": 0, "name": "661b203162ca27a9679d067a57b52b21", "is_disabled": 0}, {"rental_uris": {"ios": "https://dc.lft.to/lastmile_qr_scan", "android": "https://dc.lft.to/lastmile_qr_scan"}, "lat": 38.918299166666664, "bike_id": "88e4a33e5647f4dca154f4dbad4830b7", "lon": -77.049357, "type": "electric_scooter", "fusion_lon": 0.0, "fusion_lat": 0.0, "is_reserved": 0, "name": "88e4a33e5647f4dca154f4dbad4830b7", "is_disabled": 0}, {"rental_uris": {"ios": "https://dc.lft.to/lastmile_qr_scan", "android": "https://dc.lft.to/lastmile_qr_scan"}, "lat": 38.89505966666667, "bike_id": "250768d7639c5f79636c6efc692a0d84", "lon": -77.02299916666666, "type": "electric_scooter", "fusion_lon": 0.0, "fusion_lat": 0.0, "is_reserved": 0, "name": "250768d7639c5f79636c6efc692a0d84", "is_disabled": 0}, {"rental_uris": {"ios": "https://dc.lft.to/lastmile_qr_scan", "android": "https://dc.lft.to/lastmile_qr_scan"}, "lat": 38.87568533333334, "bike_id": "d4fa15774095e613fb5ce0a9eb9365c8", "lon": -77.00600583333333, "type": "electric_scooter", "fusion_lon": 0.0, "fusion_lat": 0.0, "is_reserved": 0, "name": "d4fa15774095e613fb5ce0a9eb9365c8", "is_disabled": 0}, {"rental_uris": {"ios": "https://dc.lft.to/lastmile_qr_scan", "android": "https://dc.lft.to/lastmile_qr_scan"}, "lat": 38.874754833333334, "bike_id": "e4950efc7151b35846c18390e37a0fe4", "lon": -76.96530466666667, "type": "electric_bike", "fusion_lon": 0.0, "fusion_lat": 0.0, "is_reserved": 0, "name": "e4950efc7151b35846c18390e37a0fe4", "is_disabled": 0}, {"rental_uris": {"ios": "https://dc.lft.to/lastmile_qr_scan", "android": "https://dc.lft.to/lastmile_qr_scan"}, "lat": 38.919265, "bike_id": "f724c27d79668ff0e5558b65bc7b4faf", "lon": -77.00974133333334, "type": "electric_scooter", "fusion_lon": 0.0, "fusion_lat": 0.0, "is_reserved": 0, "name": "f724c27d79668ff0e5558b65bc7b4faf", "is_disabled": 0}, {"rental_uris": {"ios": "https://dc.lft.to/lastmile_qr_scan", "android": "https://dc.lft.to/lastmile_qr_scan"}, "lat": 38.9132515, "bike_id": "a09d512f6e839f7c73bbb098f5df686b", "lon": -77.03192316666667, "type": "electric_scooter", "fusion_lon": 0.0, "fusion_lat": 0.0, "is_reserved": 0, "name": "a09d512f6e839f7c73bbb098f5df686b", "is_disabled": 0}, {"rental_uris": {"ios": "https://dc.lft.to/lastmile_qr_scan", "android": "https://dc.lft.to/lastmile_qr_scan"}, "lat": 38.91741733333333, "bike_id": "241500eebf9f330b206656c004d51d75", "lon": -77.02115133333334, "type": "electric_scooter", "fusion_lon": 0.0, "fusion_lat": 0.0, "is_reserved": 0, "name": "241500eebf9f330b206656c004d51d75", "is_disabled": 0}, {"rental_uris": {"ios": "https://dc.lft.to/lastmile_qr_scan", "android": "https://dc.lft.to/lastmile_qr_scan"}, "lat": 38.92640166666666, "bike_id": "5734941be2b33d099687d62e4a01ac33", "lon": -77.014283, "type": "electric_scooter", "fusion_lon": 0.0, "fusion_lat": 0.0, "is_reserved": 0, "name": "5734941be2b33d099687d62e4a01ac33", "is_disabled": 0}, {"rental_uris": {"ios": "https://dc.lft.to/lastmile_qr_scan", "android": "https://dc.lft.to/lastmile_qr_scan"}, "lat": 38.943397, "bike_id": "2effbb67a3623cdd9bfbec8f11f4ef9b", "lon": -77.02468433333334, "type": "electric_scooter", "fusion_lon": 0.0, "fusion_lat": 0.0, "is_reserved": 0, "name": "2effbb67a3623cdd9bfbec8f11f4ef9b", "is_disabled": 0}, {"rental_uris": {"ios": "https://dc.lft.to/lastmile_qr_scan", "android": "https://dc.lft.to/lastmile_qr_scan"}, "lat": 38.956391333333336, "bike_id": "66e096e8163c53377e0dcbca9632cb10", "lon": -77.01149966666667, "type": "electric_scooter", "fusion_lon": 0.0, "fusion_lat": 0.0, "is_reserved": 0, "name": "66e096e8163c53377e0dcbca9632cb10", "is_disabled": 0}, {"rental_uris": {"ios": "https://dc.lft.to/lastmile_qr_scan", "android": "https://dc.lft.to/lastmile_qr_scan"}, "lat": 38.90191266666667, "bike_id": "cff7018e6ba79151a60e9964a120fd66", "lon": -77.02113333333334, "type": "electric_scooter", "fusion_lon": 0.0, "fusion_lat": 0.0, "is_reserved": 0, "name": "cff7018e6ba79151a60e9964a120fd66", "is_disabled": 0}, {"rental_uris": {"ios": "https://dc.lft.to/lastmile_qr_scan", "android": "https://dc.lft.to/lastmile_qr_scan"}, "lat": 38.90916983333334, "bike_id": "9018049333d55bf77cc4da26a8de9fd3", "lon": -77.02298266666666, "type": "electric_scooter", "fusion_lon": 0.0, "fusion_lat": 0.0, "is_reserved": 0, "name": "9018049333d55bf77cc4da26a8de9fd3", "is_disabled": 0}, {"rental_uris": {"ios": "https://dc.lft.to/lastmile_qr_scan", "android": "https://dc.lft.to/lastmile_qr_scan"}, "lat": 38.893558666666664, "bike_id": "923931680c1e03d787b58f9ff110de38", "lon": -77.00336616666667, "type": "electric_scooter", "fusion_lon": 0.0, "fusion_lat": 0.0, "is_reserved": 0, "name": "923931680c1e03d787b58f9ff110de38", "is_disabled": 0}, {"rental_uris": {"ios": "https://dc.lft.to/lastmile_qr_scan", "android": "https://dc.lft.to/lastmile_qr_scan"}, "lat": 38.89602266666667, "bike_id": "4f6df4fe4e6199ddd5663465f861312a", "lon": -77.05436916666666, "type": "electric_scooter", "fusion_lon": 0.0, "fusion_lat": 0.0, "is_reserved": 0, "name": "4f6df4fe4e6199ddd5663465f861312a", "is_disabled": 0}, {"rental_uris": {"ios": "https://dc.lft.to/lastmile_qr_scan", "android": "https://dc.lft.to/lastmile_qr_scan"}, "lat": 38.798561666666664, "bike_id": "7e1200b3bae8b4ccecba6f40fd423561", "lon": -77.063044, "type": "electric_bike", "fusion_lon": 0.0, "fusion_lat": 0.0, "is_reserved": 0, "name": "7e1200b3bae8b4ccecba6f40fd423561", "is_disabled": 0}, {"rental_uris": {"ios": "https://dc.lft.to/lastmile_qr_scan", "android": "https://dc.lft.to/lastmile_qr_scan"}, "lat": 38.89525733333333, "bike_id": "46194870f6e19c937a7de641cebe5f19", "lon": -77.02296633333333, "type": "electric_scooter", "fusion_lon": 0.0, "fusion_lat": 0.0, "is_reserved": 0, "name": "46194870f6e19c937a7de641cebe5f19", "is_disabled": 0}, {"rental_uris": {"ios": "https://dc.lft.to/lastmile_qr_scan", "android": "https://dc.lft.to/lastmile_qr_scan"}, "lat": 38.90170616666666, "bike_id": "ef68b43463942cd1ebffaada1f74f1be", "lon": -76.93018783333333, "type": "electric_scooter", "fusion_lon": 0.0, "fusion_lat": 0.0, "is_reserved": 0, "name": "ef68b43463942cd1ebffaada1f74f1be", "is_disabled": 0}, {"rental_uris": {"ios": "https://dc.lft.to/lastmile_qr_scan", "android": "https://dc.lft.to/lastmile_qr_scan"}, "lat": 38.88656866666667, "bike_id": "523f7c2dec9481427f2c363b56f10e2f", "lon": -77.00114083333334, "type": "electric_scooter", "fusion_lon": 0.0, "fusion_lat": 0.0, "is_reserved": 0, "name": "523f7c2dec9481427f2c363b56f10e2f", "is_disabled": 0}, {"rental_uris": {"ios": "https://dc.lft.to/lastmile_qr_scan", "android": "https://dc.lft.to/lastmile_qr_scan"}, "lat": 38.9296265, "bike_id": "54ea520adc236f6745b17f438c81050f", "lon": -77.01142633333333, "type": "electric_scooter", "fusion_lon": 0.0, "fusion_lat": 0.0, "is_reserved": 0, "name": "54ea520adc236f6745b17f438c81050f", "is_disabled": 0}, {"rental_uris": {"ios": "https://dc.lft.to/lastmile_qr_scan", "android": "https://dc.lft.to/lastmile_qr_scan"}, "lat": 38.90275, "bike_id": "f6832a0a4f3928163e4890248bd5733f", "lon": -77.03861766666667, "type": "electric_scooter", "fusion_lon": 0.0, "fusion_lat": 0.0, "is_reserved": 0, "name": "f6832a0a4f3928163e4890248bd5733f", "is_disabled": 0}, {"rental_uris": {"ios": "https://dc.lft.to/lastmile_qr_scan", "android": "https://dc.lft.to/lastmile_qr_scan"}, "lat": 38.877227833333336, "bike_id": "a38a33dba70312d8380faa0d27facd9a", "lon": -77.00362816666667, "type": "electric_scooter", "fusion_lon": 0.0, "fusion_lat": 0.0, "is_reserved": 0, "name": "a38a33dba70312d8380faa0d27facd9a", "is_disabled": 0}, {"rental_uris": {"ios": "https://dc.lft.to/lastmile_qr_scan", "android": "https://dc.lft.to/lastmile_qr_scan"}, "lat": 38.900485, "bike_id": "7532f17df369d627feb6e1f697498052", "lon": -77.000689, "type": "electric_scooter", "fusion_lon": 0.0, "fusion_lat": 0.0, "is_reserved": 0, "name": "7532f17df369d627feb6e1f697498052", "is_disabled": 0}, {"rental_uris": {"ios": "https://dc.lft.to/lastmile_qr_scan", "android": "https://dc.lft.to/lastmile_qr_scan"}, "lat": 38.927796, "bike_id": "622d3e04b9e17ac5f60054c3a0074f83", "lon": -77.05253883333333, "type": "electric_scooter", "fusion_lon": 0.0, "fusion_lat": 0.0, "is_reserved": 0, "name": "622d3e04b9e17ac5f60054c3a0074f83", "is_disabled": 0}, {"rental_uris": {"ios": "https://dc.lft.to/lastmile_qr_scan", "android": "https://dc.lft.to/lastmile_qr_scan"}, "lat": 38.89628883333334, "bike_id": "ccf0598753b08f01734d760a0e5c1caf", "lon": -77.03953866666667, "type": "electric_scooter", "fusion_lon": 0.0, "fusion_lat": 0.0, "is_reserved": 0, "name": "ccf0598753b08f01734d760a0e5c1caf", "is_disabled": 0}, {"rental_uris": {"ios": "https://dc.lft.to/lastmile_qr_scan", "android": "https://dc.lft.to/lastmile_qr_scan"}, "lat": 38.86243983333333, "bike_id": "506b216c31b8e96815c00e9e13e41086", "lon": -76.95281533333333, "type": "electric_bike", "fusion_lon": 0.0, "fusion_lat": 0.0, "is_reserved": 0, "name": "506b216c31b8e96815c00e9e13e41086", "is_disabled": 0}, {"rental_uris": {"ios": "https://dc.lft.to/lastmile_qr_scan", "android": "https://dc.lft.to/lastmile_qr_scan"}, "lat": 38.903899333333335, "bike_id": "4152fef1db6d498b3b7337ae9d7a89ca", "lon": -77.02005283333334, "type": "electric_scooter", "fusion_lon": 0.0, "fusion_lat": 0.0, "is_reserved": 0, "name": "4152fef1db6d498b3b7337ae9d7a89ca", "is_disabled": 0}, {"rental_uris": {"ios": "https://dc.lft.to/lastmile_qr_scan", "android": "https://dc.lft.to/lastmile_qr_scan"}, "lat": 38.90729016666667, "bike_id": "bc397e640faff2903dcc542322fda9a2", "lon": -77.029732, "type": "electric_scooter", "fusion_lon": 0.0, "fusion_lat": 0.0, "is_reserved": 0, "name": "bc397e640faff2903dcc542322fda9a2", "is_disabled": 0}, {"rental_uris": {"ios": "https://dc.lft.to/lastmile_qr_scan", "android": "https://dc.lft.to/lastmile_qr_scan"}, "lat": 38.90395316666667, "bike_id": "9b007562723b83b2694dbe185f2ff5f4", "lon": -77.04528716666667, "type": "electric_scooter", "fusion_lon": 0.0, "fusion_lat": 0.0, "is_reserved": 0, "name": "9b007562723b83b2694dbe185f2ff5f4", "is_disabled": 0}, {"rental_uris": {"ios": "https://dc.lft.to/lastmile_qr_scan", "android": "https://dc.lft.to/lastmile_qr_scan"}, "lat": 38.9186665, "bike_id": "ae2b44aced6377bbbbe032b7e329fdae", "lon": -77.04156833333333, "type": "electric_scooter", "fusion_lon": 0.0, "fusion_lat": 0.0, "is_reserved": 0, "name": "ae2b44aced6377bbbbe032b7e329fdae", "is_disabled": 0}, {"rental_uris": {"ios": "https://dc.lft.to/lastmile_qr_scan", "android": "https://dc.lft.to/lastmile_qr_scan"}, "lat": 38.88436633333333, "bike_id": "ddeb6e4aa223c01ceb93d4581613c055", "lon": -77.0034505, "type": "electric_scooter", "fusion_lon": 0.0, "fusion_lat": 0.0, "is_reserved": 0, "name": "ddeb6e4aa223c01ceb93d4581613c055", "is_disabled": 0}, {"rental_uris": {"ios": "https://dc.lft.to/lastmile_qr_scan", "android": "https://dc.lft.to/lastmile_qr_scan"}, "lat": 38.893521, "bike_id": "36a158e85893a4231819ec63c9bb0b0e", "lon": -77.18744366666667, "type": "electric_bike", "fusion_lon": 0.0, "fusion_lat": 0.0, "is_reserved": 0, "name": "36a158e85893a4231819ec63c9bb0b0e", "is_disabled": 0}, {"rental_uris": {"ios": "https://dc.lft.to/lastmile_qr_scan", "android": "https://dc.lft.to/lastmile_qr_scan"}, "lat": 38.90887383333333, "bike_id": "109f9154002a63a370371da46462c13c", "lon": -77.04034583333333, "type": "electric_scooter", "fusion_lon": 0.0, "fusion_lat": 0.0, "is_reserved": 0, "name": "109f9154002a63a370371da46462c13c", "is_disabled": 0}, {"rental_uris": {"ios": "https://dc.lft.to/lastmile_qr_scan", "android": "https://dc.lft.to/lastmile_qr_scan"}, "lat": 38.89973066666667, "bike_id": "13c264cee0b1784a0b604b7a18093027", "lon": -77.04529033333333, "type": "electric_scooter", "fusion_lon": 0.0, "fusion_lat": 0.0, "is_reserved": 0, "name": "13c264cee0b1784a0b604b7a18093027", "is_disabled": 0}, {"rental_uris": {"ios": "https://dc.lft.to/lastmile_qr_scan", "android": "https://dc.lft.to/lastmile_qr_scan"}, "lat": 38.91492566666667, "bike_id": "b72be1044e8219ac2702eadecdacaffe", "lon": -77.02181683333333, "type": "electric_scooter", "fusion_lon": 0.0, "fusion_lat": 0.0, "is_reserved": 0, "name": "b72be1044e8219ac2702eadecdacaffe", "is_disabled": 0}, {"rental_uris": {"ios": "https://dc.lft.to/lastmile_qr_scan", "android": "https://dc.lft.to/lastmile_qr_scan"}, "lat": 38.8650665, "bike_id": "157aa8e90a956ec0d7cd109716685e20", "lon": -76.99006833333334, "type": "electric_scooter", "fusion_lon": 0.0, "fusion_lat": 0.0, "is_reserved": 0, "name": "157aa8e90a956ec0d7cd109716685e20", "is_disabled": 0}, {"rental_uris": {"ios": "https://dc.lft.to/lastmile_qr_scan", "android": "https://dc.lft.to/lastmile_qr_scan"}, "lat": 38.928259833333335, "bike_id": "e8e1f4939e1560cfd1c72ce0de801f78", "lon": -77.02254533333333, "type": "electric_scooter", "fusion_lon": 0.0, "fusion_lat": 0.0, "is_reserved": 0, "name": "e8e1f4939e1560cfd1c72ce0de801f78", "is_disabled": 0}, {"rental_uris": {"ios": "https://dc.lft.to/lastmile_qr_scan", "android": "https://dc.lft.to/lastmile_qr_scan"}, "lat": 38.939142833333335, "bike_id": "abc6a48ca73f4d72b25c9dcad6a0a859", "lon": -77.06042066666667, "type": "electric_scooter", "fusion_lon": 0.0, "fusion_lat": 0.0, "is_reserved": 0, "name": "abc6a48ca73f4d72b25c9dcad6a0a859", "is_disabled": 0}, {"rental_uris": {"ios": "https://dc.lft.to/lastmile_qr_scan", "android": "https://dc.lft.to/lastmile_qr_scan"}, "lat": 38.907764, "bike_id": "f162fd1cb7142887fdf08a48a15badc1", "lon": -76.9985665, "type": "electric_scooter", "fusion_lon": 0.0, "fusion_lat": 0.0, "is_reserved": 0, "name": "f162fd1cb7142887fdf08a48a15badc1", "is_disabled": 0}, {"rental_uris": {"ios": "https://dc.lft.to/lastmile_qr_scan", "android": "https://dc.lft.to/lastmile_qr_scan"}, "lat": 38.86218083333333, "bike_id": "9dde98187f7a78b90af85e0c27f173fe", "lon": -76.99479016666666, "type": "electric_scooter", "fusion_lon": 0.0, "fusion_lat": 0.0, "is_reserved": 0, "name": "9dde98187f7a78b90af85e0c27f173fe", "is_disabled": 0}, {"rental_uris": {"ios": "https://dc.lft.to/lastmile_qr_scan", "android": "https://dc.lft.to/lastmile_qr_scan"}, "lat": 38.90332133333333, "bike_id": "8db65f37425b4581b540a93ac2ca940b", "lon": -77.0346165, "type": "electric_scooter", "fusion_lon": 0.0, "fusion_lat": 0.0, "is_reserved": 0, "name": "8db65f37425b4581b540a93ac2ca940b", "is_disabled": 0}, {"rental_uris": {"ios": "https://dc.lft.to/lastmile_qr_scan", "android": "https://dc.lft.to/lastmile_qr_scan"}, "lat": 38.905741666666664, "bike_id": "574433c886b15eec85528bd5f83dce3e", "lon": -77.04185783333334, "type": "electric_scooter", "fusion_lon": 0.0, "fusion_lat": 0.0, "is_reserved": 0, "name": "574433c886b15eec85528bd5f83dce3e", "is_disabled": 0}, {"rental_uris": {"ios": "https://dc.lft.to/lastmile_qr_scan", "android": "https://dc.lft.to/lastmile_qr_scan"}, "lat": 38.90287216666667, "bike_id": "7df60767268661a1f592a4385c41d57d", "lon": -77.01738166666667, "type": "electric_bike", "fusion_lon": 0.0, "fusion_lat": 0.0, "is_reserved": 0, "name": "7df60767268661a1f592a4385c41d57d", "is_disabled": 0}, {"rental_uris": {"ios": "https://dc.lft.to/lastmile_qr_scan", "android": "https://dc.lft.to/lastmile_qr_scan"}, "lat": 38.922758333333334, "bike_id": "d86c1d0a55ef55e2693f690fa4839d78", "lon": -77.04233633333334, "type": "electric_scooter", "fusion_lon": 0.0, "fusion_lat": 0.0, "is_reserved": 0, "name": "d86c1d0a55ef55e2693f690fa4839d78", "is_disabled": 0}, {"rental_uris": {"ios": "https://dc.lft.to/lastmile_qr_scan", "android": "https://dc.lft.to/lastmile_qr_scan"}, "lat": 38.91641833333333, "bike_id": "bc12cafb83b2e9d4861af9cbd2fa856e", "lon": -77.03175016666667, "type": "electric_scooter", "fusion_lon": 0.0, "fusion_lat": 0.0, "is_reserved": 0, "name": "bc12cafb83b2e9d4861af9cbd2fa856e", "is_disabled": 0}, {"rental_uris": {"ios": "https://dc.lft.to/lastmile_qr_scan", "android": "https://dc.lft.to/lastmile_qr_scan"}, "lat": 38.89628116666667, "bike_id": "8ddd5e838d2c7990ef8f76547c72a774", "lon": -76.98307983333333, "type": "electric_scooter", "fusion_lon": 0.0, "fusion_lat": 0.0, "is_reserved": 0, "name": "8ddd5e838d2c7990ef8f76547c72a774", "is_disabled": 0}, {"rental_uris": {"ios": "https://dc.lft.to/lastmile_qr_scan", "android": "https://dc.lft.to/lastmile_qr_scan"}, "lat": 38.9095995, "bike_id": "866b74d45c028c364cdf4730d29887f9", "lon": -77.0328305, "type": "electric_scooter", "fusion_lon": 0.0, "fusion_lat": 0.0, "is_reserved": 0, "name": "866b74d45c028c364cdf4730d29887f9", "is_disabled": 0}, {"rental_uris": {"ios": "https://dc.lft.to/lastmile_qr_scan", "android": "https://dc.lft.to/lastmile_qr_scan"}, "lat": 38.908726, "bike_id": "94ba7335cedd8b93f899a32f43ebdf5c", "lon": -76.997896, "type": "electric_scooter", "fusion_lon": 0.0, "fusion_lat": 0.0, "is_reserved": 0, "name": "94ba7335cedd8b93f899a32f43ebdf5c", "is_disabled": 0}, {"rental_uris": {"ios": "https://dc.lft.to/lastmile_qr_scan", "android": "https://dc.lft.to/lastmile_qr_scan"}, "lat": 38.90972033333333, "bike_id": "e722a7051be11aded69926f8eb0b666a", "lon": -77.042323, "type": "electric_scooter", "fusion_lon": 0.0, "fusion_lat": 0.0, "is_reserved": 0, "name": "e722a7051be11aded69926f8eb0b666a", "is_disabled": 0}, {"rental_uris": {"ios": "https://dc.lft.to/lastmile_qr_scan", "android": "https://dc.lft.to/lastmile_qr_scan"}, "lat": 38.920457666666664, "bike_id": "d1172d068ef6915c97fcb68200fdf9f8", "lon": -77.04185933333333, "type": "electric_scooter", "fusion_lon": 0.0, "fusion_lat": 0.0, "is_reserved": 0, "name": "d1172d068ef6915c97fcb68200fdf9f8", "is_disabled": 0}, {"rental_uris": {"ios": "https://dc.lft.to/lastmile_qr_scan", "android": "https://dc.lft.to/lastmile_qr_scan"}, "lat": 38.91415883333333, "bike_id": "cef9cbe0a28fdb2f1562d4e934114e7b", "lon": -77.02278416666667, "type": "electric_scooter", "fusion_lon": 0.0, "fusion_lat": 0.0, "is_reserved": 0, "name": "cef9cbe0a28fdb2f1562d4e934114e7b", "is_disabled": 0}, {"rental_uris": {"ios": "https://dc.lft.to/lastmile_qr_scan", "android": "https://dc.lft.to/lastmile_qr_scan"}, "lat": 38.879295666666664, "bike_id": "fafb009b0afd57299cfbe25a0a82a31b", "lon": -77.02154033333333, "type": "electric_scooter", "fusion_lon": 0.0, "fusion_lat": 0.0, "is_reserved": 0, "name": "fafb009b0afd57299cfbe25a0a82a31b", "is_disabled": 0}, {"rental_uris": {"ios": "https://dc.lft.to/lastmile_qr_scan", "android": "https://dc.lft.to/lastmile_qr_scan"}, "lat": 38.90087916666667, "bike_id": "8f74bf291a386feb938e3a52186cd6d8", "lon": -77.04661916666667, "type": "electric_scooter", "fusion_lon": 0.0, "fusion_lat": 0.0, "is_reserved": 0, "name": "8f74bf291a386feb938e3a52186cd6d8", "is_disabled": 0}, {"rental_uris": {"ios": "https://dc.lft.to/lastmile_qr_scan", "android": "https://dc.lft.to/lastmile_qr_scan"}, "lat": 38.92041733333333, "bike_id": "ca826a45428369953db8f4e92f201450", "lon": -77.01674166666666, "type": "electric_scooter", "fusion_lon": 0.0, "fusion_lat": 0.0, "is_reserved": 0, "name": "ca826a45428369953db8f4e92f201450", "is_disabled": 0}, {"rental_uris": {"ios": "https://dc.lft.to/lastmile_qr_scan", "android": "https://dc.lft.to/lastmile_qr_scan"}, "lat": 38.90023566666667, "bike_id": "1456df621a24f10f8a0e15f30c11c574", "lon": -77.0414345, "type": "electric_scooter", "fusion_lon": 0.0, "fusion_lat": 0.0, "is_reserved": 0, "name": "1456df621a24f10f8a0e15f30c11c574", "is_disabled": 0}, {"rental_uris": {"ios": "https://dc.lft.to/lastmile_qr_scan", "android": "https://dc.lft.to/lastmile_qr_scan"}, "lat": 38.894642166666664, "bike_id": "d503d903a4e511d71424509be06532bb", "lon": -77.00335066666666, "type": "electric_scooter", "fusion_lon": 0.0, "fusion_lat": 0.0, "is_reserved": 0, "name": "d503d903a4e511d71424509be06532bb", "is_disabled": 0}, {"rental_uris": {"ios": "https://dc.lft.to/lastmile_qr_scan", "android": "https://dc.lft.to/lastmile_qr_scan"}, "lat": 38.8942505, "bike_id": "a6116acaefa071d31a2f6f1eabd811c1", "lon": -77.02088383333333, "type": "electric_scooter", "fusion_lon": 0.0, "fusion_lat": 0.0, "is_reserved": 0, "name": "a6116acaefa071d31a2f6f1eabd811c1", "is_disabled": 0}, {"rental_uris": {"ios": "https://dc.lft.to/lastmile_qr_scan", "android": "https://dc.lft.to/lastmile_qr_scan"}, "lat": 38.921599666666665, "bike_id": "1be1dc593ba79a460188790a5b9092ca", "lon": -77.033161, "type": "electric_scooter", "fusion_lon": 0.0, "fusion_lat": 0.0, "is_reserved": 0, "name": "1be1dc593ba79a460188790a5b9092ca", "is_disabled": 0}, {"rental_uris": {"ios": "https://dc.lft.to/lastmile_qr_scan", "android": "https://dc.lft.to/lastmile_qr_scan"}, "lat": 38.90060533333333, "bike_id": "fc9dc9091c31496410204a7a20b9cd35", "lon": -77.02312183333333, "type": "electric_scooter", "fusion_lon": 0.0, "fusion_lat": 0.0, "is_reserved": 0, "name": "fc9dc9091c31496410204a7a20b9cd35", "is_disabled": 0}, {"rental_uris": {"ios": "https://dc.lft.to/lastmile_qr_scan", "android": "https://dc.lft.to/lastmile_qr_scan"}, "lat": 38.90920833333333, "bike_id": "0004e788d75e197afcfc26f62cd5358a", "lon": -77.018943, "type": "electric_scooter", "fusion_lon": 0.0, "fusion_lat": 0.0, "is_reserved": 0, "name": "0004e788d75e197afcfc26f62cd5358a", "is_disabled": 0}, {"rental_uris": {"ios": "https://dc.lft.to/lastmile_qr_scan", "android": "https://dc.lft.to/lastmile_qr_scan"}, "lat": 38.915525833333334, "bike_id": "4c97bde21f52161561f158cc146f2ac0", "lon": -77.03170716666666, "type": "electric_scooter", "fusion_lon": 0.0, "fusion_lat": 0.0, "is_reserved": 0, "name": "4c97bde21f52161561f158cc146f2ac0", "is_disabled": 0}, {"rental_uris": {"ios": "https://dc.lft.to/lastmile_qr_scan", "android": "https://dc.lft.to/lastmile_qr_scan"}, "lat": 38.91572, "bike_id": "89a0bffeaabfe1b9b73e2fef2b7ca3d8", "lon": -77.022863, "type": "electric_scooter", "fusion_lon": 0.0, "fusion_lat": 0.0, "is_reserved": 0, "name": "89a0bffeaabfe1b9b73e2fef2b7ca3d8", "is_disabled": 0}, {"rental_uris": {"ios": "https://dc.lft.to/lastmile_qr_scan", "android": "https://dc.lft.to/lastmile_qr_scan"}, "lat": 38.88662683333333, "bike_id": "bb05e075ba6884fb5965ecc969f6cacc", "lon": -77.16229983333334, "type": "electric_bike", "fusion_lon": 0.0, "fusion_lat": 0.0, "is_reserved": 0, "name": "bb05e075ba6884fb5965ecc969f6cacc", "is_disabled": 0}, {"rental_uris": {"ios": "https://dc.lft.to/lastmile_qr_scan", "android": "https://dc.lft.to/lastmile_qr_scan"}, "lat": 38.9027825, "bike_id": "5242ac0a8b65ceee2682f227731bffc5", "lon": -77.03358866666666, "type": "electric_scooter", "fusion_lon": 0.0, "fusion_lat": 0.0, "is_reserved": 0, "name": "5242ac0a8b65ceee2682f227731bffc5", "is_disabled": 0}, {"rental_uris": {"ios": "https://dc.lft.to/lastmile_qr_scan", "android": "https://dc.lft.to/lastmile_qr_scan"}, "lat": 38.95711283333333, "bike_id": "5655628befbf7eb32691a0608affbedf", "lon": -77.00280916666667, "type": "electric_bike", "fusion_lon": 0.0, "fusion_lat": 0.0, "is_reserved": 0, "name": "5655628befbf7eb32691a0608affbedf", "is_disabled": 0}, {"rental_uris": {"ios": "https://dc.lft.to/lastmile_qr_scan", "android": "https://dc.lft.to/lastmile_qr_scan"}, "lat": 38.90907583333333, "bike_id": "d27d2c5eef31bcb64f89a219ab95ae4e", "lon": -77.04311483333333, "type": "electric_scooter", "fusion_lon": 0.0, "fusion_lat": 0.0, "is_reserved": 0, "name": "d27d2c5eef31bcb64f89a219ab95ae4e", "is_disabled": 0}, {"rental_uris": {"ios": "https://dc.lft.to/lastmile_qr_scan", "android": "https://dc.lft.to/lastmile_qr_scan"}, "lat": 38.915965666666665, "bike_id": "7a8a65ec864c1932eff56393812e2280", "lon": -77.02301133333333, "type": "electric_scooter", "fusion_lon": 0.0, "fusion_lat": 0.0, "is_reserved": 0, "name": "7a8a65ec864c1932eff56393812e2280", "is_disabled": 0}, {"rental_uris": {"ios": "https://dc.lft.to/lastmile_qr_scan", "android": "https://dc.lft.to/lastmile_qr_scan"}, "lat": 38.90564766666667, "bike_id": "efeea5fbddee0cd8659028b2488ceeef", "lon": -77.02217966666667, "type": "electric_scooter", "fusion_lon": 0.0, "fusion_lat": 0.0, "is_reserved": 0, "name": "efeea5fbddee0cd8659028b2488ceeef", "is_disabled": 0}, {"rental_uris": {"ios": "https://dc.lft.to/lastmile_qr_scan", "android": "https://dc.lft.to/lastmile_qr_scan"}, "lat": 38.92966533333333, "bike_id": "923e91c1b11e8df2e6f22d480804c3fe", "lon": -77.01320966666667, "type": "electric_scooter", "fusion_lon": 0.0, "fusion_lat": 0.0, "is_reserved": 0, "name": "923e91c1b11e8df2e6f22d480804c3fe", "is_disabled": 0}, {"rental_uris": {"ios": "https://dc.lft.to/lastmile_qr_scan", "android": "https://dc.lft.to/lastmile_qr_scan"}, "lat": 38.90684533333334, "bike_id": "2c454d65bc8b02aabe0cb2256822695b", "lon": -77.063365, "type": "electric_scooter", "fusion_lon": 0.0, "fusion_lat": 0.0, "is_reserved": 0, "name": "2c454d65bc8b02aabe0cb2256822695b", "is_disabled": 0}, {"rental_uris": {"ios": "https://dc.lft.to/lastmile_qr_scan", "android": "https://dc.lft.to/lastmile_qr_scan"}, "lat": 38.90106016666667, "bike_id": "7fc5ee714308ed6278fda80623f4e122", "lon": -77.05970466666666, "type": "electric_scooter", "fusion_lon": 0.0, "fusion_lat": 0.0, "is_reserved": 0, "name": "7fc5ee714308ed6278fda80623f4e122", "is_disabled": 0}, {"rental_uris": {"ios": "https://dc.lft.to/lastmile_qr_scan", "android": "https://dc.lft.to/lastmile_qr_scan"}, "lat": 38.914012166666666, "bike_id": "cc6fa56927574e8f03ab08cbc7e4657f", "lon": -77.02406666666667, "type": "electric_scooter", "fusion_lon": 0.0, "fusion_lat": 0.0, "is_reserved": 0, "name": "cc6fa56927574e8f03ab08cbc7e4657f", "is_disabled": 0}, {"rental_uris": {"ios": "https://dc.lft.to/lastmile_qr_scan", "android": "https://dc.lft.to/lastmile_qr_scan"}, "lat": 38.902904666666664, "bike_id": "1828b2babb8fc796d4d76b60cff297af", "lon": -77.00217483333333, "type": "electric_scooter", "fusion_lon": 0.0, "fusion_lat": 0.0, "is_reserved": 0, "name": "1828b2babb8fc796d4d76b60cff297af", "is_disabled": 0}, {"rental_uris": {"ios": "https://dc.lft.to/lastmile_qr_scan", "android": "https://dc.lft.to/lastmile_qr_scan"}, "lat": 38.90101033333333, "bike_id": "08f671a22ac6ccbf64435423c046c75a", "lon": -77.01343416666667, "type": "electric_scooter", "fusion_lon": 0.0, "fusion_lat": 0.0, "is_reserved": 0, "name": "08f671a22ac6ccbf64435423c046c75a", "is_disabled": 0}, {"rental_uris": {"ios": "https://dc.lft.to/lastmile_qr_scan", "android": "https://dc.lft.to/lastmile_qr_scan"}, "lat": 38.96911433333333, "bike_id": "34ded04e4daba310f33e575763bb3839", "lon": -76.99492983333333, "type": "electric_bike", "fusion_lon": 0.0, "fusion_lat": 0.0, "is_reserved": 0, "name": "34ded04e4daba310f33e575763bb3839", "is_disabled": 0}, {"rental_uris": {"ios": "https://dc.lft.to/lastmile_qr_scan", "android": "https://dc.lft.to/lastmile_qr_scan"}, "lat": 38.964069333333335, "bike_id": "55d5ca7b73fc06fde1edd2a093d28eb6", "lon": -76.99985216666667, "type": "electric_bike", "fusion_lon": 0.0, "fusion_lat": 0.0, "is_reserved": 0, "name": "55d5ca7b73fc06fde1edd2a093d28eb6", "is_disabled": 0}, {"rental_uris": {"ios": "https://dc.lft.to/lastmile_qr_scan", "android": "https://dc.lft.to/lastmile_qr_scan"}, "lat": 38.895073833333335, "bike_id": "6a6ad63db9d1d141159ba0f57288152d", "lon": -77.04675083333333, "type": "electric_scooter", "fusion_lon": 0.0, "fusion_lat": 0.0, "is_reserved": 0, "name": "6a6ad63db9d1d141159ba0f57288152d", "is_disabled": 0}, {"rental_uris": {"ios": "https://dc.lft.to/lastmile_qr_scan", "android": "https://dc.lft.to/lastmile_qr_scan"}, "lat": 38.903817, "bike_id": "dfaef08ab0cf70e557d51e1708810e19", "lon": -77.0408475, "type": "electric_scooter", "fusion_lon": 0.0, "fusion_lat": 0.0, "is_reserved": 0, "name": "dfaef08ab0cf70e557d51e1708810e19", "is_disabled": 0}, {"rental_uris": {"ios": "https://dc.lft.to/lastmile_qr_scan", "android": "https://dc.lft.to/lastmile_qr_scan"}, "lat": 38.89554366666667, "bike_id": "633ea59c7fb5b744da57d35c19e9936f", "lon": -77.04681683333334, "type": "electric_scooter", "fusion_lon": 0.0, "fusion_lat": 0.0, "is_reserved": 0, "name": "633ea59c7fb5b744da57d35c19e9936f", "is_disabled": 0}, {"rental_uris": {"ios": "https://dc.lft.to/lastmile_qr_scan", "android": "https://dc.lft.to/lastmile_qr_scan"}, "lat": 38.92043816666666, "bike_id": "44ca733c448a7b350a417c15d5b58ed7", "lon": -77.016901, "type": "electric_scooter", "fusion_lon": 0.0, "fusion_lat": 0.0, "is_reserved": 0, "name": "44ca733c448a7b350a417c15d5b58ed7", "is_disabled": 0}, {"rental_uris": {"ios": "https://dc.lft.to/lastmile_qr_scan", "android": "https://dc.lft.to/lastmile_qr_scan"}, "lat": 38.908067833333334, "bike_id": "c6ca86ed674aeb663a8ca3e8764c6a65", "lon": -77.030585, "type": "electric_scooter", "fusion_lon": 0.0, "fusion_lat": 0.0, "is_reserved": 0, "name": "c6ca86ed674aeb663a8ca3e8764c6a65", "is_disabled": 0}, {"rental_uris": {"ios": "https://dc.lft.to/lastmile_qr_scan", "android": "https://dc.lft.to/lastmile_qr_scan"}, "lat": 38.911513, "bike_id": "f64b72fbaf0815faf1990009064b8e18", "lon": -77.0383595, "type": "electric_scooter", "fusion_lon": 0.0, "fusion_lat": 0.0, "is_reserved": 0, "name": "f64b72fbaf0815faf1990009064b8e18", "is_disabled": 0}, {"rental_uris": {"ios": "https://dc.lft.to/lastmile_qr_scan", "android": "https://dc.lft.to/lastmile_qr_scan"}, "lat": 38.89910033333334, "bike_id": "64570483a0a3920ad3f649933109228d", "lon": -77.0280345, "type": "electric_scooter", "fusion_lon": 0.0, "fusion_lat": 0.0, "is_reserved": 0, "name": "64570483a0a3920ad3f649933109228d", "is_disabled": 0}, {"rental_uris": {"ios": "https://dc.lft.to/lastmile_qr_scan", "android": "https://dc.lft.to/lastmile_qr_scan"}, "lat": 38.92903716666667, "bike_id": "44c0cd0d58ecee15d6159e5dff77a53c", "lon": -77.02614333333334, "type": "electric_scooter", "fusion_lon": 0.0, "fusion_lat": 0.0, "is_reserved": 0, "name": "44c0cd0d58ecee15d6159e5dff77a53c", "is_disabled": 0}, {"rental_uris": {"ios": "https://dc.lft.to/lastmile_qr_scan", "android": "https://dc.lft.to/lastmile_qr_scan"}, "lat": 38.90948233333334, "bike_id": "9a624ecd9fe256469279df0dd93423ee", "lon": -77.044769, "type": "electric_scooter", "fusion_lon": 0.0, "fusion_lat": 0.0, "is_reserved": 0, "name": "9a624ecd9fe256469279df0dd93423ee", "is_disabled": 0}, {"rental_uris": {"ios": "https://dc.lft.to/lastmile_qr_scan", "android": "https://dc.lft.to/lastmile_qr_scan"}, "lat": 38.910014, "bike_id": "2695b4227a8e6e4bb2dad5f20412e506", "lon": -77.012063, "type": "electric_scooter", "fusion_lon": 0.0, "fusion_lat": 0.0, "is_reserved": 0, "name": "2695b4227a8e6e4bb2dad5f20412e506", "is_disabled": 0}, {"rental_uris": {"ios": "https://dc.lft.to/lastmile_qr_scan", "android": "https://dc.lft.to/lastmile_qr_scan"}, "lat": 38.909834833333335, "bike_id": "f13a3d8f190fec8725e92e2e41049308", "lon": -76.99494616666667, "type": "electric_scooter", "fusion_lon": 0.0, "fusion_lat": 0.0, "is_reserved": 0, "name": "f13a3d8f190fec8725e92e2e41049308", "is_disabled": 0}, {"rental_uris": {"ios": "https://dc.lft.to/lastmile_qr_scan", "android": "https://dc.lft.to/lastmile_qr_scan"}, "lat": 38.90446516666667, "bike_id": "74b85837c6b4b13ac171b839ddd721de", "lon": -76.98002066666666, "type": "electric_scooter", "fusion_lon": 0.0, "fusion_lat": 0.0, "is_reserved": 0, "name": "74b85837c6b4b13ac171b839ddd721de", "is_disabled": 0}, {"rental_uris": {"ios": "https://dc.lft.to/lastmile_qr_scan", "android": "https://dc.lft.to/lastmile_qr_scan"}, "lat": 38.922466166666666, "bike_id": "a786ad1ac86fe527f0ebb18f541f65c1", "lon": -76.98083483333333, "type": "electric_scooter", "fusion_lon": 0.0, "fusion_lat": 0.0, "is_reserved": 0, "name": "a786ad1ac86fe527f0ebb18f541f65c1", "is_disabled": 0}, {"rental_uris": {"ios": "https://dc.lft.to/lastmile_qr_scan", "android": "https://dc.lft.to/lastmile_qr_scan"}, "lat": 38.921372166666664, "bike_id": "295dad7fb0dc42d8ef59700372c3662f", "lon": -77.0434895, "type": "electric_scooter", "fusion_lon": 0.0, "fusion_lat": 0.0, "is_reserved": 0, "name": "295dad7fb0dc42d8ef59700372c3662f", "is_disabled": 0}, {"rental_uris": {"ios": "https://dc.lft.to/lastmile_qr_scan", "android": "https://dc.lft.to/lastmile_qr_scan"}, "lat": 38.920203, "bike_id": "b43ea587d5ed975e578f82251ae0fcc0", "lon": -77.031791, "type": "electric_scooter", "fusion_lon": 0.0, "fusion_lat": 0.0, "is_reserved": 0, "name": "b43ea587d5ed975e578f82251ae0fcc0", "is_disabled": 0}, {"rental_uris": {"ios": "https://dc.lft.to/lastmile_qr_scan", "android": "https://dc.lft.to/lastmile_qr_scan"}, "lat": 38.90234366666667, "bike_id": "b93cab12cd367024f944e2d139c43caf", "lon": -77.032576, "type": "electric_scooter", "fusion_lon": 0.0, "fusion_lat": 0.0, "is_reserved": 0, "name": "b93cab12cd367024f944e2d139c43caf", "is_disabled": 0}, {"rental_uris": {"ios": "https://dc.lft.to/lastmile_qr_scan", "android": "https://dc.lft.to/lastmile_qr_scan"}, "lat": 38.93534666666667, "bike_id": "22b3b683f644ca33756b5a80074d2eb0", "lon": -77.02351483333334, "type": "electric_scooter", "fusion_lon": 0.0, "fusion_lat": 0.0, "is_reserved": 0, "name": "22b3b683f644ca33756b5a80074d2eb0", "is_disabled": 0}, {"rental_uris": {"ios": "https://dc.lft.to/lastmile_qr_scan", "android": "https://dc.lft.to/lastmile_qr_scan"}, "lat": 38.90141233333333, "bike_id": "55903c36ce879a0698bb9075fecbb0f2", "lon": -77.03255516666667, "type": "electric_scooter", "fusion_lon": 0.0, "fusion_lat": 0.0, "is_reserved": 0, "name": "55903c36ce879a0698bb9075fecbb0f2", "is_disabled": 0}, {"rental_uris": {"ios": "https://dc.lft.to/lastmile_qr_scan", "android": "https://dc.lft.to/lastmile_qr_scan"}, "lat": 38.8939105, "bike_id": "44027e4e5d5c71e44ab4f288e96dcb51", "lon": -77.0234095, "type": "electric_scooter", "fusion_lon": 0.0, "fusion_lat": 0.0, "is_reserved": 0, "name": "44027e4e5d5c71e44ab4f288e96dcb51", "is_disabled": 0}, {"rental_uris": {"ios": "https://dc.lft.to/lastmile_qr_scan", "android": "https://dc.lft.to/lastmile_qr_scan"}, "lat": 38.928656833333335, "bike_id": "33246cb9934687b41d58156767bdd0e1", "lon": -77.02174116666667, "type": "electric_scooter", "fusion_lon": 0.0, "fusion_lat": 0.0, "is_reserved": 0, "name": "33246cb9934687b41d58156767bdd0e1", "is_disabled": 0}, {"rental_uris": {"ios": "https://dc.lft.to/lastmile_qr_scan", "android": "https://dc.lft.to/lastmile_qr_scan"}, "lat": 38.91924783333333, "bike_id": "aeaf47e9708e3cdd7ed0b0d5770427d8", "lon": -77.03356483333333, "type": "electric_scooter", "fusion_lon": 0.0, "fusion_lat": 0.0, "is_reserved": 0, "name": "aeaf47e9708e3cdd7ed0b0d5770427d8", "is_disabled": 0}, {"rental_uris": {"ios": "https://dc.lft.to/lastmile_qr_scan", "android": "https://dc.lft.to/lastmile_qr_scan"}, "lat": 38.899095333333335, "bike_id": "62f8523471284147a97b8aa44f314d6c", "lon": -76.93366866666666, "type": "electric_scooter", "fusion_lon": 0.0, "fusion_lat": 0.0, "is_reserved": 0, "name": "62f8523471284147a97b8aa44f314d6c", "is_disabled": 0}, {"rental_uris": {"ios": "https://dc.lft.to/lastmile_qr_scan", "android": "https://dc.lft.to/lastmile_qr_scan"}, "lat": 38.904396166666665, "bike_id": "0a3152e37bad3f76f8bf5e8c8147a4f0", "lon": -77.04842133333334, "type": "electric_scooter", "fusion_lon": 0.0, "fusion_lat": 0.0, "is_reserved": 0, "name": "0a3152e37bad3f76f8bf5e8c8147a4f0", "is_disabled": 0}, {"rental_uris": {"ios": "https://dc.lft.to/lastmile_qr_scan", "android": "https://dc.lft.to/lastmile_qr_scan"}, "lat": 38.90081133333333, "bike_id": "cb43b0ea0b56fe9671e273c36f3d2f00", "lon": -76.980216, "type": "electric_scooter", "fusion_lon": 0.0, "fusion_lat": 0.0, "is_reserved": 0, "name": "cb43b0ea0b56fe9671e273c36f3d2f00", "is_disabled": 0}, {"rental_uris": {"ios": "https://dc.lft.to/lastmile_qr_scan", "android": "https://dc.lft.to/lastmile_qr_scan"}, "lat": 38.9377515, "bike_id": "571fccb640f1803d67028bf058dbfa1e", "lon": -77.01905766666667, "type": "electric_bike", "fusion_lon": 0.0, "fusion_lat": 0.0, "is_reserved": 0, "name": "571fccb640f1803d67028bf058dbfa1e", "is_disabled": 0}, {"rental_uris": {"ios": "https://dc.lft.to/lastmile_qr_scan", "android": "https://dc.lft.to/lastmile_qr_scan"}, "lat": 38.914183, "bike_id": "530ef05b730423df38245f7f11e509a5", "lon": -77.02610716666666, "type": "electric_scooter", "fusion_lon": 0.0, "fusion_lat": 0.0, "is_reserved": 0, "name": "530ef05b730423df38245f7f11e509a5", "is_disabled": 0}, {"rental_uris": {"ios": "https://dc.lft.to/lastmile_qr_scan", "android": "https://dc.lft.to/lastmile_qr_scan"}, "lat": 38.83063333333333, "bike_id": "978e0ade95b409df6566b1b054727c85", "lon": -77.0408015, "type": "electric_bike", "fusion_lon": 0.0, "fusion_lat": 0.0, "is_reserved": 0, "name": "978e0ade95b409df6566b1b054727c85", "is_disabled": 0}, {"rental_uris": {"ios": "https://dc.lft.to/lastmile_qr_scan", "android": "https://dc.lft.to/lastmile_qr_scan"}, "lat": 38.952183, "bike_id": "ecf08ca65a7a88f021045c7f6186f3d9", "lon": -77.07077716666667, "type": "electric_scooter", "fusion_lon": 0.0, "fusion_lat": 0.0, "is_reserved": 0, "name": "ecf08ca65a7a88f021045c7f6186f3d9", "is_disabled": 0}, {"rental_uris": {"ios": "https://dc.lft.to/lastmile_qr_scan", "android": "https://dc.lft.to/lastmile_qr_scan"}, "lat": 38.944205, "bike_id": "c1cd736a5de9954208c21314558cc52b", "lon": -77.06392316666667, "type": "electric_scooter", "fusion_lon": 0.0, "fusion_lat": 0.0, "is_reserved": 0, "name": "c1cd736a5de9954208c21314558cc52b", "is_disabled": 0}, {"rental_uris": {"ios": "https://dc.lft.to/lastmile_qr_scan", "android": "https://dc.lft.to/lastmile_qr_scan"}, "lat": 38.91593966666667, "bike_id": "c04ac4102a8233952cd8845e29ff50b1", "lon": -77.02304933333333, "type": "electric_scooter", "fusion_lon": 0.0, "fusion_lat": 0.0, "is_reserved": 0, "name": "c04ac4102a8233952cd8845e29ff50b1", "is_disabled": 0}, {"rental_uris": {"ios": "https://dc.lft.to/lastmile_qr_scan", "android": "https://dc.lft.to/lastmile_qr_scan"}, "lat": 38.900915, "bike_id": "4deaad4936bfe4d705af517ef5f78890", "lon": -77.00636216666666, "type": "electric_scooter", "fusion_lon": 0.0, "fusion_lat": 0.0, "is_reserved": 0, "name": "4deaad4936bfe4d705af517ef5f78890", "is_disabled": 0}, {"rental_uris": {"ios": "https://dc.lft.to/lastmile_qr_scan", "android": "https://dc.lft.to/lastmile_qr_scan"}, "lat": 38.92525533333333, "bike_id": "b04f5b54203f1b0bf8db465fa28b6896", "lon": -77.04097166666666, "type": "electric_scooter", "fusion_lon": 0.0, "fusion_lat": 0.0, "is_reserved": 0, "name": "b04f5b54203f1b0bf8db465fa28b6896", "is_disabled": 0}, {"rental_uris": {"ios": "https://dc.lft.to/lastmile_qr_scan", "android": "https://dc.lft.to/lastmile_qr_scan"}, "lat": 38.917258333333336, "bike_id": "1ffa37621a4c2c36ac5a3049eacb94ce", "lon": -77.0296825, "type": "electric_scooter", "fusion_lon": 0.0, "fusion_lat": 0.0, "is_reserved": 0, "name": "1ffa37621a4c2c36ac5a3049eacb94ce", "is_disabled": 0}, {"rental_uris": {"ios": "https://dc.lft.to/lastmile_qr_scan", "android": "https://dc.lft.to/lastmile_qr_scan"}, "lat": 38.912389833333336, "bike_id": "625c86508c81bf29e56adec8fb80d80a", "lon": -76.98792116666667, "type": "electric_scooter", "fusion_lon": 0.0, "fusion_lat": 0.0, "is_reserved": 0, "name": "625c86508c81bf29e56adec8fb80d80a", "is_disabled": 0}, {"rental_uris": {"ios": "https://dc.lft.to/lastmile_qr_scan", "android": "https://dc.lft.to/lastmile_qr_scan"}, "lat": 38.9112375, "bike_id": "206d0ba3b832d0325a0c0abc19ac50a2", "lon": -77.034018, "type": "electric_scooter", "fusion_lon": 0.0, "fusion_lat": 0.0, "is_reserved": 0, "name": "206d0ba3b832d0325a0c0abc19ac50a2", "is_disabled": 0}, {"rental_uris": {"ios": "https://dc.lft.to/lastmile_qr_scan", "android": "https://dc.lft.to/lastmile_qr_scan"}, "lat": 38.89840233333334, "bike_id": "10f38bd9b55f8438962703b5d182585e", "lon": -77.04828633333334, "type": "electric_scooter", "fusion_lon": 0.0, "fusion_lat": 0.0, "is_reserved": 0, "name": "10f38bd9b55f8438962703b5d182585e", "is_disabled": 0}, {"rental_uris": {"ios": "https://dc.lft.to/lastmile_qr_scan", "android": "https://dc.lft.to/lastmile_qr_scan"}, "lat": 38.8603325, "bike_id": "b7c1ca489faa5574f57c9f6a327473c1", "lon": -76.96718683333333, "type": "electric_scooter", "fusion_lon": 0.0, "fusion_lat": 0.0, "is_reserved": 0, "name": "b7c1ca489faa5574f57c9f6a327473c1", "is_disabled": 0}, {"rental_uris": {"ios": "https://dc.lft.to/lastmile_qr_scan", "android": "https://dc.lft.to/lastmile_qr_scan"}, "lat": 38.900467666666664, "bike_id": "73ec54261d8ca37026de456e76699606", "lon": -77.016655, "type": "electric_scooter", "fusion_lon": 0.0, "fusion_lat": 0.0, "is_reserved": 0, "name": "73ec54261d8ca37026de456e76699606", "is_disabled": 0}, {"rental_uris": {"ios": "https://dc.lft.to/lastmile_qr_scan", "android": "https://dc.lft.to/lastmile_qr_scan"}, "lat": 38.946209333333336, "bike_id": "726dcb6c0926c43581136afb79c7f438", "lon": -77.025327, "type": "electric_scooter", "fusion_lon": 0.0, "fusion_lat": 0.0, "is_reserved": 0, "name": "726dcb6c0926c43581136afb79c7f438", "is_disabled": 0}, {"rental_uris": {"ios": "https://dc.lft.to/lastmile_qr_scan", "android": "https://dc.lft.to/lastmile_qr_scan"}, "lat": 38.877094666666665, "bike_id": "8b7297290dda3664e92c312019d1afbb", "lon": -77.01784866666667, "type": "electric_scooter", "fusion_lon": 0.0, "fusion_lat": 0.0, "is_reserved": 0, "name": "8b7297290dda3664e92c312019d1afbb", "is_disabled": 0}, {"rental_uris": {"ios": "https://dc.lft.to/lastmile_qr_scan", "android": "https://dc.lft.to/lastmile_qr_scan"}, "lat": 38.9509915, "bike_id": "0d6a23fa5fd19c15da3947de0f8d9dc2", "lon": -77.0971295, "type": "electric_scooter", "fusion_lon": 0.0, "fusion_lat": 0.0, "is_reserved": 0, "name": "0d6a23fa5fd19c15da3947de0f8d9dc2", "is_disabled": 0}, {"rental_uris": {"ios": "https://dc.lft.to/lastmile_qr_scan", "android": "https://dc.lft.to/lastmile_qr_scan"}, "lat": 38.873890333333335, "bike_id": "fbfad3d828e12ae163e7dc9705db262a", "lon": -77.00022283333334, "type": "electric_scooter", "fusion_lon": 0.0, "fusion_lat": 0.0, "is_reserved": 0, "name": "fbfad3d828e12ae163e7dc9705db262a", "is_disabled": 0}, {"rental_uris": {"ios": "https://dc.lft.to/lastmile_qr_scan", "android": "https://dc.lft.to/lastmile_qr_scan"}, "lat": 38.89622933333333, "bike_id": "abc7a3b3024b33c2f8797c51b555fa35", "lon": -77.02198816666667, "type": "electric_scooter", "fusion_lon": 0.0, "fusion_lat": 0.0, "is_reserved": 0, "name": "abc7a3b3024b33c2f8797c51b555fa35", "is_disabled": 0}, {"rental_uris": {"ios": "https://dc.lft.to/lastmile_qr_scan", "android": "https://dc.lft.to/lastmile_qr_scan"}, "lat": 38.906577666666664, "bike_id": "314115c72fc460d6d3c7f43dbae96b05", "lon": -77.0379425, "type": "electric_scooter", "fusion_lon": 0.0, "fusion_lat": 0.0, "is_reserved": 0, "name": "314115c72fc460d6d3c7f43dbae96b05", "is_disabled": 0}, {"rental_uris": {"ios": "https://dc.lft.to/lastmile_qr_scan", "android": "https://dc.lft.to/lastmile_qr_scan"}, "lat": 38.90278033333333, "bike_id": "ff9fac51fba9affe3b36240bd65689d4", "lon": -77.0335875, "type": "electric_scooter", "fusion_lon": 0.0, "fusion_lat": 0.0, "is_reserved": 0, "name": "ff9fac51fba9affe3b36240bd65689d4", "is_disabled": 0}, {"rental_uris": {"ios": "https://dc.lft.to/lastmile_qr_scan", "android": "https://dc.lft.to/lastmile_qr_scan"}, "lat": 38.89804483333333, "bike_id": "615c484ac880d80f16cdeea79a5684b5", "lon": -77.0248375, "type": "electric_scooter", "fusion_lon": 0.0, "fusion_lat": 0.0, "is_reserved": 0, "name": "615c484ac880d80f16cdeea79a5684b5", "is_disabled": 0}, {"rental_uris": {"ios": "https://dc.lft.to/lastmile_qr_scan", "android": "https://dc.lft.to/lastmile_qr_scan"}, "lat": 38.859699, "bike_id": "5eac41261b764b3a964cac76a0d0967c", "lon": -76.99158583333333, "type": "electric_scooter", "fusion_lon": 0.0, "fusion_lat": 0.0, "is_reserved": 0, "name": "5eac41261b764b3a964cac76a0d0967c", "is_disabled": 0}, {"rental_uris": {"ios": "https://dc.lft.to/lastmile_qr_scan", "android": "https://dc.lft.to/lastmile_qr_scan"}, "lat": 38.94187983333333, "bike_id": "bc9f7d35489d1c9e9c6b8b419733d479", "lon": -77.024872, "type": "electric_scooter", "fusion_lon": 0.0, "fusion_lat": 0.0, "is_reserved": 0, "name": "bc9f7d35489d1c9e9c6b8b419733d479", "is_disabled": 0}, {"rental_uris": {"ios": "https://dc.lft.to/lastmile_qr_scan", "android": "https://dc.lft.to/lastmile_qr_scan"}, "lat": 38.95652416666667, "bike_id": "28793bd9680cab49ac09807161e2c1d6", "lon": -77.01961116666666, "type": "electric_scooter", "fusion_lon": 0.0, "fusion_lat": 0.0, "is_reserved": 0, "name": "28793bd9680cab49ac09807161e2c1d6", "is_disabled": 0}, {"rental_uris": {"ios": "https://dc.lft.to/lastmile_qr_scan", "android": "https://dc.lft.to/lastmile_qr_scan"}, "lat": 38.9176575, "bike_id": "c94aaf486e4b6b9ae63cbef4cf38a76d", "lon": -77.0384655, "type": "electric_scooter", "fusion_lon": 0.0, "fusion_lat": 0.0, "is_reserved": 0, "name": "c94aaf486e4b6b9ae63cbef4cf38a76d", "is_disabled": 0}, {"rental_uris": {"ios": "https://dc.lft.to/lastmile_qr_scan", "android": "https://dc.lft.to/lastmile_qr_scan"}, "lat": 38.928535, "bike_id": "3f2d5f9106a43392ad34b967d8155706", "lon": -77.05431433333334, "type": "electric_scooter", "fusion_lon": 0.0, "fusion_lat": 0.0, "is_reserved": 0, "name": "3f2d5f9106a43392ad34b967d8155706", "is_disabled": 0}, {"rental_uris": {"ios": "https://dc.lft.to/lastmile_qr_scan", "android": "https://dc.lft.to/lastmile_qr_scan"}, "lat": 38.90384516666667, "bike_id": "77e3bcfc385fef53af85955b0385f906", "lon": -77.03200983333333, "type": "electric_scooter", "fusion_lon": 0.0, "fusion_lat": 0.0, "is_reserved": 0, "name": "77e3bcfc385fef53af85955b0385f906", "is_disabled": 0}, {"rental_uris": {"ios": "https://dc.lft.to/lastmile_qr_scan", "android": "https://dc.lft.to/lastmile_qr_scan"}, "lat": 38.8874755, "bike_id": "80047156325dc98f194776b6deae4000", "lon": -77.02566883333333, "type": "electric_scooter", "fusion_lon": 0.0, "fusion_lat": 0.0, "is_reserved": 0, "name": "80047156325dc98f194776b6deae4000", "is_disabled": 0}, {"rental_uris": {"ios": "https://dc.lft.to/lastmile_qr_scan", "android": "https://dc.lft.to/lastmile_qr_scan"}, "lat": 38.89757083333333, "bike_id": "73a7b44fff5d88e7ea3105d50f17b710", "lon": -77.0301575, "type": "electric_scooter", "fusion_lon": 0.0, "fusion_lat": 0.0, "is_reserved": 0, "name": "73a7b44fff5d88e7ea3105d50f17b710", "is_disabled": 0}, {"rental_uris": {"ios": "https://dc.lft.to/lastmile_qr_scan", "android": "https://dc.lft.to/lastmile_qr_scan"}, "lat": 38.946186, "bike_id": "75177b9e7a6429a5fd37b4c95970e85d", "lon": -77.09670233333334, "type": "electric_bike", "fusion_lon": 0.0, "fusion_lat": 0.0, "is_reserved": 0, "name": "75177b9e7a6429a5fd37b4c95970e85d", "is_disabled": 0}, {"rental_uris": {"ios": "https://dc.lft.to/lastmile_qr_scan", "android": "https://dc.lft.to/lastmile_qr_scan"}, "lat": 38.89730616666667, "bike_id": "c136438c6d0c84e065a41b596c641d9f", "lon": -77.0257625, "type": "electric_scooter", "fusion_lon": 0.0, "fusion_lat": 0.0, "is_reserved": 0, "name": "c136438c6d0c84e065a41b596c641d9f", "is_disabled": 0}, {"rental_uris": {"ios": "https://dc.lft.to/lastmile_qr_scan", "android": "https://dc.lft.to/lastmile_qr_scan"}, "lat": 38.9114675, "bike_id": "ce3b328728f2efabe31d3a087d07c288", "lon": -77.00663516666667, "type": "electric_scooter", "fusion_lon": 0.0, "fusion_lat": 0.0, "is_reserved": 0, "name": "ce3b328728f2efabe31d3a087d07c288", "is_disabled": 0}, {"rental_uris": {"ios": "https://dc.lft.to/lastmile_qr_scan", "android": "https://dc.lft.to/lastmile_qr_scan"}, "lat": 38.90615433333333, "bike_id": "ee8d8f567a71cd6612d49dfdb8c24096", "lon": -77.038905, "type": "electric_scooter", "fusion_lon": 0.0, "fusion_lat": 0.0, "is_reserved": 0, "name": "ee8d8f567a71cd6612d49dfdb8c24096", "is_disabled": 0}, {"rental_uris": {"ios": "https://dc.lft.to/lastmile_qr_scan", "android": "https://dc.lft.to/lastmile_qr_scan"}, "lat": 38.900895166666665, "bike_id": "dedfc0ae7f3c7fb87bc1e5533f6782ad", "lon": -76.9833415, "type": "electric_scooter", "fusion_lon": 0.0, "fusion_lat": 0.0, "is_reserved": 0, "name": "dedfc0ae7f3c7fb87bc1e5533f6782ad", "is_disabled": 0}, {"rental_uris": {"ios": "https://dc.lft.to/lastmile_qr_scan", "android": "https://dc.lft.to/lastmile_qr_scan"}, "lat": 38.92067816666667, "bike_id": "13824b006b488904c7fcfa0b3cf92ab7", "lon": -76.9959065, "type": "electric_bike", "fusion_lon": 0.0, "fusion_lat": 0.0, "is_reserved": 0, "name": "13824b006b488904c7fcfa0b3cf92ab7", "is_disabled": 0}, {"rental_uris": {"ios": "https://dc.lft.to/lastmile_qr_scan", "android": "https://dc.lft.to/lastmile_qr_scan"}, "lat": 38.88717416666667, "bike_id": "cc016fa205ac49f8d6200667380a6a89", "lon": -77.01774366666666, "type": "electric_scooter", "fusion_lon": 0.0, "fusion_lat": 0.0, "is_reserved": 0, "name": "cc016fa205ac49f8d6200667380a6a89", "is_disabled": 0}, {"rental_uris": {"ios": "https://dc.lft.to/lastmile_qr_scan", "android": "https://dc.lft.to/lastmile_qr_scan"}, "lat": 38.9149635, "bike_id": "14831ce6081fb2e47898c9a4a6468e95", "lon": -76.98369933333333, "type": "electric_scooter", "fusion_lon": 0.0, "fusion_lat": 0.0, "is_reserved": 0, "name": "14831ce6081fb2e47898c9a4a6468e95", "is_disabled": 0}, {"rental_uris": {"ios": "https://dc.lft.to/lastmile_qr_scan", "android": "https://dc.lft.to/lastmile_qr_scan"}, "lat": 38.873782, "bike_id": "756e65ec9e6d546d7721fc6b075a710f", "lon": -77.00111583333333, "type": "electric_scooter", "fusion_lon": 0.0, "fusion_lat": 0.0, "is_reserved": 0, "name": "756e65ec9e6d546d7721fc6b075a710f", "is_disabled": 0}, {"rental_uris": {"ios": "https://dc.lft.to/lastmile_qr_scan", "android": "https://dc.lft.to/lastmile_qr_scan"}, "lat": 38.90979033333333, "bike_id": "63f32b7992dcae238f723ffff919a728", "lon": -77.03845366666667, "type": "electric_scooter", "fusion_lon": 0.0, "fusion_lat": 0.0, "is_reserved": 0, "name": "63f32b7992dcae238f723ffff919a728", "is_disabled": 0}, {"rental_uris": {"ios": "https://dc.lft.to/lastmile_qr_scan", "android": "https://dc.lft.to/lastmile_qr_scan"}, "lat": 38.94223983333333, "bike_id": "b24ed7457d7b405db22c6bddac0ba981", "lon": -77.02959666666666, "type": "electric_scooter", "fusion_lon": 0.0, "fusion_lat": 0.0, "is_reserved": 0, "name": "b24ed7457d7b405db22c6bddac0ba981", "is_disabled": 0}, {"rental_uris": {"ios": "https://dc.lft.to/lastmile_qr_scan", "android": "https://dc.lft.to/lastmile_qr_scan"}, "lat": 38.926117, "bike_id": "e793f25e4aab7998fb1e9543e3d12b13", "lon": -77.02160016666667, "type": "electric_scooter", "fusion_lon": 0.0, "fusion_lat": 0.0, "is_reserved": 0, "name": "e793f25e4aab7998fb1e9543e3d12b13", "is_disabled": 0}, {"rental_uris": {"ios": "https://dc.lft.to/lastmile_qr_scan", "android": "https://dc.lft.to/lastmile_qr_scan"}, "lat": 38.90225933333333, "bike_id": "99c6bb271bdf3dca92d0bb8fa4057a55", "lon": -77.01822016666667, "type": "electric_scooter", "fusion_lon": 0.0, "fusion_lat": 0.0, "is_reserved": 0, "name": "99c6bb271bdf3dca92d0bb8fa4057a55", "is_disabled": 0}, {"rental_uris": {"ios": "https://dc.lft.to/lastmile_qr_scan", "android": "https://dc.lft.to/lastmile_qr_scan"}, "lat": 38.91336283333333, "bike_id": "c8403af08803626f51007895ea0793cc", "lon": -77.04563, "type": "electric_scooter", "fusion_lon": 0.0, "fusion_lat": 0.0, "is_reserved": 0, "name": "c8403af08803626f51007895ea0793cc", "is_disabled": 0}, {"rental_uris": {"ios": "https://dc.lft.to/lastmile_qr_scan", "android": "https://dc.lft.to/lastmile_qr_scan"}, "lat": 38.9364685, "bike_id": "7fdb6bca7a7a72e483add2465c8e75fd", "lon": -77.02381216666667, "type": "electric_scooter", "fusion_lon": 0.0, "fusion_lat": 0.0, "is_reserved": 0, "name": "7fdb6bca7a7a72e483add2465c8e75fd", "is_disabled": 0}, {"rental_uris": {"ios": "https://dc.lft.to/lastmile_qr_scan", "android": "https://dc.lft.to/lastmile_qr_scan"}, "lat": 38.943264666666664, "bike_id": "a8fc593b7ff32f82862bba8243f728a3", "lon": -77.07652266666666, "type": "electric_scooter", "fusion_lon": 0.0, "fusion_lat": 0.0, "is_reserved": 0, "name": "a8fc593b7ff32f82862bba8243f728a3", "is_disabled": 0}, {"rental_uris": {"ios": "https://dc.lft.to/lastmile_qr_scan", "android": "https://dc.lft.to/lastmile_qr_scan"}, "lat": 38.901352, "bike_id": "ea55bd72eac586c361e1f7c5eec15d36", "lon": -77.04159766666666, "type": "electric_scooter", "fusion_lon": 0.0, "fusion_lat": 0.0, "is_reserved": 0, "name": "ea55bd72eac586c361e1f7c5eec15d36", "is_disabled": 0}, {"rental_uris": {"ios": "https://dc.lft.to/lastmile_qr_scan", "android": "https://dc.lft.to/lastmile_qr_scan"}, "lat": 38.90863366666667, "bike_id": "da76e55656edfdb3b59067cfba420f5f", "lon": -77.043228, "type": "electric_scooter", "fusion_lon": 0.0, "fusion_lat": 0.0, "is_reserved": 0, "name": "da76e55656edfdb3b59067cfba420f5f", "is_disabled": 0}, {"rental_uris": {"ios": "https://dc.lft.to/lastmile_qr_scan", "android": "https://dc.lft.to/lastmile_qr_scan"}, "lat": 38.93424266666667, "bike_id": "c732a74d7cea808d4c98e47a02b4fccc", "lon": -77.0399825, "type": "electric_scooter", "fusion_lon": 0.0, "fusion_lat": 0.0, "is_reserved": 0, "name": "c732a74d7cea808d4c98e47a02b4fccc", "is_disabled": 0}, {"rental_uris": {"ios": "https://dc.lft.to/lastmile_qr_scan", "android": "https://dc.lft.to/lastmile_qr_scan"}, "lat": 38.917030833333335, "bike_id": "0aa596825c6ab9218d11a42fb3cd2c26", "lon": -77.03875233333333, "type": "electric_scooter", "fusion_lon": 0.0, "fusion_lat": 0.0, "is_reserved": 0, "name": "0aa596825c6ab9218d11a42fb3cd2c26", "is_disabled": 0}, {"rental_uris": {"ios": "https://dc.lft.to/lastmile_qr_scan", "android": "https://dc.lft.to/lastmile_qr_scan"}, "lat": 38.91265833333333, "bike_id": "0962591a73b7fdc2b015a6c7d35398e2", "lon": -77.031428, "type": "electric_scooter", "fusion_lon": 0.0, "fusion_lat": 0.0, "is_reserved": 0, "name": "0962591a73b7fdc2b015a6c7d35398e2", "is_disabled": 0}, {"rental_uris": {"ios": "https://dc.lft.to/lastmile_qr_scan", "android": "https://dc.lft.to/lastmile_qr_scan"}, "lat": 38.8626685, "bike_id": "0801cf3933d1f5b57bc44cebb3251701", "lon": -76.98343916666667, "type": "electric_bike", "fusion_lon": 0.0, "fusion_lat": 0.0, "is_reserved": 0, "name": "0801cf3933d1f5b57bc44cebb3251701", "is_disabled": 0}, {"rental_uris": {"ios": "https://dc.lft.to/lastmile_qr_scan", "android": "https://dc.lft.to/lastmile_qr_scan"}, "lat": 38.9273585, "bike_id": "05f9fd7c8aa80bb9566168cc16c5590c", "lon": -77.034267, "type": "electric_scooter", "fusion_lon": 0.0, "fusion_lat": 0.0, "is_reserved": 0, "name": "05f9fd7c8aa80bb9566168cc16c5590c", "is_disabled": 0}, {"rental_uris": {"ios": "https://dc.lft.to/lastmile_qr_scan", "android": "https://dc.lft.to/lastmile_qr_scan"}, "lat": 38.93699183333333, "bike_id": "9ae880fceb5a638ebadafc4998d1dc37", "lon": -77.05593233333333, "type": "electric_bike", "fusion_lon": 0.0, "fusion_lat": 0.0, "is_reserved": 0, "name": "9ae880fceb5a638ebadafc4998d1dc37", "is_disabled": 0}, {"rental_uris": {"ios": "https://dc.lft.to/lastmile_qr_scan", "android": "https://dc.lft.to/lastmile_qr_scan"}, "lat": 38.894734, "bike_id": "f8e9c264c8c5034bbd7161705db797dd", "lon": -77.04528333333333, "type": "electric_scooter", "fusion_lon": 0.0, "fusion_lat": 0.0, "is_reserved": 0, "name": "f8e9c264c8c5034bbd7161705db797dd", "is_disabled": 0}, {"rental_uris": {"ios": "https://dc.lft.to/lastmile_qr_scan", "android": "https://dc.lft.to/lastmile_qr_scan"}, "lat": 38.84853716666667, "bike_id": "f8a203d95fc7391b2fd9e4a7c31f92f3", "lon": -77.00378966666666, "type": "electric_scooter", "fusion_lon": 0.0, "fusion_lat": 0.0, "is_reserved": 0, "name": "f8a203d95fc7391b2fd9e4a7c31f92f3", "is_disabled": 0}, {"rental_uris": {"ios": "https://dc.lft.to/lastmile_qr_scan", "android": "https://dc.lft.to/lastmile_qr_scan"}, "lat": 38.940566, "bike_id": "6ce812d6931347657337766b8e5735c3", "lon": -76.9041565, "type": "electric_bike", "fusion_lon": 0.0, "fusion_lat": 0.0, "is_reserved": 0, "name": "6ce812d6931347657337766b8e5735c3", "is_disabled": 0}, {"rental_uris": {"ios": "https://dc.lft.to/lastmile_qr_scan", "android": "https://dc.lft.to/lastmile_qr_scan"}, "lat": 38.90654216666667, "bike_id": "d878135f016d8856e704c045495c9359", "lon": -77.02532683333334, "type": "electric_scooter", "fusion_lon": 0.0, "fusion_lat": 0.0, "is_reserved": 0, "name": "d878135f016d8856e704c045495c9359", "is_disabled": 0}, {"rental_uris": {"ios": "https://dc.lft.to/lastmile_qr_scan", "android": "https://dc.lft.to/lastmile_qr_scan"}, "lat": 38.897452666666666, "bike_id": "248ede28c08714d1f1aecf255ce99a2c", "lon": -77.02202983333333, "type": "electric_scooter", "fusion_lon": 0.0, "fusion_lat": 0.0, "is_reserved": 0, "name": "248ede28c08714d1f1aecf255ce99a2c", "is_disabled": 0}, {"rental_uris": {"ios": "https://dc.lft.to/lastmile_qr_scan", "android": "https://dc.lft.to/lastmile_qr_scan"}, "lat": 38.903363666666664, "bike_id": "44325a39588adf0421606de9dda2dc00", "lon": -77.0384685, "type": "electric_scooter", "fusion_lon": 0.0, "fusion_lat": 0.0, "is_reserved": 0, "name": "44325a39588adf0421606de9dda2dc00", "is_disabled": 0}, {"rental_uris": {"ios": "https://dc.lft.to/lastmile_qr_scan", "android": "https://dc.lft.to/lastmile_qr_scan"}, "lat": 38.89721266666667, "bike_id": "e5b6f8e4d7693e18d129a142f4be0d7c", "lon": -77.0325885, "type": "electric_scooter", "fusion_lon": 0.0, "fusion_lat": 0.0, "is_reserved": 0, "name": "e5b6f8e4d7693e18d129a142f4be0d7c", "is_disabled": 0}, {"rental_uris": {"ios": "https://dc.lft.to/lastmile_qr_scan", "android": "https://dc.lft.to/lastmile_qr_scan"}, "lat": 38.92319616666666, "bike_id": "b38a8868f6e83bc8250a71ca24706cc0", "lon": -77.03409016666667, "type": "electric_scooter", "fusion_lon": 0.0, "fusion_lat": 0.0, "is_reserved": 0, "name": "b38a8868f6e83bc8250a71ca24706cc0", "is_disabled": 0}, {"rental_uris": {"ios": "https://dc.lft.to/lastmile_qr_scan", "android": "https://dc.lft.to/lastmile_qr_scan"}, "lat": 38.89227283333334, "bike_id": "803357671480b0f0622cd55a131306bd", "lon": -77.03327233333333, "type": "electric_scooter", "fusion_lon": 0.0, "fusion_lat": 0.0, "is_reserved": 0, "name": "803357671480b0f0622cd55a131306bd", "is_disabled": 0}, {"rental_uris": {"ios": "https://dc.lft.to/lastmile_qr_scan", "android": "https://dc.lft.to/lastmile_qr_scan"}, "lat": 38.914483, "bike_id": "96bef4faaa99b8414258e6c16097366d", "lon": -77.022954, "type": "electric_scooter", "fusion_lon": 0.0, "fusion_lat": 0.0, "is_reserved": 0, "name": "96bef4faaa99b8414258e6c16097366d", "is_disabled": 0}, {"rental_uris": {"ios": "https://dc.lft.to/lastmile_qr_scan", "android": "https://dc.lft.to/lastmile_qr_scan"}, "lat": 38.831627166666664, "bike_id": "557591aa1cec3b50b7500c94f553d38b", "lon": -77.00812316666666, "type": "electric_scooter", "fusion_lon": 0.0, "fusion_lat": 0.0, "is_reserved": 0, "name": "557591aa1cec3b50b7500c94f553d38b", "is_disabled": 0}, {"rental_uris": {"ios": "https://dc.lft.to/lastmile_qr_scan", "android": "https://dc.lft.to/lastmile_qr_scan"}, "lat": 38.869349, "bike_id": "cb09917225751c9ccedf21f493a97400", "lon": -76.96014583333333, "type": "electric_scooter", "fusion_lon": 0.0, "fusion_lat": 0.0, "is_reserved": 0, "name": "cb09917225751c9ccedf21f493a97400", "is_disabled": 0}, {"rental_uris": {"ios": "https://dc.lft.to/lastmile_qr_scan", "android": "https://dc.lft.to/lastmile_qr_scan"}, "lat": 38.92366783333333, "bike_id": "8c8f166cd6db70e814a07fbd47ba9d25", "lon": -77.051154, "type": "electric_scooter", "fusion_lon": 0.0, "fusion_lat": 0.0, "is_reserved": 0, "name": "8c8f166cd6db70e814a07fbd47ba9d25", "is_disabled": 0}, {"rental_uris": {"ios": "https://dc.lft.to/lastmile_qr_scan", "android": "https://dc.lft.to/lastmile_qr_scan"}, "lat": 38.91577433333333, "bike_id": "d42e1ff09ae3bd3f9009d83d54c4d2b2", "lon": -77.01581016666667, "type": "electric_scooter", "fusion_lon": 0.0, "fusion_lat": 0.0, "is_reserved": 0, "name": "d42e1ff09ae3bd3f9009d83d54c4d2b2", "is_disabled": 0}, {"rental_uris": {"ios": "https://dc.lft.to/lastmile_qr_scan", "android": "https://dc.lft.to/lastmile_qr_scan"}, "lat": 38.9014685, "bike_id": "5ce9cacc7d208402208a9f0f16408faf", "lon": -77.028022, "type": "electric_scooter", "fusion_lon": 0.0, "fusion_lat": 0.0, "is_reserved": 0, "name": "5ce9cacc7d208402208a9f0f16408faf", "is_disabled": 0}, {"rental_uris": {"ios": "https://dc.lft.to/lastmile_qr_scan", "android": "https://dc.lft.to/lastmile_qr_scan"}, "lat": 38.91382733333333, "bike_id": "cadeb772c943e1fdc72a4ebba1287809", "lon": -77.0169985, "type": "electric_scooter", "fusion_lon": 0.0, "fusion_lat": 0.0, "is_reserved": 0, "name": "cadeb772c943e1fdc72a4ebba1287809", "is_disabled": 0}, {"rental_uris": {"ios": "https://dc.lft.to/lastmile_qr_scan", "android": "https://dc.lft.to/lastmile_qr_scan"}, "lat": 38.90375566666667, "bike_id": "0b9649ebf42278c3b0a09ef5f2f68d9d", "lon": -77.04022066666667, "type": "electric_scooter", "fusion_lon": 0.0, "fusion_lat": 0.0, "is_reserved": 0, "name": "0b9649ebf42278c3b0a09ef5f2f68d9d", "is_disabled": 0}, {"rental_uris": {"ios": "https://dc.lft.to/lastmile_qr_scan", "android": "https://dc.lft.to/lastmile_qr_scan"}, "lat": 38.8967125, "bike_id": "c0b59472fa4cd485788b02f32ab864e5", "lon": -76.93206033333334, "type": "electric_scooter", "fusion_lon": 0.0, "fusion_lat": 0.0, "is_reserved": 0, "name": "c0b59472fa4cd485788b02f32ab864e5", "is_disabled": 0}, {"rental_uris": {"ios": "https://dc.lft.to/lastmile_qr_scan", "android": "https://dc.lft.to/lastmile_qr_scan"}, "lat": 38.90558016666667, "bike_id": "8557fa0939f5bbcc2bb815bfa62c9e3c", "lon": -77.043378, "type": "electric_scooter", "fusion_lon": 0.0, "fusion_lat": 0.0, "is_reserved": 0, "name": "8557fa0939f5bbcc2bb815bfa62c9e3c", "is_disabled": 0}, {"rental_uris": {"ios": "https://dc.lft.to/lastmile_qr_scan", "android": "https://dc.lft.to/lastmile_qr_scan"}, "lat": 38.9001405, "bike_id": "6175d5ad8c8df3491f8e6d6b6b68c251", "lon": -77.02705133333333, "type": "electric_scooter", "fusion_lon": 0.0, "fusion_lat": 0.0, "is_reserved": 0, "name": "6175d5ad8c8df3491f8e6d6b6b68c251", "is_disabled": 0}, {"rental_uris": {"ios": "https://dc.lft.to/lastmile_qr_scan", "android": "https://dc.lft.to/lastmile_qr_scan"}, "lat": 38.90650816666667, "bike_id": "3c144a8f0ece8333b9511ec93f592d56", "lon": -77.04168233333333, "type": "electric_scooter", "fusion_lon": 0.0, "fusion_lat": 0.0, "is_reserved": 0, "name": "3c144a8f0ece8333b9511ec93f592d56", "is_disabled": 0}, {"rental_uris": {"ios": "https://dc.lft.to/lastmile_qr_scan", "android": "https://dc.lft.to/lastmile_qr_scan"}, "lat": 38.901347, "bike_id": "9cd1349881b17fdea34a7b235ca91f48", "lon": -76.9974345, "type": "electric_scooter", "fusion_lon": 0.0, "fusion_lat": 0.0, "is_reserved": 0, "name": "9cd1349881b17fdea34a7b235ca91f48", "is_disabled": 0}, {"rental_uris": {"ios": "https://dc.lft.to/lastmile_qr_scan", "android": "https://dc.lft.to/lastmile_qr_scan"}, "lat": 38.90164266666667, "bike_id": "35235edddfac13dbae9bae21da8209b1", "lon": -77.047456, "type": "electric_scooter", "fusion_lon": 0.0, "fusion_lat": 0.0, "is_reserved": 0, "name": "35235edddfac13dbae9bae21da8209b1", "is_disabled": 0}, {"rental_uris": {"ios": "https://dc.lft.to/lastmile_qr_scan", "android": "https://dc.lft.to/lastmile_qr_scan"}, "lat": 38.90064566666667, "bike_id": "b992f4a45940a9042f7507f00bb4bb87", "lon": -76.996228, "type": "electric_scooter", "fusion_lon": 0.0, "fusion_lat": 0.0, "is_reserved": 0, "name": "b992f4a45940a9042f7507f00bb4bb87", "is_disabled": 0}, {"rental_uris": {"ios": "https://dc.lft.to/lastmile_qr_scan", "android": "https://dc.lft.to/lastmile_qr_scan"}, "lat": 38.91849783333333, "bike_id": "f6e152da9f89e0ca0264dd3c6d589c27", "lon": -77.03215933333334, "type": "electric_scooter", "fusion_lon": 0.0, "fusion_lat": 0.0, "is_reserved": 0, "name": "f6e152da9f89e0ca0264dd3c6d589c27", "is_disabled": 0}, {"rental_uris": {"ios": "https://dc.lft.to/lastmile_qr_scan", "android": "https://dc.lft.to/lastmile_qr_scan"}, "lat": 38.915290666666664, "bike_id": "2d5cd98380169e65a6af6a675ed68ec4", "lon": -77.05512283333333, "type": "electric_scooter", "fusion_lon": 0.0, "fusion_lat": 0.0, "is_reserved": 0, "name": "2d5cd98380169e65a6af6a675ed68ec4", "is_disabled": 0}, {"rental_uris": {"ios": "https://dc.lft.to/lastmile_qr_scan", "android": "https://dc.lft.to/lastmile_qr_scan"}, "lat": 38.896214, "bike_id": "e490dd5065822201fdef4551af761305", "lon": -77.02810466666666, "type": "electric_scooter", "fusion_lon": 0.0, "fusion_lat": 0.0, "is_reserved": 0, "name": "e490dd5065822201fdef4551af761305", "is_disabled": 0}, {"rental_uris": {"ios": "https://dc.lft.to/lastmile_qr_scan", "android": "https://dc.lft.to/lastmile_qr_scan"}, "lat": 38.92338133333333, "bike_id": "c4da3b5261bfebc7170bcf27c6ae61f5", "lon": -77.01902483333333, "type": "electric_scooter", "fusion_lon": 0.0, "fusion_lat": 0.0, "is_reserved": 0, "name": "c4da3b5261bfebc7170bcf27c6ae61f5", "is_disabled": 0}, {"rental_uris": {"ios": "https://dc.lft.to/lastmile_qr_scan", "android": "https://dc.lft.to/lastmile_qr_scan"},