{"data": {"bikes": [{"lat": 38.9174365, "type": "electric_scooter", "is_disabled": 0, "rental_uris": {"android": "https://dc.lft.to/lastmile_qr_scan", "ios": "https://dc.lft.to/lastmile_qr_scan"}, "is_reserved": 0, "bike_id": "dae68dcdb128e9324c91cefc310c9cf3", "name": "dae68dcdb128e9324c91cefc310c9cf3", "fusion_lon": 0.0, "lon": -77.0365805, "fusion_lat": 0.0}, {"lat": 38.892591833333334, "type": "electric_scooter", "is_disabled": 0, "rental_uris": {"android": "https://dc.lft.to/lastmile_qr_scan", "ios": "https://dc.lft.to/lastmile_qr_scan"}, "is_reserved": 0, "bike_id": "7609e8a0e8400fcbf90ee5bc69341f5c", "name": "7609e8a0e8400fcbf90ee5bc69341f5c", "fusion_lon": 0.0, "lon": -76.94154266666666, "fusion_lat": 0.0}, {"lat": 38.89553433333333, "type": "electric_scooter", "is_disabled": 0, "rental_uris": {"android": "https://dc.lft.to/lastmile_qr_scan", "ios": "https://dc.lft.to/lastmile_qr_scan"}, "is_reserved": 0, "bike_id": "0fbd20210d2ee5ff7de85cf46e7bc313", "name": "0fbd20210d2ee5ff7de85cf46e7bc313", "fusion_lon": 0.0, "lon": -77.00916966666666, "fusion_lat": 0.0}, {"lat": 38.966168833333334, "type": "electric_bike", "is_disabled": 0, "rental_uris": {"android": "https://dc.lft.to/lastmile_qr_scan", "ios": "https://dc.lft.to/lastmile_qr_scan"}, "is_reserved": 0, "bike_id": "021c815c3bf19ab716fa7428932ceee7", "name": "021c815c3bf19ab716fa7428932ceee7", "fusion_lon": 0.0, "lon": -77.03433166666667, "fusion_lat": 0.0}, {"lat": 38.924755166666664, "type": "electric_scooter", "is_disabled": 0, "rental_uris": {"android": "https://dc.lft.to/lastmile_qr_scan", "ios": "https://dc.lft.to/lastmile_qr_scan"}, "is_reserved": 0, "bike_id": "017367114886c961d145d9eb1339f886", "name": "017367114886c961d145d9eb1339f886", "fusion_lon": 0.0, "lon": -77.02721533333333, "fusion_lat": 0.0}, {"lat": 38.9024345, "type": "electric_scooter", "is_disabled": 0, "rental_uris": {"android": "https://dc.lft.to/lastmile_qr_scan", "ios": "https://dc.lft.to/lastmile_qr_scan"}, "is_reserved": 0, "bike_id": "efb19490a8528ff977c41d8eb3938eeb", "name": "efb19490a8528ff977c41d8eb3938eeb", "fusion_lon": 0.0, "lon": -77.02943733333333, "fusion_lat": 0.0}, {"lat": 38.865059, "type": "electric_scooter", "is_disabled": 0, "rental_uris": {"android": "https://dc.lft.to/lastmile_qr_scan", "ios": "https://dc.lft.to/lastmile_qr_scan"}, "is_reserved": 0, "bike_id": "9d724a18d8b502626d9a0a2324f0b123", "name": "9d724a18d8b502626d9a0a2324f0b123", "fusion_lon": 0.0, "lon": -76.990012, "fusion_lat": 0.0}, {"lat": 38.922388166666664, "type": "electric_scooter", "is_disabled": 0, "rental_uris": {"android": "https://dc.lft.to/lastmile_qr_scan", "ios": "https://dc.lft.to/lastmile_qr_scan"}, "is_reserved": 0, "bike_id": "064c969008e8e7b3d0164a783bfcca9b", "name": "064c969008e8e7b3d0164a783bfcca9b", "fusion_lon": 0.0, "lon": -77.02850466666666, "fusion_lat": 0.0}, {"lat": 38.88634316666667, "type": "electric_scooter", "is_disabled": 0, "rental_uris": {"android": "https://dc.lft.to/lastmile_qr_scan", "ios": "https://dc.lft.to/lastmile_qr_scan"}, "is_reserved": 0, "bike_id": "f06c1209bd89c1903829ffb235692c1b", "name": "f06c1209bd89c1903829ffb235692c1b", "fusion_lon": 0.0, "lon": -77.02253366666666, "fusion_lat": 0.0}, {"lat": 38.899085666666664, "type": "electric_scooter", "is_disabled": 0, "rental_uris": {"android": "https://dc.lft.to/lastmile_qr_scan", "ios": "https://dc.lft.to/lastmile_qr_scan"}, "is_reserved": 0, "bike_id": "791d466d33980d28f1ddc0c03bb42880", "name": "791d466d33980d28f1ddc0c03bb42880", "fusion_lon": 0.0, "lon": -76.93370116666667, "fusion_lat": 0.0}, {"lat": 38.876268333333336, "type": "electric_scooter", "is_disabled": 0, "rental_uris": {"android": "https://dc.lft.to/lastmile_qr_scan", "ios": "https://dc.lft.to/lastmile_qr_scan"}, "is_reserved": 0, "bike_id": "bd99fb7ca48e5b90b8d49690314b7b92", "name": "bd99fb7ca48e5b90b8d49690314b7b92", "fusion_lon": 0.0, "lon": -76.9652805, "fusion_lat": 0.0}, {"lat": 38.899779, "type": "electric_scooter", "is_disabled": 0, "rental_uris": {"android": "https://dc.lft.to/lastmile_qr_scan", "ios": "https://dc.lft.to/lastmile_qr_scan"}, "is_reserved": 0, "bike_id": "24deb72d8a08619417b86c15e7955f68", "name": "24deb72d8a08619417b86c15e7955f68", "fusion_lon": 0.0, "lon": -77.041912, "fusion_lat": 0.0}, {"lat": 38.88381033333334, "type": "electric_scooter", "is_disabled": 0, "rental_uris": {"android": "https://dc.lft.to/lastmile_qr_scan", "ios": "https://dc.lft.to/lastmile_qr_scan"}, "is_reserved": 0, "bike_id": "ef4235c8dbcf86517447aad31fdd3ac0", "name": "ef4235c8dbcf86517447aad31fdd3ac0", "fusion_lon": 0.0, "lon": -76.994898, "fusion_lat": 0.0}, {"lat": 38.917987333333336, "type": "electric_scooter", "is_disabled": 0, "rental_uris": {"android": "https://dc.lft.to/lastmile_qr_scan", "ios": "https://dc.lft.to/lastmile_qr_scan"}, "is_reserved": 0, "bike_id": "16dadd4af555c734657e155d79221089", "name": "16dadd4af555c734657e155d79221089", "fusion_lon": 0.0, "lon": -77.03216066666667, "fusion_lat": 0.0}, {"lat": 38.930850166666666, "type": "electric_scooter", "is_disabled": 0, "rental_uris": {"android": "https://dc.lft.to/lastmile_qr_scan", "ios": "https://dc.lft.to/lastmile_qr_scan"}, "is_reserved": 0, "bike_id": "9a0712dec084baabce6b946d76ecad93", "name": "9a0712dec084baabce6b946d76ecad93", "fusion_lon": 0.0, "lon": -77.02793483333333, "fusion_lat": 0.0}, {"lat": 38.9167175, "type": "electric_scooter", "is_disabled": 0, "rental_uris": {"android": "https://dc.lft.to/lastmile_qr_scan", "ios": "https://dc.lft.to/lastmile_qr_scan"}, "is_reserved": 0, "bike_id": "2bdfcf291f4abc302f668406098dd915", "name": "2bdfcf291f4abc302f668406098dd915", "fusion_lon": 0.0, "lon": -77.02407783333334, "fusion_lat": 0.0}, {"lat": 38.91512616666667, "type": "electric_scooter", "is_disabled": 0, "rental_uris": {"android": "https://dc.lft.to/lastmile_qr_scan", "ios": "https://dc.lft.to/lastmile_qr_scan"}, "is_reserved": 0, "bike_id": "cdfdf9a3101965cc150a3aaa301db1c6", "name": "cdfdf9a3101965cc150a3aaa301db1c6", "fusion_lon": 0.0, "lon": -77.0120615, "fusion_lat": 0.0}, {"lat": 38.89832716666667, "type": "electric_scooter", "is_disabled": 0, "rental_uris": {"android": "https://dc.lft.to/lastmile_qr_scan", "ios": "https://dc.lft.to/lastmile_qr_scan"}, "is_reserved": 0, "bike_id": "79a0c9cc3642981a3bfdd0f0c1e9830a", "name": "79a0c9cc3642981a3bfdd0f0c1e9830a", "fusion_lon": 0.0, "lon": -77.043498, "fusion_lat": 0.0}, {"lat": 38.930134333333335, "type": "electric_scooter", "is_disabled": 0, "rental_uris": {"android": "https://dc.lft.to/lastmile_qr_scan", "ios": "https://dc.lft.to/lastmile_qr_scan"}, "is_reserved": 0, "bike_id": "9147e7b7ed98d8d0583e23f99738502d", "name": "9147e7b7ed98d8d0583e23f99738502d", "fusion_lon": 0.0, "lon": -77.0554985, "fusion_lat": 0.0}, {"lat": 38.903745, "type": "electric_scooter", "is_disabled": 0, "rental_uris": {"android": "https://dc.lft.to/lastmile_qr_scan", "ios": "https://dc.lft.to/lastmile_qr_scan"}, "is_reserved": 0, "bike_id": "6a2c38a874135fafc54b499a6f3581ab", "name": "6a2c38a874135fafc54b499a6f3581ab", "fusion_lon": 0.0, "lon": -77.03333866666667, "fusion_lat": 0.0}, {"lat": 38.867112666666664, "type": "electric_scooter", "is_disabled": 0, "rental_uris": {"android": "https://dc.lft.to/lastmile_qr_scan", "ios": "https://dc.lft.to/lastmile_qr_scan"}, "is_reserved": 0, "bike_id": "d6fc28b67ca47cfbe2b3c6aa7a76f850", "name": "d6fc28b67ca47cfbe2b3c6aa7a76f850", "fusion_lon": 0.0, "lon": -76.987323, "fusion_lat": 0.0}, {"lat": 38.90687583333333, "type": "electric_scooter", "is_disabled": 0, "rental_uris": {"android": "https://dc.lft.to/lastmile_qr_scan", "ios": "https://dc.lft.to/lastmile_qr_scan"}, "is_reserved": 0, "bike_id": "9608d65dceafd697c40f6ddbdf803b4f", "name": "9608d65dceafd697c40f6ddbdf803b4f", "fusion_lon": 0.0, "lon": -77.00997333333333, "fusion_lat": 0.0}, {"lat": 38.9047845, "type": "electric_bike", "is_disabled": 0, "rental_uris": {"android": "https://dc.lft.to/lastmile_qr_scan", "ios": "https://dc.lft.to/lastmile_qr_scan"}, "is_reserved": 0, "bike_id": "e909d3106ef5ad33cced9bbb8176d9db", "name": "e909d3106ef5ad33cced9bbb8176d9db", "fusion_lon": 0.0, "lon": -77.00206116666666, "fusion_lat": 0.0}, {"lat": 38.9087275, "type": "electric_scooter", "is_disabled": 0, "rental_uris": {"android": "https://dc.lft.to/lastmile_qr_scan", "ios": "https://dc.lft.to/lastmile_qr_scan"}, "is_reserved": 0, "bike_id": "04aa2de777001fc53c6f1522a5c88421", "name": "04aa2de777001fc53c6f1522a5c88421", "fusion_lon": 0.0, "lon": -77.04552683333333, "fusion_lat": 0.0}, {"lat": 38.881182333333335, "type": "electric_scooter", "is_disabled": 0, "rental_uris": {"android": "https://dc.lft.to/lastmile_qr_scan", "ios": "https://dc.lft.to/lastmile_qr_scan"}, "is_reserved": 0, "bike_id": "266c128c3c29a307e7ead680cf93f56b", "name": "266c128c3c29a307e7ead680cf93f56b", "fusion_lon": 0.0, "lon": -77.02073716666666, "fusion_lat": 0.0}, {"lat": 38.9907585, "type": "electric_bike", "is_disabled": 0, "rental_uris": {"android": "https://dc.lft.to/lastmile_qr_scan", "ios": "https://dc.lft.to/lastmile_qr_scan"}, "is_reserved": 0, "bike_id": "4775c88dfb58d8f1c98dba124ab95eef", "name": "4775c88dfb58d8f1c98dba124ab95eef", "fusion_lon": 0.0, "lon": -77.02380633333334, "fusion_lat": 0.0}, {"lat": 38.920404833333336, "type": "electric_scooter", "is_disabled": 0, "rental_uris": {"android": "https://dc.lft.to/lastmile_qr_scan", "ios": "https://dc.lft.to/lastmile_qr_scan"}, "is_reserved": 0, "bike_id": "30e1f1958e0bd579dc941781f633e30a", "name": "30e1f1958e0bd579dc941781f633e30a", "fusion_lon": 0.0, "lon": -77.0481185, "fusion_lat": 0.0}, {"lat": 38.911369666666666, "type": "electric_scooter", "is_disabled": 0, "rental_uris": {"android": "https://dc.lft.to/lastmile_qr_scan", "ios": "https://dc.lft.to/lastmile_qr_scan"}, "is_reserved": 0, "bike_id": "0474cc34a3f10b9248d8d3f7ab5c8682", "name": "0474cc34a3f10b9248d8d3f7ab5c8682", "fusion_lon": 0.0, "lon": -77.062382, "fusion_lat": 0.0}, {"lat": 38.917874833333336, "type": "electric_scooter", "is_disabled": 0, "rental_uris": {"android": "https://dc.lft.to/lastmile_qr_scan", "ios": "https://dc.lft.to/lastmile_qr_scan"}, "is_reserved": 0, "bike_id": "16160def37edbd14368a32bc01fae7a8", "name": "16160def37edbd14368a32bc01fae7a8", "fusion_lon": 0.0, "lon": -77.043569, "fusion_lat": 0.0}, {"lat": 38.88408666666667, "type": "electric_scooter", "is_disabled": 0, "rental_uris": {"android": "https://dc.lft.to/lastmile_qr_scan", "ios": "https://dc.lft.to/lastmile_qr_scan"}, "is_reserved": 0, "bike_id": "27b0da1648505837edf024dbca85a367", "name": "27b0da1648505837edf024dbca85a367", "fusion_lon": 0.0, "lon": -77.0329975, "fusion_lat": 0.0}, {"lat": 38.92349683333333, "type": "electric_bike", "is_disabled": 0, "rental_uris": {"android": "https://dc.lft.to/lastmile_qr_scan", "ios": "https://dc.lft.to/lastmile_qr_scan"}, "is_reserved": 0, "bike_id": "978ec0952c7017bd71e048fb98207315", "name": "978ec0952c7017bd71e048fb98207315", "fusion_lon": 0.0, "lon": -76.99251683333334, "fusion_lat": 0.0}, {"lat": 38.9015785, "type": "electric_scooter", "is_disabled": 0, "rental_uris": {"android": "https://dc.lft.to/lastmile_qr_scan", "ios": "https://dc.lft.to/lastmile_qr_scan"}, "is_reserved": 0, "bike_id": "42439ab37d1b08d3e95e59a3b3a6abc7", "name": "42439ab37d1b08d3e95e59a3b3a6abc7", "fusion_lon": 0.0, "lon": -77.02869066666666, "fusion_lat": 0.0}, {"lat": 38.866591666666665, "type": "electric_scooter", "is_disabled": 0, "rental_uris": {"android": "https://dc.lft.to/lastmile_qr_scan", "ios": "https://dc.lft.to/lastmile_qr_scan"}, "is_reserved": 0, "bike_id": "f6c347609f081ae4306309e04ba14256", "name": "f6c347609f081ae4306309e04ba14256", "fusion_lon": 0.0, "lon": -76.98886283333333, "fusion_lat": 0.0}, {"lat": 38.893533166666664, "type": "electric_scooter", "is_disabled": 0, "rental_uris": {"android": "https://dc.lft.to/lastmile_qr_scan", "ios": "https://dc.lft.to/lastmile_qr_scan"}, "is_reserved": 0, "bike_id": "4144f4f1f51234fb8fd98400bffb8cb6", "name": "4144f4f1f51234fb8fd98400bffb8cb6", "fusion_lon": 0.0, "lon": -77.00335833333334, "fusion_lat": 0.0}, {"lat": 38.92027816666667, "type": "electric_scooter", "is_disabled": 0, "rental_uris": {"android": "https://dc.lft.to/lastmile_qr_scan", "ios": "https://dc.lft.to/lastmile_qr_scan"}, "is_reserved": 0, "bike_id": "a84980c5a218dbdce4c55c2304f18eb5", "name": "a84980c5a218dbdce4c55c2304f18eb5", "fusion_lon": 0.0, "lon": -77.031642, "fusion_lat": 0.0}, {"lat": 38.876316333333335, "type": "electric_scooter", "is_disabled": 0, "rental_uris": {"android": "https://dc.lft.to/lastmile_qr_scan", "ios": "https://dc.lft.to/lastmile_qr_scan"}, "is_reserved": 0, "bike_id": "de677d1503071300f4b86a281fa5ac86", "name": "de677d1503071300f4b86a281fa5ac86", "fusion_lon": 0.0, "lon": -77.00725966666667, "fusion_lat": 0.0}, {"lat": 38.924649333333335, "type": "electric_scooter", "is_disabled": 0, "rental_uris": {"android": "https://dc.lft.to/lastmile_qr_scan", "ios": "https://dc.lft.to/lastmile_qr_scan"}, "is_reserved": 0, "bike_id": "c4a3e458383d85f293a1f8c5da822591", "name": "c4a3e458383d85f293a1f8c5da822591", "fusion_lon": 0.0, "lon": -77.07867333333333, "fusion_lat": 0.0}, {"lat": 38.91470416666667, "type": "electric_scooter", "is_disabled": 0, "rental_uris": {"android": "https://dc.lft.to/lastmile_qr_scan", "ios": "https://dc.lft.to/lastmile_qr_scan"}, "is_reserved": 0, "bike_id": "c6d39cfda8e06d4a1dbb10735b303f07", "name": "c6d39cfda8e06d4a1dbb10735b303f07", "fusion_lon": 0.0, "lon": -76.9844775, "fusion_lat": 0.0}, {"lat": 38.935013166666664, "type": "electric_bike", "is_disabled": 0, "rental_uris": {"android": "https://dc.lft.to/lastmile_qr_scan", "ios": "https://dc.lft.to/lastmile_qr_scan"}, "is_reserved": 0, "bike_id": "3a23d9a04bda0aee1f1c2fb7a30e1dd4", "name": "3a23d9a04bda0aee1f1c2fb7a30e1dd4", "fusion_lon": 0.0, "lon": -76.98343316666667, "fusion_lat": 0.0}, {"lat": 38.907947, "type": "electric_scooter", "is_disabled": 0, "rental_uris": {"android": "https://dc.lft.to/lastmile_qr_scan", "ios": "https://dc.lft.to/lastmile_qr_scan"}, "is_reserved": 0, "bike_id": "7060fdc98b137919fd0c4a6d180ccea7", "name": "7060fdc98b137919fd0c4a6d180ccea7", "fusion_lon": 0.0, "lon": -76.98530183333334, "fusion_lat": 0.0}, {"lat": 38.88588983333333, "type": "electric_scooter", "is_disabled": 0, "rental_uris": {"android": "https://dc.lft.to/lastmile_qr_scan", "ios": "https://dc.lft.to/lastmile_qr_scan"}, "is_reserved": 0, "bike_id": "607cb7e9fcb50e3fa477fa2155044c3e", "name": "607cb7e9fcb50e3fa477fa2155044c3e", "fusion_lon": 0.0, "lon": -77.0176705, "fusion_lat": 0.0}, {"lat": 38.9263375, "type": "electric_scooter", "is_disabled": 0, "rental_uris": {"android": "https://dc.lft.to/lastmile_qr_scan", "ios": "https://dc.lft.to/lastmile_qr_scan"}, "is_reserved": 0, "bike_id": "42864e75469673d73695d39624b8e05e", "name": "42864e75469673d73695d39624b8e05e", "fusion_lon": 0.0, "lon": -77.03793083333333, "fusion_lat": 0.0}, {"lat": 38.905370166666664, "type": "electric_scooter", "is_disabled": 0, "rental_uris": {"android": "https://dc.lft.to/lastmile_qr_scan", "ios": "https://dc.lft.to/lastmile_qr_scan"}, "is_reserved": 0, "bike_id": "f017bc40df803ca8076087a91c98f826", "name": "f017bc40df803ca8076087a91c98f826", "fusion_lon": 0.0, "lon": -77.02210133333334, "fusion_lat": 0.0}, {"lat": 38.8975965, "type": "electric_scooter", "is_disabled": 0, "rental_uris": {"android": "https://dc.lft.to/lastmile_qr_scan", "ios": "https://dc.lft.to/lastmile_qr_scan"}, "is_reserved": 0, "bike_id": "76a20f707d22b3696c279a5154b0bf10", "name": "76a20f707d22b3696c279a5154b0bf10", "fusion_lon": 0.0, "lon": -77.02990566666666, "fusion_lat": 0.0}, {"lat": 38.92077066666667, "type": "electric_scooter", "is_disabled": 0, "rental_uris": {"android": "https://dc.lft.to/lastmile_qr_scan", "ios": "https://dc.lft.to/lastmile_qr_scan"}, "is_reserved": 0, "bike_id": "c56bca0f5ac392e5dd95571ff5001777", "name": "c56bca0f5ac392e5dd95571ff5001777", "fusion_lon": 0.0, "lon": -77.02513216666667, "fusion_lat": 0.0}, {"lat": 38.877537, "type": "electric_bike", "is_disabled": 0, "rental_uris": {"android": "https://dc.lft.to/lastmile_qr_scan", "ios": "https://dc.lft.to/lastmile_qr_scan"}, "is_reserved": 0, "bike_id": "5acb1c6783b8ad6c165567bb19bd1432", "name": "5acb1c6783b8ad6c165567bb19bd1432", "fusion_lon": 0.0, "lon": -76.97994216666666, "fusion_lat": 0.0}, {"lat": 38.925699, "type": "electric_scooter", "is_disabled": 0, "rental_uris": {"android": "https://dc.lft.to/lastmile_qr_scan", "ios": "https://dc.lft.to/lastmile_qr_scan"}, "is_reserved": 0, "bike_id": "8bd879a6b7854257515cc999fdbb0bf9", "name": "8bd879a6b7854257515cc999fdbb0bf9", "fusion_lon": 0.0, "lon": -77.08060683333333, "fusion_lat": 0.0}, {"lat": 38.9395745, "type": "electric_bike", "is_disabled": 0, "rental_uris": {"android": "https://dc.lft.to/lastmile_qr_scan", "ios": "https://dc.lft.to/lastmile_qr_scan"}, "is_reserved": 0, "bike_id": "f8a7e1813a9ff69d861a1048a885cc57", "name": "f8a7e1813a9ff69d861a1048a885cc57", "fusion_lon": 0.0, "lon": -77.36083983333333, "fusion_lat": 0.0}, {"lat": 38.930243, "type": "electric_scooter", "is_disabled": 0, "rental_uris": {"android": "https://dc.lft.to/lastmile_qr_scan", "ios": "https://dc.lft.to/lastmile_qr_scan"}, "is_reserved": 0, "bike_id": "f21757d3b66ade09ce2df040231e254e", "name": "f21757d3b66ade09ce2df040231e254e", "fusion_lon": 0.0, "lon": -77.01360366666667, "fusion_lat": 0.0}, {"lat": 38.92199166666666, "type": "electric_scooter", "is_disabled": 0, "rental_uris": {"android": "https://dc.lft.to/lastmile_qr_scan", "ios": "https://dc.lft.to/lastmile_qr_scan"}, "is_reserved": 0, "bike_id": "f3375173d32d77ebca975ab9966a08fe", "name": "f3375173d32d77ebca975ab9966a08fe", "fusion_lon": 0.0, "lon": -77.04019833333334, "fusion_lat": 0.0}, {"lat": 38.910877, "type": "electric_bike", "is_disabled": 0, "rental_uris": {"android": "https://dc.lft.to/lastmile_qr_scan", "ios": "https://dc.lft.to/lastmile_qr_scan"}, "is_reserved": 0, "bike_id": "cfe5d38adf7f81918639d6ff9a737b47", "name": "cfe5d38adf7f81918639d6ff9a737b47", "fusion_lon": 0.0, "lon": -76.98483783333333, "fusion_lat": 0.0}, {"lat": 38.89601616666667, "type": "electric_scooter", "is_disabled": 0, "rental_uris": {"android": "https://dc.lft.to/lastmile_qr_scan", "ios": "https://dc.lft.to/lastmile_qr_scan"}, "is_reserved": 0, "bike_id": "f77d6434c29f2dda1ca7b33e258b5a31", "name": "f77d6434c29f2dda1ca7b33e258b5a31", "fusion_lon": 0.0, "lon": -77.01118066666666, "fusion_lat": 0.0}, {"lat": 38.916129833333336, "type": "electric_scooter", "is_disabled": 0, "rental_uris": {"android": "https://dc.lft.to/lastmile_qr_scan", "ios": "https://dc.lft.to/lastmile_qr_scan"}, "is_reserved": 0, "bike_id": "57930e6419e3a34f15f91926ff925242", "name": "57930e6419e3a34f15f91926ff925242", "fusion_lon": 0.0, "lon": -77.02481666666667, "fusion_lat": 0.0}, {"lat": 38.9324875, "type": "electric_scooter", "is_disabled": 0, "rental_uris": {"android": "https://dc.lft.to/lastmile_qr_scan", "ios": "https://dc.lft.to/lastmile_qr_scan"}, "is_reserved": 0, "bike_id": "1399bc10608a6f2aba929ad0e468af06", "name": "1399bc10608a6f2aba929ad0e468af06", "fusion_lon": 0.0, "lon": -77.0272985, "fusion_lat": 0.0}, {"lat": 38.930641333333334, "type": "electric_scooter", "is_disabled": 0, "rental_uris": {"android": "https://dc.lft.to/lastmile_qr_scan", "ios": "https://dc.lft.to/lastmile_qr_scan"}, "is_reserved": 0, "bike_id": "8a02ec9a8073e81ab2384034e298eecd", "name": "8a02ec9a8073e81ab2384034e298eecd", "fusion_lon": 0.0, "lon": -77.0381735, "fusion_lat": 0.0}, {"lat": 38.9314875, "type": "electric_scooter", "is_disabled": 0, "rental_uris": {"android": "https://dc.lft.to/lastmile_qr_scan", "ios": "https://dc.lft.to/lastmile_qr_scan"}, "is_reserved": 0, "bike_id": "cc5c809a06ec7571dcb55693f5100942", "name": "cc5c809a06ec7571dcb55693f5100942", "fusion_lon": 0.0, "lon": -77.03609883333333, "fusion_lat": 0.0}, {"lat": 38.88499233333334, "type": "electric_scooter", "is_disabled": 0, "rental_uris": {"android": "https://dc.lft.to/lastmile_qr_scan", "ios": "https://dc.lft.to/lastmile_qr_scan"}, "is_reserved": 0, "bike_id": "3a0530c5d91a7a29e0642e5336974be5", "name": "3a0530c5d91a7a29e0642e5336974be5", "fusion_lon": 0.0, "lon": -76.996566, "fusion_lat": 0.0}, {"lat": 38.93146933333333, "type": "electric_scooter", "is_disabled": 0, "rental_uris": {"android": "https://dc.lft.to/lastmile_qr_scan", "ios": "https://dc.lft.to/lastmile_qr_scan"}, "is_reserved": 0, "bike_id": "3916fa40c4544711dbfb445c209230ba", "name": "3916fa40c4544711dbfb445c209230ba", "fusion_lon": 0.0, "lon": -77.03611816666667, "fusion_lat": 0.0}, {"lat": 38.85063366666667, "type": "electric_bike", "is_disabled": 0, "rental_uris": {"android": "https://dc.lft.to/lastmile_qr_scan", "ios": "https://dc.lft.to/lastmile_qr_scan"}, "is_reserved": 0, "bike_id": "1c3a1784d54d01d63d477427ea01a688", "name": "1c3a1784d54d01d63d477427ea01a688", "fusion_lon": 0.0, "lon": -76.97333233333333, "fusion_lat": 0.0}, {"lat": 38.902738666666664, "type": "electric_scooter", "is_disabled": 0, "rental_uris": {"android": "https://dc.lft.to/lastmile_qr_scan", "ios": "https://dc.lft.to/lastmile_qr_scan"}, "is_reserved": 0, "bike_id": "dbd772383c3365b507f5b61a9021c1bd", "name": "dbd772383c3365b507f5b61a9021c1bd", "fusion_lon": 0.0, "lon": -77.038357, "fusion_lat": 0.0}, {"lat": 38.9073285, "type": "electric_scooter", "is_disabled": 0, "rental_uris": {"android": "https://dc.lft.to/lastmile_qr_scan", "ios": "https://dc.lft.to/lastmile_qr_scan"}, "is_reserved": 0, "bike_id": "d88403be29e05432839afe88ed52e3a0", "name": "d88403be29e05432839afe88ed52e3a0", "fusion_lon": 0.0, "lon": -77.0395615, "fusion_lat": 0.0}, {"lat": 38.90555033333333, "type": "electric_scooter", "is_disabled": 0, "rental_uris": {"android": "https://dc.lft.to/lastmile_qr_scan", "ios": "https://dc.lft.to/lastmile_qr_scan"}, "is_reserved": 0, "bike_id": "5f418e567bae68a781aa601d10528277", "name": "5f418e567bae68a781aa601d10528277", "fusion_lon": 0.0, "lon": -77.00708266666666, "fusion_lat": 0.0}, {"lat": 38.91988383333333, "type": "electric_scooter", "is_disabled": 0, "rental_uris": {"android": "https://dc.lft.to/lastmile_qr_scan", "ios": "https://dc.lft.to/lastmile_qr_scan"}, "is_reserved": 0, "bike_id": "445b84aeb40ef7f68275eebbe08d0a55", "name": "445b84aeb40ef7f68275eebbe08d0a55", "fusion_lon": 0.0, "lon": -77.03786783333334, "fusion_lat": 0.0}, {"lat": 38.9072805, "type": "electric_scooter", "is_disabled": 0, "rental_uris": {"android": "https://dc.lft.to/lastmile_qr_scan", "ios": "https://dc.lft.to/lastmile_qr_scan"}, "is_reserved": 0, "bike_id": "7ad3f1ffdd68ae8bf01b9ca20a93c65b", "name": "7ad3f1ffdd68ae8bf01b9ca20a93c65b", "fusion_lon": 0.0, "lon": -77.04353783333333, "fusion_lat": 0.0}, {"lat": 38.897836, "type": "electric_scooter", "is_disabled": 0, "rental_uris": {"android": "https://dc.lft.to/lastmile_qr_scan", "ios": "https://dc.lft.to/lastmile_qr_scan"}, "is_reserved": 0, "bike_id": "b02572092ffc16005453e02af81831c9", "name": "b02572092ffc16005453e02af81831c9", "fusion_lon": 0.0, "lon": -77.03952216666667, "fusion_lat": 0.0}, {"lat": 38.956321, "type": "electric_scooter", "is_disabled": 0, "rental_uris": {"android": "https://dc.lft.to/lastmile_qr_scan", "ios": "https://dc.lft.to/lastmile_qr_scan"}, "is_reserved": 0, "bike_id": "299e1d52824566621a6c0091f30e428c", "name": "299e1d52824566621a6c0091f30e428c", "fusion_lon": 0.0, "lon": -77.02982766666666, "fusion_lat": 0.0}, {"lat": 38.918426, "type": "electric_scooter", "is_disabled": 0, "rental_uris": {"android": "https://dc.lft.to/lastmile_qr_scan", "ios": "https://dc.lft.to/lastmile_qr_scan"}, "is_reserved": 0, "bike_id": "3bea5e8658c829cc1636bf2478e86099", "name": "3bea5e8658c829cc1636bf2478e86099", "fusion_lon": 0.0, "lon": -77.0251085, "fusion_lat": 0.0}, {"lat": 38.918366166666665, "type": "electric_scooter", "is_disabled": 0, "rental_uris": {"android": "https://dc.lft.to/lastmile_qr_scan", "ios": "https://dc.lft.to/lastmile_qr_scan"}, "is_reserved": 0, "bike_id": "84170a816e977c74d92701e7bc4dd161", "name": "84170a816e977c74d92701e7bc4dd161", "fusion_lon": 0.0, "lon": -76.96553766666666, "fusion_lat": 0.0}, {"lat": 38.876965, "type": "electric_scooter", "is_disabled": 0, "rental_uris": {"android": "https://dc.lft.to/lastmile_qr_scan", "ios": "https://dc.lft.to/lastmile_qr_scan"}, "is_reserved": 0, "bike_id": "8918dbc614a4c943b9ef288ded6a1801", "name": "8918dbc614a4c943b9ef288ded6a1801", "fusion_lon": 0.0, "lon": -77.01782916666667, "fusion_lat": 0.0}, {"lat": 38.901173666666665, "type": "electric_scooter", "is_disabled": 0, "rental_uris": {"android": "https://dc.lft.to/lastmile_qr_scan", "ios": "https://dc.lft.to/lastmile_qr_scan"}, "is_reserved": 0, "bike_id": "8c07a41e84e091dfc374b01b5faf89f2", "name": "8c07a41e84e091dfc374b01b5faf89f2", "fusion_lon": 0.0, "lon": -77.03059583333334, "fusion_lat": 0.0}, {"lat": 38.861575333333334, "type": "electric_scooter", "is_disabled": 0, "rental_uris": {"android": "https://dc.lft.to/lastmile_qr_scan", "ios": "https://dc.lft.to/lastmile_qr_scan"}, "is_reserved": 0, "bike_id": "5c8fc8d199b1bc58e92ac4cdcb3fe362", "name": "5c8fc8d199b1bc58e92ac4cdcb3fe362", "fusion_lon": 0.0, "lon": -76.98574766666667, "fusion_lat": 0.0}, {"lat": 38.930186666666664, "type": "electric_scooter", "is_disabled": 0, "rental_uris": {"android": "https://dc.lft.to/lastmile_qr_scan", "ios": "https://dc.lft.to/lastmile_qr_scan"}, "is_reserved": 0, "bike_id": "6b5705d258b7d62f51ecaf0bfae97623", "name": "6b5705d258b7d62f51ecaf0bfae97623", "fusion_lon": 0.0, "lon": -77.03792133333333, "fusion_lat": 0.0}, {"lat": 38.854371666666665, "type": "electric_bike", "is_disabled": 0, "rental_uris": {"android": "https://dc.lft.to/lastmile_qr_scan", "ios": "https://dc.lft.to/lastmile_qr_scan"}, "is_reserved": 0, "bike_id": "bba146ce170da6ecb961ebf8cdbf03c3", "name": "bba146ce170da6ecb961ebf8cdbf03c3", "fusion_lon": 0.0, "lon": -76.90972983333333, "fusion_lat": 0.0}, {"lat": 38.905248666666665, "type": "electric_scooter", "is_disabled": 0, "rental_uris": {"android": "https://dc.lft.to/lastmile_qr_scan", "ios": "https://dc.lft.to/lastmile_qr_scan"}, "is_reserved": 0, "bike_id": "67816645680a56a84436f3d1eea1ea84", "name": "67816645680a56a84436f3d1eea1ea84", "fusion_lon": 0.0, "lon": -77.05060166666667, "fusion_lat": 0.0}, {"lat": 38.89977183333333, "type": "electric_scooter", "is_disabled": 0, "rental_uris": {"android": "https://dc.lft.to/lastmile_qr_scan", "ios": "https://dc.lft.to/lastmile_qr_scan"}, "is_reserved": 0, "bike_id": "2dac11abc616d9ed64c246e318213773", "name": "2dac11abc616d9ed64c246e318213773", "fusion_lon": 0.0, "lon": -77.0419235, "fusion_lat": 0.0}, {"lat": 38.890031666666665, "type": "electric_scooter", "is_disabled": 0, "rental_uris": {"android": "https://dc.lft.to/lastmile_qr_scan", "ios": "https://dc.lft.to/lastmile_qr_scan"}, "is_reserved": 0, "bike_id": "6e593b758cc85eebfe8cde251ce04e71", "name": "6e593b758cc85eebfe8cde251ce04e71", "fusion_lon": 0.0, "lon": -76.93736883333334, "fusion_lat": 0.0}, {"lat": 38.9272875, "type": "electric_scooter", "is_disabled": 0, "rental_uris": {"android": "https://dc.lft.to/lastmile_qr_scan", "ios": "https://dc.lft.to/lastmile_qr_scan"}, "is_reserved": 0, "bike_id": "ca373381e7705eba6f20fd355c606070", "name": "ca373381e7705eba6f20fd355c606070", "fusion_lon": 0.0, "lon": -77.022426, "fusion_lat": 0.0}, {"lat": 38.907234333333335, "type": "electric_scooter", "is_disabled": 0, "rental_uris": {"android": "https://dc.lft.to/lastmile_qr_scan", "ios": "https://dc.lft.to/lastmile_qr_scan"}, "is_reserved": 0, "bike_id": "4c74d912cd634c1081b0ff2e44d47aa2", "name": "4c74d912cd634c1081b0ff2e44d47aa2", "fusion_lon": 0.0, "lon": -77.0435355, "fusion_lat": 0.0}, {"lat": 38.93245916666667, "type": "electric_scooter", "is_disabled": 0, "rental_uris": {"android": "https://dc.lft.to/lastmile_qr_scan", "ios": "https://dc.lft.to/lastmile_qr_scan"}, "is_reserved": 0, "bike_id": "6fc80ea55c301a66f3773c069e199900", "name": "6fc80ea55c301a66f3773c069e199900", "fusion_lon": 0.0, "lon": -77.03851583333334, "fusion_lat": 0.0}, {"lat": 38.92827666666667, "type": "electric_scooter", "is_disabled": 0, "rental_uris": {"android": "https://dc.lft.to/lastmile_qr_scan", "ios": "https://dc.lft.to/lastmile_qr_scan"}, "is_reserved": 0, "bike_id": "a83e9f744f088abc2d477abc49bba2db", "name": "a83e9f744f088abc2d477abc49bba2db", "fusion_lon": 0.0, "lon": -77.01398783333333, "fusion_lat": 0.0}, {"lat": 38.89386616666667, "type": "electric_scooter", "is_disabled": 0, "rental_uris": {"android": "https://dc.lft.to/lastmile_qr_scan", "ios": "https://dc.lft.to/lastmile_qr_scan"}, "is_reserved": 0, "bike_id": "f900e064fdf7351dde8a8959646da169", "name": "f900e064fdf7351dde8a8959646da169", "fusion_lon": 0.0, "lon": -76.9499545, "fusion_lat": 0.0}, {"lat": 38.905766666666665, "type": "electric_scooter", "is_disabled": 0, "rental_uris": {"android": "https://dc.lft.to/lastmile_qr_scan", "ios": "https://dc.lft.to/lastmile_qr_scan"}, "is_reserved": 0, "bike_id": "c69d5f95e6f4ba048807c80205efb5ec", "name": "c69d5f95e6f4ba048807c80205efb5ec", "fusion_lon": 0.0, "lon": -77.0218825, "fusion_lat": 0.0}, {"lat": 38.89735483333333, "type": "electric_scooter", "is_disabled": 0, "rental_uris": {"android": "https://dc.lft.to/lastmile_qr_scan", "ios": "https://dc.lft.to/lastmile_qr_scan"}, "is_reserved": 0, "bike_id": "c983ae48b6605412793f9f51c867185b", "name": "c983ae48b6605412793f9f51c867185b", "fusion_lon": 0.0, "lon": -77.01317866666666, "fusion_lat": 0.0}, {"lat": 38.92226933333333, "type": "electric_scooter", "is_disabled": 0, "rental_uris": {"android": "https://dc.lft.to/lastmile_qr_scan", "ios": "https://dc.lft.to/lastmile_qr_scan"}, "is_reserved": 0, "bike_id": "34b208c87c3b2780c7350e5b46ff2ab4", "name": "34b208c87c3b2780c7350e5b46ff2ab4", "fusion_lon": 0.0, "lon": -76.9753375, "fusion_lat": 0.0}, {"lat": 38.919238, "type": "electric_scooter", "is_disabled": 0, "rental_uris": {"android": "https://dc.lft.to/lastmile_qr_scan", "ios": "https://dc.lft.to/lastmile_qr_scan"}, "is_reserved": 0, "bike_id": "15c8ba82d6172be0644167255c80d5ea", "name": "15c8ba82d6172be0644167255c80d5ea", "fusion_lon": 0.0, "lon": -77.0424035, "fusion_lat": 0.0}, {"lat": 38.904718833333334, "type": "electric_scooter", "is_disabled": 0, "rental_uris": {"android": "https://dc.lft.to/lastmile_qr_scan", "ios": "https://dc.lft.to/lastmile_qr_scan"}, "is_reserved": 0, "bike_id": "31d8a43557eed4fdac41ff535d3a73de", "name": "31d8a43557eed4fdac41ff535d3a73de", "fusion_lon": 0.0, "lon": -77.03261833333333, "fusion_lat": 0.0}, {"lat": 38.902554, "type": "electric_scooter", "is_disabled": 0, "rental_uris": {"android": "https://dc.lft.to/lastmile_qr_scan", "ios": "https://dc.lft.to/lastmile_qr_scan"}, "is_reserved": 0, "bike_id": "7361eb7abb7b0ed6706e66f45a097ebe", "name": "7361eb7abb7b0ed6706e66f45a097ebe", "fusion_lon": 0.0, "lon": -77.0456615, "fusion_lat": 0.0}, {"lat": 38.905527, "type": "electric_scooter", "is_disabled": 0, "rental_uris": {"android": "https://dc.lft.to/lastmile_qr_scan", "ios": "https://dc.lft.to/lastmile_qr_scan"}, "is_reserved": 0, "bike_id": "061743d69a7dd78c1850cd474c5ff08e", "name": "061743d69a7dd78c1850cd474c5ff08e", "fusion_lon": 0.0, "lon": -77.0434225, "fusion_lat": 0.0}, {"lat": 38.91183983333333, "type": "electric_scooter", "is_disabled": 0, "rental_uris": {"android": "https://dc.lft.to/lastmile_qr_scan", "ios": "https://dc.lft.to/lastmile_qr_scan"}, "is_reserved": 0, "bike_id": "7fd3b4626f2744d23bfb94c266bb278b", "name": "7fd3b4626f2744d23bfb94c266bb278b", "fusion_lon": 0.0, "lon": -77.03966116666666, "fusion_lat": 0.0}, {"lat": 38.9050895, "type": "electric_scooter", "is_disabled": 0, "rental_uris": {"android": "https://dc.lft.to/lastmile_qr_scan", "ios": "https://dc.lft.to/lastmile_qr_scan"}, "is_reserved": 0, "bike_id": "3845cb1a44a58c6f3ca0868898cef218", "name": "3845cb1a44a58c6f3ca0868898cef218", "fusion_lon": 0.0, "lon": -77.057866, "fusion_lat": 0.0}, {"lat": 38.91677633333333, "type": "electric_scooter", "is_disabled": 0, "rental_uris": {"android": "https://dc.lft.to/lastmile_qr_scan", "ios": "https://dc.lft.to/lastmile_qr_scan"}, "is_reserved": 0, "bike_id": "cb3eb0007c0892e892294d2202f17c31", "name": "cb3eb0007c0892e892294d2202f17c31", "fusion_lon": 0.0, "lon": -77.03173966666667, "fusion_lat": 0.0}, {"lat": 38.89739683333333, "type": "electric_scooter", "is_disabled": 0, "rental_uris": {"android": "https://dc.lft.to/lastmile_qr_scan", "ios": "https://dc.lft.to/lastmile_qr_scan"}, "is_reserved": 0, "bike_id": "d73f150fd95f3e6edce3ef3692790e00", "name": "d73f150fd95f3e6edce3ef3692790e00", "fusion_lon": 0.0, "lon": -77.0335355, "fusion_lat": 0.0}, {"lat": 38.901579, "type": "electric_scooter", "is_disabled": 0, "rental_uris": {"android": "https://dc.lft.to/lastmile_qr_scan", "ios": "https://dc.lft.to/lastmile_qr_scan"}, "is_reserved": 0, "bike_id": "9d9d4a16dd39a5f412f8d6794157ae95", "name": "9d9d4a16dd39a5f412f8d6794157ae95", "fusion_lon": 0.0, "lon": -77.03251533333334, "fusion_lat": 0.0}, {"lat": 38.88487883333333, "type": "electric_scooter", "is_disabled": 0, "rental_uris": {"android": "https://dc.lft.to/lastmile_qr_scan", "ios": "https://dc.lft.to/lastmile_qr_scan"}, "is_reserved": 0, "bike_id": "3b4451c7f87047f41dfa3dd6ecbcc74c", "name": "3b4451c7f87047f41dfa3dd6ecbcc74c", "fusion_lon": 0.0, "lon": -77.01528783333333, "fusion_lat": 0.0}, {"lat": 38.899638833333334, "type": "electric_scooter", "is_disabled": 0, "rental_uris": {"android": "https://dc.lft.to/lastmile_qr_scan", "ios": "https://dc.lft.to/lastmile_qr_scan"}, "is_reserved": 0, "bike_id": "5a40f72332bb7d71a127605964d63549", "name": "5a40f72332bb7d71a127605964d63549", "fusion_lon": 0.0, "lon": -77.029742, "fusion_lat": 0.0}, {"lat": 38.98499566666667, "type": "electric_bike", "is_disabled": 0, "rental_uris": {"android": "https://dc.lft.to/lastmile_qr_scan", "ios": "https://dc.lft.to/lastmile_qr_scan"}, "is_reserved": 0, "bike_id": "e1482af1537010ed566503d180f7ff65", "name": "e1482af1537010ed566503d180f7ff65", "fusion_lon": 0.0, "lon": -76.9819365, "fusion_lat": 0.0}, {"lat": 38.91912466666667, "type": "electric_scooter", "is_disabled": 0, "rental_uris": {"android": "https://dc.lft.to/lastmile_qr_scan", "ios": "https://dc.lft.to/lastmile_qr_scan"}, "is_reserved": 0, "bike_id": "d4578c35077c36e47cb81d36bb9be11d", "name": "d4578c35077c36e47cb81d36bb9be11d", "fusion_lon": 0.0, "lon": -77.03170633333333, "fusion_lat": 0.0}, {"lat": 38.902366, "type": "electric_scooter", "is_disabled": 0, "rental_uris": {"android": "https://dc.lft.to/lastmile_qr_scan", "ios": "https://dc.lft.to/lastmile_qr_scan"}, "is_reserved": 0, "bike_id": "91225a2442b002fdd1929024c6e5b4a4", "name": "91225a2442b002fdd1929024c6e5b4a4", "fusion_lon": 0.0, "lon": -77.042857, "fusion_lat": 0.0}, {"lat": 38.921459666666664, "type": "electric_scooter", "is_disabled": 0, "rental_uris": {"android": "https://dc.lft.to/lastmile_qr_scan", "ios": "https://dc.lft.to/lastmile_qr_scan"}, "is_reserved": 0, "bike_id": "4e40d5afebd0bb8e18413ee1e9856680", "name": "4e40d5afebd0bb8e18413ee1e9856680", "fusion_lon": 0.0, "lon": -77.04595983333333, "fusion_lat": 0.0}, {"lat": 38.902629, "type": "electric_scooter", "is_disabled": 0, "rental_uris": {"android": "https://dc.lft.to/lastmile_qr_scan", "ios": "https://dc.lft.to/lastmile_qr_scan"}, "is_reserved": 0, "bike_id": "3e0164b1d2c811691353fdc8f7ddb497", "name": "3e0164b1d2c811691353fdc8f7ddb497", "fusion_lon": 0.0, "lon": -77.03633466666666, "fusion_lat": 0.0}, {"lat": 38.891013, "type": "electric_scooter", "is_disabled": 0, "rental_uris": {"android": "https://dc.lft.to/lastmile_qr_scan", "ios": "https://dc.lft.to/lastmile_qr_scan"}, "is_reserved": 0, "bike_id": "309dd409ee061169228f4f477948afad", "name": "309dd409ee061169228f4f477948afad", "fusion_lon": 0.0, "lon": -77.00617266666667, "fusion_lat": 0.0}, {"lat": 38.91747983333333, "type": "electric_scooter", "is_disabled": 0, "rental_uris": {"android": "https://dc.lft.to/lastmile_qr_scan", "ios": "https://dc.lft.to/lastmile_qr_scan"}, "is_reserved": 0, "bike_id": "155158467052eb0e4ba2f904eed5d9bb", "name": "155158467052eb0e4ba2f904eed5d9bb", "fusion_lon": 0.0, "lon": -77.04155716666666, "fusion_lat": 0.0}, {"lat": 38.89744866666667, "type": "electric_scooter", "is_disabled": 0, "rental_uris": {"android": "https://dc.lft.to/lastmile_qr_scan", "ios": "https://dc.lft.to/lastmile_qr_scan"}, "is_reserved": 0, "bike_id": "7d21aa9ad5568f15c6b841876697ce8f", "name": "7d21aa9ad5568f15c6b841876697ce8f", "fusion_lon": 0.0, "lon": -77.051399, "fusion_lat": 0.0}, {"lat": 38.8521235, "type": "electric_bike", "is_disabled": 0, "rental_uris": {"android": "https://dc.lft.to/lastmile_qr_scan", "ios": "https://dc.lft.to/lastmile_qr_scan"}, "is_reserved": 0, "bike_id": "b9eecd727006343d7192aa4e910d7986", "name": "b9eecd727006343d7192aa4e910d7986", "fusion_lon": 0.0, "lon": -77.12756133333333, "fusion_lat": 0.0}, {"lat": 38.915376, "type": "electric_scooter", "is_disabled": 0, "rental_uris": {"android": "https://dc.lft.to/lastmile_qr_scan", "ios": "https://dc.lft.to/lastmile_qr_scan"}, "is_reserved": 0, "bike_id": "281409d32aa7bfef73c7aeac5e9b9d7b", "name": "281409d32aa7bfef73c7aeac5e9b9d7b", "fusion_lon": 0.0, "lon": -77.02210066666666, "fusion_lat": 0.0}, {"lat": 38.897474833333334, "type": "electric_scooter", "is_disabled": 0, "rental_uris": {"android": "https://dc.lft.to/lastmile_qr_scan", "ios": "https://dc.lft.to/lastmile_qr_scan"}, "is_reserved": 0, "bike_id": "a4c19c7925f33d72b072a6105eab7354", "name": "a4c19c7925f33d72b072a6105eab7354", "fusion_lon": 0.0, "lon": -77.04731116666666, "fusion_lat": 0.0}, {"lat": 38.91773333333333, "type": "electric_scooter", "is_disabled": 0, "rental_uris": {"android": "https://dc.lft.to/lastmile_qr_scan", "ios": "https://dc.lft.to/lastmile_qr_scan"}, "is_reserved": 0, "bike_id": "86d2e1aa6baee4953015ca16cabcfe7f", "name": "86d2e1aa6baee4953015ca16cabcfe7f", "fusion_lon": 0.0, "lon": -77.03185383333333, "fusion_lat": 0.0}, {"lat": 38.9118755, "type": "electric_scooter", "is_disabled": 0, "rental_uris": {"android": "https://dc.lft.to/lastmile_qr_scan", "ios": "https://dc.lft.to/lastmile_qr_scan"}, "is_reserved": 0, "bike_id": "9be1825012e8b928c11a0b8ca9266d78", "name": "9be1825012e8b928c11a0b8ca9266d78", "fusion_lon": 0.0, "lon": -77.03737233333334, "fusion_lat": 0.0}, {"lat": 38.918007833333334, "type": "electric_scooter", "is_disabled": 0, "rental_uris": {"android": "https://dc.lft.to/lastmile_qr_scan", "ios": "https://dc.lft.to/lastmile_qr_scan"}, "is_reserved": 0, "bike_id": "450ea9aa7dfa5ac43e6ad287d577d0e5", "name": "450ea9aa7dfa5ac43e6ad287d577d0e5", "fusion_lon": 0.0, "lon": -77.03560533333334, "fusion_lat": 0.0}, {"lat": 38.9220975, "type": "electric_scooter", "is_disabled": 0, "rental_uris": {"android": "https://dc.lft.to/lastmile_qr_scan", "ios": "https://dc.lft.to/lastmile_qr_scan"}, "is_reserved": 0, "bike_id": "829d39782e3d2634892a74d011dea4e5", "name": "829d39782e3d2634892a74d011dea4e5", "fusion_lon": 0.0, "lon": -77.01849166666666, "fusion_lat": 0.0}, {"lat": 38.89720366666667, "type": "electric_scooter", "is_disabled": 0, "rental_uris": {"android": "https://dc.lft.to/lastmile_qr_scan", "ios": "https://dc.lft.to/lastmile_qr_scan"}, "is_reserved": 0, "bike_id": "afb7036f610e149149e171555ec8d5cc", "name": "afb7036f610e149149e171555ec8d5cc", "fusion_lon": 0.0, "lon": -77.02975483333333, "fusion_lat": 0.0}, {"lat": 38.892486166666664, "type": "electric_scooter", "is_disabled": 0, "rental_uris": {"android": "https://dc.lft.to/lastmile_qr_scan", "ios": "https://dc.lft.to/lastmile_qr_scan"}, "is_reserved": 0, "bike_id": "d92496d537ce5b5e07a6a1f1c3a8387a", "name": "d92496d537ce5b5e07a6a1f1c3a8387a", "fusion_lon": 0.0, "lon": -76.99848466666667, "fusion_lat": 0.0}, {"lat": 38.88229616666667, "type": "electric_scooter", "is_disabled": 0, "rental_uris": {"android": "https://dc.lft.to/lastmile_qr_scan", "ios": "https://dc.lft.to/lastmile_qr_scan"}, "is_reserved": 0, "bike_id": "8c027733ce4bcc93f8660b3ce4ddaafe", "name": "8c027733ce4bcc93f8660b3ce4ddaafe", "fusion_lon": 0.0, "lon": -76.99080633333334, "fusion_lat": 0.0}, {"lat": 38.90830783333333, "type": "electric_scooter", "is_disabled": 0, "rental_uris": {"android": "https://dc.lft.to/lastmile_qr_scan", "ios": "https://dc.lft.to/lastmile_qr_scan"}, "is_reserved": 0, "bike_id": "11f0280b07a0d96b5e6cedab3bf92161", "name": "11f0280b07a0d96b5e6cedab3bf92161", "fusion_lon": 0.0, "lon": -77.03674533333333, "fusion_lat": 0.0}, {"lat": 38.86592916666667, "type": "electric_bike", "is_disabled": 0, "rental_uris": {"android": "https://dc.lft.to/lastmile_qr_scan", "ios": "https://dc.lft.to/lastmile_qr_scan"}, "is_reserved": 0, "bike_id": "75e0336111e6c68ba07fc000bc67b898", "name": "75e0336111e6c68ba07fc000bc67b898", "fusion_lon": 0.0, "lon": -76.9323005, "fusion_lat": 0.0}, {"lat": 38.883712, "type": "electric_scooter", "is_disabled": 0, "rental_uris": {"android": "https://dc.lft.to/lastmile_qr_scan", "ios": "https://dc.lft.to/lastmile_qr_scan"}, "is_reserved": 0, "bike_id": "60b64c165cba0673fe321f353da8592e", "name": "60b64c165cba0673fe321f353da8592e", "fusion_lon": 0.0, "lon": -76.9951945, "fusion_lat": 0.0}, {"lat": 38.90115133333333, "type": "electric_scooter", "is_disabled": 0, "rental_uris": {"android": "https://dc.lft.to/lastmile_qr_scan", "ios": "https://dc.lft.to/lastmile_qr_scan"}, "is_reserved": 0, "bike_id": "c3c3475a7d37b5aea8495eae516fdb55", "name": "c3c3475a7d37b5aea8495eae516fdb55", "fusion_lon": 0.0, "lon": -77.03372516666667, "fusion_lat": 0.0}, {"lat": 38.890050333333335, "type": "electric_scooter", "is_disabled": 0, "rental_uris": {"android": "https://dc.lft.to/lastmile_qr_scan", "ios": "https://dc.lft.to/lastmile_qr_scan"}, "is_reserved": 0, "bike_id": "0316af9fb037ee20e1e1c55974558c6f", "name": "0316af9fb037ee20e1e1c55974558c6f", "fusion_lon": 0.0, "lon": -76.93738, "fusion_lat": 0.0}, {"lat": 38.904404666666665, "type": "electric_scooter", "is_disabled": 0, "rental_uris": {"android": "https://dc.lft.to/lastmile_qr_scan", "ios": "https://dc.lft.to/lastmile_qr_scan"}, "is_reserved": 0, "bike_id": "3cc0e08bb03dcab23a9b61e2df8e4d04", "name": "3cc0e08bb03dcab23a9b61e2df8e4d04", "fusion_lon": 0.0, "lon": -77.03437633333333, "fusion_lat": 0.0}, {"lat": 38.91993566666667, "type": "electric_scooter", "is_disabled": 0, "rental_uris": {"android": "https://dc.lft.to/lastmile_qr_scan", "ios": "https://dc.lft.to/lastmile_qr_scan"}, "is_reserved": 0, "bike_id": "b81b0b481350105588a624a271271e76", "name": "b81b0b481350105588a624a271271e76", "fusion_lon": 0.0, "lon": -76.9839615, "fusion_lat": 0.0}, {"lat": 38.93903, "type": "electric_scooter", "is_disabled": 0, "rental_uris": {"android": "https://dc.lft.to/lastmile_qr_scan", "ios": "https://dc.lft.to/lastmile_qr_scan"}, "is_reserved": 0, "bike_id": "1298b3fac256d4ad80dd3ccf324cb5cb", "name": "1298b3fac256d4ad80dd3ccf324cb5cb", "fusion_lon": 0.0, "lon": -77.02475216666667, "fusion_lat": 0.0}, {"lat": 38.853275833333335, "type": "electric_scooter", "is_disabled": 0, "rental_uris": {"android": "https://dc.lft.to/lastmile_qr_scan", "ios": "https://dc.lft.to/lastmile_qr_scan"}, "is_reserved": 0, "bike_id": "499d21785dddbdac58d935cf810f32bc", "name": "499d21785dddbdac58d935cf810f32bc", "fusion_lon": 0.0, "lon": -76.96602366666667, "fusion_lat": 0.0}, {"lat": 38.862475833333335, "type": "electric_scooter", "is_disabled": 0, "rental_uris": {"android": "https://dc.lft.to/lastmile_qr_scan", "ios": "https://dc.lft.to/lastmile_qr_scan"}, "is_reserved": 0, "bike_id": "6073f2cf21703cefbc44ec4b6bec06f3", "name": "6073f2cf21703cefbc44ec4b6bec06f3", "fusion_lon": 0.0, "lon": -76.99529833333334, "fusion_lat": 0.0}, {"lat": 38.988272333333335, "type": "electric_bike", "is_disabled": 0, "rental_uris": {"android": "https://dc.lft.to/lastmile_qr_scan", "ios": "https://dc.lft.to/lastmile_qr_scan"}, "is_reserved": 0, "bike_id": "b913d004dbcfd89593c7743edf8f12e6", "name": "b913d004dbcfd89593c7743edf8f12e6", "fusion_lon": 0.0, "lon": -76.98757633333334, "fusion_lat": 0.0}, {"lat": 38.905082, "type": "electric_scooter", "is_disabled": 0, "rental_uris": {"android": "https://dc.lft.to/lastmile_qr_scan", "ios": "https://dc.lft.to/lastmile_qr_scan"}, "is_reserved": 0, "bike_id": "e89efb124b5695dfe6c03f6248b1445a", "name": "e89efb124b5695dfe6c03f6248b1445a", "fusion_lon": 0.0, "lon": -77.0514915, "fusion_lat": 0.0}, {"lat": 38.9217785, "type": "electric_scooter", "is_disabled": 0, "rental_uris": {"android": "https://dc.lft.to/lastmile_qr_scan", "ios": "https://dc.lft.to/lastmile_qr_scan"}, "is_reserved": 0, "bike_id": "b5d9dc6f849119a962702488d59f5677", "name": "b5d9dc6f849119a962702488d59f5677", "fusion_lon": 0.0, "lon": -77.04231416666667, "fusion_lat": 0.0}, {"lat": 38.8802095, "type": "electric_scooter", "is_disabled": 0, "rental_uris": {"android": "https://dc.lft.to/lastmile_qr_scan", "ios": "https://dc.lft.to/lastmile_qr_scan"}, "is_reserved": 0, "bike_id": "596f63736e8b7c2698981af87d3ce77a", "name": "596f63736e8b7c2698981af87d3ce77a", "fusion_lon": 0.0, "lon": -76.93118866666667, "fusion_lat": 0.0}, {"lat": 38.903663333333334, "type": "electric_scooter", "is_disabled": 0, "rental_uris": {"android": "https://dc.lft.to/lastmile_qr_scan", "ios": "https://dc.lft.to/lastmile_qr_scan"}, "is_reserved": 0, "bike_id": "07258c8440d2cd6785ce803b6c235696", "name": "07258c8440d2cd6785ce803b6c235696", "fusion_lon": 0.0, "lon": -77.01944616666667, "fusion_lat": 0.0}, {"lat": 38.905687, "type": "electric_scooter", "is_disabled": 0, "rental_uris": {"android": "https://dc.lft.to/lastmile_qr_scan", "ios": "https://dc.lft.to/lastmile_qr_scan"}, "is_reserved": 0, "bike_id": "ce9732439a51c4ca6c83a690c5153e8b", "name": "ce9732439a51c4ca6c83a690c5153e8b", "fusion_lon": 0.0, "lon": -77.02532016666666, "fusion_lat": 0.0}, {"lat": 38.89522516666667, "type": "electric_scooter", "is_disabled": 0, "rental_uris": {"android": "https://dc.lft.to/lastmile_qr_scan", "ios": "https://dc.lft.to/lastmile_qr_scan"}, "is_reserved": 0, "bike_id": "e5f09572b220a2f4ca23203d21aa570e", "name": "e5f09572b220a2f4ca23203d21aa570e", "fusion_lon": 0.0, "lon": -77.0283705, "fusion_lat": 0.0}, {"lat": 38.900186833333336, "type": "electric_scooter", "is_disabled": 0, "rental_uris": {"android": "https://dc.lft.to/lastmile_qr_scan", "ios": "https://dc.lft.to/lastmile_qr_scan"}, "is_reserved": 0, "bike_id": "496a23b62131982bc30c3a729a2477e7", "name": "496a23b62131982bc30c3a729a2477e7", "fusion_lon": 0.0, "lon": -77.0118405, "fusion_lat": 0.0}, {"lat": 38.9366595, "type": "electric_bike", "is_disabled": 0, "rental_uris": {"android": "https://dc.lft.to/lastmile_qr_scan", "ios": "https://dc.lft.to/lastmile_qr_scan"}, "is_reserved": 0, "bike_id": "d43127a7eb23f61724c9c6c0d70fe414", "name": "d43127a7eb23f61724c9c6c0d70fe414", "fusion_lon": 0.0, "lon": -76.95499766666667, "fusion_lat": 0.0}, {"lat": 38.9158985, "type": "electric_scooter", "is_disabled": 0, "rental_uris": {"android": "https://dc.lft.to/lastmile_qr_scan", "ios": "https://dc.lft.to/lastmile_qr_scan"}, "is_reserved": 0, "bike_id": "1541461a25aada372c87053ba844f09a", "name": "1541461a25aada372c87053ba844f09a", "fusion_lon": 0.0, "lon": -77.05011066666667, "fusion_lat": 0.0}, {"lat": 38.926094666666664, "type": "electric_scooter", "is_disabled": 0, "rental_uris": {"android": "https://dc.lft.to/lastmile_qr_scan", "ios": "https://dc.lft.to/lastmile_qr_scan"}, "is_reserved": 0, "bike_id": "21e8e50e2d59dffe60d3405dee89d823", "name": "21e8e50e2d59dffe60d3405dee89d823", "fusion_lon": 0.0, "lon": -77.02161266666667, "fusion_lat": 0.0}, {"lat": 38.92160466666667, "type": "electric_scooter", "is_disabled": 0, "rental_uris": {"android": "https://dc.lft.to/lastmile_qr_scan", "ios": "https://dc.lft.to/lastmile_qr_scan"}, "is_reserved": 0, "bike_id": "28d083b1297331af5bb992ee21053a0b", "name": "28d083b1297331af5bb992ee21053a0b", "fusion_lon": 0.0, "lon": -77.04691066666666, "fusion_lat": 0.0}, {"lat": 38.907331666666664, "type": "electric_scooter", "is_disabled": 0, "rental_uris": {"android": "https://dc.lft.to/lastmile_qr_scan", "ios": "https://dc.lft.to/lastmile_qr_scan"}, "is_reserved": 0, "bike_id": "efb19eb6adb1d16b8f2a4808dcd7dded", "name": "efb19eb6adb1d16b8f2a4808dcd7dded", "fusion_lon": 0.0, "lon": -77.04334166666666, "fusion_lat": 0.0}, {"lat": 38.904727, "type": "electric_scooter", "is_disabled": 0, "rental_uris": {"android": "https://dc.lft.to/lastmile_qr_scan", "ios": "https://dc.lft.to/lastmile_qr_scan"}, "is_reserved": 0, "bike_id": "ede8dc692a1aa002b2baaf344a86ce83", "name": "ede8dc692a1aa002b2baaf344a86ce83", "fusion_lon": 0.0, "lon": -77.035724, "fusion_lat": 0.0}, {"lat": 38.884839, "type": "electric_scooter", "is_disabled": 0, "rental_uris": {"android": "https://dc.lft.to/lastmile_qr_scan", "ios": "https://dc.lft.to/lastmile_qr_scan"}, "is_reserved": 0, "bike_id": "370f316b7b63dcbdb774ca2e850ddbd8", "name": "370f316b7b63dcbdb774ca2e850ddbd8", "fusion_lon": 0.0, "lon": -77.0071205, "fusion_lat": 0.0}, {"lat": 38.900636666666664, "type": "electric_scooter", "is_disabled": 0, "rental_uris": {"android": "https://dc.lft.to/lastmile_qr_scan", "ios": "https://dc.lft.to/lastmile_qr_scan"}, "is_reserved": 0, "bike_id": "fe7891a1d2a54635b5ca2eb83996a920", "name": "fe7891a1d2a54635b5ca2eb83996a920", "fusion_lon": 0.0, "lon": -77.04891066666667, "fusion_lat": 0.0}, {"lat": 38.945725, "type": "electric_bike", "is_disabled": 0, "rental_uris": {"android": "https://dc.lft.to/lastmile_qr_scan", "ios": "https://dc.lft.to/lastmile_qr_scan"}, "is_reserved": 0, "bike_id": "dec30e068cd4345f9453932737e46625", "name": "dec30e068cd4345f9453932737e46625", "fusion_lon": 0.0, "lon": -76.98774066666667, "fusion_lat": 0.0}, {"lat": 38.93169433333333, "type": "electric_scooter", "is_disabled": 0, "rental_uris": {"android": "https://dc.lft.to/lastmile_qr_scan", "ios": "https://dc.lft.to/lastmile_qr_scan"}, "is_reserved": 0, "bike_id": "0fffb51ade8c52490c271a0981a41249", "name": "0fffb51ade8c52490c271a0981a41249", "fusion_lon": 0.0, "lon": -77.03638766666667, "fusion_lat": 0.0}, {"lat": 38.84617816666667, "type": "electric_scooter", "is_disabled": 0, "rental_uris": {"android": "https://dc.lft.to/lastmile_qr_scan", "ios": "https://dc.lft.to/lastmile_qr_scan"}, "is_reserved": 0, "bike_id": "bd108fce2e87ab9a0487fd8691cafd95", "name": "bd108fce2e87ab9a0487fd8691cafd95", "fusion_lon": 0.0, "lon": -76.99633783333333, "fusion_lat": 0.0}, {"lat": 38.8879325, "type": "electric_scooter", "is_disabled": 0, "rental_uris": {"android": "https://dc.lft.to/lastmile_qr_scan", "ios": "https://dc.lft.to/lastmile_qr_scan"}, "is_reserved": 0, "bike_id": "4c13a8ffdeaba8d5477036c9194015aa", "name": "4c13a8ffdeaba8d5477036c9194015aa", "fusion_lon": 0.0, "lon": -76.933594, "fusion_lat": 0.0}, {"lat": 38.9002905, "type": "electric_scooter", "is_disabled": 0, "rental_uris": {"android": "https://dc.lft.to/lastmile_qr_scan", "ios": "https://dc.lft.to/lastmile_qr_scan"}, "is_reserved": 0, "bike_id": "0e01f0154c90326a61c7fea109c883e9", "name": "0e01f0154c90326a61c7fea109c883e9", "fusion_lon": 0.0, "lon": -76.99953866666667, "fusion_lat": 0.0}, {"lat": 38.876340666666664, "type": "electric_scooter", "is_disabled": 0, "rental_uris": {"android": "https://dc.lft.to/lastmile_qr_scan", "ios": "https://dc.lft.to/lastmile_qr_scan"}, "is_reserved": 0, "bike_id": "42b102e53cf4de6ba76573fbef4a376f", "name": "42b102e53cf4de6ba76573fbef4a376f", "fusion_lon": 0.0, "lon": -77.0072125, "fusion_lat": 0.0}, {"lat": 38.884389666666664, "type": "electric_scooter", "is_disabled": 0, "rental_uris": {"android": "https://dc.lft.to/lastmile_qr_scan", "ios": "https://dc.lft.to/lastmile_qr_scan"}, "is_reserved": 0, "bike_id": "89db26c5a583c1d25ecbdb406d06b502", "name": "89db26c5a583c1d25ecbdb406d06b502", "fusion_lon": 0.0, "lon": -76.9540845, "fusion_lat": 0.0}, {"lat": 38.9147865, "type": "electric_scooter", "is_disabled": 0, "rental_uris": {"android": "https://dc.lft.to/lastmile_qr_scan", "ios": "https://dc.lft.to/lastmile_qr_scan"}, "is_reserved": 0, "bike_id": "6cb19bc75e19d59c3ef2ca95eca0b200", "name": "6cb19bc75e19d59c3ef2ca95eca0b200", "fusion_lon": 0.0, "lon": -77.03463183333334, "fusion_lat": 0.0}, {"lat": 38.910482, "type": "electric_scooter", "is_disabled": 0, "rental_uris": {"android": "https://dc.lft.to/lastmile_qr_scan", "ios": "https://dc.lft.to/lastmile_qr_scan"}, "is_reserved": 0, "bike_id": "72452fd9caeec9b59da8cee09dcb98ac", "name": "72452fd9caeec9b59da8cee09dcb98ac", "fusion_lon": 0.0, "lon": -77.01510733333333, "fusion_lat": 0.0}, {"lat": 38.913357833333336, "type": "electric_scooter", "is_disabled": 0, "rental_uris": {"android": "https://dc.lft.to/lastmile_qr_scan", "ios": "https://dc.lft.to/lastmile_qr_scan"}, "is_reserved": 0, "bike_id": "a340ea96c71baebe1b50de5f2af00be8", "name": "a340ea96c71baebe1b50de5f2af00be8", "fusion_lon": 0.0, "lon": -77.032601, "fusion_lat": 0.0}, {"lat": 38.91793766666667, "type": "electric_scooter", "is_disabled": 0, "rental_uris": {"android": "https://dc.lft.to/lastmile_qr_scan", "ios": "https://dc.lft.to/lastmile_qr_scan"}, "is_reserved": 0, "bike_id": "4329b19fe043862f39e8e9f381f62eee", "name": "4329b19fe043862f39e8e9f381f62eee", "fusion_lon": 0.0, "lon": -77.03454233333333, "fusion_lat": 0.0}, {"lat": 38.931870833333335, "type": "electric_scooter", "is_disabled": 0, "rental_uris": {"android": "https://dc.lft.to/lastmile_qr_scan", "ios": "https://dc.lft.to/lastmile_qr_scan"}, "is_reserved": 0, "bike_id": "f1f27aeb8f59e733a1be3f590c81bcfe", "name": "f1f27aeb8f59e733a1be3f590c81bcfe", "fusion_lon": 0.0, "lon": -77.02835, "fusion_lat": 0.0}, {"lat": 38.89820183333333, "type": "electric_scooter", "is_disabled": 0, "rental_uris": {"android": "https://dc.lft.to/lastmile_qr_scan", "ios": "https://dc.lft.to/lastmile_qr_scan"}, "is_reserved": 0, "bike_id": "ca85713e2f196715798a5ca02d44593c", "name": "ca85713e2f196715798a5ca02d44593c", "fusion_lon": 0.0, "lon": -77.0432755, "fusion_lat": 0.0}, {"lat": 38.89808333333333, "type": "electric_scooter", "is_disabled": 0, "rental_uris": {"android": "https://dc.lft.to/lastmile_qr_scan", "ios": "https://dc.lft.to/lastmile_qr_scan"}, "is_reserved": 0, "bike_id": "085c7a1c0b99d292c494c7955c4a3dbd", "name": "085c7a1c0b99d292c494c7955c4a3dbd", "fusion_lon": 0.0, "lon": -77.05135033333333, "fusion_lat": 0.0}, {"lat": 38.892054, "type": "electric_scooter", "is_disabled": 0, "rental_uris": {"android": "https://dc.lft.to/lastmile_qr_scan", "ios": "https://dc.lft.to/lastmile_qr_scan"}, "is_reserved": 0, "bike_id": "f4a3cbc889f27db0daf7543e6534aa12", "name": "f4a3cbc889f27db0daf7543e6534aa12", "fusion_lon": 0.0, "lon": -76.988056, "fusion_lat": 0.0}, {"lat": 38.865057, "type": "electric_scooter", "is_disabled": 0, "rental_uris": {"android": "https://dc.lft.to/lastmile_qr_scan", "ios": "https://dc.lft.to/lastmile_qr_scan"}, "is_reserved": 0, "bike_id": "95382b7f993b1b814e4620260034d2a0", "name": "95382b7f993b1b814e4620260034d2a0", "fusion_lon": 0.0, "lon": -76.99006383333334, "fusion_lat": 0.0}, {"lat": 38.86674333333333, "type": "electric_scooter", "is_disabled": 0, "rental_uris": {"android": "https://dc.lft.to/lastmile_qr_scan", "ios": "https://dc.lft.to/lastmile_qr_scan"}, "is_reserved": 0, "bike_id": "f5dcd2dc764aa86f1d132e4b3086dcec", "name": "f5dcd2dc764aa86f1d132e4b3086dcec", "fusion_lon": 0.0, "lon": -76.98886283333333, "fusion_lat": 0.0}, {"lat": 38.905990833333334, "type": "electric_scooter", "is_disabled": 0, "rental_uris": {"android": "https://dc.lft.to/lastmile_qr_scan", "ios": "https://dc.lft.to/lastmile_qr_scan"}, "is_reserved": 0, "bike_id": "835d5e93689f938b2ed45ec10b748c97", "name": "835d5e93689f938b2ed45ec10b748c97", "fusion_lon": 0.0, "lon": -77.0413605, "fusion_lat": 0.0}, {"lat": 39.08841966666667, "type": "electric_bike", "is_disabled": 0, "rental_uris": {"android": "https://dc.lft.to/lastmile_qr_scan", "ios": "https://dc.lft.to/lastmile_qr_scan"}, "is_reserved": 0, "bike_id": "18e2a9bc045133e518fea2a5548f6f8c", "name": "18e2a9bc045133e518fea2a5548f6f8c", "fusion_lon": 0.0, "lon": -77.178018, "fusion_lat": 0.0}, {"lat": 38.90988866666667, "type": "electric_scooter", "is_disabled": 0, "rental_uris": {"android": "https://dc.lft.to/lastmile_qr_scan", "ios": "https://dc.lft.to/lastmile_qr_scan"}, "is_reserved": 0, "bike_id": "8ca5a9f97fb9de27e3f754c06359d262", "name": "8ca5a9f97fb9de27e3f754c06359d262", "fusion_lon": 0.0, "lon": -76.98490983333333, "fusion_lat": 0.0}, {"lat": 38.883072166666665, "type": "electric_scooter", "is_disabled": 0, "rental_uris": {"android": "https://dc.lft.to/lastmile_qr_scan", "ios": "https://dc.lft.to/lastmile_qr_scan"}, "is_reserved": 0, "bike_id": "7bd50809ca777e2bc9b29f4a06081682", "name": "7bd50809ca777e2bc9b29f4a06081682", "fusion_lon": 0.0, "lon": -77.01742466666667, "fusion_lat": 0.0}, {"lat": 38.904703166666664, "type": "electric_scooter", "is_disabled": 0, "rental_uris": {"android": "https://dc.lft.to/lastmile_qr_scan", "ios": "https://dc.lft.to/lastmile_qr_scan"}, "is_reserved": 0, "bike_id": "942d7a16c67579e2c44e16df105cbb60", "name": "942d7a16c67579e2c44e16df105cbb60", "fusion_lon": 0.0, "lon": -77.028123, "fusion_lat": 0.0}, {"lat": 38.91193583333333, "type": "electric_scooter", "is_disabled": 0, "rental_uris": {"android": "https://dc.lft.to/lastmile_qr_scan", "ios": "https://dc.lft.to/lastmile_qr_scan"}, "is_reserved": 0, "bike_id": "9d780fdcc69fe6672c72137066eb4764", "name": "9d780fdcc69fe6672c72137066eb4764", "fusion_lon": 0.0, "lon": -77.041727, "fusion_lat": 0.0}, {"lat": 38.919770166666666, "type": "electric_scooter", "is_disabled": 0, "rental_uris": {"android": "https://dc.lft.to/lastmile_qr_scan", "ios": "https://dc.lft.to/lastmile_qr_scan"}, "is_reserved": 0, "bike_id": "67b522f279a4d115176a2948ce99250e", "name": "67b522f279a4d115176a2948ce99250e", "fusion_lon": 0.0, "lon": -77.02203983333334, "fusion_lat": 0.0}, {"lat": 38.937029, "type": "electric_scooter", "is_disabled": 0, "rental_uris": {"android": "https://dc.lft.to/lastmile_qr_scan", "ios": "https://dc.lft.to/lastmile_qr_scan"}, "is_reserved": 0, "bike_id": "29bae85302282f409f7e281172697ca4", "name": "29bae85302282f409f7e281172697ca4", "fusion_lon": 0.0, "lon": -77.06105216666667, "fusion_lat": 0.0}, {"lat": 38.9371695, "type": "electric_scooter", "is_disabled": 0, "rental_uris": {"android": "https://dc.lft.to/lastmile_qr_scan", "ios": "https://dc.lft.to/lastmile_qr_scan"}, "is_reserved": 0, "bike_id": "eb680bbf8491faa1a8ee41445aa9b568", "name": "eb680bbf8491faa1a8ee41445aa9b568", "fusion_lon": 0.0, "lon": -77.0241985, "fusion_lat": 0.0}, {"lat": 38.907231333333335, "type": "electric_scooter", "is_disabled": 0, "rental_uris": {"android": "https://dc.lft.to/lastmile_qr_scan", "ios": "https://dc.lft.to/lastmile_qr_scan"}, "is_reserved": 0, "bike_id": "736abe40cbc701ab2da0fa4b26f43812", "name": "736abe40cbc701ab2da0fa4b26f43812", "fusion_lon": 0.0, "lon": -77.0386395, "fusion_lat": 0.0}, {"lat": 38.89419816666667, "type": "electric_scooter", "is_disabled": 0, "rental_uris": {"android": "https://dc.lft.to/lastmile_qr_scan", "ios": "https://dc.lft.to/lastmile_qr_scan"}, "is_reserved": 0, "bike_id": "a67038252ff7c0fb65a22f4b32a06ca4", "name": "a67038252ff7c0fb65a22f4b32a06ca4", "fusion_lon": 0.0, "lon": -76.912216, "fusion_lat": 0.0}, {"lat": 38.896347166666665, "type": "electric_scooter", "is_disabled": 0, "rental_uris": {"android": "https://dc.lft.to/lastmile_qr_scan", "ios": "https://dc.lft.to/lastmile_qr_scan"}, "is_reserved": 0, "bike_id": "5332a16d2e476488ac89bed4e0174ae2", "name": "5332a16d2e476488ac89bed4e0174ae2", "fusion_lon": 0.0, "lon": -77.05030666666667, "fusion_lat": 0.0}, {"lat": 38.920937, "type": "electric_scooter", "is_disabled": 0, "rental_uris": {"android": "https://dc.lft.to/lastmile_qr_scan", "ios": "https://dc.lft.to/lastmile_qr_scan"}, "is_reserved": 0, "bike_id": "93dbbaa79b9d5e6dfc89144ccec8a385", "name": "93dbbaa79b9d5e6dfc89144ccec8a385", "fusion_lon": 0.0, "lon": -77.018018, "fusion_lat": 0.0}, {"lat": 38.90491566666667, "type": "electric_scooter", "is_disabled": 0, "rental_uris": {"android": "https://dc.lft.to/lastmile_qr_scan", "ios": "https://dc.lft.to/lastmile_qr_scan"}, "is_reserved": 0, "bike_id": "2948778cbc53ea16e36b675f901f17a4", "name": "2948778cbc53ea16e36b675f901f17a4", "fusion_lon": 0.0, "lon": -77.02950216666666, "fusion_lat": 0.0}, {"lat": 38.913102, "type": "electric_scooter", "is_disabled": 0, "rental_uris": {"android": "https://dc.lft.to/lastmile_qr_scan", "ios": "https://dc.lft.to/lastmile_qr_scan"}, "is_reserved": 0, "bike_id": "50ad56b68ef18a421be4a6d8bdba0f40", "name": "50ad56b68ef18a421be4a6d8bdba0f40", "fusion_lon": 0.0, "lon": -77.02027166666667, "fusion_lat": 0.0}, {"lat": 38.913616166666664, "type": "electric_scooter", "is_disabled": 0, "rental_uris": {"android": "https://dc.lft.to/lastmile_qr_scan", "ios": "https://dc.lft.to/lastmile_qr_scan"}, "is_reserved": 0, "bike_id": "09fa5f84d438e38bdf597c83802bcfcb", "name": "09fa5f84d438e38bdf597c83802bcfcb", "fusion_lon": 0.0, "lon": -77.04157466666666, "fusion_lat": 0.0}, {"lat": 38.8866465, "type": "electric_scooter", "is_disabled": 0, "rental_uris": {"android": "https://dc.lft.to/lastmile_qr_scan", "ios": "https://dc.lft.to/lastmile_qr_scan"}, "is_reserved": 0, "bike_id": "bb01034d13659bfbd7bda94d609ce043", "name": "bb01034d13659bfbd7bda94d609ce043", "fusion_lon": 0.0, "lon": -77.0033735, "fusion_lat": 0.0}, {"lat": 39.05203733333333, "type": "electric_bike", "is_disabled": 0, "rental_uris": {"android": "https://dc.lft.to/lastmile_qr_scan", "ios": "https://dc.lft.to/lastmile_qr_scan"}, "is_reserved": 0, "bike_id": "63e42b6278e29edc3a7fcf6829aa5fb1", "name": "63e42b6278e29edc3a7fcf6829aa5fb1", "fusion_lon": 0.0, "lon": -77.04412366666666, "fusion_lat": 0.0}, {"lat": 38.88639783333333, "type": "electric_scooter", "is_disabled": 0, "rental_uris": {"android": "https://dc.lft.to/lastmile_qr_scan", "ios": "https://dc.lft.to/lastmile_qr_scan"}, "is_reserved": 0, "bike_id": "ff9f9d1a988c00328a90c377feed2153", "name": "ff9f9d1a988c00328a90c377feed2153", "fusion_lon": 0.0, "lon": -77.01362316666666, "fusion_lat": 0.0}, {"lat": 38.935260666666665, "type": "electric_scooter", "is_disabled": 0, "rental_uris": {"android": "https://dc.lft.to/lastmile_qr_scan", "ios": "https://dc.lft.to/lastmile_qr_scan"}, "is_reserved": 0, "bike_id": "15ecbf570e39c57858c3902842f2b4ea", "name": "15ecbf570e39c57858c3902842f2b4ea", "fusion_lon": 0.0, "lon": -77.03258916666667, "fusion_lat": 0.0}, {"lat": 38.8808015, "type": "electric_scooter", "is_disabled": 0, "rental_uris": {"android": "https://dc.lft.to/lastmile_qr_scan", "ios": "https://dc.lft.to/lastmile_qr_scan"}, "is_reserved": 0, "bike_id": "b4ee173e145ee4e82d8def006b3e71ec", "name": "b4ee173e145ee4e82d8def006b3e71ec", "fusion_lon": 0.0, "lon": -77.02581783333333, "fusion_lat": 0.0}, {"lat": 38.8759075, "type": "electric_scooter", "is_disabled": 0, "rental_uris": {"android": "https://dc.lft.to/lastmile_qr_scan", "ios": "https://dc.lft.to/lastmile_qr_scan"}, "is_reserved": 0, "bike_id": "ee0688835141b865f6585f5f957357c4", "name": "ee0688835141b865f6585f5f957357c4", "fusion_lon": 0.0, "lon": -77.00576883333333, "fusion_lat": 0.0}, {"lat": 38.905129, "type": "electric_scooter", "is_disabled": 0, "rental_uris": {"android": "https://dc.lft.to/lastmile_qr_scan", "ios": "https://dc.lft.to/lastmile_qr_scan"}, "is_reserved": 0, "bike_id": "40da2c53835d7dec7559b53aef8baf57", "name": "40da2c53835d7dec7559b53aef8baf57", "fusion_lon": 0.0, "lon": -77.05001933333334, "fusion_lat": 0.0}, {"lat": 38.897312166666666, "type": "electric_bike", "is_disabled": 0, "rental_uris": {"android": "https://dc.lft.to/lastmile_qr_scan", "ios": "https://dc.lft.to/lastmile_qr_scan"}, "is_reserved": 0, "bike_id": "3058e7477636b22028b036ab57b81a95", "name": "3058e7477636b22028b036ab57b81a95", "fusion_lon": 0.0, "lon": -76.90535783333333, "fusion_lat": 0.0}, {"lat": 38.905646833333336, "type": "electric_scooter", "is_disabled": 0, "rental_uris": {"android": "https://dc.lft.to/lastmile_qr_scan", "ios": "https://dc.lft.to/lastmile_qr_scan"}, "is_reserved": 0, "bike_id": "51ec2c4731e9df0487ed28d29b561ed3", "name": "51ec2c4731e9df0487ed28d29b561ed3", "fusion_lon": 0.0, "lon": -77.00618583333333, "fusion_lat": 0.0}, {"lat": 38.9098835, "type": "electric_scooter", "is_disabled": 0, "rental_uris": {"android": "https://dc.lft.to/lastmile_qr_scan", "ios": "https://dc.lft.to/lastmile_qr_scan"}, "is_reserved": 0, "bike_id": "66064a59c760e187fe7fca4602dbf7c5", "name": "66064a59c760e187fe7fca4602dbf7c5", "fusion_lon": 0.0, "lon": -77.00912933333333, "fusion_lat": 0.0}, {"lat": 38.902673166666666, "type": "electric_scooter", "is_disabled": 0, "rental_uris": {"android": "https://dc.lft.to/lastmile_qr_scan", "ios": "https://dc.lft.to/lastmile_qr_scan"}, "is_reserved": 0, "bike_id": "0846a63b30ceb3c5976429b03f5b7948", "name": "0846a63b30ceb3c5976429b03f5b7948", "fusion_lon": 0.0, "lon": -77.03838433333334, "fusion_lat": 0.0}, {"lat": 38.91908083333333, "type": "electric_scooter", "is_disabled": 0, "rental_uris": {"android": "https://dc.lft.to/lastmile_qr_scan", "ios": "https://dc.lft.to/lastmile_qr_scan"}, "is_reserved": 0, "bike_id": "590b4d4e8b5875463d1d03f6cd3f8b23", "name": "590b4d4e8b5875463d1d03f6cd3f8b23", "fusion_lon": 0.0, "lon": -77.0417415, "fusion_lat": 0.0}, {"lat": 38.9095985, "type": "electric_scooter", "is_disabled": 0, "rental_uris": {"android": "https://dc.lft.to/lastmile_qr_scan", "ios": "https://dc.lft.to/lastmile_qr_scan"}, "is_reserved": 0, "bike_id": "56d990bc7dc4b87c51a16e5518ef79d6", "name": "56d990bc7dc4b87c51a16e5518ef79d6", "fusion_lon": 0.0, "lon": -77.04459933333334, "fusion_lat": 0.0}, {"lat": 38.91657133333333, "type": "electric_scooter", "is_disabled": 0, "rental_uris": {"android": "https://dc.lft.to/lastmile_qr_scan", "ios": "https://dc.lft.to/lastmile_qr_scan"}, "is_reserved": 0, "bike_id": "a8c379ce0f951d915c6610ca4fcbd680", "name": "a8c379ce0f951d915c6610ca4fcbd680", "fusion_lon": 0.0, "lon": -77.04649233333333, "fusion_lat": 0.0}, {"lat": 38.8873735, "type": "electric_scooter", "is_disabled": 0, "rental_uris": {"android": "https://dc.lft.to/lastmile_qr_scan", "ios": "https://dc.lft.to/lastmile_qr_scan"}, "is_reserved": 0, "bike_id": "d49c3d1d7bc8fd68ff92c0742ffa1343", "name": "d49c3d1d7bc8fd68ff92c0742ffa1343", "fusion_lon": 0.0, "lon": -77.01535533333333, "fusion_lat": 0.0}, {"lat": 38.939036, "type": "electric_scooter", "is_disabled": 0, "rental_uris": {"android": "https://dc.lft.to/lastmile_qr_scan", "ios": "https://dc.lft.to/lastmile_qr_scan"}, "is_reserved": 0, "bike_id": "5fc5e03d0776a0895c0b0dacac90699f", "name": "5fc5e03d0776a0895c0b0dacac90699f", "fusion_lon": 0.0, "lon": -77.0247445, "fusion_lat": 0.0}, {"lat": 38.9499835, "type": "electric_bike", "is_disabled": 0, "rental_uris": {"android": "https://dc.lft.to/lastmile_qr_scan", "ios": "https://dc.lft.to/lastmile_qr_scan"}, "is_reserved": 0, "bike_id": "8f3703770676b5f9a91b78b73bd8b720", "name": "8f3703770676b5f9a91b78b73bd8b720", "fusion_lon": 0.0, "lon": -77.35309616666666, "fusion_lat": 0.0}, {"lat": 38.88743733333333, "type": "electric_scooter", "is_disabled": 0, "rental_uris": {"android": "https://dc.lft.to/lastmile_qr_scan", "ios": "https://dc.lft.to/lastmile_qr_scan"}, "is_reserved": 0, "bike_id": "cf0045b4352e208dde268c22db787570", "name": "cf0045b4352e208dde268c22db787570", "fusion_lon": 0.0, "lon": -77.022251, "fusion_lat": 0.0}, {"lat": 38.924562, "type": "electric_scooter", "is_disabled": 0, "rental_uris": {"android": "https://dc.lft.to/lastmile_qr_scan", "ios": "https://dc.lft.to/lastmile_qr_scan"}, "is_reserved": 0, "bike_id": "2bcb672c546aa0bcc455dd1c365b4d8e", "name": "2bcb672c546aa0bcc455dd1c365b4d8e", "fusion_lon": 0.0, "lon": -76.99738716666667, "fusion_lat": 0.0}, {"lat": 38.915957166666665, "type": "electric_scooter", "is_disabled": 0, "rental_uris": {"android": "https://dc.lft.to/lastmile_qr_scan", "ios": "https://dc.lft.to/lastmile_qr_scan"}, "is_reserved": 0, "bike_id": "26e283b3eea0269a57ee90e3ad5dc3d1", "name": "26e283b3eea0269a57ee90e3ad5dc3d1", "fusion_lon": 0.0, "lon": -77.04689683333334, "fusion_lat": 0.0}, {"lat": 38.89864933333333, "type": "electric_scooter", "is_disabled": 0, "rental_uris": {"android": "https://dc.lft.to/lastmile_qr_scan", "ios": "https://dc.lft.to/lastmile_qr_scan"}, "is_reserved": 0, "bike_id": "81d0c5135e5fc8d8cc0a21b8e0985c61", "name": "81d0c5135e5fc8d8cc0a21b8e0985c61", "fusion_lon": 0.0, "lon": -77.01631466666667, "fusion_lat": 0.0}, {"lat": 38.90146566666667, "type": "electric_scooter", "is_disabled": 0, "rental_uris": {"android": "https://dc.lft.to/lastmile_qr_scan", "ios": "https://dc.lft.to/lastmile_qr_scan"}, "is_reserved": 0, "bike_id": "b1fd351045f8035604f1910d47d9cef3", "name": "b1fd351045f8035604f1910d47d9cef3", "fusion_lon": 0.0, "lon": -77.04396766666666, "fusion_lat": 0.0}, {"lat": 38.908097, "type": "electric_scooter", "is_disabled": 0, "rental_uris": {"android": "https://dc.lft.to/lastmile_qr_scan", "ios": "https://dc.lft.to/lastmile_qr_scan"}, "is_reserved": 0, "bike_id": "8a7ba5e3a102ed975afeaff912edb58c", "name": "8a7ba5e3a102ed975afeaff912edb58c", "fusion_lon": 0.0, "lon": -77.03854983333333, "fusion_lat": 0.0}, {"lat": 38.920901, "type": "electric_scooter", "is_disabled": 0, "rental_uris": {"android": "https://dc.lft.to/lastmile_qr_scan", "ios": "https://dc.lft.to/lastmile_qr_scan"}, "is_reserved": 0, "bike_id": "96288323a1e4af696656bccb8cdf3124", "name": "96288323a1e4af696656bccb8cdf3124", "fusion_lon": 0.0, "lon": -77.02591983333333, "fusion_lat": 0.0}, {"lat": 38.906965, "type": "electric_bike", "is_disabled": 0, "rental_uris": {"android": "https://dc.lft.to/lastmile_qr_scan", "ios": "https://dc.lft.to/lastmile_qr_scan"}, "is_reserved": 0, "bike_id": "0345e06d37d8c880625643f038e0db6c", "name": "0345e06d37d8c880625643f038e0db6c", "fusion_lon": 0.0, "lon": -76.951915, "fusion_lat": 0.0}, {"lat": 38.91984383333333, "type": "electric_scooter", "is_disabled": 0, "rental_uris": {"android": "https://dc.lft.to/lastmile_qr_scan", "ios": "https://dc.lft.to/lastmile_qr_scan"}, "is_reserved": 0, "bike_id": "710b436528a31b536cb2ce2f54334d96", "name": "710b436528a31b536cb2ce2f54334d96", "fusion_lon": 0.0, "lon": -77.0416635, "fusion_lat": 0.0}, {"lat": 38.87722483333334, "type": "electric_scooter", "is_disabled": 0, "rental_uris": {"android": "https://dc.lft.to/lastmile_qr_scan", "ios": "https://dc.lft.to/lastmile_qr_scan"}, "is_reserved": 0, "bike_id": "354ba511f055920c275b4887986de836", "name": "354ba511f055920c275b4887986de836", "fusion_lon": 0.0, "lon": -77.01646966666667, "fusion_lat": 0.0}, {"lat": 38.8828725, "type": "electric_scooter", "is_disabled": 0, "rental_uris": {"android": "https://dc.lft.to/lastmile_qr_scan", "ios": "https://dc.lft.to/lastmile_qr_scan"}, "is_reserved": 0, "bike_id": "1d66299ee7ad8cb10edc529b1b5d8ac1", "name": "1d66299ee7ad8cb10edc529b1b5d8ac1", "fusion_lon": 0.0, "lon": -76.995091, "fusion_lat": 0.0}, {"lat": 38.91516766666667, "type": "electric_scooter", "is_disabled": 0, "rental_uris": {"android": "https://dc.lft.to/lastmile_qr_scan", "ios": "https://dc.lft.to/lastmile_qr_scan"}, "is_reserved": 0, "bike_id": "6925a2adf984493056c63996358590da", "name": "6925a2adf984493056c63996358590da", "fusion_lon": 0.0, "lon": -76.98348733333333, "fusion_lat": 0.0}, {"lat": 38.9118245, "type": "electric_scooter", "is_disabled": 0, "rental_uris": {"android": "https://dc.lft.to/lastmile_qr_scan", "ios": "https://dc.lft.to/lastmile_qr_scan"}, "is_reserved": 0, "bike_id": "20ed3d6c923c35b526dd41f5a54d3de5", "name": "20ed3d6c923c35b526dd41f5a54d3de5", "fusion_lon": 0.0, "lon": -77.00257683333334, "fusion_lat": 0.0}, {"lat": 38.9365075, "type": "electric_scooter", "is_disabled": 0, "rental_uris": {"android": "https://dc.lft.to/lastmile_qr_scan", "ios": "https://dc.lft.to/lastmile_qr_scan"}, "is_reserved": 0, "bike_id": "60f55423d886c9c49526aa9d07b67c6a", "name": "60f55423d886c9c49526aa9d07b67c6a", "fusion_lon": 0.0, "lon": -77.032807, "fusion_lat": 0.0}, {"lat": 38.88448433333333, "type": "electric_scooter", "is_disabled": 0, "rental_uris": {"android": "https://dc.lft.to/lastmile_qr_scan", "ios": "https://dc.lft.to/lastmile_qr_scan"}, "is_reserved": 0, "bike_id": "ff090b01d9be72fd5e95456d03967421", "name": "ff090b01d9be72fd5e95456d03967421", "fusion_lon": 0.0, "lon": -76.95097816666667, "fusion_lat": 0.0}, {"lat": 38.90383083333333, "type": "electric_scooter", "is_disabled": 0, "rental_uris": {"android": "https://dc.lft.to/lastmile_qr_scan", "ios": "https://dc.lft.to/lastmile_qr_scan"}, "is_reserved": 0, "bike_id": "4f7369909e6bbf784fb74a03e42fb83e", "name": "4f7369909e6bbf784fb74a03e42fb83e", "fusion_lon": 0.0, "lon": -77.034409, "fusion_lat": 0.0}, {"lat": 38.91392833333333, "type": "electric_scooter", "is_disabled": 0, "rental_uris": {"android": "https://dc.lft.to/lastmile_qr_scan", "ios": "https://dc.lft.to/lastmile_qr_scan"}, "is_reserved": 0, "bike_id": "8c328657a6e0711a0548c337af05d04e", "name": "8c328657a6e0711a0548c337af05d04e", "fusion_lon": 0.0, "lon": -77.0320915, "fusion_lat": 0.0}, {"lat": 38.892895833333334, "type": "electric_bike", "is_disabled": 0, "rental_uris": {"android": "https://dc.lft.to/lastmile_qr_scan", "ios": "https://dc.lft.to/lastmile_qr_scan"}, "is_reserved": 0, "bike_id": "4b7f20b6fa01f785d7119bb9198b7bb7", "name": "4b7f20b6fa01f785d7119bb9198b7bb7", "fusion_lon": 0.0, "lon": -76.97619783333333, "fusion_lat": 0.0}, {"lat": 38.93407666666667, "type": "electric_scooter", "is_disabled": 0, "rental_uris": {"android": "https://dc.lft.to/lastmile_qr_scan", "ios": "https://dc.lft.to/lastmile_qr_scan"}, "is_reserved": 0, "bike_id": "40e8e87b64d1458139b4423c34a0e7f3", "name": "40e8e87b64d1458139b4423c34a0e7f3", "fusion_lon": 0.0, "lon": -77.04266233333334, "fusion_lat": 0.0}, {"lat": 38.871692833333334, "type": "electric_scooter", "is_disabled": 0, "rental_uris": {"android": "https://dc.lft.to/lastmile_qr_scan", "ios": "https://dc.lft.to/lastmile_qr_scan"}, "is_reserved": 0, "bike_id": "81382e831bcbc27707fbc83ddd5ee217", "name": "81382e831bcbc27707fbc83ddd5ee217", "fusion_lon": 0.0, "lon": -77.00627116666666, "fusion_lat": 0.0}, {"lat": 38.907927, "type": "electric_scooter", "is_disabled": 0, "rental_uris": {"android": "https://dc.lft.to/lastmile_qr_scan", "ios": "https://dc.lft.to/lastmile_qr_scan"}, "is_reserved": 0, "bike_id": "2f03316e7ec0dcd38e4e1798537adb83", "name": "2f03316e7ec0dcd38e4e1798537adb83", "fusion_lon": 0.0, "lon": -77.04985233333333, "fusion_lat": 0.0}, {"lat": 38.885795, "type": "electric_scooter", "is_disabled": 0, "rental_uris": {"android": "https://dc.lft.to/lastmile_qr_scan", "ios": "https://dc.lft.to/lastmile_qr_scan"}, "is_reserved": 0, "bike_id": "6100b0205c756e1853d8c5df1ce864dc", "name": "6100b0205c756e1853d8c5df1ce864dc", "fusion_lon": 0.0, "lon": -77.0122295, "fusion_lat": 0.0}, {"lat": 38.921185, "type": "electric_scooter", "is_disabled": 0, "rental_uris": {"android": "https://dc.lft.to/lastmile_qr_scan", "ios": "https://dc.lft.to/lastmile_qr_scan"}, "is_reserved": 0, "bike_id": "3eec665fcad89966357546d6191c827e", "name": "3eec665fcad89966357546d6191c827e", "fusion_lon": 0.0, "lon": -77.03652666666666, "fusion_lat": 0.0}, {"lat": 38.9032485, "type": "electric_bike", "is_disabled": 0, "rental_uris": {"android": "https://dc.lft.to/lastmile_qr_scan", "ios": "https://dc.lft.to/lastmile_qr_scan"}, "is_reserved": 0, "bike_id": "a57579d83ef042537e98f835a185a74b", "name": "a57579d83ef042537e98f835a185a74b", "fusion_lon": 0.0, "lon": -76.97536583333333, "fusion_lat": 0.0}, {"lat": 38.896007833333336, "type": "electric_scooter", "is_disabled": 0, "rental_uris": {"android": "https://dc.lft.to/lastmile_qr_scan", "ios": "https://dc.lft.to/lastmile_qr_scan"}, "is_reserved": 0, "bike_id": "cad9a84b82d6d37593d0986d9746a082", "name": "cad9a84b82d6d37593d0986d9746a082", "fusion_lon": 0.0, "lon": -77.05437633333334, "fusion_lat": 0.0}, {"lat": 38.91611783333333, "type": "electric_scooter", "is_disabled": 0, "rental_uris": {"android": "https://dc.lft.to/lastmile_qr_scan", "ios": "https://dc.lft.to/lastmile_qr_scan"}, "is_reserved": 0, "bike_id": "cb3c542770d799f902a472017d1b6da7", "name": "cb3c542770d799f902a472017d1b6da7", "fusion_lon": 0.0, "lon": -77.02299016666667, "fusion_lat": 0.0}, {"lat": 38.920280166666664, "type": "electric_scooter", "is_disabled": 0, "rental_uris": {"android": "https://dc.lft.to/lastmile_qr_scan", "ios": "https://dc.lft.to/lastmile_qr_scan"}, "is_reserved": 0, "bike_id": "a370abfeb3b10d0dda56b7d3afc264e7", "name": "a370abfeb3b10d0dda56b7d3afc264e7", "fusion_lon": 0.0, "lon": -76.99563, "fusion_lat": 0.0}, {"lat": 38.91597266666667, "type": "electric_scooter", "is_disabled": 0, "rental_uris": {"android": "https://dc.lft.to/lastmile_qr_scan", "ios": "https://dc.lft.to/lastmile_qr_scan"}, "is_reserved": 0, "bike_id": "2aca51a57dba2374760c3ebf98811ed2", "name": "2aca51a57dba2374760c3ebf98811ed2", "fusion_lon": 0.0, "lon": -77.0234395, "fusion_lat": 0.0}, {"lat": 38.885136333333335, "type": "electric_scooter", "is_disabled": 0, "rental_uris": {"android": "https://dc.lft.to/lastmile_qr_scan", "ios": "https://dc.lft.to/lastmile_qr_scan"}, "is_reserved": 0, "bike_id": "fa9fd7bd5b1b2d9dc7bffa3cd9431425", "name": "fa9fd7bd5b1b2d9dc7bffa3cd9431425", "fusion_lon": 0.0, "lon": -76.94825916666667, "fusion_lat": 0.0}, {"lat": 38.90570133333333, "type": "electric_scooter", "is_disabled": 0, "rental_uris": {"android": "https://dc.lft.to/lastmile_qr_scan", "ios": "https://dc.lft.to/lastmile_qr_scan"}, "is_reserved": 0, "bike_id": "c32603c4fbd57febeda0789120db0bde", "name": "c32603c4fbd57febeda0789120db0bde", "fusion_lon": 0.0, "lon": -77.02213883333333, "fusion_lat": 0.0}, {"lat": 38.91578416666667, "type": "electric_scooter", "is_disabled": 0, "rental_uris": {"android": "https://dc.lft.to/lastmile_qr_scan", "ios": "https://dc.lft.to/lastmile_qr_scan"}, "is_reserved": 0, "bike_id": "b45a564d640f4cd1394dd5b667b92c2e", "name": "b45a564d640f4cd1394dd5b667b92c2e", "fusion_lon": 0.0, "lon": -77.02001583333333, "fusion_lat": 0.0}, {"lat": 38.910411, "type": "electric_scooter", "is_disabled": 0, "rental_uris": {"android": "https://dc.lft.to/lastmile_qr_scan", "ios": "https://dc.lft.to/lastmile_qr_scan"}, "is_reserved": 0, "bike_id": "b92cf9ad152c66d0e35e6e42d9b5e512", "name": "b92cf9ad152c66d0e35e6e42d9b5e512", "fusion_lon": 0.0, "lon": -77.03629566666666, "fusion_lat": 0.0}, {"lat": 38.9029025, "type": "electric_scooter", "is_disabled": 0, "rental_uris": {"android": "https://dc.lft.to/lastmile_qr_scan", "ios": "https://dc.lft.to/lastmile_qr_scan"}, "is_reserved": 0, "bike_id": "482bd7c3377889d97f437817828aa557", "name": "482bd7c3377889d97f437817828aa557", "fusion_lon": 0.0, "lon": -77.02107416666666, "fusion_lat": 0.0}, {"lat": 38.948910166666664, "type": "electric_bike", "is_disabled": 0, "rental_uris": {"android": "https://dc.lft.to/lastmile_qr_scan", "ios": "https://dc.lft.to/lastmile_qr_scan"}, "is_reserved": 0, "bike_id": "33191aaab4dcc6c06bf129cb76b58f8a", "name": "33191aaab4dcc6c06bf129cb76b58f8a", "fusion_lon": 0.0, "lon": -76.96370216666666, "fusion_lat": 0.0}, {"lat": 38.909607333333334, "type": "electric_scooter", "is_disabled": 0, "rental_uris": {"android": "https://dc.lft.to/lastmile_qr_scan", "ios": "https://dc.lft.to/lastmile_qr_scan"}, "is_reserved": 0, "bike_id": "ddb2bfcb5a3834de3e137d7615fa3b39", "name": "ddb2bfcb5a3834de3e137d7615fa3b39", "fusion_lon": 0.0, "lon": -77.03950833333333, "fusion_lat": 0.0}, {"lat": 38.876602, "type": "electric_scooter", "is_disabled": 0, "rental_uris": {"android": "https://dc.lft.to/lastmile_qr_scan", "ios": "https://dc.lft.to/lastmile_qr_scan"}, "is_reserved": 0, "bike_id": "e3ba4bb547284325a24c3bc116bf0d47", "name": "e3ba4bb547284325a24c3bc116bf0d47", "fusion_lon": 0.0, "lon": -77.0094195, "fusion_lat": 0.0}, {"lat": 38.933639166666666, "type": "electric_scooter", "is_disabled": 0, "rental_uris": {"android": "https://dc.lft.to/lastmile_qr_scan", "ios": "https://dc.lft.to/lastmile_qr_scan"}, "is_reserved": 0, "bike_id": "7e8f0f519648b11838bd13d243a20154", "name": "7e8f0f519648b11838bd13d243a20154", "fusion_lon": 0.0, "lon": -77.05744216666666, "fusion_lat": 0.0}, {"lat": 38.926686333333336, "type": "electric_scooter", "is_disabled": 0, "rental_uris": {"android": "https://dc.lft.to/lastmile_qr_scan", "ios": "https://dc.lft.to/lastmile_qr_scan"}, "is_reserved": 0, "bike_id": "bc88853de20cd17425bbd64103cc7c6e", "name": "bc88853de20cd17425bbd64103cc7c6e", "fusion_lon": 0.0, "lon": -77.0149955, "fusion_lat": 0.0}, {"lat": 38.8650355, "type": "electric_scooter", "is_disabled": 0, "rental_uris": {"android": "https://dc.lft.to/lastmile_qr_scan", "ios": "https://dc.lft.to/lastmile_qr_scan"}, "is_reserved": 0, "bike_id": "8a755a3891e73640d295c71ca8dbd305", "name": "8a755a3891e73640d295c71ca8dbd305", "fusion_lon": 0.0, "lon": -76.99004466666666, "fusion_lat": 0.0}, {"lat": 38.92811366666667, "type": "electric_scooter", "is_disabled": 0, "rental_uris": {"android": "https://dc.lft.to/lastmile_qr_scan", "ios": "https://dc.lft.to/lastmile_qr_scan"}, "is_reserved": 0, "bike_id": "5db36933524fe82e1804d9c8ef9af8c2", "name": "5db36933524fe82e1804d9c8ef9af8c2", "fusion_lon": 0.0, "lon": -77.02347516666667, "fusion_lat": 0.0}, {"lat": 39.052666, "type": "electric_bike", "is_disabled": 0, "rental_uris": {"android": "https://dc.lft.to/lastmile_qr_scan", "ios": "https://dc.lft.to/lastmile_qr_scan"}, "is_reserved": 0, "bike_id": "af9b43f039d808918d3044c1a8b175ff", "name": "af9b43f039d808918d3044c1a8b175ff", "fusion_lon": 0.0, "lon": -77.04384683333333, "fusion_lat": 0.0}, {"lat": 38.91506566666666, "type": "electric_scooter", "is_disabled": 0, "rental_uris": {"android": "https://dc.lft.to/lastmile_qr_scan", "ios": "https://dc.lft.to/lastmile_qr_scan"}, "is_reserved": 0, "bike_id": "9ffb779a085d51add208448e2f9a8561", "name": "9ffb779a085d51add208448e2f9a8561", "fusion_lon": 0.0, "lon": -77.01835316666667, "fusion_lat": 0.0}, {"lat": 38.89744116666667, "type": "electric_scooter", "is_disabled": 0, "rental_uris": {"android": "https://dc.lft.to/lastmile_qr_scan", "ios": "https://dc.lft.to/lastmile_qr_scan"}, "is_reserved": 0, "bike_id": "dddbb271f5a859d14dc34fdd89814ed9", "name": "dddbb271f5a859d14dc34fdd89814ed9", "fusion_lon": 0.0, "lon": -77.04694733333334, "fusion_lat": 0.0}, {"lat": 38.908281, "type": "electric_scooter", "is_disabled": 0, "rental_uris": {"android": "https://dc.lft.to/lastmile_qr_scan", "ios": "https://dc.lft.to/lastmile_qr_scan"}, "is_reserved": 0, "bike_id": "30007e7bbe925025c8cc29988fde31ac", "name": "30007e7bbe925025c8cc29988fde31ac", "fusion_lon": 0.0, "lon": -76.99697383333333, "fusion_lat": 0.0}, {"lat": 38.942701166666666, "type": "electric_scooter", "is_disabled": 0, "rental_uris": {"android": "https://dc.lft.to/lastmile_qr_scan", "ios": "https://dc.lft.to/lastmile_qr_scan"}, "is_reserved": 0, "bike_id": "d209a06577eebde59d4f2a4c49681cdb", "name": "d209a06577eebde59d4f2a4c49681cdb", "fusion_lon": 0.0, "lon": -77.02942933333334, "fusion_lat": 0.0}, {"lat": 39.03001416666667, "type": "electric_bike", "is_disabled": 0, "rental_uris": {"android": "https://dc.lft.to/lastmile_qr_scan", "ios": "https://dc.lft.to/lastmile_qr_scan"}, "is_reserved": 0, "bike_id": "c9e6077e586bcd1f1bc7f8565340d923", "name": "c9e6077e586bcd1f1bc7f8565340d923", "fusion_lon": 0.0, "lon": -77.10656033333333, "fusion_lat": 0.0}, {"lat": 38.98559483333333, "type": "electric_bike", "is_disabled": 0, "rental_uris": {"android": "https://dc.lft.to/lastmile_qr_scan", "ios": "https://dc.lft.to/lastmile_qr_scan"}, "is_reserved": 0, "bike_id": "8c3242d32cab6f07d27703a6cf3f7572", "name": "8c3242d32cab6f07d27703a6cf3f7572", "fusion_lon": 0.0, "lon": -76.988309, "fusion_lat": 0.0}, {"lat": 38.842923, "type": "electric_scooter", "is_disabled": 0, "rental_uris": {"android": "https://dc.lft.to/lastmile_qr_scan", "ios": "https://dc.lft.to/lastmile_qr_scan"}, "is_reserved": 0, "bike_id": "1269e7d4448db2205f8989f0fced001b", "name": "1269e7d4448db2205f8989f0fced001b", "fusion_lon": 0.0, "lon": -76.99946433333334, "fusion_lat": 0.0}, {"lat": 38.9223185, "type": "electric_scooter", "is_disabled": 0, "rental_uris": {"android": "https://dc.lft.to/lastmile_qr_scan", "ios": "https://dc.lft.to/lastmile_qr_scan"}, "is_reserved": 0, "bike_id": "48368ba277361bbca8c43d4a91029744", "name": "48368ba277361bbca8c43d4a91029744", "fusion_lon": 0.0, "lon": -77.03354066666667, "fusion_lat": 0.0}, {"lat": 38.932965, "type": "electric_scooter", "is_disabled": 0, "rental_uris": {"android": "https://dc.lft.to/lastmile_qr_scan", "ios": "https://dc.lft.to/lastmile_qr_scan"}, "is_reserved": 0, "bike_id": "b925e42322545bec8cdd3ab20b6b8559", "name": "b925e42322545bec8cdd3ab20b6b8559", "fusion_lon": 0.0, "lon": -77.028484, "fusion_lat": 0.0}, {"lat": 38.905343, "type": "electric_scooter", "is_disabled": 0, "rental_uris": {"android": "https://dc.lft.to/lastmile_qr_scan", "ios": "https://dc.lft.to/lastmile_qr_scan"}, "is_reserved": 0, "bike_id": "deaf946cda402fe9d88c5f4365478cbe", "name": "deaf946cda402fe9d88c5f4365478cbe", "fusion_lon": 0.0, "lon": -77.05084216666667, "fusion_lat": 0.0}, {"lat": 38.916718333333336, "type": "electric_scooter", "is_disabled": 0, "rental_uris": {"android": "https://dc.lft.to/lastmile_qr_scan", "ios": "https://dc.lft.to/lastmile_qr_scan"}, "is_reserved": 0, "bike_id": "a545f186cc36a7aa9de8748c0d9e9d63", "name": "a545f186cc36a7aa9de8748c0d9e9d63", "fusion_lon": 0.0, "lon": -76.9806425, "fusion_lat": 0.0}, {"lat": 38.898587, "type": "electric_scooter", "is_disabled": 0, "rental_uris": {"android": "https://dc.lft.to/lastmile_qr_scan", "ios": "https://dc.lft.to/lastmile_qr_scan"}, "is_reserved": 0, "bike_id": "905959360bb34958567af3e4116b0570", "name": "905959360bb34958567af3e4116b0570", "fusion_lon": 0.0, "lon": -77.0392125, "fusion_lat": 0.0}, {"lat": 38.897049, "type": "electric_scooter", "is_disabled": 0, "rental_uris": {"android": "https://dc.lft.to/lastmile_qr_scan", "ios": "https://dc.lft.to/lastmile_qr_scan"}, "is_reserved": 0, "bike_id": "8c0be96d3a3727698f7884637c798694", "name": "8c0be96d3a3727698f7884637c798694", "fusion_lon": 0.0, "lon": -77.02789033333333, "fusion_lat": 0.0}, {"lat": 38.85777933333333, "type": "electric_bike", "is_disabled": 0, "rental_uris": {"android": "https://dc.lft.to/lastmile_qr_scan", "ios": "https://dc.lft.to/lastmile_qr_scan"}, "is_reserved": 0, "bike_id": "1343c22139d74444f883bc05f43922e7", "name": "1343c22139d74444f883bc05f43922e7", "fusion_lon": 0.0, "lon": -76.98748366666666, "fusion_lat": 0.0}, {"lat": 38.902737333333334, "type": "electric_scooter", "is_disabled": 0, "rental_uris": {"android": "https://dc.lft.to/lastmile_qr_scan", "ios": "https://dc.lft.to/lastmile_qr_scan"}, "is_reserved": 0, "bike_id": "33f61630f62702f72897e29469d29483", "name": "33f61630f62702f72897e29469d29483", "fusion_lon": 0.0, "lon": -76.94277516666666, "fusion_lat": 0.0}, {"lat": 38.901505666666665, "type": "electric_scooter", "is_disabled": 0, "rental_uris": {"android": "https://dc.lft.to/lastmile_qr_scan", "ios": "https://dc.lft.to/lastmile_qr_scan"}, "is_reserved": 0, "bike_id": "90252278da8596f0e3f5ab519f531ad2", "name": "90252278da8596f0e3f5ab519f531ad2", "fusion_lon": 0.0, "lon": -77.0404675, "fusion_lat": 0.0}, {"lat": 38.92117866666667, "type": "electric_scooter", "is_disabled": 0, "rental_uris": {"android": "https://dc.lft.to/lastmile_qr_scan", "ios": "https://dc.lft.to/lastmile_qr_scan"}, "is_reserved": 0, "bike_id": "d49a40a42b21ab13a9a9c6543b8074eb", "name": "d49a40a42b21ab13a9a9c6543b8074eb", "fusion_lon": 0.0, "lon": -76.99393016666667, "fusion_lat": 0.0}, {"lat": 38.96642966666667, "type": "electric_bike", "is_disabled": 0, "rental_uris": {"android": "https://dc.lft.to/lastmile_qr_scan", "ios": "https://dc.lft.to/lastmile_qr_scan"}, "is_reserved": 0, "bike_id": "1a95f56b7f7e361cfdc64801a3b940f7", "name": "1a95f56b7f7e361cfdc64801a3b940f7", "fusion_lon": 0.0, "lon": -76.93020066666666, "fusion_lat": 0.0}, {"lat": 38.941933666666664, "type": "electric_scooter", "is_disabled": 0, "rental_uris": {"android": "https://dc.lft.to/lastmile_qr_scan", "ios": "https://dc.lft.to/lastmile_qr_scan"}, "is_reserved": 0, "bike_id": "846b124b8aefdfa9336c21a2398f8426", "name": "846b124b8aefdfa9336c21a2398f8426", "fusion_lon": 0.0, "lon": -77.03327566666667, "fusion_lat": 0.0}, {"lat": 38.8986525, "type": "electric_scooter", "is_disabled": 0, "rental_uris": {"android": "https://dc.lft.to/lastmile_qr_scan", "ios": "https://dc.lft.to/lastmile_qr_scan"}, "is_reserved": 0, "bike_id": "7b616d886e82d794b5ad43d9e7b7896b", "name": "7b616d886e82d794b5ad43d9e7b7896b", "fusion_lon": 0.0, "lon": -77.03345533333334, "fusion_lat": 0.0}, {"lat": 38.90831033333333, "type": "electric_scooter", "is_disabled": 0, "rental_uris": {"android": "https://dc.lft.to/lastmile_qr_scan", "ios": "https://dc.lft.to/lastmile_qr_scan"}, "is_reserved": 0, "bike_id": "201706f51f38a44da4cfc129791ef16b", "name": "201706f51f38a44da4cfc129791ef16b", "fusion_lon": 0.0, "lon": -77.04881966666666, "fusion_lat": 0.0}, {"lat": 38.898088333333334, "type": "electric_scooter", "is_disabled": 0, "rental_uris": {"android": "https://dc.lft.to/lastmile_qr_scan", "ios": "https://dc.lft.to/lastmile_qr_scan"}, "is_reserved": 0, "bike_id": "0324ddcf46c17fb684bbd6ce512b8a15", "name": "0324ddcf46c17fb684bbd6ce512b8a15", "fusion_lon": 0.0, "lon": -77.048912, "fusion_lat": 0.0}, {"lat": 38.90317483333333, "type": "electric_scooter", "is_disabled": 0, "rental_uris": {"android": "https://dc.lft.to/lastmile_qr_scan", "ios": "https://dc.lft.to/lastmile_qr_scan"}, "is_reserved": 0, "bike_id": "c84fe9856e7716f005d6835a926b1c1a", "name": "c84fe9856e7716f005d6835a926b1c1a", "fusion_lon": 0.0, "lon": -77.03476883333333, "fusion_lat": 0.0}, {"lat": 38.95399333333334, "type": "electric_scooter", "is_disabled": 0, "rental_uris": {"android": "https://dc.lft.to/lastmile_qr_scan", "ios": "https://dc.lft.to/lastmile_qr_scan"}, "is_reserved": 0, "bike_id": "0ef597b2c43bdc360f49978376151711", "name": "0ef597b2c43bdc360f49978376151711", "fusion_lon": 0.0, "lon": -77.02748416666667, "fusion_lat": 0.0}, {"lat": 38.9561595, "type": "electric_scooter", "is_disabled": 0, "rental_uris": {"android": "https://dc.lft.to/lastmile_qr_scan", "ios": "https://dc.lft.to/lastmile_qr_scan"}, "is_reserved": 0, "bike_id": "44e630216ed92c341d7a5f1bc713b0a7", "name": "44e630216ed92c341d7a5f1bc713b0a7", "fusion_lon": 0.0, "lon": -77.0328235, "fusion_lat": 0.0}, {"lat": 38.903814833333335, "type": "electric_scooter", "is_disabled": 0, "rental_uris": {"android": "https://dc.lft.to/lastmile_qr_scan", "ios": "https://dc.lft.to/lastmile_qr_scan"}, "is_reserved": 0, "bike_id": "52713f5213c8210f3232e8f0a9dcc783", "name": "52713f5213c8210f3232e8f0a9dcc783", "fusion_lon": 0.0, "lon": -77.06288383333333, "fusion_lat": 0.0}, {"lat": 38.90731266666667, "type": "electric_scooter", "is_disabled": 0, "rental_uris": {"android": "https://dc.lft.to/lastmile_qr_scan", "ios": "https://dc.lft.to/lastmile_qr_scan"}, "is_reserved": 0, "bike_id": "cde12e3e5bf29736e9433f7718cc8c47", "name": "cde12e3e5bf29736e9433f7718cc8c47", "fusion_lon": 0.0, "lon": -77.0259285, "fusion_lat": 0.0}, {"lat": 38.88631083333333, "type": "electric_scooter", "is_disabled": 0, "rental_uris": {"android": "https://dc.lft.to/lastmile_qr_scan", "ios": "https://dc.lft.to/lastmile_qr_scan"}, "is_reserved": 0, "bike_id": "d589ec8b3307d3dbbe152926b3485162", "name": "d589ec8b3307d3dbbe152926b3485162", "fusion_lon": 0.0, "lon": -77.021653, "fusion_lat": 0.0}, {"lat": 38.93569683333333, "type": "electric_scooter", "is_disabled": 0, "rental_uris": {"android": "https://dc.lft.to/lastmile_qr_scan", "ios": "https://dc.lft.to/lastmile_qr_scan"}, "is_reserved": 0, "bike_id": "1bf8e3efee024751ce7f7b095d465f71", "name": "1bf8e3efee024751ce7f7b095d465f71", "fusion_lon": 0.0, "lon": -77.0212205, "fusion_lat": 0.0}, {"lat": 38.925991, "type": "electric_scooter", "is_disabled": 0, "rental_uris": {"android": "https://dc.lft.to/lastmile_qr_scan", "ios": "https://dc.lft.to/lastmile_qr_scan"}, "is_reserved": 0, "bike_id": "742c2537d5b5e952b2f3605d57785c04", "name": "742c2537d5b5e952b2f3605d57785c04", "fusion_lon": 0.0, "lon": -77.02156216666667, "fusion_lat": 0.0}, {"lat": 38.905255, "type": "electric_scooter", "is_disabled": 0, "rental_uris": {"android": "https://dc.lft.to/lastmile_qr_scan", "ios": "https://dc.lft.to/lastmile_qr_scan"}, "is_reserved": 0, "bike_id": "1ad0acd71d6287a8e6455d78c19d3838", "name": "1ad0acd71d6287a8e6455d78c19d3838", "fusion_lon": 0.0, "lon": -77.0502095, "fusion_lat": 0.0}, {"lat": 38.899115333333334, "type": "electric_scooter", "is_disabled": 0, "rental_uris": {"android": "https://dc.lft.to/lastmile_qr_scan", "ios": "https://dc.lft.to/lastmile_qr_scan"}, "is_reserved": 0, "bike_id": "838dffcab104baa4833c69c075edefe7", "name": "838dffcab104baa4833c69c075edefe7", "fusion_lon": 0.0, "lon": -76.933686, "fusion_lat": 0.0}, {"lat": 38.89913266666667, "type": "electric_scooter", "is_disabled": 0, "rental_uris": {"android": "https://dc.lft.to/lastmile_qr_scan", "ios": "https://dc.lft.to/lastmile_qr_scan"}, "is_reserved": 0, "bike_id": "d473fc4addcf4d395b9f70895800d664", "name": "d473fc4addcf4d395b9f70895800d664", "fusion_lon": 0.0, "lon": -77.03303283333334, "fusion_lat": 0.0}, {"lat": 38.908142166666664, "type": "electric_scooter", "is_disabled": 0, "rental_uris": {"android": "https://dc.lft.to/lastmile_qr_scan", "ios": "https://dc.lft.to/lastmile_qr_scan"}, "is_reserved": 0, "bike_id": "d87ce63f85be848e33e185a25bda7731", "name": "d87ce63f85be848e33e185a25bda7731", "fusion_lon": 0.0, "lon": -77.03942883333333, "fusion_lat": 0.0}, {"lat": 39.105649, "type": "electric_bike", "is_disabled": 0, "rental_uris": {"android": "https://dc.lft.to/lastmile_qr_scan", "ios": "https://dc.lft.to/lastmile_qr_scan"}, "is_reserved": 0, "bike_id": "6151a203677cd2963ded1a0c81dd8078", "name": "6151a203677cd2963ded1a0c81dd8078", "fusion_lon": 0.0, "lon": -77.15269433333333, "fusion_lat": 0.0}, {"lat": 38.95586483333334, "type": "electric_scooter", "is_disabled": 0, "rental_uris": {"android": "https://dc.lft.to/lastmile_qr_scan", "ios": "https://dc.lft.to/lastmile_qr_scan"}, "is_reserved": 0, "bike_id": "0584228a9851e8234789e66bdc40a963", "name": "0584228a9851e8234789e66bdc40a963", "fusion_lon": 0.0, "lon": -77.03650383333333, "fusion_lat": 0.0}, {"lat": 38.918351, "type": "electric_scooter", "is_disabled": 0, "rental_uris": {"android": "https://dc.lft.to/lastmile_qr_scan", "ios": "https://dc.lft.to/lastmile_qr_scan"}, "is_reserved": 0, "bike_id": "98f53c6829d0692f2004e4c4b3ea77eb", "name": "98f53c6829d0692f2004e4c4b3ea77eb", "fusion_lon": 0.0, "lon": -77.032064, "fusion_lat": 0.0}, {"lat": 38.887511833333335, "type": "electric_bike", "is_disabled": 0, "rental_uris": {"android": "https://dc.lft.to/lastmile_qr_scan", "ios": "https://dc.lft.to/lastmile_qr_scan"}, "is_reserved": 0, "bike_id": "8246adab712ac863af2058f2ba41b25a", "name": "8246adab712ac863af2058f2ba41b25a", "fusion_lon": 0.0, "lon": -76.9008295, "fusion_lat": 0.0}, {"lat": 38.8921925, "type": "electric_scooter", "is_disabled": 0, "rental_uris": {"android": "https://dc.lft.to/lastmile_qr_scan", "ios": "https://dc.lft.to/lastmile_qr_scan"}, "is_reserved": 0, "bike_id": "883108918f5c28e4171f98d9cb45af19", "name": "883108918f5c28e4171f98d9cb45af19", "fusion_lon": 0.0, "lon": -77.01384683333333, "fusion_lat": 0.0}, {"lat": 38.86413116666667, "type": "electric_scooter", "is_disabled": 0, "rental_uris": {"android": "https://dc.lft.to/lastmile_qr_scan", "ios": "https://dc.lft.to/lastmile_qr_scan"}, "is_reserved": 0, "bike_id": "c07aaab4510b0a7c9ad28311d3b07af2", "name": "c07aaab4510b0a7c9ad28311d3b07af2", "fusion_lon": 0.0, "lon": -77.01200283333333, "fusion_lat": 0.0}, {"lat": 38.9244005, "type": "electric_bike", "is_disabled": 0, "rental_uris": {"android": "https://dc.lft.to/lastmile_qr_scan", "ios": "https://dc.lft.to/lastmile_qr_scan"}, "is_reserved": 0, "bike_id": "070decef48cc541b2d70cba29e62ebcc", "name": "070decef48cc541b2d70cba29e62ebcc", "fusion_lon": 0.0, "lon": -76.96838766666667, "fusion_lat": 0.0}, {"lat": 38.90419466666667, "type": "electric_scooter", "is_disabled": 0, "rental_uris": {"android": "https://dc.lft.to/lastmile_qr_scan", "ios": "https://dc.lft.to/lastmile_qr_scan"}, "is_reserved": 0, "bike_id": "5fb4fbcb9f5c36933db877aa8e6bfba0", "name": "5fb4fbcb9f5c36933db877aa8e6bfba0", "fusion_lon": 0.0, "lon": -77.02573383333333, "fusion_lat": 0.0}, {"lat": 38.899766666666665, "type": "electric_scooter", "is_disabled": 0, "rental_uris": {"android": "https://dc.lft.to/lastmile_qr_scan", "ios": "https://dc.lft.to/lastmile_qr_scan"}, "is_reserved": 0, "bike_id": "f286afb7f01e7de54563f27227eaa13f", "name": "f286afb7f01e7de54563f27227eaa13f", "fusion_lon": 0.0, "lon": -77.04191083333333, "fusion_lat": 0.0}, {"lat": 38.907014833333335, "type": "electric_scooter", "is_disabled": 0, "rental_uris": {"android": "https://dc.lft.to/lastmile_qr_scan", "ios": "https://dc.lft.to/lastmile_qr_scan"}, "is_reserved": 0, "bike_id": "79fed12b428c929d685801bd0c7735d8", "name": "79fed12b428c929d685801bd0c7735d8", "fusion_lon": 0.0, "lon": -77.06311683333334, "fusion_lat": 0.0}, {"lat": 38.92436166666667, "type": "electric_bike", "is_disabled": 0, "rental_uris": {"android": "https://dc.lft.to/lastmile_qr_scan", "ios": "https://dc.lft.to/lastmile_qr_scan"}, "is_reserved": 0, "bike_id": "98fb1c3af54bb37e5efcc0e4d62f720d", "name": "98fb1c3af54bb37e5efcc0e4d62f720d", "fusion_lon": 0.0, "lon": -76.9075975, "fusion_lat": 0.0}, {"lat": 38.9084685, "type": "electric_scooter", "is_disabled": 0, "rental_uris": {"android": "https://dc.lft.to/lastmile_qr_scan", "ios": "https://dc.lft.to/lastmile_qr_scan"}, "is_reserved": 0, "bike_id": "fc83a3edc4dc343e0ef32a827eb3eeac", "name": "fc83a3edc4dc343e0ef32a827eb3eeac", "fusion_lon": 0.0, "lon": -77.03858516666666, "fusion_lat": 0.0}, {"lat": 38.91436683333333, "type": "electric_scooter", "is_disabled": 0, "rental_uris": {"android": "https://dc.lft.to/lastmile_qr_scan", "ios": "https://dc.lft.to/lastmile_qr_scan"}, "is_reserved": 0, "bike_id": "7a205228fc614dd02debd93d1ef62f3b", "name": "7a205228fc614dd02debd93d1ef62f3b", "fusion_lon": 0.0, "lon": -77.00915333333333, "fusion_lat": 0.0}, {"lat": 38.89223166666667, "type": "electric_scooter", "is_disabled": 0, "rental_uris": {"android": "https://dc.lft.to/lastmile_qr_scan", "ios": "https://dc.lft.to/lastmile_qr_scan"}, "is_reserved": 0, "bike_id": "5b36e4f2c0dea0513ae5e26119775115", "name": "5b36e4f2c0dea0513ae5e26119775115", "fusion_lon": 0.0, "lon": -77.04369766666667, "fusion_lat": 0.0}, {"lat": 38.91683316666666, "type": "electric_scooter", "is_disabled": 0, "rental_uris": {"android": "https://dc.lft.to/lastmile_qr_scan", "ios": "https://dc.lft.to/lastmile_qr_scan"}, "is_reserved": 0, "bike_id": "8dadbba200c879d65740b6f7acad046c", "name": "8dadbba200c879d65740b6f7acad046c", "fusion_lon": 0.0, "lon": -77.02969, "fusion_lat": 0.0}, {"lat": 38.91952966666667, "type": "electric_scooter", "is_disabled": 0, "rental_uris": {"android": "https://dc.lft.to/lastmile_qr_scan", "ios": "https://dc.lft.to/lastmile_qr_scan"}, "is_reserved": 0, "bike_id": "bfbf68cc0f284c7ad5a36d2d6cbc377c", "name": "bfbf68cc0f284c7ad5a36d2d6cbc377c", "fusion_lon": 0.0, "lon": -77.04156033333334, "fusion_lat": 0.0}, {"lat": 38.895529833333335, "type": "electric_scooter", "is_disabled": 0, "rental_uris": {"android": "https://dc.lft.to/lastmile_qr_scan", "ios": "https://dc.lft.to/lastmile_qr_scan"}, "is_reserved": 0, "bike_id": "68dfe714819fc3ce35c73f9783fef41a", "name": "68dfe714819fc3ce35c73f9783fef41a", "fusion_lon": 0.0, "lon": -77.02429566666666, "fusion_lat": 0.0}, {"lat": 38.91591433333333, "type": "electric_scooter", "is_disabled": 0, "rental_uris": {"android": "https://dc.lft.to/lastmile_qr_scan", "ios": "https://dc.lft.to/lastmile_qr_scan"}, "is_reserved": 0, "bike_id": "33f4514b606e1e7f659847b102b5444b", "name": "33f4514b606e1e7f659847b102b5444b", "fusion_lon": 0.0, "lon": -77.04688683333333, "fusion_lat": 0.0}, {"lat": 38.90326483333333, "type": "electric_scooter", "is_disabled": 0, "rental_uris": {"android": "https://dc.lft.to/lastmile_qr_scan", "ios": "https://dc.lft.to/lastmile_qr_scan"},