{"data": {"bikes": [{"rental_uris": {"android": "https://dc.lft.to/lastmile_qr_scan", "ios": "https://dc.lft.to/lastmile_qr_scan"}, "bike_id": "2d35e21cb230584e523fc2499411a22f", "name": "2d35e21cb230584e523fc2499411a22f", "type": "electric_scooter", "lon": -77.03857933333333, "lat": 38.91019816666667, "is_disabled": 0, "is_reserved": 0, "fusion_lat": 0.0, "fusion_lon": 0.0}, {"rental_uris": {"android": "https://dc.lft.to/lastmile_qr_scan", "ios": "https://dc.lft.to/lastmile_qr_scan"}, "bike_id": "d7977755998b6f4ea5962ee1f6fb2d75", "name": "d7977755998b6f4ea5962ee1f6fb2d75", "type": "electric_scooter", "lon": -77.04489383333333, "lat": 38.90850316666667, "is_disabled": 0, "is_reserved": 0, "fusion_lat": 0.0, "fusion_lon": 0.0}, {"rental_uris": {"android": "https://dc.lft.to/lastmile_qr_scan", "ios": "https://dc.lft.to/lastmile_qr_scan"}, "bike_id": "3cbec132f9c89467db4cab67fa68baa9", "name": "3cbec132f9c89467db4cab67fa68baa9", "type": "electric_scooter", "lon": -77.03522083333333, "lat": 38.92215766666666, "is_disabled": 0, "is_reserved": 0, "fusion_lat": 0.0, "fusion_lon": 0.0}, {"rental_uris": {"android": "https://dc.lft.to/lastmile_qr_scan", "ios": "https://dc.lft.to/lastmile_qr_scan"}, "bike_id": "c0c1163f3bd500d3482726b6a901fce9", "name": "c0c1163f3bd500d3482726b6a901fce9", "type": "electric_scooter", "lon": -77.04513466666667, "lat": 38.89222566666667, "is_disabled": 0, "is_reserved": 0, "fusion_lat": 0.0, "fusion_lon": 0.0}, {"rental_uris": {"android": "https://dc.lft.to/lastmile_qr_scan", "ios": "https://dc.lft.to/lastmile_qr_scan"}, "bike_id": "1ee42b0f8df3b615973003e25852f0a9", "name": "1ee42b0f8df3b615973003e25852f0a9", "type": "electric_scooter", "lon": -77.00200466666666, "lat": 38.893525333333336, "is_disabled": 0, "is_reserved": 0, "fusion_lat": 0.0, "fusion_lon": 0.0}, {"rental_uris": {"android": "https://dc.lft.to/lastmile_qr_scan", "ios": "https://dc.lft.to/lastmile_qr_scan"}, "bike_id": "88fe6c6d86335140596adaf22c2b1371", "name": "88fe6c6d86335140596adaf22c2b1371", "type": "electric_scooter", "lon": -77.004961, "lat": 38.896875333333334, "is_disabled": 0, "is_reserved": 0, "fusion_lat": 0.0, "fusion_lon": 0.0}, {"rental_uris": {"android": "https://dc.lft.to/lastmile_qr_scan", "ios": "https://dc.lft.to/lastmile_qr_scan"}, "bike_id": "a1f271bcbc896627b3f81973a7997f9f", "name": "a1f271bcbc896627b3f81973a7997f9f", "type": "electric_scooter", "lon": -77.04441266666667, "lat": 38.911167166666665, "is_disabled": 0, "is_reserved": 0, "fusion_lat": 0.0, "fusion_lon": 0.0}, {"rental_uris": {"android": "https://dc.lft.to/lastmile_qr_scan", "ios": "https://dc.lft.to/lastmile_qr_scan"}, "bike_id": "9ee62ae0cc09e9cbece73e738b18e41f", "name": "9ee62ae0cc09e9cbece73e738b18e41f", "type": "electric_scooter", "lon": -77.04193133333334, "lat": 38.893631, "is_disabled": 0, "is_reserved": 0, "fusion_lat": 0.0, "fusion_lon": 0.0}, {"rental_uris": {"android": "https://dc.lft.to/lastmile_qr_scan", "ios": "https://dc.lft.to/lastmile_qr_scan"}, "bike_id": "f8ce7fd82f30103035b6d428a731da38", "name": "f8ce7fd82f30103035b6d428a731da38", "type": "electric_bike", "lon": -77.120174, "lat": 38.85526866666667, "is_disabled": 0, "is_reserved": 0, "fusion_lat": 0.0, "fusion_lon": 0.0}, {"rental_uris": {"android": "https://dc.lft.to/lastmile_qr_scan", "ios": "https://dc.lft.to/lastmile_qr_scan"}, "bike_id": "a17411725cfc01f549b42cacdd1f38ac", "name": "a17411725cfc01f549b42cacdd1f38ac", "type": "electric_scooter", "lon": -77.03423116666667, "lat": 38.922446666666666, "is_disabled": 0, "is_reserved": 0, "fusion_lat": 0.0, "fusion_lon": 0.0}, {"rental_uris": {"android": "https://dc.lft.to/lastmile_qr_scan", "ios": "https://dc.lft.to/lastmile_qr_scan"}, "bike_id": "b591f66d4dc5ab91163dca1c7fe4b025", "name": "b591f66d4dc5ab91163dca1c7fe4b025", "type": "electric_scooter", "lon": -77.04478116666667, "lat": 38.918677333333335, "is_disabled": 0, "is_reserved": 0, "fusion_lat": 0.0, "fusion_lon": 0.0}, {"rental_uris": {"android": "https://dc.lft.to/lastmile_qr_scan", "ios": "https://dc.lft.to/lastmile_qr_scan"}, "bike_id": "9ebe35e9523b482fda0bef6ecc6b4ba4", "name": "9ebe35e9523b482fda0bef6ecc6b4ba4", "type": "electric_scooter", "lon": -77.04519566666667, "lat": 38.90280933333333, "is_disabled": 0, "is_reserved": 0, "fusion_lat": 0.0, "fusion_lon": 0.0}, {"rental_uris": {"android": "https://dc.lft.to/lastmile_qr_scan", "ios": "https://dc.lft.to/lastmile_qr_scan"}, "bike_id": "78d30a37c87d31ee520881e6c737a686", "name": "78d30a37c87d31ee520881e6c737a686", "type": "electric_scooter", "lon": -76.94189083333333, "lat": 38.89750566666667, "is_disabled": 0, "is_reserved": 0, "fusion_lat": 0.0, "fusion_lon": 0.0}, {"rental_uris": {"android": "https://dc.lft.to/lastmile_qr_scan", "ios": "https://dc.lft.to/lastmile_qr_scan"}, "bike_id": "096b5c931d405f5958baced81507b144", "name": "096b5c931d405f5958baced81507b144", "type": "electric_bike", "lon": -77.0492805, "lat": 39.0293345, "is_disabled": 0, "is_reserved": 0, "fusion_lat": 0.0, "fusion_lon": 0.0}, {"rental_uris": {"android": "https://dc.lft.to/lastmile_qr_scan", "ios": "https://dc.lft.to/lastmile_qr_scan"}, "bike_id": "d007286ea6c68fc23284f49d21721a6f", "name": "d007286ea6c68fc23284f49d21721a6f", "type": "electric_scooter", "lon": -77.04433633333333, "lat": 38.92117966666667, "is_disabled": 0, "is_reserved": 0, "fusion_lat": 0.0, "fusion_lon": 0.0}, {"rental_uris": {"android": "https://dc.lft.to/lastmile_qr_scan", "ios": "https://dc.lft.to/lastmile_qr_scan"}, "bike_id": "0eba1b70708fae0689fa7b188bc3a8a1", "name": "0eba1b70708fae0689fa7b188bc3a8a1", "type": "electric_scooter", "lon": -77.033021, "lat": 38.8989355, "is_disabled": 0, "is_reserved": 0, "fusion_lat": 0.0, "fusion_lon": 0.0}, {"rental_uris": {"android": "https://dc.lft.to/lastmile_qr_scan", "ios": "https://dc.lft.to/lastmile_qr_scan"}, "bike_id": "15e39fdc390e750d3a8479d00ee3c181", "name": "15e39fdc390e750d3a8479d00ee3c181", "type": "electric_scooter", "lon": -77.0433865, "lat": 38.905141, "is_disabled": 0, "is_reserved": 0, "fusion_lat": 0.0, "fusion_lon": 0.0}, {"rental_uris": {"android": "https://dc.lft.to/lastmile_qr_scan", "ios": "https://dc.lft.to/lastmile_qr_scan"}, "bike_id": "5cf06eb5fe2d265511e19d1bf20af6d7", "name": "5cf06eb5fe2d265511e19d1bf20af6d7", "type": "electric_scooter", "lon": -77.0504075, "lat": 38.90078833333333, "is_disabled": 0, "is_reserved": 0, "fusion_lat": 0.0, "fusion_lon": 0.0}, {"rental_uris": {"android": "https://dc.lft.to/lastmile_qr_scan", "ios": "https://dc.lft.to/lastmile_qr_scan"}, "bike_id": "6a23b061315638653c4c7dfb2a813a80", "name": "6a23b061315638653c4c7dfb2a813a80", "type": "electric_scooter", "lon": -77.0298115, "lat": 38.931183, "is_disabled": 0, "is_reserved": 0, "fusion_lat": 0.0, "fusion_lon": 0.0}, {"rental_uris": {"android": "https://dc.lft.to/lastmile_qr_scan", "ios": "https://dc.lft.to/lastmile_qr_scan"}, "bike_id": "41ad8fffcf6272a1b1068ff93efb11b8", "name": "41ad8fffcf6272a1b1068ff93efb11b8", "type": "electric_scooter", "lon": -77.0272415, "lat": 38.91561133333333, "is_disabled": 0, "is_reserved": 0, "fusion_lat": 0.0, "fusion_lon": 0.0}, {"rental_uris": {"android": "https://dc.lft.to/lastmile_qr_scan", "ios": "https://dc.lft.to/lastmile_qr_scan"}, "bike_id": "4844a32bf7f873626fcc0c6351d3a345", "name": "4844a32bf7f873626fcc0c6351d3a345", "type": "electric_scooter", "lon": -76.99453683333333, "lat": 38.9082215, "is_disabled": 0, "is_reserved": 0, "fusion_lat": 0.0, "fusion_lon": 0.0}, {"rental_uris": {"android": "https://dc.lft.to/lastmile_qr_scan", "ios": "https://dc.lft.to/lastmile_qr_scan"}, "bike_id": "ee74528dfa3ac2779af09c6e9335da84", "name": "ee74528dfa3ac2779af09c6e9335da84", "type": "electric_scooter", "lon": -77.04333166666666, "lat": 38.895257, "is_disabled": 0, "is_reserved": 0, "fusion_lat": 0.0, "fusion_lon": 0.0}, {"rental_uris": {"android": "https://dc.lft.to/lastmile_qr_scan", "ios": "https://dc.lft.to/lastmile_qr_scan"}, "bike_id": "481509f806257894d3d8dfaac670d659", "name": "481509f806257894d3d8dfaac670d659", "type": "electric_bike", "lon": -76.98152733333333, "lat": 38.92259716666667, "is_disabled": 0, "is_reserved": 0, "fusion_lat": 0.0, "fusion_lon": 0.0}, {"rental_uris": {"android": "https://dc.lft.to/lastmile_qr_scan", "ios": "https://dc.lft.to/lastmile_qr_scan"}, "bike_id": "08c9d95fc8a023402dfabad9ffc24a47", "name": "08c9d95fc8a023402dfabad9ffc24a47", "type": "electric_scooter", "lon": -76.974232, "lat": 38.904492833333336, "is_disabled": 0, "is_reserved": 0, "fusion_lat": 0.0, "fusion_lon": 0.0}, {"rental_uris": {"android": "https://dc.lft.to/lastmile_qr_scan", "ios": "https://dc.lft.to/lastmile_qr_scan"}, "bike_id": "a91a78cbb32c54f18cff4d7cffdcaf84", "name": "a91a78cbb32c54f18cff4d7cffdcaf84", "type": "electric_scooter", "lon": -77.038609, "lat": 38.9037745, "is_disabled": 0, "is_reserved": 0, "fusion_lat": 0.0, "fusion_lon": 0.0}, {"rental_uris": {"android": "https://dc.lft.to/lastmile_qr_scan", "ios": "https://dc.lft.to/lastmile_qr_scan"}, "bike_id": "85a15454499b3fbab34f853bc6b50de6", "name": "85a15454499b3fbab34f853bc6b50de6", "type": "electric_scooter", "lon": -77.04667983333333, "lat": 38.9017815, "is_disabled": 0, "is_reserved": 0, "fusion_lat": 0.0, "fusion_lon": 0.0}, {"rental_uris": {"android": "https://dc.lft.to/lastmile_qr_scan", "ios": "https://dc.lft.to/lastmile_qr_scan"}, "bike_id": "8cba7e98ca0e62868fb4264046e8a962", "name": "8cba7e98ca0e62868fb4264046e8a962", "type": "electric_scooter", "lon": -77.020771, "lat": 38.8757335, "is_disabled": 0, "is_reserved": 0, "fusion_lat": 0.0, "fusion_lon": 0.0}, {"rental_uris": {"android": "https://dc.lft.to/lastmile_qr_scan", "ios": "https://dc.lft.to/lastmile_qr_scan"}, "bike_id": "f16c0b743ecaeaf63ff3f71e8be65d96", "name": "f16c0b743ecaeaf63ff3f71e8be65d96", "type": "electric_scooter", "lon": -77.0250925, "lat": 38.920585833333334, "is_disabled": 0, "is_reserved": 0, "fusion_lat": 0.0, "fusion_lon": 0.0}, {"rental_uris": {"android": "https://dc.lft.to/lastmile_qr_scan", "ios": "https://dc.lft.to/lastmile_qr_scan"}, "bike_id": "f2ca140e9410d49f77553855f9b941a8", "name": "f2ca140e9410d49f77553855f9b941a8", "type": "electric_scooter", "lon": -77.03663716666667, "lat": 38.90999583333333, "is_disabled": 0, "is_reserved": 0, "fusion_lat": 0.0, "fusion_lon": 0.0}, {"rental_uris": {"android": "https://dc.lft.to/lastmile_qr_scan", "ios": "https://dc.lft.to/lastmile_qr_scan"}, "bike_id": "2445d08411cdb52fc8ab6165aafad958", "name": "2445d08411cdb52fc8ab6165aafad958", "type": "electric_scooter", "lon": -76.98822416666667, "lat": 38.900371, "is_disabled": 0, "is_reserved": 0, "fusion_lat": 0.0, "fusion_lon": 0.0}, {"rental_uris": {"android": "https://dc.lft.to/lastmile_qr_scan", "ios": "https://dc.lft.to/lastmile_qr_scan"}, "bike_id": "b12f796e79ef3e4ef2ce62443035c9de", "name": "b12f796e79ef3e4ef2ce62443035c9de", "type": "electric_scooter", "lon": -77.02335083333334, "lat": 38.92471883333333, "is_disabled": 0, "is_reserved": 0, "fusion_lat": 0.0, "fusion_lon": 0.0}, {"rental_uris": {"android": "https://dc.lft.to/lastmile_qr_scan", "ios": "https://dc.lft.to/lastmile_qr_scan"}, "bike_id": "2ed4cc0c8b0debeb0c82e472f79f784c", "name": "2ed4cc0c8b0debeb0c82e472f79f784c", "type": "electric_scooter", "lon": -77.0198305, "lat": 38.89960283333333, "is_disabled": 0, "is_reserved": 0, "fusion_lat": 0.0, "fusion_lon": 0.0}, {"rental_uris": {"android": "https://dc.lft.to/lastmile_qr_scan", "ios": "https://dc.lft.to/lastmile_qr_scan"}, "bike_id": "0d1ab9a5008960bc22f0587b2e2b35c3", "name": "0d1ab9a5008960bc22f0587b2e2b35c3", "type": "electric_scooter", "lon": -77.01980366666666, "lat": 38.88475066666667, "is_disabled": 0, "is_reserved": 0, "fusion_lat": 0.0, "fusion_lon": 0.0}, {"rental_uris": {"android": "https://dc.lft.to/lastmile_qr_scan", "ios": "https://dc.lft.to/lastmile_qr_scan"}, "bike_id": "c02583b786377b1f2885102143d22b3c", "name": "c02583b786377b1f2885102143d22b3c", "type": "electric_bike", "lon": -77.09484233333333, "lat": 39.03046166666667, "is_disabled": 0, "is_reserved": 0, "fusion_lat": 0.0, "fusion_lon": 0.0}, {"rental_uris": {"android": "https://dc.lft.to/lastmile_qr_scan", "ios": "https://dc.lft.to/lastmile_qr_scan"}, "bike_id": "50bfa26c4b9823ffb2a22f56a1da3bad", "name": "50bfa26c4b9823ffb2a22f56a1da3bad", "type": "electric_scooter", "lon": -77.032033, "lat": 38.91455466666667, "is_disabled": 0, "is_reserved": 0, "fusion_lat": 0.0, "fusion_lon": 0.0}, {"rental_uris": {"android": "https://dc.lft.to/lastmile_qr_scan", "ios": "https://dc.lft.to/lastmile_qr_scan"}, "bike_id": "be7b5b076344f09f2fa97b2ab3c2dc8a", "name": "be7b5b076344f09f2fa97b2ab3c2dc8a", "type": "electric_scooter", "lon": -77.02694816666667, "lat": 38.90874766666666, "is_disabled": 0, "is_reserved": 0, "fusion_lat": 0.0, "fusion_lon": 0.0}, {"rental_uris": {"android": "https://dc.lft.to/lastmile_qr_scan", "ios": "https://dc.lft.to/lastmile_qr_scan"}, "bike_id": "430f55bc48f22fad09431ec919d9b558", "name": "430f55bc48f22fad09431ec919d9b558", "type": "electric_scooter", "lon": -77.03538933333333, "lat": 38.92415283333333, "is_disabled": 0, "is_reserved": 0, "fusion_lat": 0.0, "fusion_lon": 0.0}, {"rental_uris": {"android": "https://dc.lft.to/lastmile_qr_scan", "ios": "https://dc.lft.to/lastmile_qr_scan"}, "bike_id": "a93208254794337b675b696d75bfc8c6", "name": "a93208254794337b675b696d75bfc8c6", "type": "electric_scooter", "lon": -77.03860333333333, "lat": 38.91780083333333, "is_disabled": 0, "is_reserved": 0, "fusion_lat": 0.0, "fusion_lon": 0.0}, {"rental_uris": {"android": "https://dc.lft.to/lastmile_qr_scan", "ios": "https://dc.lft.to/lastmile_qr_scan"}, "bike_id": "50c1daf7d43188e3af7b62fb46a70b69", "name": "50c1daf7d43188e3af7b62fb46a70b69", "type": "electric_scooter", "lon": -77.04346, "lat": 38.90800766666667, "is_disabled": 0, "is_reserved": 0, "fusion_lat": 0.0, "fusion_lon": 0.0}, {"rental_uris": {"android": "https://dc.lft.to/lastmile_qr_scan", "ios": "https://dc.lft.to/lastmile_qr_scan"}, "bike_id": "a9304125abfde124c2343bad48e9da28", "name": "a9304125abfde124c2343bad48e9da28", "type": "electric_scooter", "lon": -77.01998783333333, "lat": 38.90950683333333, "is_disabled": 0, "is_reserved": 0, "fusion_lat": 0.0, "fusion_lon": 0.0}, {"rental_uris": {"android": "https://dc.lft.to/lastmile_qr_scan", "ios": "https://dc.lft.to/lastmile_qr_scan"}, "bike_id": "0ca4c29b8e35725836ad56c0885d6337", "name": "0ca4c29b8e35725836ad56c0885d6337", "type": "electric_scooter", "lon": -77.03240366666667, "lat": 38.92856483333333, "is_disabled": 0, "is_reserved": 0, "fusion_lat": 0.0, "fusion_lon": 0.0}, {"rental_uris": {"android": "https://dc.lft.to/lastmile_qr_scan", "ios": "https://dc.lft.to/lastmile_qr_scan"}, "bike_id": "aa3b046bb9b3b8bdae5e2b5e682c271a", "name": "aa3b046bb9b3b8bdae5e2b5e682c271a", "type": "electric_scooter", "lon": -77.03487883333334, "lat": 38.932638833333336, "is_disabled": 0, "is_reserved": 0, "fusion_lat": 0.0, "fusion_lon": 0.0}, {"rental_uris": {"android": "https://dc.lft.to/lastmile_qr_scan", "ios": "https://dc.lft.to/lastmile_qr_scan"}, "bike_id": "43520081d1b4c369739c7e0859476da0", "name": "43520081d1b4c369739c7e0859476da0", "type": "electric_scooter", "lon": -77.022908, "lat": 38.9156835, "is_disabled": 0, "is_reserved": 0, "fusion_lat": 0.0, "fusion_lon": 0.0}, {"rental_uris": {"android": "https://dc.lft.to/lastmile_qr_scan", "ios": "https://dc.lft.to/lastmile_qr_scan"}, "bike_id": "c38f58286eecfc89ed49f6f524f6030a", "name": "c38f58286eecfc89ed49f6f524f6030a", "type": "electric_scooter", "lon": -77.054275, "lat": 38.92350183333333, "is_disabled": 0, "is_reserved": 0, "fusion_lat": 0.0, "fusion_lon": 0.0}, {"rental_uris": {"android": "https://dc.lft.to/lastmile_qr_scan", "ios": "https://dc.lft.to/lastmile_qr_scan"}, "bike_id": "5a405840c11e32135324a8f176c94a22", "name": "5a405840c11e32135324a8f176c94a22", "type": "electric_scooter", "lon": -77.04193383333333, "lat": 38.9227165, "is_disabled": 0, "is_reserved": 0, "fusion_lat": 0.0, "fusion_lon": 0.0}, {"rental_uris": {"android": "https://dc.lft.to/lastmile_qr_scan", "ios": "https://dc.lft.to/lastmile_qr_scan"}, "bike_id": "551f204e28969dbc5b101364f622b7c5", "name": "551f204e28969dbc5b101364f622b7c5", "type": "electric_scooter", "lon": -77.033467, "lat": 38.899490666666665, "is_disabled": 0, "is_reserved": 0, "fusion_lat": 0.0, "fusion_lon": 0.0}, {"rental_uris": {"android": "https://dc.lft.to/lastmile_qr_scan", "ios": "https://dc.lft.to/lastmile_qr_scan"}, "bike_id": "4c3348a35828f2e1130e5aec6fd39eb9", "name": "4c3348a35828f2e1130e5aec6fd39eb9", "type": "electric_scooter", "lon": -77.02742266666667, "lat": 38.92406733333333, "is_disabled": 0, "is_reserved": 0, "fusion_lat": 0.0, "fusion_lon": 0.0}, {"rental_uris": {"android": "https://dc.lft.to/lastmile_qr_scan", "ios": "https://dc.lft.to/lastmile_qr_scan"}, "bike_id": "be8d53c8604b3d9621dd3ee500bffc41", "name": "be8d53c8604b3d9621dd3ee500bffc41", "type": "electric_scooter", "lon": -77.00977083333333, "lat": 38.915665, "is_disabled": 0, "is_reserved": 0, "fusion_lat": 0.0, "fusion_lon": 0.0}, {"rental_uris": {"android": "https://dc.lft.to/lastmile_qr_scan", "ios": "https://dc.lft.to/lastmile_qr_scan"}, "bike_id": "145d67bd760aa462ba7cb822f5c6dab6", "name": "145d67bd760aa462ba7cb822f5c6dab6", "type": "electric_scooter", "lon": -77.00386416666667, "lat": 38.9071925, "is_disabled": 0, "is_reserved": 0, "fusion_lat": 0.0, "fusion_lon": 0.0}, {"rental_uris": {"android": "https://dc.lft.to/lastmile_qr_scan", "ios": "https://dc.lft.to/lastmile_qr_scan"}, "bike_id": "5935d2440f130bec048793646e3bd3b0", "name": "5935d2440f130bec048793646e3bd3b0", "type": "electric_bike", "lon": -76.98627016666667, "lat": 38.880533166666666, "is_disabled": 0, "is_reserved": 0, "fusion_lat": 0.0, "fusion_lon": 0.0}, {"rental_uris": {"android": "https://dc.lft.to/lastmile_qr_scan", "ios": "https://dc.lft.to/lastmile_qr_scan"}, "bike_id": "b68a7c76c5d13f815eef44a65017e753", "name": "b68a7c76c5d13f815eef44a65017e753", "type": "electric_scooter", "lon": -77.02720516666666, "lat": 38.94959883333333, "is_disabled": 0, "is_reserved": 0, "fusion_lat": 0.0, "fusion_lon": 0.0}, {"rental_uris": {"android": "https://dc.lft.to/lastmile_qr_scan", "ios": "https://dc.lft.to/lastmile_qr_scan"}, "bike_id": "991bd8f6775a2f818fa84911aeaf6caf", "name": "991bd8f6775a2f818fa84911aeaf6caf", "type": "electric_bike", "lon": -77.002012, "lat": 38.81941716666667, "is_disabled": 0, "is_reserved": 0, "fusion_lat": 0.0, "fusion_lon": 0.0}, {"rental_uris": {"android": "https://dc.lft.to/lastmile_qr_scan", "ios": "https://dc.lft.to/lastmile_qr_scan"}, "bike_id": "e0e73ee5a75b4d40e4af055e0217649f", "name": "e0e73ee5a75b4d40e4af055e0217649f", "type": "electric_scooter", "lon": -77.0065595, "lat": 38.94466466666667, "is_disabled": 0, "is_reserved": 0, "fusion_lat": 0.0, "fusion_lon": 0.0}, {"rental_uris": {"android": "https://dc.lft.to/lastmile_qr_scan", "ios": "https://dc.lft.to/lastmile_qr_scan"}, "bike_id": "8695d6c6a8a201a1f67a28085c242de0", "name": "8695d6c6a8a201a1f67a28085c242de0", "type": "electric_scooter", "lon": -77.063304, "lat": 38.944189333333334, "is_disabled": 0, "is_reserved": 0, "fusion_lat": 0.0, "fusion_lon": 0.0}, {"rental_uris": {"android": "https://dc.lft.to/lastmile_qr_scan", "ios": "https://dc.lft.to/lastmile_qr_scan"}, "bike_id": "86637a6e828b14e5c014f16c3c883e30", "name": "86637a6e828b14e5c014f16c3c883e30", "type": "electric_scooter", "lon": -77.02165283333333, "lat": 38.89721483333334, "is_disabled": 0, "is_reserved": 0, "fusion_lat": 0.0, "fusion_lon": 0.0}, {"rental_uris": {"android": "https://dc.lft.to/lastmile_qr_scan", "ios": "https://dc.lft.to/lastmile_qr_scan"}, "bike_id": "86b15edfe1be779613d9d42ff921cf8f", "name": "86b15edfe1be779613d9d42ff921cf8f", "type": "electric_scooter", "lon": -77.04179166666667, "lat": 38.92008766666667, "is_disabled": 0, "is_reserved": 0, "fusion_lat": 0.0, "fusion_lon": 0.0}, {"rental_uris": {"android": "https://dc.lft.to/lastmile_qr_scan", "ios": "https://dc.lft.to/lastmile_qr_scan"}, "bike_id": "603c07ade27706abec41f6609695f19b", "name": "603c07ade27706abec41f6609695f19b", "type": "electric_scooter", "lon": -77.0310815, "lat": 38.946462, "is_disabled": 0, "is_reserved": 0, "fusion_lat": 0.0, "fusion_lon": 0.0}, {"rental_uris": {"android": "https://dc.lft.to/lastmile_qr_scan", "ios": "https://dc.lft.to/lastmile_qr_scan"}, "bike_id": "c24451575e6a07785a31fbb93d82be0d", "name": "c24451575e6a07785a31fbb93d82be0d", "type": "electric_scooter", "lon": -77.0389195, "lat": 38.91254983333333, "is_disabled": 0, "is_reserved": 0, "fusion_lat": 0.0, "fusion_lon": 0.0}, {"rental_uris": {"android": "https://dc.lft.to/lastmile_qr_scan", "ios": "https://dc.lft.to/lastmile_qr_scan"}, "bike_id": "b46793283f3b45ffadbd5d7afe46b1b5", "name": "b46793283f3b45ffadbd5d7afe46b1b5", "type": "electric_scooter", "lon": -77.05062716666667, "lat": 38.9009025, "is_disabled": 0, "is_reserved": 0, "fusion_lat": 0.0, "fusion_lon": 0.0}, {"rental_uris": {"android": "https://dc.lft.to/lastmile_qr_scan", "ios": "https://dc.lft.to/lastmile_qr_scan"}, "bike_id": "4c44c58213ef0d1e6b649a4b23d55856", "name": "4c44c58213ef0d1e6b649a4b23d55856", "type": "electric_bike", "lon": -77.11709533333334, "lat": 38.867486, "is_disabled": 0, "is_reserved": 0, "fusion_lat": 0.0, "fusion_lon": 0.0}, {"rental_uris": {"android": "https://dc.lft.to/lastmile_qr_scan", "ios": "https://dc.lft.to/lastmile_qr_scan"}, "bike_id": "7b1bcfaafdee9356b040b5862e9270b9", "name": "7b1bcfaafdee9356b040b5862e9270b9", "type": "electric_scooter", "lon": -77.0371815, "lat": 38.903713833333335, "is_disabled": 0, "is_reserved": 0, "fusion_lat": 0.0, "fusion_lon": 0.0}, {"rental_uris": {"android": "https://dc.lft.to/lastmile_qr_scan", "ios": "https://dc.lft.to/lastmile_qr_scan"}, "bike_id": "ab1a9b766f51553b646f3feda7d67e78", "name": "ab1a9b766f51553b646f3feda7d67e78", "type": "electric_scooter", "lon": -77.0037335, "lat": 38.88264433333333, "is_disabled": 0, "is_reserved": 0, "fusion_lat": 0.0, "fusion_lon": 0.0}, {"rental_uris": {"android": "https://dc.lft.to/lastmile_qr_scan", "ios": "https://dc.lft.to/lastmile_qr_scan"}, "bike_id": "7ab89ae50a74c729f29d1a33e6b58a33", "name": "7ab89ae50a74c729f29d1a33e6b58a33", "type": "electric_scooter", "lon": -77.04334083333333, "lat": 38.914066, "is_disabled": 0, "is_reserved": 0, "fusion_lat": 0.0, "fusion_lon": 0.0}, {"rental_uris": {"android": "https://dc.lft.to/lastmile_qr_scan", "ios": "https://dc.lft.to/lastmile_qr_scan"}, "bike_id": "a578d028e6ba244017637ea926690ca4", "name": "a578d028e6ba244017637ea926690ca4", "type": "electric_scooter", "lon": -77.04609133333334, "lat": 38.90250133333333, "is_disabled": 0, "is_reserved": 0, "fusion_lat": 0.0, "fusion_lon": 0.0}, {"rental_uris": {"android": "https://dc.lft.to/lastmile_qr_scan", "ios": "https://dc.lft.to/lastmile_qr_scan"}, "bike_id": "52fac7d715c7b6c9eb0bdfb4f54ab289", "name": "52fac7d715c7b6c9eb0bdfb4f54ab289", "type": "electric_scooter", "lon": -77.02618166666667, "lat": 38.88353216666667, "is_disabled": 0, "is_reserved": 0, "fusion_lat": 0.0, "fusion_lon": 0.0}, {"rental_uris": {"android": "https://dc.lft.to/lastmile_qr_scan", "ios": "https://dc.lft.to/lastmile_qr_scan"}, "bike_id": "23cdc675825aa9cd171090d82954d016", "name": "23cdc675825aa9cd171090d82954d016", "type": "electric_scooter", "lon": -77.02432783333333, "lat": 38.9274725, "is_disabled": 0, "is_reserved": 0, "fusion_lat": 0.0, "fusion_lon": 0.0}, {"rental_uris": {"android": "https://dc.lft.to/lastmile_qr_scan", "ios": "https://dc.lft.to/lastmile_qr_scan"}, "bike_id": "bd39885d99bbe8c0cdaa680f6f0808eb", "name": "bd39885d99bbe8c0cdaa680f6f0808eb", "type": "electric_scooter", "lon": -77.02406566666667, "lat": 38.91640966666667, "is_disabled": 0, "is_reserved": 0, "fusion_lat": 0.0, "fusion_lon": 0.0}, {"rental_uris": {"android": "https://dc.lft.to/lastmile_qr_scan", "ios": "https://dc.lft.to/lastmile_qr_scan"}, "bike_id": "af083c1971550f948e3626ae0a744b72", "name": "af083c1971550f948e3626ae0a744b72", "type": "electric_scooter", "lon": -77.032615, "lat": 38.91402866666667, "is_disabled": 0, "is_reserved": 0, "fusion_lat": 0.0, "fusion_lon": 0.0}, {"rental_uris": {"android": "https://dc.lft.to/lastmile_qr_scan", "ios": "https://dc.lft.to/lastmile_qr_scan"}, "bike_id": "6b27c59fcc36f91cc7e0de687a4b96cc", "name": "6b27c59fcc36f91cc7e0de687a4b96cc", "type": "electric_scooter", "lon": -76.99850083333334, "lat": 38.88748666666667, "is_disabled": 0, "is_reserved": 0, "fusion_lat": 0.0, "fusion_lon": 0.0}, {"rental_uris": {"android": "https://dc.lft.to/lastmile_qr_scan", "ios": "https://dc.lft.to/lastmile_qr_scan"}, "bike_id": "4de85829214d933ee7eb8eca536242ed", "name": "4de85829214d933ee7eb8eca536242ed", "type": "electric_scooter", "lon": -77.02003283333333, "lat": 38.91310983333333, "is_disabled": 0, "is_reserved": 0, "fusion_lat": 0.0, "fusion_lon": 0.0}, {"rental_uris": {"android": "https://dc.lft.to/lastmile_qr_scan", "ios": "https://dc.lft.to/lastmile_qr_scan"}, "bike_id": "867ff448d20d8838b05f70f39247b721", "name": "867ff448d20d8838b05f70f39247b721", "type": "electric_scooter", "lon": -77.02932416666667, "lat": 38.89848583333333, "is_disabled": 0, "is_reserved": 0, "fusion_lat": 0.0, "fusion_lon": 0.0}, {"rental_uris": {"android": "https://dc.lft.to/lastmile_qr_scan", "ios": "https://dc.lft.to/lastmile_qr_scan"}, "bike_id": "047cc70137c5c6786c7abc8314de6cd4", "name": "047cc70137c5c6786c7abc8314de6cd4", "type": "electric_scooter", "lon": -77.04186016666667, "lat": 38.90775516666667, "is_disabled": 0, "is_reserved": 0, "fusion_lat": 0.0, "fusion_lon": 0.0}, {"rental_uris": {"android": "https://dc.lft.to/lastmile_qr_scan", "ios": "https://dc.lft.to/lastmile_qr_scan"}, "bike_id": "ddfacdf3633421fbbc2d5296834cc670", "name": "ddfacdf3633421fbbc2d5296834cc670", "type": "electric_scooter", "lon": -76.98235433333333, "lat": 38.90894083333333, "is_disabled": 0, "is_reserved": 0, "fusion_lat": 0.0, "fusion_lon": 0.0}, {"rental_uris": {"android": "https://dc.lft.to/lastmile_qr_scan", "ios": "https://dc.lft.to/lastmile_qr_scan"}, "bike_id": "7d630fc0b1f76b438a2f58cbd64efd1d", "name": "7d630fc0b1f76b438a2f58cbd64efd1d", "type": "electric_scooter", "lon": -77.03143516666667, "lat": 38.89938266666667, "is_disabled": 0, "is_reserved": 0, "fusion_lat": 0.0, "fusion_lon": 0.0}, {"rental_uris": {"android": "https://dc.lft.to/lastmile_qr_scan", "ios": "https://dc.lft.to/lastmile_qr_scan"}, "bike_id": "a9cbe884917115600751ed275c2b76d6", "name": "a9cbe884917115600751ed275c2b76d6", "type": "electric_scooter", "lon": -76.9463135, "lat": 38.89843466666667, "is_disabled": 0, "is_reserved": 0, "fusion_lat": 0.0, "fusion_lon": 0.0}, {"rental_uris": {"android": "https://dc.lft.to/lastmile_qr_scan", "ios": "https://dc.lft.to/lastmile_qr_scan"}, "bike_id": "1ac28dbeaaf5cc86b5845ce0c4548f67", "name": "1ac28dbeaaf5cc86b5845ce0c4548f67", "type": "electric_scooter", "lon": -77.054171, "lat": 38.90238883333333, "is_disabled": 0, "is_reserved": 0, "fusion_lat": 0.0, "fusion_lon": 0.0}, {"rental_uris": {"android": "https://dc.lft.to/lastmile_qr_scan", "ios": "https://dc.lft.to/lastmile_qr_scan"}, "bike_id": "e7f7b249f42ff8362cdb2f5dcf71effc", "name": "e7f7b249f42ff8362cdb2f5dcf71effc", "type": "electric_scooter", "lon": -76.999456, "lat": 38.84299983333333, "is_disabled": 0, "is_reserved": 0, "fusion_lat": 0.0, "fusion_lon": 0.0}, {"rental_uris": {"android": "https://dc.lft.to/lastmile_qr_scan", "ios": "https://dc.lft.to/lastmile_qr_scan"}, "bike_id": "37cc85f11a1aff839209014b7dc4f152", "name": "37cc85f11a1aff839209014b7dc4f152", "type": "electric_scooter", "lon": -77.0419255, "lat": 38.92620683333333, "is_disabled": 0, "is_reserved": 0, "fusion_lat": 0.0, "fusion_lon": 0.0}, {"rental_uris": {"android": "https://dc.lft.to/lastmile_qr_scan", "ios": "https://dc.lft.to/lastmile_qr_scan"}, "bike_id": "82bd4439fbdfb8744384a1454797b17b", "name": "82bd4439fbdfb8744384a1454797b17b", "type": "electric_scooter", "lon": -76.911386, "lat": 38.89428766666666, "is_disabled": 0, "is_reserved": 0, "fusion_lat": 0.0, "fusion_lon": 0.0}, {"rental_uris": {"android": "https://dc.lft.to/lastmile_qr_scan", "ios": "https://dc.lft.to/lastmile_qr_scan"}, "bike_id": "e6624151aadd9742269bd52811653c02", "name": "e6624151aadd9742269bd52811653c02", "type": "electric_scooter", "lon": -77.02894033333334, "lat": 38.91685066666667, "is_disabled": 0, "is_reserved": 0, "fusion_lat": 0.0, "fusion_lon": 0.0}, {"rental_uris": {"android": "https://dc.lft.to/lastmile_qr_scan", "ios": "https://dc.lft.to/lastmile_qr_scan"}, "bike_id": "ff1765e4ffe5cc168d3a4df924baaf3d", "name": "ff1765e4ffe5cc168d3a4df924baaf3d", "type": "electric_scooter", "lon": -77.0304875, "lat": 38.88410916666667, "is_disabled": 0, "is_reserved": 0, "fusion_lat": 0.0, "fusion_lon": 0.0}, {"rental_uris": {"android": "https://dc.lft.to/lastmile_qr_scan", "ios": "https://dc.lft.to/lastmile_qr_scan"}, "bike_id": "ea6941a24368c2870b4730828b3e4fee", "name": "ea6941a24368c2870b4730828b3e4fee", "type": "electric_scooter", "lon": -77.0240875, "lat": 38.89605516666666, "is_disabled": 0, "is_reserved": 0, "fusion_lat": 0.0, "fusion_lon": 0.0}, {"rental_uris": {"android": "https://dc.lft.to/lastmile_qr_scan", "ios": "https://dc.lft.to/lastmile_qr_scan"}, "bike_id": "3c29a044174ad797a4a0dcf26c9bb166", "name": "3c29a044174ad797a4a0dcf26c9bb166", "type": "electric_scooter", "lon": -77.04158916666667, "lat": 38.905938, "is_disabled": 0, "is_reserved": 0, "fusion_lat": 0.0, "fusion_lon": 0.0}, {"rental_uris": {"android": "https://dc.lft.to/lastmile_qr_scan", "ios": "https://dc.lft.to/lastmile_qr_scan"}, "bike_id": "19e5355be9e533daab944cbc10871f81", "name": "19e5355be9e533daab944cbc10871f81", "type": "electric_scooter", "lon": -77.04370966666667, "lat": 38.911217666666666, "is_disabled": 0, "is_reserved": 0, "fusion_lat": 0.0, "fusion_lon": 0.0}, {"rental_uris": {"android": "https://dc.lft.to/lastmile_qr_scan", "ios": "https://dc.lft.to/lastmile_qr_scan"}, "bike_id": "c35e2981b6e5f8f0ba58399d69d3cc9d", "name": "c35e2981b6e5f8f0ba58399d69d3cc9d", "type": "electric_scooter", "lon": -76.99558166666667, "lat": 38.8625975, "is_disabled": 0, "is_reserved": 0, "fusion_lat": 0.0, "fusion_lon": 0.0}, {"rental_uris": {"android": "https://dc.lft.to/lastmile_qr_scan", "ios": "https://dc.lft.to/lastmile_qr_scan"}, "bike_id": "a5d8f2d99c45d4ec8af63676aa40fd85", "name": "a5d8f2d99c45d4ec8af63676aa40fd85", "type": "electric_scooter", "lon": -77.03860016666667, "lat": 38.911755, "is_disabled": 0, "is_reserved": 0, "fusion_lat": 0.0, "fusion_lon": 0.0}, {"rental_uris": {"android": "https://dc.lft.to/lastmile_qr_scan", "ios": "https://dc.lft.to/lastmile_qr_scan"}, "bike_id": "0b106bdbd01e7977a53ab1c357fc709f", "name": "0b106bdbd01e7977a53ab1c357fc709f", "type": "electric_scooter", "lon": -77.0390745, "lat": 38.9183125, "is_disabled": 0, "is_reserved": 0, "fusion_lat": 0.0, "fusion_lon": 0.0}, {"rental_uris": {"android": "https://dc.lft.to/lastmile_qr_scan", "ios": "https://dc.lft.to/lastmile_qr_scan"}, "bike_id": "3c90cc88401d1658c1d1c72978744c8c", "name": "3c90cc88401d1658c1d1c72978744c8c", "type": "electric_scooter", "lon": -77.0225635, "lat": 38.923076, "is_disabled": 0, "is_reserved": 0, "fusion_lat": 0.0, "fusion_lon": 0.0}, {"rental_uris": {"android": "https://dc.lft.to/lastmile_qr_scan", "ios": "https://dc.lft.to/lastmile_qr_scan"}, "bike_id": "1f3963d1601e880137e1d568a313b7fb", "name": "1f3963d1601e880137e1d568a313b7fb", "type": "electric_scooter", "lon": -76.99549733333333, "lat": 38.882604, "is_disabled": 0, "is_reserved": 0, "fusion_lat": 0.0, "fusion_lon": 0.0}, {"rental_uris": {"android": "https://dc.lft.to/lastmile_qr_scan", "ios": "https://dc.lft.to/lastmile_qr_scan"}, "bike_id": "aa9e6f1ae28614d1431bb00c040d57e7", "name": "aa9e6f1ae28614d1431bb00c040d57e7", "type": "electric_scooter", "lon": -76.99775633333333, "lat": 38.84429383333333, "is_disabled": 0, "is_reserved": 0, "fusion_lat": 0.0, "fusion_lon": 0.0}, {"rental_uris": {"android": "https://dc.lft.to/lastmile_qr_scan", "ios": "https://dc.lft.to/lastmile_qr_scan"}, "bike_id": "ac0e053033a5088f4a8bfe9054a03d8b", "name": "ac0e053033a5088f4a8bfe9054a03d8b", "type": "electric_scooter", "lon": -77.04690216666667, "lat": 38.92164483333333, "is_disabled": 0, "is_reserved": 0, "fusion_lat": 0.0, "fusion_lon": 0.0}, {"rental_uris": {"android": "https://dc.lft.to/lastmile_qr_scan", "ios": "https://dc.lft.to/lastmile_qr_scan"}, "bike_id": "9ae26162aa0ea8d5b99b4d3d54a7c8a5", "name": "9ae26162aa0ea8d5b99b4d3d54a7c8a5", "type": "electric_scooter", "lon": -76.98308683333333, "lat": 38.8688805, "is_disabled": 0, "is_reserved": 0, "fusion_lat": 0.0, "fusion_lon": 0.0}, {"rental_uris": {"android": "https://dc.lft.to/lastmile_qr_scan", "ios": "https://dc.lft.to/lastmile_qr_scan"}, "bike_id": "29c7199451c5d1de87d40c6f0665badd", "name": "29c7199451c5d1de87d40c6f0665badd", "type": "electric_scooter", "lon": -77.003337, "lat": 38.9081015, "is_disabled": 0, "is_reserved": 0, "fusion_lat": 0.0, "fusion_lon": 0.0}, {"rental_uris": {"android": "https://dc.lft.to/lastmile_qr_scan", "ios": "https://dc.lft.to/lastmile_qr_scan"}, "bike_id": "3184aac15b96536407c4ce3c1787d97e", "name": "3184aac15b96536407c4ce3c1787d97e", "type": "electric_bike", "lon": -77.21650816666667, "lat": 38.93015966666667, "is_disabled": 0, "is_reserved": 0, "fusion_lat": 0.0, "fusion_lon": 0.0}, {"rental_uris": {"android": "https://dc.lft.to/lastmile_qr_scan", "ios": "https://dc.lft.to/lastmile_qr_scan"}, "bike_id": "5b5bedc3c4673f4c8f61191d4574adf7", "name": "5b5bedc3c4673f4c8f61191d4574adf7", "type": "electric_scooter", "lon": -77.02302216666666, "lat": 38.9271415, "is_disabled": 0, "is_reserved": 0, "fusion_lat": 0.0, "fusion_lon": 0.0}, {"rental_uris": {"android": "https://dc.lft.to/lastmile_qr_scan", "ios": "https://dc.lft.to/lastmile_qr_scan"}, "bike_id": "96de9421238a57a5441a006429897887", "name": "96de9421238a57a5441a006429897887", "type": "electric_scooter", "lon": -77.02397066666667, "lat": 38.919566, "is_disabled": 0, "is_reserved": 0, "fusion_lat": 0.0, "fusion_lon": 0.0}, {"rental_uris": {"android": "https://dc.lft.to/lastmile_qr_scan", "ios": "https://dc.lft.to/lastmile_qr_scan"}, "bike_id": "9bfdf45e24f9332014c8c69d20863199", "name": "9bfdf45e24f9332014c8c69d20863199", "type": "electric_bike", "lon": -77.0587905, "lat": 38.958984666666666, "is_disabled": 0, "is_reserved": 0, "fusion_lat": 0.0, "fusion_lon": 0.0}, {"rental_uris": {"android": "https://dc.lft.to/lastmile_qr_scan", "ios": "https://dc.lft.to/lastmile_qr_scan"}, "bike_id": "8a2cb3b2ec1bdd8847b4c42e2af2b5bb", "name": "8a2cb3b2ec1bdd8847b4c42e2af2b5bb", "type": "electric_scooter", "lon": -77.04188533333334, "lat": 38.906935833333335, "is_disabled": 0, "is_reserved": 0, "fusion_lat": 0.0, "fusion_lon": 0.0}, {"rental_uris": {"android": "https://dc.lft.to/lastmile_qr_scan", "ios": "https://dc.lft.to/lastmile_qr_scan"}, "bike_id": "9de52f9eb6b8075aea65ea882ca0d084", "name": "9de52f9eb6b8075aea65ea882ca0d084", "type": "electric_scooter", "lon": -76.93740033333333, "lat": 38.890194666666666, "is_disabled": 0, "is_reserved": 0, "fusion_lat": 0.0, "fusion_lon": 0.0}, {"rental_uris": {"android": "https://dc.lft.to/lastmile_qr_scan", "ios": "https://dc.lft.to/lastmile_qr_scan"}, "bike_id": "7fe8f18b1ffebf8b885609e645c400dd", "name": "7fe8f18b1ffebf8b885609e645c400dd", "type": "electric_scooter", "lon": -77.03437983333333, "lat": 38.91236716666667, "is_disabled": 0, "is_reserved": 0, "fusion_lat": 0.0, "fusion_lon": 0.0}, {"rental_uris": {"android": "https://dc.lft.to/lastmile_qr_scan", "ios": "https://dc.lft.to/lastmile_qr_scan"}, "bike_id": "659a7a56b50c2f842e259e09cd9c9ba5", "name": "659a7a56b50c2f842e259e09cd9c9ba5", "type": "electric_scooter", "lon": -77.0301965, "lat": 38.90510033333333, "is_disabled": 0, "is_reserved": 0, "fusion_lat": 0.0, "fusion_lon": 0.0}, {"rental_uris": {"android": "https://dc.lft.to/lastmile_qr_scan", "ios": "https://dc.lft.to/lastmile_qr_scan"}, "bike_id": "6e9b74b8dbde4327f09426ac289fe3b7", "name": "6e9b74b8dbde4327f09426ac289fe3b7", "type": "electric_bike", "lon": -77.04647633333333, "lat": 39.0550055, "is_disabled": 0, "is_reserved": 0, "fusion_lat": 0.0, "fusion_lon": 0.0}, {"rental_uris": {"android": "https://dc.lft.to/lastmile_qr_scan", "ios": "https://dc.lft.to/lastmile_qr_scan"}, "bike_id": "cb890ba466284b13f7b316ec29557325", "name": "cb890ba466284b13f7b316ec29557325", "type": "electric_scooter", "lon": -76.98882216666667, "lat": 38.86656, "is_disabled": 0, "is_reserved": 0, "fusion_lat": 0.0, "fusion_lon": 0.0}, {"rental_uris": {"android": "https://dc.lft.to/lastmile_qr_scan", "ios": "https://dc.lft.to/lastmile_qr_scan"}, "bike_id": "ba82e2a95be4f9d6fa71e21e7f32e599", "name": "ba82e2a95be4f9d6fa71e21e7f32e599", "type": "electric_bike", "lon": -77.0291155, "lat": 38.99867716666667, "is_disabled": 0, "is_reserved": 0, "fusion_lat": 0.0, "fusion_lon": 0.0}, {"rental_uris": {"android": "https://dc.lft.to/lastmile_qr_scan", "ios": "https://dc.lft.to/lastmile_qr_scan"}, "bike_id": "a85e74b35c48e0b3c8a56560c6f47b8a", "name": "a85e74b35c48e0b3c8a56560c6f47b8a", "type": "electric_scooter", "lon": -77.031699, "lat": 38.903392, "is_disabled": 0, "is_reserved": 0, "fusion_lat": 0.0, "fusion_lon": 0.0}, {"rental_uris": {"android": "https://dc.lft.to/lastmile_qr_scan", "ios": "https://dc.lft.to/lastmile_qr_scan"}, "bike_id": "3489d453f6a2a67d4c5d0cfbfb5cf37b", "name": "3489d453f6a2a67d4c5d0cfbfb5cf37b", "type": "electric_scooter", "lon": -77.02297683333333, "lat": 38.93670483333333, "is_disabled": 0, "is_reserved": 0, "fusion_lat": 0.0, "fusion_lon": 0.0}, {"rental_uris": {"android": "https://dc.lft.to/lastmile_qr_scan", "ios": "https://dc.lft.to/lastmile_qr_scan"}, "bike_id": "b47814647cbb7bb1cc051c143af90a62", "name": "b47814647cbb7bb1cc051c143af90a62", "type": "electric_scooter", "lon": -77.00343766666667, "lat": 38.916179, "is_disabled": 0, "is_reserved": 0, "fusion_lat": 0.0, "fusion_lon": 0.0}, {"rental_uris": {"android": "https://dc.lft.to/lastmile_qr_scan", "ios": "https://dc.lft.to/lastmile_qr_scan"}, "bike_id": "6556af91e0e1444074678353cacd08f3", "name": "6556af91e0e1444074678353cacd08f3", "type": "electric_scooter", "lon": -77.02750083333333, "lat": 38.95169033333333, "is_disabled": 0, "is_reserved": 0, "fusion_lat": 0.0, "fusion_lon": 0.0}, {"rental_uris": {"android": "https://dc.lft.to/lastmile_qr_scan", "ios": "https://dc.lft.to/lastmile_qr_scan"}, "bike_id": "62bd8f7ec8e8bfb5a3a819d5d04dad20", "name": "62bd8f7ec8e8bfb5a3a819d5d04dad20", "type": "electric_scooter", "lon": -76.98993783333333, "lat": 38.924511333333335, "is_disabled": 0, "is_reserved": 0, "fusion_lat": 0.0, "fusion_lon": 0.0}, {"rental_uris": {"android": "https://dc.lft.to/lastmile_qr_scan", "ios": "https://dc.lft.to/lastmile_qr_scan"}, "bike_id": "7240d0c54645c933e0c78c21888f9799", "name": "7240d0c54645c933e0c78c21888f9799", "type": "electric_scooter", "lon": -77.06012533333333, "lat": 38.904359, "is_disabled": 0, "is_reserved": 0, "fusion_lat": 0.0, "fusion_lon": 0.0}, {"rental_uris": {"android": "https://dc.lft.to/lastmile_qr_scan", "ios": "https://dc.lft.to/lastmile_qr_scan"}, "bike_id": "1c418bbd5dd44c278ce20de64c3a9228", "name": "1c418bbd5dd44c278ce20de64c3a9228", "type": "electric_bike", "lon": -77.1310545, "lat": 39.02435633333333, "is_disabled": 0, "is_reserved": 0, "fusion_lat": 0.0, "fusion_lon": 0.0}, {"rental_uris": {"android": "https://dc.lft.to/lastmile_qr_scan", "ios": "https://dc.lft.to/lastmile_qr_scan"}, "bike_id": "54ffe970647f13bad4f10cc0b1f50845", "name": "54ffe970647f13bad4f10cc0b1f50845", "type": "electric_scooter", "lon": -77.01858066666667, "lat": 38.900859833333335, "is_disabled": 0, "is_reserved": 0, "fusion_lat": 0.0, "fusion_lon": 0.0}, {"rental_uris": {"android": "https://dc.lft.to/lastmile_qr_scan", "ios": "https://dc.lft.to/lastmile_qr_scan"}, "bike_id": "c2df2c703a8adaebe12af262eeda76b9", "name": "c2df2c703a8adaebe12af262eeda76b9", "type": "electric_scooter", "lon": -76.94725533333333, "lat": 38.896567833333336, "is_disabled": 0, "is_reserved": 0, "fusion_lat": 0.0, "fusion_lon": 0.0}, {"rental_uris": {"android": "https://dc.lft.to/lastmile_qr_scan", "ios": "https://dc.lft.to/lastmile_qr_scan"}, "bike_id": "8ae93366b2547802197aa5dccaddc43b", "name": "8ae93366b2547802197aa5dccaddc43b", "type": "electric_bike", "lon": -77.0606995, "lat": 38.885822, "is_disabled": 0, "is_reserved": 0, "fusion_lat": 0.0, "fusion_lon": 0.0}, {"rental_uris": {"android": "https://dc.lft.to/lastmile_qr_scan", "ios": "https://dc.lft.to/lastmile_qr_scan"}, "bike_id": "dd3cff190a21e982988b084385d6919d", "name": "dd3cff190a21e982988b084385d6919d", "type": "electric_scooter", "lon": -77.04460816666666, "lat": 38.9112325, "is_disabled": 0, "is_reserved": 0, "fusion_lat": 0.0, "fusion_lon": 0.0}, {"rental_uris": {"android": "https://dc.lft.to/lastmile_qr_scan", "ios": "https://dc.lft.to/lastmile_qr_scan"}, "bike_id": "1c17f40f34a24e6e415843129e00e404", "name": "1c17f40f34a24e6e415843129e00e404", "type": "electric_bike", "lon": -77.09481633333333, "lat": 39.03043316666667, "is_disabled": 0, "is_reserved": 0, "fusion_lat": 0.0, "fusion_lon": 0.0}, {"rental_uris": {"android": "https://dc.lft.to/lastmile_qr_scan", "ios": "https://dc.lft.to/lastmile_qr_scan"}, "bike_id": "a593970d354092df069adf22bc9dc66a", "name": "a593970d354092df069adf22bc9dc66a", "type": "electric_scooter", "lon": -77.03362366666667, "lat": 38.932243, "is_disabled": 0, "is_reserved": 0, "fusion_lat": 0.0, "fusion_lon": 0.0}, {"rental_uris": {"android": "https://dc.lft.to/lastmile_qr_scan", "ios": "https://dc.lft.to/lastmile_qr_scan"}, "bike_id": "d3e431e9b70efbb0ee259ffc9e755146", "name": "d3e431e9b70efbb0ee259ffc9e755146", "type": "electric_scooter", "lon": -77.015909, "lat": 38.949409833333334, "is_disabled": 0, "is_reserved": 0, "fusion_lat": 0.0, "fusion_lon": 0.0}, {"rental_uris": {"android": "https://dc.lft.to/lastmile_qr_scan", "ios": "https://dc.lft.to/lastmile_qr_scan"}, "bike_id": "bd6e2c9faa612567b65d8f39ce4f490e", "name": "bd6e2c9faa612567b65d8f39ce4f490e", "type": "electric_scooter", "lon": -77.0271885, "lat": 38.949621666666665, "is_disabled": 0, "is_reserved": 0, "fusion_lat": 0.0, "fusion_lon": 0.0}, {"rental_uris": {"android": "https://dc.lft.to/lastmile_qr_scan", "ios": "https://dc.lft.to/lastmile_qr_scan"}, "bike_id": "9f09f3cbfed50f63a271cfbc49ea2af5", "name": "9f09f3cbfed50f63a271cfbc49ea2af5", "type": "electric_scooter", "lon": -77.03470166666666, "lat": 38.917058833333336, "is_disabled": 0, "is_reserved": 0, "fusion_lat": 0.0, "fusion_lon": 0.0}, {"rental_uris": {"android": "https://dc.lft.to/lastmile_qr_scan", "ios": "https://dc.lft.to/lastmile_qr_scan"}, "bike_id": "58c56d8199fb615c2fdccf467674fbcd", "name": "58c56d8199fb615c2fdccf467674fbcd", "type": "electric_scooter", "lon": -77.05856583333333, "lat": 38.93610966666667, "is_disabled": 0, "is_reserved": 0, "fusion_lat": 0.0, "fusion_lon": 0.0}, {"rental_uris": {"android": "https://dc.lft.to/lastmile_qr_scan", "ios": "https://dc.lft.to/lastmile_qr_scan"}, "bike_id": "8d2e35435793e42b335ac02321f2a66c", "name": "8d2e35435793e42b335ac02321f2a66c", "type": "electric_scooter", "lon": -77.02547766666666, "lat": 38.92075766666667, "is_disabled": 0, "is_reserved": 0, "fusion_lat": 0.0, "fusion_lon": 0.0}, {"rental_uris": {"android": "https://dc.lft.to/lastmile_qr_scan", "ios": "https://dc.lft.to/lastmile_qr_scan"}, "bike_id": "daa7a7f3a8dd14e85c3fffad3561bf36", "name": "daa7a7f3a8dd14e85c3fffad3561bf36", "type": "electric_scooter", "lon": -77.03432983333333, "lat": 38.903657333333335, "is_disabled": 0, "is_reserved": 0, "fusion_lat": 0.0, "fusion_lon": 0.0}, {"rental_uris": {"android": "https://dc.lft.to/lastmile_qr_scan", "ios": "https://dc.lft.to/lastmile_qr_scan"}, "bike_id": "6d11fe412bc04ec72fb901cdbd561419", "name": "6d11fe412bc04ec72fb901cdbd561419", "type": "electric_scooter", "lon": -77.0460055, "lat": 38.9190755, "is_disabled": 0, "is_reserved": 0, "fusion_lat": 0.0, "fusion_lon": 0.0}, {"rental_uris": {"android": "https://dc.lft.to/lastmile_qr_scan", "ios": "https://dc.lft.to/lastmile_qr_scan"}, "bike_id": "8629443d136dac7a00cf3d45e2029b5d", "name": "8629443d136dac7a00cf3d45e2029b5d", "type": "electric_scooter", "lon": -77.02430416666667, "lat": 38.902815333333336, "is_disabled": 0, "is_reserved": 0, "fusion_lat": 0.0, "fusion_lon": 0.0}, {"rental_uris": {"android": "https://dc.lft.to/lastmile_qr_scan", "ios": "https://dc.lft.to/lastmile_qr_scan"}, "bike_id": "2728ef0df9b65df9783fa2c168c9762e", "name": "2728ef0df9b65df9783fa2c168c9762e", "type": "electric_scooter", "lon": -77.043484, "lat": 38.903733, "is_disabled": 0, "is_reserved": 0, "fusion_lat": 0.0, "fusion_lon": 0.0}, {"rental_uris": {"android": "https://dc.lft.to/lastmile_qr_scan", "ios": "https://dc.lft.to/lastmile_qr_scan"}, "bike_id": "4f5ace9a9a0d6830b8171961c53da27a", "name": "4f5ace9a9a0d6830b8171961c53da27a", "type": "electric_scooter", "lon": -77.03208466666666, "lat": 38.895864833333334, "is_disabled": 0, "is_reserved": 0, "fusion_lat": 0.0, "fusion_lon": 0.0}, {"rental_uris": {"android": "https://dc.lft.to/lastmile_qr_scan", "ios": "https://dc.lft.to/lastmile_qr_scan"}, "bike_id": "2c72565e78baf855c57dc906cfab631c", "name": "2c72565e78baf855c57dc906cfab631c", "type": "electric_scooter", "lon": -76.98878883333333, "lat": 38.904424666666664, "is_disabled": 0, "is_reserved": 0, "fusion_lat": 0.0, "fusion_lon": 0.0}, {"rental_uris": {"android": "https://dc.lft.to/lastmile_qr_scan", "ios": "https://dc.lft.to/lastmile_qr_scan"}, "bike_id": "a55222c93e3cd9626b3b9a0adde5547b", "name": "a55222c93e3cd9626b3b9a0adde5547b", "type": "electric_scooter", "lon": -77.02420816666667, "lat": 38.907388166666664, "is_disabled": 0, "is_reserved": 0, "fusion_lat": 0.0, "fusion_lon": 0.0}, {"rental_uris": {"android": "https://dc.lft.to/lastmile_qr_scan", "ios": "https://dc.lft.to/lastmile_qr_scan"}, "bike_id": "00fd5f16dee2d7371e946562c0fdc9ff", "name": "00fd5f16dee2d7371e946562c0fdc9ff", "type": "electric_bike", "lon": -76.98104383333333, "lat": 38.87730833333333, "is_disabled": 0, "is_reserved": 0, "fusion_lat": 0.0, "fusion_lon": 0.0}, {"rental_uris": {"android": "https://dc.lft.to/lastmile_qr_scan", "ios": "https://dc.lft.to/lastmile_qr_scan"}, "bike_id": "13ec5204c36facce0cf7ebae5a565574", "name": "13ec5204c36facce0cf7ebae5a565574", "type": "electric_scooter", "lon": -77.05533583333333, "lat": 38.9301405, "is_disabled": 0, "is_reserved": 0, "fusion_lat": 0.0, "fusion_lon": 0.0}, {"rental_uris": {"android": "https://dc.lft.to/lastmile_qr_scan", "ios": "https://dc.lft.to/lastmile_qr_scan"}, "bike_id": "fc6a35845ac6ced2b0618d73fac42feb", "name": "fc6a35845ac6ced2b0618d73fac42feb", "type": "electric_scooter", "lon": -77.03648216666667, "lat": 38.9172785, "is_disabled": 0, "is_reserved": 0, "fusion_lat": 0.0, "fusion_lon": 0.0}, {"rental_uris": {"android": "https://dc.lft.to/lastmile_qr_scan", "ios": "https://dc.lft.to/lastmile_qr_scan"}, "bike_id": "27aae2a9eb68fa8b8ce5a7d89e88ac34", "name": "27aae2a9eb68fa8b8ce5a7d89e88ac34", "type": "electric_scooter", "lon": -77.024895, "lat": 38.90559416666667, "is_disabled": 0, "is_reserved": 0, "fusion_lat": 0.0, "fusion_lon": 0.0}, {"rental_uris": {"android": "https://dc.lft.to/lastmile_qr_scan", "ios": "https://dc.lft.to/lastmile_qr_scan"}, "bike_id": "61f456db6c2e909e1194dfcc4bc25a57", "name": "61f456db6c2e909e1194dfcc4bc25a57", "type": "electric_scooter", "lon": -76.99350166666666, "lat": 38.91486166666667, "is_disabled": 0, "is_reserved": 0, "fusion_lat": 0.0, "fusion_lon": 0.0}, {"rental_uris": {"android": "https://dc.lft.to/lastmile_qr_scan", "ios": "https://dc.lft.to/lastmile_qr_scan"}, "bike_id": "50f8fb19ce002fb4f58e4b49e63ef2d9", "name": "50f8fb19ce002fb4f58e4b49e63ef2d9", "type": "electric_scooter", "lon": -77.03547666666667, "lat": 38.906797833333336, "is_disabled": 0, "is_reserved": 0, "fusion_lat": 0.0, "fusion_lon": 0.0}, {"rental_uris": {"android": "https://dc.lft.to/lastmile_qr_scan", "ios": "https://dc.lft.to/lastmile_qr_scan"}, "bike_id": "c0647807a036633df5a829389efe6ced", "name": "c0647807a036633df5a829389efe6ced", "type": "electric_scooter", "lon": -77.03179016666667, "lat": 38.91325633333334, "is_disabled": 0, "is_reserved": 0, "fusion_lat": 0.0, "fusion_lon": 0.0}, {"rental_uris": {"android": "https://dc.lft.to/lastmile_qr_scan", "ios": "https://dc.lft.to/lastmile_qr_scan"}, "bike_id": "d15c10843bb29834da886b19d9bb608e", "name": "d15c10843bb29834da886b19d9bb608e", "type": "electric_bike", "lon": -76.96534016666666, "lat": 38.87479316666666, "is_disabled": 0, "is_reserved": 0, "fusion_lat": 0.0, "fusion_lon": 0.0}, {"rental_uris": {"android": "https://dc.lft.to/lastmile_qr_scan", "ios": "https://dc.lft.to/lastmile_qr_scan"}, "bike_id": "bd1272ac538993a6350e324267421d46", "name": "bd1272ac538993a6350e324267421d46", "type": "electric_bike", "lon": -77.08624383333333, "lat": 38.88187383333333, "is_disabled": 0, "is_reserved": 0, "fusion_lat": 0.0, "fusion_lon": 0.0}, {"rental_uris": {"android": "https://dc.lft.to/lastmile_qr_scan", "ios": "https://dc.lft.to/lastmile_qr_scan"}, "bike_id": "c2bce9058027b4180f5f9b08d094d99a", "name": "c2bce9058027b4180f5f9b08d094d99a", "type": "electric_scooter", "lon": -77.04185116666666, "lat": 38.9168105, "is_disabled": 0, "is_reserved": 0, "fusion_lat": 0.0, "fusion_lon": 0.0}, {"rental_uris": {"android": "https://dc.lft.to/lastmile_qr_scan", "ios": "https://dc.lft.to/lastmile_qr_scan"}, "bike_id": "37a9d67ac2a20b7f5db87599cbe02735", "name": "37a9d67ac2a20b7f5db87599cbe02735", "type": "electric_bike", "lon": -76.97885666666667, "lat": 38.91591533333333, "is_disabled": 0, "is_reserved": 0, "fusion_lat": 0.0, "fusion_lon": 0.0}, {"rental_uris": {"android": "https://dc.lft.to/lastmile_qr_scan", "ios": "https://dc.lft.to/lastmile_qr_scan"}, "bike_id": "d58c31e89e57e94b8d990a59ccd913af", "name": "d58c31e89e57e94b8d990a59ccd913af", "type": "electric_scooter", "lon": -77.0230405, "lat": 38.89662966666667, "is_disabled": 0, "is_reserved": 0, "fusion_lat": 0.0, "fusion_lon": 0.0}, {"rental_uris": {"android": "https://dc.lft.to/lastmile_qr_scan", "ios": "https://dc.lft.to/lastmile_qr_scan"}, "bike_id": "1d7423090cd6e6dbb583c78394cd62f7", "name": "1d7423090cd6e6dbb583c78394cd62f7", "type": "electric_bike", "lon": -77.178405, "lat": 39.0885825, "is_disabled": 0, "is_reserved": 0, "fusion_lat": 0.0, "fusion_lon": 0.0}, {"rental_uris": {"android": "https://dc.lft.to/lastmile_qr_scan", "ios": "https://dc.lft.to/lastmile_qr_scan"}, "bike_id": "115ca886a708625e1cdde4c6dc0e973b", "name": "115ca886a708625e1cdde4c6dc0e973b", "type": "electric_scooter", "lon": -76.93988966666667, "lat": 38.899811666666665, "is_disabled": 0, "is_reserved": 0, "fusion_lat": 0.0, "fusion_lon": 0.0}, {"rental_uris": {"android": "https://dc.lft.to/lastmile_qr_scan", "ios": "https://dc.lft.to/lastmile_qr_scan"}, "bike_id": "e60ac69e6128ff5e104eb3771e9e78f0", "name": "e60ac69e6128ff5e104eb3771e9e78f0", "type": "electric_bike", "lon": -77.01108683333334, "lat": 38.880340333333336, "is_disabled": 0, "is_reserved": 0, "fusion_lat": 0.0, "fusion_lon": 0.0}, {"rental_uris": {"android": "https://dc.lft.to/lastmile_qr_scan", "ios": "https://dc.lft.to/lastmile_qr_scan"}, "bike_id": "69e66f87ea6bb66960eb1c47bda0c1e6", "name": "69e66f87ea6bb66960eb1c47bda0c1e6", "type": "electric_bike", "lon": -77.22225883333333, "lat": 38.92863, "is_disabled": 0, "is_reserved": 0, "fusion_lat": 0.0, "fusion_lon": 0.0}, {"rental_uris": {"android": "https://dc.lft.to/lastmile_qr_scan", "ios": "https://dc.lft.to/lastmile_qr_scan"}, "bike_id": "73cb2a81eb58b0a9c30d900628214654", "name": "73cb2a81eb58b0a9c30d900628214654", "type": "electric_scooter", "lon": -77.032704, "lat": 38.9323675, "is_disabled": 0, "is_reserved": 0, "fusion_lat": 0.0, "fusion_lon": 0.0}, {"rental_uris": {"android": "https://dc.lft.to/lastmile_qr_scan", "ios": "https://dc.lft.to/lastmile_qr_scan"}, "bike_id": "07afd3c4025a325770b1ce00f497b952", "name": "07afd3c4025a325770b1ce00f497b952", "type": "electric_scooter", "lon": -77.020151, "lat": 38.90084566666667, "is_disabled": 0, "is_reserved": 0, "fusion_lat": 0.0, "fusion_lon": 0.0}, {"rental_uris": {"android": "https://dc.lft.to/lastmile_qr_scan", "ios": "https://dc.lft.to/lastmile_qr_scan"}, "bike_id": "f1c927a460c7e2a6195461dc0f15cc92", "name": "f1c927a460c7e2a6195461dc0f15cc92", "type": "electric_scooter", "lon": -77.03994016666667, "lat": 38.90406216666667, "is_disabled": 0, "is_reserved": 0, "fusion_lat": 0.0, "fusion_lon": 0.0}, {"rental_uris": {"android": "https://dc.lft.to/lastmile_qr_scan", "ios": "https://dc.lft.to/lastmile_qr_scan"}, "bike_id": "ae710646e81b04a9087a323a92a464de", "name": "ae710646e81b04a9087a323a92a464de", "type": "electric_scooter", "lon": -77.04552466666667, "lat": 38.92422633333334, "is_disabled": 0, "is_reserved": 0, "fusion_lat": 0.0, "fusion_lon": 0.0}, {"rental_uris": {"android": "https://dc.lft.to/lastmile_qr_scan", "ios": "https://dc.lft.to/lastmile_qr_scan"}, "bike_id": "0893ca59bc01502b15adc521eb142204", "name": "0893ca59bc01502b15adc521eb142204", "type": "electric_scooter", "lon": -77.02349066666666, "lat": 38.93075616666667, "is_disabled": 0, "is_reserved": 0, "fusion_lat": 0.0, "fusion_lon": 0.0}, {"rental_uris": {"android": "https://dc.lft.to/lastmile_qr_scan", "ios": "https://dc.lft.to/lastmile_qr_scan"}, "bike_id": "b341135fe072a3900768c259c03731c8", "name": "b341135fe072a3900768c259c03731c8", "type": "electric_scooter", "lon": -76.9463465, "lat": 38.89841083333334, "is_disabled": 0, "is_reserved": 0, "fusion_lat": 0.0, "fusion_lon": 0.0}, {"rental_uris": {"android": "https://dc.lft.to/lastmile_qr_scan", "ios": "https://dc.lft.to/lastmile_qr_scan"}, "bike_id": "88f8f1913c53ad6bcd145aa9975c1061", "name": "88f8f1913c53ad6bcd145aa9975c1061", "type": "electric_scooter", "lon": -76.99946516666667, "lat": 38.8429265, "is_disabled": 0, "is_reserved": 0, "fusion_lat": 0.0, "fusion_lon": 0.0}, {"rental_uris": {"android": "https://dc.lft.to/lastmile_qr_scan", "ios": "https://dc.lft.to/lastmile_qr_scan"}, "bike_id": "b242236b906f8a521537479b343eac0a", "name": "b242236b906f8a521537479b343eac0a", "type": "electric_scooter", "lon": -76.93734016666667, "lat": 38.89018133333333, "is_disabled": 0, "is_reserved": 0, "fusion_lat": 0.0, "fusion_lon": 0.0}, {"rental_uris": {"android": "https://dc.lft.to/lastmile_qr_scan", "ios": "https://dc.lft.to/lastmile_qr_scan"}, "bike_id": "26bbbea689dd5f740b26665576b988f6", "name": "26bbbea689dd5f740b26665576b988f6", "type": "electric_scooter", "lon": -77.0378565, "lat": 38.93219633333333, "is_disabled": 0, "is_reserved": 0, "fusion_lat": 0.0, "fusion_lon": 0.0}, {"rental_uris": {"android": "https://dc.lft.to/lastmile_qr_scan", "ios": "https://dc.lft.to/lastmile_qr_scan"}, "bike_id": "d144a1984b3b61aac272d01a72bc5a76", "name": "d144a1984b3b61aac272d01a72bc5a76", "type": "electric_scooter", "lon": -77.0262395, "lat": 38.8965905, "is_disabled": 0, "is_reserved": 0, "fusion_lat": 0.0, "fusion_lon": 0.0}, {"rental_uris": {"android": "https://dc.lft.to/lastmile_qr_scan", "ios": "https://dc.lft.to/lastmile_qr_scan"}, "bike_id": "d620991c9248b3b55c8bd59113957ac5", "name": "d620991c9248b3b55c8bd59113957ac5", "type": "electric_scooter", "lon": -77.029727, "lat": 38.917243666666664, "is_disabled": 0, "is_reserved": 0, "fusion_lat": 0.0, "fusion_lon": 0.0}, {"rental_uris": {"android": "https://dc.lft.to/lastmile_qr_scan", "ios": "https://dc.lft.to/lastmile_qr_scan"}, "bike_id": "de98da0c604807df010237829f9f354d", "name": "de98da0c604807df010237829f9f354d", "type": "electric_scooter", "lon": -76.98401783333334, "lat": 38.8670035, "is_disabled": 0, "is_reserved": 0, "fusion_lat": 0.0, "fusion_lon": 0.0}, {"rental_uris": {"android": "https://dc.lft.to/lastmile_qr_scan", "ios": "https://dc.lft.to/lastmile_qr_scan"}, "bike_id": "1b23f50c10da93b5a35626c18f1000ca", "name": "1b23f50c10da93b5a35626c18f1000ca", "type": "electric_scooter", "lon": -77.04678283333334, "lat": 38.895118333333336, "is_disabled": 0, "is_reserved": 0, "fusion_lat": 0.0, "fusion_lon": 0.0}, {"rental_uris": {"android": "https://dc.lft.to/lastmile_qr_scan", "ios": "https://dc.lft.to/lastmile_qr_scan"}, "bike_id": "474e530b5788c88f9e603bcf52ac08ab", "name": "474e530b5788c88f9e603bcf52ac08ab", "type": "electric_scooter", "lon": -77.06977, "lat": 38.95304383333333, "is_disabled": 0, "is_reserved": 0, "fusion_lat": 0.0, "fusion_lon": 0.0}, {"rental_uris": {"android": "https://dc.lft.to/lastmile_qr_scan", "ios": "https://dc.lft.to/lastmile_qr_scan"}, "bike_id": "78e935752b58ff86bd283a576be36130", "name": "78e935752b58ff86bd283a576be36130", "type": "electric_scooter", "lon": -77.03655966666666, "lat": 38.917977666666665, "is_disabled": 0, "is_reserved": 0, "fusion_lat": 0.0, "fusion_lon": 0.0}, {"rental_uris": {"android": "https://dc.lft.to/lastmile_qr_scan", "ios": "https://dc.lft.to/lastmile_qr_scan"}, "bike_id": "366d3d1b0481aacb3344c08e58d52da1", "name": "366d3d1b0481aacb3344c08e58d52da1", "type": "electric_scooter", "lon": -77.02287766666667, "lat": 38.916065833333334, "is_disabled": 0, "is_reserved": 0, "fusion_lat": 0.0, "fusion_lon": 0.0}, {"rental_uris": {"android": "https://dc.lft.to/lastmile_qr_scan", "ios": "https://dc.lft.to/lastmile_qr_scan"}, "bike_id": "e0fca5a55fdba5ef33ee4d587237e663", "name": "e0fca5a55fdba5ef33ee4d587237e663", "type": "electric_bike", "lon": -77.13896916666667, "lat": 38.896846333333336, "is_disabled": 0, "is_reserved": 0, "fusion_lat": 0.0, "fusion_lon": 0.0}, {"rental_uris": {"android": "https://dc.lft.to/lastmile_qr_scan", "ios": "https://dc.lft.to/lastmile_qr_scan"}, "bike_id": "8ce135f178295c1d9f0736a88a7c8753", "name": "8ce135f178295c1d9f0736a88a7c8753", "type": "electric_scooter", "lon": -77.00698566666667, "lat": 38.897167833333334, "is_disabled": 0, "is_reserved": 0, "fusion_lat": 0.0, "fusion_lon": 0.0}, {"rental_uris": {"android": "https://dc.lft.to/lastmile_qr_scan", "ios": "https://dc.lft.to/lastmile_qr_scan"}, "bike_id": "20236ff777424fffc04787f478bb284d", "name": "20236ff777424fffc04787f478bb284d", "type": "electric_scooter", "lon": -77.05044283333334, "lat": 38.923587, "is_disabled": 0, "is_reserved": 0, "fusion_lat": 0.0, "fusion_lon": 0.0}, {"rental_uris": {"android": "https://dc.lft.to/lastmile_qr_scan", "ios": "https://dc.lft.to/lastmile_qr_scan"}, "bike_id": "fe906c35966b4d01121d7bff9bc302c9", "name": "fe906c35966b4d01121d7bff9bc302c9", "type": "electric_bike", "lon": -77.11076016666667, "lat": 38.870621, "is_disabled": 0, "is_reserved": 0, "fusion_lat": 0.0, "fusion_lon": 0.0}, {"rental_uris": {"android": "https://dc.lft.to/lastmile_qr_scan", "ios": "https://dc.lft.to/lastmile_qr_scan"}, "bike_id": "5e03f22794804bb8b9cdd1e8144ef2f3", "name": "5e03f22794804bb8b9cdd1e8144ef2f3", "type": "electric_scooter", "lon": -76.93197933333333, "lat": 38.898812666666664, "is_disabled": 0, "is_reserved": 0, "fusion_lat": 0.0, "fusion_lon": 0.0}, {"rental_uris": {"android": "https://dc.lft.to/lastmile_qr_scan", "ios": "https://dc.lft.to/lastmile_qr_scan"}, "bike_id": "a5a7bcbe54855425fb4e19ace441c98e", "name": "a5a7bcbe54855425fb4e19ace441c98e", "type": "electric_scooter", "lon": -77.02707533333333, "lat": 38.928809, "is_disabled": 0, "is_reserved": 0, "fusion_lat": 0.0, "fusion_lon": 0.0}, {"rental_uris": {"android": "https://dc.lft.to/lastmile_qr_scan", "ios": "https://dc.lft.to/lastmile_qr_scan"}, "bike_id": "784f289fa47833d7773042b03930098a", "name": "784f289fa47833d7773042b03930098a", "type": "electric_scooter", "lon": -76.979507, "lat": 38.916817, "is_disabled": 0, "is_reserved": 0, "fusion_lat": 0.0, "fusion_lon": 0.0}, {"rental_uris": {"android": "https://dc.lft.to/lastmile_qr_scan", "ios": "https://dc.lft.to/lastmile_qr_scan"}, "bike_id": "dbb24801dade620b3fba9cd2d02ca851", "name": "dbb24801dade620b3fba9cd2d02ca851", "type": "electric_scooter", "lon": -77.070334, "lat": 38.90636766666667, "is_disabled": 0, "is_reserved": 0, "fusion_lat": 0.0, "fusion_lon": 0.0}, {"rental_uris": {"android": "https://dc.lft.to/lastmile_qr_scan", "ios": "https://dc.lft.to/lastmile_qr_scan"}, "bike_id": "d6ebfffd5ff6898e5261edb67cdd3af6", "name": "d6ebfffd5ff6898e5261edb67cdd3af6", "type": "electric_scooter", "lon": -76.999007, "lat": 38.948162333333336, "is_disabled": 0, "is_reserved": 0, "fusion_lat": 0.0, "fusion_lon": 0.0}, {"rental_uris": {"android": "https://dc.lft.to/lastmile_qr_scan", "ios": "https://dc.lft.to/lastmile_qr_scan"}, "bike_id": "ba9740fb1c9e37277395f1804b72bf56", "name": "ba9740fb1c9e37277395f1804b72bf56", "type": "electric_scooter", "lon": -77.0295755, "lat": 38.89947566666667, "is_disabled": 0, "is_reserved": 0, "fusion_lat": 0.0, "fusion_lon": 0.0}, {"rental_uris": {"android": "https://dc.lft.to/lastmile_qr_scan", "ios": "https://dc.lft.to/lastmile_qr_scan"}, "bike_id": "a59883c90f251a24b71e1f502b0ecf94", "name": "a59883c90f251a24b71e1f502b0ecf94", "type": "electric_scooter", "lon": -77.0418475, "lat": 38.91880666666667, "is_disabled": 0, "is_reserved": 0, "fusion_lat": 0.0, "fusion_lon": 0.0}, {"rental_uris": {"android": "https://dc.lft.to/lastmile_qr_scan", "ios": "https://dc.lft.to/lastmile_qr_scan"}, "bike_id": "74fcdbcd068e52db92ada86f3ba47724", "name": "74fcdbcd068e52db92ada86f3ba47724", "type": "electric_scooter", "lon": -77.06347066666666, "lat": 38.90692116666666, "is_disabled": 0, "is_reserved": 0, "fusion_lat": 0.0, "fusion_lon": 0.0}, {"rental_uris": {"android": "https://dc.lft.to/lastmile_qr_scan", "ios": "https://dc.lft.to/lastmile_qr_scan"}, "bike_id": "38780b420d54cf192e022f455c254676", "name": "38780b420d54cf192e022f455c254676", "type": "electric_scooter", "lon": -77.0319465, "lat": 38.930711, "is_disabled": 0, "is_reserved": 0, "fusion_lat": 0.0, "fusion_lon": 0.0}, {"rental_uris": {"android": "https://dc.lft.to/lastmile_qr_scan", "ios": "https://dc.lft.to/lastmile_qr_scan"}, "bike_id": "8ac7c0b31abf0e7a43dde0e9d279ad02", "name": "8ac7c0b31abf0e7a43dde0e9d279ad02", "type": "electric_bike", "lon": -77.20838616666667, "lat": 38.924634166666664, "is_disabled": 0, "is_reserved": 0, "fusion_lat": 0.0, "fusion_lon": 0.0}, {"rental_uris": {"android": "https://dc.lft.to/lastmile_qr_scan", "ios": "https://dc.lft.to/lastmile_qr_scan"}, "bike_id": "166e029b45eca6fbf3e58b9a2294fba6", "name": "166e029b45eca6fbf3e58b9a2294fba6", "type": "electric_scooter", "lon": -77.05839683333333, "lat": 38.91061466666667, "is_disabled": 0, "is_reserved": 0, "fusion_lat": 0.0, "fusion_lon": 0.0}, {"rental_uris": {"android": "https://dc.lft.to/lastmile_qr_scan", "ios": "https://dc.lft.to/lastmile_qr_scan"}, "bike_id": "2103118b5dff759590af636b3828d83b", "name": "2103118b5dff759590af636b3828d83b", "type": "electric_scooter", "lon": -76.989945, "lat": 38.8641555, "is_disabled": 0, "is_reserved": 0, "fusion_lat": 0.0, "fusion_lon": 0.0}, {"rental_uris": {"android": "https://dc.lft.to/lastmile_qr_scan", "ios": "https://dc.lft.to/lastmile_qr_scan"}, "bike_id": "c961e2486de3a63a10dd21076549122f", "name": "c961e2486de3a63a10dd21076549122f", "type": "electric_scooter", "lon": -76.9992375, "lat": 38.920365333333336, "is_disabled": 0, "is_reserved": 0, "fusion_lat": 0.0, "fusion_lon": 0.0}, {"rental_uris": {"android": "https://dc.lft.to/lastmile_qr_scan", "ios": "https://dc.lft.to/lastmile_qr_scan"}, "bike_id": "7f170531c2499615b977939b353e6711", "name": "7f170531c2499615b977939b353e6711", "type": "electric_bike", "lon": -77.00225933333333, "lat": 38.81927433333333, "is_disabled": 0, "is_reserved": 0, "fusion_lat": 0.0, "fusion_lon": 0.0}, {"rental_uris": {"android": "https://dc.lft.to/lastmile_qr_scan", "ios": "https://dc.lft.to/lastmile_qr_scan"}, "bike_id": "34f75d4c782844551bad1366d8d70aec", "name": "34f75d4c782844551bad1366d8d70aec", "type": "electric_bike", "lon": -77.11353016666666, "lat": 38.831315833333335, "is_disabled": 0, "is_reserved": 0, "fusion_lat": 0.0, "fusion_lon": 0.0}, {"rental_uris": {"android": "https://dc.lft.to/lastmile_qr_scan", "ios": "https://dc.lft.to/lastmile_qr_scan"}, "bike_id": "35892323a1dfb47b95df2c379615abb6", "name": "35892323a1dfb47b95df2c379615abb6", "type": "electric_scooter", "lon": -77.04837983333333, "lat": 38.907901833333334, "is_disabled": 0, "is_reserved": 0, "fusion_lat": 0.0, "fusion_lon": 0.0}, {"rental_uris": {"android": "https://dc.lft.to/lastmile_qr_scan", "ios": "https://dc.lft.to/lastmile_qr_scan"}, "bike_id": "a7368e967b0875ed2223676187e75a96", "name": "a7368e967b0875ed2223676187e75a96", "type": "electric_scooter", "lon": -77.01414183333333, "lat": 38.9282855, "is_disabled": 0, "is_reserved": 0, "fusion_lat": 0.0, "fusion_lon": 0.0}, {"rental_uris": {"android": "https://dc.lft.to/lastmile_qr_scan", "ios": "https://dc.lft.to/lastmile_qr_scan"}, "bike_id": "f4ac865adb01da4ea340eb00622c1a02", "name": "f4ac865adb01da4ea340eb00622c1a02", "type": "electric_scooter", "lon": -77.018836, "lat": 38.92256733333333, "is_disabled": 0, "is_reserved": 0, "fusion_lat": 0.0, "fusion_lon": 0.0}, {"rental_uris": {"android": "https://dc.lft.to/lastmile_qr_scan", "ios": "https://dc.lft.to/lastmile_qr_scan"}, "bike_id": "0e5b18d2d55ebfee9814c6c601518c72", "name": "0e5b18d2d55ebfee9814c6c601518c72", "type": "electric_scooter", "lon": -77.05907466666666, "lat": 38.90333066666667, "is_disabled": 0, "is_reserved": 0, "fusion_lat": 0.0, "fusion_lon": 0.0}, {"rental_uris": {"android": "https://dc.lft.to/lastmile_qr_scan", "ios": "https://dc.lft.to/lastmile_qr_scan"}, "bike_id": "6a0e06017f20ea1d9bf654d4c9cf32b5", "name": "6a0e06017f20ea1d9bf654d4c9cf32b5", "type": "electric_scooter", "lon": -77.03128733333334, "lat": 38.920223166666666, "is_disabled": 0, "is_reserved": 0, "fusion_lat": 0.0, "fusion_lon": 0.0}, {"rental_uris": {"android": "https://dc.lft.to/lastmile_qr_scan", "ios": "https://dc.lft.to/lastmile_qr_scan"}, "bike_id": "bc40c006331b6390da8bb984e2e75819", "name": "bc40c006331b6390da8bb984e2e75819", "type": "electric_scooter", "lon": -77.03460433333333, "lat": 38.906417166666664, "is_disabled": 0, "is_reserved": 0, "fusion_lat": 0.0, "fusion_lon": 0.0}, {"rental_uris": {"android": "https://dc.lft.to/lastmile_qr_scan", "ios": "https://dc.lft.to/lastmile_qr_scan"}, "bike_id": "a2d1e7fd49505afe7befc215fc75eaea", "name": "a2d1e7fd49505afe7befc215fc75eaea", "type": "electric_scooter", "lon": -77.03133183333334, "lat": 38.923763666666666, "is_disabled": 0, "is_reserved": 0, "fusion_lat": 0.0, "fusion_lon": 0.0}, {"rental_uris": {"android": "https://dc.lft.to/lastmile_qr_scan", "ios": "https://dc.lft.to/lastmile_qr_scan"}, "bike_id": "2b93bdb50b3119ee621911e2fc47e693", "name": "2b93bdb50b3119ee621911e2fc47e693", "type": "electric_scooter", "lon": -77.03732733333334, "lat": 38.935695, "is_disabled": 0, "is_reserved": 0, "fusion_lat": 0.0, "fusion_lon": 0.0}, {"rental_uris": {"android": "https://dc.lft.to/lastmile_qr_scan", "ios": "https://dc.lft.to/lastmile_qr_scan"}, "bike_id": "1b3f560978c0757743a702530091b314", "name": "1b3f560978c0757743a702530091b314", "type": "electric_scooter", "lon": -77.02089233333334, "lat": 38.92135366666667, "is_disabled": 0, "is_reserved": 0, "fusion_lat": 0.0, "fusion_lon": 0.0}, {"rental_uris": {"android": "https://dc.lft.to/lastmile_qr_scan", "ios": "https://dc.lft.to/lastmile_qr_scan"}, "bike_id": "c3e06f7fa25a33ec578d4cecaffa2dbc", "name": "c3e06f7fa25a33ec578d4cecaffa2dbc", "type": "electric_scooter", "lon": -76.94635283333334, "lat": 38.89843666666667, "is_disabled": 0, "is_reserved": 0, "fusion_lat": 0.0, "fusion_lon": 0.0}, {"rental_uris": {"android": "https://dc.lft.to/lastmile_qr_scan", "ios": "https://dc.lft.to/lastmile_qr_scan"}, "bike_id": "489ffc5354715fd9ef2982a1da6dea9d", "name": "489ffc5354715fd9ef2982a1da6dea9d", "type": "electric_scooter", "lon": -76.99776716666666, "lat": 38.84430866666667, "is_disabled": 0, "is_reserved": 0, "fusion_lat": 0.0, "fusion_lon": 0.0}, {"rental_uris": {"android": "https://dc.lft.to/lastmile_qr_scan", "ios": "https://dc.lft.to/lastmile_qr_scan"}, "bike_id": "481bdfc4e7db0126f44d1750bf3a8d4c", "name": "481bdfc4e7db0126f44d1750bf3a8d4c", "type": "electric_scooter", "lon": -77.01231833333334, "lat": 38.93109, "is_disabled": 0, "is_reserved": 0, "fusion_lat": 0.0, "fusion_lon": 0.0}, {"rental_uris": {"android": "https://dc.lft.to/lastmile_qr_scan", "ios": "https://dc.lft.to/lastmile_qr_scan"}, "bike_id": "549b66465a680441b9b8bc6b6751c1b6", "name": "549b66465a680441b9b8bc6b6751c1b6", "type": "electric_scooter", "lon": -76.95757616666667, "lat": 38.88430983333333, "is_disabled": 0, "is_reserved": 0, "fusion_lat": 0.0, "fusion_lon": 0.0}, {"rental_uris": {"android": "https://dc.lft.to/lastmile_qr_scan", "ios": "https://dc.lft.to/lastmile_qr_scan"}, "bike_id": "cff543a0f6cb06ab14fec96193280ec1", "name": "cff543a0f6cb06ab14fec96193280ec1", "type": "electric_bike", "lon": -76.97828966666667, "lat": 38.84377583333333, "is_disabled": 0, "is_reserved": 0, "fusion_lat": 0.0, "fusion_lon": 0.0}, {"rental_uris": {"android": "https://dc.lft.to/lastmile_qr_scan", "ios": "https://dc.lft.to/lastmile_qr_scan"}, "bike_id": "f816e2ef16ee0d775bc3ea57d3b34daf", "name": "f816e2ef16ee0d775bc3ea57d3b34daf", "type": "electric_scooter", "lon": -77.03457133333333, "lat": 38.90754666666667, "is_disabled": 0, "is_reserved": 0, "fusion_lat": 0.0, "fusion_lon": 0.0}, {"rental_uris": {"android": "https://dc.lft.to/lastmile_qr_scan", "ios": "https://dc.lft.to/lastmile_qr_scan"}, "bike_id": "90e2716ac6eca318be27144630d4826a", "name": "90e2716ac6eca318be27144630d4826a", "type": "electric_scooter", "lon": -77.02810483333333, "lat": 38.914294166666664, "is_disabled": 0, "is_reserved": 0, "fusion_lat": 0.0, "fusion_lon": 0.0}, {"rental_uris": {"android": "https://dc.lft.to/lastmile_qr_scan", "ios": "https://dc.lft.to/lastmile_qr_scan"}, "bike_id": "e4a89cd4d78a86fa94adfd47fcb79ecc", "name": "e4a89cd4d78a86fa94adfd47fcb79ecc", "type": "electric_scooter", "lon": -76.93751716666667, "lat": 38.89046033333333, "is_disabled": 0, "is_reserved": 0, "fusion_lat": 0.0, "fusion_lon": 0.0}, {"rental_uris": {"android": "https://dc.lft.to/lastmile_qr_scan", "ios": "https://dc.lft.to/lastmile_qr_scan"}, "bike_id": "85f430904ad2d224c8962116602f1c2a", "name": "85f430904ad2d224c8962116602f1c2a", "type": "electric_scooter", "lon": -77.0335395, "lat": 38.900976, "is_disabled": 0, "is_reserved": 0, "fusion_lat": 0.0, "fusion_lon": 0.0}, {"rental_uris": {"android": "https://dc.lft.to/lastmile_qr_scan", "ios": "https://dc.lft.to/lastmile_qr_scan"}, "bike_id": "c0653d41beebb89c88f2ec197beebd4a", "name": "c0653d41beebb89c88f2ec197beebd4a", "type": "electric_scooter", "lon": -77.02191383333333, "lat": 38.914779333333335, "is_disabled": 0, "is_reserved": 0, "fusion_lat": 0.0, "fusion_lon": 0.0}, {"rental_uris": {"android": "https://dc.lft.to/lastmile_qr_scan", "ios": "https://dc.lft.to/lastmile_qr_scan"}, "bike_id": "6a20081f0a4e882d200618552be09514", "name": "6a20081f0a4e882d200618552be09514", "type": "electric_bike", "lon": -76.97098966666667, "lat": 38.85706016666666, "is_disabled": 0, "is_reserved": 0, "fusion_lat": 0.0, "fusion_lon": 0.0}, {"rental_uris": {"android": "https://dc.lft.to/lastmile_qr_scan", "ios": "https://dc.lft.to/lastmile_qr_scan"}, "bike_id": "e2be48b0498fe9b352c43d5a9c8b500a", "name": "e2be48b0498fe9b352c43d5a9c8b500a", "type": "electric_scooter", "lon": -76.997763, "lat": 38.844277, "is_disabled": 0, "is_reserved": 0, "fusion_lat": 0.0, "fusion_lon": 0.0}, {"rental_uris": {"android": "https://dc.lft.to/lastmile_qr_scan", "ios": "https://dc.lft.to/lastmile_qr_scan"}, "bike_id": "abe1a7a6750922159c95136cb179d299", "name": "abe1a7a6750922159c95136cb179d299", "type": "electric_scooter", "lon": -77.034968, "lat": 38.91714416666667, "is_disabled": 0, "is_reserved": 0, "fusion_lat": 0.0, "fusion_lon": 0.0}, {"rental_uris": {"android": "https://dc.lft.to/lastmile_qr_scan", "ios": "https://dc.lft.to/lastmile_qr_scan"}, "bike_id": "2bfc88a96bbb5579e3d8a1ecc4e361a6", "name": "2bfc88a96bbb5579e3d8a1ecc4e361a6", "type": "electric_scooter", "lon": -77.05126383333334, "lat": 38.905763666666665, "is_disabled": 0, "is_reserved": 0, "fusion_lat": 0.0, "fusion_lon": 0.0}, {"rental_uris": {"android": "https://dc.lft.to/lastmile_qr_scan", "ios": "https://dc.lft.to/lastmile_qr_scan"}, "bike_id": "01e5bd9bd006b74b6e2cbd13101fda55", "name": "01e5bd9bd006b74b6e2cbd13101fda55", "type": "electric_bike", "lon": -77.0619465, "lat": 38.941129, "is_disabled": 0, "is_reserved": 0, "fusion_lat": 0.0, "fusion_lon": 0.0}, {"rental_uris": {"android": "https://dc.lft.to/lastmile_qr_scan", "ios": "https://dc.lft.to/lastmile_qr_scan"}, "bike_id": "21e7d4c98a352963e3a934c892a94b2e", "name": "21e7d4c98a352963e3a934c892a94b2e", "type": "electric_bike", "lon": -77.04497833333333, "lat": 38.842825166666664, "is_disabled": 0, "is_reserved": 0, "fusion_lat": 0.0, "fusion_lon": 0.0}, {"rental_uris": {"android": "https://dc.lft.to/lastmile_qr_scan", "ios": "https://dc.lft.to/lastmile_qr_scan"}, "bike_id": "778487f853e8ea67283eeb3fbe0df8a4", "name": "778487f853e8ea67283eeb3fbe0df8a4", "type": "electric_scooter", "lon": -77.00494483333334, "lat": 38.89691083333334, "is_disabled": 0, "is_reserved": 0, "fusion_lat": 0.0, "fusion_lon": 0.0}, {"rental_uris": {"android": "https://dc.lft.to/lastmile_qr_scan", "ios": "https://dc.lft.to/lastmile_qr_scan"}, "bike_id": "a1b0c9bf0e7254ae16ba03c289763f57", "name": "a1b0c9bf0e7254ae16ba03c289763f57", "type": "electric_bike", "lon": -76.9690845, "lat": 38.846078166666665, "is_disabled": 0, "is_reserved": 0, "fusion_lat": 0.0, "fusion_lon": 0.0}, {"rental_uris": {"android": "https://dc.lft.to/lastmile_qr_scan", "ios": "https://dc.lft.to/lastmile_qr_scan"}, "bike_id": "0dffa09a3890e441c0ebe2e4d2966189", "name": "0dffa09a3890e441c0ebe2e4d2966189", "type": "electric_scooter", "lon": -77.03102083333333, "lat": 38.95074666666667, "is_disabled": 0, "is_reserved": 0, "fusion_lat": 0.0, "fusion_lon": 0.0}, {"rental_uris": {"android": "https://dc.lft.to/lastmile_qr_scan", "ios": "https://dc.lft.to/lastmile_qr_scan"}, "bike_id": "bcd84b7cc6f06ffff0eb3436f3bedc6d", "name": "bcd84b7cc6f06ffff0eb3436f3bedc6d", "type": "electric_scooter", "lon": -77.08397, "lat": 38.90801116666667, "is_disabled": 0, "is_reserved": 0, "fusion_lat": 0.0, "fusion_lon": 0.0}, {"rental_uris": {"android": "https://dc.lft.to/lastmile_qr_scan", "ios": "https://dc.lft.to/lastmile_qr_scan"}, "bike_id": "23a769528f2d6fcfb7a49d599e45a7d9", "name": "23a769528f2d6fcfb7a49d599e45a7d9", "type": "electric_scooter", "lon": -77.00213333333333, "lat": 38.914487, "is_disabled": 0, "is_reserved": 0, "fusion_lat": 0.0, "fusion_lon": 0.0}, {"rental_uris": {"android": "https://dc.lft.to/lastmile_qr_scan", "ios": "https://dc.lft.to/lastmile_qr_scan"}, "bike_id": "dc206c657569d26e2395147e5b58e1cc", "name": "dc206c657569d26e2395147e5b58e1cc", "type": "electric_scooter", "lon": -76.99837966666666, "lat": 38.8847365, "is_disabled": 0, "is_reserved": 0, "fusion_lat": 0.0, "fusion_lon": 0.0}, {"rental_uris": {"android": "https://dc.lft.to/lastmile_qr_scan", "ios": "https://dc.lft.to/lastmile_qr_scan"}, "bike_id": "d1e0143dc58788dabe73d76d8e17f0c7", "name": "d1e0143dc58788dabe73d76d8e17f0c7", "type": "electric_scooter", "lon": -76.94933316666666, "lat": 38.89352516666667, "is_disabled": 0, "is_reserved": 0, "fusion_lat": 0.0, "fusion_lon": 0.0}, {"rental_uris": {"android": "https://dc.lft.to/lastmile_qr_scan", "ios": "https://dc.lft.to/lastmile_qr_scan"}, "bike_id": "d0c013a2bf43b7c7da11347111f2edef", "name": "d0c013a2bf43b7c7da11347111f2edef", "type": "electric_bike", "lon": -76.99776683333333, "lat": 38.86211516666667, "is_disabled": 0, "is_reserved": 0, "fusion_lat": 0.0, "fusion_lon": 0.0}, {"rental_uris": {"android": "https://dc.lft.to/lastmile_qr_scan", "ios": "https://dc.lft.to/lastmile_qr_scan"}, "bike_id": "1e448aea18cf4440a5a9d5dcb94fafdf", "name": "1e448aea18cf4440a5a9d5dcb94fafdf", "type": "electric_scooter", "lon": -77.04689033333334, "lat": 38.89226083333333, "is_disabled": 0, "is_reserved": 0, "fusion_lat": 0.0, "fusion_lon": 0.0}, {"rental_uris": {"android": "https://dc.lft.to/lastmile_qr_scan", "ios": "https://dc.lft.to/lastmile_qr_scan"}, "bike_id": "51c2577e0005ac6d8689a4053a18d5aa", "name": "51c2577e0005ac6d8689a4053a18d5aa", "type": "electric_scooter", "lon": -77.0382545, "lat": 38.91257733333333, "is_disabled": 0, "is_reserved": 0, "fusion_lat": 0.0, "fusion_lon": 0.0}, {"rental_uris": {"android": "https://dc.lft.to/lastmile_qr_scan", "ios": "https://dc.lft.to/lastmile_qr_scan"}, "bike_id": "9f5df29d39a88f4970e7f34cd8c1eb25", "name": "9f5df29d39a88f4970e7f34cd8c1eb25", "type": "electric_scooter", "lon": -77.04274416666667, "lat": 38.90875366666667, "is_disabled": 0, "is_reserved": 0, "fusion_lat": 0.0, "fusion_lon": 0.0}, {"rental_uris": {"android": "https://dc.lft.to/lastmile_qr_scan", "ios": "https://dc.lft.to/lastmile_qr_scan"}, "bike_id": "3ae994068b0014e63559ebf744ed57ec", "name": "3ae994068b0014e63559ebf744ed57ec", "type": "electric_scooter", "lon": -77.02809683333334, "lat": 38.91692466666667, "is_disabled": 0, "is_reserved": 0, "fusion_lat": 0.0, "fusion_lon": 0.0}, {"rental_uris": {"android": "https://dc.lft.to/lastmile_qr_scan", "ios": "https://dc.lft.to/lastmile_qr_scan"}, "bike_id": "c75913eadd0dd729f5bbbe6ffe52a64b", "name": "c75913eadd0dd729f5bbbe6ffe52a64b", "type": "electric_scooter", "lon": -77.02812666666667, "lat": 38.9104135, "is_disabled": 0, "is_reserved": 0, "fusion_lat": 0.0, "fusion_lon": 0.0}, {"rental_uris": {"android": "https://dc.lft.to/lastmile_qr_scan", "ios": "https://dc.lft.to/lastmile_qr_scan"}, "bike_id": "4edaef780800ad8933d5a480eb6c7352", "name": "4edaef780800ad8933d5a480eb6c7352", "type": "electric_scooter", "lon": -77.004875, "lat": 38.8747745, "is_disabled": 0, "is_reserved": 0, "fusion_lat": 0.0, "fusion_lon": 0.0}, {"rental_uris": {"android": "https://dc.lft.to/lastmile_qr_scan", "ios": "https://dc.lft.to/lastmile_qr_scan"}, "bike_id": "53a43d729dcee6e1633e7300f9ea433f", "name": "53a43d729dcee6e1633e7300f9ea433f", "type": "electric_scooter", "lon": -77.02311883333333, "lat": 38.91772783333333, "is_disabled": 0, "is_reserved": 0, "fusion_lat": 0.0, "fusion_lon": 0.0}, {"rental_uris": {"android": "https://dc.lft.to/lastmile_qr_scan", "ios": "https://dc.lft.to/lastmile_qr_scan"}, "bike_id": "2f48661a9f770cab2f328f72b36e0c5a", "name": "2f48661a9f770cab2f328f72b36e0c5a", "type": "electric_scooter", "lon": -77.0270015, "lat": 38.92711033333333, "is_disabled": 0, "is_reserved": 0, "fusion_lat": 0.0, "fusion_lon": 0.0}, {"rental_uris": {"android": "https://dc.lft.to/lastmile_qr_scan", "ios": "https://dc.lft.to/lastmile_qr_scan"}, "bike_id": "93d17b699525fdcd8513b8bb523a3854", "name": "93d17b699525fdcd8513b8bb523a3854", "type": "electric_scooter", "lon": -77.04092466666667, "lat": 38.917752166666666, "is_disabled": 0, "is_reserved": 0, "fusion_lat": 0.0, "fusion_lon": 0.0}, {"rental_uris": {"android": "https://dc.lft.to/lastmile_qr_scan", "ios": "https://dc.lft.to/lastmile_qr_scan"}, "bike_id": "36c45ec272d62b7272d2341b76c1f0e7", "name": "36c45ec272d62b7272d2341b76c1f0e7", "type": "electric_scooter", "lon": -77.04329183333333, "lat": 38.892230166666664, "is_disabled": 0, "is_reserved": 0, "fusion_lat": 0.0, "fusion_lon": 0.0}, {"rental_uris": {"android": "https://dc.lft.to/lastmile_qr_scan", "ios": "https://dc.lft.to/lastmile_qr_scan"}, "bike_id": "d10450aad87f408892f258f613183334", "name": "d10450aad87f408892f258f613183334", "type": "electric_scooter", "lon": -77.03206833333333, "lat": 38.920081833333334, "is_disabled": 0, "is_reserved": 0, "fusion_lat": 0.0, "fusion_lon": 0.0}, {"rental_uris": {"android": "https://dc.lft.to/lastmile_qr_scan", "ios": "https://dc.lft.to/lastmile_qr_scan"}, "bike_id": "e32792d56b8a8403577176352da8b3bd", "name": "e32792d56b8a8403577176352da8b3bd", "type": "electric_scooter", "lon": -77.04022616666667, "lat": 38.90393616666667, "is_disabled": 0, "is_reserved": 0, "fusion_lat": 0.0, "fusion_lon": 0.0}, {"rental_uris": {"android": "https://dc.lft.to/lastmile_qr_scan", "ios": "https://dc.lft.to/lastmile_qr_scan"}, "bike_id": "9c420114805390b0f6abf1956e50a3fc", "name": "9c420114805390b0f6abf1956e50a3fc", "type": "electric_scooter", "lon": -77.02670916666666, "lat": 38.88139916666667, "is_disabled": 0, "is_reserved": 0, "fusion_lat": 0.0, "fusion_lon": 0.0}, {"rental_uris": {"android": "https://dc.lft.to/lastmile_qr_scan", "ios": "https://dc.lft.to/lastmile_qr_scan"}, "bike_id": "7e020e6aa5ca05bfb43d2a6f2f4ae530", "name": "7e020e6aa5ca05bfb43d2a6f2f4ae530", "type": "electric_scooter", "lon": -77.0333445, "lat": 38.928662833333334, "is_disabled": 0, "is_reserved": 0, "fusion_lat": 0.0, "fusion_lon": 0.0}, {"rental_uris": {"android": "https://dc.lft.to/lastmile_qr_scan", "ios": "https://dc.lft.to/lastmile_qr_scan"}, "bike_id": "cf441ba8ab97b61f48c5efb8cc989207", "name": "cf441ba8ab97b61f48c5efb8cc989207", "type": "electric_bike", "lon": -76.980917, "lat": 38.921051166666665, "is_disabled": 0, "is_reserved": 0, "fusion_lat": 0.0, "fusion_lon": 0.0}, {"rental_uris": {"android": "https://dc.lft.to/lastmile_qr_scan", "ios": "https://dc.lft.to/lastmile_qr_scan"}, "bike_id": "9d712385e5297c0d6e7a41d8a7266248", "name": "9d712385e5297c0d6e7a41d8a7266248", "type": "electric_scooter", "lon": -77.04183333333333, "lat": 38.901255, "is_disabled": 0, "is_reserved": 0, "fusion_lat": 0.0, "fusion_lon": 0.0}, {"rental_uris": {"android": "https://dc.lft.to/lastmile_qr_scan", "ios": "https://dc.lft.to/lastmile_qr_scan"}, "bike_id": "75ba426ec8c03ec65b683f3121c8c682", "name": "75ba426ec8c03ec65b683f3121c8c682", "type": "electric_scooter", "lon": -76.9652635, "lat": 38.876297, "is_disabled": 0, "is_reserved": 0, "fusion_lat": 0.0, "fusion_lon": 0.0}, {"rental_uris": {"android": "https://dc.lft.to/lastmile_qr_scan", "ios": "https://dc.lft.to/lastmile_qr_scan"}, "bike_id": "6c6abd390db70d1950e9c064c003fae6", "name": "6c6abd390db70d1950e9c064c003fae6", "type": "electric_scooter", "lon": -77.02646233333333, "lat": 38.9845075, "is_disabled": 0, "is_reserved": 0, "fusion_lat": 0.0, "fusion_lon": 0.0}, {"rental_uris": {"android": "https://dc.lft.to/lastmile_qr_scan", "ios": "https://dc.lft.to/lastmile_qr_scan"}, "bike_id": "b410ff21e0afc9481ff0c164de13793d", "name": "b410ff21e0afc9481ff0c164de13793d", "type": "electric_bike", "lon": -76.90970816666666, "lat": 38.85428516666666, "is_disabled": 0, "is_reserved": 0, "fusion_lat": 0.0, "fusion_lon": 0.0}, {"rental_uris": {"android": "https://dc.lft.to/lastmile_qr_scan", "ios": "https://dc.lft.to/lastmile_qr_scan"}, "bike_id": "9e6778519b5190685aba9dbbf07a167d", "name": "9e6778519b5190685aba9dbbf07a167d", "type": "electric_bike", "lon": -77.22799283333333, "lat": 38.91015566666667, "is_disabled": 0, "is_reserved": 0, "fusion_lat": 0.0, "fusion_lon": 0.0}, {"rental_uris": {"android": "https://dc.lft.to/lastmile_qr_scan", "ios": "https://dc.lft.to/lastmile_qr_scan"}, "bike_id": "334ac244e874638f6776eed34f564f16", "name": "334ac244e874638f6776eed34f564f16", "type": "electric_scooter", "lon": -76.99853083333333, "lat": 38.903682833333335, "is_disabled": 0, "is_reserved": 0, "fusion_lat": 0.0, "fusion_lon": 0.0}, {"rental_uris": {"android": "https://dc.lft.to/lastmile_qr_scan", "ios": "https://dc.lft.to/lastmile_qr_scan"}, "bike_id": "63329898be5ff41e1e528e937054444a", "name": "63329898be5ff41e1e528e937054444a", "type": "electric_scooter", "lon": -77.02213583333334, "lat": 38.91627, "is_disabled": 0, "is_reserved": 0, "fusion_lat": 0.0, "fusion_lon": 0.0}, {"rental_uris": {"android": "https://dc.lft.to/lastmile_qr_scan", "ios": "https://dc.lft.to/lastmile_qr_scan"}, "bike_id": "93299b360cc98a6cfc1d1c99d552fd24", "name": "93299b360cc98a6cfc1d1c99d552fd24", "type": "electric_scooter", "lon": -76.9963895, "lat": 38.90040483333333, "is_disabled": 0, "is_reserved": 0, "fusion_lat": 0.0, "fusion_lon": 0.0}, {"rental_uris": {"android": "https://dc.lft.to/lastmile_qr_scan", "ios": "https://dc.lft.to/lastmile_qr_scan"}, "bike_id": "dfbfcec63d202a4af053ad0572157257", "name": "dfbfcec63d202a4af053ad0572157257", "type": "electric_scooter", "lon": -77.0174175, "lat": 38.90363833333333, "is_disabled": 0, "is_reserved": 0, "fusion_lat": 0.0, "fusion_lon": 0.0}, {"rental_uris": {"android": "https://dc.lft.to/lastmile_qr_scan", "ios": "https://dc.lft.to/lastmile_qr_scan"}, "bike_id": "ad807c306eca6868f98b6a3fa0bb6b04", "name": "ad807c306eca6868f98b6a3fa0bb6b04", "type": "electric_scooter", "lon": -77.01354366666666, "lat": 38.893386166666666, "is_disabled": 0, "is_reserved": 0, "fusion_lat": 0.0, "fusion_lon": 0.0}, {"rental_uris": {"android": "https://dc.lft.to/lastmile_qr_scan", "ios": "https://dc.lft.to/lastmile_qr_scan"}, "bike_id": "652f75f415bbe4a60880279a8512c6ff", "name": "652f75f415bbe4a60880279a8512c6ff", "type": "electric_scooter", "lon": -77.03711833333334, "lat": 38.91261216666667, "is_disabled": 0, "is_reserved": 0, "fusion_lat": 0.0, "fusion_lon": 0.0}, {"rental_uris": {"android": "https://dc.lft.to/lastmile_qr_scan", "ios": "https://dc.lft.to/lastmile_qr_scan"}, "bike_id": "045a23b096eb7b8a36a4a5ec6ee3816a", "name": "045a23b096eb7b8a36a4a5ec6ee3816a", "type": "electric_scooter", "lon": -77.03372533333334, "lat": 38.8989815, "is_disabled": 0, "is_reserved": 0, "fusion_lat": 0.0, "fusion_lon": 0.0}, {"rental_uris": {"android": "https://dc.lft.to/lastmile_qr_scan", "ios": "https://dc.lft.to/lastmile_qr_scan"}, "bike_id": "3869d916fc0a686b04c5e7e07561aa13", "name": "3869d916fc0a686b04c5e7e07561aa13", "type": "electric_scooter", "lon": -77.03458116666667, "lat": 38.90604416666667, "is_disabled": 0, "is_reserved": 0, "fusion_lat": 0.0, "fusion_lon": 0.0}, {"rental_uris": {"android": "https://dc.lft.to/lastmile_qr_scan", "ios": "https://dc.lft.to/lastmile_qr_scan"}, "bike_id": "aef062180e553e1419bb97e51083b811", "name": "aef062180e553e1419bb97e51083b811", "type": "electric_scooter", "lon": -77.03393983333333, "lat": 38.928527333333335, "is_disabled": 0, "is_reserved": 0, "fusion_lat": 0.0, "fusion_lon": 0.0}, {"rental_uris": {"android": "https://dc.lft.to/lastmile_qr_scan", "ios": "https://dc.lft.to/lastmile_qr_scan"}, "bike_id": "55a497870fc1eda360c1fd137283038d", "name": "55a497870fc1eda360c1fd137283038d", "type": "electric_scooter", "lon": -77.038625, "lat": 38.9118725, "is_disabled": 0, "is_reserved": 0, "fusion_lat": 0.0, "fusion_lon": 0.0}, {"rental_uris": {"android": "https://dc.lft.to/lastmile_qr_scan", "ios": "https://dc.lft.to/lastmile_qr_scan"}, "bike_id": "78c3d2ca5a230a4be647922cfe1b4b36", "name": "78c3d2ca5a230a4be647922cfe1b4b36", "type": "electric_scooter", "lon": -77.03127216666667, "lat": 38.92372983333333, "is_disabled": 0, "is_reserved": 0, "fusion_lat": 0.0, "fusion_lon": 0.0}, {"rental_uris": {"android": "https://dc.lft.to/lastmile_qr_scan", "ios": "https://dc.lft.to/lastmile_qr_scan"}, "bike_id": "dc88a56784fd3cbaba372a4ab91b8669", "name": "dc88a56784fd3cbaba372a4ab91b8669", "type": "electric_scooter", "lon": -77.0407995, "lat": 38.91038116666667, "is_disabled": 0, "is_reserved": 0, "fusion_lat": 0.0, "fusion_lon": 0.0}, {"rental_uris": {"android": "https://dc.lft.to/lastmile_qr_scan", "ios": "https://dc.lft.to/lastmile_qr_scan"}, "bike_id": "c2f84cd107c79de194b4e06b0721224b", "name": "c2f84cd107c79de194b4e06b0721224b", "type": "electric_bike", "lon": -77.0784425, "lat": 38.931405166666664, "is_disabled": 0, "is_reserved": 0, "fusion_lat": 0.0, "fusion_lon": 0.0}, {"rental_uris": {"android": "https://dc.lft.to/lastmile_qr_scan", "ios": "https://dc.lft.to/lastmile_qr_scan"}, "bike_id": "71674770570fe09e84f9376fd05cef9a", "name": "71674770570fe09e84f9376fd05cef9a", "type": "electric_scooter", "lon": -77.02295083333334, "lat": 38.92083266666667, "is_disabled": 0, "is_reserved": 0, "fusion_lat": 0.0, "fusion_lon": 0.0}, {"rental_uris": {"android": "https://dc.lft.to/lastmile_qr_scan", "ios": "https://dc.lft.to/lastmile_qr_scan"}, "bike_id": "c74c6faf998f144a52eb90ed63759bbf", "name": "c74c6faf998f144a52eb90ed63759bbf", "type": "electric_scooter", "lon": -77.04828116666667, "lat": 38.91108966666667, "is_disabled": 0, "is_reserved": 0, "fusion_lat": 0.0, "fusion_lon": 0.0}, {"rental_uris": {"android": "https://dc.lft.to/lastmile_qr_scan", "ios": "https://dc.lft.to/lastmile_qr_scan"}, "bike_id": "f516686a6ad1fa7345a19f82b708844c", "name": "f516686a6ad1fa7345a19f82b708844c", "type": "electric_bike", "lon": -77.09521716666667, "lat": 38.83811733333334, "is_disabled": 0, "is_reserved": 0, "fusion_lat": 0.0, "fusion_lon": 0.0}, {"rental_uris": {"android": "https://dc.lft.to/lastmile_qr_scan", "ios": "https://dc.lft.to/lastmile_qr_scan"}, "bike_id": "55fb8d26fc6c561fc9bcd8af4ed80024", "name": "55fb8d26fc6c561fc9bcd8af4ed80024", "type": "electric_scooter", "lon": -77.053177, "lat": 38.90269216666667, "is_disabled": 0, "is_reserved": 0, "fusion_lat": 0.0, "fusion_lon": 0.0}, {"rental_uris": {"android": "https://dc.lft.to/lastmile_qr_scan", "ios": "https://dc.lft.to/lastmile_qr_scan"}, "bike_id": "ba0f4df5a74e1737e76d26904e55c354", "name": "ba0f4df5a74e1737e76d26904e55c354", "type": "electric_bike", "lon": -77.03153766666667, "lat": 38.999469166666664, "is_disabled": 0, "is_reserved": 0, "fusion_lat": 0.0, "fusion_lon": 0.0}, {"rental_uris": {"android": "https://dc.lft.to/lastmile_qr_scan", "ios": "https://dc.lft.to/lastmile_qr_scan"}, "bike_id": "0c1356c0dec69948f4123dae5806aa56", "name": "0c1356c0dec69948f4123dae5806aa56", "type": "electric_scooter", "lon": -77.03186183333334, "lat": 38.90843133333333, "is_disabled": 0, "is_reserved": 0, "fusion_lat": 0.0, "fusion_lon": 0.0}, {"rental_uris": {"android": "https://dc.lft.to/lastmile_qr_scan", "ios": "https://dc.lft.to/lastmile_qr_scan"}, "bike_id": "f6a030ca5fb459670ad975e9ac0493e0", "name": "f6a030ca5fb459670ad975e9ac0493e0", "type": "electric_scooter", "lon": -77.00352533333333, "lat": 38.902367166666664, "is_disabled": 0, "is_reserved": 0, "fusion_lat": 0.0, "fusion_lon": 0.0}, {"rental_uris": {"android": "https://dc.lft.to/lastmile_qr_scan", "ios": "https://dc.lft.to/lastmile_qr_scan"}, "bike_id": "1f9bf9cfd7c377233fa849a1d92f16ac", "name": "1f9bf9cfd7c377233fa849a1d92f16ac", "type": "electric_scooter", "lon": -77.03190183333334, "lat": 38.919185666666664, "is_disabled": 0, "is_reserved": 0, "fusion_lat": 0.0, "fusion_lon": 0.0}, {"rental_uris": {"android": "https://dc.lft.to/lastmile_qr_scan", "ios": "https://dc.lft.to/lastmile_qr_scan"}, "bike_id": "780932ccab099b1e9fb8ae0af38d5607", "name": "780932ccab099b1e9fb8ae0af38d5607", "type": "electric_scooter", "lon": -76.983695, "lat": 38.8858745, "is_disabled": 0, "is_reserved": 0, "fusion_lat": 0.0, "fusion_lon": 0.0}, {"rental_uris": {"android": "https://dc.lft.to/lastmile_qr_scan", "ios": "https://dc.lft.to/lastmile_qr_scan"}, "bike_id": "841c75de21684ecf398c86b10764042a", "name": "841c75de21684ecf398c86b10764042a", "type": "electric_scooter", "lon": -77.03289233333334, "lat": 38.92051933333333, "is_disabled": 0, "is_reserved": 0, "fusion_lat": 0.0, "fusion_lon": 0.0}, {"rental_uris": {"android": "https://dc.lft.to/lastmile_qr_scan", "ios": "https://dc.lft.to/lastmile_qr_scan"}, "bike_id": "c90d5c57020a919461b3a8f665d73b02", "name": "c90d5c57020a919461b3a8f665d73b02", "type": "electric_scooter", "lon": -77.0415595, "lat": 38.9183465, "is_disabled": 0, "is_reserved": 0, "fusion_lat": 0.0, "fusion_lon": 0.0}, {"rental_uris": {"android": "https://dc.lft.to/lastmile_qr_scan", "ios": "https://dc.lft.to/lastmile_qr_scan"}, "bike_id": "08579cc7bfd677b79cca104d528ca8b6", "name": "08579cc7bfd677b79cca104d528ca8b6", "type": "electric_scooter", "lon": -77.041754, "lat": 38.918386, "is_disabled": 0, "is_reserved": 0, "fusion_lat": 0.0, "fusion_lon": 0.0}, {"rental_uris": {"android": "https://dc.lft.to/lastmile_qr_scan", "ios": "https://dc.lft.to/lastmile_qr_scan"}, "bike_id": "8c89b61635e48cd50670910f8dd69bc0", "name": "8c89b61635e48cd50670910f8dd69bc0", "type": "electric_scooter", "lon": -77.05313483333333, "lat": 38.90377516666667, "is_disabled": 0, "is_reserved": 0, "fusion_lat": 0.0, "fusion_lon": 0.0}, {"rental_uris": {"android": "https://dc.lft.to/lastmile_qr_scan", "ios": "https://dc.lft.to/lastmile_qr_scan"}, "bike_id": "7bc9cb3a378e4cc920fb2e1f0b8cbf60", "name": "7bc9cb3a378e4cc920fb2e1f0b8cbf60", "type": "electric_scooter", "lon": -77.0327645, "lat": 38.91623583333333, "is_disabled": 0, "is_reserved": 0, "fusion_lat": 0.0, "fusion_lon": 0.0}, {"rental_uris": {"android": "https://dc.lft.to/lastmile_qr_scan", "ios": "https://dc.lft.to/lastmile_qr_scan"}, "bike_id": "9496c38d606a743eadbf5e73da066223", "name": "9496c38d606a743eadbf5e73da066223", "type": "electric_bike", "lon": -77.05763266666666, "lat": 38.924873, "is_disabled": 0, "is_reserved": 0, "fusion_lat": 0.0, "fusion_lon": 0.0}, {"rental_uris": {"android": "https://dc.lft.to/lastmile_qr_scan", "ios": "https://dc.lft.to/lastmile_qr_scan"}, "bike_id": "e3a7133c8e3dde38a1218b1b54b201b0", "name": "e3a7133c8e3dde38a1218b1b54b201b0", "type": "electric_scooter", "lon": -77.0248435, "lat": 38.927495, "is_disabled": 0, "is_reserved": 0, "fusion_lat": 0.0, "fusion_lon": 0.0}, {"rental_uris": {"android": "https://dc.lft.to/lastmile_qr_scan", "ios": "https://dc.lft.to/lastmile_qr_scan"}, "bike_id": "9e92daab49906d3a9f713b099131244b", "name": "9e92daab49906d3a9f713b099131244b", "type": "electric_scooter", "lon": -77.035041, "lat": 38.92154683333333, "is_disabled": 0, "is_reserved": 0, "fusion_lat": 0.0, "fusion_lon": 0.0}, {"rental_uris": {"android": "https://dc.lft.to/lastmile_qr_scan", "ios": "https://dc.lft.to/lastmile_qr_scan"}, "bike_id": "a1762358f9c28ab16b4390c682214945", "name": "a1762358f9c28ab16b4390c682214945", "type": "electric_scooter", "lon": -77.03161633333333, "lat": 38.9119385, "is_disabled": 0, "is_reserved": 0, "fusion_lat": 0.0, "fusion_lon": 0.0}, {"rental_uris": {"android": "https://dc.lft.to/lastmile_qr_scan", "ios": "https://dc.lft.to/lastmile_qr_scan"}, "bike_id": "413925f438037cf020404d6391f91930", "name": "413925f438037cf020404d6391f91930", "type": "electric_scooter", "lon": -77.03382666666667, "lat": 38.928542166666666, "is_disabled": 0, "is_reserved": 0, "fusion_lat": 0.0, "fusion_lon": 0.0}, {"rental_uris": {"android": "https://dc.lft.to/lastmile_qr_scan", "ios": "https://dc.lft.to/lastmile_qr_scan"}, "bike_id": "e75ae6774c32fbd340018832f2ce86c1", "name": "e75ae6774c32fbd340018832f2ce86c1", "type": "electric_scooter", "lon": -77.02721783333334, "lat": 38.940837, "is_disabled": 0, "is_reserved": 0, "fusion_lat": 0.0, "fusion_lon": 0.0}, {"rental_uris": {"android": "https://dc.lft.to/lastmile_qr_scan", "ios": "https://dc.lft.to/lastmile_qr_scan"}, "bike_id": "f6d6c3d427593b465b3345bae646e63f", "name": "f6d6c3d427593b465b3345bae646e63f", "type": "electric_scooter", "lon": -76.99990783333334, "lat": 38.900311333333335, "is_disabled": 0, "is_reserved": 0, "fusion_lat": 0.0, "fusion_lon": 0.0}, {"rental_uris": {"android": "https://dc.lft.to/lastmile_qr_scan", "ios": "https://dc.lft.to/lastmile_qr_scan"}, "bike_id": "39adde0a1c2edb2e612c63c4b67e0c9d", "name": "39adde0a1c2edb2e612c63c4b67e0c9d", "type": "electric_scooter", "lon": -77.02961516666667, "lat": 38.88408733333333, "is_disabled": 0, "is_reserved": 0, "fusion_lat": 0.0, "fusion_lon": 0.0}, {"rental_uris": {"android": "https://dc.lft.to/lastmile_qr_scan", "ios": "https://dc.lft.to/lastmile_qr_scan"}, "bike_id": "7cc0e4c1ebf53ef582a6786a103441bd", "name": "7cc0e4c1ebf53ef582a6786a103441bd", "type": "electric_scooter", "lon": -77.028134, "lat": 38.914176166666664, "is_disabled": 0, "is_reserved": 0, "fusion_lat": 0.0, "fusion_lon": 0.0}, {"rental_uris": {"android": "https://dc.lft.to/lastmile_qr_scan", "ios": "https://dc.lft.to/lastmile_qr_scan"}, "bike_id": "66421a9767c7663fdf520cd589cd9f69", "name": "66421a9767c7663fdf520cd589cd9f69", "type": "electric_scooter", "lon": -77.03773883333334, "lat": 38.92473616666667, "is_disabled": 0, "is_reserved": 0, "fusion_lat": 0.0, "fusion_lon": 0.0}, {"rental_uris": {"android": "https://dc.lft.to/lastmile_qr_scan", "ios": "https://dc.lft.to/lastmile_qr_scan"}, "bike_id": "21386153776d353cbf78937dfe0c4036", "name": "21386153776d353cbf78937dfe0c4036", "type": "electric_scooter", "lon": -77.03592266666666, "lat": 38.927968666666665, "is_disabled": 0, "is_reserved": 0, "fusion_lat": 0.0, "fusion_lon": 0.0}, {"rental_uris": {"android": "https://dc.lft.to/lastmile_qr_scan", "ios": "https://dc.lft.to/lastmile_qr_scan"}, "bike_id": "ec9c6de13419b3e1fea17b4f90e4a6fb", "name": "ec9c6de13419b3e1fea17b4f90e4a6fb", "type": "electric_scooter", "lon": -77.01660533333333, "lat": 38.881289333333335, "is_disabled": 0, "is_reserved": 0, "fusion_lat": 0.0, "fusion_lon": 0.0}, {"rental_uris": {"android": "https://dc.lft.to/lastmile_qr_scan", "ios": "https://dc.lft.to/lastmile_qr_scan"}, "bike_id": "5099057cd09d968adea50837e529fa57", "name": "5099057cd09d968adea50837e529fa57", "type": "electric_scooter", "lon": -76.950177, "lat": 38.893886, "is_disabled": 0, "is_reserved": 0, "fusion_lat": 0.0, "fusion_lon": 0.0}, {"rental_uris": {"android": "https://dc.lft.to/lastmile_qr_scan", "ios": "https://dc.lft.to/lastmile_qr_scan"}, "bike_id": "90a9615c48170000bb46f62bacb41cb0", "name": "90a9615c48170000bb46f62bacb41cb0", "type": "electric_scooter", "lon": -77.03803266666667, "lat": 38.92507883333333, "is_disabled": 0, "is_reserved": 0, "fusion_lat": 0.0, "fusion_lon": 0.0}, {"rental_uris": {"android": "https://dc.lft.to/lastmile_qr_scan", "ios": "https://dc.lft.to/lastmile_qr_scan"}, "bike_id": "935e267d985c74118a39e83fdfd060d6", "name": "935e267d985c74118a39e83fdfd060d6", "type": "electric_scooter", "lon": -76.98828116666667, "lat": 38.90033283333333, "is_disabled": 0, "is_reserved": 0, "fusion_lat": 0.0, "fusion_lon": 0.0}, {"rental_uris": {"android": "https://dc.lft.to/lastmile_qr_scan", "ios": "https://dc.lft.to/lastmile_qr_scan"}, "bike_id": "df52a5b6d7fe316f9c7ea6a93e988935", "name": "df52a5b6d7fe316f9c7ea6a93e988935", "type": "electric_scooter", "lon": -77.02976666666666, "lat": 38.91553066666667, "is_disabled": 0, "is_reserved": 0, "fusion_lat": 0.0, "fusion_lon": 0.0}, {"rental_uris": {"android": "https://dc.lft.to/lastmile_qr_scan", "ios": "https://dc.lft.to/lastmile_qr_scan"}, "bike_id": "7061fe0fdee08c2dff0c5d8892a6852f", "name": "7061fe0fdee08c2dff0c5d8892a6852f", "type": "electric_scooter", "lon": -77.037816, "lat": 38.916945, "is_disabled": 0, "is_reserved": 0, "fusion_lat": 0.0, "fusion_lon": 0.0}, {"rental_uris": {"android": "https://dc.lft.to/lastmile_qr_scan", "ios": "https://dc.lft.to/lastmile_qr_scan"}, "bike_id": "faaeac8ba54b5b192bbc2deb78baac02", "name": "faaeac8ba54b5b192bbc2deb78baac02", "type": "electric_scooter", "lon": -77.03414016666666, "lat": 38.920515333333334, "is_disabled": 0, "is_reserved": 0, "fusion_lat": 0.0, "fusion_lon": 0.0}, {"rental_uris": {"android": "https://dc.lft.to/lastmile_qr_scan", "ios": "https://dc.lft.to/lastmile_qr_scan"}, "bike_id": "f84337c3879591daec4de0a332e7c517", "name": "f84337c3879591daec4de0a332e7c517", "type": "electric_bike", "lon": -77.06640516666667, "lat": 38.949658666666664, "is_disabled": 0, "is_reserved": 0, "fusion_lat": 0.0, "fusion_lon": 0.0}, {"rental_uris": {"android": "https://dc.lft.to/lastmile_qr_scan", "ios": "https://dc.lft.to/lastmile_qr_scan"}, "bike_id": "f4b1536a721a4e142f13e7bc1f8ecefd", "name": "f4b1536a721a4e142f13e7bc1f8ecefd", "type": "electric_scooter", "lon": -77.0175555, "lat": 38.87710033333333, "is_disabled": 0, "is_reserved": 0, "fusion_lat": 0.0, "fusion_lon": 0.0}, {"rental_uris": {"android": "https://dc.lft.to/lastmile_qr_scan", "ios": "https://dc.lft.to/lastmile_qr_scan"}, "bike_id": "6a83e84a77f2d987ca08e8a1643f7c51", "name": "6a83e84a77f2d987ca08e8a1643f7c51", "type": "electric_bike", "lon": -77.10090666666666, "lat": 38.959557, "is_disabled": 0, "is_reserved": 0, "fusion_lat": 0.0, "fusion_lon": 0.0}, {"rental_uris": {"android": "https://dc.lft.to/lastmile_qr_scan", "ios": "https://dc.lft.to/lastmile_qr_scan"}, "bike_id": "0fc094444f8250c4426a4f57c9089a84", "name": "0fc094444f8250c4426a4f57c9089a84", "type": "electric_scooter", "lon": -77.02289183333333, "lat": 38.9102695, "is_disabled": 0, "is_reserved": 0, "fusion_lat": 0.0, "fusion_lon": 0.0}, {"rental_uris": {"android": "https://dc.lft.to/lastmile_qr_scan", "ios": "https://dc.lft.to/lastmile_qr_scan"},