{"data": {"bikes": [{"lon": -77.0297515, "bike_id": "2fcf116bc95f1bc26a88ec5e770c3893", "lat": 38.917193166666664, "fusion_lon": 0.0, "fusion_lat": 0.0, "type": "electric_scooter", "name": "2fcf116bc95f1bc26a88ec5e770c3893", "is_disabled": 0, "rental_uris": {"ios": "https://dc.lft.to/lastmile_qr_scan", "android": "https://dc.lft.to/lastmile_qr_scan"}, "is_reserved": 0}, {"lon": -77.00603733333334, "bike_id": "6e07cbfc327acd3f1ab4ddf0f4a8348c", "lat": 38.892071666666666, "fusion_lon": 0.0, "fusion_lat": 0.0, "type": "electric_scooter", "name": "6e07cbfc327acd3f1ab4ddf0f4a8348c", "is_disabled": 0, "rental_uris": {"ios": "https://dc.lft.to/lastmile_qr_scan", "android": "https://dc.lft.to/lastmile_qr_scan"}, "is_reserved": 0}, {"lon": -77.11705916666666, "bike_id": "f95cb020238ef14d5e4836ab12d226dd", "lat": 38.867467500000004, "fusion_lon": 0.0, "fusion_lat": 0.0, "type": "electric_bike", "name": "f95cb020238ef14d5e4836ab12d226dd", "is_disabled": 0, "rental_uris": {"ios": "https://dc.lft.to/lastmile_qr_scan", "android": "https://dc.lft.to/lastmile_qr_scan"}, "is_reserved": 0}, {"lon": -76.95751033333333, "bike_id": "04db4c17756ffe0f8044b35b1507f191", "lat": 38.884246166666664, "fusion_lon": 0.0, "fusion_lat": 0.0, "type": "electric_scooter", "name": "04db4c17756ffe0f8044b35b1507f191", "is_disabled": 0, "rental_uris": {"ios": "https://dc.lft.to/lastmile_qr_scan", "android": "https://dc.lft.to/lastmile_qr_scan"}, "is_reserved": 0}, {"lon": -77.0005405, "bike_id": "766f73f9cd7b67292314f9b4cf4acb34", "lat": 38.923937333333335, "fusion_lon": 0.0, "fusion_lat": 0.0, "type": "electric_scooter", "name": "766f73f9cd7b67292314f9b4cf4acb34", "is_disabled": 0, "rental_uris": {"ios": "https://dc.lft.to/lastmile_qr_scan", "android": "https://dc.lft.to/lastmile_qr_scan"}, "is_reserved": 0}, {"lon": -77.02361283333333, "bike_id": "23d30b6ec8eff9239e4c1f38ebe1fb08", "lat": 38.92224316666667, "fusion_lon": 0.0, "fusion_lat": 0.0, "type": "electric_scooter", "name": "23d30b6ec8eff9239e4c1f38ebe1fb08", "is_disabled": 0, "rental_uris": {"ios": "https://dc.lft.to/lastmile_qr_scan", "android": "https://dc.lft.to/lastmile_qr_scan"}, "is_reserved": 0}, {"lon": -77.03155566666666, "bike_id": "671886b96cd6573edadb1746dfe773f9", "lat": 38.8976255, "fusion_lon": 0.0, "fusion_lat": 0.0, "type": "electric_scooter", "name": "671886b96cd6573edadb1746dfe773f9", "is_disabled": 0, "rental_uris": {"ios": "https://dc.lft.to/lastmile_qr_scan", "android": "https://dc.lft.to/lastmile_qr_scan"}, "is_reserved": 0}, {"lon": -77.0449555, "bike_id": "4a506738b38d0c31d151fddd81eb25a5", "lat": 38.914128, "fusion_lon": 0.0, "fusion_lat": 0.0, "type": "electric_scooter", "name": "4a506738b38d0c31d151fddd81eb25a5", "is_disabled": 0, "rental_uris": {"ios": "https://dc.lft.to/lastmile_qr_scan", "android": "https://dc.lft.to/lastmile_qr_scan"}, "is_reserved": 0}, {"lon": -76.94072333333334, "bike_id": "c89cd0497af589124898a4c343d3ee4e", "lat": 38.8931625, "fusion_lon": 0.0, "fusion_lat": 0.0, "type": "electric_scooter", "name": "c89cd0497af589124898a4c343d3ee4e", "is_disabled": 0, "rental_uris": {"ios": "https://dc.lft.to/lastmile_qr_scan", "android": "https://dc.lft.to/lastmile_qr_scan"}, "is_reserved": 0}, {"lon": -77.041953, "bike_id": "6c30eacb21d288204555004623d7aa8c", "lat": 38.89980116666667, "fusion_lon": 0.0, "fusion_lat": 0.0, "type": "electric_scooter", "name": "6c30eacb21d288204555004623d7aa8c", "is_disabled": 0, "rental_uris": {"ios": "https://dc.lft.to/lastmile_qr_scan", "android": "https://dc.lft.to/lastmile_qr_scan"}, "is_reserved": 0}, {"lon": -77.03049683333333, "bike_id": "26e0bbc55a51dfd6ccef02934e4bfca5", "lat": 38.8843185, "fusion_lon": 0.0, "fusion_lat": 0.0, "type": "electric_scooter", "name": "26e0bbc55a51dfd6ccef02934e4bfca5", "is_disabled": 0, "rental_uris": {"ios": "https://dc.lft.to/lastmile_qr_scan", "android": "https://dc.lft.to/lastmile_qr_scan"}, "is_reserved": 0}, {"lon": -76.98391933333333, "bike_id": "e24972a85ab3846d894ce3a0a1ed88a1", "lat": 38.89884033333333, "fusion_lon": 0.0, "fusion_lat": 0.0, "type": "electric_bike", "name": "e24972a85ab3846d894ce3a0a1ed88a1", "is_disabled": 0, "rental_uris": {"ios": "https://dc.lft.to/lastmile_qr_scan", "android": "https://dc.lft.to/lastmile_qr_scan"}, "is_reserved": 0}, {"lon": -77.04049833333333, "bike_id": "4ce505319623b3bd5f70ba854aa2d92d", "lat": 38.92875883333333, "fusion_lon": 0.0, "fusion_lat": 0.0, "type": "electric_scooter", "name": "4ce505319623b3bd5f70ba854aa2d92d", "is_disabled": 0, "rental_uris": {"ios": "https://dc.lft.to/lastmile_qr_scan", "android": "https://dc.lft.to/lastmile_qr_scan"}, "is_reserved": 0}, {"lon": -77.02311033333334, "bike_id": "18273865a9702439d9c2ec7fef258e74", "lat": 38.89478966666667, "fusion_lon": 0.0, "fusion_lat": 0.0, "type": "electric_scooter", "name": "18273865a9702439d9c2ec7fef258e74", "is_disabled": 0, "rental_uris": {"ios": "https://dc.lft.to/lastmile_qr_scan", "android": "https://dc.lft.to/lastmile_qr_scan"}, "is_reserved": 0}, {"lon": -76.99487333333333, "bike_id": "801d237bb2a0cd2b84ca74c4bb574aa3", "lat": 38.8973695, "fusion_lon": 0.0, "fusion_lat": 0.0, "type": "electric_scooter", "name": "801d237bb2a0cd2b84ca74c4bb574aa3", "is_disabled": 0, "rental_uris": {"ios": "https://dc.lft.to/lastmile_qr_scan", "android": "https://dc.lft.to/lastmile_qr_scan"}, "is_reserved": 0}, {"lon": -77.0217035, "bike_id": "63f4f06da504cc16223ad29ce5818b5f", "lat": 38.89729616666666, "fusion_lon": 0.0, "fusion_lat": 0.0, "type": "electric_scooter", "name": "63f4f06da504cc16223ad29ce5818b5f", "is_disabled": 0, "rental_uris": {"ios": "https://dc.lft.to/lastmile_qr_scan", "android": "https://dc.lft.to/lastmile_qr_scan"}, "is_reserved": 0}, {"lon": -77.05226433333333, "bike_id": "9d60101ab849c301b37ac8cbd313cea1", "lat": 38.92465383333333, "fusion_lon": 0.0, "fusion_lat": 0.0, "type": "electric_scooter", "name": "9d60101ab849c301b37ac8cbd313cea1", "is_disabled": 0, "rental_uris": {"ios": "https://dc.lft.to/lastmile_qr_scan", "android": "https://dc.lft.to/lastmile_qr_scan"}, "is_reserved": 0}, {"lon": -77.0291895, "bike_id": "5c14fb9610243113d6a594c887cdcbe5", "lat": 38.94037866666667, "fusion_lon": 0.0, "fusion_lat": 0.0, "type": "electric_scooter", "name": "5c14fb9610243113d6a594c887cdcbe5", "is_disabled": 0, "rental_uris": {"ios": "https://dc.lft.to/lastmile_qr_scan", "android": "https://dc.lft.to/lastmile_qr_scan"}, "is_reserved": 0}, {"lon": -77.0178345, "bike_id": "ffd21fcd8b993672bb3ab486f41c8b5b", "lat": 38.88737066666667, "fusion_lon": 0.0, "fusion_lat": 0.0, "type": "electric_scooter", "name": "ffd21fcd8b993672bb3ab486f41c8b5b", "is_disabled": 0, "rental_uris": {"ios": "https://dc.lft.to/lastmile_qr_scan", "android": "https://dc.lft.to/lastmile_qr_scan"}, "is_reserved": 0}, {"lon": -77.04531783333333, "bike_id": "9ff171174c4aca214215f7b84a61546e", "lat": 38.913326166666664, "fusion_lon": 0.0, "fusion_lat": 0.0, "type": "electric_scooter", "name": "9ff171174c4aca214215f7b84a61546e", "is_disabled": 0, "rental_uris": {"ios": "https://dc.lft.to/lastmile_qr_scan", "android": "https://dc.lft.to/lastmile_qr_scan"}, "is_reserved": 0}, {"lon": -77.03174116666666, "bike_id": "8018da3226b86efcd651c3996a8cfe35", "lat": 38.8869535, "fusion_lon": 0.0, "fusion_lat": 0.0, "type": "electric_scooter", "name": "8018da3226b86efcd651c3996a8cfe35", "is_disabled": 0, "rental_uris": {"ios": "https://dc.lft.to/lastmile_qr_scan", "android": "https://dc.lft.to/lastmile_qr_scan"}, "is_reserved": 0}, {"lon": -77.02190633333333, "bike_id": "6632cec6d4a0f6d40f890ff419efb952", "lat": 38.902141666666665, "fusion_lon": 0.0, "fusion_lat": 0.0, "type": "electric_bike", "name": "6632cec6d4a0f6d40f890ff419efb952", "is_disabled": 0, "rental_uris": {"ios": "https://dc.lft.to/lastmile_qr_scan", "android": "https://dc.lft.to/lastmile_qr_scan"}, "is_reserved": 0}, {"lon": -77.029055, "bike_id": "74d33dcb0eea857376ec0812eda13b80", "lat": 38.928089666666665, "fusion_lon": 0.0, "fusion_lat": 0.0, "type": "electric_scooter", "name": "74d33dcb0eea857376ec0812eda13b80", "is_disabled": 0, "rental_uris": {"ios": "https://dc.lft.to/lastmile_qr_scan", "android": "https://dc.lft.to/lastmile_qr_scan"}, "is_reserved": 0}, {"lon": -77.019392, "bike_id": "7057afef2d77d960a0e2490b659b837e", "lat": 38.9368175, "fusion_lon": 0.0, "fusion_lat": 0.0, "type": "electric_scooter", "name": "7057afef2d77d960a0e2490b659b837e", "is_disabled": 0, "rental_uris": {"ios": "https://dc.lft.to/lastmile_qr_scan", "android": "https://dc.lft.to/lastmile_qr_scan"}, "is_reserved": 0}, {"lon": -77.053663, "bike_id": "99443da1202db198a15ec79e896a20a6", "lat": 38.927264, "fusion_lon": 0.0, "fusion_lat": 0.0, "type": "electric_scooter", "name": "99443da1202db198a15ec79e896a20a6", "is_disabled": 0, "rental_uris": {"ios": "https://dc.lft.to/lastmile_qr_scan", "android": "https://dc.lft.to/lastmile_qr_scan"}, "is_reserved": 0}, {"lon": -77.04796566666667, "bike_id": "de83c5b3f2a01aa75b49e6db04e06419", "lat": 38.90480016666667, "fusion_lon": 0.0, "fusion_lat": 0.0, "type": "electric_bike", "name": "de83c5b3f2a01aa75b49e6db04e06419", "is_disabled": 0, "rental_uris": {"ios": "https://dc.lft.to/lastmile_qr_scan", "android": "https://dc.lft.to/lastmile_qr_scan"}, "is_reserved": 0}, {"lon": -77.0416175, "bike_id": "f49e6d27bfa61c55009315e714d7b672", "lat": 38.912465, "fusion_lon": 0.0, "fusion_lat": 0.0, "type": "electric_scooter", "name": "f49e6d27bfa61c55009315e714d7b672", "is_disabled": 0, "rental_uris": {"ios": "https://dc.lft.to/lastmile_qr_scan", "android": "https://dc.lft.to/lastmile_qr_scan"}, "is_reserved": 0}, {"lon": -77.0251865, "bike_id": "63df0b9cdfe9b1b92b5cd18844b8b655", "lat": 38.91689366666667, "fusion_lon": 0.0, "fusion_lat": 0.0, "type": "electric_scooter", "name": "63df0b9cdfe9b1b92b5cd18844b8b655", "is_disabled": 0, "rental_uris": {"ios": "https://dc.lft.to/lastmile_qr_scan", "android": "https://dc.lft.to/lastmile_qr_scan"}, "is_reserved": 0}, {"lon": -76.99535433333334, "bike_id": "33b36ce3c07bf3e11b76cba977ebdd4a", "lat": 38.8837115, "fusion_lon": 0.0, "fusion_lat": 0.0, "type": "electric_scooter", "name": "33b36ce3c07bf3e11b76cba977ebdd4a", "is_disabled": 0, "rental_uris": {"ios": "https://dc.lft.to/lastmile_qr_scan", "android": "https://dc.lft.to/lastmile_qr_scan"}, "is_reserved": 0}, {"lon": -76.9331075, "bike_id": "91505be5e928c6cc8f4e2a5861cf3a70", "lat": 38.894673833333336, "fusion_lon": 0.0, "fusion_lat": 0.0, "type": "electric_scooter", "name": "91505be5e928c6cc8f4e2a5861cf3a70", "is_disabled": 0, "rental_uris": {"ios": "https://dc.lft.to/lastmile_qr_scan", "android": "https://dc.lft.to/lastmile_qr_scan"}, "is_reserved": 0}, {"lon": -77.04765633333334, "bike_id": "13cec80ac1bfad6dbc5f9649b7c2bbc4", "lat": 38.921375833333336, "fusion_lon": 0.0, "fusion_lat": 0.0, "type": "electric_scooter", "name": "13cec80ac1bfad6dbc5f9649b7c2bbc4", "is_disabled": 0, "rental_uris": {"ios": "https://dc.lft.to/lastmile_qr_scan", "android": "https://dc.lft.to/lastmile_qr_scan"}, "is_reserved": 0}, {"lon": -77.03865283333333, "bike_id": "d02dd6b06d52d41c610ab1076cbe56fa", "lat": 38.917791666666666, "fusion_lon": 0.0, "fusion_lat": 0.0, "type": "electric_scooter", "name": "d02dd6b06d52d41c610ab1076cbe56fa", "is_disabled": 0, "rental_uris": {"ios": "https://dc.lft.to/lastmile_qr_scan", "android": "https://dc.lft.to/lastmile_qr_scan"}, "is_reserved": 0}, {"lon": -77.0321945, "bike_id": "f9277693e064099ee5c6d5c66992dffa", "lat": 38.914032666666664, "fusion_lon": 0.0, "fusion_lat": 0.0, "type": "electric_scooter", "name": "f9277693e064099ee5c6d5c66992dffa", "is_disabled": 0, "rental_uris": {"ios": "https://dc.lft.to/lastmile_qr_scan", "android": "https://dc.lft.to/lastmile_qr_scan"}, "is_reserved": 0}, {"lon": -76.994924, "bike_id": "b8aa4518de811b3d1d8aa931addf9089", "lat": 38.862437166666666, "fusion_lon": 0.0, "fusion_lat": 0.0, "type": "electric_scooter", "name": "b8aa4518de811b3d1d8aa931addf9089", "is_disabled": 0, "rental_uris": {"ios": "https://dc.lft.to/lastmile_qr_scan", "android": "https://dc.lft.to/lastmile_qr_scan"}, "is_reserved": 0}, {"lon": -77.05274733333333, "bike_id": "efe21832bce5319000cbad5fa102c798", "lat": 38.8996755, "fusion_lon": 0.0, "fusion_lat": 0.0, "type": "electric_scooter", "name": "efe21832bce5319000cbad5fa102c798", "is_disabled": 0, "rental_uris": {"ios": "https://dc.lft.to/lastmile_qr_scan", "android": "https://dc.lft.to/lastmile_qr_scan"}, "is_reserved": 0}, {"lon": -76.9854005, "bike_id": "a140b655f81c66431b7208dbb4cd3edc", "lat": 38.8965535, "fusion_lon": 0.0, "fusion_lat": 0.0, "type": "electric_scooter", "name": "a140b655f81c66431b7208dbb4cd3edc", "is_disabled": 0, "rental_uris": {"ios": "https://dc.lft.to/lastmile_qr_scan", "android": "https://dc.lft.to/lastmile_qr_scan"}, "is_reserved": 0}, {"lon": -77.026342, "bike_id": "e7b64503877bf243d03e690ba28ae06f", "lat": 38.917026, "fusion_lon": 0.0, "fusion_lat": 0.0, "type": "electric_scooter", "name": "e7b64503877bf243d03e690ba28ae06f", "is_disabled": 0, "rental_uris": {"ios": "https://dc.lft.to/lastmile_qr_scan", "android": "https://dc.lft.to/lastmile_qr_scan"}, "is_reserved": 0}, {"lon": -77.03300433333334, "bike_id": "e270895bcad80258d21bd331622e3f0c", "lat": 38.925468333333335, "fusion_lon": 0.0, "fusion_lat": 0.0, "type": "electric_scooter", "name": "e270895bcad80258d21bd331622e3f0c", "is_disabled": 0, "rental_uris": {"ios": "https://dc.lft.to/lastmile_qr_scan", "android": "https://dc.lft.to/lastmile_qr_scan"}, "is_reserved": 0}, {"lon": -77.05062166666667, "bike_id": "c67dfb077bb71c853954940ba406e856", "lat": 38.925851, "fusion_lon": 0.0, "fusion_lat": 0.0, "type": "electric_scooter", "name": "c67dfb077bb71c853954940ba406e856", "is_disabled": 0, "rental_uris": {"ios": "https://dc.lft.to/lastmile_qr_scan", "android": "https://dc.lft.to/lastmile_qr_scan"}, "is_reserved": 0}, {"lon": -77.02437583333334, "bike_id": "1274e7996c628ab9c4d4e404977e2dc8", "lat": 38.92347433333333, "fusion_lon": 0.0, "fusion_lat": 0.0, "type": "electric_scooter", "name": "1274e7996c628ab9c4d4e404977e2dc8", "is_disabled": 0, "rental_uris": {"ios": "https://dc.lft.to/lastmile_qr_scan", "android": "https://dc.lft.to/lastmile_qr_scan"}, "is_reserved": 0}, {"lon": -77.03756083333333, "bike_id": "84891d4ebb5cfef437cbd1e01236d360", "lat": 38.92872666666667, "fusion_lon": 0.0, "fusion_lat": 0.0, "type": "electric_scooter", "name": "84891d4ebb5cfef437cbd1e01236d360", "is_disabled": 0, "rental_uris": {"ios": "https://dc.lft.to/lastmile_qr_scan", "android": "https://dc.lft.to/lastmile_qr_scan"}, "is_reserved": 0}, {"lon": -77.0363875, "bike_id": "62f423ffe1a9c3f24d8f1ffa5ce88b0d", "lat": 38.9176265, "fusion_lon": 0.0, "fusion_lat": 0.0, "type": "electric_scooter", "name": "62f423ffe1a9c3f24d8f1ffa5ce88b0d", "is_disabled": 0, "rental_uris": {"ios": "https://dc.lft.to/lastmile_qr_scan", "android": "https://dc.lft.to/lastmile_qr_scan"}, "is_reserved": 0}, {"lon": -77.03196066666666, "bike_id": "835cdcc15719f96bc8621083b970220a", "lat": 38.919606333333334, "fusion_lon": 0.0, "fusion_lat": 0.0, "type": "electric_scooter", "name": "835cdcc15719f96bc8621083b970220a", "is_disabled": 0, "rental_uris": {"ios": "https://dc.lft.to/lastmile_qr_scan", "android": "https://dc.lft.to/lastmile_qr_scan"}, "is_reserved": 0}, {"lon": -76.98457066666667, "bike_id": "5471bcb0a154460337f71f4b3118ff3e", "lat": 38.90553883333333, "fusion_lon": 0.0, "fusion_lat": 0.0, "type": "electric_scooter", "name": "5471bcb0a154460337f71f4b3118ff3e", "is_disabled": 0, "rental_uris": {"ios": "https://dc.lft.to/lastmile_qr_scan", "android": "https://dc.lft.to/lastmile_qr_scan"}, "is_reserved": 0}, {"lon": -77.00345466666667, "bike_id": "d92b38146c336e3eb77368088a803e11", "lat": 38.91624766666666, "fusion_lon": 0.0, "fusion_lat": 0.0, "type": "electric_scooter", "name": "d92b38146c336e3eb77368088a803e11", "is_disabled": 0, "rental_uris": {"ios": "https://dc.lft.to/lastmile_qr_scan", "android": "https://dc.lft.to/lastmile_qr_scan"}, "is_reserved": 0}, {"lon": -76.991721, "bike_id": "0501dee1e86ba98ff8488df6fd976186", "lat": 38.8898635, "fusion_lon": 0.0, "fusion_lat": 0.0, "type": "electric_scooter", "name": "0501dee1e86ba98ff8488df6fd976186", "is_disabled": 0, "rental_uris": {"ios": "https://dc.lft.to/lastmile_qr_scan", "android": "https://dc.lft.to/lastmile_qr_scan"}, "is_reserved": 0}, {"lon": -77.021762, "bike_id": "02c32354337ad8d478cd51fa5756107d", "lat": 38.91560916666667, "fusion_lon": 0.0, "fusion_lat": 0.0, "type": "electric_scooter", "name": "02c32354337ad8d478cd51fa5756107d", "is_disabled": 0, "rental_uris": {"ios": "https://dc.lft.to/lastmile_qr_scan", "android": "https://dc.lft.to/lastmile_qr_scan"}, "is_reserved": 0}, {"lon": -76.99275633333333, "bike_id": "e11f74f84438805a598c2a5ad593e63f", "lat": 38.89763133333334, "fusion_lon": 0.0, "fusion_lat": 0.0, "type": "electric_scooter", "name": "e11f74f84438805a598c2a5ad593e63f", "is_disabled": 0, "rental_uris": {"ios": "https://dc.lft.to/lastmile_qr_scan", "android": "https://dc.lft.to/lastmile_qr_scan"}, "is_reserved": 0}, {"lon": -77.01716083333334, "bike_id": "2430e7b5181c044a29126f08983e121c", "lat": 38.90968216666667, "fusion_lon": 0.0, "fusion_lat": 0.0, "type": "electric_scooter", "name": "2430e7b5181c044a29126f08983e121c", "is_disabled": 0, "rental_uris": {"ios": "https://dc.lft.to/lastmile_qr_scan", "android": "https://dc.lft.to/lastmile_qr_scan"}, "is_reserved": 0}, {"lon": -77.088313, "bike_id": "8c98cfeb8e34b86aa9ed7d13a1c5df47", "lat": 38.90976633333333, "fusion_lon": 0.0, "fusion_lat": 0.0, "type": "electric_scooter", "name": "8c98cfeb8e34b86aa9ed7d13a1c5df47", "is_disabled": 0, "rental_uris": {"ios": "https://dc.lft.to/lastmile_qr_scan", "android": "https://dc.lft.to/lastmile_qr_scan"}, "is_reserved": 0}, {"lon": -76.93734133333334, "bike_id": "a0ea538aff16bc366d30a1d22e5cee58", "lat": 38.890145833333335, "fusion_lon": 0.0, "fusion_lat": 0.0, "type": "electric_scooter", "name": "a0ea538aff16bc366d30a1d22e5cee58", "is_disabled": 0, "rental_uris": {"ios": "https://dc.lft.to/lastmile_qr_scan", "android": "https://dc.lft.to/lastmile_qr_scan"}, "is_reserved": 0}, {"lon": -77.00137716666667, "bike_id": "d63f085673c68f05fad00804cef76c38", "lat": 38.8947605, "fusion_lon": 0.0, "fusion_lat": 0.0, "type": "electric_scooter", "name": "d63f085673c68f05fad00804cef76c38", "is_disabled": 0, "rental_uris": {"ios": "https://dc.lft.to/lastmile_qr_scan", "android": "https://dc.lft.to/lastmile_qr_scan"}, "is_reserved": 0}, {"lon": -77.03462166666667, "bike_id": "538ccee895cce1ce2cd58dcf33f0ca91", "lat": 38.92065516666667, "fusion_lon": 0.0, "fusion_lat": 0.0, "type": "electric_scooter", "name": "538ccee895cce1ce2cd58dcf33f0ca91", "is_disabled": 0, "rental_uris": {"ios": "https://dc.lft.to/lastmile_qr_scan", "android": "https://dc.lft.to/lastmile_qr_scan"}, "is_reserved": 0}, {"lon": -77.00207516666667, "bike_id": "207d9da78b4eef3d08274893d373a72d", "lat": 38.90039433333333, "fusion_lon": 0.0, "fusion_lat": 0.0, "type": "electric_scooter", "name": "207d9da78b4eef3d08274893d373a72d", "is_disabled": 0, "rental_uris": {"ios": "https://dc.lft.to/lastmile_qr_scan", "android": "https://dc.lft.to/lastmile_qr_scan"}, "is_reserved": 0}, {"lon": -76.9376, "bike_id": "f9e25a8695a8f72fc4745f1229fe13d5", "lat": 38.89043216666666, "fusion_lon": 0.0, "fusion_lat": 0.0, "type": "electric_scooter", "name": "f9e25a8695a8f72fc4745f1229fe13d5", "is_disabled": 0, "rental_uris": {"ios": "https://dc.lft.to/lastmile_qr_scan", "android": "https://dc.lft.to/lastmile_qr_scan"}, "is_reserved": 0}, {"lon": -77.01764066666667, "bike_id": "1327db1208fbb209f75fe8978a075e13", "lat": 38.88593733333333, "fusion_lon": 0.0, "fusion_lat": 0.0, "type": "electric_scooter", "name": "1327db1208fbb209f75fe8978a075e13", "is_disabled": 0, "rental_uris": {"ios": "https://dc.lft.to/lastmile_qr_scan", "android": "https://dc.lft.to/lastmile_qr_scan"}, "is_reserved": 0}, {"lon": -77.00675566666666, "bike_id": "b46df7a73c4098ee7f29a8ab626f68e8", "lat": 38.945174, "fusion_lon": 0.0, "fusion_lat": 0.0, "type": "electric_bike", "name": "b46df7a73c4098ee7f29a8ab626f68e8", "is_disabled": 0, "rental_uris": {"ios": "https://dc.lft.to/lastmile_qr_scan", "android": "https://dc.lft.to/lastmile_qr_scan"}, "is_reserved": 0}, {"lon": -77.04159066666666, "bike_id": "11d8298b46eb667d0acfe0be228e1880", "lat": 38.919275, "fusion_lon": 0.0, "fusion_lat": 0.0, "type": "electric_scooter", "name": "11d8298b46eb667d0acfe0be228e1880", "is_disabled": 0, "rental_uris": {"ios": "https://dc.lft.to/lastmile_qr_scan", "android": "https://dc.lft.to/lastmile_qr_scan"}, "is_reserved": 0}, {"lon": -77.04308433333334, "bike_id": "3f2bbecc5f1d03adc48f6f7d7d9babda", "lat": 38.908632, "fusion_lon": 0.0, "fusion_lat": 0.0, "type": "electric_scooter", "name": "3f2bbecc5f1d03adc48f6f7d7d9babda", "is_disabled": 0, "rental_uris": {"ios": "https://dc.lft.to/lastmile_qr_scan", "android": "https://dc.lft.to/lastmile_qr_scan"}, "is_reserved": 0}, {"lon": -77.0319575, "bike_id": "8b78b4e2082e20bbd54a6854e32325bc", "lat": 38.89866283333333, "fusion_lon": 0.0, "fusion_lat": 0.0, "type": "electric_scooter", "name": "8b78b4e2082e20bbd54a6854e32325bc", "is_disabled": 0, "rental_uris": {"ios": "https://dc.lft.to/lastmile_qr_scan", "android": "https://dc.lft.to/lastmile_qr_scan"}, "is_reserved": 0}, {"lon": -77.042342, "bike_id": "49ad6ac5af12c0e7158c54200082bf3c", "lat": 38.9212305, "fusion_lon": 0.0, "fusion_lat": 0.0, "type": "electric_scooter", "name": "49ad6ac5af12c0e7158c54200082bf3c", "is_disabled": 0, "rental_uris": {"ios": "https://dc.lft.to/lastmile_qr_scan", "android": "https://dc.lft.to/lastmile_qr_scan"}, "is_reserved": 0}, {"lon": -77.0461185, "bike_id": "2057dcb9316782e38bf8984da85954f4", "lat": 38.91650833333333, "fusion_lon": 0.0, "fusion_lat": 0.0, "type": "electric_scooter", "name": "2057dcb9316782e38bf8984da85954f4", "is_disabled": 0, "rental_uris": {"ios": "https://dc.lft.to/lastmile_qr_scan", "android": "https://dc.lft.to/lastmile_qr_scan"}, "is_reserved": 0}, {"lon": -76.99756216666667, "bike_id": "768f0b1fc42bbc790fa8f58ed0a22a56", "lat": 38.900354166666666, "fusion_lon": 0.0, "fusion_lat": 0.0, "type": "electric_scooter", "name": "768f0b1fc42bbc790fa8f58ed0a22a56", "is_disabled": 0, "rental_uris": {"ios": "https://dc.lft.to/lastmile_qr_scan", "android": "https://dc.lft.to/lastmile_qr_scan"}, "is_reserved": 0}, {"lon": -77.038123, "bike_id": "38b7700be4022efc3470cf7e0c0c77dc", "lat": 38.920647333333335, "fusion_lon": 0.0, "fusion_lat": 0.0, "type": "electric_scooter", "name": "38b7700be4022efc3470cf7e0c0c77dc", "is_disabled": 0, "rental_uris": {"ios": "https://dc.lft.to/lastmile_qr_scan", "android": "https://dc.lft.to/lastmile_qr_scan"}, "is_reserved": 0}, {"lon": -77.00679033333333, "bike_id": "644521152d7ed0c6b3e3a71b014324db", "lat": 38.94494616666667, "fusion_lon": 0.0, "fusion_lat": 0.0, "type": "electric_bike", "name": "644521152d7ed0c6b3e3a71b014324db", "is_disabled": 0, "rental_uris": {"ios": "https://dc.lft.to/lastmile_qr_scan", "android": "https://dc.lft.to/lastmile_qr_scan"}, "is_reserved": 0}, {"lon": -77.02574683333333, "bike_id": "b705aa7ab8565689fcb1d377f9f41bca", "lat": 38.914863, "fusion_lon": 0.0, "fusion_lat": 0.0, "type": "electric_scooter", "name": "b705aa7ab8565689fcb1d377f9f41bca", "is_disabled": 0, "rental_uris": {"ios": "https://dc.lft.to/lastmile_qr_scan", "android": "https://dc.lft.to/lastmile_qr_scan"}, "is_reserved": 0}, {"lon": -77.0439355, "bike_id": "d0f6c7023e882a396b06239e9cedfbd3", "lat": 38.921091833333335, "fusion_lon": 0.0, "fusion_lat": 0.0, "type": "electric_scooter", "name": "d0f6c7023e882a396b06239e9cedfbd3", "is_disabled": 0, "rental_uris": {"ios": "https://dc.lft.to/lastmile_qr_scan", "android": "https://dc.lft.to/lastmile_qr_scan"}, "is_reserved": 0}, {"lon": -77.03221233333333, "bike_id": "635295d80a80736a93151fcc5ee27234", "lat": 38.89215433333333, "fusion_lon": 0.0, "fusion_lat": 0.0, "type": "electric_scooter", "name": "635295d80a80736a93151fcc5ee27234", "is_disabled": 0, "rental_uris": {"ios": "https://dc.lft.to/lastmile_qr_scan", "android": "https://dc.lft.to/lastmile_qr_scan"}, "is_reserved": 0}, {"lon": -77.02189933333334, "bike_id": "4231f4b9fae1fd71edae67e15537f1b6", "lat": 38.8983625, "fusion_lon": 0.0, "fusion_lat": 0.0, "type": "electric_scooter", "name": "4231f4b9fae1fd71edae67e15537f1b6", "is_disabled": 0, "rental_uris": {"ios": "https://dc.lft.to/lastmile_qr_scan", "android": "https://dc.lft.to/lastmile_qr_scan"}, "is_reserved": 0}, {"lon": -77.02958216666667, "bike_id": "aefbd1bd4e32694243654540392e09fd", "lat": 38.89645516666667, "fusion_lon": 0.0, "fusion_lat": 0.0, "type": "electric_scooter", "name": "aefbd1bd4e32694243654540392e09fd", "is_disabled": 0, "rental_uris": {"ios": "https://dc.lft.to/lastmile_qr_scan", "android": "https://dc.lft.to/lastmile_qr_scan"}, "is_reserved": 0}, {"lon": -77.0401255, "bike_id": "da2db5e4d9e847850d8892b66eb1c762", "lat": 38.909969, "fusion_lon": 0.0, "fusion_lat": 0.0, "type": "electric_scooter", "name": "da2db5e4d9e847850d8892b66eb1c762", "is_disabled": 0, "rental_uris": {"ios": "https://dc.lft.to/lastmile_qr_scan", "android": "https://dc.lft.to/lastmile_qr_scan"}, "is_reserved": 0}, {"lon": -77.0178355, "bike_id": "b678083f5703ed773073ace49122e362", "lat": 38.87709, "fusion_lon": 0.0, "fusion_lat": 0.0, "type": "electric_scooter", "name": "b678083f5703ed773073ace49122e362", "is_disabled": 0, "rental_uris": {"ios": "https://dc.lft.to/lastmile_qr_scan", "android": "https://dc.lft.to/lastmile_qr_scan"}, "is_reserved": 0}, {"lon": -77.03800783333334, "bike_id": "8e886dd1237f1c8ba0b3f794f920a1ab", "lat": 38.930239666666665, "fusion_lon": 0.0, "fusion_lat": 0.0, "type": "electric_scooter", "name": "8e886dd1237f1c8ba0b3f794f920a1ab", "is_disabled": 0, "rental_uris": {"ios": "https://dc.lft.to/lastmile_qr_scan", "android": "https://dc.lft.to/lastmile_qr_scan"}, "is_reserved": 0}, {"lon": -76.895389, "bike_id": "ba23dd96872af4da9aece3d09ea407cc", "lat": 38.94553633333334, "fusion_lon": 0.0, "fusion_lat": 0.0, "type": "electric_bike", "name": "ba23dd96872af4da9aece3d09ea407cc", "is_disabled": 0, "rental_uris": {"ios": "https://dc.lft.to/lastmile_qr_scan", "android": "https://dc.lft.to/lastmile_qr_scan"}, "is_reserved": 0}, {"lon": -77.12973733333334, "bike_id": "9e7692df9f1f8bd582fec2bc32662ecb", "lat": 38.799854, "fusion_lon": 0.0, "fusion_lat": 0.0, "type": "electric_bike", "name": "9e7692df9f1f8bd582fec2bc32662ecb", "is_disabled": 0, "rental_uris": {"ios": "https://dc.lft.to/lastmile_qr_scan", "android": "https://dc.lft.to/lastmile_qr_scan"}, "is_reserved": 0}, {"lon": -77.07133016666667, "bike_id": "6cbe8b6213a51cb10580d59589c77c03", "lat": 38.9196885, "fusion_lon": 0.0, "fusion_lat": 0.0, "type": "electric_scooter", "name": "6cbe8b6213a51cb10580d59589c77c03", "is_disabled": 0, "rental_uris": {"ios": "https://dc.lft.to/lastmile_qr_scan", "android": "https://dc.lft.to/lastmile_qr_scan"}, "is_reserved": 0}, {"lon": -77.03576066666666, "bike_id": "f462c1f0f8716e2ff144a01d7ae0179c", "lat": 38.934749, "fusion_lon": 0.0, "fusion_lat": 0.0, "type": "electric_scooter", "name": "f462c1f0f8716e2ff144a01d7ae0179c", "is_disabled": 0, "rental_uris": {"ios": "https://dc.lft.to/lastmile_qr_scan", "android": "https://dc.lft.to/lastmile_qr_scan"}, "is_reserved": 0}, {"lon": -77.03450933333333, "bike_id": "a8cd7ced53b1ec17e6b6cb13a06baefd", "lat": 38.918011, "fusion_lon": 0.0, "fusion_lat": 0.0, "type": "electric_scooter", "name": "a8cd7ced53b1ec17e6b6cb13a06baefd", "is_disabled": 0, "rental_uris": {"ios": "https://dc.lft.to/lastmile_qr_scan", "android": "https://dc.lft.to/lastmile_qr_scan"}, "is_reserved": 0}, {"lon": -77.03516383333333, "bike_id": "fc125b7760108a1c0014c785efb4b417", "lat": 38.921964, "fusion_lon": 0.0, "fusion_lat": 0.0, "type": "electric_scooter", "name": "fc125b7760108a1c0014c785efb4b417", "is_disabled": 0, "rental_uris": {"ios": "https://dc.lft.to/lastmile_qr_scan", "android": "https://dc.lft.to/lastmile_qr_scan"}, "is_reserved": 0}, {"lon": -77.02175716666666, "bike_id": "135b6b9223adf829222091bc4aea198c", "lat": 38.8996355, "fusion_lon": 0.0, "fusion_lat": 0.0, "type": "electric_scooter", "name": "135b6b9223adf829222091bc4aea198c", "is_disabled": 0, "rental_uris": {"ios": "https://dc.lft.to/lastmile_qr_scan", "android": "https://dc.lft.to/lastmile_qr_scan"}, "is_reserved": 0}, {"lon": -76.97806966666667, "bike_id": "5ddc4b1acbd1569e459c6b7db485f92c", "lat": 38.906673166666664, "fusion_lon": 0.0, "fusion_lat": 0.0, "type": "electric_scooter", "name": "5ddc4b1acbd1569e459c6b7db485f92c", "is_disabled": 0, "rental_uris": {"ios": "https://dc.lft.to/lastmile_qr_scan", "android": "https://dc.lft.to/lastmile_qr_scan"}, "is_reserved": 0}, {"lon": -77.11577966666667, "bike_id": "d10cb8602853e07ce0f7cfb95ef88853", "lat": 38.993411, "fusion_lon": 0.0, "fusion_lat": 0.0, "type": "electric_bike", "name": "d10cb8602853e07ce0f7cfb95ef88853", "is_disabled": 0, "rental_uris": {"ios": "https://dc.lft.to/lastmile_qr_scan", "android": "https://dc.lft.to/lastmile_qr_scan"}, "is_reserved": 0}, {"lon": -76.98528516666667, "bike_id": "ca4675416d27d4bad6860245a2bcb7f9", "lat": 38.866844, "fusion_lon": 0.0, "fusion_lat": 0.0, "type": "electric_scooter", "name": "ca4675416d27d4bad6860245a2bcb7f9", "is_disabled": 0, "rental_uris": {"ios": "https://dc.lft.to/lastmile_qr_scan", "android": "https://dc.lft.to/lastmile_qr_scan"}, "is_reserved": 0}, {"lon": -77.02968516666667, "bike_id": "53843aca524e2ecab6a5a9a60453a360", "lat": 38.91655, "fusion_lon": 0.0, "fusion_lat": 0.0, "type": "electric_scooter", "name": "53843aca524e2ecab6a5a9a60453a360", "is_disabled": 0, "rental_uris": {"ios": "https://dc.lft.to/lastmile_qr_scan", "android": "https://dc.lft.to/lastmile_qr_scan"}, "is_reserved": 0}, {"lon": -77.0738175, "bike_id": "1941b717566f1c3f39c51f92a667e2e9", "lat": 38.962202166666664, "fusion_lon": 0.0, "fusion_lat": 0.0, "type": "electric_scooter", "name": "1941b717566f1c3f39c51f92a667e2e9", "is_disabled": 0, "rental_uris": {"ios": "https://dc.lft.to/lastmile_qr_scan", "android": "https://dc.lft.to/lastmile_qr_scan"}, "is_reserved": 0}, {"lon": -77.02928616666667, "bike_id": "6a31c3c902857fddca5604d752bcceb0", "lat": 38.916915, "fusion_lon": 0.0, "fusion_lat": 0.0, "type": "electric_scooter", "name": "6a31c3c902857fddca5604d752bcceb0", "is_disabled": 0, "rental_uris": {"ios": "https://dc.lft.to/lastmile_qr_scan", "android": "https://dc.lft.to/lastmile_qr_scan"}, "is_reserved": 0}, {"lon": -77.009642, "bike_id": "ef777d92595da8e7ad0b7c802509be58", "lat": 38.953432166666666, "fusion_lon": 0.0, "fusion_lat": 0.0, "type": "electric_bike", "name": "ef777d92595da8e7ad0b7c802509be58", "is_disabled": 0, "rental_uris": {"ios": "https://dc.lft.to/lastmile_qr_scan", "android": "https://dc.lft.to/lastmile_qr_scan"}, "is_reserved": 0}, {"lon": -77.023951, "bike_id": "fc21b687ad181d7308058db8aa7f9ad7", "lat": 38.9044045, "fusion_lon": 0.0, "fusion_lat": 0.0, "type": "electric_scooter", "name": "fc21b687ad181d7308058db8aa7f9ad7", "is_disabled": 0, "rental_uris": {"ios": "https://dc.lft.to/lastmile_qr_scan", "android": "https://dc.lft.to/lastmile_qr_scan"}, "is_reserved": 0}, {"lon": -77.0395495, "bike_id": "0ebea0b57d64e079e38acfa52fd58873", "lat": 38.915518166666665, "fusion_lon": 0.0, "fusion_lat": 0.0, "type": "electric_scooter", "name": "0ebea0b57d64e079e38acfa52fd58873", "is_disabled": 0, "rental_uris": {"ios": "https://dc.lft.to/lastmile_qr_scan", "android": "https://dc.lft.to/lastmile_qr_scan"}, "is_reserved": 0}, {"lon": -76.98585216666666, "bike_id": "422f2da0174b126cacf816b0f9ead6a9", "lat": 38.866867666666664, "fusion_lon": 0.0, "fusion_lat": 0.0, "type": "electric_scooter", "name": "422f2da0174b126cacf816b0f9ead6a9", "is_disabled": 0, "rental_uris": {"ios": "https://dc.lft.to/lastmile_qr_scan", "android": "https://dc.lft.to/lastmile_qr_scan"}, "is_reserved": 0}, {"lon": -76.985886, "bike_id": "98a0a85d30496b62b44583b8b38d3360", "lat": 38.866826833333334, "fusion_lon": 0.0, "fusion_lat": 0.0, "type": "electric_scooter", "name": "98a0a85d30496b62b44583b8b38d3360", "is_disabled": 0, "rental_uris": {"ios": "https://dc.lft.to/lastmile_qr_scan", "android": "https://dc.lft.to/lastmile_qr_scan"}, "is_reserved": 0}, {"lon": -77.05448333333334, "bike_id": "8196bc1a5ef92bd0e2f018b2400fdbcd", "lat": 38.90363116666666, "fusion_lon": 0.0, "fusion_lat": 0.0, "type": "electric_scooter", "name": "8196bc1a5ef92bd0e2f018b2400fdbcd", "is_disabled": 0, "rental_uris": {"ios": "https://dc.lft.to/lastmile_qr_scan", "android": "https://dc.lft.to/lastmile_qr_scan"}, "is_reserved": 0}, {"lon": -77.0417115, "bike_id": "6388a02d5e898ebec490c83a57b7b1fe", "lat": 38.9198335, "fusion_lon": 0.0, "fusion_lat": 0.0, "type": "electric_scooter", "name": "6388a02d5e898ebec490c83a57b7b1fe", "is_disabled": 0, "rental_uris": {"ios": "https://dc.lft.to/lastmile_qr_scan", "android": "https://dc.lft.to/lastmile_qr_scan"}, "is_reserved": 0}, {"lon": -76.98942166666667, "bike_id": "ca1cc5fb827d867a6e0b1e8894b8dc5a", "lat": 38.866938, "fusion_lon": 0.0, "fusion_lat": 0.0, "type": "electric_bike", "name": "ca1cc5fb827d867a6e0b1e8894b8dc5a", "is_disabled": 0, "rental_uris": {"ios": "https://dc.lft.to/lastmile_qr_scan", "android": "https://dc.lft.to/lastmile_qr_scan"}, "is_reserved": 0}, {"lon": -77.00077616666667, "bike_id": "1e402c08ac34b4104f503e1bc6cc8fb9", "lat": 38.87379966666666, "fusion_lon": 0.0, "fusion_lat": 0.0, "type": "electric_scooter", "name": "1e402c08ac34b4104f503e1bc6cc8fb9", "is_disabled": 0, "rental_uris": {"ios": "https://dc.lft.to/lastmile_qr_scan", "android": "https://dc.lft.to/lastmile_qr_scan"}, "is_reserved": 0}, {"lon": -77.109164, "bike_id": "9790cc5af7643f7ca384eee648cff51b", "lat": 39.0520015, "fusion_lon": 0.0, "fusion_lat": 0.0, "type": "electric_bike", "name": "9790cc5af7643f7ca384eee648cff51b", "is_disabled": 0, "rental_uris": {"ios": "https://dc.lft.to/lastmile_qr_scan", "android": "https://dc.lft.to/lastmile_qr_scan"}, "is_reserved": 0}, {"lon": -77.01422283333333, "bike_id": "619b9a52b3d90bb164fb8026f6228c0f", "lat": 38.92822183333333, "fusion_lon": 0.0, "fusion_lat": 0.0, "type": "electric_scooter", "name": "619b9a52b3d90bb164fb8026f6228c0f", "is_disabled": 0, "rental_uris": {"ios": "https://dc.lft.to/lastmile_qr_scan", "android": "https://dc.lft.to/lastmile_qr_scan"}, "is_reserved": 0}, {"lon": -77.040302, "bike_id": "67669f33ec127444bc08a88d59e6be4e", "lat": 38.91112733333333, "fusion_lon": 0.0, "fusion_lat": 0.0, "type": "electric_scooter", "name": "67669f33ec127444bc08a88d59e6be4e", "is_disabled": 0, "rental_uris": {"ios": "https://dc.lft.to/lastmile_qr_scan", "android": "https://dc.lft.to/lastmile_qr_scan"}, "is_reserved": 0}, {"lon": -77.02714566666667, "bike_id": "344336018a0928da0d9971d0326c0ca3", "lat": 38.925909, "fusion_lon": 0.0, "fusion_lat": 0.0, "type": "electric_scooter", "name": "344336018a0928da0d9971d0326c0ca3", "is_disabled": 0, "rental_uris": {"ios": "https://dc.lft.to/lastmile_qr_scan", "android": "https://dc.lft.to/lastmile_qr_scan"}, "is_reserved": 0}, {"lon": -77.031762, "bike_id": "cceebcd39e7f25967c4d8968fd2c8f3e", "lat": 38.91116783333333, "fusion_lon": 0.0, "fusion_lat": 0.0, "type": "electric_scooter", "name": "cceebcd39e7f25967c4d8968fd2c8f3e", "is_disabled": 0, "rental_uris": {"ios": "https://dc.lft.to/lastmile_qr_scan", "android": "https://dc.lft.to/lastmile_qr_scan"}, "is_reserved": 0}, {"lon": -77.032075, "bike_id": "6a6337f7a2f3385309157caa80bb0dee", "lat": 38.91539916666667, "fusion_lon": 0.0, "fusion_lat": 0.0, "type": "electric_scooter", "name": "6a6337f7a2f3385309157caa80bb0dee", "is_disabled": 0, "rental_uris": {"ios": "https://dc.lft.to/lastmile_qr_scan", "android": "https://dc.lft.to/lastmile_qr_scan"}, "is_reserved": 0}, {"lon": -77.01743116666667, "bike_id": "c0dc9f4414e5913e88fabaeaaad2c3d8", "lat": 38.916107, "fusion_lon": 0.0, "fusion_lat": 0.0, "type": "electric_bike", "name": "c0dc9f4414e5913e88fabaeaaad2c3d8", "is_disabled": 0, "rental_uris": {"ios": "https://dc.lft.to/lastmile_qr_scan", "android": "https://dc.lft.to/lastmile_qr_scan"}, "is_reserved": 0}, {"lon": -77.03204516666666, "bike_id": "a9df377f6df4eb1862078a123285e051", "lat": 38.896460833333336, "fusion_lon": 0.0, "fusion_lat": 0.0, "type": "electric_scooter", "name": "a9df377f6df4eb1862078a123285e051", "is_disabled": 0, "rental_uris": {"ios": "https://dc.lft.to/lastmile_qr_scan", "android": "https://dc.lft.to/lastmile_qr_scan"}, "is_reserved": 0}, {"lon": -76.92998033333333, "bike_id": "cd65b31cafa8f4289cd21ee113369ce6", "lat": 38.901840666666665, "fusion_lon": 0.0, "fusion_lat": 0.0, "type": "electric_scooter", "name": "cd65b31cafa8f4289cd21ee113369ce6", "is_disabled": 0, "rental_uris": {"ios": "https://dc.lft.to/lastmile_qr_scan", "android": "https://dc.lft.to/lastmile_qr_scan"}, "is_reserved": 0}, {"lon": -77.0400625, "bike_id": "06547d531c5acfd5c70e6eaec073fcf2", "lat": 38.903687166666664, "fusion_lon": 0.0, "fusion_lat": 0.0, "type": "electric_scooter", "name": "06547d531c5acfd5c70e6eaec073fcf2", "is_disabled": 0, "rental_uris": {"ios": "https://dc.lft.to/lastmile_qr_scan", "android": "https://dc.lft.to/lastmile_qr_scan"}, "is_reserved": 0}, {"lon": -77.0433555, "bike_id": "287674e3e88f3da1d28b610f4a4dd479", "lat": 38.9036385, "fusion_lon": 0.0, "fusion_lat": 0.0, "type": "electric_scooter", "name": "287674e3e88f3da1d28b610f4a4dd479", "is_disabled": 0, "rental_uris": {"ios": "https://dc.lft.to/lastmile_qr_scan", "android": "https://dc.lft.to/lastmile_qr_scan"}, "is_reserved": 0}, {"lon": -77.02434083333333, "bike_id": "e23b36500794e9252bcd9bb3de4cf2a9", "lat": 38.9204305, "fusion_lon": 0.0, "fusion_lat": 0.0, "type": "electric_scooter", "name": "e23b36500794e9252bcd9bb3de4cf2a9", "is_disabled": 0, "rental_uris": {"ios": "https://dc.lft.to/lastmile_qr_scan", "android": "https://dc.lft.to/lastmile_qr_scan"}, "is_reserved": 0}, {"lon": -77.02567216666667, "bike_id": "d2702c8951c87e0184428f22c2f7f35b", "lat": 38.9334905, "fusion_lon": 0.0, "fusion_lat": 0.0, "type": "electric_scooter", "name": "d2702c8951c87e0184428f22c2f7f35b", "is_disabled": 0, "rental_uris": {"ios": "https://dc.lft.to/lastmile_qr_scan", "android": "https://dc.lft.to/lastmile_qr_scan"}, "is_reserved": 0}, {"lon": -77.06011583333333, "bike_id": "b398bee79ffad045e61c157cf395da2a", "lat": 38.90499533333333, "fusion_lon": 0.0, "fusion_lat": 0.0, "type": "electric_scooter", "name": "b398bee79ffad045e61c157cf395da2a", "is_disabled": 0, "rental_uris": {"ios": "https://dc.lft.to/lastmile_qr_scan", "android": "https://dc.lft.to/lastmile_qr_scan"}, "is_reserved": 0}, {"lon": -77.0325095, "bike_id": "bc72bc0c7df7991ff755c6a66e540941", "lat": 38.928861166666664, "fusion_lon": 0.0, "fusion_lat": 0.0, "type": "electric_scooter", "name": "bc72bc0c7df7991ff755c6a66e540941", "is_disabled": 0, "rental_uris": {"ios": "https://dc.lft.to/lastmile_qr_scan", "android": "https://dc.lft.to/lastmile_qr_scan"}, "is_reserved": 0}, {"lon": -77.0075745, "bike_id": "26125bf2dc85ce07b8d8f8bfd4b09450", "lat": 38.87104566666667, "fusion_lon": 0.0, "fusion_lat": 0.0, "type": "electric_scooter", "name": "26125bf2dc85ce07b8d8f8bfd4b09450", "is_disabled": 0, "rental_uris": {"ios": "https://dc.lft.to/lastmile_qr_scan", "android": "https://dc.lft.to/lastmile_qr_scan"}, "is_reserved": 0}, {"lon": -76.94636116666666, "bike_id": "0e6fca6ef567a3aecd2013cbdb6e0008", "lat": 38.89830883333333, "fusion_lon": 0.0, "fusion_lat": 0.0, "type": "electric_scooter", "name": "0e6fca6ef567a3aecd2013cbdb6e0008", "is_disabled": 0, "rental_uris": {"ios": "https://dc.lft.to/lastmile_qr_scan", "android": "https://dc.lft.to/lastmile_qr_scan"}, "is_reserved": 0}, {"lon": -76.99213266666666, "bike_id": "206fac4e627b2a7823ec51b96c846c37", "lat": 38.898289166666665, "fusion_lon": 0.0, "fusion_lat": 0.0, "type": "electric_scooter", "name": "206fac4e627b2a7823ec51b96c846c37", "is_disabled": 0, "rental_uris": {"ios": "https://dc.lft.to/lastmile_qr_scan", "android": "https://dc.lft.to/lastmile_qr_scan"}, "is_reserved": 0}, {"lon": -77.04196416666667, "bike_id": "c2d2da68bf7f8606cd9e049fb1205284", "lat": 38.92629866666667, "fusion_lon": 0.0, "fusion_lat": 0.0, "type": "electric_scooter", "name": "c2d2da68bf7f8606cd9e049fb1205284", "is_disabled": 0, "rental_uris": {"ios": "https://dc.lft.to/lastmile_qr_scan", "android": "https://dc.lft.to/lastmile_qr_scan"}, "is_reserved": 0}, {"lon": -77.0225785, "bike_id": "41155fa44d2a6ae11e4420a760594b67", "lat": 38.928946333333336, "fusion_lon": 0.0, "fusion_lat": 0.0, "type": "electric_scooter", "name": "41155fa44d2a6ae11e4420a760594b67", "is_disabled": 0, "rental_uris": {"ios": "https://dc.lft.to/lastmile_qr_scan", "android": "https://dc.lft.to/lastmile_qr_scan"}, "is_reserved": 0}, {"lon": -77.02145733333333, "bike_id": "9bd20c81df270a4aa1b99fb820646dbb", "lat": 38.90256983333333, "fusion_lon": 0.0, "fusion_lat": 0.0, "type": "electric_scooter", "name": "9bd20c81df270a4aa1b99fb820646dbb", "is_disabled": 0, "rental_uris": {"ios": "https://dc.lft.to/lastmile_qr_scan", "android": "https://dc.lft.to/lastmile_qr_scan"}, "is_reserved": 0}, {"lon": -76.96522216666666, "bike_id": "c0a64019c65ba2fb04ca75f4d41309d8", "lat": 38.874785, "fusion_lon": 0.0, "fusion_lat": 0.0, "type": "electric_scooter", "name": "c0a64019c65ba2fb04ca75f4d41309d8", "is_disabled": 0, "rental_uris": {"ios": "https://dc.lft.to/lastmile_qr_scan", "android": "https://dc.lft.to/lastmile_qr_scan"}, "is_reserved": 0}, {"lon": -77.0215935, "bike_id": "c57dd08270da126396a85d6645d6b0eb", "lat": 38.89487416666667, "fusion_lon": 0.0, "fusion_lat": 0.0, "type": "electric_scooter", "name": "c57dd08270da126396a85d6645d6b0eb", "is_disabled": 0, "rental_uris": {"ios": "https://dc.lft.to/lastmile_qr_scan", "android": "https://dc.lft.to/lastmile_qr_scan"}, "is_reserved": 0}, {"lon": -77.072227, "bike_id": "aa77c15ab6e630c2eb3a771c09e580df", "lat": 38.92260516666666, "fusion_lon": 0.0, "fusion_lat": 0.0, "type": "electric_scooter", "name": "aa77c15ab6e630c2eb3a771c09e580df", "is_disabled": 0, "rental_uris": {"ios": "https://dc.lft.to/lastmile_qr_scan", "android": "https://dc.lft.to/lastmile_qr_scan"}, "is_reserved": 0}, {"lon": -76.9959005, "bike_id": "2e7e4da981704fc7d02e8eeeac459f1a", "lat": 38.88435233333333, "fusion_lon": 0.0, "fusion_lat": 0.0, "type": "electric_scooter", "name": "2e7e4da981704fc7d02e8eeeac459f1a", "is_disabled": 0, "rental_uris": {"ios": "https://dc.lft.to/lastmile_qr_scan", "android": "https://dc.lft.to/lastmile_qr_scan"}, "is_reserved": 0}, {"lon": -77.0514105, "bike_id": "de43b155dee69df78a0ee5332465bc63", "lat": 38.8986005, "fusion_lon": 0.0, "fusion_lat": 0.0, "type": "electric_scooter", "name": "de43b155dee69df78a0ee5332465bc63", "is_disabled": 0, "rental_uris": {"ios": "https://dc.lft.to/lastmile_qr_scan", "android": "https://dc.lft.to/lastmile_qr_scan"}, "is_reserved": 0}, {"lon": -77.04981683333334, "bike_id": "c31dcbc2b541a6e335610ae613c8f09a", "lat": 39.06292883333333, "fusion_lon": 0.0, "fusion_lat": 0.0, "type": "electric_bike", "name": "c31dcbc2b541a6e335610ae613c8f09a", "is_disabled": 0, "rental_uris": {"ios": "https://dc.lft.to/lastmile_qr_scan", "android": "https://dc.lft.to/lastmile_qr_scan"}, "is_reserved": 0}, {"lon": -76.978686, "bike_id": "a27c4630a3302e633c8f2a5517bdcf6b", "lat": 38.88302183333333, "fusion_lon": 0.0, "fusion_lat": 0.0, "type": "electric_scooter", "name": "a27c4630a3302e633c8f2a5517bdcf6b", "is_disabled": 0, "rental_uris": {"ios": "https://dc.lft.to/lastmile_qr_scan", "android": "https://dc.lft.to/lastmile_qr_scan"}, "is_reserved": 0}, {"lon": -76.99369383333334, "bike_id": "6cc688c8ba118efd34fc5104bc0fa6ee", "lat": 38.9402385, "fusion_lon": 0.0, "fusion_lat": 0.0, "type": "electric_scooter", "name": "6cc688c8ba118efd34fc5104bc0fa6ee", "is_disabled": 0, "rental_uris": {"ios": "https://dc.lft.to/lastmile_qr_scan", "android": "https://dc.lft.to/lastmile_qr_scan"}, "is_reserved": 0}, {"lon": -77.02957916666666, "bike_id": "e4150e2651f346888e1cb48979fa5155", "lat": 38.91272033333333, "fusion_lon": 0.0, "fusion_lat": 0.0, "type": "electric_scooter", "name": "e4150e2651f346888e1cb48979fa5155", "is_disabled": 0, "rental_uris": {"ios": "https://dc.lft.to/lastmile_qr_scan", "android": "https://dc.lft.to/lastmile_qr_scan"}, "is_reserved": 0}, {"lon": -77.03443166666666, "bike_id": "7e96999c85d1fec460b615e66c37f573", "lat": 38.919025500000004, "fusion_lon": 0.0, "fusion_lat": 0.0, "type": "electric_bike", "name": "7e96999c85d1fec460b615e66c37f573", "is_disabled": 0, "rental_uris": {"ios": "https://dc.lft.to/lastmile_qr_scan", "android": "https://dc.lft.to/lastmile_qr_scan"}, "is_reserved": 0}, {"lon": -77.03824833333333, "bike_id": "5a3f648799222bea5a530b1b2024acce", "lat": 38.9096305, "fusion_lon": 0.0, "fusion_lat": 0.0, "type": "electric_scooter", "name": "5a3f648799222bea5a530b1b2024acce", "is_disabled": 0, "rental_uris": {"ios": "https://dc.lft.to/lastmile_qr_scan", "android": "https://dc.lft.to/lastmile_qr_scan"}, "is_reserved": 0}, {"lon": -77.03864666666666, "bike_id": "a6418bd5ae2729342d08ee3841e7a3ca", "lat": 38.92012866666666, "fusion_lon": 0.0, "fusion_lat": 0.0, "type": "electric_scooter", "name": "a6418bd5ae2729342d08ee3841e7a3ca", "is_disabled": 0, "rental_uris": {"ios": "https://dc.lft.to/lastmile_qr_scan", "android": "https://dc.lft.to/lastmile_qr_scan"}, "is_reserved": 0}, {"lon": -76.99017083333334, "bike_id": "8ecddddb06cfa06ca65016cd092d19d2", "lat": 38.9459875, "fusion_lon": 0.0, "fusion_lat": 0.0, "type": "electric_scooter", "name": "8ecddddb06cfa06ca65016cd092d19d2", "is_disabled": 0, "rental_uris": {"ios": "https://dc.lft.to/lastmile_qr_scan", "android": "https://dc.lft.to/lastmile_qr_scan"}, "is_reserved": 0}, {"lon": -77.024089, "bike_id": "0f2a69fdeec9955c9cc25cd3117bad41", "lat": 38.921551, "fusion_lon": 0.0, "fusion_lat": 0.0, "type": "electric_scooter", "name": "0f2a69fdeec9955c9cc25cd3117bad41", "is_disabled": 0, "rental_uris": {"ios": "https://dc.lft.to/lastmile_qr_scan", "android": "https://dc.lft.to/lastmile_qr_scan"}, "is_reserved": 0}, {"lon": -77.00613466666667, "bike_id": "d72c20a91c152ff598321e4b0a78902d", "lat": 38.87178, "fusion_lon": 0.0, "fusion_lat": 0.0, "type": "electric_scooter", "name": "d72c20a91c152ff598321e4b0a78902d", "is_disabled": 0, "rental_uris": {"ios": "https://dc.lft.to/lastmile_qr_scan", "android": "https://dc.lft.to/lastmile_qr_scan"}, "is_reserved": 0}, {"lon": -77.04487116666667, "bike_id": "910b8b41c9b372697889d57f59b9528c", "lat": 38.91933566666667, "fusion_lon": 0.0, "fusion_lat": 0.0, "type": "electric_scooter", "name": "910b8b41c9b372697889d57f59b9528c", "is_disabled": 0, "rental_uris": {"ios": "https://dc.lft.to/lastmile_qr_scan", "android": "https://dc.lft.to/lastmile_qr_scan"}, "is_reserved": 0}, {"lon": -77.04879083333333, "bike_id": "eaeb17ae9a1efb08f82c4e1183f8de02", "lat": 38.892307333333335, "fusion_lon": 0.0, "fusion_lat": 0.0, "type": "electric_scooter", "name": "eaeb17ae9a1efb08f82c4e1183f8de02", "is_disabled": 0, "rental_uris": {"ios": "https://dc.lft.to/lastmile_qr_scan", "android": "https://dc.lft.to/lastmile_qr_scan"}, "is_reserved": 0}, {"lon": -77.01631666666667, "bike_id": "55d54e03a7ac9886d4696c42001ec7eb", "lat": 38.9060905, "fusion_lon": 0.0, "fusion_lat": 0.0, "type": "electric_scooter", "name": "55d54e03a7ac9886d4696c42001ec7eb", "is_disabled": 0, "rental_uris": {"ios": "https://dc.lft.to/lastmile_qr_scan", "android": "https://dc.lft.to/lastmile_qr_scan"}, "is_reserved": 0}, {"lon": -77.03639766666667, "bike_id": "c0e3ab1e83bec507824cee96ad9a9a13", "lat": 38.90355116666667, "fusion_lon": 0.0, "fusion_lat": 0.0, "type": "electric_scooter", "name": "c0e3ab1e83bec507824cee96ad9a9a13", "is_disabled": 0, "rental_uris": {"ios": "https://dc.lft.to/lastmile_qr_scan", "android": "https://dc.lft.to/lastmile_qr_scan"}, "is_reserved": 0}, {"lon": -77.09496716666666, "bike_id": "af923364ec624a87c977b657d65a852e", "lat": 38.80759583333333, "fusion_lon": 0.0, "fusion_lat": 0.0, "type": "electric_bike", "name": "af923364ec624a87c977b657d65a852e", "is_disabled": 0, "rental_uris": {"ios": "https://dc.lft.to/lastmile_qr_scan", "android": "https://dc.lft.to/lastmile_qr_scan"}, "is_reserved": 0}, {"lon": -76.98661366666667, "bike_id": "24d98beb6e6e9c14e7b9bc673c392ab8", "lat": 38.91248916666667, "fusion_lon": 0.0, "fusion_lat": 0.0, "type": "electric_scooter", "name": "24d98beb6e6e9c14e7b9bc673c392ab8", "is_disabled": 0, "rental_uris": {"ios": "https://dc.lft.to/lastmile_qr_scan", "android": "https://dc.lft.to/lastmile_qr_scan"}, "is_reserved": 0}, {"lon": -76.988417, "bike_id": "bef3ae85b544fb361400761720abbfe7", "lat": 38.901191, "fusion_lon": 0.0, "fusion_lat": 0.0, "type": "electric_scooter", "name": "bef3ae85b544fb361400761720abbfe7", "is_disabled": 0, "rental_uris": {"ios": "https://dc.lft.to/lastmile_qr_scan", "android": "https://dc.lft.to/lastmile_qr_scan"}, "is_reserved": 0}, {"lon": -77.04162283333334, "bike_id": "b1331fbf75d5177291274098dbfd0df4", "lat": 38.917982, "fusion_lon": 0.0, "fusion_lat": 0.0, "type": "electric_scooter", "name": "b1331fbf75d5177291274098dbfd0df4", "is_disabled": 0, "rental_uris": {"ios": "https://dc.lft.to/lastmile_qr_scan", "android": "https://dc.lft.to/lastmile_qr_scan"}, "is_reserved": 0}, {"lon": -77.02383883333333, "bike_id": "e91f0fed04f3301780fd9e92d6f5b149", "lat": 38.9078245, "fusion_lon": 0.0, "fusion_lat": 0.0, "type": "electric_scooter", "name": "e91f0fed04f3301780fd9e92d6f5b149", "is_disabled": 0, "rental_uris": {"ios": "https://dc.lft.to/lastmile_qr_scan", "android": "https://dc.lft.to/lastmile_qr_scan"}, "is_reserved": 0}, {"lon": -77.02301, "bike_id": "ae1d2b4a6fd6bde21c10268b7c4c2058", "lat": 38.90292266666667, "fusion_lon": 0.0, "fusion_lat": 0.0, "type": "electric_scooter", "name": "ae1d2b4a6fd6bde21c10268b7c4c2058", "is_disabled": 0, "rental_uris": {"ios": "https://dc.lft.to/lastmile_qr_scan", "android": "https://dc.lft.to/lastmile_qr_scan"}, "is_reserved": 0}, {"lon": -77.02183833333333, "bike_id": "22f30e21c1d24424d5714771ad9f3239", "lat": 38.90948816666667, "fusion_lon": 0.0, "fusion_lat": 0.0, "type": "electric_scooter", "name": "22f30e21c1d24424d5714771ad9f3239", "is_disabled": 0, "rental_uris": {"ios": "https://dc.lft.to/lastmile_qr_scan", "android": "https://dc.lft.to/lastmile_qr_scan"}, "is_reserved": 0}, {"lon": -77.0240245, "bike_id": "c3072f31004e8138ad51a098d4240da6", "lat": 38.88289566666667, "fusion_lon": 0.0, "fusion_lat": 0.0, "type": "electric_scooter", "name": "c3072f31004e8138ad51a098d4240da6", "is_disabled": 0, "rental_uris": {"ios": "https://dc.lft.to/lastmile_qr_scan", "android": "https://dc.lft.to/lastmile_qr_scan"}, "is_reserved": 0}, {"lon": -77.0595375, "bike_id": "a613781e6a54f3c028d5f4b0eed3cc37", "lat": 38.91836033333333, "fusion_lon": 0.0, "fusion_lat": 0.0, "type": "electric_scooter", "name": "a613781e6a54f3c028d5f4b0eed3cc37", "is_disabled": 0, "rental_uris": {"ios": "https://dc.lft.to/lastmile_qr_scan", "android": "https://dc.lft.to/lastmile_qr_scan"}, "is_reserved": 0}, {"lon": -77.03665583333333, "bike_id": "a75ba9ff86c19037e12cb02f0f24a989", "lat": 38.918138666666664, "fusion_lon": 0.0, "fusion_lat": 0.0, "type": "electric_scooter", "name": "a75ba9ff86c19037e12cb02f0f24a989", "is_disabled": 0, "rental_uris": {"ios": "https://dc.lft.to/lastmile_qr_scan", "android": "https://dc.lft.to/lastmile_qr_scan"}, "is_reserved": 0}, {"lon": -77.03679783333334, "bike_id": "a324d2c04f86d69385fbc98c3212b52e", "lat": 38.9083875, "fusion_lon": 0.0, "fusion_lat": 0.0, "type": "electric_scooter", "name": "a324d2c04f86d69385fbc98c3212b52e", "is_disabled": 0, "rental_uris": {"ios": "https://dc.lft.to/lastmile_qr_scan", "android": "https://dc.lft.to/lastmile_qr_scan"}, "is_reserved": 0}, {"lon": -76.978267, "bike_id": "017743f5861761547cd2287abb07b58e", "lat": 38.84367233333333, "fusion_lon": 0.0, "fusion_lat": 0.0, "type": "electric_bike", "name": "017743f5861761547cd2287abb07b58e", "is_disabled": 0, "rental_uris": {"ios": "https://dc.lft.to/lastmile_qr_scan", "android": "https://dc.lft.to/lastmile_qr_scan"}, "is_reserved": 0}, {"lon": -77.03866266666667, "bike_id": "4ebe015bbc6e6f816b893ffd50d029bb", "lat": 38.91265283333333, "fusion_lon": 0.0, "fusion_lat": 0.0, "type": "electric_scooter", "name": "4ebe015bbc6e6f816b893ffd50d029bb", "is_disabled": 0, "rental_uris": {"ios": "https://dc.lft.to/lastmile_qr_scan", "android": "https://dc.lft.to/lastmile_qr_scan"}, "is_reserved": 0}, {"lon": -77.02293233333333, "bike_id": "5036e9a3506451d49d4947afac9e19e3", "lat": 38.90879133333333, "fusion_lon": 0.0, "fusion_lat": 0.0, "type": "electric_scooter", "name": "5036e9a3506451d49d4947afac9e19e3", "is_disabled": 0, "rental_uris": {"ios": "https://dc.lft.to/lastmile_qr_scan", "android": "https://dc.lft.to/lastmile_qr_scan"}, "is_reserved": 0}, {"lon": -77.01721183333333, "bike_id": "1f2750b0877f55d036cc0542af0f9fe3", "lat": 38.905602333333334, "fusion_lon": 0.0, "fusion_lat": 0.0, "type": "electric_scooter", "name": "1f2750b0877f55d036cc0542af0f9fe3", "is_disabled": 0, "rental_uris": {"ios": "https://dc.lft.to/lastmile_qr_scan", "android": "https://dc.lft.to/lastmile_qr_scan"}, "is_reserved": 0}, {"lon": -77.03584766666667, "bike_id": "2e4b36e112079465a235eaa9a3d7ddde", "lat": 38.9922515, "fusion_lon": 0.0, "fusion_lat": 0.0, "type": "electric_scooter", "name": "2e4b36e112079465a235eaa9a3d7ddde", "is_disabled": 0, "rental_uris": {"ios": "https://dc.lft.to/lastmile_qr_scan", "android": "https://dc.lft.to/lastmile_qr_scan"}, "is_reserved": 0}, {"lon": -77.03526083333334, "bike_id": "3a7c171a32d4151b98a6553e0f55915f", "lat": 38.9273005, "fusion_lon": 0.0, "fusion_lat": 0.0, "type": "electric_scooter", "name": "3a7c171a32d4151b98a6553e0f55915f", "is_disabled": 0, "rental_uris": {"ios": "https://dc.lft.to/lastmile_qr_scan", "android": "https://dc.lft.to/lastmile_qr_scan"}, "is_reserved": 0}, {"lon": -77.02509316666666, "bike_id": "07c7a06d34ae0dedfa2b629d9a13489d", "lat": 38.90419633333333, "fusion_lon": 0.0, "fusion_lat": 0.0, "type": "electric_scooter", "name": "07c7a06d34ae0dedfa2b629d9a13489d", "is_disabled": 0, "rental_uris": {"ios": "https://dc.lft.to/lastmile_qr_scan", "android": "https://dc.lft.to/lastmile_qr_scan"}, "is_reserved": 0}, {"lon": -77.009366, "bike_id": "7110d2294039e8913937606391b251b1", "lat": 38.899735166666666, "fusion_lon": 0.0, "fusion_lat": 0.0, "type": "electric_scooter", "name": "7110d2294039e8913937606391b251b1", "is_disabled": 0, "rental_uris": {"ios": "https://dc.lft.to/lastmile_qr_scan", "android": "https://dc.lft.to/lastmile_qr_scan"}, "is_reserved": 0}, {"lon": -77.03323583333334, "bike_id": "04a2d29cef77966cdc50854acf2081e3", "lat": 38.921474833333335, "fusion_lon": 0.0, "fusion_lat": 0.0, "type": "electric_scooter", "name": "04a2d29cef77966cdc50854acf2081e3", "is_disabled": 0, "rental_uris": {"ios": "https://dc.lft.to/lastmile_qr_scan", "android": "https://dc.lft.to/lastmile_qr_scan"}, "is_reserved": 0}, {"lon": -77.083374, "bike_id": "df819332766d9df78da0f6bd195c11d7", "lat": 38.854397, "fusion_lon": 0.0, "fusion_lat": 0.0, "type": "electric_bike", "name": "df819332766d9df78da0f6bd195c11d7", "is_disabled": 0, "rental_uris": {"ios": "https://dc.lft.to/lastmile_qr_scan", "android": "https://dc.lft.to/lastmile_qr_scan"}, "is_reserved": 0}, {"lon": -77.04173516666667, "bike_id": "7e439e093536b7e4fb09900c51e31f14", "lat": 38.913927, "fusion_lon": 0.0, "fusion_lat": 0.0, "type": "electric_scooter", "name": "7e439e093536b7e4fb09900c51e31f14", "is_disabled": 0, "rental_uris": {"ios": "https://dc.lft.to/lastmile_qr_scan", "android": "https://dc.lft.to/lastmile_qr_scan"}, "is_reserved": 0}, {"lon": -77.002767, "bike_id": "978d92dced4f62d34aacca73400b1f5e", "lat": 38.877023333333334, "fusion_lon": 0.0, "fusion_lat": 0.0, "type": "electric_bike", "name": "978d92dced4f62d34aacca73400b1f5e", "is_disabled": 0, "rental_uris": {"ios": "https://dc.lft.to/lastmile_qr_scan", "android": "https://dc.lft.to/lastmile_qr_scan"}, "is_reserved": 0}, {"lon": -77.07231866666666, "bike_id": "dfabf5bed4025833e2ca3c22f6d4263d", "lat": 38.96804866666667, "fusion_lon": 0.0, "fusion_lat": 0.0, "type": "electric_bike", "name": "dfabf5bed4025833e2ca3c22f6d4263d", "is_disabled": 0, "rental_uris": {"ios": "https://dc.lft.to/lastmile_qr_scan", "android": "https://dc.lft.to/lastmile_qr_scan"}, "is_reserved": 0}, {"lon": -77.0322975, "bike_id": "d2ca8c87d34ca479cc00e3b2e1b420e3", "lat": 38.928648333333335, "fusion_lon": 0.0, "fusion_lat": 0.0, "type": "electric_scooter", "name": "d2ca8c87d34ca479cc00e3b2e1b420e3", "is_disabled": 0, "rental_uris": {"ios": "https://dc.lft.to/lastmile_qr_scan", "android": "https://dc.lft.to/lastmile_qr_scan"}, "is_reserved": 0}, {"lon": -76.99381966666667, "bike_id": "3ea9a3b152e167914215bb15e5d8bf90", "lat": 38.97186816666667, "fusion_lon": 0.0, "fusion_lat": 0.0, "type": "electric_bike", "name": "3ea9a3b152e167914215bb15e5d8bf90", "is_disabled": 0, "rental_uris": {"ios": "https://dc.lft.to/lastmile_qr_scan", "android": "https://dc.lft.to/lastmile_qr_scan"}, "is_reserved": 0}, {"lon": -77.0700885, "bike_id": "510d0b7c371b84dc1b1a7025b29c111c", "lat": 38.958488, "fusion_lon": 0.0, "fusion_lat": 0.0, "type": "electric_scooter", "name": "510d0b7c371b84dc1b1a7025b29c111c", "is_disabled": 0, "rental_uris": {"ios": "https://dc.lft.to/lastmile_qr_scan", "android": "https://dc.lft.to/lastmile_qr_scan"}, "is_reserved": 0}, {"lon": -77.01300866666666, "bike_id": "a87c0b27c13161a13836208b7a29fc80", "lat": 38.943264166666665, "fusion_lon": 0.0, "fusion_lat": 0.0, "type": "electric_scooter", "name": "a87c0b27c13161a13836208b7a29fc80", "is_disabled": 0, "rental_uris": {"ios": "https://dc.lft.to/lastmile_qr_scan", "android": "https://dc.lft.to/lastmile_qr_scan"}, "is_reserved": 0}, {"lon": -77.04428966666667, "bike_id": "b676fba8c4bc0f59de763e0c5ba40226", "lat": 38.90950183333333, "fusion_lon": 0.0, "fusion_lat": 0.0, "type": "electric_scooter", "name": "b676fba8c4bc0f59de763e0c5ba40226", "is_disabled": 0, "rental_uris": {"ios": "https://dc.lft.to/lastmile_qr_scan", "android": "https://dc.lft.to/lastmile_qr_scan"}, "is_reserved": 0}, {"lon": -77.02900133333333, "bike_id": "0129c1361ad40b80ef2fecea15ec68cf", "lat": 38.91688516666667, "fusion_lon": 0.0, "fusion_lat": 0.0, "type": "electric_scooter", "name": "0129c1361ad40b80ef2fecea15ec68cf", "is_disabled": 0, "rental_uris": {"ios": "https://dc.lft.to/lastmile_qr_scan", "android": "https://dc.lft.to/lastmile_qr_scan"}, "is_reserved": 0}, {"lon": -77.048814, "bike_id": "2a4a4722e4d5c502bd5b678d217e2f1a", "lat": 38.89229666666667, "fusion_lon": 0.0, "fusion_lat": 0.0, "type": "electric_scooter", "name": "2a4a4722e4d5c502bd5b678d217e2f1a", "is_disabled": 0, "rental_uris": {"ios": "https://dc.lft.to/lastmile_qr_scan", "android": "https://dc.lft.to/lastmile_qr_scan"}, "is_reserved": 0}, {"lon": -77.00577033333333, "bike_id": "c62464ee261caa344c76758a2cd1b591", "lat": 38.835885833333336, "fusion_lon": 0.0, "fusion_lat": 0.0, "type": "electric_scooter", "name": "c62464ee261caa344c76758a2cd1b591", "is_disabled": 0, "rental_uris": {"ios": "https://dc.lft.to/lastmile_qr_scan", "android": "https://dc.lft.to/lastmile_qr_scan"}, "is_reserved": 0}, {"lon": -76.96096916666667, "bike_id": "27a545683b4158548f7ac7f3d3bb3b4c", "lat": 38.91846966666667, "fusion_lon": 0.0, "fusion_lat": 0.0, "type": "electric_bike", "name": "27a545683b4158548f7ac7f3d3bb3b4c", "is_disabled": 0, "rental_uris": {"ios": "https://dc.lft.to/lastmile_qr_scan", "android": "https://dc.lft.to/lastmile_qr_scan"}, "is_reserved": 0}, {"lon": -77.03763133333334, "bike_id": "be788cf2b5a7f326917b2079938d5858", "lat": 38.9169145, "fusion_lon": 0.0, "fusion_lat": 0.0, "type": "electric_scooter", "name": "be788cf2b5a7f326917b2079938d5858", "is_disabled": 0, "rental_uris": {"ios": "https://dc.lft.to/lastmile_qr_scan", "android": "https://dc.lft.to/lastmile_qr_scan"}, "is_reserved": 0}, {"lon": -77.03275966666666, "bike_id": "38fce05e94c8307539f957d2d269801a", "lat": 38.907205, "fusion_lon": 0.0, "fusion_lat": 0.0, "type": "electric_scooter", "name": "38fce05e94c8307539f957d2d269801a", "is_disabled": 0, "rental_uris": {"ios": "https://dc.lft.to/lastmile_qr_scan", "android": "https://dc.lft.to/lastmile_qr_scan"}, "is_reserved": 0}, {"lon": -77.07898133333333, "bike_id": "2a4fb1d221de5c122d6bed2a806881d4", "lat": 38.8393015, "fusion_lon": 0.0, "fusion_lat": 0.0, "type": "electric_bike", "name": "2a4fb1d221de5c122d6bed2a806881d4", "is_disabled": 0, "rental_uris": {"ios": "https://dc.lft.to/lastmile_qr_scan", "android": "https://dc.lft.to/lastmile_qr_scan"}, "is_reserved": 0}, {"lon": -77.00373183333333, "bike_id": "1d34eb8d1311ae92133641103a58ab9c", "lat": 38.89731033333333, "fusion_lon": 0.0, "fusion_lat": 0.0, "type": "electric_scooter", "name": "1d34eb8d1311ae92133641103a58ab9c", "is_disabled": 0, "rental_uris": {"ios": "https://dc.lft.to/lastmile_qr_scan", "android": "https://dc.lft.to/lastmile_qr_scan"}, "is_reserved": 0}, {"lon": -77.08003283333333, "bike_id": "f92dfdbbf0303b45bb4bb678cebf13c5", "lat": 38.96480866666667, "fusion_lon": 0.0, "fusion_lat": 0.0, "type": "electric_scooter", "name": "f92dfdbbf0303b45bb4bb678cebf13c5", "is_disabled": 0, "rental_uris": {"ios": "https://dc.lft.to/lastmile_qr_scan", "android": "https://dc.lft.to/lastmile_qr_scan"}, "is_reserved": 0}, {"lon": -76.98039683333333, "bike_id": "110f19876628108a81c1638d115e3d52", "lat": 38.889663166666665, "fusion_lon": 0.0, "fusion_lat": 0.0, "type": "electric_scooter", "name": "110f19876628108a81c1638d115e3d52", "is_disabled": 0, "rental_uris": {"ios": "https://dc.lft.to/lastmile_qr_scan", "android": "https://dc.lft.to/lastmile_qr_scan"}, "is_reserved": 0}, {"lon": -77.07751833333333, "bike_id": "917f0c3720a61a9857466db0f15942cc", "lat": 38.8418825, "fusion_lon": 0.0, "fusion_lat": 0.0, "type": "electric_bike", "name": "917f0c3720a61a9857466db0f15942cc", "is_disabled": 0, "rental_uris": {"ios": "https://dc.lft.to/lastmile_qr_scan", "android": "https://dc.lft.to/lastmile_qr_scan"}, "is_reserved": 0}, {"lon": -76.983409, "bike_id": "e7655ef87d0c207bb439d6094741102a", "lat": 38.86637916666667, "fusion_lon": 0.0, "fusion_lat": 0.0, "type": "electric_scooter", "name": "e7655ef87d0c207bb439d6094741102a", "is_disabled": 0, "rental_uris": {"ios": "https://dc.lft.to/lastmile_qr_scan", "android": "https://dc.lft.to/lastmile_qr_scan"}, "is_reserved": 0}, {"lon": -76.931894, "bike_id": "5347e97336b3242be275d4eafd03c6b3", "lat": 38.898741666666666, "fusion_lon": 0.0, "fusion_lat": 0.0, "type": "electric_scooter", "name": "5347e97336b3242be275d4eafd03c6b3", "is_disabled": 0, "rental_uris": {"ios": "https://dc.lft.to/lastmile_qr_scan", "android": "https://dc.lft.to/lastmile_qr_scan"}, "is_reserved": 0}, {"lon": -76.99021366666666, "bike_id": "9809e2cb20d11f0ad88623da7a57b0ba", "lat": 38.882695166666664, "fusion_lon": 0.0, "fusion_lat": 0.0, "type": "electric_scooter", "name": "9809e2cb20d11f0ad88623da7a57b0ba", "is_disabled": 0, "rental_uris": {"ios": "https://dc.lft.to/lastmile_qr_scan", "android": "https://dc.lft.to/lastmile_qr_scan"}, "is_reserved": 0}, {"lon": -77.01726983333333, "bike_id": "20676f1760daeef8aad964b277e0ae4a", "lat": 38.911705833333336, "fusion_lon": 0.0, "fusion_lat": 0.0, "type": "electric_scooter", "name": "20676f1760daeef8aad964b277e0ae4a", "is_disabled": 0, "rental_uris": {"ios": "https://dc.lft.to/lastmile_qr_scan", "android": "https://dc.lft.to/lastmile_qr_scan"}, "is_reserved": 0}, {"lon": -77.05267533333334, "bike_id": "ac2fb7f53549dfdd48f069f23b4a3240", "lat": 38.92774383333333, "fusion_lon": 0.0, "fusion_lat": 0.0, "type": "electric_scooter", "name": "ac2fb7f53549dfdd48f069f23b4a3240", "is_disabled": 0, "rental_uris": {"ios": "https://dc.lft.to/lastmile_qr_scan", "android": "https://dc.lft.to/lastmile_qr_scan"}, "is_reserved": 0}, {"lon": -77.0174215, "bike_id": "c1fb9dcc899fd5c3bbc4b63544ece88e", "lat": 38.90238983333333, "fusion_lon": 0.0, "fusion_lat": 0.0, "type": "electric_scooter", "name": "c1fb9dcc899fd5c3bbc4b63544ece88e", "is_disabled": 0, "rental_uris": {"ios": "https://dc.lft.to/lastmile_qr_scan", "android": "https://dc.lft.to/lastmile_qr_scan"}, "is_reserved": 0}, {"lon": -77.0211955, "bike_id": "a24043e7f0ace25b034711e3c727f00a", "lat": 38.909695166666666, "fusion_lon": 0.0, "fusion_lat": 0.0, "type": "electric_scooter", "name": "a24043e7f0ace25b034711e3c727f00a", "is_disabled": 0, "rental_uris": {"ios": "https://dc.lft.to/lastmile_qr_scan", "android": "https://dc.lft.to/lastmile_qr_scan"}, "is_reserved": 0}, {"lon": -77.0219565, "bike_id": "63f9de4fda06859809f075c9a1cead89", "lat": 38.9163865, "fusion_lon": 0.0, "fusion_lat": 0.0, "type": "electric_scooter", "name": "63f9de4fda06859809f075c9a1cead89", "is_disabled": 0, "rental_uris": {"ios": "https://dc.lft.to/lastmile_qr_scan", "android": "https://dc.lft.to/lastmile_qr_scan"}, "is_reserved": 0}, {"lon": -77.03831666666666, "bike_id": "78abe6d8ae179ca4d480bd3460b9cbb3", "lat": 38.906687, "fusion_lon": 0.0, "fusion_lat": 0.0, "type": "electric_scooter", "name": "78abe6d8ae179ca4d480bd3460b9cbb3", "is_disabled": 0, "rental_uris": {"ios": "https://dc.lft.to/lastmile_qr_scan", "android": "https://dc.lft.to/lastmile_qr_scan"}, "is_reserved": 0}, {"lon": -77.02759733333333, "bike_id": "51a5717f210443798728161c99016f6e", "lat": 38.944000833333334, "fusion_lon": 0.0, "fusion_lat": 0.0, "type": "electric_scooter", "name": "51a5717f210443798728161c99016f6e", "is_disabled": 0, "rental_uris": {"ios": "https://dc.lft.to/lastmile_qr_scan", "android": "https://dc.lft.to/lastmile_qr_scan"}, "is_reserved": 0}, {"lon": -77.05867216666667, "bike_id": "57f2362646afc06f2ee4280da2c2ccf6", "lat": 38.935990833333335, "fusion_lon": 0.0, "fusion_lat": 0.0, "type": "electric_scooter", "name": "57f2362646afc06f2ee4280da2c2ccf6", "is_disabled": 0, "rental_uris": {"ios": "https://dc.lft.to/lastmile_qr_scan", "android": "https://dc.lft.to/lastmile_qr_scan"}, "is_reserved": 0}, {"lon": -76.97537233333334, "bike_id": "e30f174f36edc448e7753ce21b430a63", "lat": 38.903279166666664, "fusion_lon": 0.0, "fusion_lat": 0.0, "type": "electric_bike", "name": "e30f174f36edc448e7753ce21b430a63", "is_disabled": 0, "rental_uris": {"ios": "https://dc.lft.to/lastmile_qr_scan", "android": "https://dc.lft.to/lastmile_qr_scan"}, "is_reserved": 0}, {"lon": -77.02455083333334, "bike_id": "dbb2e885cd4b0b1a92914ed9feb8988d", "lat": 38.9007665, "fusion_lon": 0.0, "fusion_lat": 0.0, "type": "electric_scooter", "name": "dbb2e885cd4b0b1a92914ed9feb8988d", "is_disabled": 0, "rental_uris": {"ios": "https://dc.lft.to/lastmile_qr_scan", "android": "https://dc.lft.to/lastmile_qr_scan"}, "is_reserved": 0}, {"lon": -77.04568, "bike_id": "15d8c852434c99c5d6acc3372ab54525", "lat": 38.91583283333333, "fusion_lon": 0.0, "fusion_lat": 0.0, "type": "electric_scooter", "name": "15d8c852434c99c5d6acc3372ab54525", "is_disabled": 0, "rental_uris": {"ios": "https://dc.lft.to/lastmile_qr_scan", "android": "https://dc.lft.to/lastmile_qr_scan"}, "is_reserved": 0}, {"lon": -77.03075666666666, "bike_id": "25d90386afc4e7f98116e04094f88b23", "lat": 38.90258383333333, "fusion_lon": 0.0, "fusion_lat": 0.0, "type": "electric_scooter", "name": "25d90386afc4e7f98116e04094f88b23", "is_disabled": 0, "rental_uris": {"ios": "https://dc.lft.to/lastmile_qr_scan", "android": "https://dc.lft.to/lastmile_qr_scan"}, "is_reserved": 0}, {"lon": -77.03407266666666, "bike_id": "b4c8e308dc0472a8dc8d1371a34672c5", "lat": 38.923137833333335, "fusion_lon": 0.0, "fusion_lat": 0.0, "type": "electric_scooter", "name": "b4c8e308dc0472a8dc8d1371a34672c5", "is_disabled": 0, "rental_uris": {"ios": "https://dc.lft.to/lastmile_qr_scan", "android": "https://dc.lft.to/lastmile_qr_scan"}, "is_reserved": 0}, {"lon": -77.023933, "bike_id": "363d046e77a8b8255a1787d1e1c13114", "lat": 38.91982183333333, "fusion_lon": 0.0, "fusion_lat": 0.0, "type": "electric_scooter", "name": "363d046e77a8b8255a1787d1e1c13114", "is_disabled": 0, "rental_uris": {"ios": "https://dc.lft.to/lastmile_qr_scan", "android": "https://dc.lft.to/lastmile_qr_scan"}, "is_reserved": 0}, {"lon": -77.03383616666666, "bike_id": "a6e59219871d3d483f84b592be5f3209", "lat": 38.909682333333336, "fusion_lon": 0.0, "fusion_lat": 0.0, "type": "electric_scooter", "name": "a6e59219871d3d483f84b592be5f3209", "is_disabled": 0, "rental_uris": {"ios": "https://dc.lft.to/lastmile_qr_scan", "android": "https://dc.lft.to/lastmile_qr_scan"}, "is_reserved": 0}, {"lon": -77.06020683333334, "bike_id": "c15e38de6bd450654fd8f4c14068ad8a", "lat": 38.90499283333333, "fusion_lon": 0.0, "fusion_lat": 0.0, "type": "electric_scooter", "name": "c15e38de6bd450654fd8f4c14068ad8a", "is_disabled": 0, "rental_uris": {"ios": "https://dc.lft.to/lastmile_qr_scan", "android": "https://dc.lft.to/lastmile_qr_scan"}, "is_reserved": 0}, {"lon": -77.06008516666667, "bike_id": "15d0fe4b3413aa4bb36f128b8349eb58", "lat": 38.90113316666667, "fusion_lon": 0.0, "fusion_lat": 0.0, "type": "electric_scooter", "name": "15d0fe4b3413aa4bb36f128b8349eb58", "is_disabled": 0, "rental_uris": {"ios": "https://dc.lft.to/lastmile_qr_scan", "android": "https://dc.lft.to/lastmile_qr_scan"}, "is_reserved": 0}, {"lon": -76.96526433333334, "bike_id": "3cebbd04c01a3067f8029e1e037d0709", "lat": 38.87624516666666, "fusion_lon": 0.0, "fusion_lat": 0.0, "type": "electric_scooter", "name": "3cebbd04c01a3067f8029e1e037d0709", "is_disabled": 0, "rental_uris": {"ios": "https://dc.lft.to/lastmile_qr_scan", "android": "https://dc.lft.to/lastmile_qr_scan"}, "is_reserved": 0}, {"lon": -77.0326905, "bike_id": "7f89f2aeae741616cef4b64f2e214584", "lat": 38.937768166666665, "fusion_lon": 0.0, "fusion_lat": 0.0, "type": "electric_scooter", "name": "7f89f2aeae741616cef4b64f2e214584", "is_disabled": 0, "rental_uris": {"ios": "https://dc.lft.to/lastmile_qr_scan", "android": "https://dc.lft.to/lastmile_qr_scan"}, "is_reserved": 0}, {"lon": -77.057106, "bike_id": "2044f2ba3c137467e52ae4158bab3974", "lat": 38.90545133333333, "fusion_lon": 0.0, "fusion_lat": 0.0, "type": "electric_scooter", "name": "2044f2ba3c137467e52ae4158bab3974", "is_disabled": 0, "rental_uris": {"ios": "https://dc.lft.to/lastmile_qr_scan", "android": "https://dc.lft.to/lastmile_qr_scan"}, "is_reserved": 0}, {"lon": -77.0251615, "bike_id": "dc927015b2f73f080f2406a8b69e5b8b", "lat": 38.920904166666666, "fusion_lon": 0.0, "fusion_lat": 0.0, "type": "electric_scooter", "name": "dc927015b2f73f080f2406a8b69e5b8b", "is_disabled": 0, "rental_uris": {"ios": "https://dc.lft.to/lastmile_qr_scan", "android": "https://dc.lft.to/lastmile_qr_scan"}, "is_reserved": 0}, {"lon": -77.04491116666667, "bike_id": "81a6df9c0b3dcf85feea8db34e06bf92", "lat": 38.913613833333336, "fusion_lon": 0.0, "fusion_lat": 0.0, "type": "electric_scooter", "name": "81a6df9c0b3dcf85feea8db34e06bf92", "is_disabled": 0, "rental_uris": {"ios": "https://dc.lft.to/lastmile_qr_scan", "android": "https://dc.lft.to/lastmile_qr_scan"}, "is_reserved": 0}, {"lon": -77.050065, "bike_id": "d0f6737a0d7e6200fc01d71ca7b55477", "lat": 38.91560316666666, "fusion_lon": 0.0, "fusion_lat": 0.0, "type": "electric_scooter", "name": "d0f6737a0d7e6200fc01d71ca7b55477", "is_disabled": 0, "rental_uris": {"ios": "https://dc.lft.to/lastmile_qr_scan", "android": "https://dc.lft.to/lastmile_qr_scan"}, "is_reserved": 0}, {"lon": -76.9849455, "bike_id": "a70a8e5479d1f0fd8559669f2ee7aad5", "lat": 38.878316166666664, "fusion_lon": 0.0, "fusion_lat": 0.0, "type": "electric_scooter", "name": "a70a8e5479d1f0fd8559669f2ee7aad5", "is_disabled": 0, "rental_uris": {"ios": "https://dc.lft.to/lastmile_qr_scan", "android": "https://dc.lft.to/lastmile_qr_scan"}, "is_reserved": 0}, {"lon": -76.94107766666667, "bike_id": "fc0eb12482c5f4e7d5f7c54fec293c34", "lat": 38.886417, "fusion_lon": 0.0, "fusion_lat": 0.0, "type": "electric_scooter", "name": "fc0eb12482c5f4e7d5f7c54fec293c34", "is_disabled": 0, "rental_uris": {"ios": "https://dc.lft.to/lastmile_qr_scan", "android": "https://dc.lft.to/lastmile_qr_scan"}, "is_reserved": 0}, {"lon": -77.0465215, "bike_id": "1a67b56f90af444f4ef8875bcab894bc", "lat": 38.909591666666664, "fusion_lon": 0.0, "fusion_lat": 0.0, "type": "electric_scooter", "name": "1a67b56f90af444f4ef8875bcab894bc", "is_disabled": 0, "rental_uris": {"ios": "https://dc.lft.to/lastmile_qr_scan", "android": "https://dc.lft.to/lastmile_qr_scan"}, "is_reserved": 0}, {"lon": -77.03264166666666, "bike_id": "937a4dd29eb890168f66c71dab9f3604", "lat": 38.929801499999996, "fusion_lon": 0.0, "fusion_lat": 0.0, "type": "electric_scooter", "name": "937a4dd29eb890168f66c71dab9f3604", "is_disabled": 0, "rental_uris": {"ios": "https://dc.lft.to/lastmile_qr_scan", "android": "https://dc.lft.to/lastmile_qr_scan"}, "is_reserved": 0}, {"lon": -76.99783583333334, "bike_id": "8131d0692190971efc48ed82f244f2ed", "lat": 38.8442205, "fusion_lon": 0.0, "fusion_lat": 0.0, "type": "electric_scooter", "name": "8131d0692190971efc48ed82f244f2ed", "is_disabled": 0, "rental_uris": {"ios": "https://dc.lft.to/lastmile_qr_scan", "android": "https://dc.lft.to/lastmile_qr_scan"}, "is_reserved": 0}, {"lon": -77.02053716666667, "bike_id": "9b63583b919f995f68b01a3140951a22", "lat": 38.91553366666667, "fusion_lon": 0.0, "fusion_lat": 0.0, "type": "electric_scooter", "name": "9b63583b919f995f68b01a3140951a22", "is_disabled": 0, "rental_uris": {"ios": "https://dc.lft.to/lastmile_qr_scan", "android": "https://dc.lft.to/lastmile_qr_scan"}, "is_reserved": 0}, {"lon": -76.9473185, "bike_id": "a47807b40e6696a25faa59d7c46bb855", "lat": 38.8973615, "fusion_lon": 0.0, "fusion_lat": 0.0, "type": "electric_scooter", "name": "a47807b40e6696a25faa59d7c46bb855", "is_disabled": 0, "rental_uris": {"ios": "https://dc.lft.to/lastmile_qr_scan", "android": "https://dc.lft.to/lastmile_qr_scan"}, "is_reserved": 0}, {"lon": -77.03444233333333, "bike_id": "ef22c0f76e2aebe91a79925da69f88bb", "lat": 38.917974, "fusion_lon": 0.0, "fusion_lat": 0.0, "type": "electric_scooter", "name": "ef22c0f76e2aebe91a79925da69f88bb", "is_disabled": 0, "rental_uris": {"ios": "https://dc.lft.to/lastmile_qr_scan", "android": "https://dc.lft.to/lastmile_qr_scan"}, "is_reserved": 0}, {"lon": -77.032915, "bike_id": "06f487ef8d0ba50591af49cf08858abe", "lat": 38.939718166666665, "fusion_lon": 0.0, "fusion_lat": 0.0, "type": "electric_scooter", "name": "06f487ef8d0ba50591af49cf08858abe", "is_disabled": 0, "rental_uris": {"ios": "https://dc.lft.to/lastmile_qr_scan", "android": "https://dc.lft.to/lastmile_qr_scan"}, "is_reserved": 0}, {"lon": -76.97710166666667, "bike_id": "250c4e8a24632920a7d20e99f7733467", "lat": 38.94912766666667, "fusion_lon": 0.0, "fusion_lat": 0.0, "type": "electric_bike", "name": "250c4e8a24632920a7d20e99f7733467", "is_disabled": 0, "rental_uris": {"ios": "https://dc.lft.to/lastmile_qr_scan", "android": "https://dc.lft.to/lastmile_qr_scan"}, "is_reserved": 0}, {"lon": -77.0120705, "bike_id": "a73719e80a7aa52c77c049541ec785c5", "lat": 38.8855125, "fusion_lon": 0.0, "fusion_lat": 0.0, "type": "electric_scooter", "name": "a73719e80a7aa52c77c049541ec785c5", "is_disabled": 0, "rental_uris": {"ios": "https://dc.lft.to/lastmile_qr_scan", "android": "https://dc.lft.to/lastmile_qr_scan"}, "is_reserved": 0}, {"lon": -77.05301833333333, "bike_id": "93bffaea611a8671b2cf952f18c87008", "lat": 38.898847833333335, "fusion_lon": 0.0, "fusion_lat": 0.0, "type": "electric_scooter", "name": "93bffaea611a8671b2cf952f18c87008", "is_disabled": 0, "rental_uris": {"ios": "https://dc.lft.to/lastmile_qr_scan", "android": "https://dc.lft.to/lastmile_qr_scan"}, "is_reserved": 0}, {"lon": -77.36095283333333, "bike_id": "5b206b1f7273249d5ed4e05ccdfebc08", "lat": 38.939540666666666, "fusion_lon": 0.0, "fusion_lat": 0.0, "type": "electric_bike", "name": "5b206b1f7273249d5ed4e05ccdfebc08", "is_disabled": 0, "rental_uris": {"ios": "https://dc.lft.to/lastmile_qr_scan", "android": "https://dc.lft.to/lastmile_qr_scan"}, "is_reserved": 0}, {"lon": -77.022323, "bike_id": "9690ee35f060b919001b0d0ca6a3c7c0", "lat": 38.908564166666665, "fusion_lon": 0.0, "fusion_lat": 0.0, "type": "electric_scooter", "name": "9690ee35f060b919001b0d0ca6a3c7c0", "is_disabled": 0, "rental_uris": {"ios": "https://dc.lft.to/lastmile_qr_scan", "android": "https://dc.lft.to/lastmile_qr_scan"}, "is_reserved": 0}, {"lon": -77.031415, "bike_id": "529b3367a595dbf688e1ff1b1ba38b70", "lat": 38.915572833333336, "fusion_lon": 0.0, "fusion_lat": 0.0, "type": "electric_scooter", "name": "529b3367a595dbf688e1ff1b1ba38b70", "is_disabled": 0, "rental_uris": {"ios": "https://dc.lft.to/lastmile_qr_scan", "android": "https://dc.lft.to/lastmile_qr_scan"}, "is_reserved": 0}, {"lon": -77.03185683333334, "bike_id": "ac894fca1dc008c46a5e78ebcd857726", "lat": 38.913017333333336, "fusion_lon": 0.0, "fusion_lat": 0.0, "type": "electric_scooter", "name": "ac894fca1dc008c46a5e78ebcd857726", "is_disabled": 0, "rental_uris": {"ios": "https://dc.lft.to/lastmile_qr_scan", "android": "https://dc.lft.to/lastmile_qr_scan"}, "is_reserved": 0}, {"lon": -76.99470433333333, "bike_id": "93d41a2f9fd04bd14574c42b1ee81145", "lat": 38.8826785, "fusion_lon": 0.0, "fusion_lat": 0.0, "type": "electric_scooter", "name": "93d41a2f9fd04bd14574c42b1ee81145", "is_disabled": 0, "rental_uris": {"ios": "https://dc.lft.to/lastmile_qr_scan", "android": "https://dc.lft.to/lastmile_qr_scan"}, "is_reserved": 0}, {"lon": -77.026966, "bike_id": "eca1a60ef0d52c1e286d44be55cb51c4", "lat": 38.90663116666666, "fusion_lon": 0.0, "fusion_lat": 0.0, "type": "electric_scooter", "name": "eca1a60ef0d52c1e286d44be55cb51c4", "is_disabled": 0, "rental_uris": {"ios": "https://dc.lft.to/lastmile_qr_scan", "android": "https://dc.lft.to/lastmile_qr_scan"}, "is_reserved": 0}, {"lon": -77.04523933333333, "bike_id": "7f8a6885efe41297a806b388e7744cb2", "lat": 38.918183666666664, "fusion_lon": 0.0, "fusion_lat": 0.0, "type": "electric_scooter", "name": "7f8a6885efe41297a806b388e7744cb2", "is_disabled": 0, "rental_uris": {"ios": "https://dc.lft.to/lastmile_qr_scan", "android": "https://dc.lft.to/lastmile_qr_scan"}, "is_reserved": 0}, {"lon": -77.02010633333333, "bike_id": "275e3e3ae19d40910462e244c5358fec", "lat": 38.924166166666666, "fusion_lon": 0.0, "fusion_lat": 0.0, "type": "electric_scooter", "name": "275e3e3ae19d40910462e244c5358fec", "is_disabled": 0, "rental_uris": {"ios": "https://dc.lft.to/lastmile_qr_scan", "android": "https://dc.lft.to/lastmile_qr_scan"}, "is_reserved": 0}, {"lon": -77.03846016666667, "bike_id": "3a230276ee6bd56d12618f89331e7a1c", "lat": 38.911738, "fusion_lon": 0.0, "fusion_lat": 0.0, "type": "electric_scooter", "name": "3a230276ee6bd56d12618f89331e7a1c", "is_disabled": 0, "rental_uris": {"ios": "https://dc.lft.to/lastmile_qr_scan", "android": "https://dc.lft.to/lastmile_qr_scan"}, "is_reserved": 0}, {"lon": -76.94994533333333, "bike_id": "e8d3ff0dc122a3ea6108fe4a53c54c42", "lat": 38.89381766666666, "fusion_lon": 0.0, "fusion_lat": 0.0, "type": "electric_scooter", "name": "e8d3ff0dc122a3ea6108fe4a53c54c42", "is_disabled": 0, "rental_uris": {"ios": "https://dc.lft.to/lastmile_qr_scan", "android": "https://dc.lft.to/lastmile_qr_scan"}, "is_reserved": 0}, {"lon": -77.03264933333334, "bike_id": "e41f13f38a15b7d4c5437cdf7e6eace6", "lat": 38.937743166666664, "fusion_lon": 0.0, "fusion_lat": 0.0, "type": "electric_scooter", "name": "e41f13f38a15b7d4c5437cdf7e6eace6", "is_disabled": 0, "rental_uris": {"ios": "https://dc.lft.to/lastmile_qr_scan", "android": "https://dc.lft.to/lastmile_qr_scan"}, "is_reserved": 0}, {"lon": -77.03264683333333, "bike_id": "7509bd83f237d8918dbcfc25130eda9f", "lat": 38.92883633333334, "fusion_lon": 0.0, "fusion_lat": 0.0, "type": "electric_scooter", "name": "7509bd83f237d8918dbcfc25130eda9f", "is_disabled": 0, "rental_uris": {"ios": "https://dc.lft.to/lastmile_qr_scan", "android": "https://dc.lft.to/lastmile_qr_scan"}, "is_reserved": 0}, {"lon": -76.99604033333334, "bike_id": "eeb043a30da5d53a87c7eee2cc1a98e9", "lat": 38.950699666666665, "fusion_lon": 0.0, "fusion_lat": 0.0, "type": "electric_bike", "name": "eeb043a30da5d53a87c7eee2cc1a98e9", "is_disabled": 0, "rental_uris": {"ios": "https://dc.lft.to/lastmile_qr_scan", "android": "https://dc.lft.to/lastmile_qr_scan"}, "is_reserved": 0}, {"lon": -77.015689, "bike_id": "94d236c0d25eefad09c6678779b375ba", "lat": 38.883021666666664, "fusion_lon": 0.0, "fusion_lat": 0.0, "type": "electric_scooter", "name": "94d236c0d25eefad09c6678779b375ba", "is_disabled": 0, "rental_uris": {"ios": "https://dc.lft.to/lastmile_qr_scan", "android": "https://dc.lft.to/lastmile_qr_scan"}, "is_reserved": 0}, {"lon": -77.0325705, "bike_id": "dc64468e4e66335902217b4742368085", "lat": 38.93134366666666, "fusion_lon": 0.0, "fusion_lat": 0.0, "type": "electric_scooter", "name": "dc64468e4e66335902217b4742368085", "is_disabled": 0, "rental_uris": {"ios": "https://dc.lft.to/lastmile_qr_scan", "android": "https://dc.lft.to/lastmile_qr_scan"}, "is_reserved": 0}, {"lon": -76.975574, "bike_id": "eb03b8de2ba316c76b46bd9145abc878", "lat": 38.924544833333336, "fusion_lon": 0.0, "fusion_lat": 0.0, "type": "electric_bike", "name": "eb03b8de2ba316c76b46bd9145abc878", "is_disabled": 0, "rental_uris": {"ios": "https://dc.lft.to/lastmile_qr_scan", "android": "https://dc.lft.to/lastmile_qr_scan"}, "is_reserved": 0}, {"lon": -77.04318566666667, "bike_id": "d56da352ebbb068a0916192a5a935a3e", "lat": 38.8919635, "fusion_lon": 0.0, "fusion_lat": 0.0, "type": "electric_scooter", "name": "d56da352ebbb068a0916192a5a935a3e", "is_disabled": 0, "rental_uris": {"ios": "https://dc.lft.to/lastmile_qr_scan", "android": "https://dc.lft.to/lastmile_qr_scan"}, "is_reserved": 0}, {"lon": -77.0215025, "bike_id": "e96f660e30cca8e56a31d4cf029a0d6e", "lat": 38.915516, "fusion_lon": 0.0, "fusion_lat": 0.0, "type": "electric_scooter", "name": "e96f660e30cca8e56a31d4cf029a0d6e", "is_disabled": 0, "rental_uris": {"ios": "https://dc.lft.to/lastmile_qr_scan", "android": "https://dc.lft.to/lastmile_qr_scan"}, "is_reserved": 0}, {"lon": -77.02090533333333, "bike_id": "698ae6f217f9e827361ed579779e9eb3", "lat": 38.929106166666664, "fusion_lon": 0.0, "fusion_lat": 0.0, "type": "electric_scooter", "name": "698ae6f217f9e827361ed579779e9eb3", "is_disabled": 0, "rental_uris": {"ios": "https://dc.lft.to/lastmile_qr_scan", "android": "https://dc.lft.to/lastmile_qr_scan"}, "is_reserved": 0}, {"lon": -77.03854216666667, "bike_id": "016169bb26f6bacb529f47da807ef810", "lat": 38.932389666666666, "fusion_lon": 0.0, "fusion_lat": 0.0, "type": "electric_scooter", "name": "016169bb26f6bacb529f47da807ef810", "is_disabled": 0, "rental_uris": {"ios": "https://dc.lft.to/lastmile_qr_scan", "android": "https://dc.lft.to/lastmile_qr_scan"}, "is_reserved": 0}, {"lon": -76.9786235, "bike_id": "fee0f73f5558f7632c789faeeb26883d", "lat": 38.907201, "fusion_lon": 0.0, "fusion_lat": 0.0, "type": "electric_scooter", "name": "fee0f73f5558f7632c789faeeb26883d", "is_disabled": 0, "rental_uris": {"ios": "https://dc.lft.to/lastmile_qr_scan", "android": "https://dc.lft.to/lastmile_qr_scan"}, "is_reserved": 0}, {"lon": -76.98364866666667, "bike_id": "8920c25dbe9a3d0196a1aad160ba8bb0", "lat": 38.914927, "fusion_lon": 0.0, "fusion_lat": 0.0, "type": "electric_scooter", "name": "8920c25dbe9a3d0196a1aad160ba8bb0", "is_disabled": 0, "rental_uris": {"ios": "https://dc.lft.to/lastmile_qr_scan", "android": "https://dc.lft.to/lastmile_qr_scan"}, "is_reserved": 0}, {"lon": -76.99479216666667, "bike_id": "d035c94b57fcb32d1a4e3b983098834c", "lat": 38.862154, "fusion_lon": 0.0, "fusion_lat": 0.0, "type": "electric_scooter", "name": "d035c94b57fcb32d1a4e3b983098834c", "is_disabled": 0, "rental_uris": {"ios": "https://dc.lft.to/lastmile_qr_scan", "android": "https://dc.lft.to/lastmile_qr_scan"}, "is_reserved": 0}, {"lon": -76.98380483333334, "bike_id": "e8dbaf15c4d474cbd1c54da16ef3e0ba", "lat": 38.8913865, "fusion_lon": 0.0, "fusion_lat": 0.0, "type": "electric_scooter", "name": "e8dbaf15c4d474cbd1c54da16ef3e0ba", "is_disabled": 0, "rental_uris": {"ios": "https://dc.lft.to/lastmile_qr_scan", "android": "https://dc.lft.to/lastmile_qr_scan"}, "is_reserved": 0}, {"lon": -76.98844166666666, "bike_id": "c41a5a35dd4731525dfc5c2c7975e2d8", "lat": 38.90067066666667, "fusion_lon": 0.0, "fusion_lat": 0.0, "type": "electric_scooter", "name": "c41a5a35dd4731525dfc5c2c7975e2d8", "is_disabled": 0, "rental_uris": {"ios": "https://dc.lft.to/lastmile_qr_scan", "android": "https://dc.lft.to/lastmile_qr_scan"}, "is_reserved": 0}, {"lon": -77.03174333333334, "bike_id": "8749085fd5c87cd6cd68a7bf512a3a08", "lat": 38.88695383333334, "fusion_lon": 0.0, "fusion_lat": 0.0, "type": "electric_scooter", "name": "8749085fd5c87cd6cd68a7bf512a3a08", "is_disabled": 0, "rental_uris": {"ios": "https://dc.lft.to/lastmile_qr_scan", "android": "https://dc.lft.to/lastmile_qr_scan"}, "is_reserved": 0}, {"lon": -77.05610583333333, "bike_id": "ce8ca061bfdc94bfd6b172b2a770cf06", "lat": 38.9316, "fusion_lon": 0.0, "fusion_lat": 0.0, "type": "electric_scooter", "name": "ce8ca061bfdc94bfd6b172b2a770cf06", "is_disabled": 0, "rental_uris": {"ios": "https://dc.lft.to/lastmile_qr_scan", "android": "https://dc.lft.to/lastmile_qr_scan"}, "is_reserved": 0}, {"lon": -77.0300975, "bike_id": "7229743772f63054ecc08b7dff0db8b9", "lat": 38.91706716666667, "fusion_lon": 0.0, "fusion_lat": 0.0, "type": "electric_scooter", "name": "7229743772f63054ecc08b7dff0db8b9", "is_disabled": 0, "rental_uris": {"ios": "https://dc.lft.to/lastmile_qr_scan", "android": "https://dc.lft.to/lastmile_qr_scan"}, "is_reserved": 0}, {"lon": -77.00376666666666, "bike_id": "f36e260328395bdd19b629a482ae91fc", "lat": 38.8952375, "fusion_lon": 0.0, "fusion_lat": 0.0, "type": "electric_scooter", "name": "f36e260328395bdd19b629a482ae91fc", "is_disabled": 0, "rental_uris": {"ios": "https://dc.lft.to/lastmile_qr_scan", "android": "https://dc.lft.to/lastmile_qr_scan"}, "is_reserved": 0}, {"lon": -77.06138283333334, "bike_id": "ab559750b7f72d19ca6d4d7a3c39c934", "lat": 38.943603, "fusion_lon": 0.0, "fusion_lat": 0.0, "type": "electric_scooter", "name": "ab559750b7f72d19ca6d4d7a3c39c934", "is_disabled": 0, "rental_uris": {"ios": "https://dc.lft.to/lastmile_qr_scan", "android": "https://dc.lft.to/lastmile_qr_scan"}, "is_reserved": 0}, {"lon": -77.03347, "bike_id": "050054417c8400e39e407116a5bb3340", "lat": 38.91911116666667, "fusion_lon": 0.0, "fusion_lat": 0.0, "type": "electric_scooter", "name": "050054417c8400e39e407116a5bb3340", "is_disabled": 0, "rental_uris": {"ios": "https://dc.lft.to/lastmile_qr_scan", "android": "https://dc.lft.to/lastmile_qr_scan"}, "is_reserved": 0}, {"lon": -77.03186933333333, "bike_id": "c58b98278c1a9f93593273bba61dfa69", "lat": 38.936108, "fusion_lon": 0.0, "fusion_lat": 0.0, "type": "electric_scooter", "name": "c58b98278c1a9f93593273bba61dfa69", "is_disabled": 0, "rental_uris": {"ios": "https://dc.lft.to/lastmile_qr_scan", "android": "https://dc.lft.to/lastmile_qr_scan"}, "is_reserved": 0}, {"lon": -77.04242933333333, "bike_id": "1f8f5a874e9f91ab09dd2163d9093066", "lat": 38.91643933333334, "fusion_lon": 0.0, "fusion_lat": 0.0, "type": "electric_scooter", "name": "1f8f5a874e9f91ab09dd2163d9093066", "is_disabled": 0, "rental_uris": {"ios": "https://dc.lft.to/lastmile_qr_scan", "android": "https://dc.lft.to/lastmile_qr_scan"}, "is_reserved": 0}, {"lon": -77.03430766666666, "bike_id": "7a670ee29d1dbd04c12b847ab68da757", "lat": 38.9179655, "fusion_lon": 0.0, "fusion_lat": 0.0, "type": "electric_scooter", "name": "7a670ee29d1dbd04c12b847ab68da757", "is_disabled": 0, "rental_uris": {"ios": "https://dc.lft.to/lastmile_qr_scan", "android": "https://dc.lft.to/lastmile_qr_scan"}, "is_reserved": 0}, {"lon": -77.0215915, "bike_id": "670c9822d116ff60749ae77482b950bf", "lat": 38.926025833333334, "fusion_lon": 0.0, "fusion_lat": 0.0, "type": "electric_scooter", "name": "670c9822d116ff60749ae77482b950bf", "is_disabled": 0, "rental_uris": {"ios": "https://dc.lft.to/lastmile_qr_scan", "android": "https://dc.lft.to/lastmile_qr_scan"}, "is_reserved": 0}, {"lon": -77.04687966666667, "bike_id": "5bf19008389b674eafdb633278053951", "lat": 38.897386833333336, "fusion_lon": 0.0, "fusion_lat": 0.0, "type": "electric_scooter", "name": "5bf19008389b674eafdb633278053951", "is_disabled": 0, "rental_uris": {"ios": "https://dc.lft.to/lastmile_qr_scan", "android": "https://dc.lft.to/lastmile_qr_scan"}, "is_reserved": 0}, {"lon": -77.0461705, "bike_id": "3edde27949dff46f88decf4b61836387", "lat": 38.915694, "fusion_lon": 0.0, "fusion_lat": 0.0, "type": "electric_scooter", "name": "3edde27949dff46f88decf4b61836387", "is_disabled": 0, "rental_uris": {"ios": "https://dc.lft.to/lastmile_qr_scan", "android": "https://dc.lft.to/lastmile_qr_scan"}, "is_reserved": 0}, {"lon": -77.021205, "bike_id": "56f829a30760b54b2ee74f8dc1511fc3", "lat": 38.936966, "fusion_lon": 0.0, "fusion_lat": 0.0, "type": "electric_scooter", "name": "56f829a30760b54b2ee74f8dc1511fc3", "is_disabled": 0, "rental_uris": {"ios": "https://dc.lft.to/lastmile_qr_scan", "android": "https://dc.lft.to/lastmile_qr_scan"}, "is_reserved": 0}, {"lon": -77.04874716666667, "bike_id": "4aae429323ab2c4ac2fe9d09ac50e53c", "lat": 38.89846216666667, "fusion_lon": 0.0, "fusion_lat": 0.0, "type": "electric_scooter", "name": "4aae429323ab2c4ac2fe9d09ac50e53c", "is_disabled": 0, "rental_uris": {"ios": "https://dc.lft.to/lastmile_qr_scan", "android": "https://dc.lft.to/lastmile_qr_scan"}, "is_reserved": 0}, {"lon": -77.02174383333333, "bike_id": "309f10ed3d170f9ef26927ec65b1a9c5", "lat": 38.9108615, "fusion_lon": 0.0, "fusion_lat": 0.0, "type": "electric_scooter", "name": "309f10ed3d170f9ef26927ec65b1a9c5", "is_disabled": 0, "rental_uris": {"ios": "https://dc.lft.to/lastmile_qr_scan", "android": "https://dc.lft.to/lastmile_qr_scan"}, "is_reserved": 0}, {"lon": -77.02445283333333, "bike_id": "893f3f3390251bee921159e0598a3eef", "lat": 38.91415083333333, "fusion_lon": 0.0, "fusion_lat": 0.0, "type": "electric_scooter", "name": "893f3f3390251bee921159e0598a3eef", "is_disabled": 0, "rental_uris": {"ios": "https://dc.lft.to/lastmile_qr_scan", "android": "https://dc.lft.to/lastmile_qr_scan"}, "is_reserved": 0}, {"lon": -77.05998366666667, "bike_id": "7eaa9a974fbfd7f0800397326328b86e", "lat": 38.90225516666667, "fusion_lon": 0.0, "fusion_lat": 0.0, "type": "electric_scooter", "name": "7eaa9a974fbfd7f0800397326328b86e", "is_disabled": 0, "rental_uris": {"ios": "https://dc.lft.to/lastmile_qr_scan", "android": "https://dc.lft.to/lastmile_qr_scan"}, "is_reserved": 0}, {"lon": -77.039171, "bike_id": "09cfc8873b678b140ff5ccd24f1d9198", "lat": 38.923242, "fusion_lon": 0.0, "fusion_lat": 0.0, "type": "electric_scooter", "name": "09cfc8873b678b140ff5ccd24f1d9198", "is_disabled": 0, "rental_uris": {"ios": "https://dc.lft.to/lastmile_qr_scan", "android": "https://dc.lft.to/lastmile_qr_scan"}, "is_reserved": 0}, {"lon": -77.02400966666667, "bike_id": "16b40e52e1deb1fea4149b7ae6cda1f7", "lat": 38.919790166666665, "fusion_lon": 0.0, "fusion_lat": 0.0, "type": "electric_scooter", "name": "16b40e52e1deb1fea4149b7ae6cda1f7", "is_disabled": 0, "rental_uris": {"ios": "https://dc.lft.to/lastmile_qr_scan", "android": "https://dc.lft.to/lastmile_qr_scan"}, "is_reserved": 0}, {"lon": -77.01625983333334, "bike_id": "cc05999776f8402b6a29d891183ea11b", "lat": 38.903279166666664, "fusion_lon": 0.0, "fusion_lat": 0.0, "type": "electric_scooter", "name": "cc05999776f8402b6a29d891183ea11b", "is_disabled": 0, "rental_uris": {"ios": "https://dc.lft.to/lastmile_qr_scan", "android": "https://dc.lft.to/lastmile_qr_scan"}, "is_reserved": 0}, {"lon": -77.02971233333334, "bike_id": "e00d6ede6e8e8f9c23868887118cde47", "lat": 38.92385683333333, "fusion_lon": 0.0, "fusion_lat": 0.0, "type": "electric_scooter", "name": "e00d6ede6e8e8f9c23868887118cde47", "is_disabled": 0, "rental_uris": {"ios": "https://dc.lft.to/lastmile_qr_scan", "android": "https://dc.lft.to/lastmile_qr_scan"}, "is_reserved": 0}, {"lon": -76.98779666666667, "bike_id": "5b81f86796e57c9c7652ea0b6b1cbbcb", "lat": 38.866061, "fusion_lon": 0.0, "fusion_lat": 0.0, "type": "electric_bike", "name": "5b81f86796e57c9c7652ea0b6b1cbbcb", "is_disabled": 0, "rental_uris": {"ios": "https://dc.lft.to/lastmile_qr_scan", "android": "https://dc.lft.to/lastmile_qr_scan"}, "is_reserved": 0}, {"lon": -76.98935366666667, "bike_id": "6467e6bbdfdf916237d626cef9c321ae", "lat": 38.918353833333335, "fusion_lon": 0.0, "fusion_lat": 0.0, "type": "electric_scooter", "name": "6467e6bbdfdf916237d626cef9c321ae", "is_disabled": 0, "rental_uris": {"ios": "https://dc.lft.to/lastmile_qr_scan", "android": "https://dc.lft.to/lastmile_qr_scan"}, "is_reserved": 0}, {"lon": -77.04246, "bike_id": "2562ccd22eecbbf4e2e6958c880f37a8", "lat": 38.90957383333333, "fusion_lon": 0.0, "fusion_lat": 0.0, "type": "electric_scooter", "name": "2562ccd22eecbbf4e2e6958c880f37a8", "is_disabled": 0, "rental_uris": {"ios": "https://dc.lft.to/lastmile_qr_scan", "android": "https://dc.lft.to/lastmile_qr_scan"}, "is_reserved": 0}, {"lon": -77.04512266666667, "bike_id": "fc188a4b704819f2924ca926830fee63", "lat": 38.885996, "fusion_lon": 0.0, "fusion_lat": 0.0, "type": "electric_scooter", "name": "fc188a4b704819f2924ca926830fee63", "is_disabled": 0, "rental_uris": {"ios": "https://dc.lft.to/lastmile_qr_scan", "android": "https://dc.lft.to/lastmile_qr_scan"}, "is_reserved": 0}, {"lon": -77.04156516666667, "bike_id": "8fd658438f346449de193ced983230dc", "lat": 38.917972166666665, "fusion_lon": 0.0, "fusion_lat": 0.0, "type": "electric_scooter", "name": "8fd658438f346449de193ced983230dc", "is_disabled": 0, "rental_uris": {"ios": "https://dc.lft.to/lastmile_qr_scan", "android": "https://dc.lft.to/lastmile_qr_scan"}, "is_reserved": 0}, {"lon": -77.025708, "bike_id": "6d93f10ee59a842a31fd2ca4136e50e9", "lat": 38.9133835, "fusion_lon": 0.0, "fusion_lat": 0.0, "type": "electric_scooter", "name": "6d93f10ee59a842a31fd2ca4136e50e9", "is_disabled": 0, "rental_uris": {"ios": "https://dc.lft.to/lastmile_qr_scan", "android": "https://dc.lft.to/lastmile_qr_scan"}, "is_reserved": 0}, {"lon": -76.999674, "bike_id": "18f54792d7df3f6ce119fd1a0711dacc", "lat": 38.9084825, "fusion_lon": 0.0, "fusion_lat": 0.0, "type": "electric_scooter", "name": "18f54792d7df3f6ce119fd1a0711dacc", "is_disabled": 0, "rental_uris": {"ios": "https://dc.lft.to/lastmile_qr_scan", "android": "https://dc.lft.to/lastmile_qr_scan"}, "is_reserved": 0}, {"lon": -77.05021333333333, "bike_id": "e12804f5b2f762ac40fb86ce8a00138c", "lat": 38.905255333333336, "fusion_lon": 0.0, "fusion_lat": 0.0, "type": "electric_scooter", "name": "e12804f5b2f762ac40fb86ce8a00138c", "is_disabled": 0, "rental_uris": {"ios": "https://dc.lft.to/lastmile_qr_scan", "android": "https://dc.lft.to/lastmile_qr_scan"}, "is_reserved": 0}, {"lon": -77.02536033333334, "bike_id": "b37aef3068781f3dc98a944f87b79f88", "lat": 38.940966, "fusion_lon": 0.0, "fusion_lat": 0.0, "type": "electric_scooter", "name": "b37aef3068781f3dc98a944f87b79f88", "is_disabled": 0, "rental_uris": {"ios": "https://dc.lft.to/lastmile_qr_scan", "android": "https://dc.lft.to/lastmile_qr_scan"}, "is_reserved": 0}, {"lon": -76.98407, "bike_id": "ab6b684f622e3b10ab8330e3e2b70563", "lat": 38.906283333333334, "fusion_lon": 0.0, "fusion_lat": 0.0, "type": "electric_scooter", "name": "ab6b684f622e3b10ab8330e3e2b70563", "is_disabled": 0, "rental_uris": {"ios": "https://dc.lft.to/lastmile_qr_scan", "android": "https://dc.lft.to/lastmile_qr_scan"}, "is_reserved": 0}, {"lon": -77.02625883333333, "bike_id": "de0e33568adc636c6bdb43023466a5f0", "lat": 38.93352516666667, "fusion_lon": 0.0, "fusion_lat": 0.0, "type": "electric_scooter", "name": "de0e33568adc636c6bdb43023466a5f0", "is_disabled": 0, "rental_uris": {"ios": "https://dc.lft.to/lastmile_qr_scan", "android": "https://dc.lft.to/lastmile_qr_scan"}, "is_reserved": 0}, {"lon": -77.03774833333334, "bike_id": "15f700a5e4b9656eab301afacc0b388d", "lat": 38.92966083333334, "fusion_lon": 0.0, "fusion_lat": 0.0, "type": "electric_scooter", "name": "15f700a5e4b9656eab301afacc0b388d", "is_disabled": 0, "rental_uris": {"ios": "https://dc.lft.to/lastmile_qr_scan", "android": "https://dc.lft.to/lastmile_qr_scan"}, "is_reserved": 0}, {"lon": -77.00976966666667, "bike_id": "3c010ce669e3d2fda308409b19e04a15", "lat": 38.870688333333334, "fusion_lon": 0.0, "fusion_lat": 0.0, "type": "electric_scooter", "name": "3c010ce669e3d2fda308409b19e04a15", "is_disabled": 0, "rental_uris": {"ios": "https://dc.lft.to/lastmile_qr_scan", "android": "https://dc.lft.to/lastmile_qr_scan"}, "is_reserved": 0}, {"lon": -76.92150366666667, "bike_id": "d55446123e7101e4687fa38da19f8412", "lat": 38.891072, "fusion_lon": 0.0, "fusion_lat": 0.0, "type": "electric_scooter", "name": "d55446123e7101e4687fa38da19f8412", "is_disabled": 0, "rental_uris": {"ios": "https://dc.lft.to/lastmile_qr_scan", "android": "https://dc.lft.to/lastmile_qr_scan"}, "is_reserved": 0}, {"lon": -77.055713, "bike_id": "b1cac2e68c70649f961ee214ee9b92e3", "lat": 38.93054566666667, "fusion_lon": 0.0, "fusion_lat": 0.0, "type": "electric_scooter", "name": "b1cac2e68c70649f961ee214ee9b92e3", "is_disabled": 0, "rental_uris": {"ios": "https://dc.lft.to/lastmile_qr_scan", "android": "https://dc.lft.to/lastmile_qr_scan"}, "is_reserved": 0}, {"lon": -76.99507083333333, "bike_id": "dda509c6ae19f50689111e7cdeb51e69", "lat": 38.86244416666667, "fusion_lon": 0.0, "fusion_lat": 0.0, "type": "electric_scooter", "name": "dda509c6ae19f50689111e7cdeb51e69", "is_disabled": 0, "rental_uris": {"ios": "https://dc.lft.to/lastmile_qr_scan", "android": "https://dc.lft.to/lastmile_qr_scan"}, "is_reserved": 0}, {"lon": -77.0088275, "bike_id": "2a4f880fbe3333662b77a4c7f991a29c", "lat": 38.825321, "fusion_lon": 0.0, "fusion_lat": 0.0, "type": "electric_scooter", "name": "2a4f880fbe3333662b77a4c7f991a29c", "is_disabled": 0, "rental_uris": {"ios": "https://dc.lft.to/lastmile_qr_scan", "android": "https://dc.lft.to/lastmile_qr_scan"}, "is_reserved": 0}, {"lon": -76.9721165, "bike_id": "200c5fbb559a2fae4186e935eb2bd648", "lat": 38.892869833333336, "fusion_lon": 0.0, "fusion_lat": 0.0, "type": "electric_bike", "name": "200c5fbb559a2fae4186e935eb2bd648", "is_disabled": 0, "rental_uris": {"ios": "https://dc.lft.to/lastmile_qr_scan", "android": "https://dc.lft.to/lastmile_qr_scan"}, "is_reserved": 0}, {"lon": -77.04497283333333, "bike_id": "0a34ad78d7e5a2692740684c882cf6a4", "lat": 38.913300166666666, "fusion_lon": 0.0, "fusion_lat": 0.0, "type": "electric_scooter", "name": "0a34ad78d7e5a2692740684c882cf6a4", "is_disabled": 0, "rental_uris": {"ios": "https://dc.lft.to/lastmile_qr_scan", "android": "https://dc.lft.to/lastmile_qr_scan"}, "is_reserved": 0}, {"lon": -76.98839466666666, "bike_id": "70f289c8cd3bbd15ee241735280fe421", "lat": 38.89667083333333, "fusion_lon": 0.0, "fusion_lat": 0.0, "type": "electric_scooter", "name": "70f289c8cd3bbd15ee241735280fe421", "is_disabled": 0, "rental_uris": {"ios": "https://dc.lft.to/lastmile_qr_scan", "android": "https://dc.lft.to/lastmile_qr_scan"}, "is_reserved": 0}, {"lon": -77.0221065, "bike_id": "a1a1de0e79e29641fa88c97bbbbe4cb1", "lat": 38.893497833333335, "fusion_lon": 0.0, "fusion_lat": 0.0, "type": "electric_scooter", "name": "a1a1de0e79e29641fa88c97bbbbe4cb1", "is_disabled": 0, "rental_uris": {"ios": "https://dc.lft.to/lastmile_qr_scan", "android": "https://dc.lft.to/lastmile_qr_scan"}, "is_reserved": 0}, {"lon": -77.0776645, "bike_id": "ec0a3f4c19426153ac12585a60f7d2e9", "lat": 38.957756333333336, "fusion_lon": 0.0, "fusion_lat": 0.0, "type": "electric_scooter", "name": "ec0a3f4c19426153ac12585a60f7d2e9", "is_disabled": 0, "rental_uris": {"ios": "https://dc.lft.to/lastmile_qr_scan", "android": "https://dc.lft.to/lastmile_qr_scan"}, "is_reserved": 0}, {"lon": -77.04866833333334, "bike_id": "c41bcdb6d55a3b40238cf5f992f70f75", "lat": 38.909568166666666, "fusion_lon": 0.0, "fusion_lat": 0.0, "type": "electric_scooter", "name": "c41bcdb6d55a3b40238cf5f992f70f75", "is_disabled": 0, "rental_uris": {"ios": "https://dc.lft.to/lastmile_qr_scan", "android": "https://dc.lft.to/lastmile_qr_scan"}, "is_reserved": 0},