{"data": {"bikes": [{"name": "e5d6c09aa005b27a7660ce2d18a64c62", "fusion_lat": 0.0, "type": "electric_scooter", "lat": 38.91743966666667, "is_reserved": 0, "is_disabled": 0, "fusion_lon": 0.0, "bike_id": "e5d6c09aa005b27a7660ce2d18a64c62", "lon": -77.0364315, "rental_uris": {"ios": "https://dc.lft.to/lastmile_qr_scan", "android": "https://dc.lft.to/lastmile_qr_scan"}}, {"name": "0405404468e163cbdaa08e7ccc44840f", "fusion_lat": 0.0, "type": "electric_scooter", "lat": 38.90673266666667, "is_reserved": 0, "is_disabled": 0, "fusion_lon": 0.0, "bike_id": "0405404468e163cbdaa08e7ccc44840f", "lon": -77.02073733333333, "rental_uris": {"ios": "https://dc.lft.to/lastmile_qr_scan", "android": "https://dc.lft.to/lastmile_qr_scan"}}, {"name": "3a49b3973da87afcfc6e31fa5c437a09", "fusion_lat": 0.0, "type": "electric_scooter", "lat": 38.880667, "is_reserved": 0, "is_disabled": 0, "fusion_lon": 0.0, "bike_id": "3a49b3973da87afcfc6e31fa5c437a09", "lon": -76.935337, "rental_uris": {"ios": "https://dc.lft.to/lastmile_qr_scan", "android": "https://dc.lft.to/lastmile_qr_scan"}}, {"name": "8445c055638915f7686c4cd524b415e1", "fusion_lat": 0.0, "type": "electric_scooter", "lat": 38.91917983333333, "is_reserved": 0, "is_disabled": 0, "fusion_lon": 0.0, "bike_id": "8445c055638915f7686c4cd524b415e1", "lon": -77.0321055, "rental_uris": {"ios": "https://dc.lft.to/lastmile_qr_scan", "android": "https://dc.lft.to/lastmile_qr_scan"}}, {"name": "9f7bf62804a3e52969d3f7e1fe04e6ac", "fusion_lat": 0.0, "type": "electric_scooter", "lat": 38.919222, "is_reserved": 0, "is_disabled": 0, "fusion_lon": 0.0, "bike_id": "9f7bf62804a3e52969d3f7e1fe04e6ac", "lon": -77.03258916666667, "rental_uris": {"ios": "https://dc.lft.to/lastmile_qr_scan", "android": "https://dc.lft.to/lastmile_qr_scan"}}, {"name": "b426e18dc95e8c96055dcd6dd8b58575", "fusion_lat": 0.0, "type": "electric_scooter", "lat": 38.884987, "is_reserved": 0, "is_disabled": 0, "fusion_lon": 0.0, "bike_id": "b426e18dc95e8c96055dcd6dd8b58575", "lon": -77.02202816666667, "rental_uris": {"ios": "https://dc.lft.to/lastmile_qr_scan", "android": "https://dc.lft.to/lastmile_qr_scan"}}, {"name": "aae335603b44b2f4ad5865ce6d1bd675", "fusion_lat": 0.0, "type": "electric_scooter", "lat": 38.91216166666667, "is_reserved": 0, "is_disabled": 0, "fusion_lon": 0.0, "bike_id": "aae335603b44b2f4ad5865ce6d1bd675", "lon": -77.0759865, "rental_uris": {"ios": "https://dc.lft.to/lastmile_qr_scan", "android": "https://dc.lft.to/lastmile_qr_scan"}}, {"name": "c577dd1e9b7ae4c87b8afe181709186f", "fusion_lat": 0.0, "type": "electric_bike", "lat": 38.92732483333333, "is_reserved": 0, "is_disabled": 0, "fusion_lon": 0.0, "bike_id": "c577dd1e9b7ae4c87b8afe181709186f", "lon": -77.01348166666666, "rental_uris": {"ios": "https://dc.lft.to/lastmile_qr_scan", "android": "https://dc.lft.to/lastmile_qr_scan"}}, {"name": "5cb93eaaf6b75334c00daf17390d7f58", "fusion_lat": 0.0, "type": "electric_scooter", "lat": 38.91404983333334, "is_reserved": 0, "is_disabled": 0, "fusion_lon": 0.0, "bike_id": "5cb93eaaf6b75334c00daf17390d7f58", "lon": -77.03218, "rental_uris": {"ios": "https://dc.lft.to/lastmile_qr_scan", "android": "https://dc.lft.to/lastmile_qr_scan"}}, {"name": "3ade1b86657cd7593dda28f9508f83d5", "fusion_lat": 0.0, "type": "electric_scooter", "lat": 38.90033666666667, "is_reserved": 0, "is_disabled": 0, "fusion_lon": 0.0, "bike_id": "3ade1b86657cd7593dda28f9508f83d5", "lon": -77.00212366666666, "rental_uris": {"ios": "https://dc.lft.to/lastmile_qr_scan", "android": "https://dc.lft.to/lastmile_qr_scan"}}, {"name": "e343ca0f01eeda4e629d4b4d9cec27c2", "fusion_lat": 0.0, "type": "electric_scooter", "lat": 38.89585616666667, "is_reserved": 0, "is_disabled": 0, "fusion_lon": 0.0, "bike_id": "e343ca0f01eeda4e629d4b4d9cec27c2", "lon": -76.93718266666667, "rental_uris": {"ios": "https://dc.lft.to/lastmile_qr_scan", "android": "https://dc.lft.to/lastmile_qr_scan"}}, {"name": "a401c5e95278e3e23d722e4bfe65d478", "fusion_lat": 0.0, "type": "electric_scooter", "lat": 38.90904883333333, "is_reserved": 0, "is_disabled": 0, "fusion_lon": 0.0, "bike_id": "a401c5e95278e3e23d722e4bfe65d478", "lon": -77.027168, "rental_uris": {"ios": "https://dc.lft.to/lastmile_qr_scan", "android": "https://dc.lft.to/lastmile_qr_scan"}}, {"name": "7c5ff61877fbd5ec0cb59bc3b6fb5476", "fusion_lat": 0.0, "type": "electric_bike", "lat": 38.92006833333333, "is_reserved": 0, "is_disabled": 0, "fusion_lon": 0.0, "bike_id": "7c5ff61877fbd5ec0cb59bc3b6fb5476", "lon": -76.97491616666667, "rental_uris": {"ios": "https://dc.lft.to/lastmile_qr_scan", "android": "https://dc.lft.to/lastmile_qr_scan"}}, {"name": "b4f54860912ee23a796be30d3a94343b", "fusion_lat": 0.0, "type": "electric_scooter", "lat": 38.89640933333333, "is_reserved": 0, "is_disabled": 0, "fusion_lon": 0.0, "bike_id": "b4f54860912ee23a796be30d3a94343b", "lon": -77.0092135, "rental_uris": {"ios": "https://dc.lft.to/lastmile_qr_scan", "android": "https://dc.lft.to/lastmile_qr_scan"}}, {"name": "15485f3cf1f93b3cb326a72b96e36aeb", "fusion_lat": 0.0, "type": "electric_scooter", "lat": 38.93590833333333, "is_reserved": 0, "is_disabled": 0, "fusion_lon": 0.0, "bike_id": "15485f3cf1f93b3cb326a72b96e36aeb", "lon": -77.03520933333333, "rental_uris": {"ios": "https://dc.lft.to/lastmile_qr_scan", "android": "https://dc.lft.to/lastmile_qr_scan"}}, {"name": "1d0b02c29e5575a057844ec6fdf038d0", "fusion_lat": 0.0, "type": "electric_scooter", "lat": 38.92850383333333, "is_reserved": 0, "is_disabled": 0, "fusion_lon": 0.0, "bike_id": "1d0b02c29e5575a057844ec6fdf038d0", "lon": -77.033736, "rental_uris": {"ios": "https://dc.lft.to/lastmile_qr_scan", "android": "https://dc.lft.to/lastmile_qr_scan"}}, {"name": "96a904cbeaacde79b6a00b73776eb107", "fusion_lat": 0.0, "type": "electric_scooter", "lat": 38.91267233333333, "is_reserved": 0, "is_disabled": 0, "fusion_lon": 0.0, "bike_id": "96a904cbeaacde79b6a00b73776eb107", "lon": -77.06089933333334, "rental_uris": {"ios": "https://dc.lft.to/lastmile_qr_scan", "android": "https://dc.lft.to/lastmile_qr_scan"}}, {"name": "fd7751e7eed2b58cbf3dd11ce50429d3", "fusion_lat": 0.0, "type": "electric_scooter", "lat": 38.91422566666667, "is_reserved": 0, "is_disabled": 0, "fusion_lon": 0.0, "bike_id": "fd7751e7eed2b58cbf3dd11ce50429d3", "lon": -77.0088835, "rental_uris": {"ios": "https://dc.lft.to/lastmile_qr_scan", "android": "https://dc.lft.to/lastmile_qr_scan"}}, {"name": "bfd5f023e7fbeae559b0c17f2eaedc25", "fusion_lat": 0.0, "type": "electric_scooter", "lat": 38.89962716666667, "is_reserved": 0, "is_disabled": 0, "fusion_lon": 0.0, "bike_id": "bfd5f023e7fbeae559b0c17f2eaedc25", "lon": -77.01611266666667, "rental_uris": {"ios": "https://dc.lft.to/lastmile_qr_scan", "android": "https://dc.lft.to/lastmile_qr_scan"}}, {"name": "31c36adaeef3db76cf9940e5e11a8522", "fusion_lat": 0.0, "type": "electric_scooter", "lat": 38.9157115, "is_reserved": 0, "is_disabled": 0, "fusion_lon": 0.0, "bike_id": "31c36adaeef3db76cf9940e5e11a8522", "lon": -77.04691716666666, "rental_uris": {"ios": "https://dc.lft.to/lastmile_qr_scan", "android": "https://dc.lft.to/lastmile_qr_scan"}}, {"name": "0eebdff41739270d6bad5f9a81664705", "fusion_lat": 0.0, "type": "electric_scooter", "lat": 38.901939166666665, "is_reserved": 0, "is_disabled": 0, "fusion_lon": 0.0, "bike_id": "0eebdff41739270d6bad5f9a81664705", "lon": -77.05060833333333, "rental_uris": {"ios": "https://dc.lft.to/lastmile_qr_scan", "android": "https://dc.lft.to/lastmile_qr_scan"}}, {"name": "db411e889fbba6cf1a54195e4ed47003", "fusion_lat": 0.0, "type": "electric_scooter", "lat": 38.95640433333333, "is_reserved": 0, "is_disabled": 0, "fusion_lon": 0.0, "bike_id": "db411e889fbba6cf1a54195e4ed47003", "lon": -77.022773, "rental_uris": {"ios": "https://dc.lft.to/lastmile_qr_scan", "android": "https://dc.lft.to/lastmile_qr_scan"}}, {"name": "b4b60762fed3f78df6e2f7ca4f9a7e11", "fusion_lat": 0.0, "type": "electric_scooter", "lat": 38.923385333333336, "is_reserved": 0, "is_disabled": 0, "fusion_lon": 0.0, "bike_id": "b4b60762fed3f78df6e2f7ca4f9a7e11", "lon": -77.0352785, "rental_uris": {"ios": "https://dc.lft.to/lastmile_qr_scan", "android": "https://dc.lft.to/lastmile_qr_scan"}}, {"name": "fbfa210f360bd62c1e651faff7504572", "fusion_lat": 0.0, "type": "electric_bike", "lat": 38.92327133333333, "is_reserved": 0, "is_disabled": 0, "fusion_lon": 0.0, "bike_id": "fbfa210f360bd62c1e651faff7504572", "lon": -77.02290916666666, "rental_uris": {"ios": "https://dc.lft.to/lastmile_qr_scan", "android": "https://dc.lft.to/lastmile_qr_scan"}}, {"name": "8cb21353e83bb9b212a429fe5573f142", "fusion_lat": 0.0, "type": "electric_bike", "lat": 38.9462375, "is_reserved": 0, "is_disabled": 0, "fusion_lon": 0.0, "bike_id": "8cb21353e83bb9b212a429fe5573f142", "lon": -77.0805035, "rental_uris": {"ios": "https://dc.lft.to/lastmile_qr_scan", "android": "https://dc.lft.to/lastmile_qr_scan"}}, {"name": "3a1cb9aeb0b6d49ad844c299faae48c9", "fusion_lat": 0.0, "type": "electric_scooter", "lat": 38.90168533333333, "is_reserved": 0, "is_disabled": 0, "fusion_lon": 0.0, "bike_id": "3a1cb9aeb0b6d49ad844c299faae48c9", "lon": -77.01895783333333, "rental_uris": {"ios": "https://dc.lft.to/lastmile_qr_scan", "android": "https://dc.lft.to/lastmile_qr_scan"}}, {"name": "9865c34bbc98d4896c3c3ac9661f49d1", "fusion_lat": 0.0, "type": "electric_scooter", "lat": 38.903811166666664, "is_reserved": 0, "is_disabled": 0, "fusion_lon": 0.0, "bike_id": "9865c34bbc98d4896c3c3ac9661f49d1", "lon": -77.0482185, "rental_uris": {"ios": "https://dc.lft.to/lastmile_qr_scan", "android": "https://dc.lft.to/lastmile_qr_scan"}}, {"name": "64b39efcd00d77ab4ebc7985b1ea272f", "fusion_lat": 0.0, "type": "electric_scooter", "lat": 38.91761116666667, "is_reserved": 0, "is_disabled": 0, "fusion_lon": 0.0, "bike_id": "64b39efcd00d77ab4ebc7985b1ea272f", "lon": -77.02517066666667, "rental_uris": {"ios": "https://dc.lft.to/lastmile_qr_scan", "android": "https://dc.lft.to/lastmile_qr_scan"}}, {"name": "666286010888bcf83fd99955c31cf1e8", "fusion_lat": 0.0, "type": "electric_scooter", "lat": 38.912442166666665, "is_reserved": 0, "is_disabled": 0, "fusion_lon": 0.0, "bike_id": "666286010888bcf83fd99955c31cf1e8", "lon": -77.03843483333333, "rental_uris": {"ios": "https://dc.lft.to/lastmile_qr_scan", "android": "https://dc.lft.to/lastmile_qr_scan"}}, {"name": "0a73dfa7a08ce815ee7d536558f28507", "fusion_lat": 0.0, "type": "electric_bike", "lat": 38.844801333333336, "is_reserved": 0, "is_disabled": 0, "fusion_lon": 0.0, "bike_id": "0a73dfa7a08ce815ee7d536558f28507", "lon": -76.972199, "rental_uris": {"ios": "https://dc.lft.to/lastmile_qr_scan", "android": "https://dc.lft.to/lastmile_qr_scan"}}, {"name": "5e8770f09131bf344cba6d1b62d2ddb3", "fusion_lat": 0.0, "type": "electric_scooter", "lat": 38.93718966666667, "is_reserved": 0, "is_disabled": 0, "fusion_lon": 0.0, "bike_id": "5e8770f09131bf344cba6d1b62d2ddb3", "lon": -77.03638183333334, "rental_uris": {"ios": "https://dc.lft.to/lastmile_qr_scan", "android": "https://dc.lft.to/lastmile_qr_scan"}}, {"name": "fd9eb051e27de98e5c148d3b915878b1", "fusion_lat": 0.0, "type": "electric_scooter", "lat": 38.917185, "is_reserved": 0, "is_disabled": 0, "fusion_lon": 0.0, "bike_id": "fd9eb051e27de98e5c148d3b915878b1", "lon": -77.01864666666667, "rental_uris": {"ios": "https://dc.lft.to/lastmile_qr_scan", "android": "https://dc.lft.to/lastmile_qr_scan"}}, {"name": "e3c410f4d94220bef22188da300e3b83", "fusion_lat": 0.0, "type": "electric_scooter", "lat": 38.8973105, "is_reserved": 0, "is_disabled": 0, "fusion_lon": 0.0, "bike_id": "e3c410f4d94220bef22188da300e3b83", "lon": -77.046555, "rental_uris": {"ios": "https://dc.lft.to/lastmile_qr_scan", "android": "https://dc.lft.to/lastmile_qr_scan"}}, {"name": "b4581d280c166dde3c8a690c23015a39", "fusion_lat": 0.0, "type": "electric_scooter", "lat": 38.89231916666667, "is_reserved": 0, "is_disabled": 0, "fusion_lon": 0.0, "bike_id": "b4581d280c166dde3c8a690c23015a39", "lon": -77.0499875, "rental_uris": {"ios": "https://dc.lft.to/lastmile_qr_scan", "android": "https://dc.lft.to/lastmile_qr_scan"}}, {"name": "b2a79fe46e9671883528f1c04cd54147", "fusion_lat": 0.0, "type": "electric_bike", "lat": 38.810555666666666, "is_reserved": 0, "is_disabled": 0, "fusion_lon": 0.0, "bike_id": "b2a79fe46e9671883528f1c04cd54147", "lon": -77.08511833333333, "rental_uris": {"ios": "https://dc.lft.to/lastmile_qr_scan", "android": "https://dc.lft.to/lastmile_qr_scan"}}, {"name": "b38f62c72e24b4dbef5c45a3f02a53a0", "fusion_lat": 0.0, "type": "electric_bike", "lat": 38.85419666666667, "is_reserved": 0, "is_disabled": 0, "fusion_lon": 0.0, "bike_id": "b38f62c72e24b4dbef5c45a3f02a53a0", "lon": -76.90961283333333, "rental_uris": {"ios": "https://dc.lft.to/lastmile_qr_scan", "android": "https://dc.lft.to/lastmile_qr_scan"}}, {"name": "c476ab69d589b25dd255a0418ef9f285", "fusion_lat": 0.0, "type": "electric_scooter", "lat": 38.9375065, "is_reserved": 0, "is_disabled": 0, "fusion_lon": 0.0, "bike_id": "c476ab69d589b25dd255a0418ef9f285", "lon": -77.0249265, "rental_uris": {"ios": "https://dc.lft.to/lastmile_qr_scan", "android": "https://dc.lft.to/lastmile_qr_scan"}}, {"name": "8d9c5fad9c3a5cdf64e1cd12f3e0ece6", "fusion_lat": 0.0, "type": "electric_scooter", "lat": 38.935339166666665, "is_reserved": 0, "is_disabled": 0, "fusion_lon": 0.0, "bike_id": "8d9c5fad9c3a5cdf64e1cd12f3e0ece6", "lon": -77.0341735, "rental_uris": {"ios": "https://dc.lft.to/lastmile_qr_scan", "android": "https://dc.lft.to/lastmile_qr_scan"}}, {"name": "16847ba920cf3b164d15090712d6bb39", "fusion_lat": 0.0, "type": "electric_scooter", "lat": 38.876676, "is_reserved": 0, "is_disabled": 0, "fusion_lon": 0.0, "bike_id": "16847ba920cf3b164d15090712d6bb39", "lon": -77.0007265, "rental_uris": {"ios": "https://dc.lft.to/lastmile_qr_scan", "android": "https://dc.lft.to/lastmile_qr_scan"}}, {"name": "c4b6e2e9700a238547b3baf01ef7ebc9", "fusion_lat": 0.0, "type": "electric_scooter", "lat": 38.9175765, "is_reserved": 0, "is_disabled": 0, "fusion_lon": 0.0, "bike_id": "c4b6e2e9700a238547b3baf01ef7ebc9", "lon": -77.032006, "rental_uris": {"ios": "https://dc.lft.to/lastmile_qr_scan", "android": "https://dc.lft.to/lastmile_qr_scan"}}, {"name": "edb85c1b96f891f7298f23e00613a945", "fusion_lat": 0.0, "type": "electric_scooter", "lat": 38.90669833333333, "is_reserved": 0, "is_disabled": 0, "fusion_lon": 0.0, "bike_id": "edb85c1b96f891f7298f23e00613a945", "lon": -77.02709816666666, "rental_uris": {"ios": "https://dc.lft.to/lastmile_qr_scan", "android": "https://dc.lft.to/lastmile_qr_scan"}}, {"name": "ef5d9ab6d04bc66bb3a4901acf9a3912", "fusion_lat": 0.0, "type": "electric_scooter", "lat": 38.91252466666667, "is_reserved": 0, "is_disabled": 0, "fusion_lon": 0.0, "bike_id": "ef5d9ab6d04bc66bb3a4901acf9a3912", "lon": -77.0078025, "rental_uris": {"ios": "https://dc.lft.to/lastmile_qr_scan", "android": "https://dc.lft.to/lastmile_qr_scan"}}, {"name": "e5948ce990757306832f8d2363e25c0e", "fusion_lat": 0.0, "type": "electric_scooter", "lat": 38.895249, "is_reserved": 0, "is_disabled": 0, "fusion_lon": 0.0, "bike_id": "e5948ce990757306832f8d2363e25c0e", "lon": -76.94893216666667, "rental_uris": {"ios": "https://dc.lft.to/lastmile_qr_scan", "android": "https://dc.lft.to/lastmile_qr_scan"}}, {"name": "4b21d02b125753faee49f9256e00d416", "fusion_lat": 0.0, "type": "electric_scooter", "lat": 38.9007655, "is_reserved": 0, "is_disabled": 0, "fusion_lon": 0.0, "bike_id": "4b21d02b125753faee49f9256e00d416", "lon": -77.05192966666667, "rental_uris": {"ios": "https://dc.lft.to/lastmile_qr_scan", "android": "https://dc.lft.to/lastmile_qr_scan"}}, {"name": "ae459533424e9c27616d0ccf7bf2d47a", "fusion_lat": 0.0, "type": "electric_scooter", "lat": 38.93932733333333, "is_reserved": 0, "is_disabled": 0, "fusion_lon": 0.0, "bike_id": "ae459533424e9c27616d0ccf7bf2d47a", "lon": -77.0368135, "rental_uris": {"ios": "https://dc.lft.to/lastmile_qr_scan", "android": "https://dc.lft.to/lastmile_qr_scan"}}, {"name": "13c13acb28e27648d886be3c7abb6ec0", "fusion_lat": 0.0, "type": "electric_scooter", "lat": 38.9117445, "is_reserved": 0, "is_disabled": 0, "fusion_lon": 0.0, "bike_id": "13c13acb28e27648d886be3c7abb6ec0", "lon": -76.98774516666667, "rental_uris": {"ios": "https://dc.lft.to/lastmile_qr_scan", "android": "https://dc.lft.to/lastmile_qr_scan"}}, {"name": "d9e62bc18bc8186ba5a28597d91906b5", "fusion_lat": 0.0, "type": "electric_scooter", "lat": 38.89778166666667, "is_reserved": 0, "is_disabled": 0, "fusion_lon": 0.0, "bike_id": "d9e62bc18bc8186ba5a28597d91906b5", "lon": -77.051392, "rental_uris": {"ios": "https://dc.lft.to/lastmile_qr_scan", "android": "https://dc.lft.to/lastmile_qr_scan"}}, {"name": "885421fdc270e0da07a6233eb87d2140", "fusion_lat": 0.0, "type": "electric_scooter", "lat": 38.89220383333333, "is_reserved": 0, "is_disabled": 0, "fusion_lon": 0.0, "bike_id": "885421fdc270e0da07a6233eb87d2140", "lon": -77.02231983333333, "rental_uris": {"ios": "https://dc.lft.to/lastmile_qr_scan", "android": "https://dc.lft.to/lastmile_qr_scan"}}, {"name": "d9d5336867c9cf4c5dbd6dca1ef73388", "fusion_lat": 0.0, "type": "electric_scooter", "lat": 38.915507833333336, "is_reserved": 0, "is_disabled": 0, "fusion_lon": 0.0, "bike_id": "d9d5336867c9cf4c5dbd6dca1ef73388", "lon": -77.03238833333333, "rental_uris": {"ios": "https://dc.lft.to/lastmile_qr_scan", "android": "https://dc.lft.to/lastmile_qr_scan"}}, {"name": "303e57a1c63ea0fb39ecc90d8d487268", "fusion_lat": 0.0, "type": "electric_scooter", "lat": 38.9389265, "is_reserved": 0, "is_disabled": 0, "fusion_lon": 0.0, "bike_id": "303e57a1c63ea0fb39ecc90d8d487268", "lon": -77.01756366666666, "rental_uris": {"ios": "https://dc.lft.to/lastmile_qr_scan", "android": "https://dc.lft.to/lastmile_qr_scan"}}, {"name": "246906b8587c14f8c6562ba087870573", "fusion_lat": 0.0, "type": "electric_bike", "lat": 38.8882385, "is_reserved": 0, "is_disabled": 0, "fusion_lon": 0.0, "bike_id": "246906b8587c14f8c6562ba087870573", "lon": -77.1274325, "rental_uris": {"ios": "https://dc.lft.to/lastmile_qr_scan", "android": "https://dc.lft.to/lastmile_qr_scan"}}, {"name": "1447a7b4aa8066670a427d1e8500890c", "fusion_lat": 0.0, "type": "electric_scooter", "lat": 38.912819666666664, "is_reserved": 0, "is_disabled": 0, "fusion_lon": 0.0, "bike_id": "1447a7b4aa8066670a427d1e8500890c", "lon": -76.93800766666666, "rental_uris": {"ios": "https://dc.lft.to/lastmile_qr_scan", "android": "https://dc.lft.to/lastmile_qr_scan"}}, {"name": "ee4679ddf873d88b3cee122b9fac14a9", "fusion_lat": 0.0, "type": "electric_scooter", "lat": 38.899733166666664, "is_reserved": 0, "is_disabled": 0, "fusion_lon": 0.0, "bike_id": "ee4679ddf873d88b3cee122b9fac14a9", "lon": -77.039174, "rental_uris": {"ios": "https://dc.lft.to/lastmile_qr_scan", "android": "https://dc.lft.to/lastmile_qr_scan"}}, {"name": "4472cb7631c7145f95e00dca0bb1e651", "fusion_lat": 0.0, "type": "electric_scooter", "lat": 38.92667616666667, "is_reserved": 0, "is_disabled": 0, "fusion_lon": 0.0, "bike_id": "4472cb7631c7145f95e00dca0bb1e651", "lon": -76.99540966666666, "rental_uris": {"ios": "https://dc.lft.to/lastmile_qr_scan", "android": "https://dc.lft.to/lastmile_qr_scan"}}, {"name": "639eec4f060b2ce6881842611d76db07", "fusion_lat": 0.0, "type": "electric_scooter", "lat": 38.930254166666664, "is_reserved": 0, "is_disabled": 0, "fusion_lon": 0.0, "bike_id": "639eec4f060b2ce6881842611d76db07", "lon": -77.08372066666666, "rental_uris": {"ios": "https://dc.lft.to/lastmile_qr_scan", "android": "https://dc.lft.to/lastmile_qr_scan"}}, {"name": "1c2bd5764101c4d89025d0d04ef0d88b", "fusion_lat": 0.0, "type": "electric_scooter", "lat": 38.9083465, "is_reserved": 0, "is_disabled": 0, "fusion_lon": 0.0, "bike_id": "1c2bd5764101c4d89025d0d04ef0d88b", "lon": -77.0435365, "rental_uris": {"ios": "https://dc.lft.to/lastmile_qr_scan", "android": "https://dc.lft.to/lastmile_qr_scan"}}, {"name": "6d1dfe92fce4ff53af72029dff71c38c", "fusion_lat": 0.0, "type": "electric_scooter", "lat": 38.90567266666667, "is_reserved": 0, "is_disabled": 0, "fusion_lon": 0.0, "bike_id": "6d1dfe92fce4ff53af72029dff71c38c", "lon": -77.02218666666667, "rental_uris": {"ios": "https://dc.lft.to/lastmile_qr_scan", "android": "https://dc.lft.to/lastmile_qr_scan"}}, {"name": "1286a7d6d20f1080badbc68b6d22b147", "fusion_lat": 0.0, "type": "electric_scooter", "lat": 38.925962, "is_reserved": 0, "is_disabled": 0, "fusion_lon": 0.0, "bike_id": "1286a7d6d20f1080badbc68b6d22b147", "lon": -77.00855683333333, "rental_uris": {"ios": "https://dc.lft.to/lastmile_qr_scan", "android": "https://dc.lft.to/lastmile_qr_scan"}}, {"name": "17aac7702636f4d93b87a1ad65f40d0c", "fusion_lat": 0.0, "type": "electric_scooter", "lat": 38.91817966666667, "is_reserved": 0, "is_disabled": 0, "fusion_lon": 0.0, "bike_id": "17aac7702636f4d93b87a1ad65f40d0c", "lon": -77.03213466666666, "rental_uris": {"ios": "https://dc.lft.to/lastmile_qr_scan", "android": "https://dc.lft.to/lastmile_qr_scan"}}, {"name": "44e9dbe4719fa1c9f1bd6b85b959a696", "fusion_lat": 0.0, "type": "electric_scooter", "lat": 38.902365333333336, "is_reserved": 0, "is_disabled": 0, "fusion_lon": 0.0, "bike_id": "44e9dbe4719fa1c9f1bd6b85b959a696", "lon": -77.05138566666666, "rental_uris": {"ios": "https://dc.lft.to/lastmile_qr_scan", "android": "https://dc.lft.to/lastmile_qr_scan"}}, {"name": "9c039b019672b1e20231c7fea691e359", "fusion_lat": 0.0, "type": "electric_scooter", "lat": 38.92483583333333, "is_reserved": 0, "is_disabled": 0, "fusion_lon": 0.0, "bike_id": "9c039b019672b1e20231c7fea691e359", "lon": -77.03010566666667, "rental_uris": {"ios": "https://dc.lft.to/lastmile_qr_scan", "android": "https://dc.lft.to/lastmile_qr_scan"}}, {"name": "7b7af196a0ed5684c98b67c2b593ee74", "fusion_lat": 0.0, "type": "electric_scooter", "lat": 38.89854366666667, "is_reserved": 0, "is_disabled": 0, "fusion_lon": 0.0, "bike_id": "7b7af196a0ed5684c98b67c2b593ee74", "lon": -76.97663016666667, "rental_uris": {"ios": "https://dc.lft.to/lastmile_qr_scan", "android": "https://dc.lft.to/lastmile_qr_scan"}}, {"name": "057aa22df8c92bf8d26d014f18329afe", "fusion_lat": 0.0, "type": "electric_scooter", "lat": 38.919235, "is_reserved": 0, "is_disabled": 0, "fusion_lon": 0.0, "bike_id": "057aa22df8c92bf8d26d014f18329afe", "lon": -77.03422266666666, "rental_uris": {"ios": "https://dc.lft.to/lastmile_qr_scan", "android": "https://dc.lft.to/lastmile_qr_scan"}}, {"name": "52252a653c6aa860bbf0d1b6e597874a", "fusion_lat": 0.0, "type": "electric_scooter", "lat": 38.8850865, "is_reserved": 0, "is_disabled": 0, "fusion_lon": 0.0, "bike_id": "52252a653c6aa860bbf0d1b6e597874a", "lon": -77.01574683333334, "rental_uris": {"ios": "https://dc.lft.to/lastmile_qr_scan", "android": "https://dc.lft.to/lastmile_qr_scan"}}, {"name": "22879fc67b9dc616204796dec6cdfc6a", "fusion_lat": 0.0, "type": "electric_bike", "lat": 38.88152383333333, "is_reserved": 0, "is_disabled": 0, "fusion_lon": 0.0, "bike_id": "22879fc67b9dc616204796dec6cdfc6a", "lon": -77.0275345, "rental_uris": {"ios": "https://dc.lft.to/lastmile_qr_scan", "android": "https://dc.lft.to/lastmile_qr_scan"}}, {"name": "750f7015fc81fe3954a7953422bfee57", "fusion_lat": 0.0, "type": "electric_scooter", "lat": 38.90589466666667, "is_reserved": 0, "is_disabled": 0, "fusion_lon": 0.0, "bike_id": "750f7015fc81fe3954a7953422bfee57", "lon": -77.0161465, "rental_uris": {"ios": "https://dc.lft.to/lastmile_qr_scan", "android": "https://dc.lft.to/lastmile_qr_scan"}}, {"name": "49594e5955da3dd277a98523fc46b357", "fusion_lat": 0.0, "type": "electric_scooter", "lat": 38.902637, "is_reserved": 0, "is_disabled": 0, "fusion_lon": 0.0, "bike_id": "49594e5955da3dd277a98523fc46b357", "lon": -77.03964466666666, "rental_uris": {"ios": "https://dc.lft.to/lastmile_qr_scan", "android": "https://dc.lft.to/lastmile_qr_scan"}}, {"name": "a54b9ee0ec9e7aaeb4f9e3f9a09d9495", "fusion_lat": 0.0, "type": "electric_scooter", "lat": 38.928794, "is_reserved": 0, "is_disabled": 0, "fusion_lon": 0.0, "bike_id": "a54b9ee0ec9e7aaeb4f9e3f9a09d9495", "lon": -77.03265983333333, "rental_uris": {"ios": "https://dc.lft.to/lastmile_qr_scan", "android": "https://dc.lft.to/lastmile_qr_scan"}}, {"name": "514b7ed0bd872f90518808d701ce8c48", "fusion_lat": 0.0, "type": "electric_scooter", "lat": 38.93267633333333, "is_reserved": 0, "is_disabled": 0, "fusion_lon": 0.0, "bike_id": "514b7ed0bd872f90518808d701ce8c48", "lon": -77.03905016666667, "rental_uris": {"ios": "https://dc.lft.to/lastmile_qr_scan", "android": "https://dc.lft.to/lastmile_qr_scan"}}, {"name": "98ada55889d916b14e170fc1f6cb95bc", "fusion_lat": 0.0, "type": "electric_scooter", "lat": 38.846802833333335, "is_reserved": 0, "is_disabled": 0, "fusion_lon": 0.0, "bike_id": "98ada55889d916b14e170fc1f6cb95bc", "lon": -76.992045, "rental_uris": {"ios": "https://dc.lft.to/lastmile_qr_scan", "android": "https://dc.lft.to/lastmile_qr_scan"}}, {"name": "f0965c7c5dea601b34d428dea9caed1b", "fusion_lat": 0.0, "type": "electric_scooter", "lat": 38.858048833333335, "is_reserved": 0, "is_disabled": 0, "fusion_lon": 0.0, "bike_id": "f0965c7c5dea601b34d428dea9caed1b", "lon": -76.98656, "rental_uris": {"ios": "https://dc.lft.to/lastmile_qr_scan", "android": "https://dc.lft.to/lastmile_qr_scan"}}, {"name": "64a72ab3bf50be42857854c6fe59b1f7", "fusion_lat": 0.0, "type": "electric_scooter", "lat": 38.851607, "is_reserved": 0, "is_disabled": 0, "fusion_lon": 0.0, "bike_id": "64a72ab3bf50be42857854c6fe59b1f7", "lon": -76.98804966666667, "rental_uris": {"ios": "https://dc.lft.to/lastmile_qr_scan", "android": "https://dc.lft.to/lastmile_qr_scan"}}, {"name": "7dfda646e5e07cf1816dc1f95ebbd5c9", "fusion_lat": 0.0, "type": "electric_scooter", "lat": 38.93820266666667, "is_reserved": 0, "is_disabled": 0, "fusion_lon": 0.0, "bike_id": "7dfda646e5e07cf1816dc1f95ebbd5c9", "lon": -77.02478016666667, "rental_uris": {"ios": "https://dc.lft.to/lastmile_qr_scan", "android": "https://dc.lft.to/lastmile_qr_scan"}}, {"name": "402d3bd908a370e0901ec97ac4366b39", "fusion_lat": 0.0, "type": "electric_bike", "lat": 38.99061366666667, "is_reserved": 0, "is_disabled": 0, "fusion_lon": 0.0, "bike_id": "402d3bd908a370e0901ec97ac4366b39", "lon": -77.10028783333334, "rental_uris": {"ios": "https://dc.lft.to/lastmile_qr_scan", "android": "https://dc.lft.to/lastmile_qr_scan"}}, {"name": "0311b23baa4a6bee9d67076417ced990", "fusion_lat": 0.0, "type": "electric_scooter", "lat": 38.857147, "is_reserved": 0, "is_disabled": 0, "fusion_lon": 0.0, "bike_id": "0311b23baa4a6bee9d67076417ced990", "lon": -76.9808355, "rental_uris": {"ios": "https://dc.lft.to/lastmile_qr_scan", "android": "https://dc.lft.to/lastmile_qr_scan"}}, {"name": "d0d62d78010dab53cc9fb2c1029a1bef", "fusion_lat": 0.0, "type": "electric_scooter", "lat": 38.93665933333333, "is_reserved": 0, "is_disabled": 0, "fusion_lon": 0.0, "bike_id": "d0d62d78010dab53cc9fb2c1029a1bef", "lon": -77.03637383333333, "rental_uris": {"ios": "https://dc.lft.to/lastmile_qr_scan", "android": "https://dc.lft.to/lastmile_qr_scan"}}, {"name": "02906a18eaffa80a4fe7a045d585a4da", "fusion_lat": 0.0, "type": "electric_scooter", "lat": 38.9002815, "is_reserved": 0, "is_disabled": 0, "fusion_lon": 0.0, "bike_id": "02906a18eaffa80a4fe7a045d585a4da", "lon": -77.02394666666666, "rental_uris": {"ios": "https://dc.lft.to/lastmile_qr_scan", "android": "https://dc.lft.to/lastmile_qr_scan"}}, {"name": "26c0e880df2509af8608b5aa3f03a92f", "fusion_lat": 0.0, "type": "electric_scooter", "lat": 38.88340133333333, "is_reserved": 0, "is_disabled": 0, "fusion_lon": 0.0, "bike_id": "26c0e880df2509af8608b5aa3f03a92f", "lon": -77.01661266666666, "rental_uris": {"ios": "https://dc.lft.to/lastmile_qr_scan", "android": "https://dc.lft.to/lastmile_qr_scan"}}, {"name": "2e2c73c7a21e909abb4dd5374189b8a9", "fusion_lat": 0.0, "type": "electric_scooter", "lat": 38.91802833333333, "is_reserved": 0, "is_disabled": 0, "fusion_lon": 0.0, "bike_id": "2e2c73c7a21e909abb4dd5374189b8a9", "lon": -77.02506216666667, "rental_uris": {"ios": "https://dc.lft.to/lastmile_qr_scan", "android": "https://dc.lft.to/lastmile_qr_scan"}}, {"name": "6a497043caca097d9c790d234caaffcf", "fusion_lat": 0.0, "type": "electric_bike", "lat": 39.02416433333333, "is_reserved": 0, "is_disabled": 0, "fusion_lon": 0.0, "bike_id": "6a497043caca097d9c790d234caaffcf", "lon": -77.12502383333333, "rental_uris": {"ios": "https://dc.lft.to/lastmile_qr_scan", "android": "https://dc.lft.to/lastmile_qr_scan"}}, {"name": "0660df495046c5e1221f4bbfaed9f58e", "fusion_lat": 0.0, "type": "electric_scooter", "lat": 38.89223716666667, "is_reserved": 0, "is_disabled": 0, "fusion_lon": 0.0, "bike_id": "0660df495046c5e1221f4bbfaed9f58e", "lon": -77.03977533333334, "rental_uris": {"ios": "https://dc.lft.to/lastmile_qr_scan", "android": "https://dc.lft.to/lastmile_qr_scan"}}, {"name": "ee8567b5127966d4fb6e3c7078fe614f", "fusion_lat": 0.0, "type": "electric_scooter", "lat": 38.88103983333333, "is_reserved": 0, "is_disabled": 0, "fusion_lon": 0.0, "bike_id": "ee8567b5127966d4fb6e3c7078fe614f", "lon": -77.016753, "rental_uris": {"ios": "https://dc.lft.to/lastmile_qr_scan", "android": "https://dc.lft.to/lastmile_qr_scan"}}, {"name": "10ef124e7e84968f9e0c8bd9550a1e97", "fusion_lat": 0.0, "type": "electric_scooter", "lat": 38.89598516666667, "is_reserved": 0, "is_disabled": 0, "fusion_lon": 0.0, "bike_id": "10ef124e7e84968f9e0c8bd9550a1e97", "lon": -77.04132783333333, "rental_uris": {"ios": "https://dc.lft.to/lastmile_qr_scan", "android": "https://dc.lft.to/lastmile_qr_scan"}}, {"name": "f9eba719e29fe66305bcdca6a789b59c", "fusion_lat": 0.0, "type": "electric_scooter", "lat": 38.89605433333333, "is_reserved": 0, "is_disabled": 0, "fusion_lon": 0.0, "bike_id": "f9eba719e29fe66305bcdca6a789b59c", "lon": -77.0477045, "rental_uris": {"ios": "https://dc.lft.to/lastmile_qr_scan", "android": "https://dc.lft.to/lastmile_qr_scan"}}, {"name": "0f0fc44213784612edc73f98a36ac7b9", "fusion_lat": 0.0, "type": "electric_scooter", "lat": 38.90276466666667, "is_reserved": 0, "is_disabled": 0, "fusion_lon": 0.0, "bike_id": "0f0fc44213784612edc73f98a36ac7b9", "lon": -77.01766116666667, "rental_uris": {"ios": "https://dc.lft.to/lastmile_qr_scan", "android": "https://dc.lft.to/lastmile_qr_scan"}}, {"name": "8c8613f2fea6d90e8a834d1e27b62220", "fusion_lat": 0.0, "type": "electric_scooter", "lat": 38.89568166666667, "is_reserved": 0, "is_disabled": 0, "fusion_lon": 0.0, "bike_id": "8c8613f2fea6d90e8a834d1e27b62220", "lon": -77.0135965, "rental_uris": {"ios": "https://dc.lft.to/lastmile_qr_scan", "android": "https://dc.lft.to/lastmile_qr_scan"}}, {"name": "7edc51b808bdaa39082a2560d6aebb06", "fusion_lat": 0.0, "type": "electric_scooter", "lat": 38.908547166666665, "is_reserved": 0, "is_disabled": 0, "fusion_lon": 0.0, "bike_id": "7edc51b808bdaa39082a2560d6aebb06", "lon": -77.04514166666667, "rental_uris": {"ios": "https://dc.lft.to/lastmile_qr_scan", "android": "https://dc.lft.to/lastmile_qr_scan"}}, {"name": "88424fc7154242c7e164bb73819d35b6", "fusion_lat": 0.0, "type": "electric_scooter", "lat": 38.9156245, "is_reserved": 0, "is_disabled": 0, "fusion_lon": 0.0, "bike_id": "88424fc7154242c7e164bb73819d35b6", "lon": -77.03901383333333, "rental_uris": {"ios": "https://dc.lft.to/lastmile_qr_scan", "android": "https://dc.lft.to/lastmile_qr_scan"}}, {"name": "bdca9f2a834fe8600034e12ac8212916", "fusion_lat": 0.0, "type": "electric_scooter", "lat": 38.90349583333333, "is_reserved": 0, "is_disabled": 0, "fusion_lon": 0.0, "bike_id": "bdca9f2a834fe8600034e12ac8212916", "lon": -77.05344383333333, "rental_uris": {"ios": "https://dc.lft.to/lastmile_qr_scan", "android": "https://dc.lft.to/lastmile_qr_scan"}}, {"name": "014b8e4e9f3aface9d399ff354672dfe", "fusion_lat": 0.0, "type": "electric_scooter", "lat": 38.91600783333333, "is_reserved": 0, "is_disabled": 0, "fusion_lon": 0.0, "bike_id": "014b8e4e9f3aface9d399ff354672dfe", "lon": -77.031938, "rental_uris": {"ios": "https://dc.lft.to/lastmile_qr_scan", "android": "https://dc.lft.to/lastmile_qr_scan"}}, {"name": "0b867eb3379a896535660a1136c7ed00", "fusion_lat": 0.0, "type": "electric_scooter", "lat": 38.90421766666667, "is_reserved": 0, "is_disabled": 0, "fusion_lon": 0.0, "bike_id": "0b867eb3379a896535660a1136c7ed00", "lon": -77.03430783333333, "rental_uris": {"ios": "https://dc.lft.to/lastmile_qr_scan", "android": "https://dc.lft.to/lastmile_qr_scan"}}, {"name": "bdc58681a1dcd5c4886cb99983b770a4", "fusion_lat": 0.0, "type": "electric_bike", "lat": 39.038607666666664, "is_reserved": 0, "is_disabled": 0, "fusion_lon": 0.0, "bike_id": "bdc58681a1dcd5c4886cb99983b770a4", "lon": -76.99030466666666, "rental_uris": {"ios": "https://dc.lft.to/lastmile_qr_scan", "android": "https://dc.lft.to/lastmile_qr_scan"}}, {"name": "81ba1fca7661501d4d16753ed73e3e73", "fusion_lat": 0.0, "type": "electric_scooter", "lat": 38.9095265, "is_reserved": 0, "is_disabled": 0, "fusion_lon": 0.0, "bike_id": "81ba1fca7661501d4d16753ed73e3e73", "lon": -77.027566, "rental_uris": {"ios": "https://dc.lft.to/lastmile_qr_scan", "android": "https://dc.lft.to/lastmile_qr_scan"}}, {"name": "666ea30b23a32921fccbe887482514f2", "fusion_lat": 0.0, "type": "electric_scooter", "lat": 38.909328, "is_reserved": 0, "is_disabled": 0, "fusion_lon": 0.0, "bike_id": "666ea30b23a32921fccbe887482514f2", "lon": -77.0385745, "rental_uris": {"ios": "https://dc.lft.to/lastmile_qr_scan", "android": "https://dc.lft.to/lastmile_qr_scan"}}, {"name": "42505d846900851a0ecdd8edf1d2ff00", "fusion_lat": 0.0, "type": "electric_scooter", "lat": 38.902001, "is_reserved": 0, "is_disabled": 0, "fusion_lon": 0.0, "bike_id": "42505d846900851a0ecdd8edf1d2ff00", "lon": -77.0218345, "rental_uris": {"ios": "https://dc.lft.to/lastmile_qr_scan", "android": "https://dc.lft.to/lastmile_qr_scan"}}, {"name": "155867b384e230c9113358dff321d877", "fusion_lat": 0.0, "type": "electric_bike", "lat": 39.033447833333334, "is_reserved": 0, "is_disabled": 0, "fusion_lon": 0.0, "bike_id": "155867b384e230c9113358dff321d877", "lon": -77.0491355, "rental_uris": {"ios": "https://dc.lft.to/lastmile_qr_scan", "android": "https://dc.lft.to/lastmile_qr_scan"}}, {"name": "e2efb767cec3422350afdcf96ddaabaf", "fusion_lat": 0.0, "type": "electric_scooter", "lat": 38.901627833333336, "is_reserved": 0, "is_disabled": 0, "fusion_lon": 0.0, "bike_id": "e2efb767cec3422350afdcf96ddaabaf", "lon": -77.05393366666667, "rental_uris": {"ios": "https://dc.lft.to/lastmile_qr_scan", "android": "https://dc.lft.to/lastmile_qr_scan"}}, {"name": "1ac624e31ccbbc8a4d290500fcd82173", "fusion_lat": 0.0, "type": "electric_scooter", "lat": 38.935369, "is_reserved": 0, "is_disabled": 0, "fusion_lon": 0.0, "bike_id": "1ac624e31ccbbc8a4d290500fcd82173", "lon": -77.05824833333334, "rental_uris": {"ios": "https://dc.lft.to/lastmile_qr_scan", "android": "https://dc.lft.to/lastmile_qr_scan"}}, {"name": "1e6502837dfe307be927a54d04a36587", "fusion_lat": 0.0, "type": "electric_scooter", "lat": 38.9180845, "is_reserved": 0, "is_disabled": 0, "fusion_lon": 0.0, "bike_id": "1e6502837dfe307be927a54d04a36587", "lon": -77.010137, "rental_uris": {"ios": "https://dc.lft.to/lastmile_qr_scan", "android": "https://dc.lft.to/lastmile_qr_scan"}}, {"name": "7b65a1166b14cffb4f36117e0967812f", "fusion_lat": 0.0, "type": "electric_scooter", "lat": 38.9053985, "is_reserved": 0, "is_disabled": 0, "fusion_lon": 0.0, "bike_id": "7b65a1166b14cffb4f36117e0967812f", "lon": -77.062717, "rental_uris": {"ios": "https://dc.lft.to/lastmile_qr_scan", "android": "https://dc.lft.to/lastmile_qr_scan"}}, {"name": "4c77ca623f29174eb324523668c7c8a2", "fusion_lat": 0.0, "type": "electric_scooter", "lat": 38.9236985, "is_reserved": 0, "is_disabled": 0, "fusion_lon": 0.0, "bike_id": "4c77ca623f29174eb324523668c7c8a2", "lon": -77.03136333333333, "rental_uris": {"ios": "https://dc.lft.to/lastmile_qr_scan", "android": "https://dc.lft.to/lastmile_qr_scan"}}, {"name": "5c643ee66ac079a2f0fc3cdf65997d9d", "fusion_lat": 0.0, "type": "electric_scooter", "lat": 38.90869266666667, "is_reserved": 0, "is_disabled": 0, "fusion_lon": 0.0, "bike_id": "5c643ee66ac079a2f0fc3cdf65997d9d", "lon": -77.02388483333333, "rental_uris": {"ios": "https://dc.lft.to/lastmile_qr_scan", "android": "https://dc.lft.to/lastmile_qr_scan"}}, {"name": "9c9513fa69224761179922ae86d9eb1e", "fusion_lat": 0.0, "type": "electric_scooter", "lat": 38.90382366666667, "is_reserved": 0, "is_disabled": 0, "fusion_lon": 0.0, "bike_id": "9c9513fa69224761179922ae86d9eb1e", "lon": -77.04817433333334, "rental_uris": {"ios": "https://dc.lft.to/lastmile_qr_scan", "android": "https://dc.lft.to/lastmile_qr_scan"}}, {"name": "e7ed70d9c708ff223475d72fd4db3da5", "fusion_lat": 0.0, "type": "electric_scooter", "lat": 38.8732515, "is_reserved": 0, "is_disabled": 0, "fusion_lon": 0.0, "bike_id": "e7ed70d9c708ff223475d72fd4db3da5", "lon": -77.00111616666666, "rental_uris": {"ios": "https://dc.lft.to/lastmile_qr_scan", "android": "https://dc.lft.to/lastmile_qr_scan"}}, {"name": "c5445cabdb034f8f3c04b9fd075b76dd", "fusion_lat": 0.0, "type": "electric_scooter", "lat": 38.90034466666667, "is_reserved": 0, "is_disabled": 0, "fusion_lon": 0.0, "bike_id": "c5445cabdb034f8f3c04b9fd075b76dd", "lon": -77.00201133333333, "rental_uris": {"ios": "https://dc.lft.to/lastmile_qr_scan", "android": "https://dc.lft.to/lastmile_qr_scan"}}, {"name": "fc0dee24cd26870bb5a3978677645c81", "fusion_lat": 0.0, "type": "electric_scooter", "lat": 38.904806, "is_reserved": 0, "is_disabled": 0, "fusion_lon": 0.0, "bike_id": "fc0dee24cd26870bb5a3978677645c81", "lon": -76.97333633333334, "rental_uris": {"ios": "https://dc.lft.to/lastmile_qr_scan", "android": "https://dc.lft.to/lastmile_qr_scan"}}, {"name": "0e19a5a3072d940124a13adb53929a71", "fusion_lat": 0.0, "type": "electric_scooter", "lat": 38.91275616666667, "is_reserved": 0, "is_disabled": 0, "fusion_lon": 0.0, "bike_id": "0e19a5a3072d940124a13adb53929a71", "lon": -77.0269265, "rental_uris": {"ios": "https://dc.lft.to/lastmile_qr_scan", "android": "https://dc.lft.to/lastmile_qr_scan"}}, {"name": "6ef1d05f99ce1b33fe7286b0d36731c0", "fusion_lat": 0.0, "type": "electric_scooter", "lat": 38.937019666666664, "is_reserved": 0, "is_disabled": 0, "fusion_lon": 0.0, "bike_id": "6ef1d05f99ce1b33fe7286b0d36731c0", "lon": -77.056835, "rental_uris": {"ios": "https://dc.lft.to/lastmile_qr_scan", "android": "https://dc.lft.to/lastmile_qr_scan"}}, {"name": "6c0abfea649c26253415ae9043162ecd", "fusion_lat": 0.0, "type": "electric_bike", "lat": 38.95184866666666, "is_reserved": 0, "is_disabled": 0, "fusion_lon": 0.0, "bike_id": "6c0abfea649c26253415ae9043162ecd", "lon": -76.93547083333333, "rental_uris": {"ios": "https://dc.lft.to/lastmile_qr_scan", "android": "https://dc.lft.to/lastmile_qr_scan"}}, {"name": "635d999254374dcabaca8bdadc678393", "fusion_lat": 0.0, "type": "electric_bike", "lat": 38.99990666666667, "is_reserved": 0, "is_disabled": 0, "fusion_lon": 0.0, "bike_id": "635d999254374dcabaca8bdadc678393", "lon": -76.99521683333333, "rental_uris": {"ios": "https://dc.lft.to/lastmile_qr_scan", "android": "https://dc.lft.to/lastmile_qr_scan"}}, {"name": "d8d839c18af6d20e33e614ce92feaea8", "fusion_lat": 0.0, "type": "electric_scooter", "lat": 38.922407, "is_reserved": 0, "is_disabled": 0, "fusion_lon": 0.0, "bike_id": "d8d839c18af6d20e33e614ce92feaea8", "lon": -77.03663866666666, "rental_uris": {"ios": "https://dc.lft.to/lastmile_qr_scan", "android": "https://dc.lft.to/lastmile_qr_scan"}}, {"name": "1f79b27355d4b1901127980bbe0e5148", "fusion_lat": 0.0, "type": "electric_scooter", "lat": 38.8960545, "is_reserved": 0, "is_disabled": 0, "fusion_lon": 0.0, "bike_id": "1f79b27355d4b1901127980bbe0e5148", "lon": -77.04688666666667, "rental_uris": {"ios": "https://dc.lft.to/lastmile_qr_scan", "android": "https://dc.lft.to/lastmile_qr_scan"}}, {"name": "7d96d53eb209a49db6436401fdb643de", "fusion_lat": 0.0, "type": "electric_scooter", "lat": 38.9318625, "is_reserved": 0, "is_disabled": 0, "fusion_lon": 0.0, "bike_id": "7d96d53eb209a49db6436401fdb643de", "lon": -77.028364, "rental_uris": {"ios": "https://dc.lft.to/lastmile_qr_scan", "android": "https://dc.lft.to/lastmile_qr_scan"}}, {"name": "4fe64faf1bbde6ebbcb43fcdc73f5c72", "fusion_lat": 0.0, "type": "electric_scooter", "lat": 38.961768166666666, "is_reserved": 0, "is_disabled": 0, "fusion_lon": 0.0, "bike_id": "4fe64faf1bbde6ebbcb43fcdc73f5c72", "lon": -77.03227266666667, "rental_uris": {"ios": "https://dc.lft.to/lastmile_qr_scan", "android": "https://dc.lft.to/lastmile_qr_scan"}}, {"name": "85e40acddf022cc0ece4aec34886f173", "fusion_lat": 0.0, "type": "electric_scooter", "lat": 38.902095333333335, "is_reserved": 0, "is_disabled": 0, "fusion_lon": 0.0, "bike_id": "85e40acddf022cc0ece4aec34886f173", "lon": -77.045709, "rental_uris": {"ios": "https://dc.lft.to/lastmile_qr_scan", "android": "https://dc.lft.to/lastmile_qr_scan"}}, {"name": "466c8e3c79faf0fe4249cf89bfca5c16", "fusion_lat": 0.0, "type": "electric_scooter", "lat": 38.91823466666666, "is_reserved": 0, "is_disabled": 0, "fusion_lon": 0.0, "bike_id": "466c8e3c79faf0fe4249cf89bfca5c16", "lon": -77.04008966666666, "rental_uris": {"ios": "https://dc.lft.to/lastmile_qr_scan", "android": "https://dc.lft.to/lastmile_qr_scan"}}, {"name": "7dc51efc7fc65ba7f4d259be24a4fac1", "fusion_lat": 0.0, "type": "electric_bike", "lat": 38.85068483333333, "is_reserved": 0, "is_disabled": 0, "fusion_lon": 0.0, "bike_id": "7dc51efc7fc65ba7f4d259be24a4fac1", "lon": -76.97333683333333, "rental_uris": {"ios": "https://dc.lft.to/lastmile_qr_scan", "android": "https://dc.lft.to/lastmile_qr_scan"}}, {"name": "22fbb6bd5057a89d0346f8ece71c9161", "fusion_lat": 0.0, "type": "electric_scooter", "lat": 38.89654216666667, "is_reserved": 0, "is_disabled": 0, "fusion_lon": 0.0, "bike_id": "22fbb6bd5057a89d0346f8ece71c9161", "lon": -77.050381, "rental_uris": {"ios": "https://dc.lft.to/lastmile_qr_scan", "android": "https://dc.lft.to/lastmile_qr_scan"}}, {"name": "809ee805a2b70ccda46ddd89a78a923e", "fusion_lat": 0.0, "type": "electric_scooter", "lat": 38.9055235, "is_reserved": 0, "is_disabled": 0, "fusion_lon": 0.0, "bike_id": "809ee805a2b70ccda46ddd89a78a923e", "lon": -77.00408416666667, "rental_uris": {"ios": "https://dc.lft.to/lastmile_qr_scan", "android": "https://dc.lft.to/lastmile_qr_scan"}}, {"name": "546ac3f8d3486cf5479e5ef1ab054090", "fusion_lat": 0.0, "type": "electric_scooter", "lat": 38.92018066666667, "is_reserved": 0, "is_disabled": 0, "fusion_lon": 0.0, "bike_id": "546ac3f8d3486cf5479e5ef1ab054090", "lon": -77.03480183333333, "rental_uris": {"ios": "https://dc.lft.to/lastmile_qr_scan", "android": "https://dc.lft.to/lastmile_qr_scan"}}, {"name": "590ea58d66bf51f967dbbb14b4b6398c", "fusion_lat": 0.0, "type": "electric_scooter", "lat": 38.932470333333335, "is_reserved": 0, "is_disabled": 0, "fusion_lon": 0.0, "bike_id": "590ea58d66bf51f967dbbb14b4b6398c", "lon": -77.0284415, "rental_uris": {"ios": "https://dc.lft.to/lastmile_qr_scan", "android": "https://dc.lft.to/lastmile_qr_scan"}}, {"name": "8436744fa3acb3934426cf24ee0a1942", "fusion_lat": 0.0, "type": "electric_scooter", "lat": 38.90564083333334, "is_reserved": 0, "is_disabled": 0, "fusion_lon": 0.0, "bike_id": "8436744fa3acb3934426cf24ee0a1942", "lon": -77.04494016666666, "rental_uris": {"ios": "https://dc.lft.to/lastmile_qr_scan", "android": "https://dc.lft.to/lastmile_qr_scan"}}, {"name": "eb11c1271377392b2250f946cdf98348", "fusion_lat": 0.0, "type": "electric_scooter", "lat": 38.941709, "is_reserved": 0, "is_disabled": 0, "fusion_lon": 0.0, "bike_id": "eb11c1271377392b2250f946cdf98348", "lon": -77.04137133333333, "rental_uris": {"ios": "https://dc.lft.to/lastmile_qr_scan", "android": "https://dc.lft.to/lastmile_qr_scan"}}, {"name": "99c4f10f4f955a9d3f76898a29a80af3", "fusion_lat": 0.0, "type": "electric_bike", "lat": 38.863879, "is_reserved": 0, "is_disabled": 0, "fusion_lon": 0.0, "bike_id": "99c4f10f4f955a9d3f76898a29a80af3", "lon": -76.98992983333333, "rental_uris": {"ios": "https://dc.lft.to/lastmile_qr_scan", "android": "https://dc.lft.to/lastmile_qr_scan"}}, {"name": "1b1f9f7eef671bb1c5d18ccdcfa36934", "fusion_lat": 0.0, "type": "electric_scooter", "lat": 38.8967395, "is_reserved": 0, "is_disabled": 0, "fusion_lon": 0.0, "bike_id": "1b1f9f7eef671bb1c5d18ccdcfa36934", "lon": -77.05026033333333, "rental_uris": {"ios": "https://dc.lft.to/lastmile_qr_scan", "android": "https://dc.lft.to/lastmile_qr_scan"}}, {"name": "7c0311cf71b50a13f4b9cd3e06d5c95b", "fusion_lat": 0.0, "type": "electric_scooter", "lat": 38.914846833333335, "is_reserved": 0, "is_disabled": 0, "fusion_lon": 0.0, "bike_id": "7c0311cf71b50a13f4b9cd3e06d5c95b", "lon": -77.03261166666667, "rental_uris": {"ios": "https://dc.lft.to/lastmile_qr_scan", "android": "https://dc.lft.to/lastmile_qr_scan"}}, {"name": "103993587cfa9c44364b4b1ac099791f", "fusion_lat": 0.0, "type": "electric_scooter", "lat": 38.919835, "is_reserved": 0, "is_disabled": 0, "fusion_lon": 0.0, "bike_id": "103993587cfa9c44364b4b1ac099791f", "lon": -77.0332465, "rental_uris": {"ios": "https://dc.lft.to/lastmile_qr_scan", "android": "https://dc.lft.to/lastmile_qr_scan"}}, {"name": "fe94b372c7fd964fd8bb11d585183a91", "fusion_lat": 0.0, "type": "electric_scooter", "lat": 38.903576, "is_reserved": 0, "is_disabled": 0, "fusion_lon": 0.0, "bike_id": "fe94b372c7fd964fd8bb11d585183a91", "lon": -77.01112383333333, "rental_uris": {"ios": "https://dc.lft.to/lastmile_qr_scan", "android": "https://dc.lft.to/lastmile_qr_scan"}}, {"name": "4773ff9658b99519ee3c1ede99fa6737", "fusion_lat": 0.0, "type": "electric_scooter", "lat": 38.900507, "is_reserved": 0, "is_disabled": 0, "fusion_lon": 0.0, "bike_id": "4773ff9658b99519ee3c1ede99fa6737", "lon": -76.94756216666667, "rental_uris": {"ios": "https://dc.lft.to/lastmile_qr_scan", "android": "https://dc.lft.to/lastmile_qr_scan"}}, {"name": "522bee3ff2d5569b875da2e445bcab36", "fusion_lat": 0.0, "type": "electric_bike", "lat": 38.949009833333335, "is_reserved": 0, "is_disabled": 0, "fusion_lon": 0.0, "bike_id": "522bee3ff2d5569b875da2e445bcab36", "lon": -76.96368883333334, "rental_uris": {"ios": "https://dc.lft.to/lastmile_qr_scan", "android": "https://dc.lft.to/lastmile_qr_scan"}}, {"name": "b7c902c21c6bc5de25f41e6614f40982", "fusion_lat": 0.0, "type": "electric_scooter", "lat": 38.9184135, "is_reserved": 0, "is_disabled": 0, "fusion_lon": 0.0, "bike_id": "b7c902c21c6bc5de25f41e6614f40982", "lon": -77.02606466666667, "rental_uris": {"ios": "https://dc.lft.to/lastmile_qr_scan", "android": "https://dc.lft.to/lastmile_qr_scan"}}, {"name": "31d57e03d2680a39c1365b6d85999e4c", "fusion_lat": 0.0, "type": "electric_scooter", "lat": 38.874230833333336, "is_reserved": 0, "is_disabled": 0, "fusion_lon": 0.0, "bike_id": "31d57e03d2680a39c1365b6d85999e4c", "lon": -76.97182283333333, "rental_uris": {"ios": "https://dc.lft.to/lastmile_qr_scan", "android": "https://dc.lft.to/lastmile_qr_scan"}}, {"name": "8b9bb02075c8f2183ada3779ea922a3c", "fusion_lat": 0.0, "type": "electric_scooter", "lat": 38.88394683333333, "is_reserved": 0, "is_disabled": 0, "fusion_lon": 0.0, "bike_id": "8b9bb02075c8f2183ada3779ea922a3c", "lon": -77.01940883333333, "rental_uris": {"ios": "https://dc.lft.to/lastmile_qr_scan", "android": "https://dc.lft.to/lastmile_qr_scan"}}, {"name": "de96b049538f695d903e0c5a4883d9dc", "fusion_lat": 0.0, "type": "electric_scooter", "lat": 38.91807383333333, "is_reserved": 0, "is_disabled": 0, "fusion_lon": 0.0, "bike_id": "de96b049538f695d903e0c5a4883d9dc", "lon": -77.0317695, "rental_uris": {"ios": "https://dc.lft.to/lastmile_qr_scan", "android": "https://dc.lft.to/lastmile_qr_scan"}}, {"name": "89cdacc21663b5ce6b2b0243c6ef79ba", "fusion_lat": 0.0, "type": "electric_scooter", "lat": 38.907332, "is_reserved": 0, "is_disabled": 0, "fusion_lon": 0.0, "bike_id": "89cdacc21663b5ce6b2b0243c6ef79ba", "lon": -77.03453833333333, "rental_uris": {"ios": "https://dc.lft.to/lastmile_qr_scan", "android": "https://dc.lft.to/lastmile_qr_scan"}}, {"name": "55435344547ce4ea33db22674e38290f", "fusion_lat": 0.0, "type": "electric_bike", "lat": 38.9028845, "is_reserved": 0, "is_disabled": 0, "fusion_lon": 0.0, "bike_id": "55435344547ce4ea33db22674e38290f", "lon": -76.98084983333334, "rental_uris": {"ios": "https://dc.lft.to/lastmile_qr_scan", "android": "https://dc.lft.to/lastmile_qr_scan"}}, {"name": "17d89ede3e2eb11236b776e8191d69fd", "fusion_lat": 0.0, "type": "electric_scooter", "lat": 38.930858, "is_reserved": 0, "is_disabled": 0, "fusion_lon": 0.0, "bike_id": "17d89ede3e2eb11236b776e8191d69fd", "lon": -77.02395933333334, "rental_uris": {"ios": "https://dc.lft.to/lastmile_qr_scan", "android": "https://dc.lft.to/lastmile_qr_scan"}}, {"name": "8bcee13b06220ddb904cefd93c1ef0de", "fusion_lat": 0.0, "type": "electric_scooter", "lat": 38.91803383333333, "is_reserved": 0, "is_disabled": 0, "fusion_lon": 0.0, "bike_id": "8bcee13b06220ddb904cefd93c1ef0de", "lon": -77.02813383333333, "rental_uris": {"ios": "https://dc.lft.to/lastmile_qr_scan", "android": "https://dc.lft.to/lastmile_qr_scan"}}, {"name": "125e8d957784887149d8fda7a39358bb", "fusion_lat": 0.0, "type": "electric_scooter", "lat": 38.918146666666665, "is_reserved": 0, "is_disabled": 0, "fusion_lon": 0.0, "bike_id": "125e8d957784887149d8fda7a39358bb", "lon": -77.04016083333333, "rental_uris": {"ios": "https://dc.lft.to/lastmile_qr_scan", "android": "https://dc.lft.to/lastmile_qr_scan"}}, {"name": "8c7ab15ca157f46f4cb6a4332dc9bffb", "fusion_lat": 0.0, "type": "electric_scooter", "lat": 38.87471083333333, "is_reserved": 0, "is_disabled": 0, "fusion_lon": 0.0, "bike_id": "8c7ab15ca157f46f4cb6a4332dc9bffb", "lon": -77.00211916666666, "rental_uris": {"ios": "https://dc.lft.to/lastmile_qr_scan", "android": "https://dc.lft.to/lastmile_qr_scan"}}, {"name": "f9133401823a710351136bd9ea417764", "fusion_lat": 0.0, "type": "electric_scooter", "lat": 38.90140383333333, "is_reserved": 0, "is_disabled": 0, "fusion_lon": 0.0, "bike_id": "f9133401823a710351136bd9ea417764", "lon": -76.99972533333333, "rental_uris": {"ios": "https://dc.lft.to/lastmile_qr_scan", "android": "https://dc.lft.to/lastmile_qr_scan"}}, {"name": "515f25e8d4aafa1be7c89b524f4b8eed", "fusion_lat": 0.0, "type": "electric_bike", "lat": 38.9732355, "is_reserved": 0, "is_disabled": 0, "fusion_lon": 0.0, "bike_id": "515f25e8d4aafa1be7c89b524f4b8eed", "lon": -77.02148166666667, "rental_uris": {"ios": "https://dc.lft.to/lastmile_qr_scan", "android": "https://dc.lft.to/lastmile_qr_scan"}}, {"name": "6b1f3afaebb5d532f179e272a7c0c6be", "fusion_lat": 0.0, "type": "electric_bike", "lat": 38.838113, "is_reserved": 0, "is_disabled": 0, "fusion_lon": 0.0, "bike_id": "6b1f3afaebb5d532f179e272a7c0c6be", "lon": -77.095235, "rental_uris": {"ios": "https://dc.lft.to/lastmile_qr_scan", "android": "https://dc.lft.to/lastmile_qr_scan"}}, {"name": "e15e673170e30c1561cb68cf0d3fe675", "fusion_lat": 0.0, "type": "electric_scooter", "lat": 38.934287166666664, "is_reserved": 0, "is_disabled": 0, "fusion_lon": 0.0, "bike_id": "e15e673170e30c1561cb68cf0d3fe675", "lon": -77.04006716666666, "rental_uris": {"ios": "https://dc.lft.to/lastmile_qr_scan", "android": "https://dc.lft.to/lastmile_qr_scan"}}, {"name": "3f97501d180d7903988f3eb02638bed6", "fusion_lat": 0.0, "type": "electric_bike", "lat": 38.9707765, "is_reserved": 0, "is_disabled": 0, "fusion_lon": 0.0, "bike_id": "3f97501d180d7903988f3eb02638bed6", "lon": -76.93617616666667, "rental_uris": {"ios": "https://dc.lft.to/lastmile_qr_scan", "android": "https://dc.lft.to/lastmile_qr_scan"}}, {"name": "d1fbbcb7b2a2e33e6796cf8599c244c7", "fusion_lat": 0.0, "type": "electric_scooter", "lat": 38.908430333333335, "is_reserved": 0, "is_disabled": 0, "fusion_lon": 0.0, "bike_id": "d1fbbcb7b2a2e33e6796cf8599c244c7", "lon": -77.02603216666667, "rental_uris": {"ios": "https://dc.lft.to/lastmile_qr_scan", "android": "https://dc.lft.to/lastmile_qr_scan"}}, {"name": "c41f60b43ec933616c8099425196c3b7", "fusion_lat": 0.0, "type": "electric_scooter", "lat": 38.91807216666667, "is_reserved": 0, "is_disabled": 0, "fusion_lon": 0.0, "bike_id": "c41f60b43ec933616c8099425196c3b7", "lon": -77.03182433333333, "rental_uris": {"ios": "https://dc.lft.to/lastmile_qr_scan", "android": "https://dc.lft.to/lastmile_qr_scan"}}, {"name": "df283a371960533e747812a83f6811af", "fusion_lat": 0.0, "type": "electric_scooter", "lat": 38.91710416666667, "is_reserved": 0, "is_disabled": 0, "fusion_lon": 0.0, "bike_id": "df283a371960533e747812a83f6811af", "lon": -77.0386385, "rental_uris": {"ios": "https://dc.lft.to/lastmile_qr_scan", "android": "https://dc.lft.to/lastmile_qr_scan"}}, {"name": "50c6d9ec5359a4a377b747321572f61a", "fusion_lat": 0.0, "type": "electric_scooter", "lat": 38.93389416666667, "is_reserved": 0, "is_disabled": 0, "fusion_lon": 0.0, "bike_id": "50c6d9ec5359a4a377b747321572f61a", "lon": -77.07388483333334, "rental_uris": {"ios": "https://dc.lft.to/lastmile_qr_scan", "android": "https://dc.lft.to/lastmile_qr_scan"}}, {"name": "83cc2a5136a765cc0c253aa5f618aa4a", "fusion_lat": 0.0, "type": "electric_bike", "lat": 38.8861375, "is_reserved": 0, "is_disabled": 0, "fusion_lon": 0.0, "bike_id": "83cc2a5136a765cc0c253aa5f618aa4a", "lon": -77.10756916666666, "rental_uris": {"ios": "https://dc.lft.to/lastmile_qr_scan", "android": "https://dc.lft.to/lastmile_qr_scan"}}, {"name": "6814787f09d0c5bfab9c2db41899dcfa", "fusion_lat": 0.0, "type": "electric_bike", "lat": 39.053457, "is_reserved": 0, "is_disabled": 0, "fusion_lon": 0.0, "bike_id": "6814787f09d0c5bfab9c2db41899dcfa", "lon": -77.13596116666666, "rental_uris": {"ios": "https://dc.lft.to/lastmile_qr_scan", "android": "https://dc.lft.to/lastmile_qr_scan"}}, {"name": "82a903913329dec8da4b1a8f6b84f723", "fusion_lat": 0.0, "type": "electric_scooter", "lat": 38.894947333333334, "is_reserved": 0, "is_disabled": 0, "fusion_lon": 0.0, "bike_id": "82a903913329dec8da4b1a8f6b84f723", "lon": -77.01016683333333, "rental_uris": {"ios": "https://dc.lft.to/lastmile_qr_scan", "android": "https://dc.lft.to/lastmile_qr_scan"}}, {"name": "66adc2f6977e21690733f0d5e014ca7e", "fusion_lat": 0.0, "type": "electric_scooter", "lat": 38.917012, "is_reserved": 0, "is_disabled": 0, "fusion_lon": 0.0, "bike_id": "66adc2f6977e21690733f0d5e014ca7e", "lon": -77.02892116666666, "rental_uris": {"ios": "https://dc.lft.to/lastmile_qr_scan", "android": "https://dc.lft.to/lastmile_qr_scan"}}, {"name": "3f76400824473eb2a79480e908b55737", "fusion_lat": 0.0, "type": "electric_scooter", "lat": 38.86261183333333, "is_reserved": 0, "is_disabled": 0, "fusion_lon": 0.0, "bike_id": "3f76400824473eb2a79480e908b55737", "lon": -76.98718866666667, "rental_uris": {"ios": "https://dc.lft.to/lastmile_qr_scan", "android": "https://dc.lft.to/lastmile_qr_scan"}}, {"name": "72d73fd3332c0ff35afcd9df99e292e8", "fusion_lat": 0.0, "type": "electric_scooter", "lat": 38.90983033333333, "is_reserved": 0, "is_disabled": 0, "fusion_lon": 0.0, "bike_id": "72d73fd3332c0ff35afcd9df99e292e8", "lon": -77.03859033333333, "rental_uris": {"ios": "https://dc.lft.to/lastmile_qr_scan", "android": "https://dc.lft.to/lastmile_qr_scan"}}, {"name": "756eeabc8edad518d747bd92740a5d91", "fusion_lat": 0.0, "type": "electric_scooter", "lat": 38.90438733333333, "is_reserved": 0, "is_disabled": 0, "fusion_lon": 0.0, "bike_id": "756eeabc8edad518d747bd92740a5d91", "lon": -77.03112283333333, "rental_uris": {"ios": "https://dc.lft.to/lastmile_qr_scan", "android": "https://dc.lft.to/lastmile_qr_scan"}}, {"name": "931a648f1484547ddcd10cd82ef376d0", "fusion_lat": 0.0, "type": "electric_scooter", "lat": 38.887306, "is_reserved": 0, "is_disabled": 0, "fusion_lon": 0.0, "bike_id": "931a648f1484547ddcd10cd82ef376d0", "lon": -77.01766183333334, "rental_uris": {"ios": "https://dc.lft.to/lastmile_qr_scan", "android": "https://dc.lft.to/lastmile_qr_scan"}}, {"name": "589baa5b7a0ce7940b37afc1ab409957", "fusion_lat": 0.0, "type": "electric_scooter", "lat": 38.92067933333333, "is_reserved": 0, "is_disabled": 0, "fusion_lon": 0.0, "bike_id": "589baa5b7a0ce7940b37afc1ab409957", "lon": -76.99858183333333, "rental_uris": {"ios": "https://dc.lft.to/lastmile_qr_scan", "android": "https://dc.lft.to/lastmile_qr_scan"}}, {"name": "7cbc10153a75f17c03888fe13b14d300", "fusion_lat": 0.0, "type": "electric_scooter", "lat": 38.932429, "is_reserved": 0, "is_disabled": 0, "fusion_lon": 0.0, "bike_id": "7cbc10153a75f17c03888fe13b14d300", "lon": -77.03279916666666, "rental_uris": {"ios": "https://dc.lft.to/lastmile_qr_scan", "android": "https://dc.lft.to/lastmile_qr_scan"}}, {"name": "d4322870af2e6da02780cf7e8eee3c02", "fusion_lat": 0.0, "type": "electric_scooter", "lat": 38.90023983333333, "is_reserved": 0, "is_disabled": 0, "fusion_lon": 0.0, "bike_id": "d4322870af2e6da02780cf7e8eee3c02", "lon": -77.03974516666666, "rental_uris": {"ios": "https://dc.lft.to/lastmile_qr_scan", "android": "https://dc.lft.to/lastmile_qr_scan"}}, {"name": "0d34b505b86f8fcac7b32e378f2416d7", "fusion_lat": 0.0, "type": "electric_scooter", "lat": 38.92080516666667, "is_reserved": 0, "is_disabled": 0, "fusion_lon": 0.0, "bike_id": "0d34b505b86f8fcac7b32e378f2416d7", "lon": -77.02402566666666, "rental_uris": {"ios": "https://dc.lft.to/lastmile_qr_scan", "android": "https://dc.lft.to/lastmile_qr_scan"}}, {"name": "354b554b0f39d12391271ef788fe93b6", "fusion_lat": 0.0, "type": "electric_scooter", "lat": 38.917836666666666, "is_reserved": 0, "is_disabled": 0, "fusion_lon": 0.0, "bike_id": "354b554b0f39d12391271ef788fe93b6", "lon": -77.02312916666666, "rental_uris": {"ios": "https://dc.lft.to/lastmile_qr_scan", "android": "https://dc.lft.to/lastmile_qr_scan"}}, {"name": "e5f6d83c408afe9000e5d7ec2b8c4973", "fusion_lat": 0.0, "type": "electric_bike", "lat": 38.8729295, "is_reserved": 0, "is_disabled": 0, "fusion_lon": 0.0, "bike_id": "e5f6d83c408afe9000e5d7ec2b8c4973", "lon": -77.01094533333334, "rental_uris": {"ios": "https://dc.lft.to/lastmile_qr_scan", "android": "https://dc.lft.to/lastmile_qr_scan"}}, {"name": "79b3545693556fc465e8a966e5e0e0d7", "fusion_lat": 0.0, "type": "electric_scooter", "lat": 38.91874683333333, "is_reserved": 0, "is_disabled": 0, "fusion_lon": 0.0, "bike_id": "79b3545693556fc465e8a966e5e0e0d7", "lon": -77.0448585, "rental_uris": {"ios": "https://dc.lft.to/lastmile_qr_scan", "android": "https://dc.lft.to/lastmile_qr_scan"}}, {"name": "0964d66d55a6db786722426312346569", "fusion_lat": 0.0, "type": "electric_scooter", "lat": 38.92155483333333, "is_reserved": 0, "is_disabled": 0, "fusion_lon": 0.0, "bike_id": "0964d66d55a6db786722426312346569", "lon": -77.03444683333333, "rental_uris": {"ios": "https://dc.lft.to/lastmile_qr_scan", "android": "https://dc.lft.to/lastmile_qr_scan"}}, {"name": "819f703232e92077d14dd16ac234eeb2", "fusion_lat": 0.0, "type": "electric_bike", "lat": 38.9462415, "is_reserved": 0, "is_disabled": 0, "fusion_lon": 0.0, "bike_id": "819f703232e92077d14dd16ac234eeb2", "lon": -76.94631233333334, "rental_uris": {"ios": "https://dc.lft.to/lastmile_qr_scan", "android": "https://dc.lft.to/lastmile_qr_scan"}}, {"name": "462bb2391d0b4a01a2aafb8786494ed4", "fusion_lat": 0.0, "type": "electric_scooter", "lat": 38.880508166666665, "is_reserved": 0, "is_disabled": 0, "fusion_lon": 0.0, "bike_id": "462bb2391d0b4a01a2aafb8786494ed4", "lon": -77.01333533333333, "rental_uris": {"ios": "https://dc.lft.to/lastmile_qr_scan", "android": "https://dc.lft.to/lastmile_qr_scan"}}, {"name": "375f72ea422587d6aac1247238ff957d", "fusion_lat": 0.0, "type": "electric_scooter", "lat": 38.91614583333333, "is_reserved": 0, "is_disabled": 0, "fusion_lon": 0.0, "bike_id": "375f72ea422587d6aac1247238ff957d", "lon": -77.03645783333333, "rental_uris": {"ios": "https://dc.lft.to/lastmile_qr_scan", "android": "https://dc.lft.to/lastmile_qr_scan"}}, {"name": "09471613fbf057def88f1ea01da2af2c", "fusion_lat": 0.0, "type": "electric_scooter", "lat": 38.91420516666667, "is_reserved": 0, "is_disabled": 0, "fusion_lon": 0.0, "bike_id": "09471613fbf057def88f1ea01da2af2c", "lon": -77.022093, "rental_uris": {"ios": "https://dc.lft.to/lastmile_qr_scan", "android": "https://dc.lft.to/lastmile_qr_scan"}}, {"name": "9c177470568d57b51c8d05ade0dd354a", "fusion_lat": 0.0, "type": "electric_scooter", "lat": 38.91195483333333, "is_reserved": 0, "is_disabled": 0, "fusion_lon": 0.0, "bike_id": "9c177470568d57b51c8d05ade0dd354a", "lon": -77.0450985, "rental_uris": {"ios": "https://dc.lft.to/lastmile_qr_scan", "android": "https://dc.lft.to/lastmile_qr_scan"}}, {"name": "52a635430352b78d86e6d530d6de634f", "fusion_lat": 0.0, "type": "electric_scooter", "lat": 38.8988455, "is_reserved": 0, "is_disabled": 0, "fusion_lon": 0.0, "bike_id": "52a635430352b78d86e6d530d6de634f", "lon": -77.03914133333333, "rental_uris": {"ios": "https://dc.lft.to/lastmile_qr_scan", "android": "https://dc.lft.to/lastmile_qr_scan"}}, {"name": "810e69021335fed2bf9327066d16a9c8", "fusion_lat": 0.0, "type": "electric_scooter", "lat": 38.906557666666664, "is_reserved": 0, "is_disabled": 0, "fusion_lon": 0.0, "bike_id": "810e69021335fed2bf9327066d16a9c8", "lon": -77.05325633333334, "rental_uris": {"ios": "https://dc.lft.to/lastmile_qr_scan", "android": "https://dc.lft.to/lastmile_qr_scan"}}, {"name": "8e5533fc34f7a0634884eacea6f982bf", "fusion_lat": 0.0, "type": "electric_scooter", "lat": 38.91693383333333, "is_reserved": 0, "is_disabled": 0, "fusion_lon": 0.0, "bike_id": "8e5533fc34f7a0634884eacea6f982bf", "lon": -77.029137, "rental_uris": {"ios": "https://dc.lft.to/lastmile_qr_scan", "android": "https://dc.lft.to/lastmile_qr_scan"}}, {"name": "f776d6e6b5a754460ed18d49aa16ab2c", "fusion_lat": 0.0, "type": "electric_scooter", "lat": 38.89549216666666, "is_reserved": 0, "is_disabled": 0, "fusion_lon": 0.0, "bike_id": "f776d6e6b5a754460ed18d49aa16ab2c", "lon": -77.02925216666667, "rental_uris": {"ios": "https://dc.lft.to/lastmile_qr_scan", "android": "https://dc.lft.to/lastmile_qr_scan"}}, {"name": "6fbeca885df57da004873544bd6b2d90", "fusion_lat": 0.0, "type": "electric_scooter", "lat": 38.9275425, "is_reserved": 0, "is_disabled": 0, "fusion_lon": 0.0, "bike_id": "6fbeca885df57da004873544bd6b2d90", "lon": -77.03275783333333, "rental_uris": {"ios": "https://dc.lft.to/lastmile_qr_scan", "android": "https://dc.lft.to/lastmile_qr_scan"}}, {"name": "3c4ff92f22e0aae8a3c883764e1cb7c6", "fusion_lat": 0.0, "type": "electric_scooter", "lat": 38.901119, "is_reserved": 0, "is_disabled": 0, "fusion_lon": 0.0, "bike_id": "3c4ff92f22e0aae8a3c883764e1cb7c6", "lon": -77.049838, "rental_uris": {"ios": "https://dc.lft.to/lastmile_qr_scan", "android": "https://dc.lft.to/lastmile_qr_scan"}}, {"name": "829119f50aa64cbbae7cf22f2a835a9f", "fusion_lat": 0.0, "type": "electric_scooter", "lat": 38.91273133333333, "is_reserved": 0, "is_disabled": 0, "fusion_lon": 0.0, "bike_id": "829119f50aa64cbbae7cf22f2a835a9f", "lon": -77.04160883333333, "rental_uris": {"ios": "https://dc.lft.to/lastmile_qr_scan", "android": "https://dc.lft.to/lastmile_qr_scan"}}, {"name": "b60b92a1568df3fd1d4921cf2c220dee", "fusion_lat": 0.0, "type": "electric_scooter", "lat": 38.90478066666667, "is_reserved": 0, "is_disabled": 0, "fusion_lon": 0.0, "bike_id": "b60b92a1568df3fd1d4921cf2c220dee", "lon": -77.065415, "rental_uris": {"ios": "https://dc.lft.to/lastmile_qr_scan", "android": "https://dc.lft.to/lastmile_qr_scan"}}, {"name": "e37d3a1867a94ed49df5ff401470de94", "fusion_lat": 0.0, "type": "electric_bike", "lat": 38.80553883333333, "is_reserved": 0, "is_disabled": 0, "fusion_lon": 0.0, "bike_id": "e37d3a1867a94ed49df5ff401470de94", "lon": -77.13247833333334, "rental_uris": {"ios": "https://dc.lft.to/lastmile_qr_scan", "android": "https://dc.lft.to/lastmile_qr_scan"}}, {"name": "1c2930769d711558183b492be56c8fc8", "fusion_lat": 0.0, "type": "electric_scooter", "lat": 38.909630666666665, "is_reserved": 0, "is_disabled": 0, "fusion_lon": 0.0, "bike_id": "1c2930769d711558183b492be56c8fc8", "lon": -77.04605483333333, "rental_uris": {"ios": "https://dc.lft.to/lastmile_qr_scan", "android": "https://dc.lft.to/lastmile_qr_scan"}}, {"name": "a5b8ae7b9fc395718f699e2fc0e0f188", "fusion_lat": 0.0, "type": "electric_scooter", "lat": 38.905775, "is_reserved": 0, "is_disabled": 0, "fusion_lon": 0.0, "bike_id": "a5b8ae7b9fc395718f699e2fc0e0f188", "lon": -77.04870716666667, "rental_uris": {"ios": "https://dc.lft.to/lastmile_qr_scan", "android": "https://dc.lft.to/lastmile_qr_scan"}}, {"name": "f6d5d9477000db9f210020f4caf4d4ec", "fusion_lat": 0.0, "type": "electric_bike", "lat": 38.838278, "is_reserved": 0, "is_disabled": 0, "fusion_lon": 0.0, "bike_id": "f6d5d9477000db9f210020f4caf4d4ec", "lon": -76.99684516666667, "rental_uris": {"ios": "https://dc.lft.to/lastmile_qr_scan", "android": "https://dc.lft.to/lastmile_qr_scan"}}, {"name": "3228e19ed568f48a5c58cda4fa88cf68", "fusion_lat": 0.0, "type": "electric_scooter", "lat": 38.92032183333333, "is_reserved": 0, "is_disabled": 0, "fusion_lon": 0.0, "bike_id": "3228e19ed568f48a5c58cda4fa88cf68", "lon": -77.02591116666666, "rental_uris": {"ios": "https://dc.lft.to/lastmile_qr_scan", "android": "https://dc.lft.to/lastmile_qr_scan"}}, {"name": "8cb7842ab157240097f34128d86c770d", "fusion_lat": 0.0, "type": "electric_scooter", "lat": 38.91402933333333, "is_reserved": 0, "is_disabled": 0, "fusion_lon": 0.0, "bike_id": "8cb7842ab157240097f34128d86c770d", "lon": -77.03951916666666, "rental_uris": {"ios": "https://dc.lft.to/lastmile_qr_scan", "android": "https://dc.lft.to/lastmile_qr_scan"}}, {"name": "ad9e0b8c094ad1b2f8ebe6578e737801", "fusion_lat": 0.0, "type": "electric_scooter", "lat": 38.90728416666666, "is_reserved": 0, "is_disabled": 0, "fusion_lon": 0.0, "bike_id": "ad9e0b8c094ad1b2f8ebe6578e737801", "lon": -77.0320485, "rental_uris": {"ios": "https://dc.lft.to/lastmile_qr_scan", "android": "https://dc.lft.to/lastmile_qr_scan"}}, {"name": "92a0d516f2f35e6c48901dd51a8d2308", "fusion_lat": 0.0, "type": "electric_scooter", "lat": 38.886827833333335, "is_reserved": 0, "is_disabled": 0, "fusion_lon": 0.0, "bike_id": "92a0d516f2f35e6c48901dd51a8d2308", "lon": -76.9575945, "rental_uris": {"ios": "https://dc.lft.to/lastmile_qr_scan", "android": "https://dc.lft.to/lastmile_qr_scan"}}, {"name": "33573bc7f574bd2c3763fb12caa99357", "fusion_lat": 0.0, "type": "electric_scooter", "lat": 38.868873, "is_reserved": 0, "is_disabled": 0, "fusion_lon": 0.0, "bike_id": "33573bc7f574bd2c3763fb12caa99357", "lon": -76.98314516666667, "rental_uris": {"ios": "https://dc.lft.to/lastmile_qr_scan", "android": "https://dc.lft.to/lastmile_qr_scan"}}, {"name": "015b0e86c32688ca351730d053153e85", "fusion_lat": 0.0, "type": "electric_scooter", "lat": 38.941739166666665, "is_reserved": 0, "is_disabled": 0, "fusion_lon": 0.0, "bike_id": "015b0e86c32688ca351730d053153e85", "lon": -77.02514016666667, "rental_uris": {"ios": "https://dc.lft.to/lastmile_qr_scan", "android": "https://dc.lft.to/lastmile_qr_scan"}}, {"name": "1f618765b7dbb26089f0eb58d576a75a", "fusion_lat": 0.0, "type": "electric_scooter", "lat": 38.8584805, "is_reserved": 0, "is_disabled": 0, "fusion_lon": 0.0, "bike_id": "1f618765b7dbb26089f0eb58d576a75a", "lon": -76.95885483333333, "rental_uris": {"ios": "https://dc.lft.to/lastmile_qr_scan", "android": "https://dc.lft.to/lastmile_qr_scan"}}, {"name": "b470883cecc2dbe8fffa2036c66f12b8", "fusion_lat": 0.0, "type": "electric_scooter", "lat": 38.917085, "is_reserved": 0, "is_disabled": 0, "fusion_lon": 0.0, "bike_id": "b470883cecc2dbe8fffa2036c66f12b8", "lon": -77.02788566666666, "rental_uris": {"ios": "https://dc.lft.to/lastmile_qr_scan", "android": "https://dc.lft.to/lastmile_qr_scan"}}, {"name": "a5d8152f4a73338660287b4dee014727", "fusion_lat": 0.0, "type": "electric_scooter", "lat": 38.902420666666664, "is_reserved": 0, "is_disabled": 0, "fusion_lon": 0.0, "bike_id": "a5d8152f4a73338660287b4dee014727", "lon": -77.04352033333333, "rental_uris": {"ios": "https://dc.lft.to/lastmile_qr_scan", "android": "https://dc.lft.to/lastmile_qr_scan"}}, {"name": "5ea97dc0580685d02b19ebc17e64bb11", "fusion_lat": 0.0, "type": "electric_scooter", "lat": 38.923634, "is_reserved": 0, "is_disabled": 0, "fusion_lon": 0.0, "bike_id": "5ea97dc0580685d02b19ebc17e64bb11", "lon": -77.05135166666666, "rental_uris": {"ios": "https://dc.lft.to/lastmile_qr_scan", "android": "https://dc.lft.to/lastmile_qr_scan"}}, {"name": "241275ce2a57608dcd3fd0c9297fde29", "fusion_lat": 0.0, "type": "electric_scooter", "lat": 38.860830166666666, "is_reserved": 0, "is_disabled": 0, "fusion_lon": 0.0, "bike_id": "241275ce2a57608dcd3fd0c9297fde29", "lon": -76.9672985, "rental_uris": {"ios": "https://dc.lft.to/lastmile_qr_scan", "android": "https://dc.lft.to/lastmile_qr_scan"}}, {"name": "67de1e6a5caab94d55899e7c3eca0655", "fusion_lat": 0.0, "type": "electric_scooter", "lat": 38.92206016666667, "is_reserved": 0, "is_disabled": 0, "fusion_lon": 0.0, "bike_id": "67de1e6a5caab94d55899e7c3eca0655", "lon": -77.04325516666667, "rental_uris": {"ios": "https://dc.lft.to/lastmile_qr_scan", "android": "https://dc.lft.to/lastmile_qr_scan"}}, {"name": "2dbfb1a9ebeb1a250e4c9b956619dd5f", "fusion_lat": 0.0, "type": "electric_scooter", "lat": 38.91406033333333, "is_reserved": 0, "is_disabled": 0, "fusion_lon": 0.0, "bike_id": "2dbfb1a9ebeb1a250e4c9b956619dd5f", "lon": -77.01320466666667, "rental_uris": {"ios": "https://dc.lft.to/lastmile_qr_scan", "android": "https://dc.lft.to/lastmile_qr_scan"}}, {"name": "ad281e073c5ae128925435c1e1dcb5f9", "fusion_lat": 0.0, "type": "electric_scooter", "lat": 38.9324805, "is_reserved": 0, "is_disabled": 0, "fusion_lon": 0.0, "bike_id": "ad281e073c5ae128925435c1e1dcb5f9", "lon": -77.020233, "rental_uris": {"ios": "https://dc.lft.to/lastmile_qr_scan", "android": "https://dc.lft.to/lastmile_qr_scan"}}, {"name": "f8ece8e40154fbb76ae1fb84010e23aa", "fusion_lat": 0.0, "type": "electric_scooter", "lat": 38.917092, "is_reserved": 0, "is_disabled": 0, "fusion_lon": 0.0, "bike_id": "f8ece8e40154fbb76ae1fb84010e23aa", "lon": -77.03145883333333, "rental_uris": {"ios": "https://dc.lft.to/lastmile_qr_scan", "android": "https://dc.lft.to/lastmile_qr_scan"}}, {"name": "95b6cd77ceba13508c3d61f10e51eb8b", "fusion_lat": 0.0, "type": "electric_scooter", "lat": 38.88595, "is_reserved": 0, "is_disabled": 0, "fusion_lon": 0.0, "bike_id": "95b6cd77ceba13508c3d61f10e51eb8b", "lon": -77.02212033333333, "rental_uris": {"ios": "https://dc.lft.to/lastmile_qr_scan", "android": "https://dc.lft.to/lastmile_qr_scan"}}, {"name": "906a0f297389530f9ca236e48b07beb4", "fusion_lat": 0.0, "type": "electric_scooter", "lat": 38.93457016666667, "is_reserved": 0, "is_disabled": 0, "fusion_lon": 0.0, "bike_id": "906a0f297389530f9ca236e48b07beb4", "lon": -77.02921866666667, "rental_uris": {"ios": "https://dc.lft.to/lastmile_qr_scan", "android": "https://dc.lft.to/lastmile_qr_scan"}}, {"name": "103e9dfb8eb5843fe7cd72f39542e188", "fusion_lat": 0.0, "type": "electric_scooter", "lat": 38.8937035, "is_reserved": 0, "is_disabled": 0, "fusion_lon": 0.0, "bike_id": "103e9dfb8eb5843fe7cd72f39542e188", "lon": -76.950011, "rental_uris": {"ios": "https://dc.lft.to/lastmile_qr_scan", "android": "https://dc.lft.to/lastmile_qr_scan"}}, {"name": "5de20eb71922606a68d9d594e194f699", "fusion_lat": 0.0, "type": "electric_scooter", "lat": 38.909833, "is_reserved": 0, "is_disabled": 0, "fusion_lon": 0.0, "bike_id": "5de20eb71922606a68d9d594e194f699", "lon": -77.03181783333333, "rental_uris": {"ios": "https://dc.lft.to/lastmile_qr_scan", "android": "https://dc.lft.to/lastmile_qr_scan"}}, {"name": "c68e6a64c2120310416403a9d2907bc1", "fusion_lat": 0.0, "type": "electric_bike", "lat": 38.897201833333334, "is_reserved": 0, "is_disabled": 0, "fusion_lon": 0.0, "bike_id": "c68e6a64c2120310416403a9d2907bc1", "lon": -77.01914166666667, "rental_uris": {"ios": "https://dc.lft.to/lastmile_qr_scan", "android": "https://dc.lft.to/lastmile_qr_scan"}}, {"name": "368e1d0999988eafd2c5713c71665e62", "fusion_lat": 0.0, "type": "electric_scooter", "lat": 38.88596366666667, "is_reserved": 0, "is_disabled": 0, "fusion_lon": 0.0, "bike_id": "368e1d0999988eafd2c5713c71665e62", "lon": -77.02209833333333, "rental_uris": {"ios": "https://dc.lft.to/lastmile_qr_scan", "android": "https://dc.lft.to/lastmile_qr_scan"}}, {"name": "4d54e4d5b26228037ed8fa1190babc5c", "fusion_lat": 0.0, "type": "electric_scooter", "lat": 38.9289, "is_reserved": 0, "is_disabled": 0, "fusion_lon": 0.0, "bike_id": "4d54e4d5b26228037ed8fa1190babc5c", "lon": -77.05453533333333, "rental_uris": {"ios": "https://dc.lft.to/lastmile_qr_scan", "android": "https://dc.lft.to/lastmile_qr_scan"}}, {"name": "bd9acac90479d479058df975fb2dadb8", "fusion_lat": 0.0, "type": "electric_scooter", "lat": 38.9272945, "is_reserved": 0, "is_disabled": 0, "fusion_lon": 0.0, "bike_id": "bd9acac90479d479058df975fb2dadb8", "lon": -77.071503, "rental_uris": {"ios": "https://dc.lft.to/lastmile_qr_scan", "android": "https://dc.lft.to/lastmile_qr_scan"}}, {"name": "9d36052751b9873f28940073d365e780", "fusion_lat": 0.0, "type": "electric_bike", "lat": 38.883494666666664, "is_reserved": 0, "is_disabled": 0, "fusion_lon": 0.0, "bike_id": "9d36052751b9873f28940073d365e780", "lon": -77.18289333333334, "rental_uris": {"ios": "https://dc.lft.to/lastmile_qr_scan", "android": "https://dc.lft.to/lastmile_qr_scan"}}, {"name": "94f44bf4a14ccd284b92fba826854c00", "fusion_lat": 0.0, "type": "electric_scooter", "lat": 38.920095, "is_reserved": 0, "is_disabled": 0, "fusion_lon": 0.0, "bike_id": "94f44bf4a14ccd284b92fba826854c00", "lon": -77.081889, "rental_uris": {"ios": "https://dc.lft.to/lastmile_qr_scan", "android": "https://dc.lft.to/lastmile_qr_scan"}}, {"name": "dcb6206ebc211582a37da33668ded8f5", "fusion_lat": 0.0, "type": "electric_scooter", "lat": 38.913946833333334, "is_reserved": 0, "is_disabled": 0, "fusion_lon": 0.0, "bike_id": "dcb6206ebc211582a37da33668ded8f5", "lon": -77.04167916666667, "rental_uris": {"ios": "https://dc.lft.to/lastmile_qr_scan", "android": "https://dc.lft.to/lastmile_qr_scan"}}, {"name": "37178584721a92aeada82457fc75d1a5", "fusion_lat": 0.0, "type": "electric_scooter", "lat": 38.905183666666666, "is_reserved": 0, "is_disabled": 0, "fusion_lon": 0.0, "bike_id": "37178584721a92aeada82457fc75d1a5", "lon": -77.06893483333333, "rental_uris": {"ios": "https://dc.lft.to/lastmile_qr_scan", "android": "https://dc.lft.to/lastmile_qr_scan"}}, {"name": "fb3cd5847edce3ca487a42e565d0201c", "fusion_lat": 0.0, "type": "electric_scooter", "lat": 38.93826116666666, "is_reserved": 0, "is_disabled": 0, "fusion_lon": 0.0, "bike_id": "fb3cd5847edce3ca487a42e565d0201c", "lon": -77.02481066666667, "rental_uris": {"ios": "https://dc.lft.to/lastmile_qr_scan", "android": "https://dc.lft.to/lastmile_qr_scan"}}, {"name": "f827732c0b3428bc44c7f55c975a7e61", "fusion_lat": 0.0, "type": "electric_scooter", "lat": 38.9259685, "is_reserved": 0, "is_disabled": 0, "fusion_lon": 0.0, "bike_id": "f827732c0b3428bc44c7f55c975a7e61", "lon": -77.02499716666667, "rental_uris": {"ios": "https://dc.lft.to/lastmile_qr_scan", "android": "https://dc.lft.to/lastmile_qr_scan"}}, {"name": "5fb121e90ccf8bbb32f70b9f49852ab8", "fusion_lat": 0.0, "type": "electric_scooter", "lat": 38.907281833333336, "is_reserved": 0, "is_disabled": 0, "fusion_lon": 0.0, "bike_id": "5fb121e90ccf8bbb32f70b9f49852ab8", "lon": -77.03211133333333, "rental_uris": {"ios": "https://dc.lft.to/lastmile_qr_scan", "android": "https://dc.lft.to/lastmile_qr_scan"}}, {"name": "b3189ea7b50a4cd4ba02900d70c3bde9", "fusion_lat": 0.0, "type": "electric_scooter", "lat": 38.93615, "is_reserved": 0, "is_disabled": 0, "fusion_lon": 0.0, "bike_id": "b3189ea7b50a4cd4ba02900d70c3bde9", "lon": -77.05588133333333, "rental_uris": {"ios": "https://dc.lft.to/lastmile_qr_scan", "android": "https://dc.lft.to/lastmile_qr_scan"}}, {"name": "c9a16b75a4997fecfeb382398454aaa5", "fusion_lat": 0.0, "type": "electric_scooter", "lat": 38.90083116666667, "is_reserved": 0, "is_disabled": 0, "fusion_lon": 0.0, "bike_id": "c9a16b75a4997fecfeb382398454aaa5", "lon": -77.01788183333333, "rental_uris": {"ios": "https://dc.lft.to/lastmile_qr_scan", "android": "https://dc.lft.to/lastmile_qr_scan"}}, {"name": "c5472e75f68f7d926bc76e8f1f05efd8", "fusion_lat": 0.0, "type": "electric_scooter", "lat": 38.906395833333335, "is_reserved": 0, "is_disabled": 0, "fusion_lon": 0.0, "bike_id": "c5472e75f68f7d926bc76e8f1f05efd8", "lon": -77.014013, "rental_uris": {"ios": "https://dc.lft.to/lastmile_qr_scan", "android": "https://dc.lft.to/lastmile_qr_scan"}}, {"name": "4d8f6bff287448336ce5134aae2f65c4", "fusion_lat": 0.0, "type": "electric_scooter", "lat": 38.90239583333333, "is_reserved": 0, "is_disabled": 0, "fusion_lon": 0.0, "bike_id": "4d8f6bff287448336ce5134aae2f65c4", "lon": -77.00205666666666, "rental_uris": {"ios": "https://dc.lft.to/lastmile_qr_scan", "android": "https://dc.lft.to/lastmile_qr_scan"}}, {"name": "b656c34babc3179674ed62ce42a3a656", "fusion_lat": 0.0, "type": "electric_scooter", "lat": 38.87784633333333, "is_reserved": 0, "is_disabled": 0, "fusion_lon": 0.0, "bike_id": "b656c34babc3179674ed62ce42a3a656", "lon": -76.99412933333333, "rental_uris": {"ios": "https://dc.lft.to/lastmile_qr_scan", "android": "https://dc.lft.to/lastmile_qr_scan"}}, {"name": "53ac622d75abd91e1c804203f20b8c90", "fusion_lat": 0.0, "type": "electric_scooter", "lat": 38.866936, "is_reserved": 0, "is_disabled": 0, "fusion_lon": 0.0, "bike_id": "53ac622d75abd91e1c804203f20b8c90", "lon": -76.98907, "rental_uris": {"ios": "https://dc.lft.to/lastmile_qr_scan", "android": "https://dc.lft.to/lastmile_qr_scan"}}, {"name": "9fe37aeedd34cb918966e24166094e3a", "fusion_lat": 0.0, "type": "electric_scooter", "lat": 38.906761833333334, "is_reserved": 0, "is_disabled": 0, "fusion_lon": 0.0, "bike_id": "9fe37aeedd34cb918966e24166094e3a", "lon": -77.0384025, "rental_uris": {"ios": "https://dc.lft.to/lastmile_qr_scan", "android": "https://dc.lft.to/lastmile_qr_scan"}}, {"name": "cf2292540e32b876cad0a0a05ed2eddb", "fusion_lat": 0.0, "type": "electric_scooter", "lat": 38.876619833333336, "is_reserved": 0, "is_disabled": 0, "fusion_lon": 0.0, "bike_id": "cf2292540e32b876cad0a0a05ed2eddb", "lon": -77.0007405, "rental_uris": {"ios": "https://dc.lft.to/lastmile_qr_scan", "android": "https://dc.lft.to/lastmile_qr_scan"}}, {"name": "4f8deed6bfff8afc9c167756162f8c46", "fusion_lat": 0.0, "type": "electric_scooter", "lat": 38.8654005, "is_reserved": 0, "is_disabled": 0, "fusion_lon": 0.0, "bike_id": "4f8deed6bfff8afc9c167756162f8c46", "lon": -76.98710183333333, "rental_uris": {"ios": "https://dc.lft.to/lastmile_qr_scan", "android": "https://dc.lft.to/lastmile_qr_scan"}}, {"name": "12157fc487111983a38ac3c3da3cd973", "fusion_lat": 0.0, "type": "electric_scooter", "lat": 38.90271333333333, "is_reserved": 0, "is_disabled": 0, "fusion_lon": 0.0, "bike_id": "12157fc487111983a38ac3c3da3cd973", "lon": -76.98716133333333, "rental_uris": {"ios": "https://dc.lft.to/lastmile_qr_scan", "android": "https://dc.lft.to/lastmile_qr_scan"}}, {"name": "bf34a56856ed10d91201df855e4fc2b3", "fusion_lat": 0.0, "type": "electric_bike", "lat": 39.053096833333335, "is_reserved": 0, "is_disabled": 0, "fusion_lon": 0.0, "bike_id": "bf34a56856ed10d91201df855e4fc2b3", "lon": -77.0477495, "rental_uris": {"ios": "https://dc.lft.to/lastmile_qr_scan", "android": "https://dc.lft.to/lastmile_qr_scan"}}, {"name": "baa03e8a93374dc14b2bdbb61752c36b", "fusion_lat": 0.0, "type": "electric_bike", "lat": 39.08858816666667, "is_reserved": 0, "is_disabled": 0, "fusion_lon": 0.0, "bike_id": "baa03e8a93374dc14b2bdbb61752c36b", "lon": -77.1784895, "rental_uris": {"ios": "https://dc.lft.to/lastmile_qr_scan", "android": "https://dc.lft.to/lastmile_qr_scan"}}, {"name": "3bdfa705a826b2f6b1ca761e015e05a5", "fusion_lat": 0.0, "type": "electric_scooter", "lat": 38.907045, "is_reserved": 0, "is_disabled": 0, "fusion_lon": 0.0, "bike_id": "3bdfa705a826b2f6b1ca761e015e05a5", "lon": -77.0296175, "rental_uris": {"ios": "https://dc.lft.to/lastmile_qr_scan", "android": "https://dc.lft.to/lastmile_qr_scan"}}, {"name": "475114b2b2d36da1b37a30bcfd604cfd", "fusion_lat": 0.0, "type": "electric_bike", "lat": 38.935202833333335, "is_reserved": 0, "is_disabled": 0, "fusion_lon": 0.0, "bike_id": "475114b2b2d36da1b37a30bcfd604cfd", "lon": -76.95063733333333, "rental_uris": {"ios": "https://dc.lft.to/lastmile_qr_scan", "android": "https://dc.lft.to/lastmile_qr_scan"}}, {"name": "28583c5989aabb8a36594042a6f71bea", "fusion_lat": 0.0, "type": "electric_scooter", "lat": 38.922355, "is_reserved": 0, "is_disabled": 0, "fusion_lon": 0.0, "bike_id": "28583c5989aabb8a36594042a6f71bea", "lon": -77.02990233333334, "rental_uris": {"ios": "https://dc.lft.to/lastmile_qr_scan", "android": "https://dc.lft.to/lastmile_qr_scan"}}, {"name": "01f18b3c8cfcad40f1a08acafbecaf9b", "fusion_lat": 0.0, "type": "electric_scooter", "lat": 38.90032266666667, "is_reserved": 0, "is_disabled": 0, "fusion_lon": 0.0, "bike_id": "01f18b3c8cfcad40f1a08acafbecaf9b", "lon": -77.0118645, "rental_uris": {"ios": "https://dc.lft.to/lastmile_qr_scan", "android": "https://dc.lft.to/lastmile_qr_scan"}}, {"name": "f727e46f647378302af1f2ee6718b979", "fusion_lat": 0.0, "type": "electric_scooter", "lat": 38.90272433333333, "is_reserved": 0, "is_disabled": 0, "fusion_lon": 0.0, "bike_id": "f727e46f647378302af1f2ee6718b979", "lon": -77.04588766666667, "rental_uris": {"ios": "https://dc.lft.to/lastmile_qr_scan", "android": "https://dc.lft.to/lastmile_qr_scan"}}, {"name": "8bfc5e711df9c41363b271ae1dd76e90", "fusion_lat": 0.0, "type": "electric_scooter", "lat": 38.92014433333333, "is_reserved": 0, "is_disabled": 0, "fusion_lon": 0.0, "bike_id": "8bfc5e711df9c41363b271ae1dd76e90", "lon": -77.03189933333333, "rental_uris": {"ios": "https://dc.lft.to/lastmile_qr_scan", "android": "https://dc.lft.to/lastmile_qr_scan"}}, {"name": "2f990438b7fb8db1c311506868adc30c", "fusion_lat": 0.0, "type": "electric_scooter", "lat": 38.90029283333333, "is_reserved": 0, "is_disabled": 0, "fusion_lon": 0.0, "bike_id": "2f990438b7fb8db1c311506868adc30c", "lon": -76.99866883333334, "rental_uris": {"ios": "https://dc.lft.to/lastmile_qr_scan", "android": "https://dc.lft.to/lastmile_qr_scan"}}, {"name": "c905e916b7819ac6f4dbfd10563629f2", "fusion_lat": 0.0, "type": "electric_scooter", "lat": 38.919183333333336, "is_reserved": 0, "is_disabled": 0, "fusion_lon": 0.0, "bike_id": "c905e916b7819ac6f4dbfd10563629f2", "lon": -77.0240755, "rental_uris": {"ios": "https://dc.lft.to/lastmile_qr_scan", "android": "https://dc.lft.to/lastmile_qr_scan"}}, {"name": "caf5cb6ed100215f9a9f81fab89b82ed", "fusion_lat": 0.0, "type": "electric_scooter", "lat": 38.865395166666666, "is_reserved": 0, "is_disabled": 0, "fusion_lon": 0.0, "bike_id": "caf5cb6ed100215f9a9f81fab89b82ed", "lon": -76.98709266666667, "rental_uris": {"ios": "https://dc.lft.to/lastmile_qr_scan", "android": "https://dc.lft.to/lastmile_qr_scan"}}, {"name": "74b03330cd44f1bd6fb13a770119824a", "fusion_lat": 0.0, "type": "electric_scooter", "lat": 38.929018666666664, "is_reserved": 0, "is_disabled": 0, "fusion_lon": 0.0, "bike_id": "74b03330cd44f1bd6fb13a770119824a", "lon": -77.00527833333334, "rental_uris": {"ios": "https://dc.lft.to/lastmile_qr_scan", "android": "https://dc.lft.to/lastmile_qr_scan"}}, {"name": "88787a4a10a6201e6eba2090217048ec", "fusion_lat": 0.0, "type": "electric_scooter", "lat": 38.911946, "is_reserved": 0, "is_disabled": 0, "fusion_lon": 0.0, "bike_id": "88787a4a10a6201e6eba2090217048ec", "lon": -77.03445783333333, "rental_uris": {"ios": "https://dc.lft.to/lastmile_qr_scan", "android": "https://dc.lft.to/lastmile_qr_scan"}}, {"name": "8874e3419b9e31d73e4b0e91c7a1a819", "fusion_lat": 0.0, "type": "electric_scooter", "lat": 38.914152, "is_reserved": 0, "is_disabled": 0, "fusion_lon": 0.0, "bike_id": "8874e3419b9e31d73e4b0e91c7a1a819", "lon": -77.02132683333333, "rental_uris": {"ios": "https://dc.lft.to/lastmile_qr_scan", "android": "https://dc.lft.to/lastmile_qr_scan"}}, {"name": "7209c0d40b5de21b3c67be27369d5291", "fusion_lat": 0.0, "type": "electric_scooter", "lat": 38.91538666666667, "is_reserved": 0, "is_disabled": 0, "fusion_lon": 0.0, "bike_id": "7209c0d40b5de21b3c67be27369d5291", "lon": -77.03855183333333, "rental_uris": {"ios": "https://dc.lft.to/lastmile_qr_scan", "android": "https://dc.lft.to/lastmile_qr_scan"}}, {"name": "94b6af5b8023fd1757f3bf52ec36f1b1", "fusion_lat": 0.0, "type": "electric_scooter", "lat": 38.902734833333334, "is_reserved": 0, "is_disabled": 0, "fusion_lon": 0.0, "bike_id": "94b6af5b8023fd1757f3bf52ec36f1b1", "lon": -77.03001633333334, "rental_uris": {"ios": "https://dc.lft.to/lastmile_qr_scan", "android": "https://dc.lft.to/lastmile_qr_scan"}}, {"name": "2644dc111948dcd7c87bd58e9dbe0322", "fusion_lat": 0.0, "type": "electric_bike", "lat": 39.1056455, "is_reserved": 0, "is_disabled": 0, "fusion_lon": 0.0, "bike_id": "2644dc111948dcd7c87bd58e9dbe0322", "lon": -77.15268866666666, "rental_uris": {"ios": "https://dc.lft.to/lastmile_qr_scan", "android": "https://dc.lft.to/lastmile_qr_scan"}}, {"name": "9ad531eece6286bf7d3125552ff7b945", "fusion_lat": 0.0, "type": "electric_scooter", "lat": 38.900528666666666, "is_reserved": 0, "is_disabled": 0, "fusion_lon": 0.0, "bike_id": "9ad531eece6286bf7d3125552ff7b945", "lon": -77.02192316666667, "rental_uris": {"ios": "https://dc.lft.to/lastmile_qr_scan", "android": "https://dc.lft.to/lastmile_qr_scan"}}, {"name": "0657109ee0265c5159871f70774041a4", "fusion_lat": 0.0, "type": "electric_scooter", "lat": 38.9167525, "is_reserved": 0, "is_disabled": 0, "fusion_lon": 0.0, "bike_id": "0657109ee0265c5159871f70774041a4", "lon": -77.02976066666666, "rental_uris": {"ios": "https://dc.lft.to/lastmile_qr_scan", "android": "https://dc.lft.to/lastmile_qr_scan"}}, {"name": "7633b0cdb5f67818f37d4163f1b78753", "fusion_lat": 0.0, "type": "electric_scooter", "lat": 38.89610116666667, "is_reserved": 0, "is_disabled": 0, "fusion_lon": 0.0, "bike_id": "7633b0cdb5f67818f37d4163f1b78753", "lon": -77.02378966666667, "rental_uris": {"ios": "https://dc.lft.to/lastmile_qr_scan", "android": "https://dc.lft.to/lastmile_qr_scan"}}, {"name": "ef0bd40b6680700a0ebb4c36868c974f", "fusion_lat": 0.0, "type": "electric_scooter", "lat": 38.895367, "is_reserved": 0, "is_disabled": 0, "fusion_lon": 0.0, "bike_id": "ef0bd40b6680700a0ebb4c36868c974f", "lon": -76.94936066666666, "rental_uris": {"ios": "https://dc.lft.to/lastmile_qr_scan", "android": "https://dc.lft.to/lastmile_qr_scan"}}, {"name": "f9c828a7e01575d9ee9a05d17f004bc0", "fusion_lat": 0.0, "type": "electric_scooter", "lat": 38.90575783333333, "is_reserved": 0, "is_disabled": 0, "fusion_lon": 0.0, "bike_id": "f9c828a7e01575d9ee9a05d17f004bc0", "lon": -77.01429516666667, "rental_uris": {"ios": "https://dc.lft.to/lastmile_qr_scan", "android": "https://dc.lft.to/lastmile_qr_scan"}}, {"name": "38e594d0745dcc4e11e795497feb222d", "fusion_lat": 0.0, "type": "electric_bike", "lat": 38.923018666666664, "is_reserved": 0, "is_disabled": 0, "fusion_lon": 0.0, "bike_id": "38e594d0745dcc4e11e795497feb222d", "lon": -76.99385466666666, "rental_uris": {"ios": "https://dc.lft.to/lastmile_qr_scan", "android": "https://dc.lft.to/lastmile_qr_scan"}}, {"name": "80858d1e18b2e1bf24426c3034ad81c2", "fusion_lat": 0.0, "type": "electric_scooter", "lat": 38.906650666666664, "is_reserved": 0, "is_disabled": 0, "fusion_lon": 0.0, "bike_id": "80858d1e18b2e1bf24426c3034ad81c2", "lon": -77.02704133333333, "rental_uris": {"ios": "https://dc.lft.to/lastmile_qr_scan", "android": "https://dc.lft.to/lastmile_qr_scan"}}, {"name": "08d032b398b060e099b3ae3b1472c837", "fusion_lat": 0.0, "type": "electric_scooter", "lat": 38.8764595, "is_reserved": 0, "is_disabled": 0, "fusion_lon": 0.0, "bike_id": "08d032b398b060e099b3ae3b1472c837", "lon": -76.965039, "rental_uris": {"ios": "https://dc.lft.to/lastmile_qr_scan", "android": "https://dc.lft.to/lastmile_qr_scan"}}, {"name": "32836ea4a2008409d1a5a638d6d4d76e", "fusion_lat": 0.0, "type": "electric_scooter", "lat": 38.89600433333333, "is_reserved": 0, "is_disabled": 0, "fusion_lon": 0.0, "bike_id": "32836ea4a2008409d1a5a638d6d4d76e", "lon": -77.0411305, "rental_uris": {"ios": "https://dc.lft.to/lastmile_qr_scan", "android": "https://dc.lft.to/lastmile_qr_scan"}}, {"name": "9b5ae81f512178c2bcc274aee33a064b", "fusion_lat": 0.0, "type": "electric_bike", "lat": 38.895574333333336, "is_reserved": 0, "is_disabled": 0, "fusion_lon": 0.0, "bike_id": "9b5ae81f512178c2bcc274aee33a064b", "lon": -77.12733133333333, "rental_uris": {"ios": "https://dc.lft.to/lastmile_qr_scan", "android": "https://dc.lft.to/lastmile_qr_scan"}}, {"name": "0db19e5a7da8b46f9b63777ffece4697", "fusion_lat": 0.0, "type": "electric_scooter", "lat": 38.896651, "is_reserved": 0, "is_disabled": 0, "fusion_lon": 0.0, "bike_id": "0db19e5a7da8b46f9b63777ffece4697", "lon": -77.0489445, "rental_uris": {"ios": "https://dc.lft.to/lastmile_qr_scan", "android": "https://dc.lft.to/lastmile_qr_scan"}}, {"name": "3994ee3f86018ccf6431bac0ff12ab26", "fusion_lat": 0.0, "type": "electric_scooter", "lat": 38.949764, "is_reserved": 0, "is_disabled": 0, "fusion_lon": 0.0, "bike_id": "3994ee3f86018ccf6431bac0ff12ab26", "lon": -77.03501583333333, "rental_uris": {"ios": "https://dc.lft.to/lastmile_qr_scan", "android": "https://dc.lft.to/lastmile_qr_scan"}}, {"name": "db64d8018a17ef3074563a6b12e7212d", "fusion_lat": 0.0, "type": "electric_scooter", "lat": 38.924271833333336, "is_reserved": 0, "is_disabled": 0, "fusion_lon": 0.0, "bike_id": "db64d8018a17ef3074563a6b12e7212d", "lon": -77.05194533333334, "rental_uris": {"ios": "https://dc.lft.to/lastmile_qr_scan", "android": "https://dc.lft.to/lastmile_qr_scan"}}, {"name": "6d731e562ea711f95bbb840087a75b54", "fusion_lat": 0.0, "type": "electric_scooter", "lat": 38.89224983333333, "is_reserved": 0, "is_disabled": 0, "fusion_lon": 0.0, "bike_id": "6d731e562ea711f95bbb840087a75b54", "lon": -77.045012, "rental_uris": {"ios": "https://dc.lft.to/lastmile_qr_scan", "android": "https://dc.lft.to/lastmile_qr_scan"}}, {"name": "828deed4d5285d0742c964ee93695631", "fusion_lat": 0.0, "type": "electric_scooter", "lat": 38.904803333333334, "is_reserved": 0, "is_disabled": 0, "fusion_lon": 0.0, "bike_id": "828deed4d5285d0742c964ee93695631", "lon": -77.04142616666667, "rental_uris": {"ios": "https://dc.lft.to/lastmile_qr_scan", "android": "https://dc.lft.to/lastmile_qr_scan"}}, {"name": "ec02df3a4b547a5d52153179104c078c", "fusion_lat": 0.0, "type": "electric_bike", "lat": 38.95359833333333, "is_reserved": 0, "is_disabled": 0, "fusion_lon": 0.0, "bike_id": "ec02df3a4b547a5d52153179104c078c", "lon": -77.08864216666667, "rental_uris": {"ios": "https://dc.lft.to/lastmile_qr_scan", "android": "https://dc.lft.to/lastmile_qr_scan"}}, {"name": "374818a44d9a813b5e5b097421b4a00c", "fusion_lat": 0.0, "type": "electric_scooter", "lat": 38.89539516666667, "is_reserved": 0, "is_disabled": 0, "fusion_lon": 0.0, "bike_id": "374818a44d9a813b5e5b097421b4a00c", "lon": -77.03103116666666, "rental_uris": {"ios": "https://dc.lft.to/lastmile_qr_scan", "android": "https://dc.lft.to/lastmile_qr_scan"}}, {"name": "11453757f963cd1dadaa17bcf22e28e1", "fusion_lat": 0.0, "type": "electric_scooter", "lat": 38.909681, "is_reserved": 0, "is_disabled": 0, "fusion_lon": 0.0, "bike_id": "11453757f963cd1dadaa17bcf22e28e1", "lon": -77.04484316666667, "rental_uris": {"ios": "https://dc.lft.to/lastmile_qr_scan", "android": "https://dc.lft.to/lastmile_qr_scan"}}, {"name": "479851abe6bd58c25367ef3fcc37e8e9", "fusion_lat": 0.0, "type": "electric_scooter", "lat": 38.91937083333333, "is_reserved": 0, "is_disabled": 0, "fusion_lon": 0.0, "bike_id": "479851abe6bd58c25367ef3fcc37e8e9", "lon": -77.02368366666667, "rental_uris": {"ios": "https://dc.lft.to/lastmile_qr_scan", "android": "https://dc.lft.to/lastmile_qr_scan"}}, {"name": "591d3ef206a9485ac642f9cfe6653250", "fusion_lat": 0.0, "type": "electric_scooter", "lat": 38.90280816666667, "is_reserved": 0, "is_disabled": 0, "fusion_lon": 0.0, "bike_id": "591d3ef206a9485ac642f9cfe6653250", "lon": -77.03181183333334, "rental_uris": {"ios": "https://dc.lft.to/lastmile_qr_scan", "android": "https://dc.lft.to/lastmile_qr_scan"}}, {"name": "da95cae29425153345693d7187fedaeb", "fusion_lat": 0.0, "type": "electric_scooter", "lat": 38.904670833333334, "is_reserved": 0, "is_disabled": 0, "fusion_lon": 0.0, "bike_id": "da95cae29425153345693d7187fedaeb", "lon": -77.04167483333333, "rental_uris": {"ios": "https://dc.lft.to/lastmile_qr_scan", "android": "https://dc.lft.to/lastmile_qr_scan"}}, {"name": "98ee8f77723f1e9de2596e3ee313d5ad", "fusion_lat": 0.0, "type": "electric_scooter", "lat": 38.897315666666664, "is_reserved": 0, "is_disabled": 0, "fusion_lon": 0.0, "bike_id": "98ee8f77723f1e9de2596e3ee313d5ad", "lon": -77.04656016666667, "rental_uris": {"ios": "https://dc.lft.to/lastmile_qr_scan", "android": "https://dc.lft.to/lastmile_qr_scan"}}, {"name": "bc7e67ba2a6ca57941a9f3372c4adc20", "fusion_lat": 0.0, "type": "electric_scooter", "lat": 38.91803316666667, "is_reserved": 0, "is_disabled": 0, "fusion_lon": 0.0, "bike_id": "bc7e67ba2a6ca57941a9f3372c4adc20", "lon": -77.01153666666667, "rental_uris": {"ios": "https://dc.lft.to/lastmile_qr_scan", "android": "https://dc.lft.to/lastmile_qr_scan"}}, {"name": "ce18e6686513cd129744af3184f0aa05", "fusion_lat": 0.0, "type": "electric_scooter", "lat": 38.9250875, "is_reserved": 0, "is_disabled": 0, "fusion_lon": 0.0, "bike_id": "ce18e6686513cd129744af3184f0aa05", "lon": -77.02394966666667, "rental_uris": {"ios": "https://dc.lft.to/lastmile_qr_scan", "android": "https://dc.lft.to/lastmile_qr_scan"}}, {"name": "de6ce159fba644f8eb9e1fdcec0ad68d", "fusion_lat": 0.0, "type": "electric_scooter", "lat": 38.8899025, "is_reserved": 0, "is_disabled": 0, "fusion_lon": 0.0, "bike_id": "de6ce159fba644f8eb9e1fdcec0ad68d", "lon": -77.00124516666666, "rental_uris": {"ios": "https://dc.lft.to/lastmile_qr_scan", "android": "https://dc.lft.to/lastmile_qr_scan"}}, {"name": "bfd5920892f2c0e2aad63961d85d11be", "fusion_lat": 0.0, "type": "electric_scooter", "lat": 38.918732, "is_reserved": 0, "is_disabled": 0, "fusion_lon": 0.0, "bike_id": "bfd5920892f2c0e2aad63961d85d11be", "lon": -77.0734265, "rental_uris": {"ios": "https://dc.lft.to/lastmile_qr_scan", "android": "https://dc.lft.to/lastmile_qr_scan"}}, {"name": "0a56191f6365d93e7814d85d894f6e77", "fusion_lat": 0.0, "type": "electric_scooter", "lat": 38.9483025, "is_reserved": 0, "is_disabled": 0, "fusion_lon": 0.0, "bike_id": "0a56191f6365d93e7814d85d894f6e77", "lon": -77.025549, "rental_uris": {"ios": "https://dc.lft.to/lastmile_qr_scan", "android": "https://dc.lft.to/lastmile_qr_scan"}}, {"name": "a2ef55d617aa40d173e6ebfb72ad163f", "fusion_lat": 0.0, "type": "electric_scooter", "lat": 38.91568183333333, "is_reserved": 0, "is_disabled": 0, "fusion_lon": 0.0, "bike_id": "a2ef55d617aa40d173e6ebfb72ad163f", "lon": -77.0324925, "rental_uris": {"ios": "https://dc.lft.to/lastmile_qr_scan", "android": "https://dc.lft.to/lastmile_qr_scan"}}, {"name": "f94c8b9f35a2ef66b99c0ccc95768f49", "fusion_lat": 0.0, "type": "electric_scooter", "lat": 38.92635816666667, "is_reserved": 0, "is_disabled": 0, "fusion_lon": 0.0, "bike_id": "f94c8b9f35a2ef66b99c0ccc95768f49", "lon": -77.03309166666666, "rental_uris": {"ios": "https://dc.lft.to/lastmile_qr_scan", "android": "https://dc.lft.to/lastmile_qr_scan"}}, {"name": "7a046b17ec523f3536cbda4fe4847522", "fusion_lat": 0.0, "type": "electric_bike", "lat": 38.906771, "is_reserved": 0, "is_disabled": 0, "fusion_lon": 0.0, "bike_id": "7a046b17ec523f3536cbda4fe4847522", "lon": -77.0637265, "rental_uris": {"ios": "https://dc.lft.to/lastmile_qr_scan", "android": "https://dc.lft.to/lastmile_qr_scan"}}, {"name": "a1b0b95efb5cdf070093a0a74de0ea69", "fusion_lat": 0.0, "type": "electric_scooter", "lat": 38.887652, "is_reserved": 0, "is_disabled": 0, "fusion_lon": 0.0, "bike_id": "a1b0b95efb5cdf070093a0a74de0ea69", "lon": -76.9802415, "rental_uris": {"ios": "https://dc.lft.to/lastmile_qr_scan", "android": "https://dc.lft.to/lastmile_qr_scan"}}, {"name": "5053adcd5dc414d862c7d8901a0c5329", "fusion_lat": 0.0, "type": "electric_scooter", "lat": 38.9098015, "is_reserved": 0, "is_disabled": 0, "fusion_lon": 0.0, "bike_id": "5053adcd5dc414d862c7d8901a0c5329", "lon": -77.03855833333333, "rental_uris": {"ios": "https://dc.lft.to/lastmile_qr_scan", "android": "https://dc.lft.to/lastmile_qr_scan"}}, {"name": "8798361f1ebcee77a1810d96d6acf000", "fusion_lat": 0.0, "type": "electric_bike", "lat": 38.87077883333333, "is_reserved": 0, "is_disabled": 0, "fusion_lon": 0.0, "bike_id": "8798361f1ebcee77a1810d96d6acf000", "lon": -77.11054366666667, "rental_uris": {"ios": "https://dc.lft.to/lastmile_qr_scan", "android": "https://dc.lft.to/lastmile_qr_scan"}}, {"name": "b84a949a1c05fb76d42aade25fc3d167", "fusion_lat": 0.0, "type": "electric_scooter", "lat": 38.91764633333333, "is_reserved": 0, "is_disabled": 0, "fusion_lon": 0.0, "bike_id": "b84a949a1c05fb76d42aade25fc3d167", "lon": -77.01764533333333, "rental_uris": {"ios": "https://dc.lft.to/lastmile_qr_scan", "android": "https://dc.lft.to/lastmile_qr_scan"}}, {"name": "012f8c47065fab3bbc7f895d5ab1a87b", "fusion_lat": 0.0, "type": "electric_scooter", "lat": 38.87747733333333, "is_reserved": 0, "is_disabled": 0, "fusion_lon": 0.0, "bike_id": "012f8c47065fab3bbc7f895d5ab1a87b", "lon": -76.97241983333333, "rental_uris": {"ios": "https://dc.lft.to/lastmile_qr_scan", "android": "https://dc.lft.to/lastmile_qr_scan"}}, {"name": "e29f12bfbb07246df4c0f31473d271b4", "fusion_lat": 0.0, "type": "electric_scooter", "lat": 38.9011675, "is_reserved": 0, "is_disabled": 0, "fusion_lon": 0.0, "bike_id": "e29f12bfbb07246df4c0f31473d271b4", "lon": -77.03976816666666, "rental_uris": {"ios": "https://dc.lft.to/lastmile_qr_scan", "android": "https://dc.lft.to/lastmile_qr_scan"}}, {"name": "1a5e791ea01758af67f18bb4e6bef80b", "fusion_lat": 0.0, "type": "electric_scooter", "lat": 38.897308333333335, "is_reserved": 0, "is_disabled": 0, "fusion_lon": 0.0, "bike_id": "1a5e791ea01758af67f18bb4e6bef80b", "lon": -77.04730183333334, "rental_uris": {"ios": "https://dc.lft.to/lastmile_qr_scan", "android": "https://dc.lft.to/lastmile_qr_scan"}}, {"name": "eb9d7afe1f826b27c51d2da869c3e3f7", "fusion_lat": 0.0, "type": "electric_scooter", "lat": 38.928294666666666, "is_reserved": 0, "is_disabled": 0, "fusion_lon": 0.0, "bike_id": "eb9d7afe1f826b27c51d2da869c3e3f7", "lon": -77.03708533333334, "rental_uris": {"ios": "https://dc.lft.to/lastmile_qr_scan", "android": "https://dc.lft.to/lastmile_qr_scan"}}, {"name": "f51fabafdc55e516c7477f3ca1d71006", "fusion_lat": 0.0, "type": "electric_scooter", "lat": 38.892294166666666, "is_reserved": 0, "is_disabled": 0, "fusion_lon": 0.0, "bike_id": "f51fabafdc55e516c7477f3ca1d71006", "lon": -77.05007, "rental_uris": {"ios": "https://dc.lft.to/lastmile_qr_scan", "android": "https://dc.lft.to/lastmile_qr_scan"}}, {"name": "14dda9f2cf4c293e60ff58d9f73e2045", "fusion_lat": 0.0, "type": "electric_scooter", "lat": 38.932629, "is_reserved": 0, "is_disabled": 0, "fusion_lon": 0.0, "bike_id": "14dda9f2cf4c293e60ff58d9f73e2045", "lon": -77.03895483333334, "rental_uris": {"ios": "https://dc.lft.to/lastmile_qr_scan", "android": "https://dc.lft.to/lastmile_qr_scan"}}, {"name": "a2b06377140a657068c2518fc17a7625", "fusion_lat": 0.0, "type": "electric_bike", "lat": 38.903234, "is_reserved": 0, "is_disabled": 0, "fusion_lon": 0.0, "bike_id": "a2b06377140a657068c2518fc17a7625", "lon": -76.97319516666667, "rental_uris": {"ios": "https://dc.lft.to/lastmile_qr_scan", "android": "https://dc.lft.to/lastmile_qr_scan"}}, {"name": "5d16ff4cfbf4af9ec31c6f579ef2e826", "fusion_lat": 0.0, "type": "electric_scooter", "lat": 38.91552766666667, "is_reserved": 0, "is_disabled": 0, "fusion_lon": 0.0, "bike_id": "5d16ff4cfbf4af9ec31c6f579ef2e826", "lon": -77.03184416666667, "rental_uris": {"ios": "https://dc.lft.to/lastmile_qr_scan", "android": "https://dc.lft.to/lastmile_qr_scan"}}, {"name": "94d72c20e1a5bc88645561f4307dd0e7", "fusion_lat": 0.0, "type": "electric_scooter", "lat": 38.90640166666667, "is_reserved": 0, "is_disabled": 0, "fusion_lon": 0.0, "bike_id": "94d72c20e1a5bc88645561f4307dd0e7", "lon": -77.0113685, "rental_uris": {"ios": "https://dc.lft.to/lastmile_qr_scan", "android": "https://dc.lft.to/lastmile_qr_scan"}},