{"data": {"bikes": [{"fusion_lat": 0.0, "name": "e9dff77db132db402767e05c748e164e", "is_disabled": 0, "rental_uris": {"android": "https://dc.lft.to/lastmile_qr_scan", "ios": "https://dc.lft.to/lastmile_qr_scan"}, "fusion_lon": 0.0, "lat": 38.902545333333336, "bike_id": "e9dff77db132db402767e05c748e164e", "type": "electric_scooter", "is_reserved": 0, "lon": -77.039478}, {"fusion_lat": 0.0, "name": "07ed46a943af29468cb8baba229aa647", "is_disabled": 0, "rental_uris": {"android": "https://dc.lft.to/lastmile_qr_scan", "ios": "https://dc.lft.to/lastmile_qr_scan"}, "fusion_lon": 0.0, "lat": 38.962046666666666, "bike_id": "07ed46a943af29468cb8baba229aa647", "type": "electric_scooter", "is_reserved": 0, "lon": -77.0223155}, {"fusion_lat": 0.0, "name": "357c769d3453f660b751a7d6d6952ba4", "is_disabled": 0, "rental_uris": {"android": "https://dc.lft.to/lastmile_qr_scan", "ios": "https://dc.lft.to/lastmile_qr_scan"}, "fusion_lon": 0.0, "lat": 38.92098266666667, "bike_id": "357c769d3453f660b751a7d6d6952ba4", "type": "electric_scooter", "is_reserved": 0, "lon": -77.02229533333333}, {"fusion_lat": 0.0, "name": "da460abef02a3571832d6d44bc816c05", "is_disabled": 0, "rental_uris": {"android": "https://dc.lft.to/lastmile_qr_scan", "ios": "https://dc.lft.to/lastmile_qr_scan"}, "fusion_lon": 0.0, "lat": 38.8873675, "bike_id": "da460abef02a3571832d6d44bc816c05", "type": "electric_scooter", "is_reserved": 0, "lon": -77.03217883333333}, {"fusion_lat": 0.0, "name": "cd2b13fa8d21a3f049b4abddc180ff76", "is_disabled": 0, "rental_uris": {"android": "https://dc.lft.to/lastmile_qr_scan", "ios": "https://dc.lft.to/lastmile_qr_scan"}, "fusion_lon": 0.0, "lat": 38.99778, "bike_id": "cd2b13fa8d21a3f049b4abddc180ff76", "type": "electric_bike", "is_reserved": 0, "lon": -77.047221}, {"fusion_lat": 0.0, "name": "abad3c3e194355afbfd888d80c59486d", "is_disabled": 0, "rental_uris": {"android": "https://dc.lft.to/lastmile_qr_scan", "ios": "https://dc.lft.to/lastmile_qr_scan"}, "fusion_lon": 0.0, "lat": 38.89615383333334, "bike_id": "abad3c3e194355afbfd888d80c59486d", "type": "electric_scooter", "is_reserved": 0, "lon": -77.03166166666666}, {"fusion_lat": 0.0, "name": "37baec6b8c1e1a862f6ab1fa3cf46d5b", "is_disabled": 0, "rental_uris": {"android": "https://dc.lft.to/lastmile_qr_scan", "ios": "https://dc.lft.to/lastmile_qr_scan"}, "fusion_lon": 0.0, "lat": 38.933929, "bike_id": "37baec6b8c1e1a862f6ab1fa3cf46d5b", "type": "electric_scooter", "is_reserved": 0, "lon": -77.05744183333333}, {"fusion_lat": 0.0, "name": "5c236fe4faf94b8e8a7506fd4c438ea3", "is_disabled": 0, "rental_uris": {"android": "https://dc.lft.to/lastmile_qr_scan", "ios": "https://dc.lft.to/lastmile_qr_scan"}, "fusion_lon": 0.0, "lat": 38.905837, "bike_id": "5c236fe4faf94b8e8a7506fd4c438ea3", "type": "electric_scooter", "is_reserved": 0, "lon": -77.03864433333334}, {"fusion_lat": 0.0, "name": "fed8785947c1b7cec645fc45d53fadc1", "is_disabled": 0, "rental_uris": {"android": "https://dc.lft.to/lastmile_qr_scan", "ios": "https://dc.lft.to/lastmile_qr_scan"}, "fusion_lon": 0.0, "lat": 38.938574333333335, "bike_id": "fed8785947c1b7cec645fc45d53fadc1", "type": "electric_scooter", "is_reserved": 0, "lon": -77.02327516666666}, {"fusion_lat": 0.0, "name": "cb2378fdf8860a4b3a69fcb4e0185189", "is_disabled": 0, "rental_uris": {"android": "https://dc.lft.to/lastmile_qr_scan", "ios": "https://dc.lft.to/lastmile_qr_scan"}, "fusion_lon": 0.0, "lat": 38.902892666666666, "bike_id": "cb2378fdf8860a4b3a69fcb4e0185189", "type": "electric_scooter", "is_reserved": 0, "lon": -76.976318}, {"fusion_lat": 0.0, "name": "e7cf20cb3680156bc9f14bc3b5d917f0", "is_disabled": 0, "rental_uris": {"android": "https://dc.lft.to/lastmile_qr_scan", "ios": "https://dc.lft.to/lastmile_qr_scan"}, "fusion_lon": 0.0, "lat": 38.94155116666667, "bike_id": "e7cf20cb3680156bc9f14bc3b5d917f0", "type": "electric_scooter", "is_reserved": 0, "lon": -77.02630216666667}, {"fusion_lat": 0.0, "name": "97b5bbb36ca80dd432d51ea25ef14028", "is_disabled": 0, "rental_uris": {"android": "https://dc.lft.to/lastmile_qr_scan", "ios": "https://dc.lft.to/lastmile_qr_scan"}, "fusion_lon": 0.0, "lat": 38.91993466666667, "bike_id": "97b5bbb36ca80dd432d51ea25ef14028", "type": "electric_scooter", "is_reserved": 0, "lon": -77.02177366666666}, {"fusion_lat": 0.0, "name": "85f3ba7bcbc168c137c33310146e84e2", "is_disabled": 0, "rental_uris": {"android": "https://dc.lft.to/lastmile_qr_scan", "ios": "https://dc.lft.to/lastmile_qr_scan"}, "fusion_lon": 0.0, "lat": 38.903028, "bike_id": "85f3ba7bcbc168c137c33310146e84e2", "type": "electric_bike", "is_reserved": 0, "lon": -76.976553}, {"fusion_lat": 0.0, "name": "abbefc29477a40042983d2dea976061f", "is_disabled": 0, "rental_uris": {"android": "https://dc.lft.to/lastmile_qr_scan", "ios": "https://dc.lft.to/lastmile_qr_scan"}, "fusion_lon": 0.0, "lat": 38.917584166666664, "bike_id": "abbefc29477a40042983d2dea976061f", "type": "electric_scooter", "is_reserved": 0, "lon": -77.0240895}, {"fusion_lat": 0.0, "name": "0fc3e3d4ed1214ee7a73117104793374", "is_disabled": 0, "rental_uris": {"android": "https://dc.lft.to/lastmile_qr_scan", "ios": "https://dc.lft.to/lastmile_qr_scan"}, "fusion_lon": 0.0, "lat": 38.90563216666666, "bike_id": "0fc3e3d4ed1214ee7a73117104793374", "type": "electric_scooter", "is_reserved": 0, "lon": -77.03057783333334}, {"fusion_lat": 0.0, "name": "c75d675a2fe87f28d2aca987d4c3c049", "is_disabled": 0, "rental_uris": {"android": "https://dc.lft.to/lastmile_qr_scan", "ios": "https://dc.lft.to/lastmile_qr_scan"}, "fusion_lon": 0.0, "lat": 38.94625116666667, "bike_id": "c75d675a2fe87f28d2aca987d4c3c049", "type": "electric_scooter", "is_reserved": 0, "lon": -77.03292483333334}, {"fusion_lat": 0.0, "name": "ab6aab3a55cf025849f5c5de255abce2", "is_disabled": 0, "rental_uris": {"android": "https://dc.lft.to/lastmile_qr_scan", "ios": "https://dc.lft.to/lastmile_qr_scan"}, "fusion_lon": 0.0, "lat": 38.9030925, "bike_id": "ab6aab3a55cf025849f5c5de255abce2", "type": "electric_scooter", "is_reserved": 0, "lon": -76.9780365}, {"fusion_lat": 0.0, "name": "01ccd0d1f889abbd3689987c7f613c96", "is_disabled": 0, "rental_uris": {"android": "https://dc.lft.to/lastmile_qr_scan", "ios": "https://dc.lft.to/lastmile_qr_scan"}, "fusion_lon": 0.0, "lat": 38.8835555, "bike_id": "01ccd0d1f889abbd3689987c7f613c96", "type": "electric_scooter", "is_reserved": 0, "lon": -76.99497083333333}, {"fusion_lat": 0.0, "name": "0f3eccee4439c075b237702a0431b740", "is_disabled": 0, "rental_uris": {"android": "https://dc.lft.to/lastmile_qr_scan", "ios": "https://dc.lft.to/lastmile_qr_scan"}, "fusion_lon": 0.0, "lat": 38.85512083333333, "bike_id": "0f3eccee4439c075b237702a0431b740", "type": "electric_bike", "is_reserved": 0, "lon": -77.10541666666667}, {"fusion_lat": 0.0, "name": "01b0a7fc8f363f1fc7cb81c0b52daab0", "is_disabled": 0, "rental_uris": {"android": "https://dc.lft.to/lastmile_qr_scan", "ios": "https://dc.lft.to/lastmile_qr_scan"}, "fusion_lon": 0.0, "lat": 38.888706166666665, "bike_id": "01b0a7fc8f363f1fc7cb81c0b52daab0", "type": "electric_scooter", "is_reserved": 0, "lon": -76.9845515}, {"fusion_lat": 0.0, "name": "3f0838a78ccb742f312b594aff36d272", "is_disabled": 0, "rental_uris": {"android": "https://dc.lft.to/lastmile_qr_scan", "ios": "https://dc.lft.to/lastmile_qr_scan"}, "fusion_lon": 0.0, "lat": 38.91966883333333, "bike_id": "3f0838a78ccb742f312b594aff36d272", "type": "electric_scooter", "is_reserved": 0, "lon": -77.00110833333333}, {"fusion_lat": 0.0, "name": "9fc567478c332fb58884c57800c52a93", "is_disabled": 0, "rental_uris": {"android": "https://dc.lft.to/lastmile_qr_scan", "ios": "https://dc.lft.to/lastmile_qr_scan"}, "fusion_lon": 0.0, "lat": 38.90182166666666, "bike_id": "9fc567478c332fb58884c57800c52a93", "type": "electric_scooter", "is_reserved": 0, "lon": -76.9289905}, {"fusion_lat": 0.0, "name": "7b38d628ab023e7b84d4bed55308ea14", "is_disabled": 0, "rental_uris": {"android": "https://dc.lft.to/lastmile_qr_scan", "ios": "https://dc.lft.to/lastmile_qr_scan"}, "fusion_lon": 0.0, "lat": 38.88646633333333, "bike_id": "7b38d628ab023e7b84d4bed55308ea14", "type": "electric_scooter", "is_reserved": 0, "lon": -76.92588116666667}, {"fusion_lat": 0.0, "name": "1a65631a9e53f22a8b0ded37f5e3a042", "is_disabled": 0, "rental_uris": {"android": "https://dc.lft.to/lastmile_qr_scan", "ios": "https://dc.lft.to/lastmile_qr_scan"}, "fusion_lon": 0.0, "lat": 38.90716966666667, "bike_id": "1a65631a9e53f22a8b0ded37f5e3a042", "type": "electric_scooter", "is_reserved": 0, "lon": -77.025427}, {"fusion_lat": 0.0, "name": "1f75900df59d7994a974f88cd84d22f1", "is_disabled": 0, "rental_uris": {"android": "https://dc.lft.to/lastmile_qr_scan", "ios": "https://dc.lft.to/lastmile_qr_scan"}, "fusion_lon": 0.0, "lat": 38.920442333333334, "bike_id": "1f75900df59d7994a974f88cd84d22f1", "type": "electric_scooter", "is_reserved": 0, "lon": -77.002074}, {"fusion_lat": 0.0, "name": "300bad50db0887e1c41fba35710638b7", "is_disabled": 0, "rental_uris": {"android": "https://dc.lft.to/lastmile_qr_scan", "ios": "https://dc.lft.to/lastmile_qr_scan"}, "fusion_lon": 0.0, "lat": 38.92827366666667, "bike_id": "300bad50db0887e1c41fba35710638b7", "type": "electric_scooter", "is_reserved": 0, "lon": -77.054403}, {"fusion_lat": 0.0, "name": "9a0ed79f5627fe41e8f8dbb77e560003", "is_disabled": 0, "rental_uris": {"android": "https://dc.lft.to/lastmile_qr_scan", "ios": "https://dc.lft.to/lastmile_qr_scan"}, "fusion_lon": 0.0, "lat": 38.8921875, "bike_id": "9a0ed79f5627fe41e8f8dbb77e560003", "type": "electric_scooter", "is_reserved": 0, "lon": -77.03990266666666}, {"fusion_lat": 0.0, "name": "af6e4dec00feed7f2513f69a1e7b1e8b", "is_disabled": 0, "rental_uris": {"android": "https://dc.lft.to/lastmile_qr_scan", "ios": "https://dc.lft.to/lastmile_qr_scan"}, "fusion_lon": 0.0, "lat": 38.9369365, "bike_id": "af6e4dec00feed7f2513f69a1e7b1e8b", "type": "electric_scooter", "is_reserved": 0, "lon": -77.03265816666666}, {"fusion_lat": 0.0, "name": "94a641a3b190eb3cb8ee735df56592ce", "is_disabled": 0, "rental_uris": {"android": "https://dc.lft.to/lastmile_qr_scan", "ios": "https://dc.lft.to/lastmile_qr_scan"}, "fusion_lon": 0.0, "lat": 38.87578283333333, "bike_id": "94a641a3b190eb3cb8ee735df56592ce", "type": "electric_bike", "is_reserved": 0, "lon": -77.23407316666666}, {"fusion_lat": 0.0, "name": "cfeb251104f7535e10f516c823c5b1c9", "is_disabled": 0, "rental_uris": {"android": "https://dc.lft.to/lastmile_qr_scan", "ios": "https://dc.lft.to/lastmile_qr_scan"}, "fusion_lon": 0.0, "lat": 38.92132483333334, "bike_id": "cfeb251104f7535e10f516c823c5b1c9", "type": "electric_scooter", "is_reserved": 0, "lon": -77.01801416666666}, {"fusion_lat": 0.0, "name": "088e9b0051c436f0b9f1545016c3b241", "is_disabled": 0, "rental_uris": {"android": "https://dc.lft.to/lastmile_qr_scan", "ios": "https://dc.lft.to/lastmile_qr_scan"}, "fusion_lon": 0.0, "lat": 38.898286, "bike_id": "088e9b0051c436f0b9f1545016c3b241", "type": "electric_scooter", "is_reserved": 0, "lon": -76.94653983333333}, {"fusion_lat": 0.0, "name": "025ff7fbfadb0e6eeb976417accbb424", "is_disabled": 0, "rental_uris": {"android": "https://dc.lft.to/lastmile_qr_scan", "ios": "https://dc.lft.to/lastmile_qr_scan"}, "fusion_lon": 0.0, "lat": 38.9170505, "bike_id": "025ff7fbfadb0e6eeb976417accbb424", "type": "electric_scooter", "is_reserved": 0, "lon": -77.03237033333333}, {"fusion_lat": 0.0, "name": "826466cf39e8db3038d7868230d143b7", "is_disabled": 0, "rental_uris": {"android": "https://dc.lft.to/lastmile_qr_scan", "ios": "https://dc.lft.to/lastmile_qr_scan"}, "fusion_lon": 0.0, "lat": 38.919479833333334, "bike_id": "826466cf39e8db3038d7868230d143b7", "type": "electric_scooter", "is_reserved": 0, "lon": -77.02491866666666}, {"fusion_lat": 0.0, "name": "79d79e99e69eaf2195d5e613bdcd349a", "is_disabled": 0, "rental_uris": {"android": "https://dc.lft.to/lastmile_qr_scan", "ios": "https://dc.lft.to/lastmile_qr_scan"}, "fusion_lon": 0.0, "lat": 38.896149666666666, "bike_id": "79d79e99e69eaf2195d5e613bdcd349a", "type": "electric_scooter", "is_reserved": 0, "lon": -77.03244916666667}, {"fusion_lat": 0.0, "name": "010ed7dc669fe66881a50b8eda03336e", "is_disabled": 0, "rental_uris": {"android": "https://dc.lft.to/lastmile_qr_scan", "ios": "https://dc.lft.to/lastmile_qr_scan"}, "fusion_lon": 0.0, "lat": 38.899119, "bike_id": "010ed7dc669fe66881a50b8eda03336e", "type": "electric_scooter", "is_reserved": 0, "lon": -76.93347083333333}, {"fusion_lat": 0.0, "name": "fcca178dca62f05f178f700b0d2d1d2e", "is_disabled": 0, "rental_uris": {"android": "https://dc.lft.to/lastmile_qr_scan", "ios": "https://dc.lft.to/lastmile_qr_scan"}, "fusion_lon": 0.0, "lat": 38.95052483333333, "bike_id": "fcca178dca62f05f178f700b0d2d1d2e", "type": "electric_scooter", "is_reserved": 0, "lon": -77.08027333333334}, {"fusion_lat": 0.0, "name": "a555148ebe925bde024a07c3dfa3e814", "is_disabled": 0, "rental_uris": {"android": "https://dc.lft.to/lastmile_qr_scan", "ios": "https://dc.lft.to/lastmile_qr_scan"}, "fusion_lon": 0.0, "lat": 38.907848, "bike_id": "a555148ebe925bde024a07c3dfa3e814", "type": "electric_scooter", "is_reserved": 0, "lon": -77.04355033333333}, {"fusion_lat": 0.0, "name": "a245a1114a5b5c4aab68f0ef099cf5cb", "is_disabled": 0, "rental_uris": {"android": "https://dc.lft.to/lastmile_qr_scan", "ios": "https://dc.lft.to/lastmile_qr_scan"}, "fusion_lon": 0.0, "lat": 38.892208833333335, "bike_id": "a245a1114a5b5c4aab68f0ef099cf5cb", "type": "electric_scooter", "is_reserved": 0, "lon": -77.0468385}, {"fusion_lat": 0.0, "name": "00b33df139714d53f7186afa443ecde0", "is_disabled": 0, "rental_uris": {"android": "https://dc.lft.to/lastmile_qr_scan", "ios": "https://dc.lft.to/lastmile_qr_scan"}, "fusion_lon": 0.0, "lat": 38.885222, "bike_id": "00b33df139714d53f7186afa443ecde0", "type": "electric_scooter", "is_reserved": 0, "lon": -76.92915083333334}, {"fusion_lat": 0.0, "name": "d6684fd327c0e8e81f4fa9f2d628e8f0", "is_disabled": 0, "rental_uris": {"android": "https://dc.lft.to/lastmile_qr_scan", "ios": "https://dc.lft.to/lastmile_qr_scan"}, "fusion_lon": 0.0, "lat": 38.892198, "bike_id": "d6684fd327c0e8e81f4fa9f2d628e8f0", "type": "electric_scooter", "is_reserved": 0, "lon": -77.0334295}, {"fusion_lat": 0.0, "name": "2c067c0a5d1144a1953335eafac866e9", "is_disabled": 0, "rental_uris": {"android": "https://dc.lft.to/lastmile_qr_scan", "ios": "https://dc.lft.to/lastmile_qr_scan"}, "fusion_lon": 0.0, "lat": 38.91913816666667, "bike_id": "2c067c0a5d1144a1953335eafac866e9", "type": "electric_scooter", "is_reserved": 0, "lon": -77.03346866666666}, {"fusion_lat": 0.0, "name": "35e334a549436cc9721366ce3c3d94a4", "is_disabled": 0, "rental_uris": {"android": "https://dc.lft.to/lastmile_qr_scan", "ios": "https://dc.lft.to/lastmile_qr_scan"}, "fusion_lon": 0.0, "lat": 38.922234833333334, "bike_id": "35e334a549436cc9721366ce3c3d94a4", "type": "electric_scooter", "is_reserved": 0, "lon": -77.04140616666666}, {"fusion_lat": 0.0, "name": "38c285829a2d8ae9f05c7af5770659dd", "is_disabled": 0, "rental_uris": {"android": "https://dc.lft.to/lastmile_qr_scan", "ios": "https://dc.lft.to/lastmile_qr_scan"}, "fusion_lon": 0.0, "lat": 38.9283975, "bike_id": "38c285829a2d8ae9f05c7af5770659dd", "type": "electric_scooter", "is_reserved": 0, "lon": -76.997618}, {"fusion_lat": 0.0, "name": "83890e0c7238e7dfadd3257125f8eba8", "is_disabled": 0, "rental_uris": {"android": "https://dc.lft.to/lastmile_qr_scan", "ios": "https://dc.lft.to/lastmile_qr_scan"}, "fusion_lon": 0.0, "lat": 38.92042816666667, "bike_id": "83890e0c7238e7dfadd3257125f8eba8", "type": "electric_bike", "is_reserved": 0, "lon": -77.03027583333333}, {"fusion_lat": 0.0, "name": "977263499eac339f49d74f036e9ea36a", "is_disabled": 0, "rental_uris": {"android": "https://dc.lft.to/lastmile_qr_scan", "ios": "https://dc.lft.to/lastmile_qr_scan"}, "fusion_lon": 0.0, "lat": 38.898345666666664, "bike_id": "977263499eac339f49d74f036e9ea36a", "type": "electric_scooter", "is_reserved": 0, "lon": -77.0284715}, {"fusion_lat": 0.0, "name": "d92be012d193ae7aa3707b099c0097b1", "is_disabled": 0, "rental_uris": {"android": "https://dc.lft.to/lastmile_qr_scan", "ios": "https://dc.lft.to/lastmile_qr_scan"}, "fusion_lon": 0.0, "lat": 38.92355583333333, "bike_id": "d92be012d193ae7aa3707b099c0097b1", "type": "electric_scooter", "is_reserved": 0, "lon": -77.01954683333334}, {"fusion_lat": 0.0, "name": "b217b6f7257536178391399e63de4bd5", "is_disabled": 0, "rental_uris": {"android": "https://dc.lft.to/lastmile_qr_scan", "ios": "https://dc.lft.to/lastmile_qr_scan"}, "fusion_lon": 0.0, "lat": 38.92397833333333, "bike_id": "b217b6f7257536178391399e63de4bd5", "type": "electric_scooter", "is_reserved": 0, "lon": -77.03640816666666}, {"fusion_lat": 0.0, "name": "709337865aaa61d8652b22f4f0b098e3", "is_disabled": 0, "rental_uris": {"android": "https://dc.lft.to/lastmile_qr_scan", "ios": "https://dc.lft.to/lastmile_qr_scan"}, "fusion_lon": 0.0, "lat": 38.9201965, "bike_id": "709337865aaa61d8652b22f4f0b098e3", "type": "electric_scooter", "is_reserved": 0, "lon": -77.02807333333334}, {"fusion_lat": 0.0, "name": "92030d2b444738301976d361f6cc5305", "is_disabled": 0, "rental_uris": {"android": "https://dc.lft.to/lastmile_qr_scan", "ios": "https://dc.lft.to/lastmile_qr_scan"}, "fusion_lon": 0.0, "lat": 38.944721333333334, "bike_id": "92030d2b444738301976d361f6cc5305", "type": "electric_scooter", "is_reserved": 0, "lon": -77.02358966666667}, {"fusion_lat": 0.0, "name": "b1e2b4a380f2b71bf33899ad0b745105", "is_disabled": 0, "rental_uris": {"android": "https://dc.lft.to/lastmile_qr_scan", "ios": "https://dc.lft.to/lastmile_qr_scan"}, "fusion_lon": 0.0, "lat": 39.01073516666667, "bike_id": "b1e2b4a380f2b71bf33899ad0b745105", "type": "electric_bike", "is_reserved": 0, "lon": -76.91066066666667}, {"fusion_lat": 0.0, "name": "1f85176bcabd7103a2d07bb100f27a49", "is_disabled": 0, "rental_uris": {"android": "https://dc.lft.to/lastmile_qr_scan", "ios": "https://dc.lft.to/lastmile_qr_scan"}, "fusion_lon": 0.0, "lat": 38.90974083333333, "bike_id": "1f85176bcabd7103a2d07bb100f27a49", "type": "electric_bike", "is_reserved": 0, "lon": -77.0450065}, {"fusion_lat": 0.0, "name": "4ce59d0d46cdad29e478c48fc7efe04e", "is_disabled": 0, "rental_uris": {"android": "https://dc.lft.to/lastmile_qr_scan", "ios": "https://dc.lft.to/lastmile_qr_scan"}, "fusion_lon": 0.0, "lat": 38.897454333333336, "bike_id": "4ce59d0d46cdad29e478c48fc7efe04e", "type": "electric_scooter", "is_reserved": 0, "lon": -77.02210833333334}, {"fusion_lat": 0.0, "name": "99c92417ae3ed2cad761584598aeaf5e", "is_disabled": 0, "rental_uris": {"android": "https://dc.lft.to/lastmile_qr_scan", "ios": "https://dc.lft.to/lastmile_qr_scan"}, "fusion_lon": 0.0, "lat": 38.90155566666667, "bike_id": "99c92417ae3ed2cad761584598aeaf5e", "type": "electric_scooter", "is_reserved": 0, "lon": -77.03323183333333}, {"fusion_lat": 0.0, "name": "8243fd69c849a84891f8d8085f00abe4", "is_disabled": 0, "rental_uris": {"android": "https://dc.lft.to/lastmile_qr_scan", "ios": "https://dc.lft.to/lastmile_qr_scan"}, "fusion_lon": 0.0, "lat": 38.948309, "bike_id": "8243fd69c849a84891f8d8085f00abe4", "type": "electric_scooter", "is_reserved": 0, "lon": -77.025666}, {"fusion_lat": 0.0, "name": "6efd4ba1348e7221343e1dba22630ebd", "is_disabled": 0, "rental_uris": {"android": "https://dc.lft.to/lastmile_qr_scan", "ios": "https://dc.lft.to/lastmile_qr_scan"}, "fusion_lon": 0.0, "lat": 38.9380145, "bike_id": "6efd4ba1348e7221343e1dba22630ebd", "type": "electric_scooter", "is_reserved": 0, "lon": -77.068656}, {"fusion_lat": 0.0, "name": "46265d05afa6bcd1fb86b796dea140a2", "is_disabled": 0, "rental_uris": {"android": "https://dc.lft.to/lastmile_qr_scan", "ios": "https://dc.lft.to/lastmile_qr_scan"}, "fusion_lon": 0.0, "lat": 38.92415533333333, "bike_id": "46265d05afa6bcd1fb86b796dea140a2", "type": "electric_scooter", "is_reserved": 0, "lon": -77.02004583333333}, {"fusion_lat": 0.0, "name": "8ae4cb5cb3948ea252e7a71d2a1b6a5a", "is_disabled": 0, "rental_uris": {"android": "https://dc.lft.to/lastmile_qr_scan", "ios": "https://dc.lft.to/lastmile_qr_scan"}, "fusion_lon": 0.0, "lat": 38.922381, "bike_id": "8ae4cb5cb3948ea252e7a71d2a1b6a5a", "type": "electric_bike", "is_reserved": 0, "lon": -77.02268016666666}, {"fusion_lat": 0.0, "name": "9f86c84317bcb08a9b1a2718a124ea88", "is_disabled": 0, "rental_uris": {"android": "https://dc.lft.to/lastmile_qr_scan", "ios": "https://dc.lft.to/lastmile_qr_scan"}, "fusion_lon": 0.0, "lat": 38.90304066666667, "bike_id": "9f86c84317bcb08a9b1a2718a124ea88", "type": "electric_scooter", "is_reserved": 0, "lon": -77.0602485}, {"fusion_lat": 0.0, "name": "035decdd2643eb6186c9d7dbbac0f156", "is_disabled": 0, "rental_uris": {"android": "https://dc.lft.to/lastmile_qr_scan", "ios": "https://dc.lft.to/lastmile_qr_scan"}, "fusion_lon": 0.0, "lat": 38.90974766666667, "bike_id": "035decdd2643eb6186c9d7dbbac0f156", "type": "electric_scooter", "is_reserved": 0, "lon": -77.02692983333333}, {"fusion_lat": 0.0, "name": "1d560557d7d49491e068e30207b1d777", "is_disabled": 0, "rental_uris": {"android": "https://dc.lft.to/lastmile_qr_scan", "ios": "https://dc.lft.to/lastmile_qr_scan"}, "fusion_lon": 0.0, "lat": 38.9072125, "bike_id": "1d560557d7d49491e068e30207b1d777", "type": "electric_scooter", "is_reserved": 0, "lon": -77.06897516666666}, {"fusion_lat": 0.0, "name": "f7d983c66e7b521b27678b5d5d73f024", "is_disabled": 0, "rental_uris": {"android": "https://dc.lft.to/lastmile_qr_scan", "ios": "https://dc.lft.to/lastmile_qr_scan"}, "fusion_lon": 0.0, "lat": 38.89837383333333, "bike_id": "f7d983c66e7b521b27678b5d5d73f024", "type": "electric_scooter", "is_reserved": 0, "lon": -77.02416983333333}, {"fusion_lat": 0.0, "name": "6453a839d5b5fb4b147cf97c2fb5bd2a", "is_disabled": 0, "rental_uris": {"android": "https://dc.lft.to/lastmile_qr_scan", "ios": "https://dc.lft.to/lastmile_qr_scan"}, "fusion_lon": 0.0, "lat": 38.88666116666667, "bike_id": "6453a839d5b5fb4b147cf97c2fb5bd2a", "type": "electric_scooter", "is_reserved": 0, "lon": -77.02825366666667}, {"fusion_lat": 0.0, "name": "120b73efd508f4d760f20f58f021a791", "is_disabled": 0, "rental_uris": {"android": "https://dc.lft.to/lastmile_qr_scan", "ios": "https://dc.lft.to/lastmile_qr_scan"}, "fusion_lon": 0.0, "lat": 38.949647166666665, "bike_id": "120b73efd508f4d760f20f58f021a791", "type": "electric_scooter", "is_reserved": 0, "lon": -77.06635583333333}, {"fusion_lat": 0.0, "name": "c162bbd547898b3a475e805358408b00", "is_disabled": 0, "rental_uris": {"android": "https://dc.lft.to/lastmile_qr_scan", "ios": "https://dc.lft.to/lastmile_qr_scan"}, "fusion_lon": 0.0, "lat": 38.87638316666666, "bike_id": "c162bbd547898b3a475e805358408b00", "type": "electric_scooter", "is_reserved": 0, "lon": -77.0065115}, {"fusion_lat": 0.0, "name": "c436d81e014fdb902876ba2f64a7ff68", "is_disabled": 0, "rental_uris": {"android": "https://dc.lft.to/lastmile_qr_scan", "ios": "https://dc.lft.to/lastmile_qr_scan"}, "fusion_lon": 0.0, "lat": 38.81987766666666, "bike_id": "c436d81e014fdb902876ba2f64a7ff68", "type": "electric_bike", "is_reserved": 0, "lon": -76.9976975}, {"fusion_lat": 0.0, "name": "2ebc457e049ecb65b2953dd716a060ed", "is_disabled": 0, "rental_uris": {"android": "https://dc.lft.to/lastmile_qr_scan", "ios": "https://dc.lft.to/lastmile_qr_scan"}, "fusion_lon": 0.0, "lat": 38.91556683333334, "bike_id": "2ebc457e049ecb65b2953dd716a060ed", "type": "electric_scooter", "is_reserved": 0, "lon": -77.03472983333333}, {"fusion_lat": 0.0, "name": "a9cc671b66f427d4d06920cb595623b5", "is_disabled": 0, "rental_uris": {"android": "https://dc.lft.to/lastmile_qr_scan", "ios": "https://dc.lft.to/lastmile_qr_scan"}, "fusion_lon": 0.0, "lat": 38.866253, "bike_id": "a9cc671b66f427d4d06920cb595623b5", "type": "electric_scooter", "is_reserved": 0, "lon": -76.98717566666667}, {"fusion_lat": 0.0, "name": "f77ee7b7e5191a69f49e2f3103ab4111", "is_disabled": 0, "rental_uris": {"android": "https://dc.lft.to/lastmile_qr_scan", "ios": "https://dc.lft.to/lastmile_qr_scan"}, "fusion_lon": 0.0, "lat": 38.950527, "bike_id": "f77ee7b7e5191a69f49e2f3103ab4111", "type": "electric_scooter", "is_reserved": 0, "lon": -77.08025783333333}, {"fusion_lat": 0.0, "name": "f62df46ee36e6d2fe9f19e6a47c26d39", "is_disabled": 0, "rental_uris": {"android": "https://dc.lft.to/lastmile_qr_scan", "ios": "https://dc.lft.to/lastmile_qr_scan"}, "fusion_lon": 0.0, "lat": 38.892248333333335, "bike_id": "f62df46ee36e6d2fe9f19e6a47c26d39", "type": "electric_scooter", "is_reserved": 0, "lon": -77.033397}, {"fusion_lat": 0.0, "name": "12acc421626499bdbd0e52b94c11209f", "is_disabled": 0, "rental_uris": {"android": "https://dc.lft.to/lastmile_qr_scan", "ios": "https://dc.lft.to/lastmile_qr_scan"}, "fusion_lon": 0.0, "lat": 38.917254666666665, "bike_id": "12acc421626499bdbd0e52b94c11209f", "type": "electric_scooter", "is_reserved": 0, "lon": -77.04159916666667}, {"fusion_lat": 0.0, "name": "04d36cede78bed004002dad5120c6bfe", "is_disabled": 0, "rental_uris": {"android": "https://dc.lft.to/lastmile_qr_scan", "ios": "https://dc.lft.to/lastmile_qr_scan"}, "fusion_lon": 0.0, "lat": 38.89607516666667, "bike_id": "04d36cede78bed004002dad5120c6bfe", "type": "electric_scooter", "is_reserved": 0, "lon": -77.009278}, {"fusion_lat": 0.0, "name": "44879402345cca627a1cc8d448cef8fe", "is_disabled": 0, "rental_uris": {"android": "https://dc.lft.to/lastmile_qr_scan", "ios": "https://dc.lft.to/lastmile_qr_scan"}, "fusion_lon": 0.0, "lat": 38.8987335, "bike_id": "44879402345cca627a1cc8d448cef8fe", "type": "electric_scooter", "is_reserved": 0, "lon": -76.93183766666667}, {"fusion_lat": 0.0, "name": "0738d0c9087756ddef823e5dfd2027c6", "is_disabled": 0, "rental_uris": {"android": "https://dc.lft.to/lastmile_qr_scan", "ios": "https://dc.lft.to/lastmile_qr_scan"}, "fusion_lon": 0.0, "lat": 38.88601166666667, "bike_id": "0738d0c9087756ddef823e5dfd2027c6", "type": "electric_scooter", "is_reserved": 0, "lon": -77.0451275}, {"fusion_lat": 0.0, "name": "1506c0b1190e91b678de0fb77cf75c41", "is_disabled": 0, "rental_uris": {"android": "https://dc.lft.to/lastmile_qr_scan", "ios": "https://dc.lft.to/lastmile_qr_scan"}, "fusion_lon": 0.0, "lat": 38.917108, "bike_id": "1506c0b1190e91b678de0fb77cf75c41", "type": "electric_scooter", "is_reserved": 0, "lon": -77.03659716666667}, {"fusion_lat": 0.0, "name": "56667547baa966df3df8b0d1670184a6", "is_disabled": 0, "rental_uris": {"android": "https://dc.lft.to/lastmile_qr_scan", "ios": "https://dc.lft.to/lastmile_qr_scan"}, "fusion_lon": 0.0, "lat": 38.90461616666666, "bike_id": "56667547baa966df3df8b0d1670184a6", "type": "electric_scooter", "is_reserved": 0, "lon": -77.01767183333334}, {"fusion_lat": 0.0, "name": "dc1f087b7733985388cb4bc1ed214fa0", "is_disabled": 0, "rental_uris": {"android": "https://dc.lft.to/lastmile_qr_scan", "ios": "https://dc.lft.to/lastmile_qr_scan"}, "fusion_lon": 0.0, "lat": 38.924000166666666, "bike_id": "dc1f087b7733985388cb4bc1ed214fa0", "type": "electric_scooter", "is_reserved": 0, "lon": -77.02487066666667}, {"fusion_lat": 0.0, "name": "9e935701d1eda1eca8cddfa6ba86d4f6", "is_disabled": 0, "rental_uris": {"android": "https://dc.lft.to/lastmile_qr_scan", "ios": "https://dc.lft.to/lastmile_qr_scan"}, "fusion_lon": 0.0, "lat": 38.8770685, "bike_id": "9e935701d1eda1eca8cddfa6ba86d4f6", "type": "electric_scooter", "is_reserved": 0, "lon": -76.99381616666666}, {"fusion_lat": 0.0, "name": "d36efbd51747b17e69d6bf96f2a1ceec", "is_disabled": 0, "rental_uris": {"android": "https://dc.lft.to/lastmile_qr_scan", "ios": "https://dc.lft.to/lastmile_qr_scan"}, "fusion_lon": 0.0, "lat": 38.92779733333333, "bike_id": "d36efbd51747b17e69d6bf96f2a1ceec", "type": "electric_scooter", "is_reserved": 0, "lon": -77.0528665}, {"fusion_lat": 0.0, "name": "d298de5dfd203488d4400fe6330d8813", "is_disabled": 0, "rental_uris": {"android": "https://dc.lft.to/lastmile_qr_scan", "ios": "https://dc.lft.to/lastmile_qr_scan"}, "fusion_lon": 0.0, "lat": 38.88612366666667, "bike_id": "d298de5dfd203488d4400fe6330d8813", "type": "electric_scooter", "is_reserved": 0, "lon": -77.01558383333334}, {"fusion_lat": 0.0, "name": "0688eac5384166abd70130c9617de094", "is_disabled": 0, "rental_uris": {"android": "https://dc.lft.to/lastmile_qr_scan", "ios": "https://dc.lft.to/lastmile_qr_scan"}, "fusion_lon": 0.0, "lat": 38.898489, "bike_id": "0688eac5384166abd70130c9617de094", "type": "electric_scooter", "is_reserved": 0, "lon": -76.990328}, {"fusion_lat": 0.0, "name": "ff92db388df04bcdf6ce56316700d119", "is_disabled": 0, "rental_uris": {"android": "https://dc.lft.to/lastmile_qr_scan", "ios": "https://dc.lft.to/lastmile_qr_scan"}, "fusion_lon": 0.0, "lat": 38.883000333333335, "bike_id": "ff92db388df04bcdf6ce56316700d119", "type": "electric_scooter", "is_reserved": 0, "lon": -76.948538}, {"fusion_lat": 0.0, "name": "a8e2ea54929525554cae777ce670cffd", "is_disabled": 0, "rental_uris": {"android": "https://dc.lft.to/lastmile_qr_scan", "ios": "https://dc.lft.to/lastmile_qr_scan"}, "fusion_lon": 0.0, "lat": 38.903747, "bike_id": "a8e2ea54929525554cae777ce670cffd", "type": "electric_scooter", "is_reserved": 0, "lon": -77.03302166666667}, {"fusion_lat": 0.0, "name": "e4bc96ea2148231c2ce39ce407f60896", "is_disabled": 0, "rental_uris": {"android": "https://dc.lft.to/lastmile_qr_scan", "ios": "https://dc.lft.to/lastmile_qr_scan"}, "fusion_lon": 0.0, "lat": 38.924702833333335, "bike_id": "e4bc96ea2148231c2ce39ce407f60896", "type": "electric_scooter", "is_reserved": 0, "lon": -77.028896}, {"fusion_lat": 0.0, "name": "9020536bbe7707ae51799bc8d32a2d7f", "is_disabled": 0, "rental_uris": {"android": "https://dc.lft.to/lastmile_qr_scan", "ios": "https://dc.lft.to/lastmile_qr_scan"}, "fusion_lon": 0.0, "lat": 39.07053, "bike_id": "9020536bbe7707ae51799bc8d32a2d7f", "type": "electric_bike", "is_reserved": 0, "lon": -77.11485933333333}, {"fusion_lat": 0.0, "name": "85f97ef13e5aa5079588833b727a6937", "is_disabled": 0, "rental_uris": {"android": "https://dc.lft.to/lastmile_qr_scan", "ios": "https://dc.lft.to/lastmile_qr_scan"}, "fusion_lon": 0.0, "lat": 38.94533233333333, "bike_id": "85f97ef13e5aa5079588833b727a6937", "type": "electric_scooter", "is_reserved": 0, "lon": -77.0253195}, {"fusion_lat": 0.0, "name": "d7e1d9ad3200f9cef81a55ec5193527d", "is_disabled": 0, "rental_uris": {"android": "https://dc.lft.to/lastmile_qr_scan", "ios": "https://dc.lft.to/lastmile_qr_scan"}, "fusion_lon": 0.0, "lat": 38.90435566666667, "bike_id": "d7e1d9ad3200f9cef81a55ec5193527d", "type": "electric_scooter", "is_reserved": 0, "lon": -77.02234733333333}, {"fusion_lat": 0.0, "name": "7314732decfe53128ac64ce1f66ea165", "is_disabled": 0, "rental_uris": {"android": "https://dc.lft.to/lastmile_qr_scan", "ios": "https://dc.lft.to/lastmile_qr_scan"}, "fusion_lon": 0.0, "lat": 38.905863833333335, "bike_id": "7314732decfe53128ac64ce1f66ea165", "type": "electric_scooter", "is_reserved": 0, "lon": -77.03861783333333}, {"fusion_lat": 0.0, "name": "62a28c21b3567965941067d85620c534", "is_disabled": 0, "rental_uris": {"android": "https://dc.lft.to/lastmile_qr_scan", "ios": "https://dc.lft.to/lastmile_qr_scan"}, "fusion_lon": 0.0, "lat": 38.919838, "bike_id": "62a28c21b3567965941067d85620c534", "type": "electric_scooter", "is_reserved": 0, "lon": -77.023946}, {"fusion_lat": 0.0, "name": "1f4d7e3fbb4d81a0e2a9ebc55698c562", "is_disabled": 0, "rental_uris": {"android": "https://dc.lft.to/lastmile_qr_scan", "ios": "https://dc.lft.to/lastmile_qr_scan"}, "fusion_lon": 0.0, "lat": 38.88763683333333, "bike_id": "1f4d7e3fbb4d81a0e2a9ebc55698c562", "type": "electric_scooter", "is_reserved": 0, "lon": -76.98352066666666}, {"fusion_lat": 0.0, "name": "694a9d7810e64bdbb3bf59f464e3c191", "is_disabled": 0, "rental_uris": {"android": "https://dc.lft.to/lastmile_qr_scan", "ios": "https://dc.lft.to/lastmile_qr_scan"}, "fusion_lon": 0.0, "lat": 38.908780166666666, "bike_id": "694a9d7810e64bdbb3bf59f464e3c191", "type": "electric_scooter", "is_reserved": 0, "lon": -77.03465183333333}, {"fusion_lat": 0.0, "name": "a22cb48ba5f964375094aba075c1f7be", "is_disabled": 0, "rental_uris": {"android": "https://dc.lft.to/lastmile_qr_scan", "ios": "https://dc.lft.to/lastmile_qr_scan"}, "fusion_lon": 0.0, "lat": 38.898374, "bike_id": "a22cb48ba5f964375094aba075c1f7be", "type": "electric_scooter", "is_reserved": 0, "lon": -77.0331815}, {"fusion_lat": 0.0, "name": "df33e7f2fcbba94e288e8b2de8cfc031", "is_disabled": 0, "rental_uris": {"android": "https://dc.lft.to/lastmile_qr_scan", "ios": "https://dc.lft.to/lastmile_qr_scan"}, "fusion_lon": 0.0, "lat": 38.91944933333333, "bike_id": "df33e7f2fcbba94e288e8b2de8cfc031", "type": "electric_scooter", "is_reserved": 0, "lon": -77.02483783333334}, {"fusion_lat": 0.0, "name": "ba1bdab2dfd5c3b32e36e41553aba54f", "is_disabled": 0, "rental_uris": {"android": "https://dc.lft.to/lastmile_qr_scan", "ios": "https://dc.lft.to/lastmile_qr_scan"}, "fusion_lon": 0.0, "lat": 38.90732933333334, "bike_id": "ba1bdab2dfd5c3b32e36e41553aba54f", "type": "electric_scooter", "is_reserved": 0, "lon": -77.0386005}, {"fusion_lat": 0.0, "name": "9167fda4405b6089fd0ebf6bb3d57fd7", "is_disabled": 0, "rental_uris": {"android": "https://dc.lft.to/lastmile_qr_scan", "ios": "https://dc.lft.to/lastmile_qr_scan"}, "fusion_lon": 0.0, "lat": 38.88059616666666, "bike_id": "9167fda4405b6089fd0ebf6bb3d57fd7", "type": "electric_scooter", "is_reserved": 0, "lon": -76.93217016666667}, {"fusion_lat": 0.0, "name": "aa714689107386ce94e61308e395a495", "is_disabled": 0, "rental_uris": {"android": "https://dc.lft.to/lastmile_qr_scan", "ios": "https://dc.lft.to/lastmile_qr_scan"}, "fusion_lon": 0.0, "lat": 38.92551983333333, "bike_id": "aa714689107386ce94e61308e395a495", "type": "electric_scooter", "is_reserved": 0, "lon": -77.02283216666666}, {"fusion_lat": 0.0, "name": "b092bdb17a2f00c4619f3c07efad34d2", "is_disabled": 0, "rental_uris": {"android": "https://dc.lft.to/lastmile_qr_scan", "ios": "https://dc.lft.to/lastmile_qr_scan"}, "fusion_lon": 0.0, "lat": 38.909574, "bike_id": "b092bdb17a2f00c4619f3c07efad34d2", "type": "electric_bike", "is_reserved": 0, "lon": -77.22895033333333}, {"fusion_lat": 0.0, "name": "86ddf5dc2ab548ccc17b58b284c11955", "is_disabled": 0, "rental_uris": {"android": "https://dc.lft.to/lastmile_qr_scan", "ios": "https://dc.lft.to/lastmile_qr_scan"}, "fusion_lon": 0.0, "lat": 38.8796075, "bike_id": "86ddf5dc2ab548ccc17b58b284c11955", "type": "electric_scooter", "is_reserved": 0, "lon": -77.00619483333334}, {"fusion_lat": 0.0, "name": "5f3c62bef363469bf5a312c04e8f5d06", "is_disabled": 0, "rental_uris": {"android": "https://dc.lft.to/lastmile_qr_scan", "ios": "https://dc.lft.to/lastmile_qr_scan"}, "fusion_lon": 0.0, "lat": 38.93240733333333, "bike_id": "5f3c62bef363469bf5a312c04e8f5d06", "type": "electric_scooter", "is_reserved": 0, "lon": -77.04065}, {"fusion_lat": 0.0, "name": "6205336b5918d8bd23005a748e7ca89b", "is_disabled": 0, "rental_uris": {"android": "https://dc.lft.to/lastmile_qr_scan", "ios": "https://dc.lft.to/lastmile_qr_scan"}, "fusion_lon": 0.0, "lat": 38.9348895, "bike_id": "6205336b5918d8bd23005a748e7ca89b", "type": "electric_scooter", "is_reserved": 0, "lon": -77.0307795}, {"fusion_lat": 0.0, "name": "492ffbf4d1509adaf82943b3647e2f7e", "is_disabled": 0, "rental_uris": {"android": "https://dc.lft.to/lastmile_qr_scan", "ios": "https://dc.lft.to/lastmile_qr_scan"}, "fusion_lon": 0.0, "lat": 38.924985666666664, "bike_id": "492ffbf4d1509adaf82943b3647e2f7e", "type": "electric_scooter", "is_reserved": 0, "lon": -77.03807566666667}, {"fusion_lat": 0.0, "name": "ea33375634784adedf9b4ab41003ddff", "is_disabled": 0, "rental_uris": {"android": "https://dc.lft.to/lastmile_qr_scan", "ios": "https://dc.lft.to/lastmile_qr_scan"}, "fusion_lon": 0.0, "lat": 38.892209666666666, "bike_id": "ea33375634784adedf9b4ab41003ddff", "type": "electric_scooter", "is_reserved": 0, "lon": -77.04398433333333}, {"fusion_lat": 0.0, "name": "55279e56a20ccfa2907f809f74a00d94", "is_disabled": 0, "rental_uris": {"android": "https://dc.lft.to/lastmile_qr_scan", "ios": "https://dc.lft.to/lastmile_qr_scan"}, "fusion_lon": 0.0, "lat": 38.89764616666667, "bike_id": "55279e56a20ccfa2907f809f74a00d94", "type": "electric_scooter", "is_reserved": 0, "lon": -77.0089775}, {"fusion_lat": 0.0, "name": "b97f6214f91b5fa2e929e624396f5f02", "is_disabled": 0, "rental_uris": {"android": "https://dc.lft.to/lastmile_qr_scan", "ios": "https://dc.lft.to/lastmile_qr_scan"}, "fusion_lon": 0.0, "lat": 38.88478583333333, "bike_id": "b97f6214f91b5fa2e929e624396f5f02", "type": "electric_scooter", "is_reserved": 0, "lon": -77.00595083333333}, {"fusion_lat": 0.0, "name": "0003461891fce49723166219a7ab5c6c", "is_disabled": 0, "rental_uris": {"android": "https://dc.lft.to/lastmile_qr_scan", "ios": "https://dc.lft.to/lastmile_qr_scan"}, "fusion_lon": 0.0, "lat": 38.90956966666667, "bike_id": "0003461891fce49723166219a7ab5c6c", "type": "electric_scooter", "is_reserved": 0, "lon": -77.035484}, {"fusion_lat": 0.0, "name": "b761327799c8bf4af4ed5f40d1d5dc39", "is_disabled": 0, "rental_uris": {"android": "https://dc.lft.to/lastmile_qr_scan", "ios": "https://dc.lft.to/lastmile_qr_scan"}, "fusion_lon": 0.0, "lat": 38.93349416666667, "bike_id": "b761327799c8bf4af4ed5f40d1d5dc39", "type": "electric_scooter", "is_reserved": 0, "lon": -77.02388066666667}, {"fusion_lat": 0.0, "name": "b03a60470c2a03ddb9797be8c7608a2b", "is_disabled": 0, "rental_uris": {"android": "https://dc.lft.to/lastmile_qr_scan", "ios": "https://dc.lft.to/lastmile_qr_scan"}, "fusion_lon": 0.0, "lat": 38.950662666666666, "bike_id": "b03a60470c2a03ddb9797be8c7608a2b", "type": "electric_bike", "is_reserved": 0, "lon": -77.072242}, {"fusion_lat": 0.0, "name": "eac377e8f35b2fcadc3a2f0903413ac7", "is_disabled": 0, "rental_uris": {"android": "https://dc.lft.to/lastmile_qr_scan", "ios": "https://dc.lft.to/lastmile_qr_scan"}, "fusion_lon": 0.0, "lat": 38.91649533333333, "bike_id": "eac377e8f35b2fcadc3a2f0903413ac7", "type": "electric_scooter", "is_reserved": 0, "lon": -77.03694083333333}, {"fusion_lat": 0.0, "name": "8a4254bb1f9ff6666f2a7b64c27828af", "is_disabled": 0, "rental_uris": {"android": "https://dc.lft.to/lastmile_qr_scan", "ios": "https://dc.lft.to/lastmile_qr_scan"}, "fusion_lon": 0.0, "lat": 38.9097095, "bike_id": "8a4254bb1f9ff6666f2a7b64c27828af", "type": "electric_scooter", "is_reserved": 0, "lon": -77.0218645}, {"fusion_lat": 0.0, "name": "61ed3cccef8a5711a5cc6d94de06e45f", "is_disabled": 0, "rental_uris": {"android": "https://dc.lft.to/lastmile_qr_scan", "ios": "https://dc.lft.to/lastmile_qr_scan"}, "fusion_lon": 0.0, "lat": 38.9587435, "bike_id": "61ed3cccef8a5711a5cc6d94de06e45f", "type": "electric_bike", "is_reserved": 0, "lon": -76.97059683333333}, {"fusion_lat": 0.0, "name": "493914b4e2f22651e4a948db4395bea0", "is_disabled": 0, "rental_uris": {"android": "https://dc.lft.to/lastmile_qr_scan", "ios": "https://dc.lft.to/lastmile_qr_scan"}, "fusion_lon": 0.0, "lat": 38.913196, "bike_id": "493914b4e2f22651e4a948db4395bea0", "type": "electric_scooter", "is_reserved": 0, "lon": -77.0296055}, {"fusion_lat": 0.0, "name": "05d8e5ae432f38456964f9cc7204abf8", "is_disabled": 0, "rental_uris": {"android": "https://dc.lft.to/lastmile_qr_scan", "ios": "https://dc.lft.to/lastmile_qr_scan"}, "fusion_lon": 0.0, "lat": 38.926647, "bike_id": "05d8e5ae432f38456964f9cc7204abf8", "type": "electric_bike", "is_reserved": 0, "lon": -77.09851033333334}, {"fusion_lat": 0.0, "name": "d24f6f31d1f076ba5e07c1e7773d3fec", "is_disabled": 0, "rental_uris": {"android": "https://dc.lft.to/lastmile_qr_scan", "ios": "https://dc.lft.to/lastmile_qr_scan"}, "fusion_lon": 0.0, "lat": 38.92085316666667, "bike_id": "d24f6f31d1f076ba5e07c1e7773d3fec", "type": "electric_scooter", "is_reserved": 0, "lon": -77.07375016666667}, {"fusion_lat": 0.0, "name": "8ccbcc605228161ee2ea288f3e43b0af", "is_disabled": 0, "rental_uris": {"android": "https://dc.lft.to/lastmile_qr_scan", "ios": "https://dc.lft.to/lastmile_qr_scan"}, "fusion_lon": 0.0, "lat": 38.90011283333333, "bike_id": "8ccbcc605228161ee2ea288f3e43b0af", "type": "electric_scooter", "is_reserved": 0, "lon": -77.04486883333334}, {"fusion_lat": 0.0, "name": "3062e98bca99445c2d4f51a145d70ffb", "is_disabled": 0, "rental_uris": {"android": "https://dc.lft.to/lastmile_qr_scan", "ios": "https://dc.lft.to/lastmile_qr_scan"}, "fusion_lon": 0.0, "lat": 38.8923955, "bike_id": "3062e98bca99445c2d4f51a145d70ffb", "type": "electric_scooter", "is_reserved": 0, "lon": -77.032018}, {"fusion_lat": 0.0, "name": "7dcc700e3c5d49f0b4be36e2f2e469ba", "is_disabled": 0, "rental_uris": {"android": "https://dc.lft.to/lastmile_qr_scan", "ios": "https://dc.lft.to/lastmile_qr_scan"}, "fusion_lon": 0.0, "lat": 38.92071966666666, "bike_id": "7dcc700e3c5d49f0b4be36e2f2e469ba", "type": "electric_scooter", "is_reserved": 0, "lon": -77.023237}, {"fusion_lat": 0.0, "name": "f8367f7aaeeb458229b428c236a9890e", "is_disabled": 0, "rental_uris": {"android": "https://dc.lft.to/lastmile_qr_scan", "ios": "https://dc.lft.to/lastmile_qr_scan"}, "fusion_lon": 0.0, "lat": 38.917806166666665, "bike_id": "f8367f7aaeeb458229b428c236a9890e", "type": "electric_scooter", "is_reserved": 0, "lon": -77.0269665}, {"fusion_lat": 0.0, "name": "3733afb390b239efd02dcd0143311706", "is_disabled": 0, "rental_uris": {"android": "https://dc.lft.to/lastmile_qr_scan", "ios": "https://dc.lft.to/lastmile_qr_scan"}, "fusion_lon": 0.0, "lat": 38.89844933333333, "bike_id": "3733afb390b239efd02dcd0143311706", "type": "electric_scooter", "is_reserved": 0, "lon": -77.026246}, {"fusion_lat": 0.0, "name": "b1cf4fa4b989c5d347b756e1c4798750", "is_disabled": 0, "rental_uris": {"android": "https://dc.lft.to/lastmile_qr_scan", "ios": "https://dc.lft.to/lastmile_qr_scan"}, "fusion_lon": 0.0, "lat": 38.95745633333333, "bike_id": "b1cf4fa4b989c5d347b756e1c4798750", "type": "electric_bike", "is_reserved": 0, "lon": -76.972546}, {"fusion_lat": 0.0, "name": "aa727f88d4f4f732a2e893d9346ef128", "is_disabled": 0, "rental_uris": {"android": "https://dc.lft.to/lastmile_qr_scan", "ios": "https://dc.lft.to/lastmile_qr_scan"}, "fusion_lon": 0.0, "lat": 38.95633216666667, "bike_id": "aa727f88d4f4f732a2e893d9346ef128", "type": "electric_scooter", "is_reserved": 0, "lon": -77.03306433333333}, {"fusion_lat": 0.0, "name": "31bca9db99ca7aaaa4c1e3db33e29abf", "is_disabled": 0, "rental_uris": {"android": "https://dc.lft.to/lastmile_qr_scan", "ios": "https://dc.lft.to/lastmile_qr_scan"}, "fusion_lon": 0.0, "lat": 39.01413216666667, "bike_id": "31bca9db99ca7aaaa4c1e3db33e29abf", "type": "electric_bike", "is_reserved": 0, "lon": -77.04499616666666}, {"fusion_lat": 0.0, "name": "34149120eea2199a5af5229c359b5daa", "is_disabled": 0, "rental_uris": {"android": "https://dc.lft.to/lastmile_qr_scan", "ios": "https://dc.lft.to/lastmile_qr_scan"}, "fusion_lon": 0.0, "lat": 38.92705683333333, "bike_id": "34149120eea2199a5af5229c359b5daa", "type": "electric_scooter", "is_reserved": 0, "lon": -77.020839}, {"fusion_lat": 0.0, "name": "9b7983963ee5139badf9d4ca309523da", "is_disabled": 0, "rental_uris": {"android": "https://dc.lft.to/lastmile_qr_scan", "ios": "https://dc.lft.to/lastmile_qr_scan"}, "fusion_lon": 0.0, "lat": 38.90056666666667, "bike_id": "9b7983963ee5139badf9d4ca309523da", "type": "electric_scooter", "is_reserved": 0, "lon": -76.98720433333334}, {"fusion_lat": 0.0, "name": "d2666f8cecbf46e7171fb416af361287", "is_disabled": 0, "rental_uris": {"android": "https://dc.lft.to/lastmile_qr_scan", "ios": "https://dc.lft.to/lastmile_qr_scan"}, "fusion_lon": 0.0, "lat": 38.88505833333333, "bike_id": "d2666f8cecbf46e7171fb416af361287", "type": "electric_scooter", "is_reserved": 0, "lon": -76.99751433333333}, {"fusion_lat": 0.0, "name": "354ecab7b9b6f0e8124ac4804ef5e185", "is_disabled": 0, "rental_uris": {"android": "https://dc.lft.to/lastmile_qr_scan", "ios": "https://dc.lft.to/lastmile_qr_scan"}, "fusion_lon": 0.0, "lat": 38.88714083333333, "bike_id": "354ecab7b9b6f0e8124ac4804ef5e185", "type": "electric_scooter", "is_reserved": 0, "lon": -77.02199316666666}, {"fusion_lat": 0.0, "name": "3b71d4dc1cd4df31410af5746ac2320e", "is_disabled": 0, "rental_uris": {"android": "https://dc.lft.to/lastmile_qr_scan", "ios": "https://dc.lft.to/lastmile_qr_scan"}, "fusion_lon": 0.0, "lat": 38.906020166666664, "bike_id": "3b71d4dc1cd4df31410af5746ac2320e", "type": "electric_scooter", "is_reserved": 0, "lon": -77.044934}, {"fusion_lat": 0.0, "name": "ecce1b3532c7c4b27ecb74337afadda3", "is_disabled": 0, "rental_uris": {"android": "https://dc.lft.to/lastmile_qr_scan", "ios": "https://dc.lft.to/lastmile_qr_scan"}, "fusion_lon": 0.0, "lat": 38.84913683333333, "bike_id": "ecce1b3532c7c4b27ecb74337afadda3", "type": "electric_bike", "is_reserved": 0, "lon": -77.079328}, {"fusion_lat": 0.0, "name": "ac74e44270d95dd19ca6b83d904e3b8b", "is_disabled": 0, "rental_uris": {"android": "https://dc.lft.to/lastmile_qr_scan", "ios": "https://dc.lft.to/lastmile_qr_scan"}, "fusion_lon": 0.0, "lat": 38.81609183333333, "bike_id": "ac74e44270d95dd19ca6b83d904e3b8b", "type": "electric_bike", "is_reserved": 0, "lon": -76.99663366666667}, {"fusion_lat": 0.0, "name": "854c8e99462e83beb75beeed727cbc53", "is_disabled": 0, "rental_uris": {"android": "https://dc.lft.to/lastmile_qr_scan", "ios": "https://dc.lft.to/lastmile_qr_scan"}, "fusion_lon": 0.0, "lat": 38.9042245, "bike_id": "854c8e99462e83beb75beeed727cbc53", "type": "electric_scooter", "is_reserved": 0, "lon": -77.0267135}, {"fusion_lat": 0.0, "name": "49849a74bc0baa0a64dad1b860030382", "is_disabled": 0, "rental_uris": {"android": "https://dc.lft.to/lastmile_qr_scan", "ios": "https://dc.lft.to/lastmile_qr_scan"}, "fusion_lon": 0.0, "lat": 38.89299533333333, "bike_id": "49849a74bc0baa0a64dad1b860030382", "type": "electric_scooter", "is_reserved": 0, "lon": -77.02149833333333}, {"fusion_lat": 0.0, "name": "8698d0916204db4f24e8d4f70e77b1a0", "is_disabled": 0, "rental_uris": {"android": "https://dc.lft.to/lastmile_qr_scan", "ios": "https://dc.lft.to/lastmile_qr_scan"}, "fusion_lon": 0.0, "lat": 38.919412666666666, "bike_id": "8698d0916204db4f24e8d4f70e77b1a0", "type": "electric_scooter", "is_reserved": 0, "lon": -77.0318995}, {"fusion_lat": 0.0, "name": "9450521884f506868f0e53677b51023a", "is_disabled": 0, "rental_uris": {"android": "https://dc.lft.to/lastmile_qr_scan", "ios": "https://dc.lft.to/lastmile_qr_scan"}, "fusion_lon": 0.0, "lat": 38.92794816666667, "bike_id": "9450521884f506868f0e53677b51023a", "type": "electric_scooter", "is_reserved": 0, "lon": -76.95563433333334}, {"fusion_lat": 0.0, "name": "b8bf20a3de9266c5dba4013ebefceb33", "is_disabled": 0, "rental_uris": {"android": "https://dc.lft.to/lastmile_qr_scan", "ios": "https://dc.lft.to/lastmile_qr_scan"}, "fusion_lon": 0.0, "lat": 38.89744233333333, "bike_id": "b8bf20a3de9266c5dba4013ebefceb33", "type": "electric_scooter", "is_reserved": 0, "lon": -77.02221466666667}, {"fusion_lat": 0.0, "name": "98c95bc7ce09645fcb500615b86c1799", "is_disabled": 0, "rental_uris": {"android": "https://dc.lft.to/lastmile_qr_scan", "ios": "https://dc.lft.to/lastmile_qr_scan"}, "fusion_lon": 0.0, "lat": 38.949141833333336, "bike_id": "98c95bc7ce09645fcb500615b86c1799", "type": "electric_scooter", "is_reserved": 0, "lon": -77.01856333333333}, {"fusion_lat": 0.0, "name": "29eb656ef05088fa3c7af63a5d6930bd", "is_disabled": 0, "rental_uris": {"android": "https://dc.lft.to/lastmile_qr_scan", "ios": "https://dc.lft.to/lastmile_qr_scan"}, "fusion_lon": 0.0, "lat": 38.8824365, "bike_id": "29eb656ef05088fa3c7af63a5d6930bd", "type": "electric_bike", "is_reserved": 0, "lon": -76.96263583333334}, {"fusion_lat": 0.0, "name": "a24c5987373612456bfd54c645f17bc5", "is_disabled": 0, "rental_uris": {"android": "https://dc.lft.to/lastmile_qr_scan", "ios": "https://dc.lft.to/lastmile_qr_scan"}, "fusion_lon": 0.0, "lat": 38.904838833333336, "bike_id": "a24c5987373612456bfd54c645f17bc5", "type": "electric_scooter", "is_reserved": 0, "lon": -76.94955466666667}, {"fusion_lat": 0.0, "name": "8029b14fb1ed26d3debcba4be63cd060", "is_disabled": 0, "rental_uris": {"android": "https://dc.lft.to/lastmile_qr_scan", "ios": "https://dc.lft.to/lastmile_qr_scan"}, "fusion_lon": 0.0, "lat": 38.92441866666667, "bike_id": "8029b14fb1ed26d3debcba4be63cd060", "type": "electric_scooter", "is_reserved": 0, "lon": -77.05247483333333}, {"fusion_lat": 0.0, "name": "90e454c31af45b7592c2c5153bd81686", "is_disabled": 0, "rental_uris": {"android": "https://dc.lft.to/lastmile_qr_scan", "ios": "https://dc.lft.to/lastmile_qr_scan"}, "fusion_lon": 0.0, "lat": 38.89752216666667, "bike_id": "90e454c31af45b7592c2c5153bd81686", "type": "electric_scooter", "is_reserved": 0, "lon": -77.032164}, {"fusion_lat": 0.0, "name": "79288298f233f3f4c7a94085be13bbf5", "is_disabled": 0, "rental_uris": {"android": "https://dc.lft.to/lastmile_qr_scan", "ios": "https://dc.lft.to/lastmile_qr_scan"}, "fusion_lon": 0.0, "lat": 38.9204595, "bike_id": "79288298f233f3f4c7a94085be13bbf5", "type": "electric_scooter", "is_reserved": 0, "lon": -77.03408416666667}, {"fusion_lat": 0.0, "name": "5765ff0a6c9e12d935b9e5a89fba4488", "is_disabled": 0, "rental_uris": {"android": "https://dc.lft.to/lastmile_qr_scan", "ios": "https://dc.lft.to/lastmile_qr_scan"}, "fusion_lon": 0.0, "lat": 38.905604333333336, "bike_id": "5765ff0a6c9e12d935b9e5a89fba4488", "type": "electric_scooter", "is_reserved": 0, "lon": -77.00569883333333}, {"fusion_lat": 0.0, "name": "3e7c3eb7cd4248636071fd3ecb945382", "is_disabled": 0, "rental_uris": {"android": "https://dc.lft.to/lastmile_qr_scan", "ios": "https://dc.lft.to/lastmile_qr_scan"}, "fusion_lon": 0.0, "lat": 38.988127, "bike_id": "3e7c3eb7cd4248636071fd3ecb945382", "type": "electric_bike", "is_reserved": 0, "lon": -77.02655}, {"fusion_lat": 0.0, "name": "19d5683a9a7b910be5766617e31c780a", "is_disabled": 0, "rental_uris": {"android": "https://dc.lft.to/lastmile_qr_scan", "ios": "https://dc.lft.to/lastmile_qr_scan"}, "fusion_lon": 0.0, "lat": 38.8209355, "bike_id": "19d5683a9a7b910be5766617e31c780a", "type": "electric_bike", "is_reserved": 0, "lon": -77.05300033333333}, {"fusion_lat": 0.0, "name": "8c0ea640b341547bfa3e0f07c641ba78", "is_disabled": 0, "rental_uris": {"android": "https://dc.lft.to/lastmile_qr_scan", "ios": "https://dc.lft.to/lastmile_qr_scan"}, "fusion_lon": 0.0, "lat": 38.909713333333336, "bike_id": "8c0ea640b341547bfa3e0f07c641ba78", "type": "electric_scooter", "is_reserved": 0, "lon": -77.04646}, {"fusion_lat": 0.0, "name": "874308357939f0e1fe1fe75f56501ffe", "is_disabled": 0, "rental_uris": {"android": "https://dc.lft.to/lastmile_qr_scan", "ios": "https://dc.lft.to/lastmile_qr_scan"}, "fusion_lon": 0.0, "lat": 38.87569166666667, "bike_id": "874308357939f0e1fe1fe75f56501ffe", "type": "electric_scooter", "is_reserved": 0, "lon": -77.00934416666666}, {"fusion_lat": 0.0, "name": "75f66a5335eebcf71cef9d137854484a", "is_disabled": 0, "rental_uris": {"android": "https://dc.lft.to/lastmile_qr_scan", "ios": "https://dc.lft.to/lastmile_qr_scan"}, "fusion_lon": 0.0, "lat": 38.92266083333333, "bike_id": "75f66a5335eebcf71cef9d137854484a", "type": "electric_scooter", "is_reserved": 0, "lon": -77.04250833333333}, {"fusion_lat": 0.0, "name": "de3ede33f4c2081b9fa1847e02fab3b1", "is_disabled": 0, "rental_uris": {"android": "https://dc.lft.to/lastmile_qr_scan", "ios": "https://dc.lft.to/lastmile_qr_scan"}, "fusion_lon": 0.0, "lat": 38.9165825, "bike_id": "de3ede33f4c2081b9fa1847e02fab3b1", "type": "electric_scooter", "is_reserved": 0, "lon": -77.0385685}, {"fusion_lat": 0.0, "name": "e62754afa442dcbc5fa20e2f9b0b735d", "is_disabled": 0, "rental_uris": {"android": "https://dc.lft.to/lastmile_qr_scan", "ios": "https://dc.lft.to/lastmile_qr_scan"}, "fusion_lon": 0.0, "lat": 38.89242266666667, "bike_id": "e62754afa442dcbc5fa20e2f9b0b735d", "type": "electric_scooter", "is_reserved": 0, "lon": -77.0259905}, {"fusion_lat": 0.0, "name": "dd0ac6824cb70e31d157864f31d0873b", "is_disabled": 0, "rental_uris": {"android": "https://dc.lft.to/lastmile_qr_scan", "ios": "https://dc.lft.to/lastmile_qr_scan"}, "fusion_lon": 0.0, "lat": 38.926009, "bike_id": "dd0ac6824cb70e31d157864f31d0873b", "type": "electric_scooter", "is_reserved": 0, "lon": -77.021538}, {"fusion_lat": 0.0, "name": "041697c259d92ad4b0fe3bad8ac585ea", "is_disabled": 0, "rental_uris": {"android": "https://dc.lft.to/lastmile_qr_scan", "ios": "https://dc.lft.to/lastmile_qr_scan"}, "fusion_lon": 0.0, "lat": 38.907320166666665, "bike_id": "041697c259d92ad4b0fe3bad8ac585ea", "type": "electric_scooter", "is_reserved": 0, "lon": -77.03859}, {"fusion_lat": 0.0, "name": "3fdeba2baebeb147d19f9320f4ee9456", "is_disabled": 0, "rental_uris": {"android": "https://dc.lft.to/lastmile_qr_scan", "ios": "https://dc.lft.to/lastmile_qr_scan"}, "fusion_lon": 0.0, "lat": 38.87894416666666, "bike_id": "3fdeba2baebeb147d19f9320f4ee9456", "type": "electric_scooter", "is_reserved": 0, "lon": -77.013655}, {"fusion_lat": 0.0, "name": "c774733a4a3db5ca9a4fa53ea6f44d9c", "is_disabled": 0, "rental_uris": {"android": "https://dc.lft.to/lastmile_qr_scan", "ios": "https://dc.lft.to/lastmile_qr_scan"}, "fusion_lon": 0.0, "lat": 38.90678033333333, "bike_id": "c774733a4a3db5ca9a4fa53ea6f44d9c", "type": "electric_scooter", "is_reserved": 0, "lon": -77.04731783333334}, {"fusion_lat": 0.0, "name": "eff48518a8d22059ab1aa5389f3748b0", "is_disabled": 0, "rental_uris": {"android": "https://dc.lft.to/lastmile_qr_scan", "ios": "https://dc.lft.to/lastmile_qr_scan"}, "fusion_lon": 0.0, "lat": 38.898291666666665, "bike_id": "eff48518a8d22059ab1aa5389f3748b0", "type": "electric_scooter", "is_reserved": 0, "lon": -76.94652283333333}, {"fusion_lat": 0.0, "name": "78e989002ebcd5f168aac68f557fb2a8", "is_disabled": 0, "rental_uris": {"android": "https://dc.lft.to/lastmile_qr_scan", "ios": "https://dc.lft.to/lastmile_qr_scan"}, "fusion_lon": 0.0, "lat": 38.902338666666665, "bike_id": "78e989002ebcd5f168aac68f557fb2a8", "type": "electric_scooter", "is_reserved": 0, "lon": -77.001971}, {"fusion_lat": 0.0, "name": "c2f430042d4dedcd33c87d945f1b6a48", "is_disabled": 0, "rental_uris": {"android": "https://dc.lft.to/lastmile_qr_scan", "ios": "https://dc.lft.to/lastmile_qr_scan"}, "fusion_lon": 0.0, "lat": 38.94405016666666, "bike_id": "c2f430042d4dedcd33c87d945f1b6a48", "type": "electric_scooter", "is_reserved": 0, "lon": -77.0320635}, {"fusion_lat": 0.0, "name": "5328779535ed3bf98e2503465ffbab24", "is_disabled": 0, "rental_uris": {"android": "https://dc.lft.to/lastmile_qr_scan", "ios": "https://dc.lft.to/lastmile_qr_scan"}, "fusion_lon": 0.0, "lat": 38.913244166666665, "bike_id": "5328779535ed3bf98e2503465ffbab24", "type": "electric_scooter", "is_reserved": 0, "lon": -77.03184433333334}, {"fusion_lat": 0.0, "name": "fe5d32c4eb7ba51af1241099d39016be", "is_disabled": 0, "rental_uris": {"android": "https://dc.lft.to/lastmile_qr_scan", "ios": "https://dc.lft.to/lastmile_qr_scan"}, "fusion_lon": 0.0, "lat": 38.927647666666665, "bike_id": "fe5d32c4eb7ba51af1241099d39016be", "type": "electric_scooter", "is_reserved": 0, "lon": -77.01616466666667}, {"fusion_lat": 0.0, "name": "f2ef76d23c2af422e876994ee87db58e", "is_disabled": 0, "rental_uris": {"android": "https://dc.lft.to/lastmile_qr_scan", "ios": "https://dc.lft.to/lastmile_qr_scan"}, "fusion_lon": 0.0, "lat": 38.909660833333334, "bike_id": "f2ef76d23c2af422e876994ee87db58e", "type": "electric_scooter", "is_reserved": 0, "lon": -77.02183416666666}, {"fusion_lat": 0.0, "name": "a6e780a496a06e35655fbb823c0b44ae", "is_disabled": 0, "rental_uris": {"android": "https://dc.lft.to/lastmile_qr_scan", "ios": "https://dc.lft.to/lastmile_qr_scan"}, "fusion_lon": 0.0, "lat": 38.866254833333336, "bike_id": "a6e780a496a06e35655fbb823c0b44ae", "type": "electric_scooter", "is_reserved": 0, "lon": -76.98713266666667}, {"fusion_lat": 0.0, "name": "f07a99dc12be97d961f2aca48bbe2570", "is_disabled": 0, "rental_uris": {"android": "https://dc.lft.to/lastmile_qr_scan", "ios": "https://dc.lft.to/lastmile_qr_scan"}, "fusion_lon": 0.0, "lat": 38.924203, "bike_id": "f07a99dc12be97d961f2aca48bbe2570", "type": "electric_scooter", "is_reserved": 0, "lon": -77.02011733333333}, {"fusion_lat": 0.0, "name": "ff72e204cda48c04dc81c80c0eb837aa", "is_disabled": 0, "rental_uris": {"android": "https://dc.lft.to/lastmile_qr_scan", "ios": "https://dc.lft.to/lastmile_qr_scan"}, "fusion_lon": 0.0, "lat": 38.94445833333333, "bike_id": "ff72e204cda48c04dc81c80c0eb837aa", "type": "electric_scooter", "is_reserved": 0, "lon": -77.0234115}, {"fusion_lat": 0.0, "name": "47be7a220e68f9ef73f0649279d1fe56", "is_disabled": 0, "rental_uris": {"android": "https://dc.lft.to/lastmile_qr_scan", "ios": "https://dc.lft.to/lastmile_qr_scan"}, "fusion_lon": 0.0, "lat": 38.902644, "bike_id": "47be7a220e68f9ef73f0649279d1fe56", "type": "electric_scooter", "is_reserved": 0, "lon": -77.04349983333333}, {"fusion_lat": 0.0, "name": "25af2cc1cd6c0de3d18bc5968d3b5151", "is_disabled": 0, "rental_uris": {"android": "https://dc.lft.to/lastmile_qr_scan", "ios": "https://dc.lft.to/lastmile_qr_scan"}, "fusion_lon": 0.0, "lat": 38.931492666666664, "bike_id": "25af2cc1cd6c0de3d18bc5968d3b5151", "type": "electric_scooter", "is_reserved": 0, "lon": -77.07852816666667}, {"fusion_lat": 0.0, "name": "08bcdd35e2ed40ec9e889466a7fa28c8", "is_disabled": 0, "rental_uris": {"android": "https://dc.lft.to/lastmile_qr_scan", "ios": "https://dc.lft.to/lastmile_qr_scan"}, "fusion_lon": 0.0, "lat": 38.900899833333334, "bike_id": "08bcdd35e2ed40ec9e889466a7fa28c8", "type": "electric_scooter", "is_reserved": 0, "lon": -77.05834916666667}, {"fusion_lat": 0.0, "name": "1ff452b8dd65c022ac241c63666d5155", "is_disabled": 0, "rental_uris": {"android": "https://dc.lft.to/lastmile_qr_scan", "ios": "https://dc.lft.to/lastmile_qr_scan"}, "fusion_lon": 0.0, "lat": 38.91913433333333, "bike_id": "1ff452b8dd65c022ac241c63666d5155", "type": "electric_scooter", "is_reserved": 0, "lon": -77.02502283333334}, {"fusion_lat": 0.0, "name": "31a557c730e54bf500a3ff7741232963", "is_disabled": 0, "rental_uris": {"android": "https://dc.lft.to/lastmile_qr_scan", "ios": "https://dc.lft.to/lastmile_qr_scan"}, "fusion_lon": 0.0, "lat": 38.8779355, "bike_id": "31a557c730e54bf500a3ff7741232963", "type": "electric_scooter", "is_reserved": 0, "lon": -76.990175}, {"fusion_lat": 0.0, "name": "918d3a04dbaf2719590a6e0bae39890e", "is_disabled": 0, "rental_uris": {"android": "https://dc.lft.to/lastmile_qr_scan", "ios": "https://dc.lft.to/lastmile_qr_scan"}, "fusion_lon": 0.0, "lat": 38.828609666666665, "bike_id": "918d3a04dbaf2719590a6e0bae39890e", "type": "electric_bike", "is_reserved": 0, "lon": -77.08812033333334}, {"fusion_lat": 0.0, "name": "8ed65f6bdbdb147624e6d5d9c25cac55", "is_disabled": 0, "rental_uris": {"android": "https://dc.lft.to/lastmile_qr_scan", "ios": "https://dc.lft.to/lastmile_qr_scan"}, "fusion_lon": 0.0, "lat": 38.91944766666667, "bike_id": "8ed65f6bdbdb147624e6d5d9c25cac55", "type": "electric_scooter", "is_reserved": 0, "lon": -77.0248305}, {"fusion_lat": 0.0, "name": "fc85ddd9687a5dfcec6f1e45d855a6e6", "is_disabled": 0, "rental_uris": {"android": "https://dc.lft.to/lastmile_qr_scan", "ios": "https://dc.lft.to/lastmile_qr_scan"}, "fusion_lon": 0.0, "lat": 38.838610333333335, "bike_id": "fc85ddd9687a5dfcec6f1e45d855a6e6", "type": "electric_scooter", "is_reserved": 0, "lon": -76.9969765}, {"fusion_lat": 0.0, "name": "ce6ff5efc83542fb5fd03b8d37d1ce7a", "is_disabled": 0, "rental_uris": {"android": "https://dc.lft.to/lastmile_qr_scan", "ios": "https://dc.lft.to/lastmile_qr_scan"}, "fusion_lon": 0.0, "lat": 38.90975133333333, "bike_id": "ce6ff5efc83542fb5fd03b8d37d1ce7a", "type": "electric_scooter", "is_reserved": 0, "lon": -77.02089633333334}, {"fusion_lat": 0.0, "name": "628d984f3c1019dfea9104b4a21a634d", "is_disabled": 0, "rental_uris": {"android": "https://dc.lft.to/lastmile_qr_scan", "ios": "https://dc.lft.to/lastmile_qr_scan"}, "fusion_lon": 0.0, "lat": 38.923273333333334, "bike_id": "628d984f3c1019dfea9104b4a21a634d", "type": "electric_scooter", "is_reserved": 0, "lon": -77.03777333333333}, {"fusion_lat": 0.0, "name": "cffecdf476d91d7161ef4e8cdc55d58e", "is_disabled": 0, "rental_uris": {"android": "https://dc.lft.to/lastmile_qr_scan", "ios": "https://dc.lft.to/lastmile_qr_scan"}, "fusion_lon": 0.0, "lat": 38.915612833333334, "bike_id": "cffecdf476d91d7161ef4e8cdc55d58e", "type": "electric_scooter", "is_reserved": 0, "lon": -77.03153466666667}, {"fusion_lat": 0.0, "name": "98126309da024633a2dcab89a436d293", "is_disabled": 0, "rental_uris": {"android": "https://dc.lft.to/lastmile_qr_scan", "ios": "https://dc.lft.to/lastmile_qr_scan"}, "fusion_lon": 0.0, "lat": 38.88414133333333, "bike_id": "98126309da024633a2dcab89a436d293", "type": "electric_scooter", "is_reserved": 0, "lon": -77.03050116666667}, {"fusion_lat": 0.0, "name": "7ff68fd23688f2f3959d74cfda94b851", "is_disabled": 0, "rental_uris": {"android": "https://dc.lft.to/lastmile_qr_scan", "ios": "https://dc.lft.to/lastmile_qr_scan"}, "fusion_lon": 0.0, "lat": 38.90827566666667, "bike_id": "7ff68fd23688f2f3959d74cfda94b851", "type": "electric_scooter", "is_reserved": 0, "lon": -77.0435455}, {"fusion_lat": 0.0, "name": "3f85318aae69ca2ea6869ee030ef4d12", "is_disabled": 0, "rental_uris": {"android": "https://dc.lft.to/lastmile_qr_scan", "ios": "https://dc.lft.to/lastmile_qr_scan"}, "fusion_lon": 0.0, "lat": 38.906399666666665, "bike_id": "3f85318aae69ca2ea6869ee030ef4d12", "type": "electric_scooter", "is_reserved": 0, "lon": -77.026981}, {"fusion_lat": 0.0, "name": "08637177fe5ba1dab8a2db13b2cb484f", "is_disabled": 0, "rental_uris": {"android": "https://dc.lft.to/lastmile_qr_scan", "ios": "https://dc.lft.to/lastmile_qr_scan"}, "fusion_lon": 0.0, "lat": 38.90939433333333, "bike_id": "08637177fe5ba1dab8a2db13b2cb484f", "type": "electric_scooter", "is_reserved": 0, "lon": -77.04488233333333}, {"fusion_lat": 0.0, "name": "57b8ba84b914e9665627faaecaac7db1", "is_disabled": 0, "rental_uris": {"android": "https://dc.lft.to/lastmile_qr_scan", "ios": "https://dc.lft.to/lastmile_qr_scan"}, "fusion_lon": 0.0, "lat": 38.929143833333335, "bike_id": "57b8ba84b914e9665627faaecaac7db1", "type": "electric_scooter", "is_reserved": 0, "lon": -77.03348}, {"fusion_lat": 0.0, "name": "3852d3b8ab0b15cc83a83e74f4ad403e", "is_disabled": 0, "rental_uris": {"android": "https://dc.lft.to/lastmile_qr_scan", "ios": "https://dc.lft.to/lastmile_qr_scan"}, "fusion_lon": 0.0, "lat": 38.91783066666667, "bike_id": "3852d3b8ab0b15cc83a83e74f4ad403e", "type": "electric_scooter", "is_reserved": 0, "lon": -77.031992}, {"fusion_lat": 0.0, "name": "8a3cb1aee3ce0f7278e5930880e4e13f", "is_disabled": 0, "rental_uris": {"android": "https://dc.lft.to/lastmile_qr_scan", "ios": "https://dc.lft.to/lastmile_qr_scan"}, "fusion_lon": 0.0, "lat": 39.0417795, "bike_id": "8a3cb1aee3ce0f7278e5930880e4e13f", "type": "electric_bike", "is_reserved": 0, "lon": -77.0524075}, {"fusion_lat": 0.0, "name": "d4ac68264e9e233d5c70da463aafca46", "is_disabled": 0, "rental_uris": {"android": "https://dc.lft.to/lastmile_qr_scan", "ios": "https://dc.lft.to/lastmile_qr_scan"}, "fusion_lon": 0.0, "lat": 38.931930333333334, "bike_id": "d4ac68264e9e233d5c70da463aafca46", "type": "electric_scooter", "is_reserved": 0, "lon": -77.025085}, {"fusion_lat": 0.0, "name": "e1508e97e51db28292cd7a0ad394a401", "is_disabled": 0, "rental_uris": {"android": "https://dc.lft.to/lastmile_qr_scan", "ios": "https://dc.lft.to/lastmile_qr_scan"}, "fusion_lon": 0.0, "lat": 38.9058755, "bike_id": "e1508e97e51db28292cd7a0ad394a401", "type": "electric_scooter", "is_reserved": 0, "lon": -76.98629266666667}, {"fusion_lat": 0.0, "name": "ac2bccb8430048e5c8c8982ab10742a8", "is_disabled": 0, "rental_uris": {"android": "https://dc.lft.to/lastmile_qr_scan", "ios": "https://dc.lft.to/lastmile_qr_scan"}, "fusion_lon": 0.0, "lat": 38.866981833333334, "bike_id": "ac2bccb8430048e5c8c8982ab10742a8", "type": "electric_scooter", "is_reserved": 0, "lon": -76.9864115}, {"fusion_lat": 0.0, "name": "1f91a9879fecb15109b73b5baa794474", "is_disabled": 0, "rental_uris": {"android": "https://dc.lft.to/lastmile_qr_scan", "ios": "https://dc.lft.to/lastmile_qr_scan"}, "fusion_lon": 0.0, "lat": 38.92874416666667, "bike_id": "1f91a9879fecb15109b73b5baa794474", "type": "electric_scooter", "is_reserved": 0, "lon": -77.033362}, {"fusion_lat": 0.0, "name": "bdbabeb9007ded459f6f8d9a93468571", "is_disabled": 0, "rental_uris": {"android": "https://dc.lft.to/lastmile_qr_scan", "ios": "https://dc.lft.to/lastmile_qr_scan"}, "fusion_lon": 0.0, "lat": 38.9050475, "bike_id": "bdbabeb9007ded459f6f8d9a93468571", "type": "electric_scooter", "is_reserved": 0, "lon": -77.0638675}, {"fusion_lat": 0.0, "name": "8d84b291d61febb552ff638a58685bdf", "is_disabled": 0, "rental_uris": {"android": "https://dc.lft.to/lastmile_qr_scan", "ios": "https://dc.lft.to/lastmile_qr_scan"}, "fusion_lon": 0.0, "lat": 38.9573145, "bike_id": "8d84b291d61febb552ff638a58685bdf", "type": "electric_scooter", "is_reserved": 0, "lon": -77.02403516666666}, {"fusion_lat": 0.0, "name": "b4b8295665ba41bd13bbef6b44f39cf0", "is_disabled": 0, "rental_uris": {"android": "https://dc.lft.to/lastmile_qr_scan", "ios": "https://dc.lft.to/lastmile_qr_scan"}, "fusion_lon": 0.0, "lat": 38.9096645, "bike_id": "b4b8295665ba41bd13bbef6b44f39cf0", "type": "electric_scooter", "is_reserved": 0, "lon": -77.0090425}, {"fusion_lat": 0.0, "name": "aef19cff45e0f406d5c3697543867e1b", "is_disabled": 0, "rental_uris": {"android": "https://dc.lft.to/lastmile_qr_scan", "ios": "https://dc.lft.to/lastmile_qr_scan"}, "fusion_lon": 0.0, "lat": 38.90236216666667, "bike_id": "aef19cff45e0f406d5c3697543867e1b", "type": "electric_scooter", "is_reserved": 0, "lon": -77.045347}, {"fusion_lat": 0.0, "name": "1ddb4927707a4364763edebeb953f118", "is_disabled": 0, "rental_uris": {"android": "https://dc.lft.to/lastmile_qr_scan", "ios": "https://dc.lft.to/lastmile_qr_scan"}, "fusion_lon": 0.0, "lat": 38.905724666666664, "bike_id": "1ddb4927707a4364763edebeb953f118", "type": "electric_scooter", "is_reserved": 0, "lon": -77.0088315}, {"fusion_lat": 0.0, "name": "16eba18a06a37f7ebfe21dcc73097f06", "is_disabled": 0, "rental_uris": {"android": "https://dc.lft.to/lastmile_qr_scan", "ios": "https://dc.lft.to/lastmile_qr_scan"}, "fusion_lon": 0.0, "lat": 38.90921683333333, "bike_id": "16eba18a06a37f7ebfe21dcc73097f06", "type": "electric_scooter", "is_reserved": 0, "lon": -77.034695}, {"fusion_lat": 0.0, "name": "9cc31d0c40272c823a922825e5b3137a", "is_disabled": 0, "rental_uris": {"android": "https://dc.lft.to/lastmile_qr_scan", "ios": "https://dc.lft.to/lastmile_qr_scan"}, "fusion_lon": 0.0, "lat": 38.901751833333336, "bike_id": "9cc31d0c40272c823a922825e5b3137a", "type": "electric_scooter", "is_reserved": 0, "lon": -76.941458}, {"fusion_lat": 0.0, "name": "1eaa3300fc04a646e439bd7bc73d58cc", "is_disabled": 0, "rental_uris": {"android": "https://dc.lft.to/lastmile_qr_scan", "ios": "https://dc.lft.to/lastmile_qr_scan"}, "fusion_lon": 0.0, "lat": 38.93519116666667, "bike_id": "1eaa3300fc04a646e439bd7bc73d58cc", "type": "electric_scooter", "is_reserved": 0, "lon": -77.08702533333333}, {"fusion_lat": 0.0, "name": "38e711e3cb74be0e4bde07047b4782ca", "is_disabled": 0, "rental_uris": {"android": "https://dc.lft.to/lastmile_qr_scan", "ios": "https://dc.lft.to/lastmile_qr_scan"}, "fusion_lon": 0.0, "lat": 38.876589333333335, "bike_id": "38e711e3cb74be0e4bde07047b4782ca", "type": "electric_scooter", "is_reserved": 0, "lon": -77.00114433333333}, {"fusion_lat": 0.0, "name": "67bd1091672c07f25d971d1f6896163e", "is_disabled": 0, "rental_uris": {"android": "https://dc.lft.to/lastmile_qr_scan", "ios": "https://dc.lft.to/lastmile_qr_scan"}, "fusion_lon": 0.0, "lat": 38.95729683333333, "bike_id": "67bd1091672c07f25d971d1f6896163e", "type": "electric_scooter", "is_reserved": 0, "lon": -77.02405683333333}, {"fusion_lat": 0.0, "name": "3d5765af58ac0e1598670ff7b7f66513", "is_disabled": 0, "rental_uris": {"android": "https://dc.lft.to/lastmile_qr_scan", "ios": "https://dc.lft.to/lastmile_qr_scan"}, "fusion_lon": 0.0, "lat": 38.91829716666667, "bike_id": "3d5765af58ac0e1598670ff7b7f66513", "type": "electric_scooter", "is_reserved": 0, "lon": -77.02407516666666}, {"fusion_lat": 0.0, "name": "f65c7a47aed361800be4e9f72eed51df", "is_disabled": 0, "rental_uris": {"android": "https://dc.lft.to/lastmile_qr_scan", "ios": "https://dc.lft.to/lastmile_qr_scan"}, "fusion_lon": 0.0, "lat": 38.897412333333335, "bike_id": "f65c7a47aed361800be4e9f72eed51df", "type": "electric_scooter", "is_reserved": 0, "lon": -77.00008883333334}, {"fusion_lat": 0.0, "name": "c4cca15282a2f547dc7480413b1bc462", "is_disabled": 0, "rental_uris": {"android": "https://dc.lft.to/lastmile_qr_scan", "ios": "https://dc.lft.to/lastmile_qr_scan"}, "fusion_lon": 0.0, "lat": 38.900237, "bike_id": "c4cca15282a2f547dc7480413b1bc462", "type": "electric_scooter", "is_reserved": 0, "lon": -77.01188883333333}, {"fusion_lat": 0.0, "name": "d357fe9607d6470167c73c09c9266f9f", "is_disabled": 0, "rental_uris": {"android": "https://dc.lft.to/lastmile_qr_scan", "ios": "https://dc.lft.to/lastmile_qr_scan"}, "fusion_lon": 0.0, "lat": 38.90514183333333, "bike_id": "d357fe9607d6470167c73c09c9266f9f", "type": "electric_scooter", "is_reserved": 0, "lon": -77.034793}, {"fusion_lat": 0.0, "name": "4f6427021d7367d130ceb1316de95809", "is_disabled": 0, "rental_uris": {"android": "https://dc.lft.to/lastmile_qr_scan", "ios": "https://dc.lft.to/lastmile_qr_scan"}, "fusion_lon": 0.0, "lat": 38.9305765, "bike_id": "4f6427021d7367d130ceb1316de95809", "type": "electric_scooter", "is_reserved": 0, "lon": -77.03943883333334}, {"fusion_lat": 0.0, "name": "615382aea7d2e9aebea073c8a4b5f345", "is_disabled": 0, "rental_uris": {"android": "https://dc.lft.to/lastmile_qr_scan", "ios": "https://dc.lft.to/lastmile_qr_scan"}, "fusion_lon": 0.0, "lat": 38.8972375, "bike_id": "615382aea7d2e9aebea073c8a4b5f345", "type": "electric_scooter", "is_reserved": 0, "lon": -77.023247}, {"fusion_lat": 0.0, "name": "85c04c0fc6281a93d094bd2c0f75fc93", "is_disabled": 0, "rental_uris": {"android": "https://dc.lft.to/lastmile_qr_scan", "ios": "https://dc.lft.to/lastmile_qr_scan"}, "fusion_lon": 0.0, "lat": 38.891572333333336, "bike_id": "85c04c0fc6281a93d094bd2c0f75fc93", "type": "electric_bike", "is_reserved": 0, "lon": -77.00469616666666}, {"fusion_lat": 0.0, "name": "053d32d839237f49a60a5330733c7182", "is_disabled": 0, "rental_uris": {"android": "https://dc.lft.to/lastmile_qr_scan", "ios": "https://dc.lft.to/lastmile_qr_scan"}, "fusion_lon": 0.0, "lat": 38.881204, "bike_id": "053d32d839237f49a60a5330733c7182", "type": "electric_scooter", "is_reserved": 0, "lon": -76.99280916666666}, {"fusion_lat": 0.0, "name": "410f153b9706a148e50f48ab5e25af0a", "is_disabled": 0, "rental_uris": {"android": "https://dc.lft.to/lastmile_qr_scan", "ios": "https://dc.lft.to/lastmile_qr_scan"}, "fusion_lon": 0.0, "lat": 38.94508716666667, "bike_id": "410f153b9706a148e50f48ab5e25af0a", "type": "electric_bike", "is_reserved": 0, "lon": -77.00670133333334}, {"fusion_lat": 0.0, "name": "8db282ee228794c836b25fdbaf220543", "is_disabled": 0, "rental_uris": {"android": "https://dc.lft.to/lastmile_qr_scan", "ios": "https://dc.lft.to/lastmile_qr_scan"}, "fusion_lon": 0.0, "lat": 38.927941, "bike_id": "8db282ee228794c836b25fdbaf220543", "type": "electric_scooter", "is_reserved": 0, "lon": -77.032622}, {"fusion_lat": 0.0, "name": "2e79b87fd6dbae0bd8783974778c1bde", "is_disabled": 0, "rental_uris": {"android": "https://dc.lft.to/lastmile_qr_scan", "ios": "https://dc.lft.to/lastmile_qr_scan"}, "fusion_lon": 0.0, "lat": 38.983903166666664, "bike_id": "2e79b87fd6dbae0bd8783974778c1bde", "type": "electric_scooter", "is_reserved": 0, "lon": -77.02632366666667}, {"fusion_lat": 0.0, "name": "21596558215b7c019da431643a21da88", "is_disabled": 0, "rental_uris": {"android": "https://dc.lft.to/lastmile_qr_scan", "ios": "https://dc.lft.to/lastmile_qr_scan"}, "fusion_lon": 0.0, "lat": 38.92618233333334, "bike_id": "21596558215b7c019da431643a21da88", "type": "electric_scooter", "is_reserved": 0, "lon": -77.03926666666666}, {"fusion_lat": 0.0, "name": "c472da4773b60dde691c3c451a359d4f", "is_disabled": 0, "rental_uris": {"android": "https://dc.lft.to/lastmile_qr_scan", "ios": "https://dc.lft.to/lastmile_qr_scan"}, "fusion_lon": 0.0, "lat": 38.92454883333333, "bike_id": "c472da4773b60dde691c3c451a359d4f", "type": "electric_scooter", "is_reserved": 0, "lon": -77.00213033333333}, {"fusion_lat": 0.0, "name": "953713da717dec84d87b134692843eda", "is_disabled": 0, "rental_uris": {"android": "https://dc.lft.to/lastmile_qr_scan", "ios": "https://dc.lft.to/lastmile_qr_scan"}, "fusion_lon": 0.0, "lat": 38.90731516666666, "bike_id": "953713da717dec84d87b134692843eda", "type": "electric_scooter", "is_reserved": 0, "lon": -77.00705216666667}, {"fusion_lat": 0.0, "name": "e7506d7192137b46dac215d4a7196678", "is_disabled": 0, "rental_uris": {"android": "https://dc.lft.to/lastmile_qr_scan", "ios": "https://dc.lft.to/lastmile_qr_scan"}, "fusion_lon": 0.0, "lat": 38.9452335, "bike_id": "e7506d7192137b46dac215d4a7196678", "type": "electric_scooter", "is_reserved": 0, "lon": -77.02273083333333}, {"fusion_lat": 0.0, "name": "aae6260cf390272ee0320c0b80b64f51", "is_disabled": 0, "rental_uris": {"android": "https://dc.lft.to/lastmile_qr_scan", "ios": "https://dc.lft.to/lastmile_qr_scan"}, "fusion_lon": 0.0, "lat": 38.9190585, "bike_id": "aae6260cf390272ee0320c0b80b64f51", "type": "electric_scooter", "is_reserved": 0, "lon": -77.01219566666667}, {"fusion_lat": 0.0, "name": "d3e3b0c94c730ee8fbb419f5f5ed0daa", "is_disabled": 0, "rental_uris": {"android": "https://dc.lft.to/lastmile_qr_scan", "ios": "https://dc.lft.to/lastmile_qr_scan"}, "fusion_lon": 0.0, "lat": 38.911055833333336, "bike_id": "d3e3b0c94c730ee8fbb419f5f5ed0daa", "type": "electric_scooter", "is_reserved": 0, "lon": -77.03833683333333}, {"fusion_lat": 0.0, "name": "cd2b19c45b209198b9fe9287e7cb959d", "is_disabled": 0, "rental_uris": {"android": "https://dc.lft.to/lastmile_qr_scan", "ios": "https://dc.lft.to/lastmile_qr_scan"}, "fusion_lon": 0.0, "lat": 38.93612783333333, "bike_id": "cd2b19c45b209198b9fe9287e7cb959d", "type": "electric_scooter", "is_reserved": 0, "lon": -77.08188533333333}, {"fusion_lat": 0.0, "name": "c75ac6561358557be16d2c546fa1593c", "is_disabled": 0, "rental_uris": {"android": "https://dc.lft.to/lastmile_qr_scan", "ios": "https://dc.lft.to/lastmile_qr_scan"}, "fusion_lon": 0.0, "lat": 38.86878683333333, "bike_id": "c75ac6561358557be16d2c546fa1593c", "type": "electric_scooter", "is_reserved": 0, "lon": -76.98590883333334}, {"fusion_lat": 0.0, "name": "0273ea6114b93eb23711d43a8b21f240", "is_disabled": 0, "rental_uris": {"android": "https://dc.lft.to/lastmile_qr_scan", "ios": "https://dc.lft.to/lastmile_qr_scan"}, "fusion_lon": 0.0, "lat": 38.902538666666665, "bike_id": "0273ea6114b93eb23711d43a8b21f240", "type": "electric_scooter", "is_reserved": 0, "lon": -77.027425}, {"fusion_lat": 0.0, "name": "66a7555779c6576c82f3aa75f50b1193", "is_disabled": 0, "rental_uris": {"android": "https://dc.lft.to/lastmile_qr_scan", "ios": "https://dc.lft.to/lastmile_qr_scan"}, "fusion_lon": 0.0, "lat": 38.91625916666667, "bike_id": "66a7555779c6576c82f3aa75f50b1193", "type": "electric_scooter", "is_reserved": 0, "lon": -77.04547433333333}, {"fusion_lat": 0.0, "name": "faae0f18ddcdba7fcd2ca3bd59b99c10", "is_disabled": 0, "rental_uris": {"android": "https://dc.lft.to/lastmile_qr_scan", "ios": "https://dc.lft.to/lastmile_qr_scan"}, "fusion_lon": 0.0, "lat": 38.928037, "bike_id": "faae0f18ddcdba7fcd2ca3bd59b99c10", "type": "electric_scooter", "is_reserved": 0, "lon": -77.02396116666667}, {"fusion_lat": 0.0, "name": "8ff5d4fca9bdbfc5162d59ffb5941db5", "is_disabled": 0, "rental_uris": {"android": "https://dc.lft.to/lastmile_qr_scan", "ios": "https://dc.lft.to/lastmile_qr_scan"}, "fusion_lon": 0.0, "lat": 38.9057745, "bike_id": "8ff5d4fca9bdbfc5162d59ffb5941db5", "type": "electric_scooter", "is_reserved": 0, "lon": -77.0346635}, {"fusion_lat": 0.0, "name": "294f78e3b29da79b0d221aa0abde0325", "is_disabled": 0, "rental_uris": {"android": "https://dc.lft.to/lastmile_qr_scan", "ios": "https://dc.lft.to/lastmile_qr_scan"}, "fusion_lon": 0.0, "lat": 38.91580066666667, "bike_id": "294f78e3b29da79b0d221aa0abde0325", "type": "electric_scooter", "is_reserved": 0, "lon": -77.04641866666667}, {"fusion_lat": 0.0, "name": "071e911d22a6c8174e2ae3e51c9178c4", "is_disabled": 0, "rental_uris": {"android": "https://dc.lft.to/lastmile_qr_scan", "ios": "https://dc.lft.to/lastmile_qr_scan"}, "fusion_lon": 0.0, "lat": 38.90722733333333, "bike_id": "071e911d22a6c8174e2ae3e51c9178c4", "type": "electric_scooter", "is_reserved": 0, "lon": -77.02979933333333}, {"fusion_lat": 0.0, "name": "20b27502677796ee4d3f8644b3f54cfa", "is_disabled": 0, "rental_uris": {"android": "https://dc.lft.to/lastmile_qr_scan", "ios": "https://dc.lft.to/lastmile_qr_scan"}, "fusion_lon": 0.0, "lat": 38.8676185, "bike_id": "20b27502677796ee4d3f8644b3f54cfa", "type": "electric_scooter", "is_reserved": 0, "lon": -76.98267683333333}, {"fusion_lat": 0.0, "name": "3a52c5ed8afcffe3f59daac566e008bf", "is_disabled": 0, "rental_uris": {"android": "https://dc.lft.to/lastmile_qr_scan", "ios": "https://dc.lft.to/lastmile_qr_scan"}, "fusion_lon": 0.0, "lat": 38.88905716666667, "bike_id": "3a52c5ed8afcffe3f59daac566e008bf", "type": "electric_scooter", "is_reserved": 0, "lon": -76.97737183333334}, {"fusion_lat": 0.0, "name": "66503886603397477b5b89cca813a354", "is_disabled": 0, "rental_uris": {"android": "https://dc.lft.to/lastmile_qr_scan", "ios": "https://dc.lft.to/lastmile_qr_scan"}, "fusion_lon": 0.0, "lat": 38.90256616666667, "bike_id": "66503886603397477b5b89cca813a354", "type": "electric_scooter", "is_reserved": 0, "lon": -77.039519}, {"fusion_lat": 0.0, "name": "1f4b1cbed73a49d764924b5600ec331a", "is_disabled": 0, "rental_uris": {"android": "https://dc.lft.to/lastmile_qr_scan", "ios": "https://dc.lft.to/lastmile_qr_scan"}, "fusion_lon": 0.0, "lat": 38.91190566666667, "bike_id": "1f4b1cbed73a49d764924b5600ec331a", "type": "electric_scooter", "is_reserved": 0, "lon": -77.042407}, {"fusion_lat": 0.0, "name": "0380aa2236063f4da1a8661e126cfc4e", "is_disabled": 0, "rental_uris": {"android": "https://dc.lft.to/lastmile_qr_scan", "ios": "https://dc.lft.to/lastmile_qr_scan"}, "fusion_lon": 0.0, "lat": 38.87684516666667, "bike_id": "0380aa2236063f4da1a8661e126cfc4e", "type": "electric_scooter", "is_reserved": 0, "lon": -77.00773533333333}, {"fusion_lat": 0.0, "name": "32fcee359f54a426840407f56c670d5c", "is_disabled": 0, "rental_uris": {"android": "https://dc.lft.to/lastmile_qr_scan", "ios": "https://dc.lft.to/lastmile_qr_scan"}, "fusion_lon": 0.0, "lat": 38.908641, "bike_id": "32fcee359f54a426840407f56c670d5c", "type": "electric_scooter", "is_reserved": 0, "lon": -77.08594233333334}, {"fusion_lat": 0.0, "name": "d3dae17cee33f6360be56da55cbc26d7", "is_disabled": 0, "rental_uris": {"android": "https://dc.lft.to/lastmile_qr_scan", "ios": "https://dc.lft.to/lastmile_qr_scan"}, "fusion_lon": 0.0, "lat": 38.878804, "bike_id": "d3dae17cee33f6360be56da55cbc26d7", "type": "electric_scooter", "is_reserved": 0, "lon": -77.02235366666666}, {"fusion_lat": 0.0, "name": "7760468a226921747b6eb01b49cc2939", "is_disabled": 0, "rental_uris": {"android": "https://dc.lft.to/lastmile_qr_scan", "ios": "https://dc.lft.to/lastmile_qr_scan"}, "fusion_lon": 0.0, "lat": 38.961505333333335, "bike_id": "7760468a226921747b6eb01b49cc2939", "type": "electric_scooter", "is_reserved": 0, "lon": -77.0735955}, {"fusion_lat": 0.0, "name": "fa0fd7493c1203e66a223d53f2c8eaa1", "is_disabled": 0, "rental_uris": {"android": "https://dc.lft.to/lastmile_qr_scan", "ios": "https://dc.lft.to/lastmile_qr_scan"}, "fusion_lon": 0.0, "lat": 38.89611466666667, "bike_id": "fa0fd7493c1203e66a223d53f2c8eaa1", "type": "electric_scooter", "is_reserved": 0, "lon": -76.948162}, {"fusion_lat": 0.0, "name": "dcab58c6871c4de6a33a247895bf3192", "is_disabled": 0, "rental_uris": {"android": "https://dc.lft.to/lastmile_qr_scan", "ios": "https://dc.lft.to/lastmile_qr_scan"}, "fusion_lon": 0.0, "lat": 38.917061, "bike_id": "dcab58c6871c4de6a33a247895bf3192", "type": "electric_scooter", "is_reserved": 0, "lon": -77.0421245}, {"fusion_lat": 0.0, "name": "5c4c466db5692d262a58769851d68ea5", "is_disabled": 0, "rental_uris": {"android": "https://dc.lft.to/lastmile_qr_scan", "ios": "https://dc.lft.to/lastmile_qr_scan"}, "fusion_lon": 0.0, "lat": 38.824559666666666, "bike_id": "5c4c466db5692d262a58769851d68ea5", "type": "electric_bike", "is_reserved": 0, "lon": -77.00794016666667}, {"fusion_lat": 0.0, "name": "d9a49eec27b176ee4753d7438c37349e", "is_disabled": 0, "rental_uris": {"android": "https://dc.lft.to/lastmile_qr_scan", "ios": "https://dc.lft.to/lastmile_qr_scan"}, "fusion_lon": 0.0, "lat": 38.899067, "bike_id": "d9a49eec27b176ee4753d7438c37349e", "type": "electric_scooter", "is_reserved": 0, "lon": -77.03334483333333}, {"fusion_lat": 0.0, "name": "0b84e8a70a5423ca4fa072f2562ad542", "is_disabled": 0, "rental_uris": {"android": "https://dc.lft.to/lastmile_qr_scan", "ios": "https://dc.lft.to/lastmile_qr_scan"}, "fusion_lon": 0.0, "lat": 38.900277, "bike_id": "0b84e8a70a5423ca4fa072f2562ad542", "type": "electric_scooter", "is_reserved": 0, "lon": -77.007281}, {"fusion_lat": 0.0, "name": "6a723d0ab4c06caabb8b437757af9148", "is_disabled": 0, "rental_uris": {"android": "https://dc.lft.to/lastmile_qr_scan", "ios": "https://dc.lft.to/lastmile_qr_scan"}, "fusion_lon": 0.0, "lat": 38.91785766666667, "bike_id": "6a723d0ab4c06caabb8b437757af9148", "type": "electric_scooter", "is_reserved": 0, "lon": -77.02302783333333}, {"fusion_lat": 0.0, "name": "28d2740cf124981e197c7d307e639a8c", "is_disabled": 0, "rental_uris": {"android": "https://dc.lft.to/lastmile_qr_scan", "ios": "https://dc.lft.to/lastmile_qr_scan"}, "fusion_lon": 0.0, "lat": 38.88767416666666, "bike_id": "28d2740cf124981e197c7d307e639a8c", "type": "electric_scooter", "is_reserved": 0, "lon": -76.97752583333333}, {"fusion_lat": 0.0, "name": "a872df996f2b9550aafefa98e0222e66", "is_disabled": 0, "rental_uris": {"android": "https://dc.lft.to/lastmile_qr_scan", "ios": "https://dc.lft.to/lastmile_qr_scan"}, "fusion_lon": 0.0, "lat": 38.909510166666664, "bike_id": "a872df996f2b9550aafefa98e0222e66", "type": "electric_scooter", "is_reserved": 0, "lon": -76.98545383333334}, {"fusion_lat": 0.0, "name": "2cc732241126d0ed232d1c29ad2ed888", "is_disabled": 0, "rental_uris": {"android": "https://dc.lft.to/lastmile_qr_scan", "ios": "https://dc.lft.to/lastmile_qr_scan"}, "fusion_lon": 0.0, "lat": 38.92386483333333, "bike_id": "2cc732241126d0ed232d1c29ad2ed888", "type": "electric_scooter", "is_reserved": 0, "lon": -77.03665766666667}, {"fusion_lat": 0.0, "name": "beef118032dab2f6356f963ac046678a", "is_disabled": 0, "rental_uris": {"android": "https://dc.lft.to/lastmile_qr_scan", "ios": "https://dc.lft.to/lastmile_qr_scan"}, "fusion_lon": 0.0, "lat": 38.9136395, "bike_id": "beef118032dab2f6356f963ac046678a", "type": "electric_scooter", "is_reserved": 0, "lon": -77.04553983333334}, {"fusion_lat": 0.0, "name": "8c0590b7ff95bf6bd5fe1d3d981ccdda", "is_disabled": 0, "rental_uris": {"android": "https://dc.lft.to/lastmile_qr_scan", "ios": "https://dc.lft.to/lastmile_qr_scan"}, "fusion_lon": 0.0, "lat": 38.918145333333335, "bike_id": "8c0590b7ff95bf6bd5fe1d3d981ccdda", "type": "electric_scooter", "is_reserved": 0, "lon": -77.002602}, {"fusion_lat": 0.0, "name": "dde8262c167c224503974eaedc838c45", "is_disabled": 0, "rental_uris": {"android": "https://dc.lft.to/lastmile_qr_scan", "ios": "https://dc.lft.to/lastmile_qr_scan"}, "fusion_lon": 0.0, "lat": 38.887614166666665, "bike_id": "dde8262c167c224503974eaedc838c45", "type": "electric_scooter", "is_reserved": 0, "lon": -76.99469316666666}, {"fusion_lat": 0.0, "name": "9bff8102e3be18369112551f1f2f86d8", "is_disabled": 0, "rental_uris": {"android": "https://dc.lft.to/lastmile_qr_scan", "ios": "https://dc.lft.to/lastmile_qr_scan"}, "fusion_lon": 0.0, "lat": 38.95830516666667, "bike_id": "9bff8102e3be18369112551f1f2f86d8", "type": "electric_bike", "is_reserved": 0, "lon": -77.015107}, {"fusion_lat": 0.0, "name": "66b1658ff3adeefc02ff4b096ced692a", "is_disabled": 0, "rental_uris": {"android": "https://dc.lft.to/lastmile_qr_scan", "ios": "https://dc.lft.to/lastmile_qr_scan"}, "fusion_lon": 0.0, "lat": 38.906928666666666, "bike_id": "66b1658ff3adeefc02ff4b096ced692a", "type": "electric_scooter", "is_reserved": 0, "lon": -77.04873633333334}, {"fusion_lat": 0.0, "name": "a51e3370d792754236b3af0f9a052f08", "is_disabled": 0, "rental_uris": {"android": "https://dc.lft.to/lastmile_qr_scan", "ios": "https://dc.lft.to/lastmile_qr_scan"}, "fusion_lon": 0.0, "lat": 38.98472016666667, "bike_id": "a51e3370d792754236b3af0f9a052f08", "type": "electric_scooter", "is_reserved": 0, "lon": -77.02636733333334}, {"fusion_lat": 0.0, "name": "4a8654e2a7012f69c82d1976617deb03", "is_disabled": 0, "rental_uris": {"android": "https://dc.lft.to/lastmile_qr_scan", "ios": "https://dc.lft.to/lastmile_qr_scan"}, "fusion_lon": 0.0, "lat": 38.92160283333333, "bike_id": "4a8654e2a7012f69c82d1976617deb03", "type": "electric_scooter", "is_reserved": 0, "lon": -77.03671383333334}, {"fusion_lat": 0.0, "name": "ce8bb47a8b70e3c32b56ac39fd4f801a", "is_disabled": 0, "rental_uris": {"android": "https://dc.lft.to/lastmile_qr_scan", "ios": "https://dc.lft.to/lastmile_qr_scan"}, "fusion_lon": 0.0, "lat": 38.916588833333336, "bike_id": "ce8bb47a8b70e3c32b56ac39fd4f801a", "type": "electric_scooter", "is_reserved": 0, "lon": -77.02818216666667}, {"fusion_lat": 0.0, "name": "290793d92ce2a936c176583f8cdfd667", "is_disabled": 0, "rental_uris": {"android": "https://dc.lft.to/lastmile_qr_scan", "ios": "https://dc.lft.to/lastmile_qr_scan"}, "fusion_lon": 0.0, "lat": 38.9530815, "bike_id": "290793d92ce2a936c176583f8cdfd667", "type": "electric_scooter", "is_reserved": 0, "lon": -76.998886}, {"fusion_lat": 0.0, "name": "a2c2ff342c24e3fb2bc461b09e45114c", "is_disabled": 0, "rental_uris": {"android": "https://dc.lft.to/lastmile_qr_scan", "ios": "https://dc.lft.to/lastmile_qr_scan"}, "fusion_lon": 0.0, "lat": 38.91707666666667, "bike_id": "a2c2ff342c24e3fb2bc461b09e45114c", "type": "electric_scooter", "is_reserved": 0, "lon": -77.02734633333333}, {"fusion_lat": 0.0, "name": "d7e4ae097d3e22ce650d1ce4f5f4489c", "is_disabled": 0, "rental_uris": {"android": "https://dc.lft.to/lastmile_qr_scan", "ios": "https://dc.lft.to/lastmile_qr_scan"}, "fusion_lon": 0.0, "lat": 38.8852435, "bike_id": "d7e4ae097d3e22ce650d1ce4f5f4489c", "type": "electric_scooter", "is_reserved": 0, "lon": -77.0153795}, {"fusion_lat": 0.0, "name": "afa44439d71da361ce28ea452a0fc21e", "is_disabled": 0, "rental_uris": {"android": "https://dc.lft.to/lastmile_qr_scan", "ios": "https://dc.lft.to/lastmile_qr_scan"}, "fusion_lon": 0.0, "lat": 38.887341666666664, "bike_id": "afa44439d71da361ce28ea452a0fc21e", "type": "electric_scooter", "is_reserved": 0, "lon": -77.00345966666667}, {"fusion_lat": 0.0, "name": "4054ccf966826828e51598b24417d62f", "is_disabled": 0, "rental_uris": {"android": "https://dc.lft.to/lastmile_qr_scan", "ios": "https://dc.lft.to/lastmile_qr_scan"}, "fusion_lon": 0.0, "lat": 38.92406016666666, "bike_id": "4054ccf966826828e51598b24417d62f", "type": "electric_scooter", "is_reserved": 0, "lon": -77.03531366666667}, {"fusion_lat": 0.0, "name": "8bbf4ba2d7016d48e346830b9982df36", "is_disabled": 0, "rental_uris": {"android": "https://dc.lft.to/lastmile_qr_scan", "ios": "https://dc.lft.to/lastmile_qr_scan"}, "fusion_lon": 0.0, "lat": 38.90504966666666, "bike_id": "8bbf4ba2d7016d48e346830b9982df36", "type": "electric_scooter", "is_reserved": 0, "lon": -77.06027783333333}, {"fusion_lat": 0.0, "name": "c92e29923181e872e3a9ff03164c89c2", "is_disabled": 0, "rental_uris": {"android": "https://dc.lft.to/lastmile_qr_scan", "ios": "https://dc.lft.to/lastmile_qr_scan"}, "fusion_lon": 0.0, "lat": 38.9364925, "bike_id": "c92e29923181e872e3a9ff03164c89c2", "type": "electric_scooter", "is_reserved": 0, "lon": -77.03045166666666}, {"fusion_lat": 0.0, "name": "d7cbb607d4273d89085f3439b584ed33", "is_disabled": 0, "rental_uris": {"android": "https://dc.lft.to/lastmile_qr_scan", "ios": "https://dc.lft.to/lastmile_qr_scan"}, "fusion_lon": 0.0, "lat": 38.920777, "bike_id": "d7cbb607d4273d89085f3439b584ed33", "type": "electric_bike", "is_reserved": 0, "lon": -76.98948516666667}, {"fusion_lat": 0.0, "name": "c2a72646c45afe8277d9683fad1679ba", "is_disabled": 0, "rental_uris": {"android": "https://dc.lft.to/lastmile_qr_scan", "ios": "https://dc.lft.to/lastmile_qr_scan"}, "fusion_lon": 0.0, "lat": 38.942267333333334, "bike_id": "c2a72646c45afe8277d9683fad1679ba", "type": "electric_scooter", "is_reserved": 0, "lon": -77.0138485}, {"fusion_lat": 0.0, "name": "b875ec93c822f42ed3e39c088df8fdd8", "is_disabled": 0, "rental_uris": {"android": "https://dc.lft.to/lastmile_qr_scan", "ios": "https://dc.lft.to/lastmile_qr_scan"}, "fusion_lon": 0.0, "lat": 38.91069933333333, "bike_id": "b875ec93c822f42ed3e39c088df8fdd8", "type": "electric_scooter", "is_reserved": 0, "lon": -77.0272025}, {"fusion_lat": 0.0, "name": "c622d9a4face2c7945ae5e4addc46bff", "is_disabled": 0, "rental_uris": {"android": "https://dc.lft.to/lastmile_qr_scan", "ios": "https://dc.lft.to/lastmile_qr_scan"}, "fusion_lon": 0.0, "lat": 38.9132765, "bike_id": "c622d9a4face2c7945ae5e4addc46bff", "type": "electric_scooter", "is_reserved": 0, "lon": -77.03192383333334}, {"fusion_lat": 0.0, "name": "e2c653c26fb7250242bdb2e76ab4c664", "is_disabled": 0, "rental_uris": {"android": "https://dc.lft.to/lastmile_qr_scan", "ios": "https://dc.lft.to/lastmile_qr_scan"}, "fusion_lon": 0.0, "lat": 38.90219616666667, "bike_id": "e2c653c26fb7250242bdb2e76ab4c664", "type": "electric_scooter", "is_reserved": 0, "lon": -77.05937466666667}, {"fusion_lat": 0.0, "name": "8b860494689afa3c9965d32cec814d7c", "is_disabled": 0, "rental_uris": {"android": "https://dc.lft.to/lastmile_qr_scan", "ios": "https://dc.lft.to/lastmile_qr_scan"}, "fusion_lon": 0.0, "lat": 38.87632983333334, "bike_id": "8b860494689afa3c9965d32cec814d7c", "type": "electric_scooter", "is_reserved": 0, "lon": -77.00951883333333}, {"fusion_lat": 0.0, "name": "355cfb4546b4077c690a1c4327aa1696", "is_disabled": 0, "rental_uris": {"android": "https://dc.lft.to/lastmile_qr_scan", "ios": "https://dc.lft.to/lastmile_qr_scan"}, "fusion_lon": 0.0, "lat": 38.918110666666664, "bike_id": "355cfb4546b4077c690a1c4327aa1696", "type": "electric_scooter", "is_reserved": 0, "lon": -77.03336033333333}, {"fusion_lat": 0.0, "name": "1ad5e0fdd83005353aaab7ab017741d6", "is_disabled": 0, "rental_uris": {"android": "https://dc.lft.to/lastmile_qr_scan", "ios": "https://dc.lft.to/lastmile_qr_scan"}, "fusion_lon": 0.0, "lat": 38.919044, "bike_id": "1ad5e0fdd83005353aaab7ab017741d6", "type": "electric_scooter", "is_reserved": 0, "lon": -77.0122225}, {"fusion_lat": 0.0, "name": "5b8c52d332db141ef595fdf03cdfc1c0", "is_disabled": 0, "rental_uris": {"android": "https://dc.lft.to/lastmile_qr_scan", "ios": "https://dc.lft.to/lastmile_qr_scan"}, "fusion_lon": 0.0, "lat": 38.926155666666666, "bike_id": "5b8c52d332db141ef595fdf03cdfc1c0", "type": "electric_scooter", "is_reserved": 0, "lon": -77.02220883333334}, {"fusion_lat": 0.0, "name": "e9c271cf010f2bd6c8622a32334c7843", "is_disabled": 0, "rental_uris": {"android": "https://dc.lft.to/lastmile_qr_scan", "ios": "https://dc.lft.to/lastmile_qr_scan"}, "fusion_lon": 0.0, "lat": 38.911485166666665, "bike_id": "e9c271cf010f2bd6c8622a32334c7843", "type": "electric_scooter", "is_reserved": 0, "lon": -77.01073883333333}, {"fusion_lat": 0.0, "name": "dd843a1c0af7e0c412cffd979f39ece5", "is_disabled": 0, "rental_uris": {"android": "https://dc.lft.to/lastmile_qr_scan", "ios": "https://dc.lft.to/lastmile_qr_scan"}, "fusion_lon": 0.0, "lat": 38.940140166666666, "bike_id": "dd843a1c0af7e0c412cffd979f39ece5", "type": "electric_scooter", "is_reserved": 0, "lon": -77.02763666666667}, {"fusion_lat": 0.0, "name": "89fe8d5206757e71ddc99ba972474092", "is_disabled": 0, "rental_uris": {"android": "https://dc.lft.to/lastmile_qr_scan", "ios": "https://dc.lft.to/lastmile_qr_scan"}, "fusion_lon": 0.0, "lat": 38.91910333333333, "bike_id": "89fe8d5206757e71ddc99ba972474092", "type": "electric_scooter", "is_reserved": 0, "lon": -77.024953}, {"fusion_lat": 0.0, "name": "02d56e708a6ac3e0393887484aa576d5", "is_disabled": 0, "rental_uris": {"android": "https://dc.lft.to/lastmile_qr_scan", "ios": "https://dc.lft.to/lastmile_qr_scan"}, "fusion_lon": 0.0, "lat": 38.89224383333333, "bike_id": "02d56e708a6ac3e0393887484aa576d5", "type": "electric_scooter", "is_reserved": 0, "lon": -77.03219533333333}, {"fusion_lat": 0.0, "name": "df172faf4df836beaa96a62ab9a45475", "is_disabled": 0, "rental_uris": {"android": "https://dc.lft.to/lastmile_qr_scan", "ios": "https://dc.lft.to/lastmile_qr_scan"}, "fusion_lon": 0.0, "lat": 38.926134, "bike_id": "df172faf4df836beaa96a62ab9a45475", "type": "electric_scooter", "is_reserved": 0, "lon": -77.02166583333333}, {"fusion_lat": 0.0, "name": "bc31cdaf8d7e180f57a898de84b6fba9", "is_disabled": 0, "rental_uris": {"android": "https://dc.lft.to/lastmile_qr_scan", "ios": "https://dc.lft.to/lastmile_qr_scan"}, "fusion_lon": 0.0, "lat": 38.94840933333333, "bike_id": "bc31cdaf8d7e180f57a898de84b6fba9", "type": "electric_scooter", "is_reserved": 0, "lon": -77.0256575}, {"fusion_lat": 0.0, "name": "05d3b1787efcd21605cf37787f157431", "is_disabled": 0, "rental_uris": {"android": "https://dc.lft.to/lastmile_qr_scan", "ios": "https://dc.lft.to/lastmile_qr_scan"}, "fusion_lon": 0.0, "lat": 38.900420833333335, "bike_id": "05d3b1787efcd21605cf37787f157431", "type": "electric_scooter", "is_reserved": 0, "lon": -77.0559885}, {"fusion_lat": 0.0, "name": "fafc89f0cc27935da757fcc06abced4b", "is_disabled": 0, "rental_uris": {"android": "https://dc.lft.to/lastmile_qr_scan", "ios": "https://dc.lft.to/lastmile_qr_scan"}, "fusion_lon": 0.0, "lat": 38.907318833333335, "bike_id": "fafc89f0cc27935da757fcc06abced4b", "type": "electric_scooter", "is_reserved": 0, "lon": -77.063214}, {"fusion_lat": 0.0, "name": "473ebe3f127b1ffa97d664ddbbea4989", "is_disabled": 0, "rental_uris": {"android": "https://dc.lft.to/lastmile_qr_scan", "ios": "https://dc.lft.to/lastmile_qr_scan"}, "fusion_lon": 0.0, "lat": 38.900330333333336, "bike_id": "473ebe3f127b1ffa97d664ddbbea4989", "type": "electric_scooter", "is_reserved": 0, "lon": -77.0583375}, {"fusion_lat": 0.0, "name": "42edc8a9c21af4a50ea5471a28eef36d", "is_disabled": 0, "rental_uris": {"android": "https://dc.lft.to/lastmile_qr_scan", "ios": "https://dc.lft.to/lastmile_qr_scan"}, "fusion_lon": 0.0, "lat": 38.91901716666667, "bike_id": "42edc8a9c21af4a50ea5471a28eef36d", "type": "electric_scooter", "is_reserved": 0, "lon": -77.02754066666667}, {"fusion_lat": 0.0, "name": "83013c0e9637cda9a3569d4ef9c7bdc8", "is_disabled": 0, "rental_uris": {"android": "https://dc.lft.to/lastmile_qr_scan", "ios": "https://dc.lft.to/lastmile_qr_scan"}, "fusion_lon": 0.0, "lat": 38.9307055, "bike_id": "83013c0e9637cda9a3569d4ef9c7bdc8", "type": "electric_scooter", "is_reserved": 0, "lon": -77.0327655}, {"fusion_lat": 0.0, "name": "43ae048cb853f5792541a1a7057e6c12", "is_disabled": 0, "rental_uris": {"android": "https://dc.lft.to/lastmile_qr_scan", "ios": "https://dc.lft.to/lastmile_qr_scan"}, "fusion_lon": 0.0, "lat": 38.8930105, "bike_id": "43ae048cb853f5792541a1a7057e6c12", "type": "electric_scooter", "is_reserved": 0, "lon": -77.02149983333334}, {"fusion_lat": 0.0, "name": "ce48b8b7792183f17a56300c0db609de", "is_disabled": 0, "rental_uris": {"android": "https://dc.lft.to/lastmile_qr_scan", "ios": "https://dc.lft.to/lastmile_qr_scan"}, "fusion_lon": 0.0, "lat": 38.9122285, "bike_id": "ce48b8b7792183f17a56300c0db609de", "type": "electric_scooter", "is_reserved": 0, "lon": -77.03205833333334}, {"fusion_lat": 0.0, "name": "1dadc9e1c4143cba1d8058a072d2e8ef", "is_disabled": 0, "rental_uris": {"android": "https://dc.lft.to/lastmile_qr_scan", "ios": "https://dc.lft.to/lastmile_qr_scan"}, "fusion_lon": 0.0, "lat": 38.79467616666667, "bike_id": "1dadc9e1c4143cba1d8058a072d2e8ef", "type": "electric_bike", "is_reserved": 0, "lon": -76.9924865}, {"fusion_lat": 0.0, "name": "ff08e2d33977d1b267bfe0396414d7ad", "is_disabled": 0, "rental_uris": {"android": "https://dc.lft.to/lastmile_qr_scan", "ios": "https://dc.lft.to/lastmile_qr_scan"}, "fusion_lon": 0.0, "lat": 38.89909316666667, "bike_id": "ff08e2d33977d1b267bfe0396414d7ad", "type": "electric_scooter", "is_reserved": 0, "lon": -76.933578}, {"fusion_lat": 0.0, "name": "ac2fcc4df11191b4dd1cbc3bb2d662cf", "is_disabled": 0, "rental_uris": {"android": "https://dc.lft.to/lastmile_qr_scan", "ios": "https://dc.lft.to/lastmile_qr_scan"}, "fusion_lon": 0.0, "lat": 38.923832833333336, "bike_id": "ac2fcc4df11191b4dd1cbc3bb2d662cf", "type": "electric_scooter", "is_reserved": 0, "lon": -77.04080433333333}, {"fusion_lat": 0.0, "name": "f0e0f7b811052fcf954c1c2f25d95f3b", "is_disabled": 0, "rental_uris": {"android": "https://dc.lft.to/lastmile_qr_scan", "ios": "https://dc.lft.to/lastmile_qr_scan"}, "fusion_lon": 0.0, "lat": 38.9681045, "bike_id": "f0e0f7b811052fcf954c1c2f25d95f3b", "type": "electric_bike", "is_reserved": 0, "lon": -76.95523333333334}, {"fusion_lat": 0.0, "name": "22b3d7bcbd5ba39a275c88a0b057d714", "is_disabled": 0, "rental_uris": {"android": "https://dc.lft.to/lastmile_qr_scan", "ios": "https://dc.lft.to/lastmile_qr_scan"}, "fusion_lon": 0.0, "lat": 38.897817, "bike_id": "22b3d7bcbd5ba39a275c88a0b057d714", "type": "electric_scooter", "is_reserved": 0, "lon": -77.04665916666667}, {"fusion_lat": 0.0, "name": "191f87ba1d4fc55c517c44102c4a31f3", "is_disabled": 0, "rental_uris": {"android": "https://dc.lft.to/lastmile_qr_scan", "ios": "https://dc.lft.to/lastmile_qr_scan"}, "fusion_lon": 0.0, "lat": 38.907737, "bike_id": "191f87ba1d4fc55c517c44102c4a31f3", "type": "electric_scooter", "is_reserved": 0, "lon": -77.03860516666667}, {"fusion_lat": 0.0, "name": "cc2e9c0f218e48a63717cb6bd1e67ae1", "is_disabled": 0, "rental_uris": {"android": "https://dc.lft.to/lastmile_qr_scan", "ios": "https://dc.lft.to/lastmile_qr_scan"}, "fusion_lon": 0.0, "lat": 38.93392566666667, "bike_id": "cc2e9c0f218e48a63717cb6bd1e67ae1", "type": "electric_scooter", "is_reserved": 0, "lon": -77.0577125}, {"fusion_lat": 0.0, "name": "bbd57353d641e6c708f91edcecad5315", "is_disabled": 0, "rental_uris": {"android": "https://dc.lft.to/lastmile_qr_scan", "ios": "https://dc.lft.to/lastmile_qr_scan"}, "fusion_lon": 0.0, "lat": 38.92869783333333, "bike_id": "bbd57353d641e6c708f91edcecad5315", "type": "electric_scooter", "is_reserved": 0, "lon": -77.0322765}, {"fusion_lat": 0.0, "name": "6dc8cb86254b902be5e1ed5b847e2307", "is_disabled": 0, "rental_uris": {"android": "https://dc.lft.to/lastmile_qr_scan", "ios": "https://dc.lft.to/lastmile_qr_scan"}, "fusion_lon": 0.0, "lat": 38.89221966666667, "bike_id": "6dc8cb86254b902be5e1ed5b847e2307", "type": "electric_scooter", "is_reserved": 0, "lon": -77.04123533333333}, {"fusion_lat": 0.0, "name": "5529f64baffa26f5ba541ef98a2ef087", "is_disabled": 0, "rental_uris": {"android": "https://dc.lft.to/lastmile_qr_scan", "ios": "https://dc.lft.to/lastmile_qr_scan"}, "fusion_lon": 0.0, "lat": 38.86513633333333, "bike_id": "5529f64baffa26f5ba541ef98a2ef087", "type": "electric_bike", "is_reserved": 0, "lon": -77.1293715}, {"fusion_lat": 0.0, "name": "7dc287951ba841242f42a554a628cab2", "is_disabled": 0, "rental_uris": {"android": "https://dc.lft.to/lastmile_qr_scan", "ios": "https://dc.lft.to/lastmile_qr_scan"}, "fusion_lon": 0.0, "lat": 38.902184, "bike_id": "7dc287951ba841242f42a554a628cab2", "type": "electric_scooter", "is_reserved": 0, "lon": -76.99507266666667}, {"fusion_lat": 0.0, "name": "c137cedea1dff5853b67ff253455c0c1", "is_disabled": 0, "rental_uris": {"android": "https://dc.lft.to/lastmile_qr_scan", "ios": "https://dc.lft.to/lastmile_qr_scan"}, "fusion_lon": 0.0, "lat": 38.91506183333333, "bike_id": "c137cedea1dff5853b67ff253455c0c1", "type": "electric_scooter", "is_reserved": 0, "lon": -77.02195366666666}, {"fusion_lat": 0.0, "name": "ba3ba84be075bacb020e2195c7e74d78", "is_disabled": 0, "rental_uris": {"android": "https://dc.lft.to/lastmile_qr_scan", "ios": "https://dc.lft.to/lastmile_qr_scan"},