{"data": {"bikes": [{"lat": 38.9338365, "is_disabled": 0, "type": "electric_scooter", "lon": -76.99513616666667, "bike_id": "bdf42986b2a72b5c2d7f739356b14c5b", "fusion_lat": 0.0, "name": "bdf42986b2a72b5c2d7f739356b14c5b", "is_reserved": 0, "rental_uris": {"android": "https://dc.lft.to/lastmile_qr_scan", "ios": "https://dc.lft.to/lastmile_qr_scan"}, "fusion_lon": 0.0}, {"lat": 38.9003135, "is_disabled": 0, "type": "electric_scooter", "lon": -77.03315, "bike_id": "e304cca9ac044ad1093ffb0b455ca10c", "fusion_lat": 0.0, "name": "e304cca9ac044ad1093ffb0b455ca10c", "is_reserved": 0, "rental_uris": {"android": "https://dc.lft.to/lastmile_qr_scan", "ios": "https://dc.lft.to/lastmile_qr_scan"}, "fusion_lon": 0.0}, {"lat": 38.81345666666667, "is_disabled": 0, "type": "electric_bike", "lon": -77.04927866666667, "bike_id": "5ce4b699cc4cc211c4b1a772537e0fc2", "fusion_lat": 0.0, "name": "5ce4b699cc4cc211c4b1a772537e0fc2", "is_reserved": 0, "rental_uris": {"android": "https://dc.lft.to/lastmile_qr_scan", "ios": "https://dc.lft.to/lastmile_qr_scan"}, "fusion_lon": 0.0}, {"lat": 38.89559033333333, "is_disabled": 0, "type": "electric_scooter", "lon": -77.003675, "bike_id": "28bb07b439df88458bf423c6fed3adac", "fusion_lat": 0.0, "name": "28bb07b439df88458bf423c6fed3adac", "is_reserved": 0, "rental_uris": {"android": "https://dc.lft.to/lastmile_qr_scan", "ios": "https://dc.lft.to/lastmile_qr_scan"}, "fusion_lon": 0.0}, {"lat": 38.916358, "is_disabled": 0, "type": "electric_scooter", "lon": -77.02407783333334, "bike_id": "59783f3ae2d3d4e8520c567437d49fc1", "fusion_lat": 0.0, "name": "59783f3ae2d3d4e8520c567437d49fc1", "is_reserved": 0, "rental_uris": {"android": "https://dc.lft.to/lastmile_qr_scan", "ios": "https://dc.lft.to/lastmile_qr_scan"}, "fusion_lon": 0.0}, {"lat": 38.877312, "is_disabled": 0, "type": "electric_scooter", "lon": -77.00366833333334, "bike_id": "d68270f102d0aa7e130b8db9a92ec381", "fusion_lat": 0.0, "name": "d68270f102d0aa7e130b8db9a92ec381", "is_reserved": 0, "rental_uris": {"android": "https://dc.lft.to/lastmile_qr_scan", "ios": "https://dc.lft.to/lastmile_qr_scan"}, "fusion_lon": 0.0}, {"lat": 38.874081833333335, "is_disabled": 0, "type": "electric_scooter", "lon": -77.01456883333333, "bike_id": "d6af69d662f1b100bc29cbadcccbb41c", "fusion_lat": 0.0, "name": "d6af69d662f1b100bc29cbadcccbb41c", "is_reserved": 0, "rental_uris": {"android": "https://dc.lft.to/lastmile_qr_scan", "ios": "https://dc.lft.to/lastmile_qr_scan"}, "fusion_lon": 0.0}, {"lat": 38.90244416666667, "is_disabled": 0, "type": "electric_scooter", "lon": -77.00523483333333, "bike_id": "062ad7c077b88675181a1712cf799e1a", "fusion_lat": 0.0, "name": "062ad7c077b88675181a1712cf799e1a", "is_reserved": 0, "rental_uris": {"android": "https://dc.lft.to/lastmile_qr_scan", "ios": "https://dc.lft.to/lastmile_qr_scan"}, "fusion_lon": 0.0}, {"lat": 38.89610966666667, "is_disabled": 0, "type": "electric_scooter", "lon": -76.95660633333334, "bike_id": "e26e77d2cfc9ec14f660c9ea06c1e3d2", "fusion_lat": 0.0, "name": "e26e77d2cfc9ec14f660c9ea06c1e3d2", "is_reserved": 0, "rental_uris": {"android": "https://dc.lft.to/lastmile_qr_scan", "ios": "https://dc.lft.to/lastmile_qr_scan"}, "fusion_lon": 0.0}, {"lat": 38.949135, "is_disabled": 0, "type": "electric_scooter", "lon": -77.06629016666666, "bike_id": "bb493cf2eecea48c671dc030edf750cf", "fusion_lat": 0.0, "name": "bb493cf2eecea48c671dc030edf750cf", "is_reserved": 0, "rental_uris": {"android": "https://dc.lft.to/lastmile_qr_scan", "ios": "https://dc.lft.to/lastmile_qr_scan"}, "fusion_lon": 0.0}, {"lat": 38.938640166666666, "is_disabled": 0, "type": "electric_scooter", "lon": -77.03202566666667, "bike_id": "b885ca50561a58a2337d6a073b73bd49", "fusion_lat": 0.0, "name": "b885ca50561a58a2337d6a073b73bd49", "is_reserved": 0, "rental_uris": {"android": "https://dc.lft.to/lastmile_qr_scan", "ios": "https://dc.lft.to/lastmile_qr_scan"}, "fusion_lon": 0.0}, {"lat": 38.925767, "is_disabled": 0, "type": "electric_scooter", "lon": -77.04008033333334, "bike_id": "27f0196e10a0dda3fe8a65bc18d9ac29", "fusion_lat": 0.0, "name": "27f0196e10a0dda3fe8a65bc18d9ac29", "is_reserved": 0, "rental_uris": {"android": "https://dc.lft.to/lastmile_qr_scan", "ios": "https://dc.lft.to/lastmile_qr_scan"}, "fusion_lon": 0.0}, {"lat": 38.910529833333335, "is_disabled": 0, "type": "electric_scooter", "lon": -77.01526183333333, "bike_id": "e774d726a9773b15f68ae97150c474ac", "fusion_lat": 0.0, "name": "e774d726a9773b15f68ae97150c474ac", "is_reserved": 0, "rental_uris": {"android": "https://dc.lft.to/lastmile_qr_scan", "ios": "https://dc.lft.to/lastmile_qr_scan"}, "fusion_lon": 0.0}, {"lat": 38.914220666666665, "is_disabled": 0, "type": "electric_scooter", "lon": -77.021832, "bike_id": "bbcc23ef896831bb850031b2d20c5040", "fusion_lat": 0.0, "name": "bbcc23ef896831bb850031b2d20c5040", "is_reserved": 0, "rental_uris": {"android": "https://dc.lft.to/lastmile_qr_scan", "ios": "https://dc.lft.to/lastmile_qr_scan"}, "fusion_lon": 0.0}, {"lat": 38.892241166666665, "is_disabled": 0, "type": "electric_scooter", "lon": -77.04870516666666, "bike_id": "733b8a317dc4b1b17fc66dbac1627c56", "fusion_lat": 0.0, "name": "733b8a317dc4b1b17fc66dbac1627c56", "is_reserved": 0, "rental_uris": {"android": "https://dc.lft.to/lastmile_qr_scan", "ios": "https://dc.lft.to/lastmile_qr_scan"}, "fusion_lon": 0.0}, {"lat": 38.853212, "is_disabled": 0, "type": "electric_scooter", "lon": -76.980265, "bike_id": "1e913d9867e918a4456de34741030025", "fusion_lat": 0.0, "name": "1e913d9867e918a4456de34741030025", "is_reserved": 0, "rental_uris": {"android": "https://dc.lft.to/lastmile_qr_scan", "ios": "https://dc.lft.to/lastmile_qr_scan"}, "fusion_lon": 0.0}, {"lat": 38.907524333333335, "is_disabled": 0, "type": "electric_scooter", "lon": -76.99869933333333, "bike_id": "d15e1b2b7b4c44fec66d2c51294f1dbd", "fusion_lat": 0.0, "name": "d15e1b2b7b4c44fec66d2c51294f1dbd", "is_reserved": 0, "rental_uris": {"android": "https://dc.lft.to/lastmile_qr_scan", "ios": "https://dc.lft.to/lastmile_qr_scan"}, "fusion_lon": 0.0}, {"lat": 38.9620715, "is_disabled": 0, "type": "electric_bike", "lon": -77.03514616666666, "bike_id": "bfb5125ee45b2c57bfcd10efb26412ad", "fusion_lat": 0.0, "name": "bfb5125ee45b2c57bfcd10efb26412ad", "is_reserved": 0, "rental_uris": {"android": "https://dc.lft.to/lastmile_qr_scan", "ios": "https://dc.lft.to/lastmile_qr_scan"}, "fusion_lon": 0.0}, {"lat": 38.90670683333333, "is_disabled": 0, "type": "electric_scooter", "lon": -77.027115, "bike_id": "a6919310aeb9958f68a24b2b55b581ce", "fusion_lat": 0.0, "name": "a6919310aeb9958f68a24b2b55b581ce", "is_reserved": 0, "rental_uris": {"android": "https://dc.lft.to/lastmile_qr_scan", "ios": "https://dc.lft.to/lastmile_qr_scan"}, "fusion_lon": 0.0}, {"lat": 38.908288166666665, "is_disabled": 0, "type": "electric_scooter", "lon": -77.06392916666667, "bike_id": "0906f09091154797da9dff94f75c5f62", "fusion_lat": 0.0, "name": "0906f09091154797da9dff94f75c5f62", "is_reserved": 0, "rental_uris": {"android": "https://dc.lft.to/lastmile_qr_scan", "ios": "https://dc.lft.to/lastmile_qr_scan"}, "fusion_lon": 0.0}, {"lat": 38.9154, "is_disabled": 0, "type": "electric_scooter", "lon": -77.03211683333333, "bike_id": "b05bc20c6269b3c0b17febc9a855b833", "fusion_lat": 0.0, "name": "b05bc20c6269b3c0b17febc9a855b833", "is_reserved": 0, "rental_uris": {"android": "https://dc.lft.to/lastmile_qr_scan", "ios": "https://dc.lft.to/lastmile_qr_scan"}, "fusion_lon": 0.0}, {"lat": 38.89884, "is_disabled": 0, "type": "electric_scooter", "lon": -76.93177616666667, "bike_id": "f448ff448664ec5f1d6aef4563b4a471", "fusion_lat": 0.0, "name": "f448ff448664ec5f1d6aef4563b4a471", "is_reserved": 0, "rental_uris": {"android": "https://dc.lft.to/lastmile_qr_scan", "ios": "https://dc.lft.to/lastmile_qr_scan"}, "fusion_lon": 0.0}, {"lat": 38.922422166666664, "is_disabled": 0, "type": "electric_scooter", "lon": -77.04573566666667, "bike_id": "2487fb85c21fc9be54d9a7e521d309fd", "fusion_lat": 0.0, "name": "2487fb85c21fc9be54d9a7e521d309fd", "is_reserved": 0, "rental_uris": {"android": "https://dc.lft.to/lastmile_qr_scan", "ios": "https://dc.lft.to/lastmile_qr_scan"}, "fusion_lon": 0.0}, {"lat": 38.85055233333333, "is_disabled": 0, "type": "electric_bike", "lon": -76.97320066666667, "bike_id": "76541acb27ecf6598e192b3cb132a3f3", "fusion_lat": 0.0, "name": "76541acb27ecf6598e192b3cb132a3f3", "is_reserved": 0, "rental_uris": {"android": "https://dc.lft.to/lastmile_qr_scan", "ios": "https://dc.lft.to/lastmile_qr_scan"}, "fusion_lon": 0.0}, {"lat": 38.93335033333334, "is_disabled": 0, "type": "electric_bike", "lon": -77.04204233333333, "bike_id": "c3ce1d344eb6b823326c4d2bb9b71258", "fusion_lat": 0.0, "name": "c3ce1d344eb6b823326c4d2bb9b71258", "is_reserved": 0, "rental_uris": {"android": "https://dc.lft.to/lastmile_qr_scan", "ios": "https://dc.lft.to/lastmile_qr_scan"}, "fusion_lon": 0.0}, {"lat": 38.90680483333333, "is_disabled": 0, "type": "electric_scooter", "lon": -77.03747483333333, "bike_id": "92dbac8afa6f3001cee57ef0846c9e8d", "fusion_lat": 0.0, "name": "92dbac8afa6f3001cee57ef0846c9e8d", "is_reserved": 0, "rental_uris": {"android": "https://dc.lft.to/lastmile_qr_scan", "ios": "https://dc.lft.to/lastmile_qr_scan"}, "fusion_lon": 0.0}, {"lat": 38.90030466666666, "is_disabled": 0, "type": "electric_scooter", "lon": -77.02600733333334, "bike_id": "5dbea717692bccdd3d848520681e63c3", "fusion_lat": 0.0, "name": "5dbea717692bccdd3d848520681e63c3", "is_reserved": 0, "rental_uris": {"android": "https://dc.lft.to/lastmile_qr_scan", "ios": "https://dc.lft.to/lastmile_qr_scan"}, "fusion_lon": 0.0}, {"lat": 38.901928166666664, "is_disabled": 0, "type": "electric_scooter", "lon": -77.02501366666667, "bike_id": "f9f43112e4ac71342e9cb08ea7afe888", "fusion_lat": 0.0, "name": "f9f43112e4ac71342e9cb08ea7afe888", "is_reserved": 0, "rental_uris": {"android": "https://dc.lft.to/lastmile_qr_scan", "ios": "https://dc.lft.to/lastmile_qr_scan"}, "fusion_lon": 0.0}, {"lat": 38.9138965, "is_disabled": 0, "type": "electric_scooter", "lon": -77.04168, "bike_id": "bd9697f16810930440a0d9c1dd441160", "fusion_lat": 0.0, "name": "bd9697f16810930440a0d9c1dd441160", "is_reserved": 0, "rental_uris": {"android": "https://dc.lft.to/lastmile_qr_scan", "ios": "https://dc.lft.to/lastmile_qr_scan"}, "fusion_lon": 0.0}, {"lat": 38.932325666666664, "is_disabled": 0, "type": "electric_scooter", "lon": -76.99604083333334, "bike_id": "918bd2209493035d2a70503e96caab17", "fusion_lat": 0.0, "name": "918bd2209493035d2a70503e96caab17", "is_reserved": 0, "rental_uris": {"android": "https://dc.lft.to/lastmile_qr_scan", "ios": "https://dc.lft.to/lastmile_qr_scan"}, "fusion_lon": 0.0}, {"lat": 38.8973345, "is_disabled": 0, "type": "electric_scooter", "lon": -77.0475915, "bike_id": "b38768d1a706466a727be1f3d4a5190a", "fusion_lat": 0.0, "name": "b38768d1a706466a727be1f3d4a5190a", "is_reserved": 0, "rental_uris": {"android": "https://dc.lft.to/lastmile_qr_scan", "ios": "https://dc.lft.to/lastmile_qr_scan"}, "fusion_lon": 0.0}, {"lat": 38.93013766666667, "is_disabled": 0, "type": "electric_bike", "lon": -77.216488, "bike_id": "baea5068758de0dd6698e622afbf4e01", "fusion_lat": 0.0, "name": "baea5068758de0dd6698e622afbf4e01", "is_reserved": 0, "rental_uris": {"android": "https://dc.lft.to/lastmile_qr_scan", "ios": "https://dc.lft.to/lastmile_qr_scan"}, "fusion_lon": 0.0}, {"lat": 38.902196, "is_disabled": 0, "type": "electric_scooter", "lon": -76.945909, "bike_id": "e72e3ba10d548d75b1dd2838ed64d900", "fusion_lat": 0.0, "name": "e72e3ba10d548d75b1dd2838ed64d900", "is_reserved": 0, "rental_uris": {"android": "https://dc.lft.to/lastmile_qr_scan", "ios": "https://dc.lft.to/lastmile_qr_scan"}, "fusion_lon": 0.0}, {"lat": 38.922511166666666, "is_disabled": 0, "type": "electric_scooter", "lon": -77.03067633333333, "bike_id": "3650ad3ce3b03884f6bac1e55489f631", "fusion_lat": 0.0, "name": "3650ad3ce3b03884f6bac1e55489f631", "is_reserved": 0, "rental_uris": {"android": "https://dc.lft.to/lastmile_qr_scan", "ios": "https://dc.lft.to/lastmile_qr_scan"}, "fusion_lon": 0.0}, {"lat": 38.89770683333333, "is_disabled": 0, "type": "electric_scooter", "lon": -77.0434925, "bike_id": "bfa4e3f792e47c0fd0609d7438caf719", "fusion_lat": 0.0, "name": "bfa4e3f792e47c0fd0609d7438caf719", "is_reserved": 0, "rental_uris": {"android": "https://dc.lft.to/lastmile_qr_scan", "ios": "https://dc.lft.to/lastmile_qr_scan"}, "fusion_lon": 0.0}, {"lat": 38.9627865, "is_disabled": 0, "type": "electric_bike", "lon": -77.03248033333334, "bike_id": "0719a44c0a61be0ba521b780e67e668b", "fusion_lat": 0.0, "name": "0719a44c0a61be0ba521b780e67e668b", "is_reserved": 0, "rental_uris": {"android": "https://dc.lft.to/lastmile_qr_scan", "ios": "https://dc.lft.to/lastmile_qr_scan"}, "fusion_lon": 0.0}, {"lat": 38.9196265, "is_disabled": 0, "type": "electric_bike", "lon": -76.97265783333333, "bike_id": "5e5c709d9e77259bcfa36ea20beaf412", "fusion_lat": 0.0, "name": "5e5c709d9e77259bcfa36ea20beaf412", "is_reserved": 0, "rental_uris": {"android": "https://dc.lft.to/lastmile_qr_scan", "ios": "https://dc.lft.to/lastmile_qr_scan"}, "fusion_lon": 0.0}, {"lat": 38.965831666666666, "is_disabled": 0, "type": "electric_bike", "lon": -77.02778283333333, "bike_id": "74644fdc1ab7f74ef788a6b4e217bfe3", "fusion_lat": 0.0, "name": "74644fdc1ab7f74ef788a6b4e217bfe3", "is_reserved": 0, "rental_uris": {"android": "https://dc.lft.to/lastmile_qr_scan", "ios": "https://dc.lft.to/lastmile_qr_scan"}, "fusion_lon": 0.0}, {"lat": 38.93378966666667, "is_disabled": 0, "type": "electric_scooter", "lon": -77.03799933333333, "bike_id": "39bbe47945c9975364124e7c4d541eca", "fusion_lat": 0.0, "name": "39bbe47945c9975364124e7c4d541eca", "is_reserved": 0, "rental_uris": {"android": "https://dc.lft.to/lastmile_qr_scan", "ios": "https://dc.lft.to/lastmile_qr_scan"}, "fusion_lon": 0.0}, {"lat": 38.8637175, "is_disabled": 0, "type": "electric_scooter", "lon": -76.99031216666667, "bike_id": "a3987b7f553ea0f71dc7a8c79ea7f337", "fusion_lat": 0.0, "name": "a3987b7f553ea0f71dc7a8c79ea7f337", "is_reserved": 0, "rental_uris": {"android": "https://dc.lft.to/lastmile_qr_scan", "ios": "https://dc.lft.to/lastmile_qr_scan"}, "fusion_lon": 0.0}, {"lat": 39.0305075, "is_disabled": 0, "type": "electric_bike", "lon": -77.09487666666666, "bike_id": "fbe57d364be86a76be80b3caf01d00b1", "fusion_lat": 0.0, "name": "fbe57d364be86a76be80b3caf01d00b1", "is_reserved": 0, "rental_uris": {"android": "https://dc.lft.to/lastmile_qr_scan", "ios": "https://dc.lft.to/lastmile_qr_scan"}, "fusion_lon": 0.0}, {"lat": 38.875711333333335, "is_disabled": 0, "type": "electric_scooter", "lon": -77.02078383333334, "bike_id": "e870544dfabacd3ffcf82cb37280bc3b", "fusion_lat": 0.0, "name": "e870544dfabacd3ffcf82cb37280bc3b", "is_reserved": 0, "rental_uris": {"android": "https://dc.lft.to/lastmile_qr_scan", "ios": "https://dc.lft.to/lastmile_qr_scan"}, "fusion_lon": 0.0}, {"lat": 38.91121233333333, "is_disabled": 0, "type": "electric_scooter", "lon": -77.0278415, "bike_id": "41db8a96fde58b32c87d3f14f59dd98a", "fusion_lat": 0.0, "name": "41db8a96fde58b32c87d3f14f59dd98a", "is_reserved": 0, "rental_uris": {"android": "https://dc.lft.to/lastmile_qr_scan", "ios": "https://dc.lft.to/lastmile_qr_scan"}, "fusion_lon": 0.0}, {"lat": 38.915312166666666, "is_disabled": 0, "type": "electric_scooter", "lon": -76.9821565, "bike_id": "caaf0561f13873a1c8ba7e205c973abd", "fusion_lat": 0.0, "name": "caaf0561f13873a1c8ba7e205c973abd", "is_reserved": 0, "rental_uris": {"android": "https://dc.lft.to/lastmile_qr_scan", "ios": "https://dc.lft.to/lastmile_qr_scan"}, "fusion_lon": 0.0}, {"lat": 38.885129666666664, "is_disabled": 0, "type": "electric_scooter", "lon": -77.006798, "bike_id": "ab1c4d46cca997902ccd388ac1909469", "fusion_lat": 0.0, "name": "ab1c4d46cca997902ccd388ac1909469", "is_reserved": 0, "rental_uris": {"android": "https://dc.lft.to/lastmile_qr_scan", "ios": "https://dc.lft.to/lastmile_qr_scan"}, "fusion_lon": 0.0}, {"lat": 38.91714183333333, "is_disabled": 0, "type": "electric_scooter", "lon": -77.03728933333333, "bike_id": "f5089694cb16dc9ae2e0cb7b27430983", "fusion_lat": 0.0, "name": "f5089694cb16dc9ae2e0cb7b27430983", "is_reserved": 0, "rental_uris": {"android": "https://dc.lft.to/lastmile_qr_scan", "ios": "https://dc.lft.to/lastmile_qr_scan"}, "fusion_lon": 0.0}, {"lat": 38.938394333333335, "is_disabled": 0, "type": "electric_bike", "lon": -76.9885785, "bike_id": "141e62aa06b76545be78650161a89761", "fusion_lat": 0.0, "name": "141e62aa06b76545be78650161a89761", "is_reserved": 0, "rental_uris": {"android": "https://dc.lft.to/lastmile_qr_scan", "ios": "https://dc.lft.to/lastmile_qr_scan"}, "fusion_lon": 0.0}, {"lat": 38.927470666666665, "is_disabled": 0, "type": "electric_scooter", "lon": -76.99725933333333, "bike_id": "76bb4e3841a475aba1d89ea8157a0db8", "fusion_lat": 0.0, "name": "76bb4e3841a475aba1d89ea8157a0db8", "is_reserved": 0, "rental_uris": {"android": "https://dc.lft.to/lastmile_qr_scan", "ios": "https://dc.lft.to/lastmile_qr_scan"}, "fusion_lon": 0.0}, {"lat": 38.907324, "is_disabled": 0, "type": "electric_scooter", "lon": -77.04825733333334, "bike_id": "e4623c3ab05fdaee9e5eec147bd53dec", "fusion_lat": 0.0, "name": "e4623c3ab05fdaee9e5eec147bd53dec", "is_reserved": 0, "rental_uris": {"android": "https://dc.lft.to/lastmile_qr_scan", "ios": "https://dc.lft.to/lastmile_qr_scan"}, "fusion_lon": 0.0}, {"lat": 38.86554066666667, "is_disabled": 0, "type": "electric_scooter", "lon": -76.97409366666666, "bike_id": "fa5513d08797b85e2486853a8e4bdf14", "fusion_lat": 0.0, "name": "fa5513d08797b85e2486853a8e4bdf14", "is_reserved": 0, "rental_uris": {"android": "https://dc.lft.to/lastmile_qr_scan", "ios": "https://dc.lft.to/lastmile_qr_scan"}, "fusion_lon": 0.0}, {"lat": 38.906211166666665, "is_disabled": 0, "type": "electric_scooter", "lon": -77.04157116666667, "bike_id": "b5db2c8fed5b6e95223e5920c168d3e6", "fusion_lat": 0.0, "name": "b5db2c8fed5b6e95223e5920c168d3e6", "is_reserved": 0, "rental_uris": {"android": "https://dc.lft.to/lastmile_qr_scan", "ios": "https://dc.lft.to/lastmile_qr_scan"}, "fusion_lon": 0.0}, {"lat": 38.902817166666665, "is_disabled": 0, "type": "electric_scooter", "lon": -77.03326866666667, "bike_id": "e2ef52d14ba91f7e8667e942677b149e", "fusion_lat": 0.0, "name": "e2ef52d14ba91f7e8667e942677b149e", "is_reserved": 0, "rental_uris": {"android": "https://dc.lft.to/lastmile_qr_scan", "ios": "https://dc.lft.to/lastmile_qr_scan"}, "fusion_lon": 0.0}, {"lat": 38.9008105, "is_disabled": 0, "type": "electric_scooter", "lon": -77.04908083333333, "bike_id": "60cf6a15f1fe1ea653ebb588fd2dc169", "fusion_lat": 0.0, "name": "60cf6a15f1fe1ea653ebb588fd2dc169", "is_reserved": 0, "rental_uris": {"android": "https://dc.lft.to/lastmile_qr_scan", "ios": "https://dc.lft.to/lastmile_qr_scan"}, "fusion_lon": 0.0}, {"lat": 38.92067766666667, "is_disabled": 0, "type": "electric_scooter", "lon": -77.02713733333333, "bike_id": "9c92bdff36bb40a9d18c5b7e3b2d9368", "fusion_lat": 0.0, "name": "9c92bdff36bb40a9d18c5b7e3b2d9368", "is_reserved": 0, "rental_uris": {"android": "https://dc.lft.to/lastmile_qr_scan", "ios": "https://dc.lft.to/lastmile_qr_scan"}, "fusion_lon": 0.0}, {"lat": 38.9170285, "is_disabled": 0, "type": "electric_scooter", "lon": -77.01432766666667, "bike_id": "370e55283eb1b3c2857d462fa00e8a9e", "fusion_lat": 0.0, "name": "370e55283eb1b3c2857d462fa00e8a9e", "is_reserved": 0, "rental_uris": {"android": "https://dc.lft.to/lastmile_qr_scan", "ios": "https://dc.lft.to/lastmile_qr_scan"}, "fusion_lon": 0.0}, {"lat": 38.928021333333334, "is_disabled": 0, "type": "electric_scooter", "lon": -77.05522166666667, "bike_id": "2fde91441bbc0a3775bb9c3cbc1200ce", "fusion_lat": 0.0, "name": "2fde91441bbc0a3775bb9c3cbc1200ce", "is_reserved": 0, "rental_uris": {"android": "https://dc.lft.to/lastmile_qr_scan", "ios": "https://dc.lft.to/lastmile_qr_scan"}, "fusion_lon": 0.0}, {"lat": 38.93303366666667, "is_disabled": 0, "type": "electric_scooter", "lon": -77.02845133333334, "bike_id": "d7e25cb2bf0bf013e6e80b879417e1fb", "fusion_lat": 0.0, "name": "d7e25cb2bf0bf013e6e80b879417e1fb", "is_reserved": 0, "rental_uris": {"android": "https://dc.lft.to/lastmile_qr_scan", "ios": "https://dc.lft.to/lastmile_qr_scan"}, "fusion_lon": 0.0}, {"lat": 39.00004783333333, "is_disabled": 0, "type": "electric_bike", "lon": -76.91081, "bike_id": "566e8b26986bc8eeac9569b998844af0", "fusion_lat": 0.0, "name": "566e8b26986bc8eeac9569b998844af0", "is_reserved": 0, "rental_uris": {"android": "https://dc.lft.to/lastmile_qr_scan", "ios": "https://dc.lft.to/lastmile_qr_scan"}, "fusion_lon": 0.0}, {"lat": 38.9533655, "is_disabled": 0, "type": "electric_bike", "lon": -76.9736365, "bike_id": "6b4ba926334415a5091a7704fac7556e", "fusion_lat": 0.0, "name": "6b4ba926334415a5091a7704fac7556e", "is_reserved": 0, "rental_uris": {"android": "https://dc.lft.to/lastmile_qr_scan", "ios": "https://dc.lft.to/lastmile_qr_scan"}, "fusion_lon": 0.0}, {"lat": 38.8639055, "is_disabled": 0, "type": "electric_bike", "lon": -76.98990016666667, "bike_id": "4515f6d93df64133f84d3138d240d45a", "fusion_lat": 0.0, "name": "4515f6d93df64133f84d3138d240d45a", "is_reserved": 0, "rental_uris": {"android": "https://dc.lft.to/lastmile_qr_scan", "ios": "https://dc.lft.to/lastmile_qr_scan"}, "fusion_lon": 0.0}, {"lat": 38.853207833333336, "is_disabled": 0, "type": "electric_bike", "lon": -76.98004083333333, "bike_id": "e8baf3b42457a87b543bdd770b15a2fb", "fusion_lat": 0.0, "name": "e8baf3b42457a87b543bdd770b15a2fb", "is_reserved": 0, "rental_uris": {"android": "https://dc.lft.to/lastmile_qr_scan", "ios": "https://dc.lft.to/lastmile_qr_scan"}, "fusion_lon": 0.0}, {"lat": 38.9174105, "is_disabled": 0, "type": "electric_scooter", "lon": -77.0364015, "bike_id": "f90326ffa382719bfacf7d60e4563057", "fusion_lat": 0.0, "name": "f90326ffa382719bfacf7d60e4563057", "is_reserved": 0, "rental_uris": {"android": "https://dc.lft.to/lastmile_qr_scan", "ios": "https://dc.lft.to/lastmile_qr_scan"}, "fusion_lon": 0.0}, {"lat": 38.923487333333334, "is_disabled": 0, "type": "electric_scooter", "lon": -77.02441683333333, "bike_id": "05e5fa764217c98d44173dfd40415d46", "fusion_lat": 0.0, "name": "05e5fa764217c98d44173dfd40415d46", "is_reserved": 0, "rental_uris": {"android": "https://dc.lft.to/lastmile_qr_scan", "ios": "https://dc.lft.to/lastmile_qr_scan"}, "fusion_lon": 0.0}, {"lat": 38.9224175, "is_disabled": 0, "type": "electric_scooter", "lon": -77.045743, "bike_id": "206facb703b78d10eb2fbc54254f18c6", "fusion_lat": 0.0, "name": "206facb703b78d10eb2fbc54254f18c6", "is_reserved": 0, "rental_uris": {"android": "https://dc.lft.to/lastmile_qr_scan", "ios": "https://dc.lft.to/lastmile_qr_scan"}, "fusion_lon": 0.0}, {"lat": 38.9722675, "is_disabled": 0, "type": "electric_bike", "lon": -76.99345433333333, "bike_id": "bb65f4b1d3169a9905189bde78af77f0", "fusion_lat": 0.0, "name": "bb65f4b1d3169a9905189bde78af77f0", "is_reserved": 0, "rental_uris": {"android": "https://dc.lft.to/lastmile_qr_scan", "ios": "https://dc.lft.to/lastmile_qr_scan"}, "fusion_lon": 0.0}, {"lat": 38.9033195, "is_disabled": 0, "type": "electric_scooter", "lon": -77.037539, "bike_id": "da51b1a12584c3c1c295f959bbcd5358", "fusion_lat": 0.0, "name": "da51b1a12584c3c1c295f959bbcd5358", "is_reserved": 0, "rental_uris": {"android": "https://dc.lft.to/lastmile_qr_scan", "ios": "https://dc.lft.to/lastmile_qr_scan"}, "fusion_lon": 0.0}, {"lat": 38.933186166666665, "is_disabled": 0, "type": "electric_scooter", "lon": -77.04524733333334, "bike_id": "f7a7defc133037e4ef0e8fed59cc0af2", "fusion_lat": 0.0, "name": "f7a7defc133037e4ef0e8fed59cc0af2", "is_reserved": 0, "rental_uris": {"android": "https://dc.lft.to/lastmile_qr_scan", "ios": "https://dc.lft.to/lastmile_qr_scan"}, "fusion_lon": 0.0}, {"lat": 38.917099666666665, "is_disabled": 0, "type": "electric_scooter", "lon": -77.03470733333333, "bike_id": "594e13adc2540fbefaff1f6f9142ed73", "fusion_lat": 0.0, "name": "594e13adc2540fbefaff1f6f9142ed73", "is_reserved": 0, "rental_uris": {"android": "https://dc.lft.to/lastmile_qr_scan", "ios": "https://dc.lft.to/lastmile_qr_scan"}, "fusion_lon": 0.0}, {"lat": 38.93378216666667, "is_disabled": 0, "type": "electric_scooter", "lon": -77.0379405, "bike_id": "6834e1069dad0972d1f776258b16e4d8", "fusion_lat": 0.0, "name": "6834e1069dad0972d1f776258b16e4d8", "is_reserved": 0, "rental_uris": {"android": "https://dc.lft.to/lastmile_qr_scan", "ios": "https://dc.lft.to/lastmile_qr_scan"}, "fusion_lon": 0.0}, {"lat": 38.8922325, "is_disabled": 0, "type": "electric_scooter", "lon": -77.02093633333334, "bike_id": "871802e326295ed47c5d13b614626b19", "fusion_lat": 0.0, "name": "871802e326295ed47c5d13b614626b19", "is_reserved": 0, "rental_uris": {"android": "https://dc.lft.to/lastmile_qr_scan", "ios": "https://dc.lft.to/lastmile_qr_scan"}, "fusion_lon": 0.0}, {"lat": 38.90558583333333, "is_disabled": 0, "type": "electric_scooter", "lon": -77.0340205, "bike_id": "b067910e06cbdd5b6e0d67a55750926e", "fusion_lat": 0.0, "name": "b067910e06cbdd5b6e0d67a55750926e", "is_reserved": 0, "rental_uris": {"android": "https://dc.lft.to/lastmile_qr_scan", "ios": "https://dc.lft.to/lastmile_qr_scan"}, "fusion_lon": 0.0}, {"lat": 38.906516833333335, "is_disabled": 0, "type": "electric_scooter", "lon": -77.04181283333334, "bike_id": "d78a4ff1c07517f5f4457ebd084296d4", "fusion_lat": 0.0, "name": "d78a4ff1c07517f5f4457ebd084296d4", "is_reserved": 0, "rental_uris": {"android": "https://dc.lft.to/lastmile_qr_scan", "ios": "https://dc.lft.to/lastmile_qr_scan"}, "fusion_lon": 0.0}, {"lat": 38.89485883333333, "is_disabled": 0, "type": "electric_scooter", "lon": -77.02114266666666, "bike_id": "7a6042a41afd2b43d69fc8588c3e4955", "fusion_lat": 0.0, "name": "7a6042a41afd2b43d69fc8588c3e4955", "is_reserved": 0, "rental_uris": {"android": "https://dc.lft.to/lastmile_qr_scan", "ios": "https://dc.lft.to/lastmile_qr_scan"}, "fusion_lon": 0.0}, {"lat": 38.89345633333333, "is_disabled": 0, "type": "electric_scooter", "lon": -76.94934616666667, "bike_id": "4e406156a45ffb8bd901d4917604aaa1", "fusion_lat": 0.0, "name": "4e406156a45ffb8bd901d4917604aaa1", "is_reserved": 0, "rental_uris": {"android": "https://dc.lft.to/lastmile_qr_scan", "ios": "https://dc.lft.to/lastmile_qr_scan"}, "fusion_lon": 0.0}, {"lat": 38.903668, "is_disabled": 0, "type": "electric_scooter", "lon": -77.04264383333333, "bike_id": "4a9656470b94baaec1712f5df8ce6846", "fusion_lat": 0.0, "name": "4a9656470b94baaec1712f5df8ce6846", "is_reserved": 0, "rental_uris": {"android": "https://dc.lft.to/lastmile_qr_scan", "ios": "https://dc.lft.to/lastmile_qr_scan"}, "fusion_lon": 0.0}, {"lat": 38.92336983333333, "is_disabled": 0, "type": "electric_scooter", "lon": -77.04190983333334, "bike_id": "db0e93d65d1f2229014f68af721acdfe", "fusion_lat": 0.0, "name": "db0e93d65d1f2229014f68af721acdfe", "is_reserved": 0, "rental_uris": {"android": "https://dc.lft.to/lastmile_qr_scan", "ios": "https://dc.lft.to/lastmile_qr_scan"}, "fusion_lon": 0.0}, {"lat": 38.91675033333333, "is_disabled": 0, "type": "electric_scooter", "lon": -77.029443, "bike_id": "09bb168b22757917b66aa838687cf602", "fusion_lat": 0.0, "name": "09bb168b22757917b66aa838687cf602", "is_reserved": 0, "rental_uris": {"android": "https://dc.lft.to/lastmile_qr_scan", "ios": "https://dc.lft.to/lastmile_qr_scan"}, "fusion_lon": 0.0}, {"lat": 38.907933166666666, "is_disabled": 0, "type": "electric_scooter", "lon": -77.043185, "bike_id": "ef395812204300cadd4a45c3003c6043", "fusion_lat": 0.0, "name": "ef395812204300cadd4a45c3003c6043", "is_reserved": 0, "rental_uris": {"android": "https://dc.lft.to/lastmile_qr_scan", "ios": "https://dc.lft.to/lastmile_qr_scan"}, "fusion_lon": 0.0}, {"lat": 38.97192416666667, "is_disabled": 0, "type": "electric_bike", "lon": -77.02716083333334, "bike_id": "c43d350c483ec0b8533738cd38e3f5d5", "fusion_lat": 0.0, "name": "c43d350c483ec0b8533738cd38e3f5d5", "is_reserved": 0, "rental_uris": {"android": "https://dc.lft.to/lastmile_qr_scan", "ios": "https://dc.lft.to/lastmile_qr_scan"}, "fusion_lon": 0.0}, {"lat": 38.909802, "is_disabled": 0, "type": "electric_bike", "lon": -76.9851885, "bike_id": "cfcaaa7529e9a66d6880315b2ba20f20", "fusion_lat": 0.0, "name": "cfcaaa7529e9a66d6880315b2ba20f20", "is_reserved": 0, "rental_uris": {"android": "https://dc.lft.to/lastmile_qr_scan", "ios": "https://dc.lft.to/lastmile_qr_scan"}, "fusion_lon": 0.0}, {"lat": 38.925698, "is_disabled": 0, "type": "electric_scooter", "lon": -77.0353995, "bike_id": "65af1acad08a7260223638a2a6c5f6ea", "fusion_lat": 0.0, "name": "65af1acad08a7260223638a2a6c5f6ea", "is_reserved": 0, "rental_uris": {"android": "https://dc.lft.to/lastmile_qr_scan", "ios": "https://dc.lft.to/lastmile_qr_scan"}, "fusion_lon": 0.0}, {"lat": 38.9035635, "is_disabled": 0, "type": "electric_scooter", "lon": -77.05343516666667, "bike_id": "1e708306b388695419e1b959e150b5a0", "fusion_lat": 0.0, "name": "1e708306b388695419e1b959e150b5a0", "is_reserved": 0, "rental_uris": {"android": "https://dc.lft.to/lastmile_qr_scan", "ios": "https://dc.lft.to/lastmile_qr_scan"}, "fusion_lon": 0.0}, {"lat": 38.90812716666667, "is_disabled": 0, "type": "electric_scooter", "lon": -76.98275983333333, "bike_id": "cba64c8e87474e1cc117a9ce52372a56", "fusion_lat": 0.0, "name": "cba64c8e87474e1cc117a9ce52372a56", "is_reserved": 0, "rental_uris": {"android": "https://dc.lft.to/lastmile_qr_scan", "ios": "https://dc.lft.to/lastmile_qr_scan"}, "fusion_lon": 0.0}, {"lat": 38.88051816666667, "is_disabled": 0, "type": "electric_bike", "lon": -77.10947433333334, "bike_id": "3bc375b7dc6e1bfc270492f9dbe7e2e0", "fusion_lat": 0.0, "name": "3bc375b7dc6e1bfc270492f9dbe7e2e0", "is_reserved": 0, "rental_uris": {"android": "https://dc.lft.to/lastmile_qr_scan", "ios": "https://dc.lft.to/lastmile_qr_scan"}, "fusion_lon": 0.0}, {"lat": 38.924382, "is_disabled": 0, "type": "electric_scooter", "lon": -77.0296645, "bike_id": "99c6af96167fec0b2e5fdef4753d39c2", "fusion_lat": 0.0, "name": "99c6af96167fec0b2e5fdef4753d39c2", "is_reserved": 0, "rental_uris": {"android": "https://dc.lft.to/lastmile_qr_scan", "ios": "https://dc.lft.to/lastmile_qr_scan"}, "fusion_lon": 0.0}, {"lat": 38.94440183333333, "is_disabled": 0, "type": "electric_scooter", "lon": -77.0234225, "bike_id": "f7fa692287692c83c4a078b0094516ff", "fusion_lat": 0.0, "name": "f7fa692287692c83c4a078b0094516ff", "is_reserved": 0, "rental_uris": {"android": "https://dc.lft.to/lastmile_qr_scan", "ios": "https://dc.lft.to/lastmile_qr_scan"}, "fusion_lon": 0.0}, {"lat": 38.9205545, "is_disabled": 0, "type": "electric_scooter", "lon": -77.04227816666666, "bike_id": "19b1c9918a13d7d2d7297e1535c85d09", "fusion_lat": 0.0, "name": "19b1c9918a13d7d2d7297e1535c85d09", "is_reserved": 0, "rental_uris": {"android": "https://dc.lft.to/lastmile_qr_scan", "ios": "https://dc.lft.to/lastmile_qr_scan"}, "fusion_lon": 0.0}, {"lat": 38.909807666666666, "is_disabled": 0, "type": "electric_scooter", "lon": -77.02181133333333, "bike_id": "3f199b0445c2ee75511fcfbcfc7756f2", "fusion_lat": 0.0, "name": "3f199b0445c2ee75511fcfbcfc7756f2", "is_reserved": 0, "rental_uris": {"android": "https://dc.lft.to/lastmile_qr_scan", "ios": "https://dc.lft.to/lastmile_qr_scan"}, "fusion_lon": 0.0}, {"lat": 38.901989666666665, "is_disabled": 0, "type": "electric_scooter", "lon": -77.024952, "bike_id": "43ee20277abe5097c79421f27ba2a114", "fusion_lat": 0.0, "name": "43ee20277abe5097c79421f27ba2a114", "is_reserved": 0, "rental_uris": {"android": "https://dc.lft.to/lastmile_qr_scan", "ios": "https://dc.lft.to/lastmile_qr_scan"}, "fusion_lon": 0.0}, {"lat": 38.90888966666667, "is_disabled": 0, "type": "electric_bike", "lon": -77.002521, "bike_id": "8d9162b0625a7fb60840360d6e368879", "fusion_lat": 0.0, "name": "8d9162b0625a7fb60840360d6e368879", "is_reserved": 0, "rental_uris": {"android": "https://dc.lft.to/lastmile_qr_scan", "ios": "https://dc.lft.to/lastmile_qr_scan"}, "fusion_lon": 0.0}, {"lat": 38.90137883333333, "is_disabled": 0, "type": "electric_scooter", "lon": -77.04130016666667, "bike_id": "1c15ca15f003b1a8069f2321cba5c369", "fusion_lat": 0.0, "name": "1c15ca15f003b1a8069f2321cba5c369", "is_reserved": 0, "rental_uris": {"android": "https://dc.lft.to/lastmile_qr_scan", "ios": "https://dc.lft.to/lastmile_qr_scan"}, "fusion_lon": 0.0}, {"lat": 38.85735, "is_disabled": 0, "type": "electric_scooter", "lon": -76.99435916666667, "bike_id": "46cba291f02da3f8ed95005d5a8f9ded", "fusion_lat": 0.0, "name": "46cba291f02da3f8ed95005d5a8f9ded", "is_reserved": 0, "rental_uris": {"android": "https://dc.lft.to/lastmile_qr_scan", "ios": "https://dc.lft.to/lastmile_qr_scan"}, "fusion_lon": 0.0}, {"lat": 38.925827, "is_disabled": 0, "type": "electric_scooter", "lon": -77.0529535, "bike_id": "b9aab0892f4a49ae95d8f76e94478168", "fusion_lat": 0.0, "name": "b9aab0892f4a49ae95d8f76e94478168", "is_reserved": 0, "rental_uris": {"android": "https://dc.lft.to/lastmile_qr_scan", "ios": "https://dc.lft.to/lastmile_qr_scan"}, "fusion_lon": 0.0}, {"lat": 38.898429, "is_disabled": 0, "type": "electric_scooter", "lon": -76.94461566666666, "bike_id": "6e50526c089e40c9e637ae38828c7842", "fusion_lat": 0.0, "name": "6e50526c089e40c9e637ae38828c7842", "is_reserved": 0, "rental_uris": {"android": "https://dc.lft.to/lastmile_qr_scan", "ios": "https://dc.lft.to/lastmile_qr_scan"}, "fusion_lon": 0.0}, {"lat": 38.9056615, "is_disabled": 0, "type": "electric_bike", "lon": -77.00488566666667, "bike_id": "0de98107133aefb0bc1bb9f0db19ed19", "fusion_lat": 0.0, "name": "0de98107133aefb0bc1bb9f0db19ed19", "is_reserved": 0, "rental_uris": {"android": "https://dc.lft.to/lastmile_qr_scan", "ios": "https://dc.lft.to/lastmile_qr_scan"}, "fusion_lon": 0.0}, {"lat": 38.92806233333334, "is_disabled": 0, "type": "electric_scooter", "lon": -77.054308, "bike_id": "a466512b2520b3c0c0e0e22aabb2b1de", "fusion_lat": 0.0, "name": "a466512b2520b3c0c0e0e22aabb2b1de", "is_reserved": 0, "rental_uris": {"android": "https://dc.lft.to/lastmile_qr_scan", "ios": "https://dc.lft.to/lastmile_qr_scan"}, "fusion_lon": 0.0}, {"lat": 38.862945833333335, "is_disabled": 0, "type": "electric_scooter", "lon": -76.99231233333333, "bike_id": "56c686bd90e1930ddb63ee0a505a447a", "fusion_lat": 0.0, "name": "56c686bd90e1930ddb63ee0a505a447a", "is_reserved": 0, "rental_uris": {"android": "https://dc.lft.to/lastmile_qr_scan", "ios": "https://dc.lft.to/lastmile_qr_scan"}, "fusion_lon": 0.0}, {"lat": 38.92107883333333, "is_disabled": 0, "type": "electric_scooter", "lon": -77.04572583333334, "bike_id": "c375b5102005f24e9854a0dc353a3fd6", "fusion_lat": 0.0, "name": "c375b5102005f24e9854a0dc353a3fd6", "is_reserved": 0, "rental_uris": {"android": "https://dc.lft.to/lastmile_qr_scan", "ios": "https://dc.lft.to/lastmile_qr_scan"}, "fusion_lon": 0.0}, {"lat": 39.075050833333336, "is_disabled": 0, "type": "electric_bike", "lon": -77.11901383333333, "bike_id": "2a47326062c29d7ecd4ad4ac2de97d50", "fusion_lat": 0.0, "name": "2a47326062c29d7ecd4ad4ac2de97d50", "is_reserved": 0, "rental_uris": {"android": "https://dc.lft.to/lastmile_qr_scan", "ios": "https://dc.lft.to/lastmile_qr_scan"}, "fusion_lon": 0.0}, {"lat": 38.914656666666666, "is_disabled": 0, "type": "electric_scooter", "lon": -77.0021785, "bike_id": "d99f2399a43be7bac282f32c87de23e9", "fusion_lat": 0.0, "name": "d99f2399a43be7bac282f32c87de23e9", "is_reserved": 0, "rental_uris": {"android": "https://dc.lft.to/lastmile_qr_scan", "ios": "https://dc.lft.to/lastmile_qr_scan"}, "fusion_lon": 0.0}, {"lat": 38.9002245, "is_disabled": 0, "type": "electric_scooter", "lon": -77.03339283333334, "bike_id": "2650e8d0f1bf23b09620e77af22b91a4", "fusion_lat": 0.0, "name": "2650e8d0f1bf23b09620e77af22b91a4", "is_reserved": 0, "rental_uris": {"android": "https://dc.lft.to/lastmile_qr_scan", "ios": "https://dc.lft.to/lastmile_qr_scan"}, "fusion_lon": 0.0}, {"lat": 38.9094945, "is_disabled": 0, "type": "electric_scooter", "lon": -77.04656083333333, "bike_id": "8ddad1b88f457b79ae4cc5dccc42d512", "fusion_lat": 0.0, "name": "8ddad1b88f457b79ae4cc5dccc42d512", "is_reserved": 0, "rental_uris": {"android": "https://dc.lft.to/lastmile_qr_scan", "ios": "https://dc.lft.to/lastmile_qr_scan"}, "fusion_lon": 0.0}, {"lat": 38.9163725, "is_disabled": 0, "type": "electric_scooter", "lon": -77.02700516666667, "bike_id": "1ab9326ccd6f615731aeec546405eef5", "fusion_lat": 0.0, "name": "1ab9326ccd6f615731aeec546405eef5", "is_reserved": 0, "rental_uris": {"android": "https://dc.lft.to/lastmile_qr_scan", "ios": "https://dc.lft.to/lastmile_qr_scan"}, "fusion_lon": 0.0}, {"lat": 38.8953025, "is_disabled": 0, "type": "electric_scooter", "lon": -77.00064266666666, "bike_id": "45cd0fdff71fbe87672cfcd8230687d6", "fusion_lat": 0.0, "name": "45cd0fdff71fbe87672cfcd8230687d6", "is_reserved": 0, "rental_uris": {"android": "https://dc.lft.to/lastmile_qr_scan", "ios": "https://dc.lft.to/lastmile_qr_scan"}, "fusion_lon": 0.0}, {"lat": 38.94497766666667, "is_disabled": 0, "type": "electric_bike", "lon": -77.006795, "bike_id": "744955a638b445dfbfdb75b6ef4757dd", "fusion_lat": 0.0, "name": "744955a638b445dfbfdb75b6ef4757dd", "is_reserved": 0, "rental_uris": {"android": "https://dc.lft.to/lastmile_qr_scan", "ios": "https://dc.lft.to/lastmile_qr_scan"}, "fusion_lon": 0.0}, {"lat": 38.966254166666666, "is_disabled": 0, "type": "electric_bike", "lon": -76.976706, "bike_id": "37a3a4f9d8cb52300efb15444aa8c823", "fusion_lat": 0.0, "name": "37a3a4f9d8cb52300efb15444aa8c823", "is_reserved": 0, "rental_uris": {"android": "https://dc.lft.to/lastmile_qr_scan", "ios": "https://dc.lft.to/lastmile_qr_scan"}, "fusion_lon": 0.0}, {"lat": 38.948383666666665, "is_disabled": 0, "type": "electric_scooter", "lon": -77.02581, "bike_id": "5e09fb80ffcbb952faf7ca5a06d9a308", "fusion_lat": 0.0, "name": "5e09fb80ffcbb952faf7ca5a06d9a308", "is_reserved": 0, "rental_uris": {"android": "https://dc.lft.to/lastmile_qr_scan", "ios": "https://dc.lft.to/lastmile_qr_scan"}, "fusion_lon": 0.0}, {"lat": 38.9506185, "is_disabled": 0, "type": "electric_scooter", "lon": -77.00726816666666, "bike_id": "274f9d551defa26b896649a51e04f3a0", "fusion_lat": 0.0, "name": "274f9d551defa26b896649a51e04f3a0", "is_reserved": 0, "rental_uris": {"android": "https://dc.lft.to/lastmile_qr_scan", "ios": "https://dc.lft.to/lastmile_qr_scan"}, "fusion_lon": 0.0}, {"lat": 38.9002565, "is_disabled": 0, "type": "electric_scooter", "lon": -77.03313783333333, "bike_id": "a9c66e496f73736c3136cf516c7a38b9", "fusion_lat": 0.0, "name": "a9c66e496f73736c3136cf516c7a38b9", "is_reserved": 0, "rental_uris": {"android": "https://dc.lft.to/lastmile_qr_scan", "ios": "https://dc.lft.to/lastmile_qr_scan"}, "fusion_lon": 0.0}, {"lat": 38.86363816666667, "is_disabled": 0, "type": "electric_scooter", "lon": -76.99035983333333, "bike_id": "aada3535c07305ab903ffbb80b9f1644", "fusion_lat": 0.0, "name": "aada3535c07305ab903ffbb80b9f1644", "is_reserved": 0, "rental_uris": {"android": "https://dc.lft.to/lastmile_qr_scan", "ios": "https://dc.lft.to/lastmile_qr_scan"}, "fusion_lon": 0.0}, {"lat": 38.9292135, "is_disabled": 0, "type": "electric_scooter", "lon": -77.037498, "bike_id": "1bd126564e11e3fdc9fad4549a2765b0", "fusion_lat": 0.0, "name": "1bd126564e11e3fdc9fad4549a2765b0", "is_reserved": 0, "rental_uris": {"android": "https://dc.lft.to/lastmile_qr_scan", "ios": "https://dc.lft.to/lastmile_qr_scan"}, "fusion_lon": 0.0}, {"lat": 38.87146766666667, "is_disabled": 0, "type": "electric_bike", "lon": -76.93671933333333, "bike_id": "5d0466c0994c637a047be8cf22ec7b89", "fusion_lat": 0.0, "name": "5d0466c0994c637a047be8cf22ec7b89", "is_reserved": 0, "rental_uris": {"android": "https://dc.lft.to/lastmile_qr_scan", "ios": "https://dc.lft.to/lastmile_qr_scan"}, "fusion_lon": 0.0}, {"lat": 38.908387166666664, "is_disabled": 0, "type": "electric_scooter", "lon": -77.00083083333334, "bike_id": "270b6a87e43df04e4a36b8eceaa5d908", "fusion_lat": 0.0, "name": "270b6a87e43df04e4a36b8eceaa5d908", "is_reserved": 0, "rental_uris": {"android": "https://dc.lft.to/lastmile_qr_scan", "ios": "https://dc.lft.to/lastmile_qr_scan"}, "fusion_lon": 0.0}, {"lat": 38.915636, "is_disabled": 0, "type": "electric_scooter", "lon": -77.03851483333334, "bike_id": "261d3f3d8a8c9ac63797875cbbcfc57b", "fusion_lat": 0.0, "name": "261d3f3d8a8c9ac63797875cbbcfc57b", "is_reserved": 0, "rental_uris": {"android": "https://dc.lft.to/lastmile_qr_scan", "ios": "https://dc.lft.to/lastmile_qr_scan"}, "fusion_lon": 0.0}, {"lat": 38.910011833333336, "is_disabled": 0, "type": "electric_scooter", "lon": -77.04012133333333, "bike_id": "eee152a46405d977b9cc795cb41a8aa6", "fusion_lat": 0.0, "name": "eee152a46405d977b9cc795cb41a8aa6", "is_reserved": 0, "rental_uris": {"android": "https://dc.lft.to/lastmile_qr_scan", "ios": "https://dc.lft.to/lastmile_qr_scan"}, "fusion_lon": 0.0}, {"lat": 38.90270233333333, "is_disabled": 0, "type": "electric_scooter", "lon": -77.01159683333333, "bike_id": "cd7f3e2d1bfb565eea9375edd08a0bb5", "fusion_lat": 0.0, "name": "cd7f3e2d1bfb565eea9375edd08a0bb5", "is_reserved": 0, "rental_uris": {"android": "https://dc.lft.to/lastmile_qr_scan", "ios": "https://dc.lft.to/lastmile_qr_scan"}, "fusion_lon": 0.0}, {"lat": 38.9055885, "is_disabled": 0, "type": "electric_scooter", "lon": -77.0432735, "bike_id": "54fd34aed082cf852435005f876c3ebc", "fusion_lat": 0.0, "name": "54fd34aed082cf852435005f876c3ebc", "is_reserved": 0, "rental_uris": {"android": "https://dc.lft.to/lastmile_qr_scan", "ios": "https://dc.lft.to/lastmile_qr_scan"}, "fusion_lon": 0.0}, {"lat": 38.935824, "is_disabled": 0, "type": "electric_bike", "lon": -77.10683483333334, "bike_id": "b18be23bfba6fb590ea5ce0aad6bedd2", "fusion_lat": 0.0, "name": "b18be23bfba6fb590ea5ce0aad6bedd2", "is_reserved": 0, "rental_uris": {"android": "https://dc.lft.to/lastmile_qr_scan", "ios": "https://dc.lft.to/lastmile_qr_scan"}, "fusion_lon": 0.0}, {"lat": 38.91689566666667, "is_disabled": 0, "type": "electric_scooter", "lon": -77.02696283333333, "bike_id": "6441b00ca2e96cc3ddb02e1e41dc664e", "fusion_lat": 0.0, "name": "6441b00ca2e96cc3ddb02e1e41dc664e", "is_reserved": 0, "rental_uris": {"android": "https://dc.lft.to/lastmile_qr_scan", "ios": "https://dc.lft.to/lastmile_qr_scan"}, "fusion_lon": 0.0}, {"lat": 38.909800833333335, "is_disabled": 0, "type": "electric_scooter", "lon": -77.03442283333334, "bike_id": "0c330450ff716eb18a44c5cba54679f3", "fusion_lat": 0.0, "name": "0c330450ff716eb18a44c5cba54679f3", "is_reserved": 0, "rental_uris": {"android": "https://dc.lft.to/lastmile_qr_scan", "ios": "https://dc.lft.to/lastmile_qr_scan"}, "fusion_lon": 0.0}, {"lat": 38.903829333333334, "is_disabled": 0, "type": "electric_scooter", "lon": -77.00881966666667, "bike_id": "8b9c7b5ea208506f7d3501c5c69b373e", "fusion_lat": 0.0, "name": "8b9c7b5ea208506f7d3501c5c69b373e", "is_reserved": 0, "rental_uris": {"android": "https://dc.lft.to/lastmile_qr_scan", "ios": "https://dc.lft.to/lastmile_qr_scan"}, "fusion_lon": 0.0}, {"lat": 38.94134666666667, "is_disabled": 0, "type": "electric_scooter", "lon": -77.07613766666667, "bike_id": "45ed383276e1dffcac60bbec2fc2628d", "fusion_lat": 0.0, "name": "45ed383276e1dffcac60bbec2fc2628d", "is_reserved": 0, "rental_uris": {"android": "https://dc.lft.to/lastmile_qr_scan", "ios": "https://dc.lft.to/lastmile_qr_scan"}, "fusion_lon": 0.0}, {"lat": 38.92053133333334, "is_disabled": 0, "type": "electric_scooter", "lon": -77.02374366666666, "bike_id": "d8d45c737168e904f51f64cd4cee3229", "fusion_lat": 0.0, "name": "d8d45c737168e904f51f64cd4cee3229", "is_reserved": 0, "rental_uris": {"android": "https://dc.lft.to/lastmile_qr_scan", "ios": "https://dc.lft.to/lastmile_qr_scan"}, "fusion_lon": 0.0}, {"lat": 38.9509785, "is_disabled": 0, "type": "electric_scooter", "lon": -77.02805883333333, "bike_id": "4d2bab3c24e97981d64d7439867d0282", "fusion_lat": 0.0, "name": "4d2bab3c24e97981d64d7439867d0282", "is_reserved": 0, "rental_uris": {"android": "https://dc.lft.to/lastmile_qr_scan", "ios": "https://dc.lft.to/lastmile_qr_scan"}, "fusion_lon": 0.0}, {"lat": 38.902803166666665, "is_disabled": 0, "type": "electric_scooter", "lon": -77.0634945, "bike_id": "e1bc92ffef43116ac620a500f811357f", "fusion_lat": 0.0, "name": "e1bc92ffef43116ac620a500f811357f", "is_reserved": 0, "rental_uris": {"android": "https://dc.lft.to/lastmile_qr_scan", "ios": "https://dc.lft.to/lastmile_qr_scan"}, "fusion_lon": 0.0}, {"lat": 38.85849833333333, "is_disabled": 0, "type": "electric_bike", "lon": -77.09753083333334, "bike_id": "786d505374d556df285deb29da8b1597", "fusion_lat": 0.0, "name": "786d505374d556df285deb29da8b1597", "is_reserved": 0, "rental_uris": {"android": "https://dc.lft.to/lastmile_qr_scan", "ios": "https://dc.lft.to/lastmile_qr_scan"}, "fusion_lon": 0.0}, {"lat": 38.905760666666666, "is_disabled": 0, "type": "electric_scooter", "lon": -77.02221733333333, "bike_id": "c27e59d31e16d2139e2c6b39c8d104f7", "fusion_lat": 0.0, "name": "c27e59d31e16d2139e2c6b39c8d104f7", "is_reserved": 0, "rental_uris": {"android": "https://dc.lft.to/lastmile_qr_scan", "ios": "https://dc.lft.to/lastmile_qr_scan"}, "fusion_lon": 0.0}, {"lat": 38.92118, "is_disabled": 0, "type": "electric_bike", "lon": -76.98575983333333, "bike_id": "f69c272fa97770ea4142cef6512b1e31", "fusion_lat": 0.0, "name": "f69c272fa97770ea4142cef6512b1e31", "is_reserved": 0, "rental_uris": {"android": "https://dc.lft.to/lastmile_qr_scan", "ios": "https://dc.lft.to/lastmile_qr_scan"}, "fusion_lon": 0.0}, {"lat": 38.959085333333334, "is_disabled": 0, "type": "electric_bike", "lon": -76.9247435, "bike_id": "28542b89f64ae776459749adac0cfa9c", "fusion_lat": 0.0, "name": "28542b89f64ae776459749adac0cfa9c", "is_reserved": 0, "rental_uris": {"android": "https://dc.lft.to/lastmile_qr_scan", "ios": "https://dc.lft.to/lastmile_qr_scan"}, "fusion_lon": 0.0}, {"lat": 38.91174016666667, "is_disabled": 0, "type": "electric_scooter", "lon": -77.038622, "bike_id": "62552093c78e6c9aff7cac41e99a0267", "fusion_lat": 0.0, "name": "62552093c78e6c9aff7cac41e99a0267", "is_reserved": 0, "rental_uris": {"android": "https://dc.lft.to/lastmile_qr_scan", "ios": "https://dc.lft.to/lastmile_qr_scan"}, "fusion_lon": 0.0}, {"lat": 38.929144666666666, "is_disabled": 0, "type": "electric_scooter", "lon": -77.03185016666667, "bike_id": "dc25f4658371c08f7e7b4be9035182d8", "fusion_lat": 0.0, "name": "dc25f4658371c08f7e7b4be9035182d8", "is_reserved": 0, "rental_uris": {"android": "https://dc.lft.to/lastmile_qr_scan", "ios": "https://dc.lft.to/lastmile_qr_scan"}, "fusion_lon": 0.0}, {"lat": 38.89044083333334, "is_disabled": 0, "type": "electric_scooter", "lon": -76.940745, "bike_id": "dd61f08bc2a9a633c673698d96aa0dcc", "fusion_lat": 0.0, "name": "dd61f08bc2a9a633c673698d96aa0dcc", "is_reserved": 0, "rental_uris": {"android": "https://dc.lft.to/lastmile_qr_scan", "ios": "https://dc.lft.to/lastmile_qr_scan"}, "fusion_lon": 0.0}, {"lat": 38.90262666666667, "is_disabled": 0, "type": "electric_scooter", "lon": -77.03197283333333, "bike_id": "42ba824aefc75720ccaf1c1e0a5be940", "fusion_lat": 0.0, "name": "42ba824aefc75720ccaf1c1e0a5be940", "is_reserved": 0, "rental_uris": {"android": "https://dc.lft.to/lastmile_qr_scan", "ios": "https://dc.lft.to/lastmile_qr_scan"}, "fusion_lon": 0.0}, {"lat": 38.917918666666665, "is_disabled": 0, "type": "electric_scooter", "lon": -77.04439316666667, "bike_id": "4c284bdc67cc8fbed8821dc66021377f", "fusion_lat": 0.0, "name": "4c284bdc67cc8fbed8821dc66021377f", "is_reserved": 0, "rental_uris": {"android": "https://dc.lft.to/lastmile_qr_scan", "ios": "https://dc.lft.to/lastmile_qr_scan"}, "fusion_lon": 0.0}, {"lat": 38.94042966666667, "is_disabled": 0, "type": "electric_bike", "lon": -77.05163, "bike_id": "5db6a162e63a9ad7af81a0fd67d40d39", "fusion_lat": 0.0, "name": "5db6a162e63a9ad7af81a0fd67d40d39", "is_reserved": 0, "rental_uris": {"android": "https://dc.lft.to/lastmile_qr_scan", "ios": "https://dc.lft.to/lastmile_qr_scan"}, "fusion_lon": 0.0}, {"lat": 38.93100783333333, "is_disabled": 0, "type": "electric_scooter", "lon": -77.02497266666667, "bike_id": "4e6063a8abe02ce20b5e2e7608605c0c", "fusion_lat": 0.0, "name": "4e6063a8abe02ce20b5e2e7608605c0c", "is_reserved": 0, "rental_uris": {"android": "https://dc.lft.to/lastmile_qr_scan", "ios": "https://dc.lft.to/lastmile_qr_scan"}, "fusion_lon": 0.0}, {"lat": 38.91386083333333, "is_disabled": 0, "type": "electric_scooter", "lon": -77.0190165, "bike_id": "c0c418aa1a95bfaea4e8451654c16355", "fusion_lat": 0.0, "name": "c0c418aa1a95bfaea4e8451654c16355", "is_reserved": 0, "rental_uris": {"android": "https://dc.lft.to/lastmile_qr_scan", "ios": "https://dc.lft.to/lastmile_qr_scan"}, "fusion_lon": 0.0}, {"lat": 38.90013416666667, "is_disabled": 0, "type": "electric_scooter", "lon": -77.01203716666667, "bike_id": "148c5898698669515a72e6786af05bbb", "fusion_lat": 0.0, "name": "148c5898698669515a72e6786af05bbb", "is_reserved": 0, "rental_uris": {"android": "https://dc.lft.to/lastmile_qr_scan", "ios": "https://dc.lft.to/lastmile_qr_scan"}, "fusion_lon": 0.0}, {"lat": 38.884687666666665, "is_disabled": 0, "type": "electric_scooter", "lon": -77.02423116666667, "bike_id": "ce63e0b8f382a7a374ba083ec0025cfc", "fusion_lat": 0.0, "name": "ce63e0b8f382a7a374ba083ec0025cfc", "is_reserved": 0, "rental_uris": {"android": "https://dc.lft.to/lastmile_qr_scan", "ios": "https://dc.lft.to/lastmile_qr_scan"}, "fusion_lon": 0.0}, {"lat": 38.91782383333333, "is_disabled": 0, "type": "electric_scooter", "lon": -77.02972866666667, "bike_id": "7bd86c775585b279820d9ab1f50ac0e0", "fusion_lat": 0.0, "name": "7bd86c775585b279820d9ab1f50ac0e0", "is_reserved": 0, "rental_uris": {"android": "https://dc.lft.to/lastmile_qr_scan", "ios": "https://dc.lft.to/lastmile_qr_scan"}, "fusion_lon": 0.0}, {"lat": 38.90065466666667, "is_disabled": 0, "type": "electric_scooter", "lon": -77.0506555, "bike_id": "f6959a437a614db6fcca64a8d176a72b", "fusion_lat": 0.0, "name": "f6959a437a614db6fcca64a8d176a72b", "is_reserved": 0, "rental_uris": {"android": "https://dc.lft.to/lastmile_qr_scan", "ios": "https://dc.lft.to/lastmile_qr_scan"}, "fusion_lon": 0.0}, {"lat": 38.867156333333334, "is_disabled": 0, "type": "electric_scooter", "lon": -76.98726283333333, "bike_id": "045def43a7b49ee5d27b78826d03ff98", "fusion_lat": 0.0, "name": "045def43a7b49ee5d27b78826d03ff98", "is_reserved": 0, "rental_uris": {"android": "https://dc.lft.to/lastmile_qr_scan", "ios": "https://dc.lft.to/lastmile_qr_scan"}, "fusion_lon": 0.0}, {"lat": 38.865091, "is_disabled": 0, "type": "electric_scooter", "lon": -76.99007966666667, "bike_id": "67d37e0de14fe2cfb1bce53b4d8513c7", "fusion_lat": 0.0, "name": "67d37e0de14fe2cfb1bce53b4d8513c7", "is_reserved": 0, "rental_uris": {"android": "https://dc.lft.to/lastmile_qr_scan", "ios": "https://dc.lft.to/lastmile_qr_scan"}, "fusion_lon": 0.0}, {"lat": 38.91652716666667, "is_disabled": 0, "type": "electric_scooter", "lon": -77.02393783333333, "bike_id": "92430a09329dc7fe480ff0c4bd895fad", "fusion_lat": 0.0, "name": "92430a09329dc7fe480ff0c4bd895fad", "is_reserved": 0, "rental_uris": {"android": "https://dc.lft.to/lastmile_qr_scan", "ios": "https://dc.lft.to/lastmile_qr_scan"}, "fusion_lon": 0.0}, {"lat": 38.925071333333335, "is_disabled": 0, "type": "electric_scooter", "lon": -76.98233933333333, "bike_id": "ca302bf3949f83e1ede9cbc1867c6ad6", "fusion_lat": 0.0, "name": "ca302bf3949f83e1ede9cbc1867c6ad6", "is_reserved": 0, "rental_uris": {"android": "https://dc.lft.to/lastmile_qr_scan", "ios": "https://dc.lft.to/lastmile_qr_scan"}, "fusion_lon": 0.0}, {"lat": 38.94920583333333, "is_disabled": 0, "type": "electric_bike", "lon": -77.0079505, "bike_id": "9cc63fa3f03630601682062e892ad8d2", "fusion_lat": 0.0, "name": "9cc63fa3f03630601682062e892ad8d2", "is_reserved": 0, "rental_uris": {"android": "https://dc.lft.to/lastmile_qr_scan", "ios": "https://dc.lft.to/lastmile_qr_scan"}, "fusion_lon": 0.0}, {"lat": 38.9052835, "is_disabled": 0, "type": "electric_scooter", "lon": -77.048796, "bike_id": "476b57edc1d25d0df5cb458930b2202c", "fusion_lat": 0.0, "name": "476b57edc1d25d0df5cb458930b2202c", "is_reserved": 0, "rental_uris": {"android": "https://dc.lft.to/lastmile_qr_scan", "ios": "https://dc.lft.to/lastmile_qr_scan"}, "fusion_lon": 0.0}, {"lat": 38.912705333333335, "is_disabled": 0, "type": "electric_scooter", "lon": -77.02212666666667, "bike_id": "3910508e70e9ac49e8af2426b7d9d835", "fusion_lat": 0.0, "name": "3910508e70e9ac49e8af2426b7d9d835", "is_reserved": 0, "rental_uris": {"android": "https://dc.lft.to/lastmile_qr_scan", "ios": "https://dc.lft.to/lastmile_qr_scan"}, "fusion_lon": 0.0}, {"lat": 38.90854566666667, "is_disabled": 0, "type": "electric_scooter", "lon": -77.04767266666667, "bike_id": "ca40434f84582043d5fcafc33a6375f7", "fusion_lat": 0.0, "name": "ca40434f84582043d5fcafc33a6375f7", "is_reserved": 0, "rental_uris": {"android": "https://dc.lft.to/lastmile_qr_scan", "ios": "https://dc.lft.to/lastmile_qr_scan"}, "fusion_lon": 0.0}, {"lat": 38.9025285, "is_disabled": 0, "type": "electric_scooter", "lon": -77.04582966666666, "bike_id": "fb62f4964bfb55d64a88156399bb6ace", "fusion_lat": 0.0, "name": "fb62f4964bfb55d64a88156399bb6ace", "is_reserved": 0, "rental_uris": {"android": "https://dc.lft.to/lastmile_qr_scan", "ios": "https://dc.lft.to/lastmile_qr_scan"}, "fusion_lon": 0.0}, {"lat": 38.88927066666667, "is_disabled": 0, "type": "electric_scooter", "lon": -76.97374316666667, "bike_id": "ee4f5c4f6a86fd0dd0f9eb1cde212905", "fusion_lat": 0.0, "name": "ee4f5c4f6a86fd0dd0f9eb1cde212905", "is_reserved": 0, "rental_uris": {"android": "https://dc.lft.to/lastmile_qr_scan", "ios": "https://dc.lft.to/lastmile_qr_scan"}, "fusion_lon": 0.0}, {"lat": 38.861607666666664, "is_disabled": 0, "type": "electric_bike", "lon": -77.1309525, "bike_id": "ecb2299fbfdba216ed853446359805fe", "fusion_lat": 0.0, "name": "ecb2299fbfdba216ed853446359805fe", "is_reserved": 0, "rental_uris": {"android": "https://dc.lft.to/lastmile_qr_scan", "ios": "https://dc.lft.to/lastmile_qr_scan"}, "fusion_lon": 0.0}, {"lat": 38.935113, "is_disabled": 0, "type": "electric_scooter", "lon": -77.0367295, "bike_id": "e4f6ac7824a62ffd4c713fd3976d31e3", "fusion_lat": 0.0, "name": "e4f6ac7824a62ffd4c713fd3976d31e3", "is_reserved": 0, "rental_uris": {"android": "https://dc.lft.to/lastmile_qr_scan", "ios": "https://dc.lft.to/lastmile_qr_scan"}, "fusion_lon": 0.0}, {"lat": 38.917698666666666, "is_disabled": 0, "type": "electric_scooter", "lon": -77.02233483333333, "bike_id": "263573b4f09b73b52e67196fb043d396", "fusion_lat": 0.0, "name": "263573b4f09b73b52e67196fb043d396", "is_reserved": 0, "rental_uris": {"android": "https://dc.lft.to/lastmile_qr_scan", "ios": "https://dc.lft.to/lastmile_qr_scan"}, "fusion_lon": 0.0}, {"lat": 38.93121516666667, "is_disabled": 0, "type": "electric_scooter", "lon": -77.02068666666666, "bike_id": "385dd1c705d5df9e0d9b353dfa2afebc", "fusion_lat": 0.0, "name": "385dd1c705d5df9e0d9b353dfa2afebc", "is_reserved": 0, "rental_uris": {"android": "https://dc.lft.to/lastmile_qr_scan", "ios": "https://dc.lft.to/lastmile_qr_scan"}, "fusion_lon": 0.0}, {"lat": 38.862562833333335, "is_disabled": 0, "type": "electric_scooter", "lon": -76.9951185, "bike_id": "bed301e33e1718adeb3cd42948300de3", "fusion_lat": 0.0, "name": "bed301e33e1718adeb3cd42948300de3", "is_reserved": 0, "rental_uris": {"android": "https://dc.lft.to/lastmile_qr_scan", "ios": "https://dc.lft.to/lastmile_qr_scan"}, "fusion_lon": 0.0}, {"lat": 38.89741033333333, "is_disabled": 0, "type": "electric_scooter", "lon": -77.023873, "bike_id": "98179cbb11dba8a4bc18a539e6cf1278", "fusion_lat": 0.0, "name": "98179cbb11dba8a4bc18a539e6cf1278", "is_reserved": 0, "rental_uris": {"android": "https://dc.lft.to/lastmile_qr_scan", "ios": "https://dc.lft.to/lastmile_qr_scan"}, "fusion_lon": 0.0}, {"lat": 38.906355833333336, "is_disabled": 0, "type": "electric_scooter", "lon": -77.062933, "bike_id": "d933ea46ca051ad7947715e472670012", "fusion_lat": 0.0, "name": "d933ea46ca051ad7947715e472670012", "is_reserved": 0, "rental_uris": {"android": "https://dc.lft.to/lastmile_qr_scan", "ios": "https://dc.lft.to/lastmile_qr_scan"}, "fusion_lon": 0.0}, {"lat": 38.92570766666667, "is_disabled": 0, "type": "electric_scooter", "lon": -77.02897683333333, "bike_id": "d0627c2d970b3b6b444fe126a4cf690e", "fusion_lat": 0.0, "name": "d0627c2d970b3b6b444fe126a4cf690e", "is_reserved": 0, "rental_uris": {"android": "https://dc.lft.to/lastmile_qr_scan", "ios": "https://dc.lft.to/lastmile_qr_scan"}, "fusion_lon": 0.0}, {"lat": 38.879831833333334, "is_disabled": 0, "type": "electric_bike", "lon": -76.91600883333334, "bike_id": "9778761edda3dbaf586f48a27091d68e", "fusion_lat": 0.0, "name": "9778761edda3dbaf586f48a27091d68e", "is_reserved": 0, "rental_uris": {"android": "https://dc.lft.to/lastmile_qr_scan", "ios": "https://dc.lft.to/lastmile_qr_scan"}, "fusion_lon": 0.0}, {"lat": 38.92028766666667, "is_disabled": 0, "type": "electric_scooter", "lon": -77.03739416666667, "bike_id": "ec46d8d569a706a0e36453524f0a20bb", "fusion_lat": 0.0, "name": "ec46d8d569a706a0e36453524f0a20bb", "is_reserved": 0, "rental_uris": {"android": "https://dc.lft.to/lastmile_qr_scan", "ios": "https://dc.lft.to/lastmile_qr_scan"}, "fusion_lon": 0.0}, {"lat": 38.925888666666665, "is_disabled": 0, "type": "electric_scooter", "lon": -77.02290966666666, "bike_id": "deee02bbf03e08a3b1f8112eef6b820a", "fusion_lat": 0.0, "name": "deee02bbf03e08a3b1f8112eef6b820a", "is_reserved": 0, "rental_uris": {"android": "https://dc.lft.to/lastmile_qr_scan", "ios": "https://dc.lft.to/lastmile_qr_scan"}, "fusion_lon": 0.0}, {"lat": 38.900718166666664, "is_disabled": 0, "type": "electric_scooter", "lon": -77.0492355, "bike_id": "8139a22de3f68eebc4a47df4cf4589e0", "fusion_lat": 0.0, "name": "8139a22de3f68eebc4a47df4cf4589e0", "is_reserved": 0, "rental_uris": {"android": "https://dc.lft.to/lastmile_qr_scan", "ios": "https://dc.lft.to/lastmile_qr_scan"}, "fusion_lon": 0.0}, {"lat": 38.9397535, "is_disabled": 0, "type": "electric_scooter", "lon": -77.03591683333333, "bike_id": "0f11fe0d960dea1bd9a4b1075ede6d78", "fusion_lat": 0.0, "name": "0f11fe0d960dea1bd9a4b1075ede6d78", "is_reserved": 0, "rental_uris": {"android": "https://dc.lft.to/lastmile_qr_scan", "ios": "https://dc.lft.to/lastmile_qr_scan"}, "fusion_lon": 0.0}, {"lat": 38.9077515, "is_disabled": 0, "type": "electric_scooter", "lon": -77.03858783333334, "bike_id": "4a309c748b29fad857fce9dbf939de1b", "fusion_lat": 0.0, "name": "4a309c748b29fad857fce9dbf939de1b", "is_reserved": 0, "rental_uris": {"android": "https://dc.lft.to/lastmile_qr_scan", "ios": "https://dc.lft.to/lastmile_qr_scan"}, "fusion_lon": 0.0}, {"lat": 38.932877833333336, "is_disabled": 0, "type": "electric_scooter", "lon": -77.0355005, "bike_id": "54a93f6392e00d4429deeb9d937cbf65", "fusion_lat": 0.0, "name": "54a93f6392e00d4429deeb9d937cbf65", "is_reserved": 0, "rental_uris": {"android": "https://dc.lft.to/lastmile_qr_scan", "ios": "https://dc.lft.to/lastmile_qr_scan"}, "fusion_lon": 0.0}, {"lat": 38.9577665, "is_disabled": 0, "type": "electric_scooter", "lon": -77.0275965, "bike_id": "0196c2d8aa5d9fd4e65837a98d75200b", "fusion_lat": 0.0, "name": "0196c2d8aa5d9fd4e65837a98d75200b", "is_reserved": 0, "rental_uris": {"android": "https://dc.lft.to/lastmile_qr_scan", "ios": "https://dc.lft.to/lastmile_qr_scan"}, "fusion_lon": 0.0}, {"lat": 38.90874066666667, "is_disabled": 0, "type": "electric_scooter", "lon": -77.03679883333334, "bike_id": "f7e603bafb17b811e2cc072ba2f22f9d", "fusion_lat": 0.0, "name": "f7e603bafb17b811e2cc072ba2f22f9d", "is_reserved": 0, "rental_uris": {"android": "https://dc.lft.to/lastmile_qr_scan", "ios": "https://dc.lft.to/lastmile_qr_scan"}, "fusion_lon": 0.0}, {"lat": 38.916424, "is_disabled": 0, "type": "electric_scooter", "lon": -77.02402633333334, "bike_id": "ba6569f06bc805f78c917715e1833c46", "fusion_lat": 0.0, "name": "ba6569f06bc805f78c917715e1833c46", "is_reserved": 0, "rental_uris": {"android": "https://dc.lft.to/lastmile_qr_scan", "ios": "https://dc.lft.to/lastmile_qr_scan"}, "fusion_lon": 0.0}, {"lat": 38.9582565, "is_disabled": 0, "type": "electric_bike", "lon": -76.94094433333333, "bike_id": "6c40447f5374527e2a7ce2cb706fb234", "fusion_lat": 0.0, "name": "6c40447f5374527e2a7ce2cb706fb234", "is_reserved": 0, "rental_uris": {"android": "https://dc.lft.to/lastmile_qr_scan", "ios": "https://dc.lft.to/lastmile_qr_scan"}, "fusion_lon": 0.0}, {"lat": 38.927128333333336, "is_disabled": 0, "type": "electric_scooter", "lon": -77.02100316666667, "bike_id": "bab658ec08170329de2cfc9fed1ea960", "fusion_lat": 0.0, "name": "bab658ec08170329de2cfc9fed1ea960", "is_reserved": 0, "rental_uris": {"android": "https://dc.lft.to/lastmile_qr_scan", "ios": "https://dc.lft.to/lastmile_qr_scan"}, "fusion_lon": 0.0}, {"lat": 38.92848766666667, "is_disabled": 0, "type": "electric_scooter", "lon": -77.013933, "bike_id": "c90c90da4aaedda6573a804fa2f6104a", "fusion_lat": 0.0, "name": "c90c90da4aaedda6573a804fa2f6104a", "is_reserved": 0, "rental_uris": {"android": "https://dc.lft.to/lastmile_qr_scan", "ios": "https://dc.lft.to/lastmile_qr_scan"}, "fusion_lon": 0.0}, {"lat": 38.90081583333333, "is_disabled": 0, "type": "electric_scooter", "lon": -77.00215866666667, "bike_id": "e1159e2cb14c8cceecfb4a2a862e8d8e", "fusion_lat": 0.0, "name": "e1159e2cb14c8cceecfb4a2a862e8d8e", "is_reserved": 0, "rental_uris": {"android": "https://dc.lft.to/lastmile_qr_scan", "ios": "https://dc.lft.to/lastmile_qr_scan"}, "fusion_lon": 0.0}, {"lat": 38.91816516666667, "is_disabled": 0, "type": "electric_scooter", "lon": -77.00048816666667, "bike_id": "2b7dadf408de340ffcd4583e26680448", "fusion_lat": 0.0, "name": "2b7dadf408de340ffcd4583e26680448", "is_reserved": 0, "rental_uris": {"android": "https://dc.lft.to/lastmile_qr_scan", "ios": "https://dc.lft.to/lastmile_qr_scan"}, "fusion_lon": 0.0}, {"lat": 38.902676666666665, "is_disabled": 0, "type": "electric_scooter", "lon": -77.039699, "bike_id": "247043bef0d011e672b6c377a6b8e803", "fusion_lat": 0.0, "name": "247043bef0d011e672b6c377a6b8e803", "is_reserved": 0, "rental_uris": {"android": "https://dc.lft.to/lastmile_qr_scan", "ios": "https://dc.lft.to/lastmile_qr_scan"}, "fusion_lon": 0.0}, {"lat": 38.89202483333333, "is_disabled": 0, "type": "electric_bike", "lon": -76.970531, "bike_id": "c3930d4e42df52966b1ee8d32fdb3813", "fusion_lat": 0.0, "name": "c3930d4e42df52966b1ee8d32fdb3813", "is_reserved": 0, "rental_uris": {"android": "https://dc.lft.to/lastmile_qr_scan", "ios": "https://dc.lft.to/lastmile_qr_scan"}, "fusion_lon": 0.0}, {"lat": 38.910445333333335, "is_disabled": 0, "type": "electric_scooter", "lon": -77.01504816666667, "bike_id": "7bae8dd4480f7fe35c43a5d0abb0eaa0", "fusion_lat": 0.0, "name": "7bae8dd4480f7fe35c43a5d0abb0eaa0", "is_reserved": 0, "rental_uris": {"android": "https://dc.lft.to/lastmile_qr_scan", "ios": "https://dc.lft.to/lastmile_qr_scan"}, "fusion_lon": 0.0}, {"lat": 38.93361933333333, "is_disabled": 0, "type": "electric_bike", "lon": -77.09965766666667, "bike_id": "a84ecac910c9fb35059f0a56dcdc7ec2", "fusion_lat": 0.0, "name": "a84ecac910c9fb35059f0a56dcdc7ec2", "is_reserved": 0, "rental_uris": {"android": "https://dc.lft.to/lastmile_qr_scan", "ios": "https://dc.lft.to/lastmile_qr_scan"}, "fusion_lon": 0.0}, {"lat": 38.913315, "is_disabled": 0, "type": "electric_scooter", "lon": -77.03188016666667, "bike_id": "cf64d23201a0ee45493514514c494515", "fusion_lat": 0.0, "name": "cf64d23201a0ee45493514514c494515", "is_reserved": 0, "rental_uris": {"android": "https://dc.lft.to/lastmile_qr_scan", "ios": "https://dc.lft.to/lastmile_qr_scan"}, "fusion_lon": 0.0}, {"lat": 38.92307133333333, "is_disabled": 0, "type": "electric_bike", "lon": -77.0352925, "bike_id": "7944ef140c4b75b4322a3c2c306961dc", "fusion_lat": 0.0, "name": "7944ef140c4b75b4322a3c2c306961dc", "is_reserved": 0, "rental_uris": {"android": "https://dc.lft.to/lastmile_qr_scan", "ios": "https://dc.lft.to/lastmile_qr_scan"}, "fusion_lon": 0.0}, {"lat": 38.90427316666667, "is_disabled": 0, "type": "electric_scooter", "lon": -77.02187016666667, "bike_id": "5dd3af99358c2dfa4244241355a4e8ca", "fusion_lat": 0.0, "name": "5dd3af99358c2dfa4244241355a4e8ca", "is_reserved": 0, "rental_uris": {"android": "https://dc.lft.to/lastmile_qr_scan", "ios": "https://dc.lft.to/lastmile_qr_scan"}, "fusion_lon": 0.0}, {"lat": 38.89976983333333, "is_disabled": 0, "type": "electric_bike", "lon": -77.0210315, "bike_id": "5cb2f3a58a5658a1bb827364862b43cc", "fusion_lat": 0.0, "name": "5cb2f3a58a5658a1bb827364862b43cc", "is_reserved": 0, "rental_uris": {"android": "https://dc.lft.to/lastmile_qr_scan", "ios": "https://dc.lft.to/lastmile_qr_scan"}, "fusion_lon": 0.0}, {"lat": 38.89777616666667, "is_disabled": 0, "type": "electric_scooter", "lon": -77.00916066666667, "bike_id": "e54ac61f1f629c247d4d738e10794267", "fusion_lat": 0.0, "name": "e54ac61f1f629c247d4d738e10794267", "is_reserved": 0, "rental_uris": {"android": "https://dc.lft.to/lastmile_qr_scan", "ios": "https://dc.lft.to/lastmile_qr_scan"}, "fusion_lon": 0.0}, {"lat": 38.887644333333334, "is_disabled": 0, "type": "electric_scooter", "lon": -76.95599866666667, "bike_id": "36d670b48b410a40f26ff4dbf089a878", "fusion_lat": 0.0, "name": "36d670b48b410a40f26ff4dbf089a878", "is_reserved": 0, "rental_uris": {"android": "https://dc.lft.to/lastmile_qr_scan", "ios": "https://dc.lft.to/lastmile_qr_scan"}, "fusion_lon": 0.0}, {"lat": 38.952986833333334, "is_disabled": 0, "type": "electric_scooter", "lon": -77.0815615, "bike_id": "67251e420e057bc7ca95162f93e8aa60", "fusion_lat": 0.0, "name": "67251e420e057bc7ca95162f93e8aa60", "is_reserved": 0, "rental_uris": {"android": "https://dc.lft.to/lastmile_qr_scan", "ios": "https://dc.lft.to/lastmile_qr_scan"}, "fusion_lon": 0.0}, {"lat": 38.920642666666666, "is_disabled": 0, "type": "electric_scooter", "lon": -77.04376183333333, "bike_id": "8bae6267dc545e39862be2b610c73d39", "fusion_lat": 0.0, "name": "8bae6267dc545e39862be2b610c73d39", "is_reserved": 0, "rental_uris": {"android": "https://dc.lft.to/lastmile_qr_scan", "ios": "https://dc.lft.to/lastmile_qr_scan"}, "fusion_lon": 0.0}, {"lat": 38.86652, "is_disabled": 0, "type": "electric_scooter", "lon": -76.98886433333334, "bike_id": "5bc419e872d4977731ce87f6018fe5ca", "fusion_lat": 0.0, "name": "5bc419e872d4977731ce87f6018fe5ca", "is_reserved": 0, "rental_uris": {"android": "https://dc.lft.to/lastmile_qr_scan", "ios": "https://dc.lft.to/lastmile_qr_scan"}, "fusion_lon": 0.0}, {"lat": 38.91674, "is_disabled": 0, "type": "electric_scooter", "lon": -77.02957466666666, "bike_id": "cf1da183ccce207deed35ee6076ab561", "fusion_lat": 0.0, "name": "cf1da183ccce207deed35ee6076ab561", "is_reserved": 0, "rental_uris": {"android": "https://dc.lft.to/lastmile_qr_scan", "ios": "https://dc.lft.to/lastmile_qr_scan"}, "fusion_lon": 0.0}, {"lat": 38.89828333333333, "is_disabled": 0, "type": "electric_scooter", "lon": -77.03020933333333, "bike_id": "fa3a4263b7efe1af9088c2436ca75fd2", "fusion_lat": 0.0, "name": "fa3a4263b7efe1af9088c2436ca75fd2", "is_reserved": 0, "rental_uris": {"android": "https://dc.lft.to/lastmile_qr_scan", "ios": "https://dc.lft.to/lastmile_qr_scan"}, "fusion_lon": 0.0}, {"lat": 38.9195275, "is_disabled": 0, "type": "electric_scooter", "lon": -76.98081483333333, "bike_id": "dfef32dff65ef339aed3012b26384d79", "fusion_lat": 0.0, "name": "dfef32dff65ef339aed3012b26384d79", "is_reserved": 0, "rental_uris": {"android": "https://dc.lft.to/lastmile_qr_scan", "ios": "https://dc.lft.to/lastmile_qr_scan"}, "fusion_lon": 0.0}, {"lat": 38.89686583333334, "is_disabled": 0, "type": "electric_bike", "lon": -77.02417433333333, "bike_id": "1c1577ca962f61b10632bdf9047569af", "fusion_lat": 0.0, "name": "1c1577ca962f61b10632bdf9047569af", "is_reserved": 0, "rental_uris": {"android": "https://dc.lft.to/lastmile_qr_scan", "ios": "https://dc.lft.to/lastmile_qr_scan"}, "fusion_lon": 0.0}, {"lat": 38.98462833333333, "is_disabled": 0, "type": "electric_bike", "lon": -76.994767, "bike_id": "84d35542ee4842bb46518eb2c4c976cb", "fusion_lat": 0.0, "name": "84d35542ee4842bb46518eb2c4c976cb", "is_reserved": 0, "rental_uris": {"android": "https://dc.lft.to/lastmile_qr_scan", "ios": "https://dc.lft.to/lastmile_qr_scan"}, "fusion_lon": 0.0}, {"lat": 38.9332555, "is_disabled": 0, "type": "electric_scooter", "lon": -77.04363983333333, "bike_id": "a1ab8c0b324eea9c4866b712bc070769", "fusion_lat": 0.0, "name": "a1ab8c0b324eea9c4866b712bc070769", "is_reserved": 0, "rental_uris": {"android": "https://dc.lft.to/lastmile_qr_scan", "ios": "https://dc.lft.to/lastmile_qr_scan"}, "fusion_lon": 0.0}, {"lat": 38.91724766666667, "is_disabled": 0, "type": "electric_scooter", "lon": -77.04596633333334, "bike_id": "774210f64c75dda57341d8b9b33f3f4d", "fusion_lat": 0.0, "name": "774210f64c75dda57341d8b9b33f3f4d", "is_reserved": 0, "rental_uris": {"android": "https://dc.lft.to/lastmile_qr_scan", "ios": "https://dc.lft.to/lastmile_qr_scan"}, "fusion_lon": 0.0}, {"lat": 38.85570716666667, "is_disabled": 0, "type": "electric_bike", "lon": -77.11150083333334, "bike_id": "7a7fb95c784728294bd50797112454e9", "fusion_lat": 0.0, "name": "7a7fb95c784728294bd50797112454e9", "is_reserved": 0, "rental_uris": {"android": "https://dc.lft.to/lastmile_qr_scan", "ios": "https://dc.lft.to/lastmile_qr_scan"}, "fusion_lon": 0.0}, {"lat": 38.93297066666667, "is_disabled": 0, "type": "electric_scooter", "lon": -77.04530883333334, "bike_id": "913edcf455bb8ff8f7ece91f691e3246", "fusion_lat": 0.0, "name": "913edcf455bb8ff8f7ece91f691e3246", "is_reserved": 0, "rental_uris": {"android": "https://dc.lft.to/lastmile_qr_scan", "ios": "https://dc.lft.to/lastmile_qr_scan"}, "fusion_lon": 0.0}, {"lat": 38.98433833333333, "is_disabled": 0, "type": "electric_scooter", "lon": -77.02675016666667, "bike_id": "0b4386e96c8a470c75dd583c4f3f8404", "fusion_lat": 0.0, "name": "0b4386e96c8a470c75dd583c4f3f8404", "is_reserved": 0, "rental_uris": {"android": "https://dc.lft.to/lastmile_qr_scan", "ios": "https://dc.lft.to/lastmile_qr_scan"}, "fusion_lon": 0.0}, {"lat": 38.914676666666665, "is_disabled": 0, "type": "electric_scooter", "lon": -77.0143235, "bike_id": "14f1b63860aae0cc7232d398500dcd6b", "fusion_lat": 0.0, "name": "14f1b63860aae0cc7232d398500dcd6b", "is_reserved": 0, "rental_uris": {"android": "https://dc.lft.to/lastmile_qr_scan", "ios": "https://dc.lft.to/lastmile_qr_scan"}, "fusion_lon": 0.0}, {"lat": 38.87073316666667, "is_disabled": 0, "type": "electric_bike", "lon": -76.978426, "bike_id": "19bfc624fc214e63e17297d50dcefe65", "fusion_lat": 0.0, "name": "19bfc624fc214e63e17297d50dcefe65", "is_reserved": 0, "rental_uris": {"android": "https://dc.lft.to/lastmile_qr_scan", "ios": "https://dc.lft.to/lastmile_qr_scan"}, "fusion_lon": 0.0}, {"lat": 38.88797916666667, "is_disabled": 0, "type": "electric_scooter", "lon": -76.93363416666666, "bike_id": "050a8474017b03e2d35a0656acd76f8f", "fusion_lat": 0.0, "name": "050a8474017b03e2d35a0656acd76f8f", "is_reserved": 0, "rental_uris": {"android": "https://dc.lft.to/lastmile_qr_scan", "ios": "https://dc.lft.to/lastmile_qr_scan"}, "fusion_lon": 0.0}, {"lat": 38.92471183333333, "is_disabled": 0, "type": "electric_bike", "lon": -77.037441, "bike_id": "27994d68f0454ea8330c24886728fd92", "fusion_lat": 0.0, "name": "27994d68f0454ea8330c24886728fd92", "is_reserved": 0, "rental_uris": {"android": "https://dc.lft.to/lastmile_qr_scan", "ios": "https://dc.lft.to/lastmile_qr_scan"}, "fusion_lon": 0.0}, {"lat": 38.827874, "is_disabled": 0, "type": "electric_bike", "lon": -77.00921383333333, "bike_id": "5c2bb45178521d36da2e052c1427ab20", "fusion_lat": 0.0, "name": "5c2bb45178521d36da2e052c1427ab20", "is_reserved": 0, "rental_uris": {"android": "https://dc.lft.to/lastmile_qr_scan", "ios": "https://dc.lft.to/lastmile_qr_scan"}, "fusion_lon": 0.0}, {"lat": 38.90971433333333, "is_disabled": 0, "type": "electric_bike", "lon": -77.0882265, "bike_id": "197d9aa22bb82123ee22e5da9f38914c", "fusion_lat": 0.0, "name": "197d9aa22bb82123ee22e5da9f38914c", "is_reserved": 0, "rental_uris": {"android": "https://dc.lft.to/lastmile_qr_scan", "ios": "https://dc.lft.to/lastmile_qr_scan"}, "fusion_lon": 0.0}, {"lat": 38.92358216666667, "is_disabled": 0, "type": "electric_scooter", "lon": -77.054281, "bike_id": "046250ec631e0ecf42d8a0730e5f1fe8", "fusion_lat": 0.0, "name": "046250ec631e0ecf42d8a0730e5f1fe8", "is_reserved": 0, "rental_uris": {"android": "https://dc.lft.to/lastmile_qr_scan", "ios": "https://dc.lft.to/lastmile_qr_scan"}, "fusion_lon": 0.0}, {"lat": 38.87730483333333, "is_disabled": 0, "type": "electric_scooter", "lon": -77.00357366666667, "bike_id": "ca3eb2e40906a39e858201ca061bda5a", "fusion_lat": 0.0, "name": "ca3eb2e40906a39e858201ca061bda5a", "is_reserved": 0, "rental_uris": {"android": "https://dc.lft.to/lastmile_qr_scan", "ios": "https://dc.lft.to/lastmile_qr_scan"}, "fusion_lon": 0.0}, {"lat": 38.91564483333333, "is_disabled": 0, "type": "electric_scooter", "lon": -77.01047633333333, "bike_id": "44b29f6c8f5c0bbd338034d6e32e134b", "fusion_lat": 0.0, "name": "44b29f6c8f5c0bbd338034d6e32e134b", "is_reserved": 0, "rental_uris": {"android": "https://dc.lft.to/lastmile_qr_scan", "ios": "https://dc.lft.to/lastmile_qr_scan"}, "fusion_lon": 0.0}, {"lat": 38.897305, "is_disabled": 0, "type": "electric_scooter", "lon": -77.0498915, "bike_id": "2f59923381dd3885f7657acdc6b1a38f", "fusion_lat": 0.0, "name": "2f59923381dd3885f7657acdc6b1a38f", "is_reserved": 0, "rental_uris": {"android": "https://dc.lft.to/lastmile_qr_scan", "ios": "https://dc.lft.to/lastmile_qr_scan"}, "fusion_lon": 0.0}, {"lat": 38.884913166666664, "is_disabled": 0, "type": "electric_scooter", "lon": -77.007081, "bike_id": "46246021ee13a035d35b3f205f0e5175", "fusion_lat": 0.0, "name": "46246021ee13a035d35b3f205f0e5175", "is_reserved": 0, "rental_uris": {"android": "https://dc.lft.to/lastmile_qr_scan", "ios": "https://dc.lft.to/lastmile_qr_scan"}, "fusion_lon": 0.0}, {"lat": 38.90015, "is_disabled": 0, "type": "electric_scooter", "lon": -77.012034, "bike_id": "9305a987411c45161ddedbd28b82948a", "fusion_lat": 0.0, "name": "9305a987411c45161ddedbd28b82948a", "is_reserved": 0, "rental_uris": {"android": "https://dc.lft.to/lastmile_qr_scan", "ios": "https://dc.lft.to/lastmile_qr_scan"}, "fusion_lon": 0.0}, {"lat": 38.91648433333334, "is_disabled": 0, "type": "electric_scooter", "lon": -77.0476695, "bike_id": "c9e31df9643a5b10e0501f1e4ee70d13", "fusion_lat": 0.0, "name": "c9e31df9643a5b10e0501f1e4ee70d13", "is_reserved": 0, "rental_uris": {"android": "https://dc.lft.to/lastmile_qr_scan", "ios": "https://dc.lft.to/lastmile_qr_scan"}, "fusion_lon": 0.0}, {"lat": 38.925758333333334, "is_disabled": 0, "type": "electric_scooter", "lon": -76.98609666666667, "bike_id": "80c41f369e8118cc5cf875f33d1e98b6", "fusion_lat": 0.0, "name": "80c41f369e8118cc5cf875f33d1e98b6", "is_reserved": 0, "rental_uris": {"android": "https://dc.lft.to/lastmile_qr_scan", "ios": "https://dc.lft.to/lastmile_qr_scan"}, "fusion_lon": 0.0}, {"lat": 38.84293133333333, "is_disabled": 0, "type": "electric_scooter", "lon": -76.99947033333333, "bike_id": "a7dcbf1f7e56b38d2660cf0dd2f99ed1", "fusion_lat": 0.0, "name": "a7dcbf1f7e56b38d2660cf0dd2f99ed1", "is_reserved": 0, "rental_uris": {"android": "https://dc.lft.to/lastmile_qr_scan", "ios": "https://dc.lft.to/lastmile_qr_scan"}, "fusion_lon": 0.0}, {"lat": 38.92317466666667, "is_disabled": 0, "type": "electric_scooter", "lon": -77.035238, "bike_id": "37e8306dab5aa39fc2cd890fa9e1fb33", "fusion_lat": 0.0, "name": "37e8306dab5aa39fc2cd890fa9e1fb33", "is_reserved": 0, "rental_uris": {"android": "https://dc.lft.to/lastmile_qr_scan", "ios": "https://dc.lft.to/lastmile_qr_scan"}, "fusion_lon": 0.0}, {"lat": 38.901275, "is_disabled": 0, "type": "electric_scooter", "lon": -77.03335116666666, "bike_id": "eff39eb1e009e557f7364948337d7d90", "fusion_lat": 0.0, "name": "eff39eb1e009e557f7364948337d7d90", "is_reserved": 0, "rental_uris": {"android": "https://dc.lft.to/lastmile_qr_scan", "ios": "https://dc.lft.to/lastmile_qr_scan"}, "fusion_lon": 0.0}, {"lat": 38.923713, "is_disabled": 0, "type": "electric_scooter", "lon": -77.0292325, "bike_id": "c1fd84a24aad9790f72864928d5b7277", "fusion_lat": 0.0, "name": "c1fd84a24aad9790f72864928d5b7277", "is_reserved": 0, "rental_uris": {"android": "https://dc.lft.to/lastmile_qr_scan", "ios": "https://dc.lft.to/lastmile_qr_scan"}, "fusion_lon": 0.0}, {"lat": 38.877835, "is_disabled": 0, "type": "electric_scooter", "lon": -76.99513683333333, "bike_id": "1a949a6146bb02ca28e66bd1136c7660", "fusion_lat": 0.0, "name": "1a949a6146bb02ca28e66bd1136c7660", "is_reserved": 0, "rental_uris": {"android": "https://dc.lft.to/lastmile_qr_scan", "ios": "https://dc.lft.to/lastmile_qr_scan"}, "fusion_lon": 0.0}, {"lat": 38.93096083333333, "is_disabled": 0, "type": "electric_scooter", "lon": -77.02414666666667, "bike_id": "8d7db2cab9f9bf774cd4c6ffb80bab5e", "fusion_lat": 0.0, "name": "8d7db2cab9f9bf774cd4c6ffb80bab5e", "is_reserved": 0, "rental_uris": {"android": "https://dc.lft.to/lastmile_qr_scan", "ios": "https://dc.lft.to/lastmile_qr_scan"}, "fusion_lon": 0.0}, {"lat": 38.909031, "is_disabled": 0, "type": "electric_scooter", "lon": -77.034698, "bike_id": "def53b9562cf2fdc4a272f2554409d61", "fusion_lat": 0.0, "name": "def53b9562cf2fdc4a272f2554409d61", "is_reserved": 0, "rental_uris": {"android": "https://dc.lft.to/lastmile_qr_scan", "ios": "https://dc.lft.to/lastmile_qr_scan"}, "fusion_lon": 0.0}, {"lat": 38.862142, "is_disabled": 0, "type": "electric_bike", "lon": -76.99780583333333, "bike_id": "da0222a42dc53e148fcf9df6b4eabeaa", "fusion_lat": 0.0, "name": "da0222a42dc53e148fcf9df6b4eabeaa", "is_reserved": 0, "rental_uris": {"android": "https://dc.lft.to/lastmile_qr_scan", "ios": "https://dc.lft.to/lastmile_qr_scan"}, "fusion_lon": 0.0}, {"lat": 38.87066083333333, "is_disabled": 0, "type": "electric_scooter", "lon": -77.008406, "bike_id": "24a19315d96008a0dd6e18dcc950d23b", "fusion_lat": 0.0, "name": "24a19315d96008a0dd6e18dcc950d23b", "is_reserved": 0, "rental_uris": {"android": "https://dc.lft.to/lastmile_qr_scan", "ios": "https://dc.lft.to/lastmile_qr_scan"}, "fusion_lon": 0.0}, {"lat": 38.8667865, "is_disabled": 0, "type": "electric_scooter", "lon": -76.98541433333334, "bike_id": "cd17d6edfee5ae914d066bc024d2be9f", "fusion_lat": 0.0, "name": "cd17d6edfee5ae914d066bc024d2be9f", "is_reserved": 0, "rental_uris": {"android": "https://dc.lft.to/lastmile_qr_scan", "ios": "https://dc.lft.to/lastmile_qr_scan"}, "fusion_lon": 0.0}, {"lat": 38.934350333333335, "is_disabled": 0, "type": "electric_scooter", "lon": -77.03459866666667, "bike_id": "4c376bb9273cae49be0cb4f7e937be39", "fusion_lat": 0.0, "name": "4c376bb9273cae49be0cb4f7e937be39", "is_reserved": 0, "rental_uris": {"android": "https://dc.lft.to/lastmile_qr_scan", "ios": "https://dc.lft.to/lastmile_qr_scan"}, "fusion_lon": 0.0}, {"lat": 38.917095, "is_disabled": 0, "type": "electric_scooter", "lon": -77.001163, "bike_id": "f185da934c3c0eeb86f2c7ab597deecf", "fusion_lat": 0.0, "name": "f185da934c3c0eeb86f2c7ab597deecf", "is_reserved": 0, "rental_uris": {"android": "https://dc.lft.to/lastmile_qr_scan", "ios": "https://dc.lft.to/lastmile_qr_scan"}, "fusion_lon": 0.0}, {"lat": 38.91253866666667, "is_disabled": 0, "type": "electric_scooter", "lon": -77.03862933333333, "bike_id": "33cc6ec551dbb95851fc2428727fecde", "fusion_lat": 0.0, "name": "33cc6ec551dbb95851fc2428727fecde", "is_reserved": 0, "rental_uris": {"android": "https://dc.lft.to/lastmile_qr_scan", "ios": "https://dc.lft.to/lastmile_qr_scan"}, "fusion_lon": 0.0}, {"lat": 38.91656616666667, "is_disabled": 0, "type": "electric_scooter", "lon": -77.023997, "bike_id": "38dec2c1b0e4d9cd5bc9ccbaed7198f7", "fusion_lat": 0.0, "name": "38dec2c1b0e4d9cd5bc9ccbaed7198f7", "is_reserved": 0, "rental_uris": {"android": "https://dc.lft.to/lastmile_qr_scan", "ios": "https://dc.lft.to/lastmile_qr_scan"}, "fusion_lon": 0.0}, {"lat": 38.90777683333334, "is_disabled": 0, "type": "electric_scooter", "lon": -77.03863416666667, "bike_id": "fceaeb8ce87380ceeee70f7ecbf3d124", "fusion_lat": 0.0, "name": "fceaeb8ce87380ceeee70f7ecbf3d124", "is_reserved": 0, "rental_uris": {"android": "https://dc.lft.to/lastmile_qr_scan", "ios": "https://dc.lft.to/lastmile_qr_scan"}, "fusion_lon": 0.0}, {"lat": 38.90585316666667, "is_disabled": 0, "type": "electric_scooter", "lon": -77.00846433333334, "bike_id": "a4a15900f74d50ebeb2f2ab52834f62d", "fusion_lat": 0.0, "name": "a4a15900f74d50ebeb2f2ab52834f62d", "is_reserved": 0, "rental_uris": {"android": "https://dc.lft.to/lastmile_qr_scan", "ios": "https://dc.lft.to/lastmile_qr_scan"}, "fusion_lon": 0.0}, {"lat": 38.868887666666666, "is_disabled": 0, "type": "electric_scooter", "lon": -76.983161, "bike_id": "1365dfeea26c9c971bc992bac99a6dd3", "fusion_lat": 0.0, "name": "1365dfeea26c9c971bc992bac99a6dd3", "is_reserved": 0, "rental_uris": {"android": "https://dc.lft.to/lastmile_qr_scan", "ios": "https://dc.lft.to/lastmile_qr_scan"}, "fusion_lon": 0.0}, {"lat": 38.8825595, "is_disabled": 0, "type": "electric_scooter", "lon": -77.004298, "bike_id": "ba7d3095c9d2ef5effd9ff3b0536a04d", "fusion_lat": 0.0, "name": "ba7d3095c9d2ef5effd9ff3b0536a04d", "is_reserved": 0, "rental_uris": {"android": "https://dc.lft.to/lastmile_qr_scan", "ios": "https://dc.lft.to/lastmile_qr_scan"}, "fusion_lon": 0.0}, {"lat": 38.90041933333333, "is_disabled": 0, "type": "electric_scooter", "lon": -77.01317583333334, "bike_id": "35d863f7cae238cf1b966bc0871bb84e", "fusion_lat": 0.0, "name": "35d863f7cae238cf1b966bc0871bb84e", "is_reserved": 0, "rental_uris": {"android": "https://dc.lft.to/lastmile_qr_scan", "ios": "https://dc.lft.to/lastmile_qr_scan"}, "fusion_lon": 0.0}, {"lat": 38.903744333333336, "is_disabled": 0, "type": "electric_scooter", "lon": -77.0164075, "bike_id": "aaac4a3d76d18e1f89bf76e3acfae58e", "fusion_lat": 0.0, "name": "aaac4a3d76d18e1f89bf76e3acfae58e", "is_reserved": 0, "rental_uris": {"android": "https://dc.lft.to/lastmile_qr_scan", "ios": "https://dc.lft.to/lastmile_qr_scan"}, "fusion_lon": 0.0}, {"lat": 38.9002305, "is_disabled": 0, "type": "electric_scooter", "lon": -77.04035966666666, "bike_id": "d8002194cb6f52b0b07ecef67dcbbb63", "fusion_lat": 0.0, "name": "d8002194cb6f52b0b07ecef67dcbbb63", "is_reserved": 0, "rental_uris": {"android": "https://dc.lft.to/lastmile_qr_scan", "ios": "https://dc.lft.to/lastmile_qr_scan"}, "fusion_lon": 0.0}, {"lat": 38.91186916666667, "is_disabled": 0, "type": "electric_scooter", "lon": -77.0024935, "bike_id": "3dd440224926496267f4b469979a252e", "fusion_lat": 0.0, "name": "3dd440224926496267f4b469979a252e", "is_reserved": 0, "rental_uris": {"android": "https://dc.lft.to/lastmile_qr_scan", "ios": "https://dc.lft.to/lastmile_qr_scan"}, "fusion_lon": 0.0}, {"lat": 38.89897166666667, "is_disabled": 0, "type": "electric_scooter", "lon": -76.99729033333334, "bike_id": "be103358703de4e89f49f83ec9a3c648", "fusion_lat": 0.0, "name": "be103358703de4e89f49f83ec9a3c648", "is_reserved": 0, "rental_uris": {"android": "https://dc.lft.to/lastmile_qr_scan", "ios": "https://dc.lft.to/lastmile_qr_scan"}, "fusion_lon": 0.0}, {"lat": 38.90103216666667, "is_disabled": 0, "type": "electric_scooter", "lon": -77.02528683333334, "bike_id": "e2bddb8ff849b1f7d82a3568068e1176", "fusion_lat": 0.0, "name": "e2bddb8ff849b1f7d82a3568068e1176", "is_reserved": 0, "rental_uris": {"android": "https://dc.lft.to/lastmile_qr_scan", "ios": "https://dc.lft.to/lastmile_qr_scan"}, "fusion_lon": 0.0}, {"lat": 38.9318675, "is_disabled": 0, "type": "electric_scooter", "lon": -77.03657116666666, "bike_id": "d59723788468bc41ed802a634abf4ac8", "fusion_lat": 0.0, "name": "d59723788468bc41ed802a634abf4ac8", "is_reserved": 0, "rental_uris": {"android": "https://dc.lft.to/lastmile_qr_scan", "ios": "https://dc.lft.to/lastmile_qr_scan"}, "fusion_lon": 0.0}, {"lat": 38.8519205, "is_disabled": 0, "type": "electric_bike", "lon": -76.9611095, "bike_id": "cefeccd71dfabf0dd70c02d5cf550d89", "fusion_lat": 0.0, "name": "cefeccd71dfabf0dd70c02d5cf550d89", "is_reserved": 0, "rental_uris": {"android": "https://dc.lft.to/lastmile_qr_scan", "ios": "https://dc.lft.to/lastmile_qr_scan"}, "fusion_lon": 0.0}, {"lat": 38.918905333333335, "is_disabled": 0, "type": "electric_scooter", "lon": -77.03489166666667, "bike_id": "1e664931ee4c7dc95141c57329e98e4a", "fusion_lat": 0.0, "name": "1e664931ee4c7dc95141c57329e98e4a", "is_reserved": 0, "rental_uris": {"android": "https://dc.lft.to/lastmile_qr_scan", "ios": "https://dc.lft.to/lastmile_qr_scan"}, "fusion_lon": 0.0}, {"lat": 38.923489000000004, "is_disabled": 0, "type": "electric_scooter", "lon": -77.03396366666666, "bike_id": "e8b47e7740d6d27905d036c9c3f20026", "fusion_lat": 0.0, "name": "e8b47e7740d6d27905d036c9c3f20026", "is_reserved": 0, "rental_uris": {"android": "https://dc.lft.to/lastmile_qr_scan", "ios": "https://dc.lft.to/lastmile_qr_scan"}, "fusion_lon": 0.0}, {"lat": 38.91116066666667, "is_disabled": 0, "type": "electric_scooter", "lon": -77.03718966666666, "bike_id": "096facd248a574ff7372ef5ccfba3ad0", "fusion_lat": 0.0, "name": "096facd248a574ff7372ef5ccfba3ad0", "is_reserved": 0, "rental_uris": {"android": "https://dc.lft.to/lastmile_qr_scan", "ios": "https://dc.lft.to/lastmile_qr_scan"}, "fusion_lon": 0.0}, {"lat": 38.944376166666665, "is_disabled": 0, "type": "electric_scooter", "lon": -77.01505116666667, "bike_id": "9a435f78b23a064df1d376d6bf89217d", "fusion_lat": 0.0, "name": "9a435f78b23a064df1d376d6bf89217d", "is_reserved": 0, "rental_uris": {"android": "https://dc.lft.to/lastmile_qr_scan", "ios": "https://dc.lft.to/lastmile_qr_scan"}, "fusion_lon": 0.0}, {"lat": 38.99006166666667, "is_disabled": 0, "type": "electric_bike", "lon": -77.00438783333334, "bike_id": "46c49a39a6f57b371deac72176d30aec", "fusion_lat": 0.0, "name": "46c49a39a6f57b371deac72176d30aec", "is_reserved": 0, "rental_uris": {"android": "https://dc.lft.to/lastmile_qr_scan", "ios": "https://dc.lft.to/lastmile_qr_scan"}, "fusion_lon": 0.0}, {"lat": 38.85516966666667, "is_disabled": 0, "type": "electric_bike", "lon": -77.12018733333333, "bike_id": "d32f0d0c58b9598bbba7401601ba1493", "fusion_lat": 0.0, "name": "d32f0d0c58b9598bbba7401601ba1493", "is_reserved": 0, "rental_uris": {"android": "https://dc.lft.to/lastmile_qr_scan", "ios": "https://dc.lft.to/lastmile_qr_scan"}, "fusion_lon": 0.0}, {"lat": 38.970938, "is_disabled": 0, "type": "electric_bike", "lon": -77.069666, "bike_id": "e2fbc760607e1d86e2dcd4faaf896595", "fusion_lat": 0.0, "name": "e2fbc760607e1d86e2dcd4faaf896595", "is_reserved": 0, "rental_uris": {"android": "https://dc.lft.to/lastmile_qr_scan", "ios": "https://dc.lft.to/lastmile_qr_scan"}, "fusion_lon": 0.0}, {"lat": 38.9134165, "is_disabled": 0, "type": "electric_scooter", "lon": -76.9736845, "bike_id": "9739e94d75237bf514c277fb724b2d99", "fusion_lat": 0.0, "name": "9739e94d75237bf514c277fb724b2d99", "is_reserved": 0, "rental_uris": {"android": "https://dc.lft.to/lastmile_qr_scan", "ios": "https://dc.lft.to/lastmile_qr_scan"}, "fusion_lon": 0.0}, {"lat": 38.91709983333333, "is_disabled": 0, "type": "electric_scooter", "lon": -77.03476016666667, "bike_id": "5def6f874086e797c6043ffa805d1cef", "fusion_lat": 0.0, "name": "5def6f874086e797c6043ffa805d1cef", "is_reserved": 0, "rental_uris": {"android": "https://dc.lft.to/lastmile_qr_scan", "ios": "https://dc.lft.to/lastmile_qr_scan"}, "fusion_lon": 0.0}, {"lat": 38.85206066666667, "is_disabled": 0, "type": "electric_bike", "lon": -77.10125666666667, "bike_id": "973f450bac739aa26e8d19eb21bd3655", "fusion_lat": 0.0, "name": "973f450bac739aa26e8d19eb21bd3655", "is_reserved": 0, "rental_uris": {"android": "https://dc.lft.to/lastmile_qr_scan", "ios": "https://dc.lft.to/lastmile_qr_scan"}, "fusion_lon": 0.0}, {"lat": 38.92679833333333, "is_disabled": 0, "type": "electric_scooter", "lon": -77.02864383333333, "bike_id": "6fe0065e3292a4bab11c5e27081a4af4", "fusion_lat": 0.0, "name": "6fe0065e3292a4bab11c5e27081a4af4", "is_reserved": 0, "rental_uris": {"android": "https://dc.lft.to/lastmile_qr_scan", "ios": "https://dc.lft.to/lastmile_qr_scan"}, "fusion_lon": 0.0}, {"lat": 38.92331466666667, "is_disabled": 0, "type": "electric_scooter", "lon": -77.0357705, "bike_id": "23abce67f5f29aab24bedd1ef30b274b", "fusion_lat": 0.0, "name": "23abce67f5f29aab24bedd1ef30b274b", "is_reserved": 0, "rental_uris": {"android": "https://dc.lft.to/lastmile_qr_scan", "ios": "https://dc.lft.to/lastmile_qr_scan"}, "fusion_lon": 0.0}, {"lat": 38.916880166666665, "is_disabled": 0, "type": "electric_scooter", "lon": -77.02795716666667, "bike_id": "78dfda6ed2477476ace8a2f741368fe0", "fusion_lat": 0.0, "name": "78dfda6ed2477476ace8a2f741368fe0", "is_reserved": 0, "rental_uris": {"android": "https://dc.lft.to/lastmile_qr_scan", "ios": "https://dc.lft.to/lastmile_qr_scan"}, "fusion_lon": 0.0}, {"lat": 38.895117, "is_disabled": 0, "type": "electric_scooter", "lon": -76.94902983333333, "bike_id": "28708cf643270036be897c616a8c4ef1", "fusion_lat": 0.0, "name": "28708cf643270036be897c616a8c4ef1", "is_reserved": 0, "rental_uris": {"android": "https://dc.lft.to/lastmile_qr_scan", "ios": "https://dc.lft.to/lastmile_qr_scan"}, "fusion_lon": 0.0}, {"lat": 38.962193, "is_disabled": 0, "type": "electric_bike", "lon": -77.02776733333333, "bike_id": "39f4dcd05d20d673668e1715509b5ea9", "fusion_lat": 0.0, "name": "39f4dcd05d20d673668e1715509b5ea9", "is_reserved": 0, "rental_uris": {"android": "https://dc.lft.to/lastmile_qr_scan", "ios": "https://dc.lft.to/lastmile_qr_scan"}, "fusion_lon": 0.0}, {"lat": 38.908537, "is_disabled": 0, "type": "electric_scooter", "lon": -77.023372, "bike_id": "8dcba1bc02641b21d2dfc6c4ad36a5b7", "fusion_lat": 0.0, "name": "8dcba1bc02641b21d2dfc6c4ad36a5b7", "is_reserved": 0, "rental_uris": {"android": "https://dc.lft.to/lastmile_qr_scan", "ios": "https://dc.lft.to/lastmile_qr_scan"}, "fusion_lon": 0.0}, {"lat": 38.91005916666667, "is_disabled": 0, "type": "electric_scooter", "lon": -77.0400925, "bike_id": "b26f37dbba76aa6034720f8c4fb47723", "fusion_lat": 0.0, "name": "b26f37dbba76aa6034720f8c4fb47723", "is_reserved": 0, "rental_uris": {"android": "https://dc.lft.to/lastmile_qr_scan", "ios": "https://dc.lft.to/lastmile_qr_scan"}, "fusion_lon": 0.0}, {"lat": 38.8852575, "is_disabled": 0, "type": "electric_scooter", "lon": -77.01522166666666, "bike_id": "c886c9edbf1423551ba521b522b3a0c0", "fusion_lat": 0.0, "name": "c886c9edbf1423551ba521b522b3a0c0", "is_reserved": 0, "rental_uris": {"android": "https://dc.lft.to/lastmile_qr_scan", "ios": "https://dc.lft.to/lastmile_qr_scan"}, "fusion_lon": 0.0}, {"lat": 38.9182065, "is_disabled": 0, "type": "electric_scooter", "lon": -76.9996965, "bike_id": "f519a63c99525cffb1bac19600f4f2d8", "fusion_lat": 0.0, "name": "f519a63c99525cffb1bac19600f4f2d8", "is_reserved": 0, "rental_uris": {"android": "https://dc.lft.to/lastmile_qr_scan", "ios": "https://dc.lft.to/lastmile_qr_scan"}, "fusion_lon": 0.0}, {"lat": 38.93466466666667, "is_disabled": 0, "type": "electric_scooter", "lon": -77.032377, "bike_id": "2ab3316abddf60c9c47fc169013f0c34", "fusion_lat": 0.0, "name": "2ab3316abddf60c9c47fc169013f0c34", "is_reserved": 0, "rental_uris": {"android": "https://dc.lft.to/lastmile_qr_scan", "ios": "https://dc.lft.to/lastmile_qr_scan"}, "fusion_lon": 0.0}, {"lat": 38.85220616666667, "is_disabled": 0, "type": "electric_bike", "lon": -77.129639, "bike_id": "f2c174e424c329461a14dbc8f5bae2e5", "fusion_lat": 0.0, "name": "f2c174e424c329461a14dbc8f5bae2e5", "is_reserved": 0, "rental_uris": {"android": "https://dc.lft.to/lastmile_qr_scan", "ios": "https://dc.lft.to/lastmile_qr_scan"}, "fusion_lon": 0.0}, {"lat": 38.93228033333333, "is_disabled": 0, "type": "electric_scooter", "lon": -77.04406616666667, "bike_id": "193c61f0b7edcbe88a0b5644925fc2eb", "fusion_lat": 0.0, "name": "193c61f0b7edcbe88a0b5644925fc2eb", "is_reserved": 0, "rental_uris": {"android": "https://dc.lft.to/lastmile_qr_scan", "ios": "https://dc.lft.to/lastmile_qr_scan"}, "fusion_lon": 0.0}, {"lat": 38.800640666666666, "is_disabled": 0, "type": "electric_bike", "lon": -77.071119, "bike_id": "ca713bd9312e91860100124bbd0125e5", "fusion_lat": 0.0, "name": "ca713bd9312e91860100124bbd0125e5", "is_reserved": 0, "rental_uris": {"android": "https://dc.lft.to/lastmile_qr_scan", "ios": "https://dc.lft.to/lastmile_qr_scan"}, "fusion_lon": 0.0}, {"lat": 38.865211, "is_disabled": 0, "type": "electric_scooter", "lon": -76.99031533333333, "bike_id": "7ef87f4f61b81de6b196bd3f5ba42f5d", "fusion_lat": 0.0, "name": "7ef87f4f61b81de6b196bd3f5ba42f5d", "is_reserved": 0, "rental_uris": {"android": "https://dc.lft.to/lastmile_qr_scan", "ios": "https://dc.lft.to/lastmile_qr_scan"}, "fusion_lon": 0.0}, {"lat": 38.920213, "is_disabled": 0, "type": "electric_scooter", "lon": -77.041992, "bike_id": "b03443b786f6a1ea205f9a95c0be8aea", "fusion_lat": 0.0, "name": "b03443b786f6a1ea205f9a95c0be8aea", "is_reserved": 0, "rental_uris": {"android": "https://dc.lft.to/lastmile_qr_scan", "ios": "https://dc.lft.to/lastmile_qr_scan"}, "fusion_lon": 0.0}, {"lat": 38.91762683333333, "is_disabled": 0, "type": "electric_scooter", "lon": -77.00451066666666, "bike_id": "14852c21f4f56509be12942ff95b62fb", "fusion_lat": 0.0, "name": "14852c21f4f56509be12942ff95b62fb", "is_reserved": 0, "rental_uris": {"android": "https://dc.lft.to/lastmile_qr_scan", "ios": "https://dc.lft.to/lastmile_qr_scan"}, "fusion_lon": 0.0}, {"lat": 38.90035233333333, "is_disabled": 0, "type": "electric_scooter", "lon": -77.00749483333334, "bike_id": "18badd909415b26e740f5f3793cd1d78", "fusion_lat": 0.0, "name": "18badd909415b26e740f5f3793cd1d78", "is_reserved": 0, "rental_uris": {"android": "https://dc.lft.to/lastmile_qr_scan", "ios": "https://dc.lft.to/lastmile_qr_scan"}, "fusion_lon": 0.0}, {"lat": 38.8960675, "is_disabled": 0, "type": "electric_scooter", "lon": -77.04415283333333, "bike_id": "16d7642ec56b97a0dbac55de27fff8fa", "fusion_lat": 0.0, "name": "16d7642ec56b97a0dbac55de27fff8fa", "is_reserved": 0, "rental_uris": {"android": "https://dc.lft.to/lastmile_qr_scan", "ios": "https://dc.lft.to/lastmile_qr_scan"}, "fusion_lon": 0.0}, {"lat": 38.899044333333336, "is_disabled": 0, "type": "electric_scooter", "lon": -77.00359966666667, "bike_id": "575cfb994d8f5fcdf924366304d2de29", "fusion_lat": 0.0, "name": "575cfb994d8f5fcdf924366304d2de29", "is_reserved": 0, "rental_uris": {"android": "https://dc.lft.to/lastmile_qr_scan", "ios": "https://dc.lft.to/lastmile_qr_scan"}, "fusion_lon": 0.0}, {"lat": 38.86595966666667, "is_disabled": 0, "type": "electric_bike", "lon": -76.93230016666666, "bike_id": "b457b425470e6dfb5d14891516a83a16", "fusion_lat": 0.0, "name": "b457b425470e6dfb5d14891516a83a16", "is_reserved": 0, "rental_uris": {"android": "https://dc.lft.to/lastmile_qr_scan", "ios": "https://dc.lft.to/lastmile_qr_scan"}, "fusion_lon": 0.0}, {"lat": 38.9217065, "is_disabled": 0, "type": "electric_scooter", "lon": -77.05137433333333, "bike_id": "8b837c04b76c0451afbe8be8f9a3da11", "fusion_lat": 0.0, "name": "8b837c04b76c0451afbe8be8f9a3da11", "is_reserved": 0, "rental_uris": {"android": "https://dc.lft.to/lastmile_qr_scan", "ios": "https://dc.lft.to/lastmile_qr_scan"}, "fusion_lon": 0.0}, {"lat": 38.90777383333333, "is_disabled": 0, "type": "electric_scooter", "lon": -77.03862383333333, "bike_id": "cfe3afdf6f0f772f6b6a38f343890345", "fusion_lat": 0.0, "name": "cfe3afdf6f0f772f6b6a38f343890345", "is_reserved": 0, "rental_uris": {"android": "https://dc.lft.to/lastmile_qr_scan", "ios": "https://dc.lft.to/lastmile_qr_scan"}, "fusion_lon": 0.0}, {"lat": 38.95406216666667, "is_disabled": 0, "type": "electric_scooter", "lon": -77.0274515, "bike_id": "409b4fb4bc3c0cb8dc8e8604545c8057", "fusion_lat": 0.0, "name": "409b4fb4bc3c0cb8dc8e8604545c8057", "is_reserved": 0, "rental_uris": {"android": "https://dc.lft.to/lastmile_qr_scan", "ios": "https://dc.lft.to/lastmile_qr_scan"}, "fusion_lon": 0.0}, {"lat": 38.900286666666666, "is_disabled": 0, "type": "electric_scooter", "lon": -77.03205283333334, "bike_id": "1274adef389b72772be1163f8ba40791", "fusion_lat": 0.0, "name": "1274adef389b72772be1163f8ba40791", "is_reserved": 0, "rental_uris": {"android": "https://dc.lft.to/lastmile_qr_scan", "ios": "https://dc.lft.to/lastmile_qr_scan"}, "fusion_lon": 0.0}, {"lat": 38.937400833333335, "is_disabled": 0, "type": "electric_scooter", "lon": -77.03474833333334, "bike_id": "f99d410fc7353f1b56f370e5024777f1", "fusion_lat": 0.0, "name": "f99d410fc7353f1b56f370e5024777f1", "is_reserved": 0, "rental_uris": {"android": "https://dc.lft.to/lastmile_qr_scan", "ios": "https://dc.lft.to/lastmile_qr_scan"}, "fusion_lon": 0.0}, {"lat": 38.927401333333336, "is_disabled": 0, "type": "electric_scooter", "lon": -77.02586466666666, "bike_id": "69f7decc3fcac87539de27561bbd2707", "fusion_lat": 0.0, "name": "69f7decc3fcac87539de27561bbd2707", "is_reserved": 0, "rental_uris": {"android": "https://dc.lft.to/lastmile_qr_scan", "ios": "https://dc.lft.to/lastmile_qr_scan"}, "fusion_lon": 0.0}, {"lat": 38.92087216666667, "is_disabled": 0, "type": "electric_scooter", "lon": -77.04201316666666, "bike_id": "2bda32464b1039ccc58ce0508e6a5248", "fusion_lat": 0.0, "name": "2bda32464b1039ccc58ce0508e6a5248", "is_reserved": 0, "rental_uris": {"android": "https://dc.lft.to/lastmile_qr_scan", "ios": "https://dc.lft.to/lastmile_qr_scan"}, "fusion_lon": 0.0}, {"lat": 38.89849066666667, "is_disabled": 0, "type": "electric_scooter", "lon": -76.98178433333334, "bike_id": "2cc607f095c4efe30d72d7713b579ebc", "fusion_lat": 0.0, "name": "2cc607f095c4efe30d72d7713b579ebc", "is_reserved": 0, "rental_uris": {"android": "https://dc.lft.to/lastmile_qr_scan", "ios": "https://dc.lft.to/lastmile_qr_scan"}, "fusion_lon": 0.0}, {"lat": 38.921878666666665, "is_disabled": 0, "type": "electric_scooter", "lon": -77.04710266666666, "bike_id": "d6e60503de71fdd088cc3ddded3c30ec", "fusion_lat": 0.0, "name": "d6e60503de71fdd088cc3ddded3c30ec", "is_reserved": 0, "rental_uris": {"android": "https://dc.lft.to/lastmile_qr_scan", "ios": "https://dc.lft.to/lastmile_qr_scan"}, "fusion_lon": 0.0}, {"lat": 38.926058, "is_disabled": 0, "type": "electric_scooter", "lon": -77.05695033333333, "bike_id": "2e57ee47ee7c09d72571c71d7fad3a49", "fusion_lat": 0.0, "name": "2e57ee47ee7c09d72571c71d7fad3a49", "is_reserved": 0, "rental_uris": {"android": "https://dc.lft.to/lastmile_qr_scan", "ios": "https://dc.lft.to/lastmile_qr_scan"}, "fusion_lon": 0.0}, {"lat": 38.93197966666666, "is_disabled": 0, "type": "electric_scooter", "lon": -77.02352233333333, "bike_id": "93dfc3b47858884f86428ee20c5a76e0", "fusion_lat": 0.0, "name": "93dfc3b47858884f86428ee20c5a76e0", "is_reserved": 0, "rental_uris": {"android": "https://dc.lft.to/lastmile_qr_scan", "ios": "https://dc.lft.to/lastmile_qr_scan"}, "fusion_lon": 0.0}, {"lat": 38.89495933333333, "is_disabled": 0, "type": "electric_scooter", "lon": -77.0020465, "bike_id": "c160ef378c6a33d04d888fc790f670a2", "fusion_lat": 0.0, "name": "c160ef378c6a33d04d888fc790f670a2", "is_reserved": 0, "rental_uris": {"android": "https://dc.lft.to/lastmile_qr_scan", "ios": "https://dc.lft.to/lastmile_qr_scan"}, "fusion_lon": 0.0}, {"lat": 38.962276833333334, "is_disabled": 0, "type": "electric_bike", "lon": -77.0262685, "bike_id": "229b4c451e1b709dc7a3f623acfb20d5", "fusion_lat": 0.0, "name": "229b4c451e1b709dc7a3f623acfb20d5", "is_reserved": 0, "rental_uris": {"android": "https://dc.lft.to/lastmile_qr_scan", "ios": "https://dc.lft.to/lastmile_qr_scan"}, "fusion_lon": 0.0}, {"lat": 38.89836966666667, "is_disabled": 0, "type": "electric_scooter", "lon": -76.99501483333333, "bike_id": "d24fa718315d3a28f671ab45a5477b7d", "fusion_lat": 0.0, "name": "d24fa718315d3a28f671ab45a5477b7d", "is_reserved": 0, "rental_uris": {"android": "https://dc.lft.to/lastmile_qr_scan", "ios": "https://dc.lft.to/lastmile_qr_scan"}, "fusion_lon": 0.0}, {"lat": 38.903995, "is_disabled": 0, "type": "electric_scooter", "lon": -76.98465383333334, "bike_id": "0e02a0f3a62a5a0442a9c98e5f26a136", "fusion_lat": 0.0, "name": "0e02a0f3a62a5a0442a9c98e5f26a136", "is_reserved": 0, "rental_uris": {"android": "https://dc.lft.to/lastmile_qr_scan", "ios": "https://dc.lft.to/lastmile_qr_scan"}, "fusion_lon": 0.0},