{"data": {"bikes": [{"is_disabled": 0, "fusion_lon": 0.0, "fusion_lat": 0.0, "lat": 38.86341733333333, "type": "electric_scooter", "lon": -76.98271183333334, "bike_id": "c6aee049eba1dcab8cb1b665957c0f60", "rental_uris": {"android": "https://dc.lft.to/lastmile_qr_scan", "ios": "https://dc.lft.to/lastmile_qr_scan"}, "name": "c6aee049eba1dcab8cb1b665957c0f60", "is_reserved": 0}, {"is_disabled": 0, "fusion_lon": 0.0, "fusion_lat": 0.0, "lat": 38.92443383333333, "type": "electric_scooter", "lon": -77.0403415, "bike_id": "80be22720aaf25042b6265b5f24c3809", "rental_uris": {"android": "https://dc.lft.to/lastmile_qr_scan", "ios": "https://dc.lft.to/lastmile_qr_scan"}, "name": "80be22720aaf25042b6265b5f24c3809", "is_reserved": 0}, {"is_disabled": 0, "fusion_lon": 0.0, "fusion_lat": 0.0, "lat": 38.85870416666667, "type": "electric_scooter", "lon": -76.99023316666667, "bike_id": "2374337132b8c5c80555255093e6f830", "rental_uris": {"android": "https://dc.lft.to/lastmile_qr_scan", "ios": "https://dc.lft.to/lastmile_qr_scan"}, "name": "2374337132b8c5c80555255093e6f830", "is_reserved": 0}, {"is_disabled": 0, "fusion_lon": 0.0, "fusion_lat": 0.0, "lat": 38.92034683333333, "type": "electric_scooter", "lon": -77.02593066666667, "bike_id": "7f9854c8a61fde9e3ca3156acc2342db", "rental_uris": {"android": "https://dc.lft.to/lastmile_qr_scan", "ios": "https://dc.lft.to/lastmile_qr_scan"}, "name": "7f9854c8a61fde9e3ca3156acc2342db", "is_reserved": 0}, {"is_disabled": 0, "fusion_lon": 0.0, "fusion_lat": 0.0, "lat": 38.88723016666667, "type": "electric_scooter", "lon": -77.0220395, "bike_id": "da2b5a10c12f758f9de118976076ddc3", "rental_uris": {"android": "https://dc.lft.to/lastmile_qr_scan", "ios": "https://dc.lft.to/lastmile_qr_scan"}, "name": "da2b5a10c12f758f9de118976076ddc3", "is_reserved": 0}, {"is_disabled": 0, "fusion_lon": 0.0, "fusion_lat": 0.0, "lat": 38.95624383333333, "type": "electric_scooter", "lon": -77.0245905, "bike_id": "c9b6da97fb9dd61d07f26e03c849aa3e", "rental_uris": {"android": "https://dc.lft.to/lastmile_qr_scan", "ios": "https://dc.lft.to/lastmile_qr_scan"}, "name": "c9b6da97fb9dd61d07f26e03c849aa3e", "is_reserved": 0}, {"is_disabled": 0, "fusion_lon": 0.0, "fusion_lat": 0.0, "lat": 38.919215666666666, "type": "electric_scooter", "lon": -77.048164, "bike_id": "3504d619f6508a1f18ee914e2acf63cc", "rental_uris": {"android": "https://dc.lft.to/lastmile_qr_scan", "ios": "https://dc.lft.to/lastmile_qr_scan"}, "name": "3504d619f6508a1f18ee914e2acf63cc", "is_reserved": 0}, {"is_disabled": 0, "fusion_lon": 0.0, "fusion_lat": 0.0, "lat": 38.90871833333333, "type": "electric_scooter", "lon": -77.03009783333333, "bike_id": "3ab8e75528f273586421b5f3dc56e32d", "rental_uris": {"android": "https://dc.lft.to/lastmile_qr_scan", "ios": "https://dc.lft.to/lastmile_qr_scan"}, "name": "3ab8e75528f273586421b5f3dc56e32d", "is_reserved": 0}, {"is_disabled": 0, "fusion_lon": 0.0, "fusion_lat": 0.0, "lat": 38.916007666666665, "type": "electric_scooter", "lon": -77.0235915, "bike_id": "057fea6ba8e6b82c8d7cadc33604cedd", "rental_uris": {"android": "https://dc.lft.to/lastmile_qr_scan", "ios": "https://dc.lft.to/lastmile_qr_scan"}, "name": "057fea6ba8e6b82c8d7cadc33604cedd", "is_reserved": 0}, {"is_disabled": 0, "fusion_lon": 0.0, "fusion_lat": 0.0, "lat": 38.94330033333333, "type": "electric_bike", "lon": -77.0148225, "bike_id": "c39fb7f65ffe8ea369a4d43683265add", "rental_uris": {"android": "https://dc.lft.to/lastmile_qr_scan", "ios": "https://dc.lft.to/lastmile_qr_scan"}, "name": "c39fb7f65ffe8ea369a4d43683265add", "is_reserved": 0}, {"is_disabled": 0, "fusion_lon": 0.0, "fusion_lat": 0.0, "lat": 38.917784166666664, "type": "electric_scooter", "lon": -77.04152033333334, "bike_id": "06ce7aeeeedc37370819ca8cc423a1f7", "rental_uris": {"android": "https://dc.lft.to/lastmile_qr_scan", "ios": "https://dc.lft.to/lastmile_qr_scan"}, "name": "06ce7aeeeedc37370819ca8cc423a1f7", "is_reserved": 0}, {"is_disabled": 0, "fusion_lon": 0.0, "fusion_lat": 0.0, "lat": 38.93416, "type": "electric_scooter", "lon": -77.03888833333333, "bike_id": "77145295ad63a6e4fc7d26ed55217a3d", "rental_uris": {"android": "https://dc.lft.to/lastmile_qr_scan", "ios": "https://dc.lft.to/lastmile_qr_scan"}, "name": "77145295ad63a6e4fc7d26ed55217a3d", "is_reserved": 0}, {"is_disabled": 0, "fusion_lon": 0.0, "fusion_lat": 0.0, "lat": 38.85283366666667, "type": "electric_bike", "lon": -76.98149866666667, "bike_id": "aee466cee5832697342b76a30159a10d", "rental_uris": {"android": "https://dc.lft.to/lastmile_qr_scan", "ios": "https://dc.lft.to/lastmile_qr_scan"}, "name": "aee466cee5832697342b76a30159a10d", "is_reserved": 0}, {"is_disabled": 0, "fusion_lon": 0.0, "fusion_lat": 0.0, "lat": 38.905758666666664, "type": "electric_scooter", "lon": -77.05596883333334, "bike_id": "96f1325416b6909fa8bd4748b2c47f6f", "rental_uris": {"android": "https://dc.lft.to/lastmile_qr_scan", "ios": "https://dc.lft.to/lastmile_qr_scan"}, "name": "96f1325416b6909fa8bd4748b2c47f6f", "is_reserved": 0}, {"is_disabled": 0, "fusion_lon": 0.0, "fusion_lat": 0.0, "lat": 38.904514666666664, "type": "electric_scooter", "lon": -77.024161, "bike_id": "f01f3930ac5f114f89a1a96dcda01e0c", "rental_uris": {"android": "https://dc.lft.to/lastmile_qr_scan", "ios": "https://dc.lft.to/lastmile_qr_scan"}, "name": "f01f3930ac5f114f89a1a96dcda01e0c", "is_reserved": 0}, {"is_disabled": 0, "fusion_lon": 0.0, "fusion_lat": 0.0, "lat": 38.9047455, "type": "electric_bike", "lon": -76.92948816666667, "bike_id": "be37297993694127cc8046242164ffa7", "rental_uris": {"android": "https://dc.lft.to/lastmile_qr_scan", "ios": "https://dc.lft.to/lastmile_qr_scan"}, "name": "be37297993694127cc8046242164ffa7", "is_reserved": 0}, {"is_disabled": 0, "fusion_lon": 0.0, "fusion_lat": 0.0, "lat": 38.92130183333333, "type": "electric_scooter", "lon": -77.04442816666666, "bike_id": "df8f933ca4fbfb9a06cde768489885d6", "rental_uris": {"android": "https://dc.lft.to/lastmile_qr_scan", "ios": "https://dc.lft.to/lastmile_qr_scan"}, "name": "df8f933ca4fbfb9a06cde768489885d6", "is_reserved": 0}, {"is_disabled": 0, "fusion_lon": 0.0, "fusion_lat": 0.0, "lat": 38.8999795, "type": "electric_scooter", "lon": -77.03373233333333, "bike_id": "c6a6f3fcaf14c3adae10b51df9e70881", "rental_uris": {"android": "https://dc.lft.to/lastmile_qr_scan", "ios": "https://dc.lft.to/lastmile_qr_scan"}, "name": "c6a6f3fcaf14c3adae10b51df9e70881", "is_reserved": 0}, {"is_disabled": 0, "fusion_lon": 0.0, "fusion_lat": 0.0, "lat": 38.9247265, "type": "electric_scooter", "lon": -77.044604, "bike_id": "7264f7b6f5bae2e9b1684908908b9c75", "rental_uris": {"android": "https://dc.lft.to/lastmile_qr_scan", "ios": "https://dc.lft.to/lastmile_qr_scan"}, "name": "7264f7b6f5bae2e9b1684908908b9c75", "is_reserved": 0}, {"is_disabled": 0, "fusion_lon": 0.0, "fusion_lat": 0.0, "lat": 38.85207, "type": "electric_bike", "lon": -77.10130983333333, "bike_id": "a70958c59162927cd9ec279a831c69f0", "rental_uris": {"android": "https://dc.lft.to/lastmile_qr_scan", "ios": "https://dc.lft.to/lastmile_qr_scan"}, "name": "a70958c59162927cd9ec279a831c69f0", "is_reserved": 0}, {"is_disabled": 0, "fusion_lon": 0.0, "fusion_lat": 0.0, "lat": 38.919165666666665, "type": "electric_scooter", "lon": -77.04807683333334, "bike_id": "2490441a27c84d94a8ef093dc8c85645", "rental_uris": {"android": "https://dc.lft.to/lastmile_qr_scan", "ios": "https://dc.lft.to/lastmile_qr_scan"}, "name": "2490441a27c84d94a8ef093dc8c85645", "is_reserved": 0}, {"is_disabled": 0, "fusion_lon": 0.0, "fusion_lat": 0.0, "lat": 38.9244235, "type": "electric_bike", "lon": -77.05762466666667, "bike_id": "e2050fe3bf65ec3567ed30393a35ec0d", "rental_uris": {"android": "https://dc.lft.to/lastmile_qr_scan", "ios": "https://dc.lft.to/lastmile_qr_scan"}, "name": "e2050fe3bf65ec3567ed30393a35ec0d", "is_reserved": 0}, {"is_disabled": 0, "fusion_lon": 0.0, "fusion_lat": 0.0, "lat": 38.876190666666666, "type": "electric_scooter", "lon": -76.96538883333334, "bike_id": "ed5c8ecbba5bc15d98bd213e791edf04", "rental_uris": {"android": "https://dc.lft.to/lastmile_qr_scan", "ios": "https://dc.lft.to/lastmile_qr_scan"}, "name": "ed5c8ecbba5bc15d98bd213e791edf04", "is_reserved": 0}, {"is_disabled": 0, "fusion_lon": 0.0, "fusion_lat": 0.0, "lat": 38.865722166666664, "type": "electric_scooter", "lon": -76.98950883333333, "bike_id": "b6e2da00bc4fea389da9e29c41d847cf", "rental_uris": {"android": "https://dc.lft.to/lastmile_qr_scan", "ios": "https://dc.lft.to/lastmile_qr_scan"}, "name": "b6e2da00bc4fea389da9e29c41d847cf", "is_reserved": 0}, {"is_disabled": 0, "fusion_lon": 0.0, "fusion_lat": 0.0, "lat": 38.908665666666664, "type": "electric_scooter", "lon": -77.03555533333333, "bike_id": "9afa094135f741b7cc7778997ab33566", "rental_uris": {"android": "https://dc.lft.to/lastmile_qr_scan", "ios": "https://dc.lft.to/lastmile_qr_scan"}, "name": "9afa094135f741b7cc7778997ab33566", "is_reserved": 0}, {"is_disabled": 0, "fusion_lon": 0.0, "fusion_lat": 0.0, "lat": 38.88740633333333, "type": "electric_scooter", "lon": -77.01605316666667, "bike_id": "0701b0482596f631d6510062284eaa37", "rental_uris": {"android": "https://dc.lft.to/lastmile_qr_scan", "ios": "https://dc.lft.to/lastmile_qr_scan"}, "name": "0701b0482596f631d6510062284eaa37", "is_reserved": 0}, {"is_disabled": 0, "fusion_lon": 0.0, "fusion_lat": 0.0, "lat": 38.90620583333333, "type": "electric_scooter", "lon": -77.0067325, "bike_id": "c1d7b3772162dd1a1fff2f3c6455f114", "rental_uris": {"android": "https://dc.lft.to/lastmile_qr_scan", "ios": "https://dc.lft.to/lastmile_qr_scan"}, "name": "c1d7b3772162dd1a1fff2f3c6455f114", "is_reserved": 0}, {"is_disabled": 0, "fusion_lon": 0.0, "fusion_lat": 0.0, "lat": 38.85852283333333, "type": "electric_bike", "lon": -77.09750783333334, "bike_id": "3028a273dc2d5833077adde631464c78", "rental_uris": {"android": "https://dc.lft.to/lastmile_qr_scan", "ios": "https://dc.lft.to/lastmile_qr_scan"}, "name": "3028a273dc2d5833077adde631464c78", "is_reserved": 0}, {"is_disabled": 0, "fusion_lon": 0.0, "fusion_lat": 0.0, "lat": 38.9127805, "type": "electric_scooter", "lon": -77.03193133333333, "bike_id": "2178b23ee5f9a347ba9a8edc3a3270f8", "rental_uris": {"android": "https://dc.lft.to/lastmile_qr_scan", "ios": "https://dc.lft.to/lastmile_qr_scan"}, "name": "2178b23ee5f9a347ba9a8edc3a3270f8", "is_reserved": 0}, {"is_disabled": 0, "fusion_lon": 0.0, "fusion_lat": 0.0, "lat": 38.9427215, "type": "electric_scooter", "lon": -77.0326195, "bike_id": "e0b0a511e9d98a8231f40789377d00e0", "rental_uris": {"android": "https://dc.lft.to/lastmile_qr_scan", "ios": "https://dc.lft.to/lastmile_qr_scan"}, "name": "e0b0a511e9d98a8231f40789377d00e0", "is_reserved": 0}, {"is_disabled": 0, "fusion_lon": 0.0, "fusion_lat": 0.0, "lat": 38.91328566666667, "type": "electric_scooter", "lon": -77.03171466666667, "bike_id": "5563472e8e567607b7ae979c1c58e2ed", "rental_uris": {"android": "https://dc.lft.to/lastmile_qr_scan", "ios": "https://dc.lft.to/lastmile_qr_scan"}, "name": "5563472e8e567607b7ae979c1c58e2ed", "is_reserved": 0}, {"is_disabled": 0, "fusion_lon": 0.0, "fusion_lat": 0.0, "lat": 38.84293233333333, "type": "electric_scooter", "lon": -76.99950683333333, "bike_id": "af73fe4d495f978b85606a8948bc80d3", "rental_uris": {"android": "https://dc.lft.to/lastmile_qr_scan", "ios": "https://dc.lft.to/lastmile_qr_scan"}, "name": "af73fe4d495f978b85606a8948bc80d3", "is_reserved": 0}, {"is_disabled": 0, "fusion_lon": 0.0, "fusion_lat": 0.0, "lat": 38.916998166666666, "type": "electric_scooter", "lon": -77.0273585, "bike_id": "fbedcd0ab23fdc2a14af2b3786288793", "rental_uris": {"android": "https://dc.lft.to/lastmile_qr_scan", "ios": "https://dc.lft.to/lastmile_qr_scan"}, "name": "fbedcd0ab23fdc2a14af2b3786288793", "is_reserved": 0}, {"is_disabled": 0, "fusion_lon": 0.0, "fusion_lat": 0.0, "lat": 38.9202525, "type": "electric_scooter", "lon": -77.03108083333333, "bike_id": "4c33b5cb199784c4839854835f1b4193", "rental_uris": {"android": "https://dc.lft.to/lastmile_qr_scan", "ios": "https://dc.lft.to/lastmile_qr_scan"}, "name": "4c33b5cb199784c4839854835f1b4193", "is_reserved": 0}, {"is_disabled": 0, "fusion_lon": 0.0, "fusion_lat": 0.0, "lat": 38.887565, "type": "electric_scooter", "lon": -77.01604066666667, "bike_id": "85d50d24c945da50490ef84494976239", "rental_uris": {"android": "https://dc.lft.to/lastmile_qr_scan", "ios": "https://dc.lft.to/lastmile_qr_scan"}, "name": "85d50d24c945da50490ef84494976239", "is_reserved": 0}, {"is_disabled": 0, "fusion_lon": 0.0, "fusion_lat": 0.0, "lat": 38.9405445, "type": "electric_scooter", "lon": -77.02503816666666, "bike_id": "794411e5c07afbc967cb2f76533eb04c", "rental_uris": {"android": "https://dc.lft.to/lastmile_qr_scan", "ios": "https://dc.lft.to/lastmile_qr_scan"}, "name": "794411e5c07afbc967cb2f76533eb04c", "is_reserved": 0}, {"is_disabled": 0, "fusion_lon": 0.0, "fusion_lat": 0.0, "lat": 38.9069735, "type": "electric_scooter", "lon": -77.0376975, "bike_id": "1451e437b4e02e60ffe5be4467a96c1b", "rental_uris": {"android": "https://dc.lft.to/lastmile_qr_scan", "ios": "https://dc.lft.to/lastmile_qr_scan"}, "name": "1451e437b4e02e60ffe5be4467a96c1b", "is_reserved": 0}, {"is_disabled": 0, "fusion_lon": 0.0, "fusion_lat": 0.0, "lat": 38.9645, "type": "electric_bike", "lon": -76.97722183333333, "bike_id": "7e8a79abe0072ff70693ae78e546ae23", "rental_uris": {"android": "https://dc.lft.to/lastmile_qr_scan", "ios": "https://dc.lft.to/lastmile_qr_scan"}, "name": "7e8a79abe0072ff70693ae78e546ae23", "is_reserved": 0}, {"is_disabled": 0, "fusion_lon": 0.0, "fusion_lat": 0.0, "lat": 39.029998166666665, "type": "electric_bike", "lon": -77.10654116666667, "bike_id": "e8dc04f7c6e522b262e7f0af1d864fbc", "rental_uris": {"android": "https://dc.lft.to/lastmile_qr_scan", "ios": "https://dc.lft.to/lastmile_qr_scan"}, "name": "e8dc04f7c6e522b262e7f0af1d864fbc", "is_reserved": 0}, {"is_disabled": 0, "fusion_lon": 0.0, "fusion_lat": 0.0, "lat": 38.899089833333335, "type": "electric_scooter", "lon": -76.93387683333333, "bike_id": "5688972b756f6dea12147ac3c773408f", "rental_uris": {"android": "https://dc.lft.to/lastmile_qr_scan", "ios": "https://dc.lft.to/lastmile_qr_scan"}, "name": "5688972b756f6dea12147ac3c773408f", "is_reserved": 0}, {"is_disabled": 0, "fusion_lon": 0.0, "fusion_lat": 0.0, "lat": 38.918048666666664, "type": "electric_scooter", "lon": -77.0337815, "bike_id": "bb787bf053f4c22c3f32b4674166f941", "rental_uris": {"android": "https://dc.lft.to/lastmile_qr_scan", "ios": "https://dc.lft.to/lastmile_qr_scan"}, "name": "bb787bf053f4c22c3f32b4674166f941", "is_reserved": 0}, {"is_disabled": 0, "fusion_lon": 0.0, "fusion_lat": 0.0, "lat": 38.87975683333333, "type": "electric_scooter", "lon": -77.0176555, "bike_id": "a0fe2fcaaabbce25c80f81c68a42d936", "rental_uris": {"android": "https://dc.lft.to/lastmile_qr_scan", "ios": "https://dc.lft.to/lastmile_qr_scan"}, "name": "a0fe2fcaaabbce25c80f81c68a42d936", "is_reserved": 0}, {"is_disabled": 0, "fusion_lon": 0.0, "fusion_lat": 0.0, "lat": 38.913812666666665, "type": "electric_scooter", "lon": -77.02956516666667, "bike_id": "77d9f5a8473dde5d95a89cc91866779a", "rental_uris": {"android": "https://dc.lft.to/lastmile_qr_scan", "ios": "https://dc.lft.to/lastmile_qr_scan"}, "name": "77d9f5a8473dde5d95a89cc91866779a", "is_reserved": 0}, {"is_disabled": 0, "fusion_lon": 0.0, "fusion_lat": 0.0, "lat": 38.96807283333333, "type": "electric_scooter", "lon": -77.02121516666666, "bike_id": "14eced666ecdba92d97b9bbd48241bad", "rental_uris": {"android": "https://dc.lft.to/lastmile_qr_scan", "ios": "https://dc.lft.to/lastmile_qr_scan"}, "name": "14eced666ecdba92d97b9bbd48241bad", "is_reserved": 0}, {"is_disabled": 0, "fusion_lon": 0.0, "fusion_lat": 0.0, "lat": 38.9053875, "type": "electric_scooter", "lon": -77.050016, "bike_id": "973e1f915d70f0ba1c2293bd72cf447b", "rental_uris": {"android": "https://dc.lft.to/lastmile_qr_scan", "ios": "https://dc.lft.to/lastmile_qr_scan"}, "name": "973e1f915d70f0ba1c2293bd72cf447b", "is_reserved": 0}, {"is_disabled": 0, "fusion_lon": 0.0, "fusion_lat": 0.0, "lat": 38.971679333333334, "type": "electric_bike", "lon": -76.98022016666667, "bike_id": "9ae77e9202ee0185b28dccc6a22ed9c0", "rental_uris": {"android": "https://dc.lft.to/lastmile_qr_scan", "ios": "https://dc.lft.to/lastmile_qr_scan"}, "name": "9ae77e9202ee0185b28dccc6a22ed9c0", "is_reserved": 0}, {"is_disabled": 0, "fusion_lon": 0.0, "fusion_lat": 0.0, "lat": 38.898778, "type": "electric_scooter", "lon": -76.99856333333334, "bike_id": "c7aad37767e17f4d3387fefe862f54d2", "rental_uris": {"android": "https://dc.lft.to/lastmile_qr_scan", "ios": "https://dc.lft.to/lastmile_qr_scan"}, "name": "c7aad37767e17f4d3387fefe862f54d2", "is_reserved": 0}, {"is_disabled": 0, "fusion_lon": 0.0, "fusion_lat": 0.0, "lat": 38.880248, "type": "electric_scooter", "lon": -76.98238516666666, "bike_id": "c9883e8ee554d50d802f6cb8f3691551", "rental_uris": {"android": "https://dc.lft.to/lastmile_qr_scan", "ios": "https://dc.lft.to/lastmile_qr_scan"}, "name": "c9883e8ee554d50d802f6cb8f3691551", "is_reserved": 0}, {"is_disabled": 0, "fusion_lon": 0.0, "fusion_lat": 0.0, "lat": 38.9408815, "type": "electric_scooter", "lon": -77.038136, "bike_id": "9f4776b02ca722a694977cb687376cf4", "rental_uris": {"android": "https://dc.lft.to/lastmile_qr_scan", "ios": "https://dc.lft.to/lastmile_qr_scan"}, "name": "9f4776b02ca722a694977cb687376cf4", "is_reserved": 0}, {"is_disabled": 0, "fusion_lon": 0.0, "fusion_lat": 0.0, "lat": 38.908393333333336, "type": "electric_scooter", "lon": -77.02700133333333, "bike_id": "0005963c83fb257093913e5ab386f495", "rental_uris": {"android": "https://dc.lft.to/lastmile_qr_scan", "ios": "https://dc.lft.to/lastmile_qr_scan"}, "name": "0005963c83fb257093913e5ab386f495", "is_reserved": 0}, {"is_disabled": 0, "fusion_lon": 0.0, "fusion_lat": 0.0, "lat": 38.91728466666667, "type": "electric_scooter", "lon": -77.03459333333333, "bike_id": "729c720fc7adeb83ea48188af1b851f9", "rental_uris": {"android": "https://dc.lft.to/lastmile_qr_scan", "ios": "https://dc.lft.to/lastmile_qr_scan"}, "name": "729c720fc7adeb83ea48188af1b851f9", "is_reserved": 0}, {"is_disabled": 0, "fusion_lon": 0.0, "fusion_lat": 0.0, "lat": 38.902225666666666, "type": "electric_scooter", "lon": -77.02377783333333, "bike_id": "619c350006718b0b352b38301acd497b", "rental_uris": {"android": "https://dc.lft.to/lastmile_qr_scan", "ios": "https://dc.lft.to/lastmile_qr_scan"}, "name": "619c350006718b0b352b38301acd497b", "is_reserved": 0}, {"is_disabled": 0, "fusion_lon": 0.0, "fusion_lat": 0.0, "lat": 38.909637833333335, "type": "electric_scooter", "lon": -77.03227333333334, "bike_id": "21cf4492980c4b42f47072f542947e64", "rental_uris": {"android": "https://dc.lft.to/lastmile_qr_scan", "ios": "https://dc.lft.to/lastmile_qr_scan"}, "name": "21cf4492980c4b42f47072f542947e64", "is_reserved": 0}, {"is_disabled": 0, "fusion_lon": 0.0, "fusion_lat": 0.0, "lat": 38.9128105, "type": "electric_scooter", "lon": -77.032013, "bike_id": "bca8f0dde6df6762681178051d4cc883", "rental_uris": {"android": "https://dc.lft.to/lastmile_qr_scan", "ios": "https://dc.lft.to/lastmile_qr_scan"}, "name": "bca8f0dde6df6762681178051d4cc883", "is_reserved": 0}, {"is_disabled": 0, "fusion_lon": 0.0, "fusion_lat": 0.0, "lat": 38.9449745, "type": "electric_bike", "lon": -76.98657283333333, "bike_id": "38953acbacbc001af339f75d3f470f0e", "rental_uris": {"android": "https://dc.lft.to/lastmile_qr_scan", "ios": "https://dc.lft.to/lastmile_qr_scan"}, "name": "38953acbacbc001af339f75d3f470f0e", "is_reserved": 0}, {"is_disabled": 0, "fusion_lon": 0.0, "fusion_lat": 0.0, "lat": 38.9314335, "type": "electric_scooter", "lon": -77.03245633333333, "bike_id": "9b5c09040d29ec92036e38e1420b4a61", "rental_uris": {"android": "https://dc.lft.to/lastmile_qr_scan", "ios": "https://dc.lft.to/lastmile_qr_scan"}, "name": "9b5c09040d29ec92036e38e1420b4a61", "is_reserved": 0}, {"is_disabled": 0, "fusion_lon": 0.0, "fusion_lat": 0.0, "lat": 38.90790416666667, "type": "electric_scooter", "lon": -77.03049866666667, "bike_id": "8a2e7123f55633f2aeede01d22baef35", "rental_uris": {"android": "https://dc.lft.to/lastmile_qr_scan", "ios": "https://dc.lft.to/lastmile_qr_scan"}, "name": "8a2e7123f55633f2aeede01d22baef35", "is_reserved": 0}, {"is_disabled": 0, "fusion_lon": 0.0, "fusion_lat": 0.0, "lat": 38.82779883333333, "type": "electric_bike", "lon": -77.1108215, "bike_id": "1e1d8d82427ebb8721c98a05aefdb459", "rental_uris": {"android": "https://dc.lft.to/lastmile_qr_scan", "ios": "https://dc.lft.to/lastmile_qr_scan"}, "name": "1e1d8d82427ebb8721c98a05aefdb459", "is_reserved": 0}, {"is_disabled": 0, "fusion_lon": 0.0, "fusion_lat": 0.0, "lat": 38.956134666666664, "type": "electric_scooter", "lon": -77.0276065, "bike_id": "5fe7ee34930862ad9a661a821d47eec2", "rental_uris": {"android": "https://dc.lft.to/lastmile_qr_scan", "ios": "https://dc.lft.to/lastmile_qr_scan"}, "name": "5fe7ee34930862ad9a661a821d47eec2", "is_reserved": 0}, {"is_disabled": 0, "fusion_lon": 0.0, "fusion_lat": 0.0, "lat": 38.896095833333334, "type": "electric_bike", "lon": -76.98620433333333, "bike_id": "99bb51e22711231444a8f672f967cb24", "rental_uris": {"android": "https://dc.lft.to/lastmile_qr_scan", "ios": "https://dc.lft.to/lastmile_qr_scan"}, "name": "99bb51e22711231444a8f672f967cb24", "is_reserved": 0}, {"is_disabled": 0, "fusion_lon": 0.0, "fusion_lat": 0.0, "lat": 38.90214483333333, "type": "electric_scooter", "lon": -77.02437016666667, "bike_id": "b73fa4ae5502ea06b2f516694753026b", "rental_uris": {"android": "https://dc.lft.to/lastmile_qr_scan", "ios": "https://dc.lft.to/lastmile_qr_scan"}, "name": "b73fa4ae5502ea06b2f516694753026b", "is_reserved": 0}, {"is_disabled": 0, "fusion_lon": 0.0, "fusion_lat": 0.0, "lat": 38.824459166666664, "type": "electric_bike", "lon": -77.070441, "bike_id": "7b304c499b58c51c1dbaeb545ea21ba6", "rental_uris": {"android": "https://dc.lft.to/lastmile_qr_scan", "ios": "https://dc.lft.to/lastmile_qr_scan"}, "name": "7b304c499b58c51c1dbaeb545ea21ba6", "is_reserved": 0}, {"is_disabled": 0, "fusion_lon": 0.0, "fusion_lat": 0.0, "lat": 38.930294833333335, "type": "electric_scooter", "lon": -77.03451683333333, "bike_id": "c94f985b94ab2e6282c5cd994a0ef87a", "rental_uris": {"android": "https://dc.lft.to/lastmile_qr_scan", "ios": "https://dc.lft.to/lastmile_qr_scan"}, "name": "c94f985b94ab2e6282c5cd994a0ef87a", "is_reserved": 0}, {"is_disabled": 0, "fusion_lon": 0.0, "fusion_lat": 0.0, "lat": 38.91595916666667, "type": "electric_scooter", "lon": -77.03179716666666, "bike_id": "94de0ecdc5a873d753e414b1b9500004", "rental_uris": {"android": "https://dc.lft.to/lastmile_qr_scan", "ios": "https://dc.lft.to/lastmile_qr_scan"}, "name": "94de0ecdc5a873d753e414b1b9500004", "is_reserved": 0}, {"is_disabled": 0, "fusion_lon": 0.0, "fusion_lat": 0.0, "lat": 38.885365166666666, "type": "electric_scooter", "lon": -76.927128, "bike_id": "670e3aebe10d57276a9d273e2bdf1ce0", "rental_uris": {"android": "https://dc.lft.to/lastmile_qr_scan", "ios": "https://dc.lft.to/lastmile_qr_scan"}, "name": "670e3aebe10d57276a9d273e2bdf1ce0", "is_reserved": 0}, {"is_disabled": 0, "fusion_lon": 0.0, "fusion_lat": 0.0, "lat": 38.89835083333333, "type": "electric_scooter", "lon": -76.94634283333333, "bike_id": "847f82344ecf31c1c3424aad387a099b", "rental_uris": {"android": "https://dc.lft.to/lastmile_qr_scan", "ios": "https://dc.lft.to/lastmile_qr_scan"}, "name": "847f82344ecf31c1c3424aad387a099b", "is_reserved": 0}, {"is_disabled": 0, "fusion_lon": 0.0, "fusion_lat": 0.0, "lat": 38.939694833333334, "type": "electric_scooter", "lon": -77.03283016666667, "bike_id": "7f71c362e88d1680f96b765cae5d2f3c", "rental_uris": {"android": "https://dc.lft.to/lastmile_qr_scan", "ios": "https://dc.lft.to/lastmile_qr_scan"}, "name": "7f71c362e88d1680f96b765cae5d2f3c", "is_reserved": 0}, {"is_disabled": 0, "fusion_lon": 0.0, "fusion_lat": 0.0, "lat": 38.927993, "type": "electric_scooter", "lon": -77.0535915, "bike_id": "f66b981f5a4b4f914d045cb4f0816af9", "rental_uris": {"android": "https://dc.lft.to/lastmile_qr_scan", "ios": "https://dc.lft.to/lastmile_qr_scan"}, "name": "f66b981f5a4b4f914d045cb4f0816af9", "is_reserved": 0}, {"is_disabled": 0, "fusion_lon": 0.0, "fusion_lat": 0.0, "lat": 38.9208245, "type": "electric_scooter", "lon": -77.0007555, "bike_id": "1055400aa3e3a7bf3994662c97d63581", "rental_uris": {"android": "https://dc.lft.to/lastmile_qr_scan", "ios": "https://dc.lft.to/lastmile_qr_scan"}, "name": "1055400aa3e3a7bf3994662c97d63581", "is_reserved": 0}, {"is_disabled": 0, "fusion_lon": 0.0, "fusion_lat": 0.0, "lat": 38.88593016666667, "type": "electric_scooter", "lon": -77.01995916666667, "bike_id": "637f7c86ada87eda1307824791538599", "rental_uris": {"android": "https://dc.lft.to/lastmile_qr_scan", "ios": "https://dc.lft.to/lastmile_qr_scan"}, "name": "637f7c86ada87eda1307824791538599", "is_reserved": 0}, {"is_disabled": 0, "fusion_lon": 0.0, "fusion_lat": 0.0, "lat": 38.90970816666667, "type": "electric_scooter", "lon": -77.0265655, "bike_id": "dee38583547d78e90f47f1ae47c2c569", "rental_uris": {"android": "https://dc.lft.to/lastmile_qr_scan", "ios": "https://dc.lft.to/lastmile_qr_scan"}, "name": "dee38583547d78e90f47f1ae47c2c569", "is_reserved": 0}, {"is_disabled": 0, "fusion_lon": 0.0, "fusion_lat": 0.0, "lat": 38.92692866666667, "type": "electric_scooter", "lon": -77.037384, "bike_id": "46edf8e73aa422d33ef7b5dc1bc77169", "rental_uris": {"android": "https://dc.lft.to/lastmile_qr_scan", "ios": "https://dc.lft.to/lastmile_qr_scan"}, "name": "46edf8e73aa422d33ef7b5dc1bc77169", "is_reserved": 0}, {"is_disabled": 0, "fusion_lon": 0.0, "fusion_lat": 0.0, "lat": 38.91708633333333, "type": "electric_scooter", "lon": -77.02485, "bike_id": "0179089db2f6204a01669511ccd47bfc", "rental_uris": {"android": "https://dc.lft.to/lastmile_qr_scan", "ios": "https://dc.lft.to/lastmile_qr_scan"}, "name": "0179089db2f6204a01669511ccd47bfc", "is_reserved": 0}, {"is_disabled": 0, "fusion_lon": 0.0, "fusion_lat": 0.0, "lat": 38.99063483333333, "type": "electric_bike", "lon": -77.10026433333333, "bike_id": "cd8c740a33bc83593f44e2cf3e7b8efa", "rental_uris": {"android": "https://dc.lft.to/lastmile_qr_scan", "ios": "https://dc.lft.to/lastmile_qr_scan"}, "name": "cd8c740a33bc83593f44e2cf3e7b8efa", "is_reserved": 0}, {"is_disabled": 0, "fusion_lon": 0.0, "fusion_lat": 0.0, "lat": 38.903799166666666, "type": "electric_scooter", "lon": -77.02920066666667, "bike_id": "d893b9952eeae9ba66f395d80d784ad9", "rental_uris": {"android": "https://dc.lft.to/lastmile_qr_scan", "ios": "https://dc.lft.to/lastmile_qr_scan"}, "name": "d893b9952eeae9ba66f395d80d784ad9", "is_reserved": 0}, {"is_disabled": 0, "fusion_lon": 0.0, "fusion_lat": 0.0, "lat": 38.9096445, "type": "electric_scooter", "lon": -77.06748966666666, "bike_id": "14bda1911325270827031031d8b1eb29", "rental_uris": {"android": "https://dc.lft.to/lastmile_qr_scan", "ios": "https://dc.lft.to/lastmile_qr_scan"}, "name": "14bda1911325270827031031d8b1eb29", "is_reserved": 0}, {"is_disabled": 0, "fusion_lon": 0.0, "fusion_lat": 0.0, "lat": 38.905399, "type": "electric_scooter", "lon": -77.050041, "bike_id": "3aaf53765012929feb7cba961d8639c7", "rental_uris": {"android": "https://dc.lft.to/lastmile_qr_scan", "ios": "https://dc.lft.to/lastmile_qr_scan"}, "name": "3aaf53765012929feb7cba961d8639c7", "is_reserved": 0}, {"is_disabled": 0, "fusion_lon": 0.0, "fusion_lat": 0.0, "lat": 38.99090116666667, "type": "electric_bike", "lon": -76.8749505, "bike_id": "5e77260532d7d4759d69b5abc97e0ef5", "rental_uris": {"android": "https://dc.lft.to/lastmile_qr_scan", "ios": "https://dc.lft.to/lastmile_qr_scan"}, "name": "5e77260532d7d4759d69b5abc97e0ef5", "is_reserved": 0}, {"is_disabled": 0, "fusion_lon": 0.0, "fusion_lat": 0.0, "lat": 38.8635715, "type": "electric_scooter", "lon": -76.99066583333334, "bike_id": "6ad4d20dccbe000156837517c2d14b65", "rental_uris": {"android": "https://dc.lft.to/lastmile_qr_scan", "ios": "https://dc.lft.to/lastmile_qr_scan"}, "name": "6ad4d20dccbe000156837517c2d14b65", "is_reserved": 0}, {"is_disabled": 0, "fusion_lon": 0.0, "fusion_lat": 0.0, "lat": 38.917005333333336, "type": "electric_scooter", "lon": -77.0107555, "bike_id": "f612f22b6787f08ee7e1ed8d4055625d", "rental_uris": {"android": "https://dc.lft.to/lastmile_qr_scan", "ios": "https://dc.lft.to/lastmile_qr_scan"}, "name": "f612f22b6787f08ee7e1ed8d4055625d", "is_reserved": 0}, {"is_disabled": 0, "fusion_lon": 0.0, "fusion_lat": 0.0, "lat": 38.895412, "type": "electric_scooter", "lon": -76.94932666666666, "bike_id": "7078c10bbb76cf79b019c54a8a048b88", "rental_uris": {"android": "https://dc.lft.to/lastmile_qr_scan", "ios": "https://dc.lft.to/lastmile_qr_scan"}, "name": "7078c10bbb76cf79b019c54a8a048b88", "is_reserved": 0}, {"is_disabled": 0, "fusion_lon": 0.0, "fusion_lat": 0.0, "lat": 38.93201883333333, "type": "electric_scooter", "lon": -77.03856333333333, "bike_id": "5351207863181a2b0d2fee99c02c49f2", "rental_uris": {"android": "https://dc.lft.to/lastmile_qr_scan", "ios": "https://dc.lft.to/lastmile_qr_scan"}, "name": "5351207863181a2b0d2fee99c02c49f2", "is_reserved": 0}, {"is_disabled": 0, "fusion_lon": 0.0, "fusion_lat": 0.0, "lat": 38.924589166666664, "type": "electric_bike", "lon": -76.99948066666667, "bike_id": "319b9f2909830e4af34ca3ae549ccdb9", "rental_uris": {"android": "https://dc.lft.to/lastmile_qr_scan", "ios": "https://dc.lft.to/lastmile_qr_scan"}, "name": "319b9f2909830e4af34ca3ae549ccdb9", "is_reserved": 0}, {"is_disabled": 0, "fusion_lon": 0.0, "fusion_lat": 0.0, "lat": 38.9255605, "type": "electric_bike", "lon": -77.00137966666667, "bike_id": "bec6917f0bcb522176dfdb100eb22caa", "rental_uris": {"android": "https://dc.lft.to/lastmile_qr_scan", "ios": "https://dc.lft.to/lastmile_qr_scan"}, "name": "bec6917f0bcb522176dfdb100eb22caa", "is_reserved": 0}, {"is_disabled": 0, "fusion_lon": 0.0, "fusion_lat": 0.0, "lat": 38.90184383333333, "type": "electric_scooter", "lon": -77.05276933333333, "bike_id": "ee87598281ea1c9699fb9f5742150439", "rental_uris": {"android": "https://dc.lft.to/lastmile_qr_scan", "ios": "https://dc.lft.to/lastmile_qr_scan"}, "name": "ee87598281ea1c9699fb9f5742150439", "is_reserved": 0}, {"is_disabled": 0, "fusion_lon": 0.0, "fusion_lat": 0.0, "lat": 38.91423016666667, "type": "electric_scooter", "lon": -77.03181766666667, "bike_id": "ceb35a6487cfe3ea85ca3c9daf3f750e", "rental_uris": {"android": "https://dc.lft.to/lastmile_qr_scan", "ios": "https://dc.lft.to/lastmile_qr_scan"}, "name": "ceb35a6487cfe3ea85ca3c9daf3f750e", "is_reserved": 0}, {"is_disabled": 0, "fusion_lon": 0.0, "fusion_lat": 0.0, "lat": 38.909648833333335, "type": "electric_scooter", "lon": -77.032276, "bike_id": "7a87f82ecca8b4e3d533a4419fcf31e9", "rental_uris": {"android": "https://dc.lft.to/lastmile_qr_scan", "ios": "https://dc.lft.to/lastmile_qr_scan"}, "name": "7a87f82ecca8b4e3d533a4419fcf31e9", "is_reserved": 0}, {"is_disabled": 0, "fusion_lon": 0.0, "fusion_lat": 0.0, "lat": 38.89767233333333, "type": "electric_scooter", "lon": -77.02751733333334, "bike_id": "bc18a1e44f7c4902f82baf3708f269b7", "rental_uris": {"android": "https://dc.lft.to/lastmile_qr_scan", "ios": "https://dc.lft.to/lastmile_qr_scan"}, "name": "bc18a1e44f7c4902f82baf3708f269b7", "is_reserved": 0}, {"is_disabled": 0, "fusion_lon": 0.0, "fusion_lat": 0.0, "lat": 38.8923155, "type": "electric_scooter", "lon": -77.04918516666666, "bike_id": "f39c58d75d7c00876b30ea4b6651fbdb", "rental_uris": {"android": "https://dc.lft.to/lastmile_qr_scan", "ios": "https://dc.lft.to/lastmile_qr_scan"}, "name": "f39c58d75d7c00876b30ea4b6651fbdb", "is_reserved": 0}, {"is_disabled": 0, "fusion_lon": 0.0, "fusion_lat": 0.0, "lat": 38.9085445, "type": "electric_scooter", "lon": -77.060764, "bike_id": "7860a214eb3b0860b3aa93ae7b2f4daf", "rental_uris": {"android": "https://dc.lft.to/lastmile_qr_scan", "ios": "https://dc.lft.to/lastmile_qr_scan"}, "name": "7860a214eb3b0860b3aa93ae7b2f4daf", "is_reserved": 0}, {"is_disabled": 0, "fusion_lon": 0.0, "fusion_lat": 0.0, "lat": 38.903667666666664, "type": "electric_scooter", "lon": -77.04018433333333, "bike_id": "929b255facae2de23c23e39258cc82a3", "rental_uris": {"android": "https://dc.lft.to/lastmile_qr_scan", "ios": "https://dc.lft.to/lastmile_qr_scan"}, "name": "929b255facae2de23c23e39258cc82a3", "is_reserved": 0}, {"is_disabled": 0, "fusion_lon": 0.0, "fusion_lat": 0.0, "lat": 38.897464666666664, "type": "electric_scooter", "lon": -77.05164983333333, "bike_id": "6fe46e7dceabef1d2d1577ff414bdbdd", "rental_uris": {"android": "https://dc.lft.to/lastmile_qr_scan", "ios": "https://dc.lft.to/lastmile_qr_scan"}, "name": "6fe46e7dceabef1d2d1577ff414bdbdd", "is_reserved": 0}, {"is_disabled": 0, "fusion_lon": 0.0, "fusion_lat": 0.0, "lat": 38.91686333333333, "type": "electric_scooter", "lon": -77.02524966666667, "bike_id": "e9bb943e5288174ee6e59f11527c4a83", "rental_uris": {"android": "https://dc.lft.to/lastmile_qr_scan", "ios": "https://dc.lft.to/lastmile_qr_scan"}, "name": "e9bb943e5288174ee6e59f11527c4a83", "is_reserved": 0}, {"is_disabled": 0, "fusion_lon": 0.0, "fusion_lat": 0.0, "lat": 38.91568933333333, "type": "electric_scooter", "lon": -77.04148516666666, "bike_id": "0e638ee7f4e882977ace413b739d5a19", "rental_uris": {"android": "https://dc.lft.to/lastmile_qr_scan", "ios": "https://dc.lft.to/lastmile_qr_scan"}, "name": "0e638ee7f4e882977ace413b739d5a19", "is_reserved": 0}, {"is_disabled": 0, "fusion_lon": 0.0, "fusion_lat": 0.0, "lat": 38.9363515, "type": "electric_scooter", "lon": -77.026994, "bike_id": "b567191e4ffbc8541bbabaa581ce3ff2", "rental_uris": {"android": "https://dc.lft.to/lastmile_qr_scan", "ios": "https://dc.lft.to/lastmile_qr_scan"}, "name": "b567191e4ffbc8541bbabaa581ce3ff2", "is_reserved": 0}, {"is_disabled": 0, "fusion_lon": 0.0, "fusion_lat": 0.0, "lat": 38.91840416666667, "type": "electric_scooter", "lon": -77.07207033333333, "bike_id": "e9bb3f7ee4cd0d100bdca2dadbb7da9e", "rental_uris": {"android": "https://dc.lft.to/lastmile_qr_scan", "ios": "https://dc.lft.to/lastmile_qr_scan"}, "name": "e9bb3f7ee4cd0d100bdca2dadbb7da9e", "is_reserved": 0}, {"is_disabled": 0, "fusion_lon": 0.0, "fusion_lat": 0.0, "lat": 38.9094835, "type": "electric_scooter", "lon": -77.03442733333333, "bike_id": "9642a0bd298dfc4b53609f7c3b2fb156", "rental_uris": {"android": "https://dc.lft.to/lastmile_qr_scan", "ios": "https://dc.lft.to/lastmile_qr_scan"}, "name": "9642a0bd298dfc4b53609f7c3b2fb156", "is_reserved": 0}, {"is_disabled": 0, "fusion_lon": 0.0, "fusion_lat": 0.0, "lat": 38.928448833333334, "type": "electric_scooter", "lon": -77.01411316666666, "bike_id": "3231dabb9d611433100e4eeffe7b7be6", "rental_uris": {"android": "https://dc.lft.to/lastmile_qr_scan", "ios": "https://dc.lft.to/lastmile_qr_scan"}, "name": "3231dabb9d611433100e4eeffe7b7be6", "is_reserved": 0}, {"is_disabled": 0, "fusion_lon": 0.0, "fusion_lat": 0.0, "lat": 38.844367166666665, "type": "electric_scooter", "lon": -76.99778583333334, "bike_id": "dc5886dbfd7be6f981345f2de0361c8b", "rental_uris": {"android": "https://dc.lft.to/lastmile_qr_scan", "ios": "https://dc.lft.to/lastmile_qr_scan"}, "name": "dc5886dbfd7be6f981345f2de0361c8b", "is_reserved": 0}, {"is_disabled": 0, "fusion_lon": 0.0, "fusion_lat": 0.0, "lat": 38.9104805, "type": "electric_scooter", "lon": -77.03855483333334, "bike_id": "c14da295eb5563e82e008632781b48c0", "rental_uris": {"android": "https://dc.lft.to/lastmile_qr_scan", "ios": "https://dc.lft.to/lastmile_qr_scan"}, "name": "c14da295eb5563e82e008632781b48c0", "is_reserved": 0}, {"is_disabled": 0, "fusion_lon": 0.0, "fusion_lat": 0.0, "lat": 38.925312, "type": "electric_scooter", "lon": -77.07658366666666, "bike_id": "1caa6f6eba61eba27db324723f1f750d", "rental_uris": {"android": "https://dc.lft.to/lastmile_qr_scan", "ios": "https://dc.lft.to/lastmile_qr_scan"}, "name": "1caa6f6eba61eba27db324723f1f750d", "is_reserved": 0}, {"is_disabled": 0, "fusion_lon": 0.0, "fusion_lat": 0.0, "lat": 38.9179875, "type": "electric_scooter", "lon": -77.03446483333333, "bike_id": "4234aa107c20571ec55cb66249299e69", "rental_uris": {"android": "https://dc.lft.to/lastmile_qr_scan", "ios": "https://dc.lft.to/lastmile_qr_scan"}, "name": "4234aa107c20571ec55cb66249299e69", "is_reserved": 0}, {"is_disabled": 0, "fusion_lon": 0.0, "fusion_lat": 0.0, "lat": 38.8725635, "type": "electric_scooter", "lon": -76.9685825, "bike_id": "c23f22ff9bf3285cb9fda4fe0972da49", "rental_uris": {"android": "https://dc.lft.to/lastmile_qr_scan", "ios": "https://dc.lft.to/lastmile_qr_scan"}, "name": "c23f22ff9bf3285cb9fda4fe0972da49", "is_reserved": 0}, {"is_disabled": 0, "fusion_lon": 0.0, "fusion_lat": 0.0, "lat": 38.9025705, "type": "electric_scooter", "lon": -77.03440316666666, "bike_id": "d1c5f6da073e2fae08c2b32ba7c7472d", "rental_uris": {"android": "https://dc.lft.to/lastmile_qr_scan", "ios": "https://dc.lft.to/lastmile_qr_scan"}, "name": "d1c5f6da073e2fae08c2b32ba7c7472d", "is_reserved": 0}, {"is_disabled": 0, "fusion_lon": 0.0, "fusion_lat": 0.0, "lat": 38.90657, "type": "electric_scooter", "lon": -77.04179933333333, "bike_id": "b87dc2d86cf836ed32e8c0ca26475caf", "rental_uris": {"android": "https://dc.lft.to/lastmile_qr_scan", "ios": "https://dc.lft.to/lastmile_qr_scan"}, "name": "b87dc2d86cf836ed32e8c0ca26475caf", "is_reserved": 0}, {"is_disabled": 0, "fusion_lon": 0.0, "fusion_lat": 0.0, "lat": 38.91002316666667, "type": "electric_scooter", "lon": -77.03750433333333, "bike_id": "66143274cc6739ec71241c3a97da3d40", "rental_uris": {"android": "https://dc.lft.to/lastmile_qr_scan", "ios": "https://dc.lft.to/lastmile_qr_scan"}, "name": "66143274cc6739ec71241c3a97da3d40", "is_reserved": 0}, {"is_disabled": 0, "fusion_lon": 0.0, "fusion_lat": 0.0, "lat": 38.92160066666667, "type": "electric_scooter", "lon": -77.03401383333333, "bike_id": "7e16d287a48a08edeee6cc06d2f99daa", "rental_uris": {"android": "https://dc.lft.to/lastmile_qr_scan", "ios": "https://dc.lft.to/lastmile_qr_scan"}, "name": "7e16d287a48a08edeee6cc06d2f99daa", "is_reserved": 0}, {"is_disabled": 0, "fusion_lon": 0.0, "fusion_lat": 0.0, "lat": 38.9038375, "type": "electric_scooter", "lon": -77.04357883333333, "bike_id": "36a2834b85cebd33ea997ce2374d6eb6", "rental_uris": {"android": "https://dc.lft.to/lastmile_qr_scan", "ios": "https://dc.lft.to/lastmile_qr_scan"}, "name": "36a2834b85cebd33ea997ce2374d6eb6", "is_reserved": 0}, {"is_disabled": 0, "fusion_lon": 0.0, "fusion_lat": 0.0, "lat": 38.903448833333336, "type": "electric_scooter", "lon": -77.026082, "bike_id": "62f6b7da269e807666f62d774c413564", "rental_uris": {"android": "https://dc.lft.to/lastmile_qr_scan", "ios": "https://dc.lft.to/lastmile_qr_scan"}, "name": "62f6b7da269e807666f62d774c413564", "is_reserved": 0}, {"is_disabled": 0, "fusion_lon": 0.0, "fusion_lat": 0.0, "lat": 38.915098, "type": "electric_scooter", "lon": -77.02178783333333, "bike_id": "74691c418e5331cdfe99d05401159dc5", "rental_uris": {"android": "https://dc.lft.to/lastmile_qr_scan", "ios": "https://dc.lft.to/lastmile_qr_scan"}, "name": "74691c418e5331cdfe99d05401159dc5", "is_reserved": 0}, {"is_disabled": 0, "fusion_lon": 0.0, "fusion_lat": 0.0, "lat": 38.872879, "type": "electric_scooter", "lon": -77.00991133333333, "bike_id": "21d2d57e9fef6be7b0044e1f778f487d", "rental_uris": {"android": "https://dc.lft.to/lastmile_qr_scan", "ios": "https://dc.lft.to/lastmile_qr_scan"}, "name": "21d2d57e9fef6be7b0044e1f778f487d", "is_reserved": 0}, {"is_disabled": 0, "fusion_lon": 0.0, "fusion_lat": 0.0, "lat": 38.884747, "type": "electric_scooter", "lon": -76.92996433333333, "bike_id": "37437d010a795a626143e631495930df", "rental_uris": {"android": "https://dc.lft.to/lastmile_qr_scan", "ios": "https://dc.lft.to/lastmile_qr_scan"}, "name": "37437d010a795a626143e631495930df", "is_reserved": 0}, {"is_disabled": 0, "fusion_lon": 0.0, "fusion_lat": 0.0, "lat": 38.903631833333336, "type": "electric_scooter", "lon": -77.00343733333334, "bike_id": "2767ff00cd331b65c03a116de9cc9776", "rental_uris": {"android": "https://dc.lft.to/lastmile_qr_scan", "ios": "https://dc.lft.to/lastmile_qr_scan"}, "name": "2767ff00cd331b65c03a116de9cc9776", "is_reserved": 0}, {"is_disabled": 0, "fusion_lon": 0.0, "fusion_lat": 0.0, "lat": 38.91354233333333, "type": "electric_scooter", "lon": -77.0318855, "bike_id": "dd0c26f3a26d7a33c8450f0a359502dc", "rental_uris": {"android": "https://dc.lft.to/lastmile_qr_scan", "ios": "https://dc.lft.to/lastmile_qr_scan"}, "name": "dd0c26f3a26d7a33c8450f0a359502dc", "is_reserved": 0}, {"is_disabled": 0, "fusion_lon": 0.0, "fusion_lat": 0.0, "lat": 38.89910116666667, "type": "electric_scooter", "lon": -76.9338925, "bike_id": "c9b149c0883375972f3fae786fb24399", "rental_uris": {"android": "https://dc.lft.to/lastmile_qr_scan", "ios": "https://dc.lft.to/lastmile_qr_scan"}, "name": "c9b149c0883375972f3fae786fb24399", "is_reserved": 0}, {"is_disabled": 0, "fusion_lon": 0.0, "fusion_lat": 0.0, "lat": 38.91702433333333, "type": "electric_scooter", "lon": -77.02174216666667, "bike_id": "03c84349d2fc83ee52cf54b67716fb73", "rental_uris": {"android": "https://dc.lft.to/lastmile_qr_scan", "ios": "https://dc.lft.to/lastmile_qr_scan"}, "name": "03c84349d2fc83ee52cf54b67716fb73", "is_reserved": 0}, {"is_disabled": 0, "fusion_lon": 0.0, "fusion_lat": 0.0, "lat": 38.836071, "type": "electric_bike", "lon": -77.003838, "bike_id": "b0f82a8f1a966ad9c001da5c766019c0", "rental_uris": {"android": "https://dc.lft.to/lastmile_qr_scan", "ios": "https://dc.lft.to/lastmile_qr_scan"}, "name": "b0f82a8f1a966ad9c001da5c766019c0", "is_reserved": 0}, {"is_disabled": 0, "fusion_lon": 0.0, "fusion_lat": 0.0, "lat": 38.9241695, "type": "electric_scooter", "lon": -77.0562945, "bike_id": "1556ed996ecbc3c4ba8aea96515c40e3", "rental_uris": {"android": "https://dc.lft.to/lastmile_qr_scan", "ios": "https://dc.lft.to/lastmile_qr_scan"}, "name": "1556ed996ecbc3c4ba8aea96515c40e3", "is_reserved": 0}, {"is_disabled": 0, "fusion_lon": 0.0, "fusion_lat": 0.0, "lat": 38.9185315, "type": "electric_scooter", "lon": -77.029618, "bike_id": "0319c2a8f6ccec6a4f3c009058630cce", "rental_uris": {"android": "https://dc.lft.to/lastmile_qr_scan", "ios": "https://dc.lft.to/lastmile_qr_scan"}, "name": "0319c2a8f6ccec6a4f3c009058630cce", "is_reserved": 0}, {"is_disabled": 0, "fusion_lon": 0.0, "fusion_lat": 0.0, "lat": 38.91481533333334, "type": "electric_scooter", "lon": -77.0439545, "bike_id": "2ee1e077923cd3aceb404c0f314199a0", "rental_uris": {"android": "https://dc.lft.to/lastmile_qr_scan", "ios": "https://dc.lft.to/lastmile_qr_scan"}, "name": "2ee1e077923cd3aceb404c0f314199a0", "is_reserved": 0}, {"is_disabled": 0, "fusion_lon": 0.0, "fusion_lat": 0.0, "lat": 38.9111115, "type": "electric_scooter", "lon": -77.0325195, "bike_id": "acb4b015c993d8381967473a0bd4679e", "rental_uris": {"android": "https://dc.lft.to/lastmile_qr_scan", "ios": "https://dc.lft.to/lastmile_qr_scan"}, "name": "acb4b015c993d8381967473a0bd4679e", "is_reserved": 0}, {"is_disabled": 0, "fusion_lon": 0.0, "fusion_lat": 0.0, "lat": 38.8972185, "type": "electric_scooter", "lon": -77.02424333333333, "bike_id": "6a6e4d80ae4fbc3309c1796d7ad58be4", "rental_uris": {"android": "https://dc.lft.to/lastmile_qr_scan", "ios": "https://dc.lft.to/lastmile_qr_scan"}, "name": "6a6e4d80ae4fbc3309c1796d7ad58be4", "is_reserved": 0}, {"is_disabled": 0, "fusion_lon": 0.0, "fusion_lat": 0.0, "lat": 38.918198, "type": "electric_scooter", "lon": -77.03176916666666, "bike_id": "fef1bc6216904bf34800a751522b484e", "rental_uris": {"android": "https://dc.lft.to/lastmile_qr_scan", "ios": "https://dc.lft.to/lastmile_qr_scan"}, "name": "fef1bc6216904bf34800a751522b484e", "is_reserved": 0}, {"is_disabled": 0, "fusion_lon": 0.0, "fusion_lat": 0.0, "lat": 38.907322, "type": "electric_scooter", "lon": -77.04199683333333, "bike_id": "86ec138631c17859633076de1fb4075f", "rental_uris": {"android": "https://dc.lft.to/lastmile_qr_scan", "ios": "https://dc.lft.to/lastmile_qr_scan"}, "name": "86ec138631c17859633076de1fb4075f", "is_reserved": 0}, {"is_disabled": 0, "fusion_lon": 0.0, "fusion_lat": 0.0, "lat": 38.969279666666665, "type": "electric_bike", "lon": -77.0263115, "bike_id": "c6fa27e8affc7dee313a9a06563b7a6c", "rental_uris": {"android": "https://dc.lft.to/lastmile_qr_scan", "ios": "https://dc.lft.to/lastmile_qr_scan"}, "name": "c6fa27e8affc7dee313a9a06563b7a6c", "is_reserved": 0}, {"is_disabled": 0, "fusion_lon": 0.0, "fusion_lat": 0.0, "lat": 38.92018866666667, "type": "electric_scooter", "lon": -77.03162366666666, "bike_id": "1f47a5cb288337aac4b493899acb8144", "rental_uris": {"android": "https://dc.lft.to/lastmile_qr_scan", "ios": "https://dc.lft.to/lastmile_qr_scan"}, "name": "1f47a5cb288337aac4b493899acb8144", "is_reserved": 0}, {"is_disabled": 0, "fusion_lon": 0.0, "fusion_lat": 0.0, "lat": 38.90539733333333, "type": "electric_scooter", "lon": -77.0219515, "bike_id": "47e693734cc9dc5d9c75b20fd64ed02b", "rental_uris": {"android": "https://dc.lft.to/lastmile_qr_scan", "ios": "https://dc.lft.to/lastmile_qr_scan"}, "name": "47e693734cc9dc5d9c75b20fd64ed02b", "is_reserved": 0}, {"is_disabled": 0, "fusion_lon": 0.0, "fusion_lat": 0.0, "lat": 38.902769166666666, "type": "electric_scooter", "lon": -77.03451533333333, "bike_id": "4913bff23bdd93146b8a27efad597029", "rental_uris": {"android": "https://dc.lft.to/lastmile_qr_scan", "ios": "https://dc.lft.to/lastmile_qr_scan"}, "name": "4913bff23bdd93146b8a27efad597029", "is_reserved": 0}, {"is_disabled": 0, "fusion_lon": 0.0, "fusion_lat": 0.0, "lat": 38.912873166666664, "type": "electric_scooter", "lon": -76.9868795, "bike_id": "3cdeddf57c8a20ab1d84c528b5204477", "rental_uris": {"android": "https://dc.lft.to/lastmile_qr_scan", "ios": "https://dc.lft.to/lastmile_qr_scan"}, "name": "3cdeddf57c8a20ab1d84c528b5204477", "is_reserved": 0}, {"is_disabled": 0, "fusion_lon": 0.0, "fusion_lat": 0.0, "lat": 38.90650483333334, "type": "electric_scooter", "lon": -77.00619966666666, "bike_id": "3ca9ed43880e9f762b554abb6b6c0b29", "rental_uris": {"android": "https://dc.lft.to/lastmile_qr_scan", "ios": "https://dc.lft.to/lastmile_qr_scan"}, "name": "3ca9ed43880e9f762b554abb6b6c0b29", "is_reserved": 0}, {"is_disabled": 0, "fusion_lon": 0.0, "fusion_lat": 0.0, "lat": 38.915578, "type": "electric_scooter", "lon": -77.00955816666666, "bike_id": "3aa97658bb749ab1ef1c0ca133e623f2", "rental_uris": {"android": "https://dc.lft.to/lastmile_qr_scan", "ios": "https://dc.lft.to/lastmile_qr_scan"}, "name": "3aa97658bb749ab1ef1c0ca133e623f2", "is_reserved": 0}, {"is_disabled": 0, "fusion_lon": 0.0, "fusion_lat": 0.0, "lat": 38.870572333333335, "type": "electric_scooter", "lon": -76.98084433333334, "bike_id": "6c83291323da423a93d0776ac43dee8e", "rental_uris": {"android": "https://dc.lft.to/lastmile_qr_scan", "ios": "https://dc.lft.to/lastmile_qr_scan"}, "name": "6c83291323da423a93d0776ac43dee8e", "is_reserved": 0}, {"is_disabled": 0, "fusion_lon": 0.0, "fusion_lat": 0.0, "lat": 38.913131, "type": "electric_scooter", "lon": -77.0143535, "bike_id": "1cca31dc7cc0698752451313a79dd263", "rental_uris": {"android": "https://dc.lft.to/lastmile_qr_scan", "ios": "https://dc.lft.to/lastmile_qr_scan"}, "name": "1cca31dc7cc0698752451313a79dd263", "is_reserved": 0}, {"is_disabled": 0, "fusion_lon": 0.0, "fusion_lat": 0.0, "lat": 38.88610116666667, "type": "electric_scooter", "lon": -77.00580666666667, "bike_id": "872d7ed3fe4e98404aa843781f8f5e74", "rental_uris": {"android": "https://dc.lft.to/lastmile_qr_scan", "ios": "https://dc.lft.to/lastmile_qr_scan"}, "name": "872d7ed3fe4e98404aa843781f8f5e74", "is_reserved": 0}, {"is_disabled": 0, "fusion_lon": 0.0, "fusion_lat": 0.0, "lat": 38.9563635, "type": "electric_scooter", "lon": -77.09100566666666, "bike_id": "2db33f07e2105373f8fa000af49ea63a", "rental_uris": {"android": "https://dc.lft.to/lastmile_qr_scan", "ios": "https://dc.lft.to/lastmile_qr_scan"}, "name": "2db33f07e2105373f8fa000af49ea63a", "is_reserved": 0}, {"is_disabled": 0, "fusion_lon": 0.0, "fusion_lat": 0.0, "lat": 38.913184, "type": "electric_scooter", "lon": -77.03198516666667, "bike_id": "8cc932e936d4ac3561479440a12454f7", "rental_uris": {"android": "https://dc.lft.to/lastmile_qr_scan", "ios": "https://dc.lft.to/lastmile_qr_scan"}, "name": "8cc932e936d4ac3561479440a12454f7", "is_reserved": 0}, {"is_disabled": 0, "fusion_lon": 0.0, "fusion_lat": 0.0, "lat": 38.9191225, "type": "electric_scooter", "lon": -77.0239915, "bike_id": "aa0af2e6eb002aae50d877e1ae7bb55e", "rental_uris": {"android": "https://dc.lft.to/lastmile_qr_scan", "ios": "https://dc.lft.to/lastmile_qr_scan"}, "name": "aa0af2e6eb002aae50d877e1ae7bb55e", "is_reserved": 0}, {"is_disabled": 0, "fusion_lon": 0.0, "fusion_lat": 0.0, "lat": 38.8868575, "type": "electric_scooter", "lon": -76.987969, "bike_id": "4da030d82cbd212bcfc041a50f997461", "rental_uris": {"android": "https://dc.lft.to/lastmile_qr_scan", "ios": "https://dc.lft.to/lastmile_qr_scan"}, "name": "4da030d82cbd212bcfc041a50f997461", "is_reserved": 0}, {"is_disabled": 0, "fusion_lon": 0.0, "fusion_lat": 0.0, "lat": 38.89837216666667, "type": "electric_scooter", "lon": -76.94633683333333, "bike_id": "010cd6323b023c8b436550a0f7081e55", "rental_uris": {"android": "https://dc.lft.to/lastmile_qr_scan", "ios": "https://dc.lft.to/lastmile_qr_scan"}, "name": "010cd6323b023c8b436550a0f7081e55", "is_reserved": 0}, {"is_disabled": 0, "fusion_lon": 0.0, "fusion_lat": 0.0, "lat": 38.9024055, "type": "electric_scooter", "lon": -77.01939183333333, "bike_id": "4e6ad5a390400086909b4e4c3bd66bbb", "rental_uris": {"android": "https://dc.lft.to/lastmile_qr_scan", "ios": "https://dc.lft.to/lastmile_qr_scan"}, "name": "4e6ad5a390400086909b4e4c3bd66bbb", "is_reserved": 0}, {"is_disabled": 0, "fusion_lon": 0.0, "fusion_lat": 0.0, "lat": 38.92244916666667, "type": "electric_scooter", "lon": -77.0732225, "bike_id": "20a4dc49ea545537ccfc55011742070e", "rental_uris": {"android": "https://dc.lft.to/lastmile_qr_scan", "ios": "https://dc.lft.to/lastmile_qr_scan"}, "name": "20a4dc49ea545537ccfc55011742070e", "is_reserved": 0}, {"is_disabled": 0, "fusion_lon": 0.0, "fusion_lat": 0.0, "lat": 38.9070515, "type": "electric_scooter", "lon": -77.01046583333333, "bike_id": "791d134fcf6a2f8e6c067553b4a7362f", "rental_uris": {"android": "https://dc.lft.to/lastmile_qr_scan", "ios": "https://dc.lft.to/lastmile_qr_scan"}, "name": "791d134fcf6a2f8e6c067553b4a7362f", "is_reserved": 0}, {"is_disabled": 0, "fusion_lon": 0.0, "fusion_lat": 0.0, "lat": 38.9182815, "type": "electric_scooter", "lon": -77.0242455, "bike_id": "3d23aa6a58c78f1a078dd52e6553f9c2", "rental_uris": {"android": "https://dc.lft.to/lastmile_qr_scan", "ios": "https://dc.lft.to/lastmile_qr_scan"}, "name": "3d23aa6a58c78f1a078dd52e6553f9c2", "is_reserved": 0}, {"is_disabled": 0, "fusion_lon": 0.0, "fusion_lat": 0.0, "lat": 38.89754966666667, "type": "electric_scooter", "lon": -77.02161816666667, "bike_id": "19e426de132ddfb5bd6398f27596b608", "rental_uris": {"android": "https://dc.lft.to/lastmile_qr_scan", "ios": "https://dc.lft.to/lastmile_qr_scan"}, "name": "19e426de132ddfb5bd6398f27596b608", "is_reserved": 0}, {"is_disabled": 0, "fusion_lon": 0.0, "fusion_lat": 0.0, "lat": 38.916954833333335, "type": "electric_scooter", "lon": -77.027421, "bike_id": "3bf066c0bbe836b9490bd2ad2d6ce1d9", "rental_uris": {"android": "https://dc.lft.to/lastmile_qr_scan", "ios": "https://dc.lft.to/lastmile_qr_scan"}, "name": "3bf066c0bbe836b9490bd2ad2d6ce1d9", "is_reserved": 0}, {"is_disabled": 0, "fusion_lon": 0.0, "fusion_lat": 0.0, "lat": 38.8493335, "type": "electric_bike", "lon": -77.100089, "bike_id": "cb996841131a4c792928f88e493f2065", "rental_uris": {"android": "https://dc.lft.to/lastmile_qr_scan", "ios": "https://dc.lft.to/lastmile_qr_scan"}, "name": "cb996841131a4c792928f88e493f2065", "is_reserved": 0}, {"is_disabled": 0, "fusion_lon": 0.0, "fusion_lat": 0.0, "lat": 38.85651216666667, "type": "electric_bike", "lon": -77.0852785, "bike_id": "99d0ddd73ce3fad5b30106492fc6c6fd", "rental_uris": {"android": "https://dc.lft.to/lastmile_qr_scan", "ios": "https://dc.lft.to/lastmile_qr_scan"}, "name": "99d0ddd73ce3fad5b30106492fc6c6fd", "is_reserved": 0}, {"is_disabled": 0, "fusion_lon": 0.0, "fusion_lat": 0.0, "lat": 38.916964666666665, "type": "electric_scooter", "lon": -77.01166783333333, "bike_id": "1f9e8e774a490e2ad6d441bb7347ef55", "rental_uris": {"android": "https://dc.lft.to/lastmile_qr_scan", "ios": "https://dc.lft.to/lastmile_qr_scan"}, "name": "1f9e8e774a490e2ad6d441bb7347ef55", "is_reserved": 0}, {"is_disabled": 0, "fusion_lon": 0.0, "fusion_lat": 0.0, "lat": 38.916342666666665, "type": "electric_scooter", "lon": -77.03637516666667, "bike_id": "999f19dc64e4391a65500d2df06c7818", "rental_uris": {"android": "https://dc.lft.to/lastmile_qr_scan", "ios": "https://dc.lft.to/lastmile_qr_scan"}, "name": "999f19dc64e4391a65500d2df06c7818", "is_reserved": 0}, {"is_disabled": 0, "fusion_lon": 0.0, "fusion_lat": 0.0, "lat": 38.94925, "type": "electric_scooter", "lon": -77.02298566666667, "bike_id": "031520a74d177f037a80d1547fb399da", "rental_uris": {"android": "https://dc.lft.to/lastmile_qr_scan", "ios": "https://dc.lft.to/lastmile_qr_scan"}, "name": "031520a74d177f037a80d1547fb399da", "is_reserved": 0}, {"is_disabled": 0, "fusion_lon": 0.0, "fusion_lat": 0.0, "lat": 38.903593666666666, "type": "electric_scooter", "lon": -77.0262735, "bike_id": "342bd812a45fe0910bcc3c389d30eb38", "rental_uris": {"android": "https://dc.lft.to/lastmile_qr_scan", "ios": "https://dc.lft.to/lastmile_qr_scan"}, "name": "342bd812a45fe0910bcc3c389d30eb38", "is_reserved": 0}, {"is_disabled": 0, "fusion_lon": 0.0, "fusion_lat": 0.0, "lat": 38.902862, "type": "electric_scooter", "lon": -77.04037516666666, "bike_id": "6c731caab8e8e9a0e84ada3257a8c459", "rental_uris": {"android": "https://dc.lft.to/lastmile_qr_scan", "ios": "https://dc.lft.to/lastmile_qr_scan"}, "name": "6c731caab8e8e9a0e84ada3257a8c459", "is_reserved": 0}, {"is_disabled": 0, "fusion_lon": 0.0, "fusion_lat": 0.0, "lat": 38.90020916666667, "type": "electric_scooter", "lon": -77.03951683333334, "bike_id": "edcce82dd4511386a574efb604727c4c", "rental_uris": {"android": "https://dc.lft.to/lastmile_qr_scan", "ios": "https://dc.lft.to/lastmile_qr_scan"}, "name": "edcce82dd4511386a574efb604727c4c", "is_reserved": 0}, {"is_disabled": 0, "fusion_lon": 0.0, "fusion_lat": 0.0, "lat": 38.905771666666666, "type": "electric_scooter", "lon": -77.04677416666667, "bike_id": "281bd7d1c32913a20ef0947e76b1cca3", "rental_uris": {"android": "https://dc.lft.to/lastmile_qr_scan", "ios": "https://dc.lft.to/lastmile_qr_scan"}, "name": "281bd7d1c32913a20ef0947e76b1cca3", "is_reserved": 0}, {"is_disabled": 0, "fusion_lon": 0.0, "fusion_lat": 0.0, "lat": 38.880472166666664, "type": "electric_scooter", "lon": -77.0037385, "bike_id": "c82e3bc1057c78d78682e414cdaad323", "rental_uris": {"android": "https://dc.lft.to/lastmile_qr_scan", "ios": "https://dc.lft.to/lastmile_qr_scan"}, "name": "c82e3bc1057c78d78682e414cdaad323", "is_reserved": 0}, {"is_disabled": 0, "fusion_lon": 0.0, "fusion_lat": 0.0, "lat": 38.90562633333333, "type": "electric_scooter", "lon": -77.03381366666666, "bike_id": "f9658cc4609cedff4f8c6d7679ad1d82", "rental_uris": {"android": "https://dc.lft.to/lastmile_qr_scan", "ios": "https://dc.lft.to/lastmile_qr_scan"}, "name": "f9658cc4609cedff4f8c6d7679ad1d82", "is_reserved": 0}, {"is_disabled": 0, "fusion_lon": 0.0, "fusion_lat": 0.0, "lat": 38.85838283333333, "type": "electric_bike", "lon": -76.99281383333333, "bike_id": "3642fc51d8d083de7727b39fdfae9d0d", "rental_uris": {"android": "https://dc.lft.to/lastmile_qr_scan", "ios": "https://dc.lft.to/lastmile_qr_scan"}, "name": "3642fc51d8d083de7727b39fdfae9d0d", "is_reserved": 0}, {"is_disabled": 0, "fusion_lon": 0.0, "fusion_lat": 0.0, "lat": 38.9115395, "type": "electric_scooter", "lon": -77.08791, "bike_id": "f60dc5c1ea74658f3f5dc83b4ad0ea7d", "rental_uris": {"android": "https://dc.lft.to/lastmile_qr_scan", "ios": "https://dc.lft.to/lastmile_qr_scan"}, "name": "f60dc5c1ea74658f3f5dc83b4ad0ea7d", "is_reserved": 0}, {"is_disabled": 0, "fusion_lon": 0.0, "fusion_lat": 0.0, "lat": 38.916261166666665, "type": "electric_scooter", "lon": -77.02393166666667, "bike_id": "eefdcde66cf5e22bdc26ea527661d004", "rental_uris": {"android": "https://dc.lft.to/lastmile_qr_scan", "ios": "https://dc.lft.to/lastmile_qr_scan"}, "name": "eefdcde66cf5e22bdc26ea527661d004", "is_reserved": 0}, {"is_disabled": 0, "fusion_lon": 0.0, "fusion_lat": 0.0, "lat": 38.897371666666665, "type": "electric_scooter", "lon": -77.04804583333333, "bike_id": "fcb6df5b6ebba454915bf68986e20b60", "rental_uris": {"android": "https://dc.lft.to/lastmile_qr_scan", "ios": "https://dc.lft.to/lastmile_qr_scan"}, "name": "fcb6df5b6ebba454915bf68986e20b60", "is_reserved": 0}, {"is_disabled": 0, "fusion_lon": 0.0, "fusion_lat": 0.0, "lat": 38.873098666666664, "type": "electric_bike", "lon": -76.97104383333334, "bike_id": "e95fd9f520e8423cff38e53c73c2dfbf", "rental_uris": {"android": "https://dc.lft.to/lastmile_qr_scan", "ios": "https://dc.lft.to/lastmile_qr_scan"}, "name": "e95fd9f520e8423cff38e53c73c2dfbf", "is_reserved": 0}, {"is_disabled": 0, "fusion_lon": 0.0, "fusion_lat": 0.0, "lat": 38.966497833333335, "type": "electric_bike", "lon": -76.93030033333334, "bike_id": "f1f44ce6aeb11237c7667f7714e4523d", "rental_uris": {"android": "https://dc.lft.to/lastmile_qr_scan", "ios": "https://dc.lft.to/lastmile_qr_scan"}, "name": "f1f44ce6aeb11237c7667f7714e4523d", "is_reserved": 0}, {"is_disabled": 0, "fusion_lon": 0.0, "fusion_lat": 0.0, "lat": 38.91117233333333, "type": "electric_scooter", "lon": -76.99772183333333, "bike_id": "d85adc30a189ed547437ff4a4f459f4f", "rental_uris": {"android": "https://dc.lft.to/lastmile_qr_scan", "ios": "https://dc.lft.to/lastmile_qr_scan"}, "name": "d85adc30a189ed547437ff4a4f459f4f", "is_reserved": 0}, {"is_disabled": 0, "fusion_lon": 0.0, "fusion_lat": 0.0, "lat": 38.903723666666664, "type": "electric_scooter", "lon": -77.04339433333334, "bike_id": "7c2552b166edbbf81d1bc378987cc965", "rental_uris": {"android": "https://dc.lft.to/lastmile_qr_scan", "ios": "https://dc.lft.to/lastmile_qr_scan"}, "name": "7c2552b166edbbf81d1bc378987cc965", "is_reserved": 0}, {"is_disabled": 0, "fusion_lon": 0.0, "fusion_lat": 0.0, "lat": 38.9157835, "type": "electric_scooter", "lon": -77.03464833333334, "bike_id": "6ba54450d2bd943812bdce3631ad9be0", "rental_uris": {"android": "https://dc.lft.to/lastmile_qr_scan", "ios": "https://dc.lft.to/lastmile_qr_scan"}, "name": "6ba54450d2bd943812bdce3631ad9be0", "is_reserved": 0}, {"is_disabled": 0, "fusion_lon": 0.0, "fusion_lat": 0.0, "lat": 38.91107566666667, "type": "electric_scooter", "lon": -77.00832516666667, "bike_id": "7e9ebface5dbba24582a49eb51c1e47e", "rental_uris": {"android": "https://dc.lft.to/lastmile_qr_scan", "ios": "https://dc.lft.to/lastmile_qr_scan"}, "name": "7e9ebface5dbba24582a49eb51c1e47e", "is_reserved": 0}, {"is_disabled": 0, "fusion_lon": 0.0, "fusion_lat": 0.0, "lat": 38.88471233333333, "type": "electric_scooter", "lon": -77.02167266666666, "bike_id": "1ad3f68cddb7ff0f73dac1623405d5f4", "rental_uris": {"android": "https://dc.lft.to/lastmile_qr_scan", "ios": "https://dc.lft.to/lastmile_qr_scan"}, "name": "1ad3f68cddb7ff0f73dac1623405d5f4", "is_reserved": 0}, {"is_disabled": 0, "fusion_lon": 0.0, "fusion_lat": 0.0, "lat": 38.91274333333333, "type": "electric_scooter", "lon": -77.03139733333333, "bike_id": "c4d73b2eea56ea3e7b19e93c40161c5b", "rental_uris": {"android": "https://dc.lft.to/lastmile_qr_scan", "ios": "https://dc.lft.to/lastmile_qr_scan"}, "name": "c4d73b2eea56ea3e7b19e93c40161c5b", "is_reserved": 0}, {"is_disabled": 0, "fusion_lon": 0.0, "fusion_lat": 0.0, "lat": 38.877616333333336, "type": "electric_scooter", "lon": -77.00583733333333, "bike_id": "33eb93e71881a97dc9a5658bad195414", "rental_uris": {"android": "https://dc.lft.to/lastmile_qr_scan", "ios": "https://dc.lft.to/lastmile_qr_scan"}, "name": "33eb93e71881a97dc9a5658bad195414", "is_reserved": 0}, {"is_disabled": 0, "fusion_lon": 0.0, "fusion_lat": 0.0, "lat": 38.90363083333333, "type": "electric_scooter", "lon": -77.03707383333334, "bike_id": "5bae092a6c309b0c3905b61c1631a7a1", "rental_uris": {"android": "https://dc.lft.to/lastmile_qr_scan", "ios": "https://dc.lft.to/lastmile_qr_scan"}, "name": "5bae092a6c309b0c3905b61c1631a7a1", "is_reserved": 0}, {"is_disabled": 0, "fusion_lon": 0.0, "fusion_lat": 0.0, "lat": 38.91732283333333, "type": "electric_scooter", "lon": -77.04605366666667, "bike_id": "00698d97af54eb48316ec0a9adf670e4", "rental_uris": {"android": "https://dc.lft.to/lastmile_qr_scan", "ios": "https://dc.lft.to/lastmile_qr_scan"}, "name": "00698d97af54eb48316ec0a9adf670e4", "is_reserved": 0}, {"is_disabled": 0, "fusion_lon": 0.0, "fusion_lat": 0.0, "lat": 38.91921933333333, "type": "electric_scooter", "lon": -77.0247455, "bike_id": "c3e20880be9ccf2612e3a39074dbc7df", "rental_uris": {"android": "https://dc.lft.to/lastmile_qr_scan", "ios": "https://dc.lft.to/lastmile_qr_scan"}, "name": "c3e20880be9ccf2612e3a39074dbc7df", "is_reserved": 0}, {"is_disabled": 0, "fusion_lon": 0.0, "fusion_lat": 0.0, "lat": 38.916305, "type": "electric_bike", "lon": -77.01362483333334, "bike_id": "25395e3bc951c392da10a460045b65e8", "rental_uris": {"android": "https://dc.lft.to/lastmile_qr_scan", "ios": "https://dc.lft.to/lastmile_qr_scan"}, "name": "25395e3bc951c392da10a460045b65e8", "is_reserved": 0}, {"is_disabled": 0, "fusion_lon": 0.0, "fusion_lat": 0.0, "lat": 38.953761166666666, "type": "electric_scooter", "lon": -77.0255935, "bike_id": "3e433ccfbff46be0eada5988cb805252", "rental_uris": {"android": "https://dc.lft.to/lastmile_qr_scan", "ios": "https://dc.lft.to/lastmile_qr_scan"}, "name": "3e433ccfbff46be0eada5988cb805252", "is_reserved": 0}, {"is_disabled": 0, "fusion_lon": 0.0, "fusion_lat": 0.0, "lat": 38.93016733333333, "type": "electric_scooter", "lon": -77.0786335, "bike_id": "d4cd8953e6709207c100bf0ac1d6729b", "rental_uris": {"android": "https://dc.lft.to/lastmile_qr_scan", "ios": "https://dc.lft.to/lastmile_qr_scan"}, "name": "d4cd8953e6709207c100bf0ac1d6729b", "is_reserved": 0}, {"is_disabled": 0, "fusion_lon": 0.0, "fusion_lat": 0.0, "lat": 38.9241945, "type": "electric_scooter", "lon": -77.04157383333333, "bike_id": "8ea01b044ea4069b3112b68b4ee38c11", "rental_uris": {"android": "https://dc.lft.to/lastmile_qr_scan", "ios": "https://dc.lft.to/lastmile_qr_scan"}, "name": "8ea01b044ea4069b3112b68b4ee38c11", "is_reserved": 0}, {"is_disabled": 0, "fusion_lon": 0.0, "fusion_lat": 0.0, "lat": 38.965021166666666, "type": "electric_scooter", "lon": -77.024797, "bike_id": "b29972827f504b1c6a47f9fa4be8cde1", "rental_uris": {"android": "https://dc.lft.to/lastmile_qr_scan", "ios": "https://dc.lft.to/lastmile_qr_scan"}, "name": "b29972827f504b1c6a47f9fa4be8cde1", "is_reserved": 0}, {"is_disabled": 0, "fusion_lon": 0.0, "fusion_lat": 0.0, "lat": 38.917110666666666, "type": "electric_scooter", "lon": -77.03203466666666, "bike_id": "a89c464ff211df963d751f172183124c", "rental_uris": {"android": "https://dc.lft.to/lastmile_qr_scan", "ios": "https://dc.lft.to/lastmile_qr_scan"}, "name": "a89c464ff211df963d751f172183124c", "is_reserved": 0}, {"is_disabled": 0, "fusion_lon": 0.0, "fusion_lat": 0.0, "lat": 38.93371033333333, "type": "electric_scooter", "lon": -77.05742533333333, "bike_id": "6ac5dfc604b193019dc403e29b80da2c", "rental_uris": {"android": "https://dc.lft.to/lastmile_qr_scan", "ios": "https://dc.lft.to/lastmile_qr_scan"}, "name": "6ac5dfc604b193019dc403e29b80da2c", "is_reserved": 0}, {"is_disabled": 0, "fusion_lon": 0.0, "fusion_lat": 0.0, "lat": 38.87983933333334, "type": "electric_bike", "lon": -76.9159725, "bike_id": "816672d94ad25ba0d42353902a906fbb", "rental_uris": {"android": "https://dc.lft.to/lastmile_qr_scan", "ios": "https://dc.lft.to/lastmile_qr_scan"}, "name": "816672d94ad25ba0d42353902a906fbb", "is_reserved": 0}, {"is_disabled": 0, "fusion_lon": 0.0, "fusion_lat": 0.0, "lat": 38.9027635, "type": "electric_scooter", "lon": -77.0344625, "bike_id": "369ee5b19b6b8a0eb7aeb6a1b7e82fa5", "rental_uris": {"android": "https://dc.lft.to/lastmile_qr_scan", "ios": "https://dc.lft.to/lastmile_qr_scan"}, "name": "369ee5b19b6b8a0eb7aeb6a1b7e82fa5", "is_reserved": 0}, {"is_disabled": 0, "fusion_lon": 0.0, "fusion_lat": 0.0, "lat": 38.919051333333336, "type": "electric_scooter", "lon": -77.02385416666667, "bike_id": "62a0af6cf7a47fa6029cf486da19f822", "rental_uris": {"android": "https://dc.lft.to/lastmile_qr_scan", "ios": "https://dc.lft.to/lastmile_qr_scan"}, "name": "62a0af6cf7a47fa6029cf486da19f822", "is_reserved": 0}, {"is_disabled": 0, "fusion_lon": 0.0, "fusion_lat": 0.0, "lat": 38.90332166666666, "type": "electric_scooter", "lon": -76.98011966666667, "bike_id": "30993803262029ed7549e5d91cc93fb6", "rental_uris": {"android": "https://dc.lft.to/lastmile_qr_scan", "ios": "https://dc.lft.to/lastmile_qr_scan"}, "name": "30993803262029ed7549e5d91cc93fb6", "is_reserved": 0}, {"is_disabled": 0, "fusion_lon": 0.0, "fusion_lat": 0.0, "lat": 38.92764716666667, "type": "electric_scooter", "lon": -77.0277675, "bike_id": "ec537e6d42e6d8777d7311252ea2d4d5", "rental_uris": {"android": "https://dc.lft.to/lastmile_qr_scan", "ios": "https://dc.lft.to/lastmile_qr_scan"}, "name": "ec537e6d42e6d8777d7311252ea2d4d5", "is_reserved": 0}, {"is_disabled": 0, "fusion_lon": 0.0, "fusion_lat": 0.0, "lat": 38.86524433333334, "type": "electric_scooter", "lon": -76.9897065, "bike_id": "ea95b14b2294e6c23868647b5b4cd325", "rental_uris": {"android": "https://dc.lft.to/lastmile_qr_scan", "ios": "https://dc.lft.to/lastmile_qr_scan"}, "name": "ea95b14b2294e6c23868647b5b4cd325", "is_reserved": 0}, {"is_disabled": 0, "fusion_lon": 0.0, "fusion_lat": 0.0, "lat": 38.8461865, "type": "electric_scooter", "lon": -76.996272, "bike_id": "a0c2ae6d12bee95cabe2392ed2337daa", "rental_uris": {"android": "https://dc.lft.to/lastmile_qr_scan", "ios": "https://dc.lft.to/lastmile_qr_scan"}, "name": "a0c2ae6d12bee95cabe2392ed2337daa", "is_reserved": 0}, {"is_disabled": 0, "fusion_lon": 0.0, "fusion_lat": 0.0, "lat": 38.89880316666667, "type": "electric_scooter", "lon": -77.03946, "bike_id": "d92ecbb7f71025b54eb2f051c9844935", "rental_uris": {"android": "https://dc.lft.to/lastmile_qr_scan", "ios": "https://dc.lft.to/lastmile_qr_scan"}, "name": "d92ecbb7f71025b54eb2f051c9844935", "is_reserved": 0}, {"is_disabled": 0, "fusion_lon": 0.0, "fusion_lat": 0.0, "lat": 38.96017666666667, "type": "electric_scooter", "lon": -77.0331545, "bike_id": "12b7ef0de247c90b7cd5c2b96e0a6d00", "rental_uris": {"android": "https://dc.lft.to/lastmile_qr_scan", "ios": "https://dc.lft.to/lastmile_qr_scan"}, "name": "12b7ef0de247c90b7cd5c2b96e0a6d00", "is_reserved": 0}, {"is_disabled": 0, "fusion_lon": 0.0, "fusion_lat": 0.0, "lat": 38.9181635, "type": "electric_scooter", "lon": -77.03117233333333, "bike_id": "5739755712c6fbcc1afa8bb1af84828e", "rental_uris": {"android": "https://dc.lft.to/lastmile_qr_scan", "ios": "https://dc.lft.to/lastmile_qr_scan"}, "name": "5739755712c6fbcc1afa8bb1af84828e", "is_reserved": 0}, {"is_disabled": 0, "fusion_lon": 0.0, "fusion_lat": 0.0, "lat": 38.907031333333336, "type": "electric_scooter", "lon": -77.02699133333333, "bike_id": "210fec8d670965891a77a97ff340bbc7", "rental_uris": {"android": "https://dc.lft.to/lastmile_qr_scan", "ios": "https://dc.lft.to/lastmile_qr_scan"}, "name": "210fec8d670965891a77a97ff340bbc7", "is_reserved": 0}, {"is_disabled": 0, "fusion_lon": 0.0, "fusion_lat": 0.0, "lat": 38.91614716666667, "type": "electric_scooter", "lon": -77.03148716666666, "bike_id": "06c1d14d721bae9b579d2e2ee0fce652", "rental_uris": {"android": "https://dc.lft.to/lastmile_qr_scan", "ios": "https://dc.lft.to/lastmile_qr_scan"}, "name": "06c1d14d721bae9b579d2e2ee0fce652", "is_reserved": 0}, {"is_disabled": 0, "fusion_lon": 0.0, "fusion_lat": 0.0, "lat": 38.8961125, "type": "electric_scooter", "lon": -77.0092965, "bike_id": "74527b1d679ee5e025dd45eafc3343b5", "rental_uris": {"android": "https://dc.lft.to/lastmile_qr_scan", "ios": "https://dc.lft.to/lastmile_qr_scan"}, "name": "74527b1d679ee5e025dd45eafc3343b5", "is_reserved": 0}, {"is_disabled": 0, "fusion_lon": 0.0, "fusion_lat": 0.0, "lat": 38.90429683333333, "type": "electric_scooter", "lon": -77.02897866666666, "bike_id": "959c17907977cf423dfdb890da9b0964", "rental_uris": {"android": "https://dc.lft.to/lastmile_qr_scan", "ios": "https://dc.lft.to/lastmile_qr_scan"}, "name": "959c17907977cf423dfdb890da9b0964", "is_reserved": 0}, {"is_disabled": 0, "fusion_lon": 0.0, "fusion_lat": 0.0, "lat": 38.914688166666664, "type": "electric_scooter", "lon": -77.03197466666667, "bike_id": "3d8b2d99fd9e869f3f1c9f1532fbd96a", "rental_uris": {"android": "https://dc.lft.to/lastmile_qr_scan", "ios": "https://dc.lft.to/lastmile_qr_scan"}, "name": "3d8b2d99fd9e869f3f1c9f1532fbd96a", "is_reserved": 0}, {"is_disabled": 0, "fusion_lon": 0.0, "fusion_lat": 0.0, "lat": 38.901607166666665, "type": "electric_scooter", "lon": -77.02327933333333, "bike_id": "c58b7344b240fd1253cadbe9413e707d", "rental_uris": {"android": "https://dc.lft.to/lastmile_qr_scan", "ios": "https://dc.lft.to/lastmile_qr_scan"}, "name": "c58b7344b240fd1253cadbe9413e707d", "is_reserved": 0}, {"is_disabled": 0, "fusion_lon": 0.0, "fusion_lat": 0.0, "lat": 38.865239833333334, "type": "electric_scooter", "lon": -76.98970016666667, "bike_id": "14cc1aacbd9d0527386d27542f9034f9", "rental_uris": {"android": "https://dc.lft.to/lastmile_qr_scan", "ios": "https://dc.lft.to/lastmile_qr_scan"}, "name": "14cc1aacbd9d0527386d27542f9034f9", "is_reserved": 0}, {"is_disabled": 0, "fusion_lon": 0.0, "fusion_lat": 0.0, "lat": 38.91127616666667, "type": "electric_scooter", "lon": -77.04165, "bike_id": "d298a67499c2691a6eb6d9d0506ca179", "rental_uris": {"android": "https://dc.lft.to/lastmile_qr_scan", "ios": "https://dc.lft.to/lastmile_qr_scan"}, "name": "d298a67499c2691a6eb6d9d0506ca179", "is_reserved": 0}, {"is_disabled": 0, "fusion_lon": 0.0, "fusion_lat": 0.0, "lat": 38.8580585, "type": "electric_scooter", "lon": -76.986554, "bike_id": "e09bb0af04a2484e4920395ccf1ada2c", "rental_uris": {"android": "https://dc.lft.to/lastmile_qr_scan", "ios": "https://dc.lft.to/lastmile_qr_scan"}, "name": "e09bb0af04a2484e4920395ccf1ada2c", "is_reserved": 0}, {"is_disabled": 0, "fusion_lon": 0.0, "fusion_lat": 0.0, "lat": 38.94205766666666, "type": "electric_scooter", "lon": -77.02592066666666, "bike_id": "f9c1ac80d3d411fb5a273dea6326e3a0", "rental_uris": {"android": "https://dc.lft.to/lastmile_qr_scan", "ios": "https://dc.lft.to/lastmile_qr_scan"}, "name": "f9c1ac80d3d411fb5a273dea6326e3a0", "is_reserved": 0}, {"is_disabled": 0, "fusion_lon": 0.0, "fusion_lat": 0.0, "lat": 38.91927783333333, "type": "electric_scooter", "lon": -77.0318355, "bike_id": "330237cdfa7fd03a484c19802f1d7847", "rental_uris": {"android": "https://dc.lft.to/lastmile_qr_scan", "ios": "https://dc.lft.to/lastmile_qr_scan"}, "name": "330237cdfa7fd03a484c19802f1d7847", "is_reserved": 0}, {"is_disabled": 0, "fusion_lon": 0.0, "fusion_lat": 0.0, "lat": 38.926080166666665, "type": "electric_scooter", "lon": -77.05700316666666, "bike_id": "0f45630f24e30eb4f045d256375ae46b", "rental_uris": {"android": "https://dc.lft.to/lastmile_qr_scan", "ios": "https://dc.lft.to/lastmile_qr_scan"}, "name": "0f45630f24e30eb4f045d256375ae46b", "is_reserved": 0}, {"is_disabled": 0, "fusion_lon": 0.0, "fusion_lat": 0.0, "lat": 38.911859, "type": "electric_scooter", "lon": -77.03504216666667, "bike_id": "7be70c1fe655d7d42d65a482ae36f91a", "rental_uris": {"android": "https://dc.lft.to/lastmile_qr_scan", "ios": "https://dc.lft.to/lastmile_qr_scan"}, "name": "7be70c1fe655d7d42d65a482ae36f91a", "is_reserved": 0}, {"is_disabled": 0, "fusion_lon": 0.0, "fusion_lat": 0.0, "lat": 38.908727666666664, "type": "electric_scooter", "lon": -77.03539016666667, "bike_id": "3775eb2ebafa475999de682667abe729", "rental_uris": {"android": "https://dc.lft.to/lastmile_qr_scan", "ios": "https://dc.lft.to/lastmile_qr_scan"}, "name": "3775eb2ebafa475999de682667abe729", "is_reserved": 0}, {"is_disabled": 0, "fusion_lon": 0.0, "fusion_lat": 0.0, "lat": 38.960972, "type": "electric_scooter", "lon": -77.06901633333334, "bike_id": "1c88196b90691d08600dbe7c75cc5341", "rental_uris": {"android": "https://dc.lft.to/lastmile_qr_scan", "ios": "https://dc.lft.to/lastmile_qr_scan"}, "name": "1c88196b90691d08600dbe7c75cc5341", "is_reserved": 0}, {"is_disabled": 0, "fusion_lon": 0.0, "fusion_lat": 0.0, "lat": 38.9160525, "type": "electric_scooter", "lon": -77.03214683333333, "bike_id": "b335767acd86b69ad2600461e08b4534", "rental_uris": {"android": "https://dc.lft.to/lastmile_qr_scan", "ios": "https://dc.lft.to/lastmile_qr_scan"}, "name": "b335767acd86b69ad2600461e08b4534", "is_reserved": 0}, {"is_disabled": 0, "fusion_lon": 0.0, "fusion_lat": 0.0, "lat": 38.906825166666664, "type": "electric_scooter", "lon": -76.98000716666667, "bike_id": "4e3482a609ac0d261b9b90de07ff2121", "rental_uris": {"android": "https://dc.lft.to/lastmile_qr_scan", "ios": "https://dc.lft.to/lastmile_qr_scan"}, "name": "4e3482a609ac0d261b9b90de07ff2121", "is_reserved": 0}, {"is_disabled": 0, "fusion_lon": 0.0, "fusion_lat": 0.0, "lat": 38.92973683333334, "type": "electric_scooter", "lon": -77.02075383333333, "bike_id": "cfd8e6d338adcf1be42d7fdd00a81808", "rental_uris": {"android": "https://dc.lft.to/lastmile_qr_scan", "ios": "https://dc.lft.to/lastmile_qr_scan"}, "name": "cfd8e6d338adcf1be42d7fdd00a81808", "is_reserved": 0}, {"is_disabled": 0, "fusion_lon": 0.0, "fusion_lat": 0.0, "lat": 38.9246495, "type": "electric_scooter", "lon": -77.021569, "bike_id": "80b3488bdb1d2848d5309cc173d9415a", "rental_uris": {"android": "https://dc.lft.to/lastmile_qr_scan", "ios": "https://dc.lft.to/lastmile_qr_scan"}, "name": "80b3488bdb1d2848d5309cc173d9415a", "is_reserved": 0}, {"is_disabled": 0, "fusion_lon": 0.0, "fusion_lat": 0.0, "lat": 38.913099, "type": "electric_scooter", "lon": -77.031919, "bike_id": "0dfbcab2b5271372d2111cfb5591b367", "rental_uris": {"android": "https://dc.lft.to/lastmile_qr_scan", "ios": "https://dc.lft.to/lastmile_qr_scan"}, "name": "0dfbcab2b5271372d2111cfb5591b367", "is_reserved": 0}, {"is_disabled": 0, "fusion_lon": 0.0, "fusion_lat": 0.0, "lat": 38.88465983333333, "type": "electric_scooter", "lon": -76.95237166666666, "bike_id": "48c869e3919295b313487322c73070c2", "rental_uris": {"android": "https://dc.lft.to/lastmile_qr_scan", "ios": "https://dc.lft.to/lastmile_qr_scan"}, "name": "48c869e3919295b313487322c73070c2", "is_reserved": 0}, {"is_disabled": 0, "fusion_lon": 0.0, "fusion_lat": 0.0, "lat": 38.905114, "type": "electric_scooter", "lon": -77.04075716666667, "bike_id": "c1a534a6477d38bdd3b0411de2239717", "rental_uris": {"android": "https://dc.lft.to/lastmile_qr_scan", "ios": "https://dc.lft.to/lastmile_qr_scan"}, "name": "c1a534a6477d38bdd3b0411de2239717", "is_reserved": 0}, {"is_disabled": 0, "fusion_lon": 0.0, "fusion_lat": 0.0, "lat": 38.9141575, "type": "electric_scooter", "lon": -77.042249, "bike_id": "898871c695dab7383ea50b09a8fa7461", "rental_uris": {"android": "https://dc.lft.to/lastmile_qr_scan", "ios": "https://dc.lft.to/lastmile_qr_scan"}, "name": "898871c695dab7383ea50b09a8fa7461", "is_reserved": 0}, {"is_disabled": 0, "fusion_lon": 0.0, "fusion_lat": 0.0, "lat": 38.906125333333335, "type": "electric_scooter", "lon": -77.05720633333334, "bike_id": "38a6591117640a01896be2894edefd8c", "rental_uris": {"android": "https://dc.lft.to/lastmile_qr_scan", "ios": "https://dc.lft.to/lastmile_qr_scan"}, "name": "38a6591117640a01896be2894edefd8c", "is_reserved": 0}, {"is_disabled": 0, "fusion_lon": 0.0, "fusion_lat": 0.0, "lat": 38.9217185, "type": "electric_scooter", "lon": -77.05523333333333, "bike_id": "53a91dee70f9538049c78978e3516541", "rental_uris": {"android": "https://dc.lft.to/lastmile_qr_scan", "ios": "https://dc.lft.to/lastmile_qr_scan"}, "name": "53a91dee70f9538049c78978e3516541", "is_reserved": 0}, {"is_disabled": 0, "fusion_lon": 0.0, "fusion_lat": 0.0, "lat": 38.911352, "type": "electric_scooter", "lon": -77.02195683333333, "bike_id": "8f7add847223d32223352543f3b0a814", "rental_uris": {"android": "https://dc.lft.to/lastmile_qr_scan", "ios": "https://dc.lft.to/lastmile_qr_scan"}, "name": "8f7add847223d32223352543f3b0a814", "is_reserved": 0}, {"is_disabled": 0, "fusion_lon": 0.0, "fusion_lat": 0.0, "lat": 38.9072195, "type": "electric_scooter", "lon": -77.03248416666666, "bike_id": "2f622222ff3e96339b235a6b32d7189c", "rental_uris": {"android": "https://dc.lft.to/lastmile_qr_scan", "ios": "https://dc.lft.to/lastmile_qr_scan"}, "name": "2f622222ff3e96339b235a6b32d7189c", "is_reserved": 0}, {"is_disabled": 0, "fusion_lon": 0.0, "fusion_lat": 0.0, "lat": 38.94705, "type": "electric_scooter", "lon": -77.01940283333333, "bike_id": "ec33816f4836854ced1abaf0fd2c5027", "rental_uris": {"android": "https://dc.lft.to/lastmile_qr_scan", "ios": "https://dc.lft.to/lastmile_qr_scan"}, "name": "ec33816f4836854ced1abaf0fd2c5027", "is_reserved": 0}, {"is_disabled": 0, "fusion_lon": 0.0, "fusion_lat": 0.0, "lat": 38.912301166666666, "type": "electric_scooter", "lon": -76.98451466666667, "bike_id": "b3aa350dc7ae6c751117c7e36af179bd", "rental_uris": {"android": "https://dc.lft.to/lastmile_qr_scan", "ios": "https://dc.lft.to/lastmile_qr_scan"}, "name": "b3aa350dc7ae6c751117c7e36af179bd", "is_reserved": 0}, {"is_disabled": 0, "fusion_lon": 0.0, "fusion_lat": 0.0, "lat": 38.922307, "type": "electric_scooter", "lon": -76.9753085, "bike_id": "888bae79d23d73fed5700c97f947b5f4", "rental_uris": {"android": "https://dc.lft.to/lastmile_qr_scan", "ios": "https://dc.lft.to/lastmile_qr_scan"}, "name": "888bae79d23d73fed5700c97f947b5f4", "is_reserved": 0}, {"is_disabled": 0, "fusion_lon": 0.0, "fusion_lat": 0.0, "lat": 38.899699166666664, "type": "electric_scooter", "lon": -77.05142316666667, "bike_id": "cc0c7999d5d88003d0c0bd5f606fdfb7", "rental_uris": {"android": "https://dc.lft.to/lastmile_qr_scan", "ios": "https://dc.lft.to/lastmile_qr_scan"}, "name": "cc0c7999d5d88003d0c0bd5f606fdfb7", "is_reserved": 0}, {"is_disabled": 0, "fusion_lon": 0.0, "fusion_lat": 0.0, "lat": 38.93609516666667, "type": "electric_scooter", "lon": -77.05860216666666, "bike_id": "d0821b4986f5f9b9a4006b25625e4551", "rental_uris": {"android": "https://dc.lft.to/lastmile_qr_scan", "ios": "https://dc.lft.to/lastmile_qr_scan"}, "name": "d0821b4986f5f9b9a4006b25625e4551", "is_reserved": 0}, {"is_disabled": 0, "fusion_lon": 0.0, "fusion_lat": 0.0, "lat": 38.8716135, "type": "electric_scooter", "lon": -77.0135295, "bike_id": "ded47c321743fdcea20d4753dbb2dd3e", "rental_uris": {"android": "https://dc.lft.to/lastmile_qr_scan", "ios": "https://dc.lft.to/lastmile_qr_scan"}, "name": "ded47c321743fdcea20d4753dbb2dd3e", "is_reserved": 0}, {"is_disabled": 0, "fusion_lon": 0.0, "fusion_lat": 0.0, "lat": 38.9233945, "type": "electric_scooter", "lon": -77.041859, "bike_id": "a3861fae6cfd9f3e1d3d1c45d57c7c2c", "rental_uris": {"android": "https://dc.lft.to/lastmile_qr_scan", "ios": "https://dc.lft.to/lastmile_qr_scan"}, "name": "a3861fae6cfd9f3e1d3d1c45d57c7c2c", "is_reserved": 0}, {"is_disabled": 0, "fusion_lon": 0.0, "fusion_lat": 0.0, "lat": 38.90062533333333, "type": "electric_scooter", "lon": -76.9338635, "bike_id": "687b9a36d52d17c8916f0f44c7180a44", "rental_uris": {"android": "https://dc.lft.to/lastmile_qr_scan", "ios": "https://dc.lft.to/lastmile_qr_scan"}, "name": "687b9a36d52d17c8916f0f44c7180a44", "is_reserved": 0}, {"is_disabled": 0, "fusion_lon": 0.0, "fusion_lat": 0.0, "lat": 38.87896833333333, "type": "electric_scooter", "lon": -76.93524766666667, "bike_id": "e9fcc28fda305cc779c6cb5d9c69b2b2", "rental_uris": {"android": "https://dc.lft.to/lastmile_qr_scan", "ios": "https://dc.lft.to/lastmile_qr_scan"}, "name": "e9fcc28fda305cc779c6cb5d9c69b2b2", "is_reserved": 0}, {"is_disabled": 0, "fusion_lon": 0.0, "fusion_lat": 0.0, "lat": 38.93700116666667, "type": "electric_scooter", "lon": -77.055985, "bike_id": "354d9f8ed09295c1786faf96c80c1075", "rental_uris": {"android": "https://dc.lft.to/lastmile_qr_scan", "ios": "https://dc.lft.to/lastmile_qr_scan"}, "name": "354d9f8ed09295c1786faf96c80c1075", "is_reserved": 0}, {"is_disabled": 0, "fusion_lon": 0.0, "fusion_lat": 0.0, "lat": 38.935785333333335, "type": "electric_bike", "lon": -77.036535, "bike_id": "67e32a484fb3d8177919166ae30d19ea", "rental_uris": {"android": "https://dc.lft.to/lastmile_qr_scan", "ios": "https://dc.lft.to/lastmile_qr_scan"}, "name": "67e32a484fb3d8177919166ae30d19ea", "is_reserved": 0}, {"is_disabled": 0, "fusion_lon": 0.0, "fusion_lat": 0.0, "lat": 38.897014666666664, "type": "electric_bike", "lon": -77.05024816666666, "bike_id": "d6ec437cd2b5a57b46c70ad1584cc023", "rental_uris": {"android": "https://dc.lft.to/lastmile_qr_scan", "ios": "https://dc.lft.to/lastmile_qr_scan"}, "name": "d6ec437cd2b5a57b46c70ad1584cc023", "is_reserved": 0}, {"is_disabled": 0, "fusion_lon": 0.0, "fusion_lat": 0.0, "lat": 38.90489016666667, "type": "electric_scooter", "lon": -77.03246866666667, "bike_id": "2355e49c0e9627b7002836bbab9f4ed5", "rental_uris": {"android": "https://dc.lft.to/lastmile_qr_scan", "ios": "https://dc.lft.to/lastmile_qr_scan"}, "name": "2355e49c0e9627b7002836bbab9f4ed5", "is_reserved": 0}, {"is_disabled": 0, "fusion_lon": 0.0, "fusion_lat": 0.0, "lat": 38.884608166666666, "type": "electric_bike", "lon": -76.91628916666667, "bike_id": "0ae4a2f8f724a01fe3265d97eecc2018", "rental_uris": {"android": "https://dc.lft.to/lastmile_qr_scan", "ios": "https://dc.lft.to/lastmile_qr_scan"}, "name": "0ae4a2f8f724a01fe3265d97eecc2018", "is_reserved": 0}, {"is_disabled": 0, "fusion_lon": 0.0, "fusion_lat": 0.0, "lat": 38.94896583333333, "type": "electric_bike", "lon": -76.96370866666666, "bike_id": "90759424c7c5a7e9d87b368ede9ad248", "rental_uris": {"android": "https://dc.lft.to/lastmile_qr_scan", "ios": "https://dc.lft.to/lastmile_qr_scan"}, "name": "90759424c7c5a7e9d87b368ede9ad248", "is_reserved": 0}, {"is_disabled": 0, "fusion_lon": 0.0, "fusion_lat": 0.0, "lat": 39.052668, "type": "electric_bike", "lon": -77.0438245, "bike_id": "562442fdbc0177721f212cde4e3ac8be", "rental_uris": {"android": "https://dc.lft.to/lastmile_qr_scan", "ios": "https://dc.lft.to/lastmile_qr_scan"}, "name": "562442fdbc0177721f212cde4e3ac8be", "is_reserved": 0}, {"is_disabled": 0, "fusion_lon": 0.0, "fusion_lat": 0.0, "lat": 38.872015166666664, "type": "electric_bike", "lon": -77.01619466666666, "bike_id": "86fde682e10b9db88d1ae56ac2bcaa4c", "rental_uris": {"android": "https://dc.lft.to/lastmile_qr_scan", "ios": "https://dc.lft.to/lastmile_qr_scan"}, "name": "86fde682e10b9db88d1ae56ac2bcaa4c", "is_reserved": 0}, {"is_disabled": 0, "fusion_lon": 0.0, "fusion_lat": 0.0, "lat": 38.915901, "type": "electric_scooter", "lon": -77.0318115, "bike_id": "67695cec01fcd60b0ad10813b695bea2", "rental_uris": {"android": "https://dc.lft.to/lastmile_qr_scan", "ios": "https://dc.lft.to/lastmile_qr_scan"}, "name": "67695cec01fcd60b0ad10813b695bea2", "is_reserved": 0}, {"is_disabled": 0, "fusion_lon": 0.0, "fusion_lat": 0.0, "lat": 38.9053725, "type": "electric_scooter", "lon": -77.04998133333333, "bike_id": "7984fd8a1ca4b8f2231ec82913f4c3cf", "rental_uris": {"android": "https://dc.lft.to/lastmile_qr_scan", "ios": "https://dc.lft.to/lastmile_qr_scan"}, "name": "7984fd8a1ca4b8f2231ec82913f4c3cf", "is_reserved": 0}, {"is_disabled": 0, "fusion_lon": 0.0, "fusion_lat": 0.0, "lat": 38.917036333333336, "type": "electric_scooter", "lon": -77.00119916666667, "bike_id": "482fa447e8ce48462184c3930d698a57", "rental_uris": {"android": "https://dc.lft.to/lastmile_qr_scan", "ios": "https://dc.lft.to/lastmile_qr_scan"}, "name": "482fa447e8ce48462184c3930d698a57", "is_reserved": 0}, {"is_disabled": 0, "fusion_lon": 0.0, "fusion_lat": 0.0, "lat": 38.9119255, "type": "electric_scooter", "lon": -77.03219616666667, "bike_id": "ca084fce20bce6afb9b6367db2424a4f", "rental_uris": {"android": "https://dc.lft.to/lastmile_qr_scan", "ios": "https://dc.lft.to/lastmile_qr_scan"}, "name": "ca084fce20bce6afb9b6367db2424a4f", "is_reserved": 0}, {"is_disabled": 0, "fusion_lon": 0.0, "fusion_lat": 0.0, "lat": 38.865793, "type": "electric_scooter", "lon": -76.9904115, "bike_id": "c2ec34028bbfb65bb3f8cd5cf18d63e6", "rental_uris": {"android": "https://dc.lft.to/lastmile_qr_scan", "ios": "https://dc.lft.to/lastmile_qr_scan"}, "name": "c2ec34028bbfb65bb3f8cd5cf18d63e6", "is_reserved": 0}, {"is_disabled": 0, "fusion_lon": 0.0, "fusion_lat": 0.0, "lat": 38.9018025, "type": "electric_scooter", "lon": -76.92826583333333, "bike_id": "324a050f3a8be7db57145c1b80f08473", "rental_uris": {"android": "https://dc.lft.to/lastmile_qr_scan", "ios": "https://dc.lft.to/lastmile_qr_scan"}, "name": "324a050f3a8be7db57145c1b80f08473", "is_reserved": 0}, {"is_disabled": 0, "fusion_lon": 0.0, "fusion_lat": 0.0, "lat": 38.907276333333336, "type": "electric_scooter", "lon": -77.02317166666667, "bike_id": "857026f7dc24b1f8d72b3948bfaddd76", "rental_uris": {"android": "https://dc.lft.to/lastmile_qr_scan", "ios": "https://dc.lft.to/lastmile_qr_scan"}, "name": "857026f7dc24b1f8d72b3948bfaddd76", "is_reserved": 0}, {"is_disabled": 0, "fusion_lon": 0.0, "fusion_lat": 0.0, "lat": 38.92087183333334, "type": "electric_scooter", "lon": -77.01811733333334, "bike_id": "5dc527bad95dd4f777ee373c2f8aad3b", "rental_uris": {"android": "https://dc.lft.to/lastmile_qr_scan", "ios": "https://dc.lft.to/lastmile_qr_scan"}, "name": "5dc527bad95dd4f777ee373c2f8aad3b", "is_reserved": 0}, {"is_disabled": 0, "fusion_lon": 0.0, "fusion_lat": 0.0, "lat": 38.90498633333333, "type": "electric_scooter", "lon": -77.04065716666666, "bike_id": "45e296ddc0b0dcab675b439dc540cfdf", "rental_uris": {"android": "https://dc.lft.to/lastmile_qr_scan", "ios": "https://dc.lft.to/lastmile_qr_scan"}, "name": "45e296ddc0b0dcab675b439dc540cfdf", "is_reserved": 0}, {"is_disabled": 0, "fusion_lon": 0.0, "fusion_lat": 0.0, "lat": 38.900016666666666, "type": "electric_scooter", "lon": -76.99143783333334, "bike_id": "cb26f591d32e0a2e0888f87babc8da75", "rental_uris": {"android": "https://dc.lft.to/lastmile_qr_scan", "ios": "https://dc.lft.to/lastmile_qr_scan"}, "name": "cb26f591d32e0a2e0888f87babc8da75", "is_reserved": 0}, {"is_disabled": 0, "fusion_lon": 0.0, "fusion_lat": 0.0, "lat": 38.90831033333333, "type": "electric_scooter", "lon": -77.0338105, "bike_id": "5cdb9f058337e074ef31acd8bf1f7d92", "rental_uris": {"android": "https://dc.lft.to/lastmile_qr_scan", "ios": "https://dc.lft.to/lastmile_qr_scan"}, "name": "5cdb9f058337e074ef31acd8bf1f7d92", "is_reserved": 0}, {"is_disabled": 0, "fusion_lon": 0.0, "fusion_lat": 0.0, "lat": 38.918191, "type": "electric_scooter", "lon": -77.03176366666666, "bike_id": "72d699885c5d2039f912dc3f54db3c97", "rental_uris": {"android": "https://dc.lft.to/lastmile_qr_scan", "ios": "https://dc.lft.to/lastmile_qr_scan"}, "name": "72d699885c5d2039f912dc3f54db3c97", "is_reserved": 0}, {"is_disabled": 0, "fusion_lon": 0.0, "fusion_lat": 0.0, "lat": 38.918738, "type": "electric_scooter", "lon": -77.04420316666666, "bike_id": "96e2d32353c51e035105ab63330f850e", "rental_uris": {"android": "https://dc.lft.to/lastmile_qr_scan", "ios": "https://dc.lft.to/lastmile_qr_scan"}, "name": "96e2d32353c51e035105ab63330f850e", "is_reserved": 0}, {"is_disabled": 0, "fusion_lon": 0.0, "fusion_lat": 0.0, "lat": 38.919278, "type": "electric_scooter", "lon": -77.03379166666667, "bike_id": "0c1ef9704da7753ce8ea7c76f3486bcc", "rental_uris": {"android": "https://dc.lft.to/lastmile_qr_scan", "ios": "https://dc.lft.to/lastmile_qr_scan"}, "name": "0c1ef9704da7753ce8ea7c76f3486bcc", "is_reserved": 0}, {"is_disabled": 0, "fusion_lon": 0.0, "fusion_lat": 0.0, "lat": 38.93151316666667, "type": "electric_scooter", "lon": -77.04361633333333, "bike_id": "cc900b7db90d59e1dbc2f10dffeaa693", "rental_uris": {"android": "https://dc.lft.to/lastmile_qr_scan", "ios": "https://dc.lft.to/lastmile_qr_scan"}, "name": "cc900b7db90d59e1dbc2f10dffeaa693", "is_reserved": 0}, {"is_disabled": 0, "fusion_lon": 0.0, "fusion_lat": 0.0, "lat": 38.90346816666667, "type": "electric_scooter", "lon": -77.02611666666667, "bike_id": "c6d7e9f61e7c8b75ce679f6b1acd9972", "rental_uris": {"android": "https://dc.lft.to/lastmile_qr_scan", "ios": "https://dc.lft.to/lastmile_qr_scan"}, "name": "c6d7e9f61e7c8b75ce679f6b1acd9972", "is_reserved": 0}, {"is_disabled": 0, "fusion_lon": 0.0, "fusion_lat": 0.0, "lat": 38.90533083333333, "type": "electric_scooter", "lon": -77.04676383333333, "bike_id": "5b464d1f7c86e83e1bad6b2490bebcf2", "rental_uris": {"android": "https://dc.lft.to/lastmile_qr_scan", "ios": "https://dc.lft.to/lastmile_qr_scan"}, "name": "5b464d1f7c86e83e1bad6b2490bebcf2", "is_reserved": 0}, {"is_disabled": 0, "fusion_lon": 0.0, "fusion_lat": 0.0, "lat": 38.918735166666664, "type": "electric_bike", "lon": -76.96123583333333, "bike_id": "69f890d81216b703a1804f6351f58c4d", "rental_uris": {"android": "https://dc.lft.to/lastmile_qr_scan", "ios": "https://dc.lft.to/lastmile_qr_scan"}, "name": "69f890d81216b703a1804f6351f58c4d", "is_reserved": 0}, {"is_disabled": 0, "fusion_lon": 0.0, "fusion_lat": 0.0, "lat": 38.831239333333336, "type": "electric_bike", "lon": -77.04329033333333, "bike_id": "2b422a91db1fe1fbed9b8c02a0b9e380", "rental_uris": {"android": "https://dc.lft.to/lastmile_qr_scan", "ios": "https://dc.lft.to/lastmile_qr_scan"}, "name": "2b422a91db1fe1fbed9b8c02a0b9e380", "is_reserved": 0}, {"is_disabled": 0, "fusion_lon": 0.0, "fusion_lat": 0.0, "lat": 38.906053666666665, "type": "electric_scooter", "lon": -77.0468865, "bike_id": "faa37c76628ae87761f8502bc5de1294", "rental_uris": {"android": "https://dc.lft.to/lastmile_qr_scan", "ios": "https://dc.lft.to/lastmile_qr_scan"}, "name": "faa37c76628ae87761f8502bc5de1294", "is_reserved": 0}, {"is_disabled": 0, "fusion_lon": 0.0, "fusion_lat": 0.0, "lat": 38.936674, "type": "electric_scooter", "lon": -77.0363665, "bike_id": "729c4c3d3d211367d1909fe686c48848", "rental_uris": {"android": "https://dc.lft.to/lastmile_qr_scan", "ios": "https://dc.lft.to/lastmile_qr_scan"}, "name": "729c4c3d3d211367d1909fe686c48848", "is_reserved": 0}, {"is_disabled": 0, "fusion_lon": 0.0, "fusion_lat": 0.0, "lat": 38.9489655, "type": "electric_bike", "lon": -76.9637175, "bike_id": "573e6ed14e4c0e15bf69e066d8371db3", "rental_uris": {"android": "https://dc.lft.to/lastmile_qr_scan", "ios": "https://dc.lft.to/lastmile_qr_scan"}, "name": "573e6ed14e4c0e15bf69e066d8371db3", "is_reserved": 0}, {"is_disabled": 0, "fusion_lon": 0.0, "fusion_lat": 0.0, "lat": 38.93929633333333, "type": "electric_bike", "lon": -76.99516266666667, "bike_id": "e46fd8731bc8bf49c686a5b596ca8e8f", "rental_uris": {"android": "https://dc.lft.to/lastmile_qr_scan", "ios": "https://dc.lft.to/lastmile_qr_scan"}, "name": "e46fd8731bc8bf49c686a5b596ca8e8f", "is_reserved": 0}, {"is_disabled": 0, "fusion_lon": 0.0, "fusion_lat": 0.0, "lat": 38.917879166666665, "type": "electric_scooter", "lon": -77.0435745, "bike_id": "2c7b27925ce4e0d8de894f34de530588", "rental_uris": {"android": "https://dc.lft.to/lastmile_qr_scan", "ios": "https://dc.lft.to/lastmile_qr_scan"}, "name": "2c7b27925ce4e0d8de894f34de530588", "is_reserved": 0}, {"is_disabled": 0, "fusion_lon": 0.0, "fusion_lat": 0.0, "lat": 38.93699983333333, "type": "electric_scooter", "lon": -77.056009, "bike_id": "f0efa25c62b2681b5f7f5549046f68ff", "rental_uris": {"android": "https://dc.lft.to/lastmile_qr_scan", "ios": "https://dc.lft.to/lastmile_qr_scan"}, "name": "f0efa25c62b2681b5f7f5549046f68ff", "is_reserved": 0}, {"is_disabled": 0, "fusion_lon": 0.0, "fusion_lat": 0.0, "lat": 38.8882985, "type": "electric_scooter", "lon": -76.91784766666666, "bike_id": "a77b6acdff4a802261e71dd362e6115a", "rental_uris": {"android": "https://dc.lft.to/lastmile_qr_scan", "ios": "https://dc.lft.to/lastmile_qr_scan"}, "name": "a77b6acdff4a802261e71dd362e6115a", "is_reserved": 0}, {"is_disabled": 0, "fusion_lon": 0.0, "fusion_lat": 0.0, "lat": 38.90497766666667, "type": "electric_scooter", "lon": -77.0683805, "bike_id": "737eea67bccc67ef16452efb658a4fb8", "rental_uris": {"android": "https://dc.lft.to/lastmile_qr_scan", "ios": "https://dc.lft.to/lastmile_qr_scan"}, "name": "737eea67bccc67ef16452efb658a4fb8", "is_reserved": 0}, {"is_disabled": 0, "fusion_lon": 0.0, "fusion_lat": 0.0, "lat": 38.918288, "type": "electric_scooter", "lon": -77.04524833333333, "bike_id": "078b6ca8fa642c09b15f2b6711ab9ea2", "rental_uris": {"android": "https://dc.lft.to/lastmile_qr_scan", "ios": "https://dc.lft.to/lastmile_qr_scan"}, "name": "078b6ca8fa642c09b15f2b6711ab9ea2", "is_reserved": 0}, {"is_disabled": 0, "fusion_lon": 0.0, "fusion_lat": 0.0, "lat": 38.93233633333333, "type": "electric_scooter", "lon": -76.99934716666667, "bike_id": "d87ff525bb6c72c616d7bc40725e64bc", "rental_uris": {"android": "https://dc.lft.to/lastmile_qr_scan", "ios": "https://dc.lft.to/lastmile_qr_scan"}, "name": "d87ff525bb6c72c616d7bc40725e64bc", "is_reserved": 0}, {"is_disabled": 0, "fusion_lon": 0.0, "fusion_lat": 0.0, "lat": 38.91123966666667, "type": "electric_scooter", "lon": -77.02192733333334, "bike_id": "33b4b8ce99d2f81bc5c23f6fa28a2c81", "rental_uris": {"android": "https://dc.lft.to/lastmile_qr_scan", "ios": "https://dc.lft.to/lastmile_qr_scan"}, "name": "33b4b8ce99d2f81bc5c23f6fa28a2c81", "is_reserved": 0}, {"is_disabled": 0, "fusion_lon": 0.0, "fusion_lat": 0.0, "lat": 38.90026666666667, "type": "electric_scooter", "lon": -77.04676416666666, "bike_id": "e0bf7224a55f8dc70d516727850f05d3", "rental_uris": {"android": "https://dc.lft.to/lastmile_qr_scan", "ios": "https://dc.lft.to/lastmile_qr_scan"}, "name": "e0bf7224a55f8dc70d516727850f05d3", "is_reserved": 0}, {"is_disabled": 0, "fusion_lon": 0.0, "fusion_lat": 0.0, "lat": 38.9455955, "type": "electric_bike", "lon": -77.05116283333334, "bike_id": "95039e2fedb38e462de03e2ddcb3a551", "rental_uris": {"android": "https://dc.lft.to/lastmile_qr_scan", "ios": "https://dc.lft.to/lastmile_qr_scan"}, "name": "95039e2fedb38e462de03e2ddcb3a551", "is_reserved": 0}, {"is_disabled": 0, "fusion_lon": 0.0, "fusion_lat": 0.0, "lat": 38.855434333333335, "type": "electric_bike", "lon": -77.107247, "bike_id": "51a3acad8e03eaaf8cfb0bc47d556401", "rental_uris": {"android": "https://dc.lft.to/lastmile_qr_scan", "ios": "https://dc.lft.to/lastmile_qr_scan"}, "name": "51a3acad8e03eaaf8cfb0bc47d556401", "is_reserved": 0}, {"is_disabled": 0, "fusion_lon": 0.0, "fusion_lat": 0.0, "lat": 38.924711333333335, "type": "electric_scooter", "lon": -77.03816283333333, "bike_id": "b814bfdcbc600f4cac9db90d0373e79a", "rental_uris": {"android": "https://dc.lft.to/lastmile_qr_scan", "ios": "https://dc.lft.to/lastmile_qr_scan"}, "name": "b814bfdcbc600f4cac9db90d0373e79a", "is_reserved": 0}, {"is_disabled": 0, "fusion_lon": 0.0, "fusion_lat": 0.0, "lat": 38.91353566666667, "type": "electric_scooter", "lon": -77.0641705, "bike_id": "d5c521776808ca4f9ab12052b8d041b6", "rental_uris": {"android": "https://dc.lft.to/lastmile_qr_scan", "ios": "https://dc.lft.to/lastmile_qr_scan"}, "name": "d5c521776808ca4f9ab12052b8d041b6", "is_reserved": 0}, {"is_disabled": 0, "fusion_lon": 0.0, "fusion_lat": 0.0, "lat": 38.886233, "type": "electric_scooter", "lon": -76.95511283333333, "bike_id": "5b244123e45ab97673a6f9dd5fe95936", "rental_uris": {"android": "https://dc.lft.to/lastmile_qr_scan", "ios": "https://dc.lft.to/lastmile_qr_scan"}, "name": "5b244123e45ab97673a6f9dd5fe95936", "is_reserved": 0}, {"is_disabled": 0, "fusion_lon": 0.0, "fusion_lat": 0.0, "lat": 38.91268266666667, "type": "electric_scooter", "lon": -77.02153583333333, "bike_id": "14ddfa1a9198f96bb9374a36d4420202", "rental_uris": {"android": "https://dc.lft.to/lastmile_qr_scan", "ios": "https://dc.lft.to/lastmile_qr_scan"}, "name": "14ddfa1a9198f96bb9374a36d4420202", "is_reserved": 0}, {"is_disabled": 0, "fusion_lon": 0.0, "fusion_lat": 0.0, "lat": 38.92350366666667, "type": "electric_bike", "lon": -76.99248416666667, "bike_id": "b838304a32a9b12b44c3b48266a66f95", "rental_uris": {"android": "https://dc.lft.to/lastmile_qr_scan", "ios": "https://dc.lft.to/lastmile_qr_scan"}, "name": "b838304a32a9b12b44c3b48266a66f95", "is_reserved": 0}, {"is_disabled": 0, "fusion_lon": 0.0, "fusion_lat": 0.0, "lat": 38.897415333333335, "type": "electric_scooter", "lon": -77.0495335, "bike_id": "d6d457ce80515928ad71c95ec82b6b30", "rental_uris": {"android": "https://dc.lft.to/lastmile_qr_scan", "ios": "https://dc.lft.to/lastmile_qr_scan"}, "name": "d6d457ce80515928ad71c95ec82b6b30", "is_reserved": 0}, {"is_disabled": 0, "fusion_lon": 0.0, "fusion_lat": 0.0, "lat": 38.9907355, "type": "electric_bike", "lon": -77.0238295, "bike_id": "e8b969e827024a145fdd37bbc9c8e02d", "rental_uris": {"android": "https://dc.lft.to/lastmile_qr_scan", "ios": "https://dc.lft.to/lastmile_qr_scan"}, "name": "e8b969e827024a145fdd37bbc9c8e02d", "is_reserved": 0}, {"is_disabled": 0, "fusion_lon": 0.0, "fusion_lat": 0.0, "lat": 38.917888, "type": "electric_scooter", "lon": -77.043575, "bike_id": "46514662ce8d1a5ca0d02767fccb34be", "rental_uris": {"android": "https://dc.lft.to/lastmile_qr_scan", "ios": "https://dc.lft.to/lastmile_qr_scan"}, "name": "46514662ce8d1a5ca0d02767fccb34be", "is_reserved": 0}, {"is_disabled": 0, "fusion_lon": 0.0, "fusion_lat": 0.0, "lat": 38.90726983333333, "type": "electric_scooter", "lon": -77.022484, "bike_id": "b62c86b588cdfe144c96439c81a1bc72", "rental_uris": {"android": "https://dc.lft.to/lastmile_qr_scan", "ios": "https://dc.lft.to/lastmile_qr_scan"}, "name": "b62c86b588cdfe144c96439c81a1bc72", "is_reserved": 0}, {"is_disabled": 0, "fusion_lon": 0.0, "fusion_lat": 0.0, "lat": 38.90848883333334, "type": "electric_scooter", "lon": -77.06336366666666, "bike_id": "3a115a7a4ccf3f54169838331aacbfb5", "rental_uris": {"android": "https://dc.lft.to/lastmile_qr_scan", "ios": "https://dc.lft.to/lastmile_qr_scan"}, "name": "3a115a7a4ccf3f54169838331aacbfb5", "is_reserved": 0}, {"is_disabled": 0, "fusion_lon": 0.0, "fusion_lat": 0.0, "lat": 38.880163833333334, "type": "electric_scooter", "lon": -77.02468583333334, "bike_id": "06774f93df494c5f36197c0a41fa9b95", "rental_uris": {"android": "https://dc.lft.to/lastmile_qr_scan", "ios": "https://dc.lft.to/lastmile_qr_scan"}, "name": "06774f93df494c5f36197c0a41fa9b95", "is_reserved": 0}, {"is_disabled": 0, "fusion_lon": 0.0, "fusion_lat": 0.0, "lat": 38.9094605, "type": "electric_scooter", "lon": -77.03441, "bike_id": "5f64a74c8839638b9c622065ef25aa20", "rental_uris": {"android": "https://dc.lft.to/lastmile_qr_scan", "ios": "https://dc.lft.to/lastmile_qr_scan"}, "name": "5f64a74c8839638b9c622065ef25aa20", "is_reserved": 0}, {"is_disabled": 0, "fusion_lon": 0.0, "fusion_lat": 0.0, "lat": 38.94219283333334, "type": "electric_scooter", "lon": -77.02502, "bike_id": "1ca884ff02a8e72addb0151224a4a412", "rental_uris": {"android": "https://dc.lft.to/lastmile_qr_scan", "ios": "https://dc.lft.to/lastmile_qr_scan"}, "name": "1ca884ff02a8e72addb0151224a4a412", "is_reserved": 0}, {"is_disabled": 0, "fusion_lon": 0.0, "fusion_lat": 0.0, "lat": 38.877250333333336, "type": "electric_scooter", "lon": -77.00063716666666, "bike_id": "8ddfc72aed0825852810bc043db1ed0f", "rental_uris": {"android": "https://dc.lft.to/lastmile_qr_scan", "ios": "https://dc.lft.to/lastmile_qr_scan"}, "name": "8ddfc72aed0825852810bc043db1ed0f", "is_reserved": 0}, {"is_disabled": 0, "fusion_lon": 0.0, "fusion_lat": 0.0, "lat": 38.90851166666667, "type": "electric_scooter", "lon": -77.02067266666667, "bike_id": "7b720d31fcc4861f5e78ca648e876098", "rental_uris": {"android": "https://dc.lft.to/lastmile_qr_scan", "ios": "https://dc.lft.to/lastmile_qr_scan"}, "name": "7b720d31fcc4861f5e78ca648e876098", "is_reserved": 0}, {"is_disabled": 0, "fusion_lon": 0.0, "fusion_lat": 0.0, "lat": 38.92760883333333, "type": "electric_scooter", "lon": -77.00594366666667, "bike_id": "c1cdda356df1ea394b51e00b29267e9a", "rental_uris": {"android": "https://dc.lft.to/lastmile_qr_scan", "ios": "https://dc.lft.to/lastmile_qr_scan"}, "name": "c1cdda356df1ea394b51e00b29267e9a", "is_reserved": 0},