{"data": {"bikes": [{"lat": 38.929803166666666, "is_disabled": 0, "type": "electric_bike", "lon": -76.9749925, "bike_id": "ec7c9ff4a6cd7f64b3d3142c8251997c", "fusion_lat": 0.0, "name": "ec7c9ff4a6cd7f64b3d3142c8251997c", "is_reserved": 0, "rental_uris": {"android": "https://dc.lft.to/lastmile_qr_scan", "ios": "https://dc.lft.to/lastmile_qr_scan"}, "fusion_lon": 0.0}, {"lat": 38.913226333333334, "is_disabled": 0, "type": "electric_scooter", "lon": -77.031884, "bike_id": "5faa6544514ad6cbf000808e55b8f6a9", "fusion_lat": 0.0, "name": "5faa6544514ad6cbf000808e55b8f6a9", "is_reserved": 0, "rental_uris": {"android": "https://dc.lft.to/lastmile_qr_scan", "ios": "https://dc.lft.to/lastmile_qr_scan"}, "fusion_lon": 0.0}, {"lat": 38.91664133333333, "is_disabled": 0, "type": "electric_bike", "lon": -77.04727166666666, "bike_id": "12b9480aac5a0a4c4183ed417f14f57b", "fusion_lat": 0.0, "name": "12b9480aac5a0a4c4183ed417f14f57b", "is_reserved": 0, "rental_uris": {"android": "https://dc.lft.to/lastmile_qr_scan", "ios": "https://dc.lft.to/lastmile_qr_scan"}, "fusion_lon": 0.0}, {"lat": 38.90274433333333, "is_disabled": 0, "type": "electric_scooter", "lon": -77.01748433333333, "bike_id": "a9715e3cc87d0183e90b0f1be8bff94b", "fusion_lat": 0.0, "name": "a9715e3cc87d0183e90b0f1be8bff94b", "is_reserved": 0, "rental_uris": {"android": "https://dc.lft.to/lastmile_qr_scan", "ios": "https://dc.lft.to/lastmile_qr_scan"}, "fusion_lon": 0.0}, {"lat": 38.920041, "is_disabled": 0, "type": "electric_scooter", "lon": -77.017156, "bike_id": "768f6b22bf016ea986881fd98b685320", "fusion_lat": 0.0, "name": "768f6b22bf016ea986881fd98b685320", "is_reserved": 0, "rental_uris": {"android": "https://dc.lft.to/lastmile_qr_scan", "ios": "https://dc.lft.to/lastmile_qr_scan"}, "fusion_lon": 0.0}, {"lat": 38.916758, "is_disabled": 0, "type": "electric_scooter", "lon": -77.02401033333334, "bike_id": "e440c59c85997e990ef3ce8367735785", "fusion_lat": 0.0, "name": "e440c59c85997e990ef3ce8367735785", "is_reserved": 0, "rental_uris": {"android": "https://dc.lft.to/lastmile_qr_scan", "ios": "https://dc.lft.to/lastmile_qr_scan"}, "fusion_lon": 0.0}, {"lat": 38.904982, "is_disabled": 0, "type": "electric_scooter", "lon": -77.0013475, "bike_id": "faa70bdf9fcdbf46fb481baa358d25fe", "fusion_lat": 0.0, "name": "faa70bdf9fcdbf46fb481baa358d25fe", "is_reserved": 0, "rental_uris": {"android": "https://dc.lft.to/lastmile_qr_scan", "ios": "https://dc.lft.to/lastmile_qr_scan"}, "fusion_lon": 0.0}, {"lat": 38.90348083333333, "is_disabled": 0, "type": "electric_scooter", "lon": -77.06587816666666, "bike_id": "d6fbcfaaa1a5a44efad2fc65add044d7", "fusion_lat": 0.0, "name": "d6fbcfaaa1a5a44efad2fc65add044d7", "is_reserved": 0, "rental_uris": {"android": "https://dc.lft.to/lastmile_qr_scan", "ios": "https://dc.lft.to/lastmile_qr_scan"}, "fusion_lon": 0.0}, {"lat": 38.8876835, "is_disabled": 0, "type": "electric_scooter", "lon": -76.95596683333333, "bike_id": "85f0f9b68915275908eb3b7868e7e17d", "fusion_lat": 0.0, "name": "85f0f9b68915275908eb3b7868e7e17d", "is_reserved": 0, "rental_uris": {"android": "https://dc.lft.to/lastmile_qr_scan", "ios": "https://dc.lft.to/lastmile_qr_scan"}, "fusion_lon": 0.0}, {"lat": 38.9356775, "is_disabled": 0, "type": "electric_scooter", "lon": -77.08762966666667, "bike_id": "2c7bcb26a8b75b6c460728b144b9c99d", "fusion_lat": 0.0, "name": "2c7bcb26a8b75b6c460728b144b9c99d", "is_reserved": 0, "rental_uris": {"android": "https://dc.lft.to/lastmile_qr_scan", "ios": "https://dc.lft.to/lastmile_qr_scan"}, "fusion_lon": 0.0}, {"lat": 38.89831383333333, "is_disabled": 0, "type": "electric_scooter", "lon": -77.02395566666667, "bike_id": "393898371c06f593bf8ed7e4836c7c40", "fusion_lat": 0.0, "name": "393898371c06f593bf8ed7e4836c7c40", "is_reserved": 0, "rental_uris": {"android": "https://dc.lft.to/lastmile_qr_scan", "ios": "https://dc.lft.to/lastmile_qr_scan"}, "fusion_lon": 0.0}, {"lat": 38.94088966666666, "is_disabled": 0, "type": "electric_scooter", "lon": -77.06127783333334, "bike_id": "66e88d76bfa3553d3a77f8bc733d2709", "fusion_lat": 0.0, "name": "66e88d76bfa3553d3a77f8bc733d2709", "is_reserved": 0, "rental_uris": {"android": "https://dc.lft.to/lastmile_qr_scan", "ios": "https://dc.lft.to/lastmile_qr_scan"}, "fusion_lon": 0.0}, {"lat": 38.916250166666664, "is_disabled": 0, "type": "electric_scooter", "lon": -77.03138616666666, "bike_id": "2e3851d07c4a6a236d7be2c5d2be8acc", "fusion_lat": 0.0, "name": "2e3851d07c4a6a236d7be2c5d2be8acc", "is_reserved": 0, "rental_uris": {"android": "https://dc.lft.to/lastmile_qr_scan", "ios": "https://dc.lft.to/lastmile_qr_scan"}, "fusion_lon": 0.0}, {"lat": 38.949078, "is_disabled": 0, "type": "electric_bike", "lon": -76.97239133333333, "bike_id": "88734b5484a787e251a4069becce4aee", "fusion_lat": 0.0, "name": "88734b5484a787e251a4069becce4aee", "is_reserved": 0, "rental_uris": {"android": "https://dc.lft.to/lastmile_qr_scan", "ios": "https://dc.lft.to/lastmile_qr_scan"}, "fusion_lon": 0.0}, {"lat": 38.8984865, "is_disabled": 0, "type": "electric_scooter", "lon": -77.0303885, "bike_id": "b4067495cede376cf7a8c240cb71d57c", "fusion_lat": 0.0, "name": "b4067495cede376cf7a8c240cb71d57c", "is_reserved": 0, "rental_uris": {"android": "https://dc.lft.to/lastmile_qr_scan", "ios": "https://dc.lft.to/lastmile_qr_scan"}, "fusion_lon": 0.0}, {"lat": 38.91808016666667, "is_disabled": 0, "type": "electric_scooter", "lon": -77.0365945, "bike_id": "9c0d0370d21391fc79fd092a5b0ba3e0", "fusion_lat": 0.0, "name": "9c0d0370d21391fc79fd092a5b0ba3e0", "is_reserved": 0, "rental_uris": {"android": "https://dc.lft.to/lastmile_qr_scan", "ios": "https://dc.lft.to/lastmile_qr_scan"}, "fusion_lon": 0.0}, {"lat": 38.924065, "is_disabled": 0, "type": "electric_scooter", "lon": -77.02689133333334, "bike_id": "3899f6b6781c06a2a1c16e3c6e11c3f7", "fusion_lat": 0.0, "name": "3899f6b6781c06a2a1c16e3c6e11c3f7", "is_reserved": 0, "rental_uris": {"android": "https://dc.lft.to/lastmile_qr_scan", "ios": "https://dc.lft.to/lastmile_qr_scan"}, "fusion_lon": 0.0}, {"lat": 38.930771166666666, "is_disabled": 0, "type": "electric_scooter", "lon": -77.03130566666667, "bike_id": "a1e7df962426c963ba14c9a90fa559e6", "fusion_lat": 0.0, "name": "a1e7df962426c963ba14c9a90fa559e6", "is_reserved": 0, "rental_uris": {"android": "https://dc.lft.to/lastmile_qr_scan", "ios": "https://dc.lft.to/lastmile_qr_scan"}, "fusion_lon": 0.0}, {"lat": 38.89716216666667, "is_disabled": 0, "type": "electric_scooter", "lon": -77.007999, "bike_id": "219f71b35545a9c49becab39310b4797", "fusion_lat": 0.0, "name": "219f71b35545a9c49becab39310b4797", "is_reserved": 0, "rental_uris": {"android": "https://dc.lft.to/lastmile_qr_scan", "ios": "https://dc.lft.to/lastmile_qr_scan"}, "fusion_lon": 0.0}, {"lat": 38.82879466666667, "is_disabled": 0, "type": "electric_bike", "lon": -77.1121465, "bike_id": "db8eb72413a7abd5f4778bc7bbb50271", "fusion_lat": 0.0, "name": "db8eb72413a7abd5f4778bc7bbb50271", "is_reserved": 0, "rental_uris": {"android": "https://dc.lft.to/lastmile_qr_scan", "ios": "https://dc.lft.to/lastmile_qr_scan"}, "fusion_lon": 0.0}, {"lat": 38.909814833333336, "is_disabled": 0, "type": "electric_scooter", "lon": -76.997493, "bike_id": "003c818f0eb9a7425a250535ae23255f", "fusion_lat": 0.0, "name": "003c818f0eb9a7425a250535ae23255f", "is_reserved": 0, "rental_uris": {"android": "https://dc.lft.to/lastmile_qr_scan", "ios": "https://dc.lft.to/lastmile_qr_scan"}, "fusion_lon": 0.0}, {"lat": 38.956152, "is_disabled": 0, "type": "electric_scooter", "lon": -77.02787683333334, "bike_id": "88df7b9829017772b8bed925296d6e4f", "fusion_lat": 0.0, "name": "88df7b9829017772b8bed925296d6e4f", "is_reserved": 0, "rental_uris": {"android": "https://dc.lft.to/lastmile_qr_scan", "ios": "https://dc.lft.to/lastmile_qr_scan"}, "fusion_lon": 0.0}, {"lat": 39.00014183333333, "is_disabled": 0, "type": "electric_bike", "lon": -76.91081816666667, "bike_id": "19e0d1ebf5367c610a7ef14d47a0168e", "fusion_lat": 0.0, "name": "19e0d1ebf5367c610a7ef14d47a0168e", "is_reserved": 0, "rental_uris": {"android": "https://dc.lft.to/lastmile_qr_scan", "ios": "https://dc.lft.to/lastmile_qr_scan"}, "fusion_lon": 0.0}, {"lat": 38.90376283333333, "is_disabled": 0, "type": "electric_scooter", "lon": -77.03844516666666, "bike_id": "3996376a7c018a441eee47e82608b19e", "fusion_lat": 0.0, "name": "3996376a7c018a441eee47e82608b19e", "is_reserved": 0, "rental_uris": {"android": "https://dc.lft.to/lastmile_qr_scan", "ios": "https://dc.lft.to/lastmile_qr_scan"}, "fusion_lon": 0.0}, {"lat": 38.866506, "is_disabled": 0, "type": "electric_scooter", "lon": -76.988892, "bike_id": "1b409c035a992320ffe40c29c5321bb4", "fusion_lat": 0.0, "name": "1b409c035a992320ffe40c29c5321bb4", "is_reserved": 0, "rental_uris": {"android": "https://dc.lft.to/lastmile_qr_scan", "ios": "https://dc.lft.to/lastmile_qr_scan"}, "fusion_lon": 0.0}, {"lat": 38.91113166666667, "is_disabled": 0, "type": "electric_scooter", "lon": -77.045065, "bike_id": "a9d4aa3f3179e256d4da7c1a2028aa90", "fusion_lat": 0.0, "name": "a9d4aa3f3179e256d4da7c1a2028aa90", "is_reserved": 0, "rental_uris": {"android": "https://dc.lft.to/lastmile_qr_scan", "ios": "https://dc.lft.to/lastmile_qr_scan"}, "fusion_lon": 0.0}, {"lat": 38.90389033333334, "is_disabled": 0, "type": "electric_scooter", "lon": -77.02172733333333, "bike_id": "6d2cbcf12f7c084c77e5a63f51f92e82", "fusion_lat": 0.0, "name": "6d2cbcf12f7c084c77e5a63f51f92e82", "is_reserved": 0, "rental_uris": {"android": "https://dc.lft.to/lastmile_qr_scan", "ios": "https://dc.lft.to/lastmile_qr_scan"}, "fusion_lon": 0.0}, {"lat": 38.929688166666665, "is_disabled": 0, "type": "electric_scooter", "lon": -77.031767, "bike_id": "1f8f89afc2d07e749a18fc7994a046ee", "fusion_lat": 0.0, "name": "1f8f89afc2d07e749a18fc7994a046ee", "is_reserved": 0, "rental_uris": {"android": "https://dc.lft.to/lastmile_qr_scan", "ios": "https://dc.lft.to/lastmile_qr_scan"}, "fusion_lon": 0.0}, {"lat": 38.93842883333333, "is_disabled": 0, "type": "electric_scooter", "lon": -77.025637, "bike_id": "5d4302ace25b6fd74467953a43ff00b9", "fusion_lat": 0.0, "name": "5d4302ace25b6fd74467953a43ff00b9", "is_reserved": 0, "rental_uris": {"android": "https://dc.lft.to/lastmile_qr_scan", "ios": "https://dc.lft.to/lastmile_qr_scan"}, "fusion_lon": 0.0}, {"lat": 38.938323833333335, "is_disabled": 0, "type": "electric_bike", "lon": -77.02646083333333, "bike_id": "533d575871f35d98c3f4be8e013b731c", "fusion_lat": 0.0, "name": "533d575871f35d98c3f4be8e013b731c", "is_reserved": 0, "rental_uris": {"android": "https://dc.lft.to/lastmile_qr_scan", "ios": "https://dc.lft.to/lastmile_qr_scan"}, "fusion_lon": 0.0}, {"lat": 38.85695233333333, "is_disabled": 0, "type": "electric_scooter", "lon": -76.9816255, "bike_id": "d4f8a36f11bf061990cf343a985c3427", "fusion_lat": 0.0, "name": "d4f8a36f11bf061990cf343a985c3427", "is_reserved": 0, "rental_uris": {"android": "https://dc.lft.to/lastmile_qr_scan", "ios": "https://dc.lft.to/lastmile_qr_scan"}, "fusion_lon": 0.0}, {"lat": 38.88998633333333, "is_disabled": 0, "type": "electric_scooter", "lon": -76.95569516666667, "bike_id": "a38370313cc35c1014c45a884c26b363", "fusion_lat": 0.0, "name": "a38370313cc35c1014c45a884c26b363", "is_reserved": 0, "rental_uris": {"android": "https://dc.lft.to/lastmile_qr_scan", "ios": "https://dc.lft.to/lastmile_qr_scan"}, "fusion_lon": 0.0}, {"lat": 38.89905183333333, "is_disabled": 0, "type": "electric_scooter", "lon": -76.98202433333333, "bike_id": "0a64c23604a57f7b31059dc9ddfe8f03", "fusion_lat": 0.0, "name": "0a64c23604a57f7b31059dc9ddfe8f03", "is_reserved": 0, "rental_uris": {"android": "https://dc.lft.to/lastmile_qr_scan", "ios": "https://dc.lft.to/lastmile_qr_scan"}, "fusion_lon": 0.0}, {"lat": 38.934245833333335, "is_disabled": 0, "type": "electric_scooter", "lon": -77.04142116666667, "bike_id": "600f5195eb4eb62b246c6412baecb477", "fusion_lat": 0.0, "name": "600f5195eb4eb62b246c6412baecb477", "is_reserved": 0, "rental_uris": {"android": "https://dc.lft.to/lastmile_qr_scan", "ios": "https://dc.lft.to/lastmile_qr_scan"}, "fusion_lon": 0.0}, {"lat": 38.905754333333334, "is_disabled": 0, "type": "electric_scooter", "lon": -77.06264, "bike_id": "6f7eddb16e9b65f5c4bce183c4d0a58c", "fusion_lat": 0.0, "name": "6f7eddb16e9b65f5c4bce183c4d0a58c", "is_reserved": 0, "rental_uris": {"android": "https://dc.lft.to/lastmile_qr_scan", "ios": "https://dc.lft.to/lastmile_qr_scan"}, "fusion_lon": 0.0}, {"lat": 38.897399166666666, "is_disabled": 0, "type": "electric_scooter", "lon": -77.007515, "bike_id": "1fc0248faf229407fae08b5a336ede65", "fusion_lat": 0.0, "name": "1fc0248faf229407fae08b5a336ede65", "is_reserved": 0, "rental_uris": {"android": "https://dc.lft.to/lastmile_qr_scan", "ios": "https://dc.lft.to/lastmile_qr_scan"}, "fusion_lon": 0.0}, {"lat": 38.90686183333333, "is_disabled": 0, "type": "electric_scooter", "lon": -77.07193616666666, "bike_id": "531927a6d8dfccf06603e55be42a63b1", "fusion_lat": 0.0, "name": "531927a6d8dfccf06603e55be42a63b1", "is_reserved": 0, "rental_uris": {"android": "https://dc.lft.to/lastmile_qr_scan", "ios": "https://dc.lft.to/lastmile_qr_scan"}, "fusion_lon": 0.0}, {"lat": 38.8373165, "is_disabled": 0, "type": "electric_bike", "lon": -76.99746066666667, "bike_id": "a74cf80d247e254a538cdec79729585c", "fusion_lat": 0.0, "name": "a74cf80d247e254a538cdec79729585c", "is_reserved": 0, "rental_uris": {"android": "https://dc.lft.to/lastmile_qr_scan", "ios": "https://dc.lft.to/lastmile_qr_scan"}, "fusion_lon": 0.0}, {"lat": 38.90263383333333, "is_disabled": 0, "type": "electric_scooter", "lon": -77.04367783333333, "bike_id": "e68dfb6ca30318697ab0675b07564081", "fusion_lat": 0.0, "name": "e68dfb6ca30318697ab0675b07564081", "is_reserved": 0, "rental_uris": {"android": "https://dc.lft.to/lastmile_qr_scan", "ios": "https://dc.lft.to/lastmile_qr_scan"}, "fusion_lon": 0.0}, {"lat": 38.85525483333333, "is_disabled": 0, "type": "electric_bike", "lon": -76.98433916666667, "bike_id": "fc5d6a7d24fbdfd698fa340397481b58", "fusion_lat": 0.0, "name": "fc5d6a7d24fbdfd698fa340397481b58", "is_reserved": 0, "rental_uris": {"android": "https://dc.lft.to/lastmile_qr_scan", "ios": "https://dc.lft.to/lastmile_qr_scan"}, "fusion_lon": 0.0}, {"lat": 38.842797, "is_disabled": 0, "type": "electric_bike", "lon": -76.988492, "bike_id": "808d92c76a3af2c1d9d4f61409d5d0b3", "fusion_lat": 0.0, "name": "808d92c76a3af2c1d9d4f61409d5d0b3", "is_reserved": 0, "rental_uris": {"android": "https://dc.lft.to/lastmile_qr_scan", "ios": "https://dc.lft.to/lastmile_qr_scan"}, "fusion_lon": 0.0}, {"lat": 38.900445500000004, "is_disabled": 0, "type": "electric_scooter", "lon": -76.988354, "bike_id": "a71b6dca221f89c53004b0c91d6b3101", "fusion_lat": 0.0, "name": "a71b6dca221f89c53004b0c91d6b3101", "is_reserved": 0, "rental_uris": {"android": "https://dc.lft.to/lastmile_qr_scan", "ios": "https://dc.lft.to/lastmile_qr_scan"}, "fusion_lon": 0.0}, {"lat": 38.91476466666667, "is_disabled": 0, "type": "electric_scooter", "lon": -77.0035805, "bike_id": "6ad743567ba9c119ea8e6e28275d4f83", "fusion_lat": 0.0, "name": "6ad743567ba9c119ea8e6e28275d4f83", "is_reserved": 0, "rental_uris": {"android": "https://dc.lft.to/lastmile_qr_scan", "ios": "https://dc.lft.to/lastmile_qr_scan"}, "fusion_lon": 0.0}, {"lat": 38.90366566666667, "is_disabled": 0, "type": "electric_scooter", "lon": -77.04014, "bike_id": "8d7a459e5716823056d3cb7356a7dbbe", "fusion_lat": 0.0, "name": "8d7a459e5716823056d3cb7356a7dbbe", "is_reserved": 0, "rental_uris": {"android": "https://dc.lft.to/lastmile_qr_scan", "ios": "https://dc.lft.to/lastmile_qr_scan"}, "fusion_lon": 0.0}, {"lat": 38.90428633333333, "is_disabled": 0, "type": "electric_scooter", "lon": -77.05322066666666, "bike_id": "35e3dd3046bc1910ae9e7fedfcd53883", "fusion_lat": 0.0, "name": "35e3dd3046bc1910ae9e7fedfcd53883", "is_reserved": 0, "rental_uris": {"android": "https://dc.lft.to/lastmile_qr_scan", "ios": "https://dc.lft.to/lastmile_qr_scan"}, "fusion_lon": 0.0}, {"lat": 38.916975, "is_disabled": 0, "type": "electric_scooter", "lon": -77.02278183333334, "bike_id": "e6973499fdb1969accd54ea182ed7eeb", "fusion_lat": 0.0, "name": "e6973499fdb1969accd54ea182ed7eeb", "is_reserved": 0, "rental_uris": {"android": "https://dc.lft.to/lastmile_qr_scan", "ios": "https://dc.lft.to/lastmile_qr_scan"}, "fusion_lon": 0.0}, {"lat": 38.900483666666666, "is_disabled": 0, "type": "electric_scooter", "lon": -77.00202333333333, "bike_id": "5b15d60562137c89ae6df3ccb8b4d43e", "fusion_lat": 0.0, "name": "5b15d60562137c89ae6df3ccb8b4d43e", "is_reserved": 0, "rental_uris": {"android": "https://dc.lft.to/lastmile_qr_scan", "ios": "https://dc.lft.to/lastmile_qr_scan"}, "fusion_lon": 0.0}, {"lat": 38.91316883333333, "is_disabled": 0, "type": "electric_scooter", "lon": -77.03650583333334, "bike_id": "793f72d2d82792819c93f78ed4a2cf7d", "fusion_lat": 0.0, "name": "793f72d2d82792819c93f78ed4a2cf7d", "is_reserved": 0, "rental_uris": {"android": "https://dc.lft.to/lastmile_qr_scan", "ios": "https://dc.lft.to/lastmile_qr_scan"}, "fusion_lon": 0.0}, {"lat": 38.957123833333334, "is_disabled": 0, "type": "electric_scooter", "lon": -77.070844, "bike_id": "13e17ac83cd44205f6cab85d3732e035", "fusion_lat": 0.0, "name": "13e17ac83cd44205f6cab85d3732e035", "is_reserved": 0, "rental_uris": {"android": "https://dc.lft.to/lastmile_qr_scan", "ios": "https://dc.lft.to/lastmile_qr_scan"}, "fusion_lon": 0.0}, {"lat": 38.9246445, "is_disabled": 0, "type": "electric_scooter", "lon": -77.052349, "bike_id": "d3a837ce77a979b0b293120c3ea956e3", "fusion_lat": 0.0, "name": "d3a837ce77a979b0b293120c3ea956e3", "is_reserved": 0, "rental_uris": {"android": "https://dc.lft.to/lastmile_qr_scan", "ios": "https://dc.lft.to/lastmile_qr_scan"}, "fusion_lon": 0.0}, {"lat": 38.90165366666667, "is_disabled": 0, "type": "electric_scooter", "lon": -76.98631966666667, "bike_id": "cb4563787efe705eefb885fa665b8718", "fusion_lat": 0.0, "name": "cb4563787efe705eefb885fa665b8718", "is_reserved": 0, "rental_uris": {"android": "https://dc.lft.to/lastmile_qr_scan", "ios": "https://dc.lft.to/lastmile_qr_scan"}, "fusion_lon": 0.0}, {"lat": 38.86629816666667, "is_disabled": 0, "type": "electric_scooter", "lon": -76.98716616666667, "bike_id": "fc43d2ba8a93bf485bda0178af822a5c", "fusion_lat": 0.0, "name": "fc43d2ba8a93bf485bda0178af822a5c", "is_reserved": 0, "rental_uris": {"android": "https://dc.lft.to/lastmile_qr_scan", "ios": "https://dc.lft.to/lastmile_qr_scan"}, "fusion_lon": 0.0}, {"lat": 38.8924605, "is_disabled": 0, "type": "electric_scooter", "lon": -77.02815316666667, "bike_id": "385abbb94b4c375edd5d70131064d834", "fusion_lat": 0.0, "name": "385abbb94b4c375edd5d70131064d834", "is_reserved": 0, "rental_uris": {"android": "https://dc.lft.to/lastmile_qr_scan", "ios": "https://dc.lft.to/lastmile_qr_scan"}, "fusion_lon": 0.0}, {"lat": 38.885192, "is_disabled": 0, "type": "electric_scooter", "lon": -77.0027335, "bike_id": "853993f1e01b1391aa92336918ac159e", "fusion_lat": 0.0, "name": "853993f1e01b1391aa92336918ac159e", "is_reserved": 0, "rental_uris": {"android": "https://dc.lft.to/lastmile_qr_scan", "ios": "https://dc.lft.to/lastmile_qr_scan"}, "fusion_lon": 0.0}, {"lat": 38.91697083333333, "is_disabled": 0, "type": "electric_scooter", "lon": -77.03730933333334, "bike_id": "c21e43702508ad38950bf708607ec136", "fusion_lat": 0.0, "name": "c21e43702508ad38950bf708607ec136", "is_reserved": 0, "rental_uris": {"android": "https://dc.lft.to/lastmile_qr_scan", "ios": "https://dc.lft.to/lastmile_qr_scan"}, "fusion_lon": 0.0}, {"lat": 38.89780916666667, "is_disabled": 0, "type": "electric_bike", "lon": -76.90442716666666, "bike_id": "d60300ef4d2464b1d06448841e4d0a77", "fusion_lat": 0.0, "name": "d60300ef4d2464b1d06448841e4d0a77", "is_reserved": 0, "rental_uris": {"android": "https://dc.lft.to/lastmile_qr_scan", "ios": "https://dc.lft.to/lastmile_qr_scan"}, "fusion_lon": 0.0}, {"lat": 38.95406883333333, "is_disabled": 0, "type": "electric_scooter", "lon": -77.02749666666666, "bike_id": "9cfb57cb376713d76d73a37db50f3ec9", "fusion_lat": 0.0, "name": "9cfb57cb376713d76d73a37db50f3ec9", "is_reserved": 0, "rental_uris": {"android": "https://dc.lft.to/lastmile_qr_scan", "ios": "https://dc.lft.to/lastmile_qr_scan"}, "fusion_lon": 0.0}, {"lat": 38.9334775, "is_disabled": 0, "type": "electric_scooter", "lon": -77.02396266666666, "bike_id": "4ddbfa7ce9dc66101aa82af36d52f472", "fusion_lat": 0.0, "name": "4ddbfa7ce9dc66101aa82af36d52f472", "is_reserved": 0, "rental_uris": {"android": "https://dc.lft.to/lastmile_qr_scan", "ios": "https://dc.lft.to/lastmile_qr_scan"}, "fusion_lon": 0.0}, {"lat": 38.90352633333333, "is_disabled": 0, "type": "electric_scooter", "lon": -77.025196, "bike_id": "fb91173f8fbce63633b4b4c65d1c3545", "fusion_lat": 0.0, "name": "fb91173f8fbce63633b4b4c65d1c3545", "is_reserved": 0, "rental_uris": {"android": "https://dc.lft.to/lastmile_qr_scan", "ios": "https://dc.lft.to/lastmile_qr_scan"}, "fusion_lon": 0.0}, {"lat": 38.909731, "is_disabled": 0, "type": "electric_scooter", "lon": -77.0405185, "bike_id": "9b0605f647abfd1768fc4815a8c7a8c3", "fusion_lat": 0.0, "name": "9b0605f647abfd1768fc4815a8c7a8c3", "is_reserved": 0, "rental_uris": {"android": "https://dc.lft.to/lastmile_qr_scan", "ios": "https://dc.lft.to/lastmile_qr_scan"}, "fusion_lon": 0.0}, {"lat": 38.80268433333333, "is_disabled": 0, "type": "electric_bike", "lon": -77.08112616666666, "bike_id": "640e42bf86cce0314385b56769d698e0", "fusion_lat": 0.0, "name": "640e42bf86cce0314385b56769d698e0", "is_reserved": 0, "rental_uris": {"android": "https://dc.lft.to/lastmile_qr_scan", "ios": "https://dc.lft.to/lastmile_qr_scan"}, "fusion_lon": 0.0}, {"lat": 38.928726, "is_disabled": 0, "type": "electric_scooter", "lon": -77.03221333333333, "bike_id": "699304472f73e22beb0c6647de067573", "fusion_lat": 0.0, "name": "699304472f73e22beb0c6647de067573", "is_reserved": 0, "rental_uris": {"android": "https://dc.lft.to/lastmile_qr_scan", "ios": "https://dc.lft.to/lastmile_qr_scan"}, "fusion_lon": 0.0}, {"lat": 38.92357, "is_disabled": 0, "type": "electric_scooter", "lon": -77.02449283333333, "bike_id": "814ecce034a89a339cb7edb654f8a631", "fusion_lat": 0.0, "name": "814ecce034a89a339cb7edb654f8a631", "is_reserved": 0, "rental_uris": {"android": "https://dc.lft.to/lastmile_qr_scan", "ios": "https://dc.lft.to/lastmile_qr_scan"}, "fusion_lon": 0.0}, {"lat": 38.900536333333335, "is_disabled": 0, "type": "electric_scooter", "lon": -77.03190116666667, "bike_id": "50c16dd58d45a5f74442f58e7af51dfd", "fusion_lat": 0.0, "name": "50c16dd58d45a5f74442f58e7af51dfd", "is_reserved": 0, "rental_uris": {"android": "https://dc.lft.to/lastmile_qr_scan", "ios": "https://dc.lft.to/lastmile_qr_scan"}, "fusion_lon": 0.0}, {"lat": 38.91713683333333, "is_disabled": 0, "type": "electric_scooter", "lon": -77.03495233333334, "bike_id": "a7b5be1b52524346b35f2f034104d9f5", "fusion_lat": 0.0, "name": "a7b5be1b52524346b35f2f034104d9f5", "is_reserved": 0, "rental_uris": {"android": "https://dc.lft.to/lastmile_qr_scan", "ios": "https://dc.lft.to/lastmile_qr_scan"}, "fusion_lon": 0.0}, {"lat": 38.90780216666667, "is_disabled": 0, "type": "electric_scooter", "lon": -77.064044, "bike_id": "7317a9a25f3c9c59ac01236249bd08da", "fusion_lat": 0.0, "name": "7317a9a25f3c9c59ac01236249bd08da", "is_reserved": 0, "rental_uris": {"android": "https://dc.lft.to/lastmile_qr_scan", "ios": "https://dc.lft.to/lastmile_qr_scan"}, "fusion_lon": 0.0}, {"lat": 38.91469, "is_disabled": 0, "type": "electric_scooter", "lon": -77.0218335, "bike_id": "9f20f89f26b1f13b7c2649409eec89b2", "fusion_lat": 0.0, "name": "9f20f89f26b1f13b7c2649409eec89b2", "is_reserved": 0, "rental_uris": {"android": "https://dc.lft.to/lastmile_qr_scan", "ios": "https://dc.lft.to/lastmile_qr_scan"}, "fusion_lon": 0.0}, {"lat": 38.92103433333333, "is_disabled": 0, "type": "electric_scooter", "lon": -77.02515583333333, "bike_id": "9f5120e4d30fac36977a8e01279714a5", "fusion_lat": 0.0, "name": "9f5120e4d30fac36977a8e01279714a5", "is_reserved": 0, "rental_uris": {"android": "https://dc.lft.to/lastmile_qr_scan", "ios": "https://dc.lft.to/lastmile_qr_scan"}, "fusion_lon": 0.0}, {"lat": 38.928021666666666, "is_disabled": 0, "type": "electric_scooter", "lon": -77.04312416666667, "bike_id": "3c2c1dff4f6638c28d105e3e43f3ed2a", "fusion_lat": 0.0, "name": "3c2c1dff4f6638c28d105e3e43f3ed2a", "is_reserved": 0, "rental_uris": {"android": "https://dc.lft.to/lastmile_qr_scan", "ios": "https://dc.lft.to/lastmile_qr_scan"}, "fusion_lon": 0.0}, {"lat": 38.9172775, "is_disabled": 0, "type": "electric_scooter", "lon": -77.02709083333333, "bike_id": "d23093eaefbc5304504c2cc7e6407de4", "fusion_lat": 0.0, "name": "d23093eaefbc5304504c2cc7e6407de4", "is_reserved": 0, "rental_uris": {"android": "https://dc.lft.to/lastmile_qr_scan", "ios": "https://dc.lft.to/lastmile_qr_scan"}, "fusion_lon": 0.0}, {"lat": 38.855139333333334, "is_disabled": 0, "type": "electric_bike", "lon": -77.12043033333333, "bike_id": "b07948faac7bf4dc68496c1065320f58", "fusion_lat": 0.0, "name": "b07948faac7bf4dc68496c1065320f58", "is_reserved": 0, "rental_uris": {"android": "https://dc.lft.to/lastmile_qr_scan", "ios": "https://dc.lft.to/lastmile_qr_scan"}, "fusion_lon": 0.0}, {"lat": 38.90977933333333, "is_disabled": 0, "type": "electric_scooter", "lon": -77.02392733333333, "bike_id": "b4bcaa6479ad05d42367400bf756065a", "fusion_lat": 0.0, "name": "b4bcaa6479ad05d42367400bf756065a", "is_reserved": 0, "rental_uris": {"android": "https://dc.lft.to/lastmile_qr_scan", "ios": "https://dc.lft.to/lastmile_qr_scan"}, "fusion_lon": 0.0}, {"lat": 38.908749666666665, "is_disabled": 0, "type": "electric_scooter", "lon": -77.06671616666667, "bike_id": "951563ba494153bb56bcd4dfec7729d4", "fusion_lat": 0.0, "name": "951563ba494153bb56bcd4dfec7729d4", "is_reserved": 0, "rental_uris": {"android": "https://dc.lft.to/lastmile_qr_scan", "ios": "https://dc.lft.to/lastmile_qr_scan"}, "fusion_lon": 0.0}, {"lat": 38.91716983333333, "is_disabled": 0, "type": "electric_scooter", "lon": -77.0259095, "bike_id": "d1bd8f2119138a41e71dde9e5ab3be4e", "fusion_lat": 0.0, "name": "d1bd8f2119138a41e71dde9e5ab3be4e", "is_reserved": 0, "rental_uris": {"android": "https://dc.lft.to/lastmile_qr_scan", "ios": "https://dc.lft.to/lastmile_qr_scan"}, "fusion_lon": 0.0}, {"lat": 38.90543233333333, "is_disabled": 0, "type": "electric_scooter", "lon": -77.02216333333334, "bike_id": "173053d954623a80df3e996fb86aa3f3", "fusion_lat": 0.0, "name": "173053d954623a80df3e996fb86aa3f3", "is_reserved": 0, "rental_uris": {"android": "https://dc.lft.to/lastmile_qr_scan", "ios": "https://dc.lft.to/lastmile_qr_scan"}, "fusion_lon": 0.0}, {"lat": 38.959272166666665, "is_disabled": 0, "type": "electric_bike", "lon": -77.03121166666666, "bike_id": "4e7e03dabdc15934fe0ed6d0084b3e2c", "fusion_lat": 0.0, "name": "4e7e03dabdc15934fe0ed6d0084b3e2c", "is_reserved": 0, "rental_uris": {"android": "https://dc.lft.to/lastmile_qr_scan", "ios": "https://dc.lft.to/lastmile_qr_scan"}, "fusion_lon": 0.0}, {"lat": 38.89956183333334, "is_disabled": 0, "type": "electric_bike", "lon": -77.05527166666667, "bike_id": "ee6838d7e2c334e6143fde56923504f0", "fusion_lat": 0.0, "name": "ee6838d7e2c334e6143fde56923504f0", "is_reserved": 0, "rental_uris": {"android": "https://dc.lft.to/lastmile_qr_scan", "ios": "https://dc.lft.to/lastmile_qr_scan"}, "fusion_lon": 0.0}, {"lat": 38.87638333333334, "is_disabled": 0, "type": "electric_scooter", "lon": -76.9932085, "bike_id": "070703f2b1ef02af8f456722ca72570f", "fusion_lat": 0.0, "name": "070703f2b1ef02af8f456722ca72570f", "is_reserved": 0, "rental_uris": {"android": "https://dc.lft.to/lastmile_qr_scan", "ios": "https://dc.lft.to/lastmile_qr_scan"}, "fusion_lon": 0.0}, {"lat": 38.917792, "is_disabled": 0, "type": "electric_scooter", "lon": -77.02886383333333, "bike_id": "8c5760e8e7d7368b7748b3e4845162fb", "fusion_lat": 0.0, "name": "8c5760e8e7d7368b7748b3e4845162fb", "is_reserved": 0, "rental_uris": {"android": "https://dc.lft.to/lastmile_qr_scan", "ios": "https://dc.lft.to/lastmile_qr_scan"}, "fusion_lon": 0.0}, {"lat": 38.9260705, "is_disabled": 0, "type": "electric_scooter", "lon": -77.02443266666667, "bike_id": "b1fe3dfb0f84be51499e618831bae686", "fusion_lat": 0.0, "name": "b1fe3dfb0f84be51499e618831bae686", "is_reserved": 0, "rental_uris": {"android": "https://dc.lft.to/lastmile_qr_scan", "ios": "https://dc.lft.to/lastmile_qr_scan"}, "fusion_lon": 0.0}, {"lat": 38.88200616666666, "is_disabled": 0, "type": "electric_scooter", "lon": -76.99503933333334, "bike_id": "7fe05908f7089b4170261ff0afcd257f", "fusion_lat": 0.0, "name": "7fe05908f7089b4170261ff0afcd257f", "is_reserved": 0, "rental_uris": {"android": "https://dc.lft.to/lastmile_qr_scan", "ios": "https://dc.lft.to/lastmile_qr_scan"}, "fusion_lon": 0.0}, {"lat": 38.9164085, "is_disabled": 0, "type": "electric_scooter", "lon": -77.046168, "bike_id": "8621cce9c1053e8caa616b2b1e8fdcb6", "fusion_lat": 0.0, "name": "8621cce9c1053e8caa616b2b1e8fdcb6", "is_reserved": 0, "rental_uris": {"android": "https://dc.lft.to/lastmile_qr_scan", "ios": "https://dc.lft.to/lastmile_qr_scan"}, "fusion_lon": 0.0}, {"lat": 38.89262133333333, "is_disabled": 0, "type": "electric_scooter", "lon": -77.0258805, "bike_id": "d221cc15c1bb7a97f4b2ad13c94c6a94", "fusion_lat": 0.0, "name": "d221cc15c1bb7a97f4b2ad13c94c6a94", "is_reserved": 0, "rental_uris": {"android": "https://dc.lft.to/lastmile_qr_scan", "ios": "https://dc.lft.to/lastmile_qr_scan"}, "fusion_lon": 0.0}, {"lat": 38.90253366666666, "is_disabled": 0, "type": "electric_scooter", "lon": -77.04360833333334, "bike_id": "05e3e2d5cb269510368e4930ea576d73", "fusion_lat": 0.0, "name": "05e3e2d5cb269510368e4930ea576d73", "is_reserved": 0, "rental_uris": {"android": "https://dc.lft.to/lastmile_qr_scan", "ios": "https://dc.lft.to/lastmile_qr_scan"}, "fusion_lon": 0.0}, {"lat": 38.92306166666667, "is_disabled": 0, "type": "electric_bike", "lon": -77.023502, "bike_id": "820ded35cf78d671a3e88a4c92e77f23", "fusion_lat": 0.0, "name": "820ded35cf78d671a3e88a4c92e77f23", "is_reserved": 0, "rental_uris": {"android": "https://dc.lft.to/lastmile_qr_scan", "ios": "https://dc.lft.to/lastmile_qr_scan"}, "fusion_lon": 0.0}, {"lat": 38.928567666666666, "is_disabled": 0, "type": "electric_bike", "lon": -77.22216033333333, "bike_id": "2807bf7a1c395d3cfdf9409eecb9a05a", "fusion_lat": 0.0, "name": "2807bf7a1c395d3cfdf9409eecb9a05a", "is_reserved": 0, "rental_uris": {"android": "https://dc.lft.to/lastmile_qr_scan", "ios": "https://dc.lft.to/lastmile_qr_scan"}, "fusion_lon": 0.0}, {"lat": 39.088592166666665, "is_disabled": 0, "type": "electric_bike", "lon": -77.17842066666667, "bike_id": "6c748a226c6d2a237f3710bf1874805b", "fusion_lat": 0.0, "name": "6c748a226c6d2a237f3710bf1874805b", "is_reserved": 0, "rental_uris": {"android": "https://dc.lft.to/lastmile_qr_scan", "ios": "https://dc.lft.to/lastmile_qr_scan"}, "fusion_lon": 0.0}, {"lat": 38.8960695, "is_disabled": 0, "type": "electric_scooter", "lon": -77.02914716666666, "bike_id": "8a6157fea0dee66733fab72757a2a1ff", "fusion_lat": 0.0, "name": "8a6157fea0dee66733fab72757a2a1ff", "is_reserved": 0, "rental_uris": {"android": "https://dc.lft.to/lastmile_qr_scan", "ios": "https://dc.lft.to/lastmile_qr_scan"}, "fusion_lon": 0.0}, {"lat": 38.907777, "is_disabled": 0, "type": "electric_scooter", "lon": -77.06927333333333, "bike_id": "db0b710f58f6550e109f6609ed0a6352", "fusion_lat": 0.0, "name": "db0b710f58f6550e109f6609ed0a6352", "is_reserved": 0, "rental_uris": {"android": "https://dc.lft.to/lastmile_qr_scan", "ios": "https://dc.lft.to/lastmile_qr_scan"}, "fusion_lon": 0.0}, {"lat": 38.91177883333334, "is_disabled": 0, "type": "electric_scooter", "lon": -77.0386905, "bike_id": "bbf7f4ff9493afb2536337b2903945d2", "fusion_lat": 0.0, "name": "bbf7f4ff9493afb2536337b2903945d2", "is_reserved": 0, "rental_uris": {"android": "https://dc.lft.to/lastmile_qr_scan", "ios": "https://dc.lft.to/lastmile_qr_scan"}, "fusion_lon": 0.0}, {"lat": 38.9195995, "is_disabled": 0, "type": "electric_scooter", "lon": -77.02491583333334, "bike_id": "5cc58a7b615a73aa4bbdacf5c3c40fa4", "fusion_lat": 0.0, "name": "5cc58a7b615a73aa4bbdacf5c3c40fa4", "is_reserved": 0, "rental_uris": {"android": "https://dc.lft.to/lastmile_qr_scan", "ios": "https://dc.lft.to/lastmile_qr_scan"}, "fusion_lon": 0.0}, {"lat": 38.9334915, "is_disabled": 0, "type": "electric_scooter", "lon": -77.058661, "bike_id": "e897db44c94ba03002cf35dc2791d15c", "fusion_lat": 0.0, "name": "e897db44c94ba03002cf35dc2791d15c", "is_reserved": 0, "rental_uris": {"android": "https://dc.lft.to/lastmile_qr_scan", "ios": "https://dc.lft.to/lastmile_qr_scan"}, "fusion_lon": 0.0}, {"lat": 38.89714016666667, "is_disabled": 0, "type": "electric_scooter", "lon": -77.00722216666666, "bike_id": "aba0b00d0802a4a32d111b258eafda5d", "fusion_lat": 0.0, "name": "aba0b00d0802a4a32d111b258eafda5d", "is_reserved": 0, "rental_uris": {"android": "https://dc.lft.to/lastmile_qr_scan", "ios": "https://dc.lft.to/lastmile_qr_scan"}, "fusion_lon": 0.0}, {"lat": 38.9171695, "is_disabled": 0, "type": "electric_scooter", "lon": -77.038595, "bike_id": "d0ee1a5d353e48492b24f4ebdbe8595c", "fusion_lat": 0.0, "name": "d0ee1a5d353e48492b24f4ebdbe8595c", "is_reserved": 0, "rental_uris": {"android": "https://dc.lft.to/lastmile_qr_scan", "ios": "https://dc.lft.to/lastmile_qr_scan"}, "fusion_lon": 0.0}, {"lat": 38.923131833333336, "is_disabled": 0, "type": "electric_scooter", "lon": -77.03964283333333, "bike_id": "a8b3ebecfa114c6721735d27c7648800", "fusion_lat": 0.0, "name": "a8b3ebecfa114c6721735d27c7648800", "is_reserved": 0, "rental_uris": {"android": "https://dc.lft.to/lastmile_qr_scan", "ios": "https://dc.lft.to/lastmile_qr_scan"}, "fusion_lon": 0.0}, {"lat": 38.86655316666667, "is_disabled": 0, "type": "electric_scooter", "lon": -76.988899, "bike_id": "8b7a562e09e89f5013670a2fb85e814a", "fusion_lat": 0.0, "name": "8b7a562e09e89f5013670a2fb85e814a", "is_reserved": 0, "rental_uris": {"android": "https://dc.lft.to/lastmile_qr_scan", "ios": "https://dc.lft.to/lastmile_qr_scan"}, "fusion_lon": 0.0}, {"lat": 38.924873, "is_disabled": 0, "type": "electric_scooter", "lon": -77.052141, "bike_id": "118ef30b643eb544a01c9156edf87b1a", "fusion_lat": 0.0, "name": "118ef30b643eb544a01c9156edf87b1a", "is_reserved": 0, "rental_uris": {"android": "https://dc.lft.to/lastmile_qr_scan", "ios": "https://dc.lft.to/lastmile_qr_scan"}, "fusion_lon": 0.0}, {"lat": 38.905746, "is_disabled": 0, "type": "electric_scooter", "lon": -76.988746, "bike_id": "3bac4891438c541bef380e45b0e7889b", "fusion_lat": 0.0, "name": "3bac4891438c541bef380e45b0e7889b", "is_reserved": 0, "rental_uris": {"android": "https://dc.lft.to/lastmile_qr_scan", "ios": "https://dc.lft.to/lastmile_qr_scan"}, "fusion_lon": 0.0}, {"lat": 38.916701, "is_disabled": 0, "type": "electric_scooter", "lon": -77.00664233333333, "bike_id": "02fb9183715a0d9aa68f13ce9be149b4", "fusion_lat": 0.0, "name": "02fb9183715a0d9aa68f13ce9be149b4", "is_reserved": 0, "rental_uris": {"android": "https://dc.lft.to/lastmile_qr_scan", "ios": "https://dc.lft.to/lastmile_qr_scan"}, "fusion_lon": 0.0}, {"lat": 38.92154333333333, "is_disabled": 0, "type": "electric_scooter", "lon": -77.0350595, "bike_id": "77be1b746a6a8f12280a23d9ce352b78", "fusion_lat": 0.0, "name": "77be1b746a6a8f12280a23d9ce352b78", "is_reserved": 0, "rental_uris": {"android": "https://dc.lft.to/lastmile_qr_scan", "ios": "https://dc.lft.to/lastmile_qr_scan"}, "fusion_lon": 0.0}, {"lat": 38.842916833333334, "is_disabled": 0, "type": "electric_scooter", "lon": -76.9994605, "bike_id": "da94b652dadf5272b0b5f6b1f45cb06e", "fusion_lat": 0.0, "name": "da94b652dadf5272b0b5f6b1f45cb06e", "is_reserved": 0, "rental_uris": {"android": "https://dc.lft.to/lastmile_qr_scan", "ios": "https://dc.lft.to/lastmile_qr_scan"}, "fusion_lon": 0.0}, {"lat": 38.92191916666667, "is_disabled": 0, "type": "electric_scooter", "lon": -76.99624216666666, "bike_id": "24c6eb5b9a85e7720c42be37954c96e1", "fusion_lat": 0.0, "name": "24c6eb5b9a85e7720c42be37954c96e1", "is_reserved": 0, "rental_uris": {"android": "https://dc.lft.to/lastmile_qr_scan", "ios": "https://dc.lft.to/lastmile_qr_scan"}, "fusion_lon": 0.0}, {"lat": 38.925294, "is_disabled": 0, "type": "electric_scooter", "lon": -77.00756916666667, "bike_id": "3f4f16fd53c505ef7a71972e6e56131d", "fusion_lat": 0.0, "name": "3f4f16fd53c505ef7a71972e6e56131d", "is_reserved": 0, "rental_uris": {"android": "https://dc.lft.to/lastmile_qr_scan", "ios": "https://dc.lft.to/lastmile_qr_scan"}, "fusion_lon": 0.0}, {"lat": 38.920963666666665, "is_disabled": 0, "type": "electric_scooter", "lon": -77.021735, "bike_id": "fa3e84b40f1f007e2e2ac505ad115a5f", "fusion_lat": 0.0, "name": "fa3e84b40f1f007e2e2ac505ad115a5f", "is_reserved": 0, "rental_uris": {"android": "https://dc.lft.to/lastmile_qr_scan", "ios": "https://dc.lft.to/lastmile_qr_scan"}, "fusion_lon": 0.0}, {"lat": 38.884912, "is_disabled": 0, "type": "electric_scooter", "lon": -77.007106, "bike_id": "91d8a6cf5e7411c09c2ea69936036dc7", "fusion_lat": 0.0, "name": "91d8a6cf5e7411c09c2ea69936036dc7", "is_reserved": 0, "rental_uris": {"android": "https://dc.lft.to/lastmile_qr_scan", "ios": "https://dc.lft.to/lastmile_qr_scan"}, "fusion_lon": 0.0}, {"lat": 38.91787266666667, "is_disabled": 0, "type": "electric_scooter", "lon": -77.023127, "bike_id": "474fb5b08da4429a817d6f390ac5ae5c", "fusion_lat": 0.0, "name": "474fb5b08da4429a817d6f390ac5ae5c", "is_reserved": 0, "rental_uris": {"android": "https://dc.lft.to/lastmile_qr_scan", "ios": "https://dc.lft.to/lastmile_qr_scan"}, "fusion_lon": 0.0}, {"lat": 38.90169983333333, "is_disabled": 0, "type": "electric_scooter", "lon": -76.98042233333334, "bike_id": "7778562fa2dae1e31339d9e62c58a796", "fusion_lat": 0.0, "name": "7778562fa2dae1e31339d9e62c58a796", "is_reserved": 0, "rental_uris": {"android": "https://dc.lft.to/lastmile_qr_scan", "ios": "https://dc.lft.to/lastmile_qr_scan"}, "fusion_lon": 0.0}, {"lat": 38.90636033333333, "is_disabled": 0, "type": "electric_scooter", "lon": -77.04648066666667, "bike_id": "7201375c982bcb901c22fb98b8eba61c", "fusion_lat": 0.0, "name": "7201375c982bcb901c22fb98b8eba61c", "is_reserved": 0, "rental_uris": {"android": "https://dc.lft.to/lastmile_qr_scan", "ios": "https://dc.lft.to/lastmile_qr_scan"}, "fusion_lon": 0.0}, {"lat": 38.902317, "is_disabled": 0, "type": "electric_scooter", "lon": -77.0180795, "bike_id": "1bd2dbdfb35cdae0cdf52f06e4952957", "fusion_lat": 0.0, "name": "1bd2dbdfb35cdae0cdf52f06e4952957", "is_reserved": 0, "rental_uris": {"android": "https://dc.lft.to/lastmile_qr_scan", "ios": "https://dc.lft.to/lastmile_qr_scan"}, "fusion_lon": 0.0}, {"lat": 38.89287216666666, "is_disabled": 0, "type": "electric_scooter", "lon": -76.95850783333333, "bike_id": "28b2a78b75633e9447afa60c66e88ae8", "fusion_lat": 0.0, "name": "28b2a78b75633e9447afa60c66e88ae8", "is_reserved": 0, "rental_uris": {"android": "https://dc.lft.to/lastmile_qr_scan", "ios": "https://dc.lft.to/lastmile_qr_scan"}, "fusion_lon": 0.0}, {"lat": 38.917051, "is_disabled": 0, "type": "electric_scooter", "lon": -77.035912, "bike_id": "1085c89462d256146791add933267c3e", "fusion_lat": 0.0, "name": "1085c89462d256146791add933267c3e", "is_reserved": 0, "rental_uris": {"android": "https://dc.lft.to/lastmile_qr_scan", "ios": "https://dc.lft.to/lastmile_qr_scan"}, "fusion_lon": 0.0}, {"lat": 38.92240366666667, "is_disabled": 0, "type": "electric_scooter", "lon": -77.0366325, "bike_id": "78d939a2e58bb482b3dbf4cedc308bb7", "fusion_lat": 0.0, "name": "78d939a2e58bb482b3dbf4cedc308bb7", "is_reserved": 0, "rental_uris": {"android": "https://dc.lft.to/lastmile_qr_scan", "ios": "https://dc.lft.to/lastmile_qr_scan"}, "fusion_lon": 0.0}, {"lat": 38.916024, "is_disabled": 0, "type": "electric_scooter", "lon": -77.02696683333333, "bike_id": "ebba572ff9fdd2ce424f11f87fc1a87b", "fusion_lat": 0.0, "name": "ebba572ff9fdd2ce424f11f87fc1a87b", "is_reserved": 0, "rental_uris": {"android": "https://dc.lft.to/lastmile_qr_scan", "ios": "https://dc.lft.to/lastmile_qr_scan"}, "fusion_lon": 0.0}, {"lat": 38.89553166666666, "is_disabled": 0, "type": "electric_scooter", "lon": -77.0501415, "bike_id": "97b18878391d1bb1f0303d3243d7d507", "fusion_lat": 0.0, "name": "97b18878391d1bb1f0303d3243d7d507", "is_reserved": 0, "rental_uris": {"android": "https://dc.lft.to/lastmile_qr_scan", "ios": "https://dc.lft.to/lastmile_qr_scan"}, "fusion_lon": 0.0}, {"lat": 38.91718633333333, "is_disabled": 0, "type": "electric_scooter", "lon": -77.03465116666666, "bike_id": "6c23fc3f052b51f36d945e3fac15b6d6", "fusion_lat": 0.0, "name": "6c23fc3f052b51f36d945e3fac15b6d6", "is_reserved": 0, "rental_uris": {"android": "https://dc.lft.to/lastmile_qr_scan", "ios": "https://dc.lft.to/lastmile_qr_scan"}, "fusion_lon": 0.0}, {"lat": 38.92253816666667, "is_disabled": 0, "type": "electric_scooter", "lon": -77.02705216666666, "bike_id": "044443806492dbb52485e8dc5dc7b44c", "fusion_lat": 0.0, "name": "044443806492dbb52485e8dc5dc7b44c", "is_reserved": 0, "rental_uris": {"android": "https://dc.lft.to/lastmile_qr_scan", "ios": "https://dc.lft.to/lastmile_qr_scan"}, "fusion_lon": 0.0}, {"lat": 38.9193405, "is_disabled": 0, "type": "electric_scooter", "lon": -77.03393533333333, "bike_id": "eb16b971cf111bc96790950a3f7d03ba", "fusion_lat": 0.0, "name": "eb16b971cf111bc96790950a3f7d03ba", "is_reserved": 0, "rental_uris": {"android": "https://dc.lft.to/lastmile_qr_scan", "ios": "https://dc.lft.to/lastmile_qr_scan"}, "fusion_lon": 0.0}, {"lat": 38.924868000000004, "is_disabled": 0, "type": "electric_scooter", "lon": -77.03389216666666, "bike_id": "f048e8f677596ec201c2d4f83dae6481", "fusion_lat": 0.0, "name": "f048e8f677596ec201c2d4f83dae6481", "is_reserved": 0, "rental_uris": {"android": "https://dc.lft.to/lastmile_qr_scan", "ios": "https://dc.lft.to/lastmile_qr_scan"}, "fusion_lon": 0.0}, {"lat": 38.9174785, "is_disabled": 0, "type": "electric_scooter", "lon": -77.02309983333333, "bike_id": "8a2bd997a532cb082f69f708a906efa4", "fusion_lat": 0.0, "name": "8a2bd997a532cb082f69f708a906efa4", "is_reserved": 0, "rental_uris": {"android": "https://dc.lft.to/lastmile_qr_scan", "ios": "https://dc.lft.to/lastmile_qr_scan"}, "fusion_lon": 0.0}, {"lat": 38.91738483333334, "is_disabled": 0, "type": "electric_scooter", "lon": -77.02403883333334, "bike_id": "8a20a150ab4f964908890f7f43b785de", "fusion_lat": 0.0, "name": "8a20a150ab4f964908890f7f43b785de", "is_reserved": 0, "rental_uris": {"android": "https://dc.lft.to/lastmile_qr_scan", "ios": "https://dc.lft.to/lastmile_qr_scan"}, "fusion_lon": 0.0}, {"lat": 38.9053655, "is_disabled": 0, "type": "electric_scooter", "lon": -77.0060845, "bike_id": "a665020515bfa36cfe97b123a55a9f70", "fusion_lat": 0.0, "name": "a665020515bfa36cfe97b123a55a9f70", "is_reserved": 0, "rental_uris": {"android": "https://dc.lft.to/lastmile_qr_scan", "ios": "https://dc.lft.to/lastmile_qr_scan"}, "fusion_lon": 0.0}, {"lat": 38.89621366666667, "is_disabled": 0, "type": "electric_scooter", "lon": -76.9551925, "bike_id": "b8e91b6bb835a5e9a47bda0e471627d7", "fusion_lat": 0.0, "name": "b8e91b6bb835a5e9a47bda0e471627d7", "is_reserved": 0, "rental_uris": {"android": "https://dc.lft.to/lastmile_qr_scan", "ios": "https://dc.lft.to/lastmile_qr_scan"}, "fusion_lon": 0.0}, {"lat": 38.90809616666667, "is_disabled": 0, "type": "electric_scooter", "lon": -76.982767, "bike_id": "6e4e07a19f8094afe3e898103acb70a0", "fusion_lat": 0.0, "name": "6e4e07a19f8094afe3e898103acb70a0", "is_reserved": 0, "rental_uris": {"android": "https://dc.lft.to/lastmile_qr_scan", "ios": "https://dc.lft.to/lastmile_qr_scan"}, "fusion_lon": 0.0}, {"lat": 38.884834166666664, "is_disabled": 0, "type": "electric_scooter", "lon": -76.94527, "bike_id": "a035ca9b011fd528fbab3c142d53139a", "fusion_lat": 0.0, "name": "a035ca9b011fd528fbab3c142d53139a", "is_reserved": 0, "rental_uris": {"android": "https://dc.lft.to/lastmile_qr_scan", "ios": "https://dc.lft.to/lastmile_qr_scan"}, "fusion_lon": 0.0}, {"lat": 38.90788216666667, "is_disabled": 0, "type": "electric_scooter", "lon": -77.0434665, "bike_id": "5778430d1df95e770ed99ad1dbd27e63", "fusion_lat": 0.0, "name": "5778430d1df95e770ed99ad1dbd27e63", "is_reserved": 0, "rental_uris": {"android": "https://dc.lft.to/lastmile_qr_scan", "ios": "https://dc.lft.to/lastmile_qr_scan"}, "fusion_lon": 0.0}, {"lat": 38.917269833333336, "is_disabled": 0, "type": "electric_scooter", "lon": -77.041531, "bike_id": "eb2b1b7bb61d5f10a12a142d73c74a6c", "fusion_lat": 0.0, "name": "eb2b1b7bb61d5f10a12a142d73c74a6c", "is_reserved": 0, "rental_uris": {"android": "https://dc.lft.to/lastmile_qr_scan", "ios": "https://dc.lft.to/lastmile_qr_scan"}, "fusion_lon": 0.0}, {"lat": 38.905591333333334, "is_disabled": 0, "type": "electric_scooter", "lon": -77.00287483333334, "bike_id": "c7977edc6a75ffdf101a2cac45b037a9", "fusion_lat": 0.0, "name": "c7977edc6a75ffdf101a2cac45b037a9", "is_reserved": 0, "rental_uris": {"android": "https://dc.lft.to/lastmile_qr_scan", "ios": "https://dc.lft.to/lastmile_qr_scan"}, "fusion_lon": 0.0}, {"lat": 38.91563766666667, "is_disabled": 0, "type": "electric_scooter", "lon": -77.03151116666666, "bike_id": "a80d51cacb644376ac449ceefbec9fd4", "fusion_lat": 0.0, "name": "a80d51cacb644376ac449ceefbec9fd4", "is_reserved": 0, "rental_uris": {"android": "https://dc.lft.to/lastmile_qr_scan", "ios": "https://dc.lft.to/lastmile_qr_scan"}, "fusion_lon": 0.0}, {"lat": 38.87858883333333, "is_disabled": 0, "type": "electric_scooter", "lon": -77.0177125, "bike_id": "98ed11df2eaf46ba7992853134bec470", "fusion_lat": 0.0, "name": "98ed11df2eaf46ba7992853134bec470", "is_reserved": 0, "rental_uris": {"android": "https://dc.lft.to/lastmile_qr_scan", "ios": "https://dc.lft.to/lastmile_qr_scan"}, "fusion_lon": 0.0}, {"lat": 38.916988333333336, "is_disabled": 0, "type": "electric_scooter", "lon": -77.0459615, "bike_id": "3632f920d874f93dd5a09a1d2e093579", "fusion_lat": 0.0, "name": "3632f920d874f93dd5a09a1d2e093579", "is_reserved": 0, "rental_uris": {"android": "https://dc.lft.to/lastmile_qr_scan", "ios": "https://dc.lft.to/lastmile_qr_scan"}, "fusion_lon": 0.0}, {"lat": 38.922461, "is_disabled": 0, "type": "electric_scooter", "lon": -77.03666366666667, "bike_id": "8513f4f89d40551534ee7bc9a45f5148", "fusion_lat": 0.0, "name": "8513f4f89d40551534ee7bc9a45f5148", "is_reserved": 0, "rental_uris": {"android": "https://dc.lft.to/lastmile_qr_scan", "ios": "https://dc.lft.to/lastmile_qr_scan"}, "fusion_lon": 0.0}, {"lat": 38.917017333333334, "is_disabled": 0, "type": "electric_scooter", "lon": -77.00867233333334, "bike_id": "37c59461dd0b6c037f497d5e1888ab22", "fusion_lat": 0.0, "name": "37c59461dd0b6c037f497d5e1888ab22", "is_reserved": 0, "rental_uris": {"android": "https://dc.lft.to/lastmile_qr_scan", "ios": "https://dc.lft.to/lastmile_qr_scan"}, "fusion_lon": 0.0}, {"lat": 38.85784433333333, "is_disabled": 0, "type": "electric_bike", "lon": -77.09956016666666, "bike_id": "f6ee8b20f8fbe75f24e0a399b35039a9", "fusion_lat": 0.0, "name": "f6ee8b20f8fbe75f24e0a399b35039a9", "is_reserved": 0, "rental_uris": {"android": "https://dc.lft.to/lastmile_qr_scan", "ios": "https://dc.lft.to/lastmile_qr_scan"}, "fusion_lon": 0.0}, {"lat": 38.915477, "is_disabled": 0, "type": "electric_scooter", "lon": -77.03176083333334, "bike_id": "f901d8d8f6ca1ceb96aec3ee5f6c3f10", "fusion_lat": 0.0, "name": "f901d8d8f6ca1ceb96aec3ee5f6c3f10", "is_reserved": 0, "rental_uris": {"android": "https://dc.lft.to/lastmile_qr_scan", "ios": "https://dc.lft.to/lastmile_qr_scan"}, "fusion_lon": 0.0}, {"lat": 38.922019666666664, "is_disabled": 0, "type": "electric_scooter", "lon": -77.037763, "bike_id": "2b9f05514a48ed9afe75a7814e08a12d", "fusion_lat": 0.0, "name": "2b9f05514a48ed9afe75a7814e08a12d", "is_reserved": 0, "rental_uris": {"android": "https://dc.lft.to/lastmile_qr_scan", "ios": "https://dc.lft.to/lastmile_qr_scan"}, "fusion_lon": 0.0}, {"lat": 38.876914666666664, "is_disabled": 0, "type": "electric_scooter", "lon": -77.01756483333334, "bike_id": "d1ba76c04d1c6cff1bc9a69439dc4950", "fusion_lat": 0.0, "name": "d1ba76c04d1c6cff1bc9a69439dc4950", "is_reserved": 0, "rental_uris": {"android": "https://dc.lft.to/lastmile_qr_scan", "ios": "https://dc.lft.to/lastmile_qr_scan"}, "fusion_lon": 0.0}, {"lat": 38.9307435, "is_disabled": 0, "type": "electric_scooter", "lon": -77.03800133333333, "bike_id": "001a4cc6ce38a076d2954599097d6795", "fusion_lat": 0.0, "name": "001a4cc6ce38a076d2954599097d6795", "is_reserved": 0, "rental_uris": {"android": "https://dc.lft.to/lastmile_qr_scan", "ios": "https://dc.lft.to/lastmile_qr_scan"}, "fusion_lon": 0.0}, {"lat": 38.90600633333333, "is_disabled": 0, "type": "electric_scooter", "lon": -77.06305966666666, "bike_id": "cdbcdcc2a0fbb174ab4b9f17f2f5b6e5", "fusion_lat": 0.0, "name": "cdbcdcc2a0fbb174ab4b9f17f2f5b6e5", "is_reserved": 0, "rental_uris": {"android": "https://dc.lft.to/lastmile_qr_scan", "ios": "https://dc.lft.to/lastmile_qr_scan"}, "fusion_lon": 0.0}, {"lat": 38.807469833333336, "is_disabled": 0, "type": "electric_bike", "lon": -77.09430666666667, "bike_id": "f32847ae420c06b4012325998d900a69", "fusion_lat": 0.0, "name": "f32847ae420c06b4012325998d900a69", "is_reserved": 0, "rental_uris": {"android": "https://dc.lft.to/lastmile_qr_scan", "ios": "https://dc.lft.to/lastmile_qr_scan"}, "fusion_lon": 0.0}, {"lat": 38.938812, "is_disabled": 0, "type": "electric_scooter", "lon": -77.02441766666666, "bike_id": "8ccfb4079cbba1f27dfad054c898212a", "fusion_lat": 0.0, "name": "8ccfb4079cbba1f27dfad054c898212a", "is_reserved": 0, "rental_uris": {"android": "https://dc.lft.to/lastmile_qr_scan", "ios": "https://dc.lft.to/lastmile_qr_scan"}, "fusion_lon": 0.0}, {"lat": 38.90023, "is_disabled": 0, "type": "electric_scooter", "lon": -76.99808833333333, "bike_id": "9e5a82f5a9530bb299648dcb5302108c", "fusion_lat": 0.0, "name": "9e5a82f5a9530bb299648dcb5302108c", "is_reserved": 0, "rental_uris": {"android": "https://dc.lft.to/lastmile_qr_scan", "ios": "https://dc.lft.to/lastmile_qr_scan"}, "fusion_lon": 0.0}, {"lat": 38.9088265, "is_disabled": 0, "type": "electric_scooter", "lon": -77.06437583333333, "bike_id": "c733dc59dd8474d514064b073439b738", "fusion_lat": 0.0, "name": "c733dc59dd8474d514064b073439b738", "is_reserved": 0, "rental_uris": {"android": "https://dc.lft.to/lastmile_qr_scan", "ios": "https://dc.lft.to/lastmile_qr_scan"}, "fusion_lon": 0.0}, {"lat": 38.93758533333333, "is_disabled": 0, "type": "electric_scooter", "lon": -77.03142883333334, "bike_id": "1954ad1f5b22dbec822eeb739fa1b353", "fusion_lat": 0.0, "name": "1954ad1f5b22dbec822eeb739fa1b353", "is_reserved": 0, "rental_uris": {"android": "https://dc.lft.to/lastmile_qr_scan", "ios": "https://dc.lft.to/lastmile_qr_scan"}, "fusion_lon": 0.0}, {"lat": 38.91386683333333, "is_disabled": 0, "type": "electric_scooter", "lon": -77.03653183333333, "bike_id": "297384a15442bac5888987fd6b6c957e", "fusion_lat": 0.0, "name": "297384a15442bac5888987fd6b6c957e", "is_reserved": 0, "rental_uris": {"android": "https://dc.lft.to/lastmile_qr_scan", "ios": "https://dc.lft.to/lastmile_qr_scan"}, "fusion_lon": 0.0}, {"lat": 38.884632333333336, "is_disabled": 0, "type": "electric_scooter", "lon": -76.92620866666667, "bike_id": "cf9f106b44fa9c6a6209cf5471f12c8b", "fusion_lat": 0.0, "name": "cf9f106b44fa9c6a6209cf5471f12c8b", "is_reserved": 0, "rental_uris": {"android": "https://dc.lft.to/lastmile_qr_scan", "ios": "https://dc.lft.to/lastmile_qr_scan"}, "fusion_lon": 0.0}, {"lat": 38.902847333333334, "is_disabled": 0, "type": "electric_scooter", "lon": -77.03980583333333, "bike_id": "ac566de20baa7464984895a234c75c66", "fusion_lat": 0.0, "name": "ac566de20baa7464984895a234c75c66", "is_reserved": 0, "rental_uris": {"android": "https://dc.lft.to/lastmile_qr_scan", "ios": "https://dc.lft.to/lastmile_qr_scan"}, "fusion_lon": 0.0}, {"lat": 38.9110715, "is_disabled": 0, "type": "electric_scooter", "lon": -77.04391433333333, "bike_id": "47d4207a172e9e2420751e980d98a936", "fusion_lat": 0.0, "name": "47d4207a172e9e2420751e980d98a936", "is_reserved": 0, "rental_uris": {"android": "https://dc.lft.to/lastmile_qr_scan", "ios": "https://dc.lft.to/lastmile_qr_scan"}, "fusion_lon": 0.0}, {"lat": 38.921928666666666, "is_disabled": 0, "type": "electric_scooter", "lon": -77.04134733333333, "bike_id": "9f8d70cdd727eff8ce9f291033214152", "fusion_lat": 0.0, "name": "9f8d70cdd727eff8ce9f291033214152", "is_reserved": 0, "rental_uris": {"android": "https://dc.lft.to/lastmile_qr_scan", "ios": "https://dc.lft.to/lastmile_qr_scan"}, "fusion_lon": 0.0}, {"lat": 38.91020816666666, "is_disabled": 0, "type": "electric_scooter", "lon": -77.038528, "bike_id": "d4fa6fa2b232c1511662d75d680f17ab", "fusion_lat": 0.0, "name": "d4fa6fa2b232c1511662d75d680f17ab", "is_reserved": 0, "rental_uris": {"android": "https://dc.lft.to/lastmile_qr_scan", "ios": "https://dc.lft.to/lastmile_qr_scan"}, "fusion_lon": 0.0}, {"lat": 38.928536, "is_disabled": 0, "type": "electric_bike", "lon": -77.106763, "bike_id": "5890b1bb8c7cbb89a2f50532985c8c07", "fusion_lat": 0.0, "name": "5890b1bb8c7cbb89a2f50532985c8c07", "is_reserved": 0, "rental_uris": {"android": "https://dc.lft.to/lastmile_qr_scan", "ios": "https://dc.lft.to/lastmile_qr_scan"}, "fusion_lon": 0.0}, {"lat": 38.884913, "is_disabled": 0, "type": "electric_scooter", "lon": -77.03476833333333, "bike_id": "4ba416053531fad9d071c0e5fa2de174", "fusion_lat": 0.0, "name": "4ba416053531fad9d071c0e5fa2de174", "is_reserved": 0, "rental_uris": {"android": "https://dc.lft.to/lastmile_qr_scan", "ios": "https://dc.lft.to/lastmile_qr_scan"}, "fusion_lon": 0.0}, {"lat": 38.90805683333333, "is_disabled": 0, "type": "electric_scooter", "lon": -77.04345983333333, "bike_id": "39c9ae2ba182082b754641f97016c8ff", "fusion_lat": 0.0, "name": "39c9ae2ba182082b754641f97016c8ff", "is_reserved": 0, "rental_uris": {"android": "https://dc.lft.to/lastmile_qr_scan", "ios": "https://dc.lft.to/lastmile_qr_scan"}, "fusion_lon": 0.0}, {"lat": 38.8976, "is_disabled": 0, "type": "electric_scooter", "lon": -76.94185166666666, "bike_id": "97739e2b1218275ad74ba1b9fc9b01f2", "fusion_lat": 0.0, "name": "97739e2b1218275ad74ba1b9fc9b01f2", "is_reserved": 0, "rental_uris": {"android": "https://dc.lft.to/lastmile_qr_scan", "ios": "https://dc.lft.to/lastmile_qr_scan"}, "fusion_lon": 0.0}, {"lat": 38.903704166666664, "is_disabled": 0, "type": "electric_scooter", "lon": -77.03887983333334, "bike_id": "f10a687ec7535f2cbaba2aabe8a9d4c7", "fusion_lat": 0.0, "name": "f10a687ec7535f2cbaba2aabe8a9d4c7", "is_reserved": 0, "rental_uris": {"android": "https://dc.lft.to/lastmile_qr_scan", "ios": "https://dc.lft.to/lastmile_qr_scan"}, "fusion_lon": 0.0}, {"lat": 38.902547, "is_disabled": 0, "type": "electric_scooter", "lon": -77.02682316666667, "bike_id": "29b9719f98cb81df8498e9fa35943a82", "fusion_lat": 0.0, "name": "29b9719f98cb81df8498e9fa35943a82", "is_reserved": 0, "rental_uris": {"android": "https://dc.lft.to/lastmile_qr_scan", "ios": "https://dc.lft.to/lastmile_qr_scan"}, "fusion_lon": 0.0}, {"lat": 38.904055166666666, "is_disabled": 0, "type": "electric_scooter", "lon": -77.0675875, "bike_id": "a3100eee764ffa15a3e1b8ac5031de26", "fusion_lat": 0.0, "name": "a3100eee764ffa15a3e1b8ac5031de26", "is_reserved": 0, "rental_uris": {"android": "https://dc.lft.to/lastmile_qr_scan", "ios": "https://dc.lft.to/lastmile_qr_scan"}, "fusion_lon": 0.0}, {"lat": 38.8963645, "is_disabled": 0, "type": "electric_scooter", "lon": -77.03220433333334, "bike_id": "37284754aa731cbd3494d5b187a9749f", "fusion_lat": 0.0, "name": "37284754aa731cbd3494d5b187a9749f", "is_reserved": 0, "rental_uris": {"android": "https://dc.lft.to/lastmile_qr_scan", "ios": "https://dc.lft.to/lastmile_qr_scan"}, "fusion_lon": 0.0}, {"lat": 38.91112366666667, "is_disabled": 0, "type": "electric_scooter", "lon": -77.04503583333333, "bike_id": "f434e026b19786e453c65c48ecfd2b3f", "fusion_lat": 0.0, "name": "f434e026b19786e453c65c48ecfd2b3f", "is_reserved": 0, "rental_uris": {"android": "https://dc.lft.to/lastmile_qr_scan", "ios": "https://dc.lft.to/lastmile_qr_scan"}, "fusion_lon": 0.0}, {"lat": 38.8843205, "is_disabled": 0, "type": "electric_scooter", "lon": -76.95763, "bike_id": "a768e739f1929ba5b3d3306b9cf3beef", "fusion_lat": 0.0, "name": "a768e739f1929ba5b3d3306b9cf3beef", "is_reserved": 0, "rental_uris": {"android": "https://dc.lft.to/lastmile_qr_scan", "ios": "https://dc.lft.to/lastmile_qr_scan"}, "fusion_lon": 0.0}, {"lat": 38.926193, "is_disabled": 0, "type": "electric_scooter", "lon": -77.02162016666666, "bike_id": "a60d7265048cc943202945e023981fba", "fusion_lat": 0.0, "name": "a60d7265048cc943202945e023981fba", "is_reserved": 0, "rental_uris": {"android": "https://dc.lft.to/lastmile_qr_scan", "ios": "https://dc.lft.to/lastmile_qr_scan"}, "fusion_lon": 0.0}, {"lat": 38.88512216666667, "is_disabled": 0, "type": "electric_scooter", "lon": -77.00570833333333, "bike_id": "162208130cb73d5817257ef49a422c09", "fusion_lat": 0.0, "name": "162208130cb73d5817257ef49a422c09", "is_reserved": 0, "rental_uris": {"android": "https://dc.lft.to/lastmile_qr_scan", "ios": "https://dc.lft.to/lastmile_qr_scan"}, "fusion_lon": 0.0}, {"lat": 38.855223, "is_disabled": 0, "type": "electric_bike", "lon": -76.9843705, "bike_id": "57132cf60518d700c183eb8bf8449d9e", "fusion_lat": 0.0, "name": "57132cf60518d700c183eb8bf8449d9e", "is_reserved": 0, "rental_uris": {"android": "https://dc.lft.to/lastmile_qr_scan", "ios": "https://dc.lft.to/lastmile_qr_scan"}, "fusion_lon": 0.0}, {"lat": 38.848190833333334, "is_disabled": 0, "type": "electric_bike", "lon": -77.07907133333333, "bike_id": "4ab253567d4961d8d6811f7ad79fb53e", "fusion_lat": 0.0, "name": "4ab253567d4961d8d6811f7ad79fb53e", "is_reserved": 0, "rental_uris": {"android": "https://dc.lft.to/lastmile_qr_scan", "ios": "https://dc.lft.to/lastmile_qr_scan"}, "fusion_lon": 0.0}, {"lat": 38.89796416666667, "is_disabled": 0, "type": "electric_scooter", "lon": -77.03219033333333, "bike_id": "c0f1cc04e1f00f1cd52ce9a523e8c6dd", "fusion_lat": 0.0, "name": "c0f1cc04e1f00f1cd52ce9a523e8c6dd", "is_reserved": 0, "rental_uris": {"android": "https://dc.lft.to/lastmile_qr_scan", "ios": "https://dc.lft.to/lastmile_qr_scan"}, "fusion_lon": 0.0}, {"lat": 38.924781833333334, "is_disabled": 0, "type": "electric_scooter", "lon": -77.02839166666666, "bike_id": "ad1d6cc86b6e42df29acd682ffe09e3f", "fusion_lat": 0.0, "name": "ad1d6cc86b6e42df29acd682ffe09e3f", "is_reserved": 0, "rental_uris": {"android": "https://dc.lft.to/lastmile_qr_scan", "ios": "https://dc.lft.to/lastmile_qr_scan"}, "fusion_lon": 0.0}, {"lat": 38.89820233333333, "is_disabled": 0, "type": "electric_scooter", "lon": -76.9969565, "bike_id": "4d3413ca66f9f7604590a8c11515ad57", "fusion_lat": 0.0, "name": "4d3413ca66f9f7604590a8c11515ad57", "is_reserved": 0, "rental_uris": {"android": "https://dc.lft.to/lastmile_qr_scan", "ios": "https://dc.lft.to/lastmile_qr_scan"}, "fusion_lon": 0.0}, {"lat": 38.885799166666665, "is_disabled": 0, "type": "electric_scooter", "lon": -76.91910666666666, "bike_id": "8b94548d81ad7baf03e58b2f770bebb7", "fusion_lat": 0.0, "name": "8b94548d81ad7baf03e58b2f770bebb7", "is_reserved": 0, "rental_uris": {"android": "https://dc.lft.to/lastmile_qr_scan", "ios": "https://dc.lft.to/lastmile_qr_scan"}, "fusion_lon": 0.0}, {"lat": 38.91753766666667, "is_disabled": 0, "type": "electric_scooter", "lon": -77.0318945, "bike_id": "825bcd90dbec738fa6bcf7327ca4f4d3", "fusion_lat": 0.0, "name": "825bcd90dbec738fa6bcf7327ca4f4d3", "is_reserved": 0, "rental_uris": {"android": "https://dc.lft.to/lastmile_qr_scan", "ios": "https://dc.lft.to/lastmile_qr_scan"}, "fusion_lon": 0.0}, {"lat": 38.923682666666664, "is_disabled": 0, "type": "electric_scooter", "lon": -77.04133433333334, "bike_id": "83ac578354857a428dc9e4e272790112", "fusion_lat": 0.0, "name": "83ac578354857a428dc9e4e272790112", "is_reserved": 0, "rental_uris": {"android": "https://dc.lft.to/lastmile_qr_scan", "ios": "https://dc.lft.to/lastmile_qr_scan"}, "fusion_lon": 0.0}, {"lat": 38.906228666666664, "is_disabled": 0, "type": "electric_scooter", "lon": -77.039709, "bike_id": "aa25878adf5417f9a54daca297c3a49b", "fusion_lat": 0.0, "name": "aa25878adf5417f9a54daca297c3a49b", "is_reserved": 0, "rental_uris": {"android": "https://dc.lft.to/lastmile_qr_scan", "ios": "https://dc.lft.to/lastmile_qr_scan"}, "fusion_lon": 0.0}, {"lat": 38.88642516666667, "is_disabled": 0, "type": "electric_bike", "lon": -76.95474183333333, "bike_id": "cb668f78dd0cf895fe46d177e30fb28f", "fusion_lat": 0.0, "name": "cb668f78dd0cf895fe46d177e30fb28f", "is_reserved": 0, "rental_uris": {"android": "https://dc.lft.to/lastmile_qr_scan", "ios": "https://dc.lft.to/lastmile_qr_scan"}, "fusion_lon": 0.0}, {"lat": 38.9147935, "is_disabled": 0, "type": "electric_scooter", "lon": -77.00943183333334, "bike_id": "8c3c149bdf3d29735f79e7156e177523", "fusion_lat": 0.0, "name": "8c3c149bdf3d29735f79e7156e177523", "is_reserved": 0, "rental_uris": {"android": "https://dc.lft.to/lastmile_qr_scan", "ios": "https://dc.lft.to/lastmile_qr_scan"}, "fusion_lon": 0.0}, {"lat": 38.91728583333333, "is_disabled": 0, "type": "electric_scooter", "lon": -77.02713433333334, "bike_id": "9c7dbf9233895fbc38625ec97d033378", "fusion_lat": 0.0, "name": "9c7dbf9233895fbc38625ec97d033378", "is_reserved": 0, "rental_uris": {"android": "https://dc.lft.to/lastmile_qr_scan", "ios": "https://dc.lft.to/lastmile_qr_scan"}, "fusion_lon": 0.0}, {"lat": 38.86233716666667, "is_disabled": 0, "type": "electric_scooter", "lon": -76.99547183333334, "bike_id": "4ee635aa0038781c01946bc41b015a33", "fusion_lat": 0.0, "name": "4ee635aa0038781c01946bc41b015a33", "is_reserved": 0, "rental_uris": {"android": "https://dc.lft.to/lastmile_qr_scan", "ios": "https://dc.lft.to/lastmile_qr_scan"}, "fusion_lon": 0.0}, {"lat": 38.927659166666665, "is_disabled": 0, "type": "electric_scooter", "lon": -77.032174, "bike_id": "3f7179fc02d9ee8de7d4eca1ca1c121e", "fusion_lat": 0.0, "name": "3f7179fc02d9ee8de7d4eca1ca1c121e", "is_reserved": 0, "rental_uris": {"android": "https://dc.lft.to/lastmile_qr_scan", "ios": "https://dc.lft.to/lastmile_qr_scan"}, "fusion_lon": 0.0}, {"lat": 38.96155783333333, "is_disabled": 0, "type": "electric_scooter", "lon": -77.0279845, "bike_id": "408a05b1ff7dc504aaf52510d2a3d642", "fusion_lat": 0.0, "name": "408a05b1ff7dc504aaf52510d2a3d642", "is_reserved": 0, "rental_uris": {"android": "https://dc.lft.to/lastmile_qr_scan", "ios": "https://dc.lft.to/lastmile_qr_scan"}, "fusion_lon": 0.0}, {"lat": 39.05635916666667, "is_disabled": 0, "type": "electric_bike", "lon": -77.125291, "bike_id": "5a50a5e491cb4fa58e3d30a571eb2285", "fusion_lat": 0.0, "name": "5a50a5e491cb4fa58e3d30a571eb2285", "is_reserved": 0, "rental_uris": {"android": "https://dc.lft.to/lastmile_qr_scan", "ios": "https://dc.lft.to/lastmile_qr_scan"}, "fusion_lon": 0.0}, {"lat": 38.91114183333333, "is_disabled": 0, "type": "electric_scooter", "lon": -77.0217035, "bike_id": "d8ceab478d7136d2e790d5d302133630", "fusion_lat": 0.0, "name": "d8ceab478d7136d2e790d5d302133630", "is_reserved": 0, "rental_uris": {"android": "https://dc.lft.to/lastmile_qr_scan", "ios": "https://dc.lft.to/lastmile_qr_scan"}, "fusion_lon": 0.0}, {"lat": 38.853169333333334, "is_disabled": 0, "type": "electric_scooter", "lon": -76.9802395, "bike_id": "99741de1b8818b31e72aedaa98b44b1a", "fusion_lat": 0.0, "name": "99741de1b8818b31e72aedaa98b44b1a", "is_reserved": 0, "rental_uris": {"android": "https://dc.lft.to/lastmile_qr_scan", "ios": "https://dc.lft.to/lastmile_qr_scan"}, "fusion_lon": 0.0}, {"lat": 38.92882866666667, "is_disabled": 0, "type": "electric_scooter", "lon": -77.03871383333333, "bike_id": "24e80f678001ef0f322f1afc570eb117", "fusion_lat": 0.0, "name": "24e80f678001ef0f322f1afc570eb117", "is_reserved": 0, "rental_uris": {"android": "https://dc.lft.to/lastmile_qr_scan", "ios": "https://dc.lft.to/lastmile_qr_scan"}, "fusion_lon": 0.0}, {"lat": 38.9309665, "is_disabled": 0, "type": "electric_scooter", "lon": -77.0242535, "bike_id": "fa530b4374814eb30929782d33b23066", "fusion_lat": 0.0, "name": "fa530b4374814eb30929782d33b23066", "is_reserved": 0, "rental_uris": {"android": "https://dc.lft.to/lastmile_qr_scan", "ios": "https://dc.lft.to/lastmile_qr_scan"}, "fusion_lon": 0.0}, {"lat": 38.9275055, "is_disabled": 0, "type": "electric_scooter", "lon": -76.99623933333334, "bike_id": "1a2d852b28f7a5ec3f9205da3541b076", "fusion_lat": 0.0, "name": "1a2d852b28f7a5ec3f9205da3541b076", "is_reserved": 0, "rental_uris": {"android": "https://dc.lft.to/lastmile_qr_scan", "ios": "https://dc.lft.to/lastmile_qr_scan"}, "fusion_lon": 0.0}, {"lat": 38.96206083333333, "is_disabled": 0, "type": "electric_bike", "lon": -77.035099, "bike_id": "a05348e12f964cde9a798e3a1054d067", "fusion_lat": 0.0, "name": "a05348e12f964cde9a798e3a1054d067", "is_reserved": 0, "rental_uris": {"android": "https://dc.lft.to/lastmile_qr_scan", "ios": "https://dc.lft.to/lastmile_qr_scan"}, "fusion_lon": 0.0}, {"lat": 38.87409433333333, "is_disabled": 0, "type": "electric_scooter", "lon": -77.0145445, "bike_id": "2fa569ea80550ba69451e2fb090b5c05", "fusion_lat": 0.0, "name": "2fa569ea80550ba69451e2fb090b5c05", "is_reserved": 0, "rental_uris": {"android": "https://dc.lft.to/lastmile_qr_scan", "ios": "https://dc.lft.to/lastmile_qr_scan"}, "fusion_lon": 0.0}, {"lat": 38.91835366666667, "is_disabled": 0, "type": "electric_scooter", "lon": -77.03210816666666, "bike_id": "170e824f83f38ddc3239561c17c6d9b6", "fusion_lat": 0.0, "name": "170e824f83f38ddc3239561c17c6d9b6", "is_reserved": 0, "rental_uris": {"android": "https://dc.lft.to/lastmile_qr_scan", "ios": "https://dc.lft.to/lastmile_qr_scan"}, "fusion_lon": 0.0}, {"lat": 38.88126483333333, "is_disabled": 0, "type": "electric_scooter", "lon": -77.01969366666667, "bike_id": "142e4ca19f9d6af2fafd7f7da76f940b", "fusion_lat": 0.0, "name": "142e4ca19f9d6af2fafd7f7da76f940b", "is_reserved": 0, "rental_uris": {"android": "https://dc.lft.to/lastmile_qr_scan", "ios": "https://dc.lft.to/lastmile_qr_scan"}, "fusion_lon": 0.0}, {"lat": 38.926273, "is_disabled": 0, "type": "electric_scooter", "lon": -77.04408333333333, "bike_id": "a54cb96f05570f4fd1dbc5c5016becf9", "fusion_lat": 0.0, "name": "a54cb96f05570f4fd1dbc5c5016becf9", "is_reserved": 0, "rental_uris": {"android": "https://dc.lft.to/lastmile_qr_scan", "ios": "https://dc.lft.to/lastmile_qr_scan"}, "fusion_lon": 0.0}, {"lat": 38.93741383333333, "is_disabled": 0, "type": "electric_scooter", "lon": -77.03497383333334, "bike_id": "555660d3cb05aa2f99d3bb5a348dd070", "fusion_lat": 0.0, "name": "555660d3cb05aa2f99d3bb5a348dd070", "is_reserved": 0, "rental_uris": {"android": "https://dc.lft.to/lastmile_qr_scan", "ios": "https://dc.lft.to/lastmile_qr_scan"}, "fusion_lon": 0.0}, {"lat": 38.87238166666667, "is_disabled": 0, "type": "electric_scooter", "lon": -77.011923, "bike_id": "1292e3589585a93d8ad3b4714058b8cf", "fusion_lat": 0.0, "name": "1292e3589585a93d8ad3b4714058b8cf", "is_reserved": 0, "rental_uris": {"android": "https://dc.lft.to/lastmile_qr_scan", "ios": "https://dc.lft.to/lastmile_qr_scan"}, "fusion_lon": 0.0}, {"lat": 38.90977183333333, "is_disabled": 0, "type": "electric_scooter", "lon": -77.0321555, "bike_id": "6cb1af8c602d9fc4ffe49e8919347b4b", "fusion_lat": 0.0, "name": "6cb1af8c602d9fc4ffe49e8919347b4b", "is_reserved": 0, "rental_uris": {"android": "https://dc.lft.to/lastmile_qr_scan", "ios": "https://dc.lft.to/lastmile_qr_scan"}, "fusion_lon": 0.0}, {"lat": 38.89619866666666, "is_disabled": 0, "type": "electric_scooter", "lon": -76.95664133333334, "bike_id": "9f8ccff1cdfb7ae7077f373bfda80955", "fusion_lat": 0.0, "name": "9f8ccff1cdfb7ae7077f373bfda80955", "is_reserved": 0, "rental_uris": {"android": "https://dc.lft.to/lastmile_qr_scan", "ios": "https://dc.lft.to/lastmile_qr_scan"}, "fusion_lon": 0.0}, {"lat": 38.913774, "is_disabled": 0, "type": "electric_scooter", "lon": -77.0321505, "bike_id": "1511aa02c668e6ca2f4963ee8100144c", "fusion_lat": 0.0, "name": "1511aa02c668e6ca2f4963ee8100144c", "is_reserved": 0, "rental_uris": {"android": "https://dc.lft.to/lastmile_qr_scan", "ios": "https://dc.lft.to/lastmile_qr_scan"}, "fusion_lon": 0.0}, {"lat": 38.901258, "is_disabled": 0, "type": "electric_scooter", "lon": -77.00315266666667, "bike_id": "40f6c5d32f2546155f3a9c90fd8b73d9", "fusion_lat": 0.0, "name": "40f6c5d32f2546155f3a9c90fd8b73d9", "is_reserved": 0, "rental_uris": {"android": "https://dc.lft.to/lastmile_qr_scan", "ios": "https://dc.lft.to/lastmile_qr_scan"}, "fusion_lon": 0.0}, {"lat": 38.897325333333335, "is_disabled": 0, "type": "electric_scooter", "lon": -77.0221315, "bike_id": "4b14816eadcaec6af2322a2021ab243e", "fusion_lat": 0.0, "name": "4b14816eadcaec6af2322a2021ab243e", "is_reserved": 0, "rental_uris": {"android": "https://dc.lft.to/lastmile_qr_scan", "ios": "https://dc.lft.to/lastmile_qr_scan"}, "fusion_lon": 0.0}, {"lat": 38.9155565, "is_disabled": 0, "type": "electric_scooter", "lon": -77.0317385, "bike_id": "99a8a6b1abe2e9cdf1827a9e219f6565", "fusion_lat": 0.0, "name": "99a8a6b1abe2e9cdf1827a9e219f6565", "is_reserved": 0, "rental_uris": {"android": "https://dc.lft.to/lastmile_qr_scan", "ios": "https://dc.lft.to/lastmile_qr_scan"}, "fusion_lon": 0.0}, {"lat": 38.899113, "is_disabled": 0, "type": "electric_scooter", "lon": -76.93351466666667, "bike_id": "4a40a17eea1c7bf4a15bd3219a5d3f88", "fusion_lat": 0.0, "name": "4a40a17eea1c7bf4a15bd3219a5d3f88", "is_reserved": 0, "rental_uris": {"android": "https://dc.lft.to/lastmile_qr_scan", "ios": "https://dc.lft.to/lastmile_qr_scan"}, "fusion_lon": 0.0}, {"lat": 38.8590805, "is_disabled": 0, "type": "electric_scooter", "lon": -76.9914735, "bike_id": "1fc9e404e85142ffa9c5d7f14af622b0", "fusion_lat": 0.0, "name": "1fc9e404e85142ffa9c5d7f14af622b0", "is_reserved": 0, "rental_uris": {"android": "https://dc.lft.to/lastmile_qr_scan", "ios": "https://dc.lft.to/lastmile_qr_scan"}, "fusion_lon": 0.0}, {"lat": 38.930684, "is_disabled": 0, "type": "electric_scooter", "lon": -77.04180033333333, "bike_id": "ba9afbb31a85fbb1d3dde07ca87461d2", "fusion_lat": 0.0, "name": "ba9afbb31a85fbb1d3dde07ca87461d2", "is_reserved": 0, "rental_uris": {"android": "https://dc.lft.to/lastmile_qr_scan", "ios": "https://dc.lft.to/lastmile_qr_scan"}, "fusion_lon": 0.0}, {"lat": 38.9152545, "is_disabled": 0, "type": "electric_scooter", "lon": -77.03836166666666, "bike_id": "7c7f7c237b6c49ea3a75f327f9be51b5", "fusion_lat": 0.0, "name": "7c7f7c237b6c49ea3a75f327f9be51b5", "is_reserved": 0, "rental_uris": {"android": "https://dc.lft.to/lastmile_qr_scan", "ios": "https://dc.lft.to/lastmile_qr_scan"}, "fusion_lon": 0.0}, {"lat": 38.905647, "is_disabled": 0, "type": "electric_scooter", "lon": -77.02512133333333, "bike_id": "31686253d8a5211a04cd41947a504b00", "fusion_lat": 0.0, "name": "31686253d8a5211a04cd41947a504b00", "is_reserved": 0, "rental_uris": {"android": "https://dc.lft.to/lastmile_qr_scan", "ios": "https://dc.lft.to/lastmile_qr_scan"}, "fusion_lon": 0.0}, {"lat": 38.91274933333333, "is_disabled": 0, "type": "electric_scooter", "lon": -77.02269816666667, "bike_id": "99902a55dc7c14495ea8ffe45662b0f4", "fusion_lat": 0.0, "name": "99902a55dc7c14495ea8ffe45662b0f4", "is_reserved": 0, "rental_uris": {"android": "https://dc.lft.to/lastmile_qr_scan", "ios": "https://dc.lft.to/lastmile_qr_scan"}, "fusion_lon": 0.0}, {"lat": 38.90581916666667, "is_disabled": 0, "type": "electric_scooter", "lon": -77.06282283333333, "bike_id": "a71ab7f2308e438236402e56da9d5f33", "fusion_lat": 0.0, "name": "a71ab7f2308e438236402e56da9d5f33", "is_reserved": 0, "rental_uris": {"android": "https://dc.lft.to/lastmile_qr_scan", "ios": "https://dc.lft.to/lastmile_qr_scan"}, "fusion_lon": 0.0}, {"lat": 38.907754833333335, "is_disabled": 0, "type": "electric_scooter", "lon": -77.04349166666667, "bike_id": "f1af182c2c6d161b028a180215ba3844", "fusion_lat": 0.0, "name": "f1af182c2c6d161b028a180215ba3844", "is_reserved": 0, "rental_uris": {"android": "https://dc.lft.to/lastmile_qr_scan", "ios": "https://dc.lft.to/lastmile_qr_scan"}, "fusion_lon": 0.0}, {"lat": 38.891407666666666, "is_disabled": 0, "type": "electric_scooter", "lon": -76.9438345, "bike_id": "9f63a7ca32367ba62f7d9a57b96a5306", "fusion_lat": 0.0, "name": "9f63a7ca32367ba62f7d9a57b96a5306", "is_reserved": 0, "rental_uris": {"android": "https://dc.lft.to/lastmile_qr_scan", "ios": "https://dc.lft.to/lastmile_qr_scan"}, "fusion_lon": 0.0}, {"lat": 38.92574166666667, "is_disabled": 0, "type": "electric_scooter", "lon": -77.02574466666667, "bike_id": "2adacea877b3103dfe886388af9c41ed", "fusion_lat": 0.0, "name": "2adacea877b3103dfe886388af9c41ed", "is_reserved": 0, "rental_uris": {"android": "https://dc.lft.to/lastmile_qr_scan", "ios": "https://dc.lft.to/lastmile_qr_scan"}, "fusion_lon": 0.0}, {"lat": 38.916983333333334, "is_disabled": 0, "type": "electric_scooter", "lon": -77.008142, "bike_id": "b612d92af2e0e246ea87e308f00fa520", "fusion_lat": 0.0, "name": "b612d92af2e0e246ea87e308f00fa520", "is_reserved": 0, "rental_uris": {"android": "https://dc.lft.to/lastmile_qr_scan", "ios": "https://dc.lft.to/lastmile_qr_scan"}, "fusion_lon": 0.0}, {"lat": 38.931689, "is_disabled": 0, "type": "electric_scooter", "lon": -77.028317, "bike_id": "72b705f7f443cf30f7017568ee8388ca", "fusion_lat": 0.0, "name": "72b705f7f443cf30f7017568ee8388ca", "is_reserved": 0, "rental_uris": {"android": "https://dc.lft.to/lastmile_qr_scan", "ios": "https://dc.lft.to/lastmile_qr_scan"}, "fusion_lon": 0.0}, {"lat": 38.932118333333335, "is_disabled": 0, "type": "electric_scooter", "lon": -77.0365855, "bike_id": "91c6c07fac3a0031a3da8e6638979eae", "fusion_lat": 0.0, "name": "91c6c07fac3a0031a3da8e6638979eae", "is_reserved": 0, "rental_uris": {"android": "https://dc.lft.to/lastmile_qr_scan", "ios": "https://dc.lft.to/lastmile_qr_scan"}, "fusion_lon": 0.0}, {"lat": 38.90762766666667, "is_disabled": 0, "type": "electric_scooter", "lon": -77.00329966666666, "bike_id": "e0727ceaac7f5e6b6c16ec11baf76407", "fusion_lat": 0.0, "name": "e0727ceaac7f5e6b6c16ec11baf76407", "is_reserved": 0, "rental_uris": {"android": "https://dc.lft.to/lastmile_qr_scan", "ios": "https://dc.lft.to/lastmile_qr_scan"}, "fusion_lon": 0.0}, {"lat": 38.93631933333333, "is_disabled": 0, "type": "electric_scooter", "lon": -77.05883233333333, "bike_id": "f667e9556dd1ea0ba9089693fbe8c6c7", "fusion_lat": 0.0, "name": "f667e9556dd1ea0ba9089693fbe8c6c7", "is_reserved": 0, "rental_uris": {"android": "https://dc.lft.to/lastmile_qr_scan", "ios": "https://dc.lft.to/lastmile_qr_scan"}, "fusion_lon": 0.0}, {"lat": 38.906167833333335, "is_disabled": 0, "type": "electric_scooter", "lon": -76.9898205, "bike_id": "5ea148442011bc64fd120fbd180fabec", "fusion_lat": 0.0, "name": "5ea148442011bc64fd120fbd180fabec", "is_reserved": 0, "rental_uris": {"android": "https://dc.lft.to/lastmile_qr_scan", "ios": "https://dc.lft.to/lastmile_qr_scan"}, "fusion_lon": 0.0}, {"lat": 38.92257, "is_disabled": 0, "type": "electric_scooter", "lon": -77.019331, "bike_id": "3a5c8d6b5f04376b644369ef2df0c610", "fusion_lat": 0.0, "name": "3a5c8d6b5f04376b644369ef2df0c610", "is_reserved": 0, "rental_uris": {"android": "https://dc.lft.to/lastmile_qr_scan", "ios": "https://dc.lft.to/lastmile_qr_scan"}, "fusion_lon": 0.0}, {"lat": 38.8877045, "is_disabled": 0, "type": "electric_scooter", "lon": -76.99604816666667, "bike_id": "3af757de6f75a32ae4bfbbef79248bf3", "fusion_lat": 0.0, "name": "3af757de6f75a32ae4bfbbef79248bf3", "is_reserved": 0, "rental_uris": {"android": "https://dc.lft.to/lastmile_qr_scan", "ios": "https://dc.lft.to/lastmile_qr_scan"}, "fusion_lon": 0.0}, {"lat": 38.917098333333335, "is_disabled": 0, "type": "electric_scooter", "lon": -77.03472716666667, "bike_id": "59d1f15cb86322ecef81bc202168d11b", "fusion_lat": 0.0, "name": "59d1f15cb86322ecef81bc202168d11b", "is_reserved": 0, "rental_uris": {"android": "https://dc.lft.to/lastmile_qr_scan", "ios": "https://dc.lft.to/lastmile_qr_scan"}, "fusion_lon": 0.0}, {"lat": 38.9129395, "is_disabled": 0, "type": "electric_scooter", "lon": -77.04514083333333, "bike_id": "bdac930441e353f3a223c60ea332c1be", "fusion_lat": 0.0, "name": "bdac930441e353f3a223c60ea332c1be", "is_reserved": 0, "rental_uris": {"android": "https://dc.lft.to/lastmile_qr_scan", "ios": "https://dc.lft.to/lastmile_qr_scan"}, "fusion_lon": 0.0}, {"lat": 38.943157, "is_disabled": 0, "type": "electric_scooter", "lon": -77.061326, "bike_id": "5e00b46745129c81878a288e909adeba", "fusion_lat": 0.0, "name": "5e00b46745129c81878a288e909adeba", "is_reserved": 0, "rental_uris": {"android": "https://dc.lft.to/lastmile_qr_scan", "ios": "https://dc.lft.to/lastmile_qr_scan"}, "fusion_lon": 0.0}, {"lat": 38.886456333333335, "is_disabled": 0, "type": "electric_scooter", "lon": -76.95469683333333, "bike_id": "182801944cddd40bfbc814537b84a0fc", "fusion_lat": 0.0, "name": "182801944cddd40bfbc814537b84a0fc", "is_reserved": 0, "rental_uris": {"android": "https://dc.lft.to/lastmile_qr_scan", "ios": "https://dc.lft.to/lastmile_qr_scan"}, "fusion_lon": 0.0}, {"lat": 38.886050833333336, "is_disabled": 0, "type": "electric_scooter", "lon": -77.045126, "bike_id": "a77a5f1c1c2d93e720d9d81421d7c4e4", "fusion_lat": 0.0, "name": "a77a5f1c1c2d93e720d9d81421d7c4e4", "is_reserved": 0, "rental_uris": {"android": "https://dc.lft.to/lastmile_qr_scan", "ios": "https://dc.lft.to/lastmile_qr_scan"}, "fusion_lon": 0.0}, {"lat": 38.9065215, "is_disabled": 0, "type": "electric_scooter", "lon": -77.01409433333333, "bike_id": "549529ea88fa581204c70778376e22bf", "fusion_lat": 0.0, "name": "549529ea88fa581204c70778376e22bf", "is_reserved": 0, "rental_uris": {"android": "https://dc.lft.to/lastmile_qr_scan", "ios": "https://dc.lft.to/lastmile_qr_scan"}, "fusion_lon": 0.0}, {"lat": 38.915699833333335, "is_disabled": 0, "type": "electric_scooter", "lon": -77.050172, "bike_id": "84b198b0432f082c721d6b50c81216d2", "fusion_lat": 0.0, "name": "84b198b0432f082c721d6b50c81216d2", "is_reserved": 0, "rental_uris": {"android": "https://dc.lft.to/lastmile_qr_scan", "ios": "https://dc.lft.to/lastmile_qr_scan"}, "fusion_lon": 0.0}, {"lat": 38.902478, "is_disabled": 0, "type": "electric_scooter", "lon": -77.034249, "bike_id": "1f47553830a4fbdb749f801de6385a1b", "fusion_lat": 0.0, "name": "1f47553830a4fbdb749f801de6385a1b", "is_reserved": 0, "rental_uris": {"android": "https://dc.lft.to/lastmile_qr_scan", "ios": "https://dc.lft.to/lastmile_qr_scan"}, "fusion_lon": 0.0}, {"lat": 38.90486083333333, "is_disabled": 0, "type": "electric_scooter", "lon": -76.97334033333334, "bike_id": "b558361c69b17486621fb52100828a31", "fusion_lat": 0.0, "name": "b558361c69b17486621fb52100828a31", "is_reserved": 0, "rental_uris": {"android": "https://dc.lft.to/lastmile_qr_scan", "ios": "https://dc.lft.to/lastmile_qr_scan"}, "fusion_lon": 0.0}, {"lat": 38.92111533333333, "is_disabled": 0, "type": "electric_scooter", "lon": -77.04703416666666, "bike_id": "581eb8bd012145cef1e9ddb4601d1a10", "fusion_lat": 0.0, "name": "581eb8bd012145cef1e9ddb4601d1a10", "is_reserved": 0, "rental_uris": {"android": "https://dc.lft.to/lastmile_qr_scan", "ios": "https://dc.lft.to/lastmile_qr_scan"}, "fusion_lon": 0.0}, {"lat": 38.897203833333336, "is_disabled": 0, "type": "electric_scooter", "lon": -77.00795383333333, "bike_id": "eb97d60d7c13d1958a3af41a4009f8f3", "fusion_lat": 0.0, "name": "eb97d60d7c13d1958a3af41a4009f8f3", "is_reserved": 0, "rental_uris": {"android": "https://dc.lft.to/lastmile_qr_scan", "ios": "https://dc.lft.to/lastmile_qr_scan"}, "fusion_lon": 0.0}, {"lat": 38.928391166666664, "is_disabled": 0, "type": "electric_scooter", "lon": -77.05421, "bike_id": "f5ae0400458cc47c6e948e685bc1b134", "fusion_lat": 0.0, "name": "f5ae0400458cc47c6e948e685bc1b134", "is_reserved": 0, "rental_uris": {"android": "https://dc.lft.to/lastmile_qr_scan", "ios": "https://dc.lft.to/lastmile_qr_scan"}, "fusion_lon": 0.0}, {"lat": 38.926745833333335, "is_disabled": 0, "type": "electric_scooter", "lon": -77.01475533333333, "bike_id": "6066a9baf20317811a3a1e9e5158367a", "fusion_lat": 0.0, "name": "6066a9baf20317811a3a1e9e5158367a", "is_reserved": 0, "rental_uris": {"android": "https://dc.lft.to/lastmile_qr_scan", "ios": "https://dc.lft.to/lastmile_qr_scan"}, "fusion_lon": 0.0}, {"lat": 38.9323255, "is_disabled": 0, "type": "electric_scooter", "lon": -77.0338695, "bike_id": "d2a0f3156c9d850cb627a4ef371cd4b5", "fusion_lat": 0.0, "name": "d2a0f3156c9d850cb627a4ef371cd4b5", "is_reserved": 0, "rental_uris": {"android": "https://dc.lft.to/lastmile_qr_scan", "ios": "https://dc.lft.to/lastmile_qr_scan"}, "fusion_lon": 0.0}, {"lat": 38.91152533333333, "is_disabled": 0, "type": "electric_scooter", "lon": -77.03840116666667, "bike_id": "6601ac87757554bc52296248d129d2bd", "fusion_lat": 0.0, "name": "6601ac87757554bc52296248d129d2bd", "is_reserved": 0, "rental_uris": {"android": "https://dc.lft.to/lastmile_qr_scan", "ios": "https://dc.lft.to/lastmile_qr_scan"}, "fusion_lon": 0.0}, {"lat": 38.9133295, "is_disabled": 0, "type": "electric_scooter", "lon": -77.03125316666667, "bike_id": "47f90b25659404a239abe3f06c4bd8cc", "fusion_lat": 0.0, "name": "47f90b25659404a239abe3f06c4bd8cc", "is_reserved": 0, "rental_uris": {"android": "https://dc.lft.to/lastmile_qr_scan", "ios": "https://dc.lft.to/lastmile_qr_scan"}, "fusion_lon": 0.0}, {"lat": 38.90131216666666, "is_disabled": 0, "type": "electric_scooter", "lon": -76.99743216666667, "bike_id": "3ee06131ee2bf5ebde19fa5626d27bd9", "fusion_lat": 0.0, "name": "3ee06131ee2bf5ebde19fa5626d27bd9", "is_reserved": 0, "rental_uris": {"android": "https://dc.lft.to/lastmile_qr_scan", "ios": "https://dc.lft.to/lastmile_qr_scan"}, "fusion_lon": 0.0}, {"lat": 38.90723716666667, "is_disabled": 0, "type": "electric_scooter", "lon": -77.04752833333333, "bike_id": "bcd1ee0be6ce5d305a42edc93d856f6b", "fusion_lat": 0.0, "name": "bcd1ee0be6ce5d305a42edc93d856f6b", "is_reserved": 0, "rental_uris": {"android": "https://dc.lft.to/lastmile_qr_scan", "ios": "https://dc.lft.to/lastmile_qr_scan"}, "fusion_lon": 0.0}, {"lat": 38.917925, "is_disabled": 0, "type": "electric_scooter", "lon": -77.04069083333333, "bike_id": "bc3d2b3e2ff914fa997b2644e4fd088e", "fusion_lat": 0.0, "name": "bc3d2b3e2ff914fa997b2644e4fd088e", "is_reserved": 0, "rental_uris": {"android": "https://dc.lft.to/lastmile_qr_scan", "ios": "https://dc.lft.to/lastmile_qr_scan"}, "fusion_lon": 0.0}, {"lat": 38.8732065, "is_disabled": 0, "type": "electric_bike", "lon": -76.99155983333333, "bike_id": "64d46057d1b5fac49b91eedf1176617c", "fusion_lat": 0.0, "name": "64d46057d1b5fac49b91eedf1176617c", "is_reserved": 0, "rental_uris": {"android": "https://dc.lft.to/lastmile_qr_scan", "ios": "https://dc.lft.to/lastmile_qr_scan"}, "fusion_lon": 0.0}, {"lat": 38.885002666666665, "is_disabled": 0, "type": "electric_scooter", "lon": -77.01553633333333, "bike_id": "78fd1b41fa02e4472a07449af2615b8c", "fusion_lat": 0.0, "name": "78fd1b41fa02e4472a07449af2615b8c", "is_reserved": 0, "rental_uris": {"android": "https://dc.lft.to/lastmile_qr_scan", "ios": "https://dc.lft.to/lastmile_qr_scan"}, "fusion_lon": 0.0}, {"lat": 38.902588, "is_disabled": 0, "type": "electric_scooter", "lon": -77.0179195, "bike_id": "c9b52adcfff1acf571ffdcc040a15b6c", "fusion_lat": 0.0, "name": "c9b52adcfff1acf571ffdcc040a15b6c", "is_reserved": 0, "rental_uris": {"android": "https://dc.lft.to/lastmile_qr_scan", "ios": "https://dc.lft.to/lastmile_qr_scan"}, "fusion_lon": 0.0}, {"lat": 38.93537666666667, "is_disabled": 0, "type": "electric_scooter", "lon": -77.023527, "bike_id": "1b7a85dc07d6d4bd388515c5bdfa090f", "fusion_lat": 0.0, "name": "1b7a85dc07d6d4bd388515c5bdfa090f", "is_reserved": 0, "rental_uris": {"android": "https://dc.lft.to/lastmile_qr_scan", "ios": "https://dc.lft.to/lastmile_qr_scan"}, "fusion_lon": 0.0}, {"lat": 38.91563816666667, "is_disabled": 0, "type": "electric_scooter", "lon": -77.04876516666667, "bike_id": "f53ae8160d35dc0d8bd397a6a31b3637", "fusion_lat": 0.0, "name": "f53ae8160d35dc0d8bd397a6a31b3637", "is_reserved": 0, "rental_uris": {"android": "https://dc.lft.to/lastmile_qr_scan", "ios": "https://dc.lft.to/lastmile_qr_scan"}, "fusion_lon": 0.0}, {"lat": 38.8987885, "is_disabled": 0, "type": "electric_scooter", "lon": -76.93181933333334, "bike_id": "b195fa2495102e0590f220b926627735", "fusion_lat": 0.0, "name": "b195fa2495102e0590f220b926627735", "is_reserved": 0, "rental_uris": {"android": "https://dc.lft.to/lastmile_qr_scan", "ios": "https://dc.lft.to/lastmile_qr_scan"}, "fusion_lon": 0.0}, {"lat": 38.97093616666667, "is_disabled": 0, "type": "electric_bike", "lon": -77.06959866666666, "bike_id": "337e880df3d91fe864dc71812613df15", "fusion_lat": 0.0, "name": "337e880df3d91fe864dc71812613df15", "is_reserved": 0, "rental_uris": {"android": "https://dc.lft.to/lastmile_qr_scan", "ios": "https://dc.lft.to/lastmile_qr_scan"}, "fusion_lon": 0.0}, {"lat": 38.90974116666667, "is_disabled": 0, "type": "electric_scooter", "lon": -77.034129, "bike_id": "b87b15a619313c94238c03452bcbbb5a", "fusion_lat": 0.0, "name": "b87b15a619313c94238c03452bcbbb5a", "is_reserved": 0, "rental_uris": {"android": "https://dc.lft.to/lastmile_qr_scan", "ios": "https://dc.lft.to/lastmile_qr_scan"}, "fusion_lon": 0.0}, {"lat": 38.9084425, "is_disabled": 0, "type": "electric_scooter", "lon": -77.02717216666667, "bike_id": "8aa2d76494677d7b5ed6678e1ef14ee5", "fusion_lat": 0.0, "name": "8aa2d76494677d7b5ed6678e1ef14ee5", "is_reserved": 0, "rental_uris": {"android": "https://dc.lft.to/lastmile_qr_scan", "ios": "https://dc.lft.to/lastmile_qr_scan"}, "fusion_lon": 0.0}, {"lat": 38.93963166666666, "is_disabled": 0, "type": "electric_scooter", "lon": -77.02751833333333, "bike_id": "d4c6925e61e0e9509996a55e27842410", "fusion_lat": 0.0, "name": "d4c6925e61e0e9509996a55e27842410", "is_reserved": 0, "rental_uris": {"android": "https://dc.lft.to/lastmile_qr_scan", "ios": "https://dc.lft.to/lastmile_qr_scan"}, "fusion_lon": 0.0}, {"lat": 38.899928333333335, "is_disabled": 0, "type": "electric_bike", "lon": -76.981222, "bike_id": "ff7f826d62c5f8481e86d6107f045630", "fusion_lat": 0.0, "name": "ff7f826d62c5f8481e86d6107f045630", "is_reserved": 0, "rental_uris": {"android": "https://dc.lft.to/lastmile_qr_scan", "ios": "https://dc.lft.to/lastmile_qr_scan"}, "fusion_lon": 0.0}, {"lat": 38.873839833333335, "is_disabled": 0, "type": "electric_scooter", "lon": -77.00201783333333, "bike_id": "a91093d409252b65e2137a6b8ca98a6b", "fusion_lat": 0.0, "name": "a91093d409252b65e2137a6b8ca98a6b", "is_reserved": 0, "rental_uris": {"android": "https://dc.lft.to/lastmile_qr_scan", "ios": "https://dc.lft.to/lastmile_qr_scan"}, "fusion_lon": 0.0}, {"lat": 38.92487033333333, "is_disabled": 0, "type": "electric_scooter", "lon": -77.03941833333333, "bike_id": "344895ef780e220eb1ea42057daf1f15", "fusion_lat": 0.0, "name": "344895ef780e220eb1ea42057daf1f15", "is_reserved": 0, "rental_uris": {"android": "https://dc.lft.to/lastmile_qr_scan", "ios": "https://dc.lft.to/lastmile_qr_scan"}, "fusion_lon": 0.0}, {"lat": 38.92761683333333, "is_disabled": 0, "type": "electric_scooter", "lon": -77.00592883333333, "bike_id": "c7e64ad671a8e90a8ca5f5850b081ea5", "fusion_lat": 0.0, "name": "c7e64ad671a8e90a8ca5f5850b081ea5", "is_reserved": 0, "rental_uris": {"android": "https://dc.lft.to/lastmile_qr_scan", "ios": "https://dc.lft.to/lastmile_qr_scan"}, "fusion_lon": 0.0}, {"lat": 38.920602, "is_disabled": 0, "type": "electric_scooter", "lon": -77.03298783333334, "bike_id": "c5003dff42469f42974bcf7d59fedbf3", "fusion_lat": 0.0, "name": "c5003dff42469f42974bcf7d59fedbf3", "is_reserved": 0, "rental_uris": {"android": "https://dc.lft.to/lastmile_qr_scan", "ios": "https://dc.lft.to/lastmile_qr_scan"}, "fusion_lon": 0.0}, {"lat": 38.92282083333333, "is_disabled": 0, "type": "electric_scooter", "lon": -77.022481, "bike_id": "2ade6bd60bfc19127229b96ee1bc2dcd", "fusion_lat": 0.0, "name": "2ade6bd60bfc19127229b96ee1bc2dcd", "is_reserved": 0, "rental_uris": {"android": "https://dc.lft.to/lastmile_qr_scan", "ios": "https://dc.lft.to/lastmile_qr_scan"}, "fusion_lon": 0.0}, {"lat": 38.9182005, "is_disabled": 0, "type": "electric_scooter", "lon": -77.04162066666666, "bike_id": "5122e505b86c961332f4ddefa32a6e5e", "fusion_lat": 0.0, "name": "5122e505b86c961332f4ddefa32a6e5e", "is_reserved": 0, "rental_uris": {"android": "https://dc.lft.to/lastmile_qr_scan", "ios": "https://dc.lft.to/lastmile_qr_scan"}, "fusion_lon": 0.0}, {"lat": 38.90009366666666, "is_disabled": 0, "type": "electric_scooter", "lon": -76.92235816666667, "bike_id": "d593e6f929370a20f8dd43896da9c1e7", "fusion_lat": 0.0, "name": "d593e6f929370a20f8dd43896da9c1e7", "is_reserved": 0, "rental_uris": {"android": "https://dc.lft.to/lastmile_qr_scan", "ios": "https://dc.lft.to/lastmile_qr_scan"}, "fusion_lon": 0.0}, {"lat": 38.91264833333334, "is_disabled": 0, "type": "electric_scooter", "lon": -77.0314045, "bike_id": "1115cc912ab1e50cbebc0239c56c59cf", "fusion_lat": 0.0, "name": "1115cc912ab1e50cbebc0239c56c59cf", "is_reserved": 0, "rental_uris": {"android": "https://dc.lft.to/lastmile_qr_scan", "ios": "https://dc.lft.to/lastmile_qr_scan"}, "fusion_lon": 0.0}, {"lat": 38.91696666666667, "is_disabled": 0, "type": "electric_scooter", "lon": -77.036358, "bike_id": "239be43022eae5ff75290c30c79a76e6", "fusion_lat": 0.0, "name": "239be43022eae5ff75290c30c79a76e6", "is_reserved": 0, "rental_uris": {"android": "https://dc.lft.to/lastmile_qr_scan", "ios": "https://dc.lft.to/lastmile_qr_scan"}, "fusion_lon": 0.0}, {"lat": 38.928672166666665, "is_disabled": 0, "type": "electric_scooter", "lon": -77.03242883333333, "bike_id": "7aa796b6fe27ef56b767603fafe91828", "fusion_lat": 0.0, "name": "7aa796b6fe27ef56b767603fafe91828", "is_reserved": 0, "rental_uris": {"android": "https://dc.lft.to/lastmile_qr_scan", "ios": "https://dc.lft.to/lastmile_qr_scan"}, "fusion_lon": 0.0}, {"lat": 38.92544, "is_disabled": 0, "type": "electric_scooter", "lon": -77.05240883333333, "bike_id": "65aceda8ed406345f0385b87f46da301", "fusion_lat": 0.0, "name": "65aceda8ed406345f0385b87f46da301", "is_reserved": 0, "rental_uris": {"android": "https://dc.lft.to/lastmile_qr_scan", "ios": "https://dc.lft.to/lastmile_qr_scan"}, "fusion_lon": 0.0}, {"lat": 38.924451166666664, "is_disabled": 0, "type": "electric_scooter", "lon": -77.04028766666667, "bike_id": "f136089c2192e9569d72cc3253b8d727", "fusion_lat": 0.0, "name": "f136089c2192e9569d72cc3253b8d727", "is_reserved": 0, "rental_uris": {"android": "https://dc.lft.to/lastmile_qr_scan", "ios": "https://dc.lft.to/lastmile_qr_scan"}, "fusion_lon": 0.0}, {"lat": 38.904538, "is_disabled": 0, "type": "electric_scooter", "lon": -77.02885933333333, "bike_id": "3a0ae51c59b264fa81f3a494b4e602ab", "fusion_lat": 0.0, "name": "3a0ae51c59b264fa81f3a494b4e602ab", "is_reserved": 0, "rental_uris": {"android": "https://dc.lft.to/lastmile_qr_scan", "ios": "https://dc.lft.to/lastmile_qr_scan"}, "fusion_lon": 0.0}, {"lat": 38.89539116666667, "is_disabled": 0, "type": "electric_scooter", "lon": -77.01130866666666, "bike_id": "b3e1f9d0741b67a3af5833c3a107bf46", "fusion_lat": 0.0, "name": "b3e1f9d0741b67a3af5833c3a107bf46", "is_reserved": 0, "rental_uris": {"android": "https://dc.lft.to/lastmile_qr_scan", "ios": "https://dc.lft.to/lastmile_qr_scan"}, "fusion_lon": 0.0}, {"lat": 38.927237, "is_disabled": 0, "type": "electric_scooter", "lon": -77.02095566666667, "bike_id": "423319d9fbbd778d98aa409451d9b132", "fusion_lat": 0.0, "name": "423319d9fbbd778d98aa409451d9b132", "is_reserved": 0, "rental_uris": {"android": "https://dc.lft.to/lastmile_qr_scan", "ios": "https://dc.lft.to/lastmile_qr_scan"}, "fusion_lon": 0.0}, {"lat": 38.9147705, "is_disabled": 0, "type": "electric_scooter", "lon": -77.01897566666666, "bike_id": "dcececcffd3f426425cd09d18c9cdbda", "fusion_lat": 0.0, "name": "dcececcffd3f426425cd09d18c9cdbda", "is_reserved": 0, "rental_uris": {"android": "https://dc.lft.to/lastmile_qr_scan", "ios": "https://dc.lft.to/lastmile_qr_scan"}, "fusion_lon": 0.0}, {"lat": 38.886611333333335, "is_disabled": 0, "type": "electric_scooter", "lon": -76.99645883333334, "bike_id": "47bd2922ba9802ce83002a390d8fd22d", "fusion_lat": 0.0, "name": "47bd2922ba9802ce83002a390d8fd22d", "is_reserved": 0, "rental_uris": {"android": "https://dc.lft.to/lastmile_qr_scan", "ios": "https://dc.lft.to/lastmile_qr_scan"}, "fusion_lon": 0.0}, {"lat": 38.9063725, "is_disabled": 0, "type": "electric_scooter", "lon": -77.03987333333333, "bike_id": "305f355593b0e8bb56ce6e3b3a4b794b", "fusion_lat": 0.0, "name": "305f355593b0e8bb56ce6e3b3a4b794b", "is_reserved": 0, "rental_uris": {"android": "https://dc.lft.to/lastmile_qr_scan", "ios": "https://dc.lft.to/lastmile_qr_scan"}, "fusion_lon": 0.0}, {"lat": 38.88429466666667, "is_disabled": 0, "type": "electric_bike", "lon": -76.98088333333334, "bike_id": "e3bac603185a18518716eddbc99d38d2", "fusion_lat": 0.0, "name": "e3bac603185a18518716eddbc99d38d2", "is_reserved": 0, "rental_uris": {"android": "https://dc.lft.to/lastmile_qr_scan", "ios": "https://dc.lft.to/lastmile_qr_scan"}, "fusion_lon": 0.0}, {"lat": 38.89207366666667, "is_disabled": 0, "type": "electric_bike", "lon": -76.9704995, "bike_id": "79b877a4871ba89817a304e1374cb43f", "fusion_lat": 0.0, "name": "79b877a4871ba89817a304e1374cb43f", "is_reserved": 0, "rental_uris": {"android": "https://dc.lft.to/lastmile_qr_scan", "ios": "https://dc.lft.to/lastmile_qr_scan"}, "fusion_lon": 0.0}, {"lat": 38.90607283333333, "is_disabled": 0, "type": "electric_scooter", "lon": -77.0585805, "bike_id": "17b77b550d6f2cba95edf854b79b5abd", "fusion_lat": 0.0, "name": "17b77b550d6f2cba95edf854b79b5abd", "is_reserved": 0, "rental_uris": {"android": "https://dc.lft.to/lastmile_qr_scan", "ios": "https://dc.lft.to/lastmile_qr_scan"}, "fusion_lon": 0.0}, {"lat": 38.91896333333333, "is_disabled": 0, "type": "electric_scooter", "lon": -77.039131, "bike_id": "da84a4bc0785f03b3f09292fffce4049", "fusion_lat": 0.0, "name": "da84a4bc0785f03b3f09292fffce4049", "is_reserved": 0, "rental_uris": {"android": "https://dc.lft.to/lastmile_qr_scan", "ios": "https://dc.lft.to/lastmile_qr_scan"}, "fusion_lon": 0.0}, {"lat": 38.93351116666667, "is_disabled": 0, "type": "electric_scooter", "lon": -77.05701383333333, "bike_id": "38295655b710c32234b48f5e11dddcb4", "fusion_lat": 0.0, "name": "38295655b710c32234b48f5e11dddcb4", "is_reserved": 0, "rental_uris": {"android": "https://dc.lft.to/lastmile_qr_scan", "ios": "https://dc.lft.to/lastmile_qr_scan"}, "fusion_lon": 0.0}, {"lat": 38.886610166666664, "is_disabled": 0, "type": "electric_bike", "lon": -77.16229516666667, "bike_id": "c962dd994bf51f010881903b7fd0f284", "fusion_lat": 0.0, "name": "c962dd994bf51f010881903b7fd0f284", "is_reserved": 0, "rental_uris": {"android": "https://dc.lft.to/lastmile_qr_scan", "ios": "https://dc.lft.to/lastmile_qr_scan"}, "fusion_lon": 0.0}, {"lat": 38.921519, "is_disabled": 0, "type": "electric_scooter", "lon": -77.0350805, "bike_id": "c6cdf3bcece06c91907cb20ce88d1c11", "fusion_lat": 0.0, "name": "c6cdf3bcece06c91907cb20ce88d1c11", "is_reserved": 0, "rental_uris": {"android": "https://dc.lft.to/lastmile_qr_scan", "ios": "https://dc.lft.to/lastmile_qr_scan"}, "fusion_lon": 0.0}, {"lat": 38.917115, "is_disabled": 0, "type": "electric_scooter", "lon": -77.038634, "bike_id": "e394c7f720fca16763db4a84519eeef9", "fusion_lat": 0.0, "name": "e394c7f720fca16763db4a84519eeef9", "is_reserved": 0, "rental_uris": {"android": "https://dc.lft.to/lastmile_qr_scan", "ios": "https://dc.lft.to/lastmile_qr_scan"}, "fusion_lon": 0.0}, {"lat": 38.920573, "is_disabled": 0, "type": "electric_scooter", "lon": -77.044094, "bike_id": "cfd93a4cd7c43eb40691d362d85d3ee6", "fusion_lat": 0.0, "name": "cfd93a4cd7c43eb40691d362d85d3ee6", "is_reserved": 0, "rental_uris": {"android": "https://dc.lft.to/lastmile_qr_scan", "ios": "https://dc.lft.to/lastmile_qr_scan"}, "fusion_lon": 0.0}, {"lat": 38.90482216666667, "is_disabled": 0, "type": "electric_scooter", "lon": -77.0078695, "bike_id": "fd5a5842b9ef1ef0d2895eccb7917bdd", "fusion_lat": 0.0, "name": "fd5a5842b9ef1ef0d2895eccb7917bdd", "is_reserved": 0, "rental_uris": {"android": "https://dc.lft.to/lastmile_qr_scan", "ios": "https://dc.lft.to/lastmile_qr_scan"}, "fusion_lon": 0.0}, {"lat": 38.910609, "is_disabled": 0, "type": "electric_scooter", "lon": -77.04576183333333, "bike_id": "1365f41168896c4ef044a85d30a8dca2", "fusion_lat": 0.0, "name": "1365f41168896c4ef044a85d30a8dca2", "is_reserved": 0, "rental_uris": {"android": "https://dc.lft.to/lastmile_qr_scan", "ios": "https://dc.lft.to/lastmile_qr_scan"}, "fusion_lon": 0.0}, {"lat": 38.93887383333333, "is_disabled": 0, "type": "electric_scooter", "lon": -77.032305, "bike_id": "871393946d1a09a2fc19991d629d1578", "fusion_lat": 0.0, "name": "871393946d1a09a2fc19991d629d1578", "is_reserved": 0, "rental_uris": {"android": "https://dc.lft.to/lastmile_qr_scan", "ios": "https://dc.lft.to/lastmile_qr_scan"}, "fusion_lon": 0.0}, {"lat": 38.89253683333333, "is_disabled": 0, "type": "electric_scooter", "lon": -77.020053, "bike_id": "6d73096b4d7cc717c77df80aaca9a8f4", "fusion_lat": 0.0, "name": "6d73096b4d7cc717c77df80aaca9a8f4", "is_reserved": 0, "rental_uris": {"android": "https://dc.lft.to/lastmile_qr_scan", "ios": "https://dc.lft.to/lastmile_qr_scan"}, "fusion_lon": 0.0}, {"lat": 38.902505166666664, "is_disabled": 0, "type": "electric_scooter", "lon": -77.0176085, "bike_id": "91d0b554dbddd729c7eb5380cc3abcb8", "fusion_lat": 0.0, "name": "91d0b554dbddd729c7eb5380cc3abcb8", "is_reserved": 0, "rental_uris": {"android": "https://dc.lft.to/lastmile_qr_scan", "ios": "https://dc.lft.to/lastmile_qr_scan"}, "fusion_lon": 0.0}, {"lat": 38.90024116666667, "is_disabled": 0, "type": "electric_scooter", "lon": -76.99866183333333, "bike_id": "61cf3f8d32c0fb080c48e15432ac8660", "fusion_lat": 0.0, "name": "61cf3f8d32c0fb080c48e15432ac8660", "is_reserved": 0, "rental_uris": {"android": "https://dc.lft.to/lastmile_qr_scan", "ios": "https://dc.lft.to/lastmile_qr_scan"}, "fusion_lon": 0.0}, {"lat": 38.90155883333333, "is_disabled": 0, "type": "electric_scooter", "lon": -77.04169983333334, "bike_id": "fff562307bd9f10b3a27469bd039a358", "fusion_lat": 0.0, "name": "fff562307bd9f10b3a27469bd039a358", "is_reserved": 0, "rental_uris": {"android": "https://dc.lft.to/lastmile_qr_scan", "ios": "https://dc.lft.to/lastmile_qr_scan"}, "fusion_lon": 0.0}, {"lat": 38.90516783333333, "is_disabled": 0, "type": "electric_scooter", "lon": -77.064787, "bike_id": "445b5a1c2025e4fc0695ed2ba0c35d55", "fusion_lat": 0.0, "name": "445b5a1c2025e4fc0695ed2ba0c35d55", "is_reserved": 0, "rental_uris": {"android": "https://dc.lft.to/lastmile_qr_scan", "ios": "https://dc.lft.to/lastmile_qr_scan"}, "fusion_lon": 0.0}, {"lat": 38.89619666666667, "is_disabled": 0, "type": "electric_scooter", "lon": -76.95599733333333, "bike_id": "5804f893f6ff6d5936a62a6db522604c", "fusion_lat": 0.0, "name": "5804f893f6ff6d5936a62a6db522604c", "is_reserved": 0, "rental_uris": {"android": "https://dc.lft.to/lastmile_qr_scan", "ios": "https://dc.lft.to/lastmile_qr_scan"}, "fusion_lon": 0.0}, {"lat": 38.9058555, "is_disabled": 0, "type": "electric_scooter", "lon": -77.04672366666667, "bike_id": "f10025c417629209271ee1551e79f022", "fusion_lat": 0.0, "name": "f10025c417629209271ee1551e79f022", "is_reserved": 0, "rental_uris": {"android": "https://dc.lft.to/lastmile_qr_scan", "ios": "https://dc.lft.to/lastmile_qr_scan"}, "fusion_lon": 0.0}, {"lat": 38.892569333333334, "is_disabled": 0, "type": "electric_scooter", "lon": -77.02205633333334, "bike_id": "2174055e0e4f529566b12514aff4ff56", "fusion_lat": 0.0, "name": "2174055e0e4f529566b12514aff4ff56", "is_reserved": 0, "rental_uris": {"android": "https://dc.lft.to/lastmile_qr_scan", "ios": "https://dc.lft.to/lastmile_qr_scan"}, "fusion_lon": 0.0}, {"lat": 38.81433216666667, "is_disabled": 0, "type": "electric_bike", "lon": -77.11893883333333, "bike_id": "72ac42fb1aefa7518d85de032ba922c4", "fusion_lat": 0.0, "name": "72ac42fb1aefa7518d85de032ba922c4", "is_reserved": 0, "rental_uris": {"android": "https://dc.lft.to/lastmile_qr_scan", "ios": "https://dc.lft.to/lastmile_qr_scan"}, "fusion_lon": 0.0},