{"data": {"bikes": [{"name": "d8b89722ae64d724dc02ff28dfd66c1c", "type": "electric_scooter", "lat": 38.9182505, "is_reserved": 0, "lon": -77.03444216666666, "fusion_lon": 0.0, "is_disabled": 0, "fusion_lat": 0.0, "bike_id": "d8b89722ae64d724dc02ff28dfd66c1c", "rental_uris": {"ios": "https://dc.lft.to/lastmile_qr_scan", "android": "https://dc.lft.to/lastmile_qr_scan"}}, {"name": "9a2a14917472909961818926b6380987", "type": "electric_scooter", "lat": 38.911113, "is_reserved": 0, "lon": -77.036245, "fusion_lon": 0.0, "is_disabled": 0, "fusion_lat": 0.0, "bike_id": "9a2a14917472909961818926b6380987", "rental_uris": {"ios": "https://dc.lft.to/lastmile_qr_scan", "android": "https://dc.lft.to/lastmile_qr_scan"}}, {"name": "093a291ceb88381465ec44211b1e0761", "type": "electric_scooter", "lat": 38.93251733333334, "is_reserved": 0, "lon": -77.0327955, "fusion_lon": 0.0, "is_disabled": 0, "fusion_lat": 0.0, "bike_id": "093a291ceb88381465ec44211b1e0761", "rental_uris": {"ios": "https://dc.lft.to/lastmile_qr_scan", "android": "https://dc.lft.to/lastmile_qr_scan"}}, {"name": "78159ed4c06deceebb98133153a7d321", "type": "electric_bike", "lat": 38.86367333333333, "is_reserved": 0, "lon": -76.97015383333333, "fusion_lon": 0.0, "is_disabled": 0, "fusion_lat": 0.0, "bike_id": "78159ed4c06deceebb98133153a7d321", "rental_uris": {"ios": "https://dc.lft.to/lastmile_qr_scan", "android": "https://dc.lft.to/lastmile_qr_scan"}}, {"name": "087f797356c1d232f4466761f9f85f39", "type": "electric_scooter", "lat": 38.9068465, "is_reserved": 0, "lon": -77.01340966666666, "fusion_lon": 0.0, "is_disabled": 0, "fusion_lat": 0.0, "bike_id": "087f797356c1d232f4466761f9f85f39", "rental_uris": {"ios": "https://dc.lft.to/lastmile_qr_scan", "android": "https://dc.lft.to/lastmile_qr_scan"}}, {"name": "6cb2afc077f8011dc3517a06f8530805", "type": "electric_scooter", "lat": 38.915429333333336, "is_reserved": 0, "lon": -77.03857916666666, "fusion_lon": 0.0, "is_disabled": 0, "fusion_lat": 0.0, "bike_id": "6cb2afc077f8011dc3517a06f8530805", "rental_uris": {"ios": "https://dc.lft.to/lastmile_qr_scan", "android": "https://dc.lft.to/lastmile_qr_scan"}}, {"name": "099c21d567cdbcd6f441bf9ae5603abe", "type": "electric_scooter", "lat": 38.89639066666667, "is_reserved": 0, "lon": -77.02915966666667, "fusion_lon": 0.0, "is_disabled": 0, "fusion_lat": 0.0, "bike_id": "099c21d567cdbcd6f441bf9ae5603abe", "rental_uris": {"ios": "https://dc.lft.to/lastmile_qr_scan", "android": "https://dc.lft.to/lastmile_qr_scan"}}, {"name": "0ff9114725256df22800d0e88d5174e5", "type": "electric_scooter", "lat": 38.9123955, "is_reserved": 0, "lon": -77.001087, "fusion_lon": 0.0, "is_disabled": 0, "fusion_lat": 0.0, "bike_id": "0ff9114725256df22800d0e88d5174e5", "rental_uris": {"ios": "https://dc.lft.to/lastmile_qr_scan", "android": "https://dc.lft.to/lastmile_qr_scan"}}, {"name": "016bcef082072b3edf39f9b414c03781", "type": "electric_scooter", "lat": 38.906386166666664, "is_reserved": 0, "lon": -77.01138366666666, "fusion_lon": 0.0, "is_disabled": 0, "fusion_lat": 0.0, "bike_id": "016bcef082072b3edf39f9b414c03781", "rental_uris": {"ios": "https://dc.lft.to/lastmile_qr_scan", "android": "https://dc.lft.to/lastmile_qr_scan"}}, {"name": "5c1730de9d39e809f10393597ea2eef5", "type": "electric_scooter", "lat": 38.90267216666667, "is_reserved": 0, "lon": -77.03166083333333, "fusion_lon": 0.0, "is_disabled": 0, "fusion_lat": 0.0, "bike_id": "5c1730de9d39e809f10393597ea2eef5", "rental_uris": {"ios": "https://dc.lft.to/lastmile_qr_scan", "android": "https://dc.lft.to/lastmile_qr_scan"}}, {"name": "b87eae86c566aa70eb89999c4d3ba438", "type": "electric_scooter", "lat": 38.90851633333333, "is_reserved": 0, "lon": -77.044022, "fusion_lon": 0.0, "is_disabled": 0, "fusion_lat": 0.0, "bike_id": "b87eae86c566aa70eb89999c4d3ba438", "rental_uris": {"ios": "https://dc.lft.to/lastmile_qr_scan", "android": "https://dc.lft.to/lastmile_qr_scan"}}, {"name": "57039b2cf708154a4c6ad7753e163345", "type": "electric_scooter", "lat": 38.892208, "is_reserved": 0, "lon": -77.04261833333334, "fusion_lon": 0.0, "is_disabled": 0, "fusion_lat": 0.0, "bike_id": "57039b2cf708154a4c6ad7753e163345", "rental_uris": {"ios": "https://dc.lft.to/lastmile_qr_scan", "android": "https://dc.lft.to/lastmile_qr_scan"}}, {"name": "b382b2c62e3d5a75287cec8af99538e1", "type": "electric_scooter", "lat": 38.9224285, "is_reserved": 0, "lon": -77.01001866666667, "fusion_lon": 0.0, "is_disabled": 0, "fusion_lat": 0.0, "bike_id": "b382b2c62e3d5a75287cec8af99538e1", "rental_uris": {"ios": "https://dc.lft.to/lastmile_qr_scan", "android": "https://dc.lft.to/lastmile_qr_scan"}}, {"name": "0b3c595e90166450dd052084ed8fdf20", "type": "electric_scooter", "lat": 38.9065365, "is_reserved": 0, "lon": -77.0385505, "fusion_lon": 0.0, "is_disabled": 0, "fusion_lat": 0.0, "bike_id": "0b3c595e90166450dd052084ed8fdf20", "rental_uris": {"ios": "https://dc.lft.to/lastmile_qr_scan", "android": "https://dc.lft.to/lastmile_qr_scan"}}, {"name": "2121c1e33af319d9dcba133a8fb63eb6", "type": "electric_bike", "lat": 38.86907133333333, "is_reserved": 0, "lon": -77.1317405, "fusion_lon": 0.0, "is_disabled": 0, "fusion_lat": 0.0, "bike_id": "2121c1e33af319d9dcba133a8fb63eb6", "rental_uris": {"ios": "https://dc.lft.to/lastmile_qr_scan", "android": "https://dc.lft.to/lastmile_qr_scan"}}, {"name": "757b0b68e1de39d2fd48c52a0dd88131", "type": "electric_scooter", "lat": 38.90268316666667, "is_reserved": 0, "lon": -77.0589965, "fusion_lon": 0.0, "is_disabled": 0, "fusion_lat": 0.0, "bike_id": "757b0b68e1de39d2fd48c52a0dd88131", "rental_uris": {"ios": "https://dc.lft.to/lastmile_qr_scan", "android": "https://dc.lft.to/lastmile_qr_scan"}}, {"name": "c264015f76a1c8c8d05e135620a6c611", "type": "electric_scooter", "lat": 38.93251016666667, "is_reserved": 0, "lon": -77.03281983333333, "fusion_lon": 0.0, "is_disabled": 0, "fusion_lat": 0.0, "bike_id": "c264015f76a1c8c8d05e135620a6c611", "rental_uris": {"ios": "https://dc.lft.to/lastmile_qr_scan", "android": "https://dc.lft.to/lastmile_qr_scan"}}, {"name": "b0a0ae8f52b80dc0d75e3b1bf1b3f648", "type": "electric_scooter", "lat": 38.906368, "is_reserved": 0, "lon": -76.9857385, "fusion_lon": 0.0, "is_disabled": 0, "fusion_lat": 0.0, "bike_id": "b0a0ae8f52b80dc0d75e3b1bf1b3f648", "rental_uris": {"ios": "https://dc.lft.to/lastmile_qr_scan", "android": "https://dc.lft.to/lastmile_qr_scan"}}, {"name": "743767a1bd76ac88dc30dfb3c3557543", "type": "electric_scooter", "lat": 38.927190333333336, "is_reserved": 0, "lon": -77.030784, "fusion_lon": 0.0, "is_disabled": 0, "fusion_lat": 0.0, "bike_id": "743767a1bd76ac88dc30dfb3c3557543", "rental_uris": {"ios": "https://dc.lft.to/lastmile_qr_scan", "android": "https://dc.lft.to/lastmile_qr_scan"}}, {"name": "593cf632b7bc12a8db33eeb79334bfb6", "type": "electric_scooter", "lat": 38.92180833333333, "is_reserved": 0, "lon": -77.04024366666667, "fusion_lon": 0.0, "is_disabled": 0, "fusion_lat": 0.0, "bike_id": "593cf632b7bc12a8db33eeb79334bfb6", "rental_uris": {"ios": "https://dc.lft.to/lastmile_qr_scan", "android": "https://dc.lft.to/lastmile_qr_scan"}}, {"name": "238a766307134591014e9a0221261e3c", "type": "electric_scooter", "lat": 38.900112, "is_reserved": 0, "lon": -77.01131016666666, "fusion_lon": 0.0, "is_disabled": 0, "fusion_lat": 0.0, "bike_id": "238a766307134591014e9a0221261e3c", "rental_uris": {"ios": "https://dc.lft.to/lastmile_qr_scan", "android": "https://dc.lft.to/lastmile_qr_scan"}}, {"name": "110ec182be4d1b621a28b6dfa9071dde", "type": "electric_scooter", "lat": 38.87706933333333, "is_reserved": 0, "lon": -76.9938455, "fusion_lon": 0.0, "is_disabled": 0, "fusion_lat": 0.0, "bike_id": "110ec182be4d1b621a28b6dfa9071dde", "rental_uris": {"ios": "https://dc.lft.to/lastmile_qr_scan", "android": "https://dc.lft.to/lastmile_qr_scan"}}, {"name": "aa4411de53f294579c86c32be4790f39", "type": "electric_scooter", "lat": 38.90263316666667, "is_reserved": 0, "lon": -77.03844216666667, "fusion_lon": 0.0, "is_disabled": 0, "fusion_lat": 0.0, "bike_id": "aa4411de53f294579c86c32be4790f39", "rental_uris": {"ios": "https://dc.lft.to/lastmile_qr_scan", "android": "https://dc.lft.to/lastmile_qr_scan"}}, {"name": "d1630ba3718556ade5498bbf30488039", "type": "electric_scooter", "lat": 38.89834883333333, "is_reserved": 0, "lon": -77.033243, "fusion_lon": 0.0, "is_disabled": 0, "fusion_lat": 0.0, "bike_id": "d1630ba3718556ade5498bbf30488039", "rental_uris": {"ios": "https://dc.lft.to/lastmile_qr_scan", "android": "https://dc.lft.to/lastmile_qr_scan"}}, {"name": "09e8ecbbee184f0aaf1785dbf180fcd7", "type": "electric_scooter", "lat": 38.900323, "is_reserved": 0, "lon": -77.00202366666667, "fusion_lon": 0.0, "is_disabled": 0, "fusion_lat": 0.0, "bike_id": "09e8ecbbee184f0aaf1785dbf180fcd7", "rental_uris": {"ios": "https://dc.lft.to/lastmile_qr_scan", "android": "https://dc.lft.to/lastmile_qr_scan"}}, {"name": "fb791cbdc080d5638693657069a8a8f1", "type": "electric_scooter", "lat": 38.93068566666667, "is_reserved": 0, "lon": -77.03804516666666, "fusion_lon": 0.0, "is_disabled": 0, "fusion_lat": 0.0, "bike_id": "fb791cbdc080d5638693657069a8a8f1", "rental_uris": {"ios": "https://dc.lft.to/lastmile_qr_scan", "android": "https://dc.lft.to/lastmile_qr_scan"}}, {"name": "d4f46dd1530f88f65a20a4258375bc14", "type": "electric_scooter", "lat": 38.876422, "is_reserved": 0, "lon": -76.99584883333333, "fusion_lon": 0.0, "is_disabled": 0, "fusion_lat": 0.0, "bike_id": "d4f46dd1530f88f65a20a4258375bc14", "rental_uris": {"ios": "https://dc.lft.to/lastmile_qr_scan", "android": "https://dc.lft.to/lastmile_qr_scan"}}, {"name": "523dfb9d120a11c2728d64ba0e5c5bfd", "type": "electric_scooter", "lat": 38.94957616666667, "is_reserved": 0, "lon": -77.02725016666666, "fusion_lon": 0.0, "is_disabled": 0, "fusion_lat": 0.0, "bike_id": "523dfb9d120a11c2728d64ba0e5c5bfd", "rental_uris": {"ios": "https://dc.lft.to/lastmile_qr_scan", "android": "https://dc.lft.to/lastmile_qr_scan"}}, {"name": "dcf9bbb17c696967cfc1e887f9ca2355", "type": "electric_scooter", "lat": 38.91897683333333, "is_reserved": 0, "lon": -77.01966633333333, "fusion_lon": 0.0, "is_disabled": 0, "fusion_lat": 0.0, "bike_id": "dcf9bbb17c696967cfc1e887f9ca2355", "rental_uris": {"ios": "https://dc.lft.to/lastmile_qr_scan", "android": "https://dc.lft.to/lastmile_qr_scan"}}, {"name": "5278d9794ab17b91d0331dc637b06037", "type": "electric_bike", "lat": 38.918569166666664, "is_reserved": 0, "lon": -76.960922, "fusion_lon": 0.0, "is_disabled": 0, "fusion_lat": 0.0, "bike_id": "5278d9794ab17b91d0331dc637b06037", "rental_uris": {"ios": "https://dc.lft.to/lastmile_qr_scan", "android": "https://dc.lft.to/lastmile_qr_scan"}}, {"name": "f6016d009efcb203b9875681e015aad2", "type": "electric_scooter", "lat": 38.89917483333333, "is_reserved": 0, "lon": -76.93385666666667, "fusion_lon": 0.0, "is_disabled": 0, "fusion_lat": 0.0, "bike_id": "f6016d009efcb203b9875681e015aad2", "rental_uris": {"ios": "https://dc.lft.to/lastmile_qr_scan", "android": "https://dc.lft.to/lastmile_qr_scan"}}, {"name": "8bb81be110e4ce7aec57ebd0226b48b4", "type": "electric_bike", "lat": 38.906669, "is_reserved": 0, "lon": -76.99965633333333, "fusion_lon": 0.0, "is_disabled": 0, "fusion_lat": 0.0, "bike_id": "8bb81be110e4ce7aec57ebd0226b48b4", "rental_uris": {"ios": "https://dc.lft.to/lastmile_qr_scan", "android": "https://dc.lft.to/lastmile_qr_scan"}}, {"name": "cdacbc1426205578dbce507868b7a696", "type": "electric_scooter", "lat": 38.922422, "is_reserved": 0, "lon": -77.041265, "fusion_lon": 0.0, "is_disabled": 0, "fusion_lat": 0.0, "bike_id": "cdacbc1426205578dbce507868b7a696", "rental_uris": {"ios": "https://dc.lft.to/lastmile_qr_scan", "android": "https://dc.lft.to/lastmile_qr_scan"}}, {"name": "344a1a4674d8e91bb26c707d63466e50", "type": "electric_scooter", "lat": 38.92316916666667, "is_reserved": 0, "lon": -77.04483916666666, "fusion_lon": 0.0, "is_disabled": 0, "fusion_lat": 0.0, "bike_id": "344a1a4674d8e91bb26c707d63466e50", "rental_uris": {"ios": "https://dc.lft.to/lastmile_qr_scan", "android": "https://dc.lft.to/lastmile_qr_scan"}}, {"name": "fd85ade0fa719f38c48d50d2e4b0fae8", "type": "electric_scooter", "lat": 38.892444, "is_reserved": 0, "lon": -77.03186983333333, "fusion_lon": 0.0, "is_disabled": 0, "fusion_lat": 0.0, "bike_id": "fd85ade0fa719f38c48d50d2e4b0fae8", "rental_uris": {"ios": "https://dc.lft.to/lastmile_qr_scan", "android": "https://dc.lft.to/lastmile_qr_scan"}}, {"name": "94153d7bf09b0229c6282c39a2acb0dc", "type": "electric_scooter", "lat": 38.90890183333333, "is_reserved": 0, "lon": -77.08663633333333, "fusion_lon": 0.0, "is_disabled": 0, "fusion_lat": 0.0, "bike_id": "94153d7bf09b0229c6282c39a2acb0dc", "rental_uris": {"ios": "https://dc.lft.to/lastmile_qr_scan", "android": "https://dc.lft.to/lastmile_qr_scan"}}, {"name": "c1ae13cadfd17b379f4a14c8ac3f0567", "type": "electric_bike", "lat": 38.879786333333335, "is_reserved": 0, "lon": -76.916008, "fusion_lon": 0.0, "is_disabled": 0, "fusion_lat": 0.0, "bike_id": "c1ae13cadfd17b379f4a14c8ac3f0567", "rental_uris": {"ios": "https://dc.lft.to/lastmile_qr_scan", "android": "https://dc.lft.to/lastmile_qr_scan"}}, {"name": "c0b8f7b592ed20613b9ab98fbbd27a0d", "type": "electric_scooter", "lat": 38.917118, "is_reserved": 0, "lon": -77.0231555, "fusion_lon": 0.0, "is_disabled": 0, "fusion_lat": 0.0, "bike_id": "c0b8f7b592ed20613b9ab98fbbd27a0d", "rental_uris": {"ios": "https://dc.lft.to/lastmile_qr_scan", "android": "https://dc.lft.to/lastmile_qr_scan"}}, {"name": "16dc8028fe943215f00642d447d290f0", "type": "electric_bike", "lat": 38.92145566666667, "is_reserved": 0, "lon": -77.03491483333333, "fusion_lon": 0.0, "is_disabled": 0, "fusion_lat": 0.0, "bike_id": "16dc8028fe943215f00642d447d290f0", "rental_uris": {"ios": "https://dc.lft.to/lastmile_qr_scan", "android": "https://dc.lft.to/lastmile_qr_scan"}}, {"name": "db28456122037124f4fc81740d026ea1", "type": "electric_scooter", "lat": 38.903682, "is_reserved": 0, "lon": -77.01634483333333, "fusion_lon": 0.0, "is_disabled": 0, "fusion_lat": 0.0, "bike_id": "db28456122037124f4fc81740d026ea1", "rental_uris": {"ios": "https://dc.lft.to/lastmile_qr_scan", "android": "https://dc.lft.to/lastmile_qr_scan"}}, {"name": "b3980ab57e4a74aceb7f056e2fbe263f", "type": "electric_bike", "lat": 38.824410666666665, "is_reserved": 0, "lon": -77.07048016666667, "fusion_lon": 0.0, "is_disabled": 0, "fusion_lat": 0.0, "bike_id": "b3980ab57e4a74aceb7f056e2fbe263f", "rental_uris": {"ios": "https://dc.lft.to/lastmile_qr_scan", "android": "https://dc.lft.to/lastmile_qr_scan"}}, {"name": "65f4294754a9800473e82aac547c362b", "type": "electric_scooter", "lat": 38.905714333333336, "is_reserved": 0, "lon": -77.03448183333333, "fusion_lon": 0.0, "is_disabled": 0, "fusion_lat": 0.0, "bike_id": "65f4294754a9800473e82aac547c362b", "rental_uris": {"ios": "https://dc.lft.to/lastmile_qr_scan", "android": "https://dc.lft.to/lastmile_qr_scan"}}, {"name": "fe40c1c59f0df4255a5eed175c046cdb", "type": "electric_scooter", "lat": 38.94011, "is_reserved": 0, "lon": -77.07175666666667, "fusion_lon": 0.0, "is_disabled": 0, "fusion_lat": 0.0, "bike_id": "fe40c1c59f0df4255a5eed175c046cdb", "rental_uris": {"ios": "https://dc.lft.to/lastmile_qr_scan", "android": "https://dc.lft.to/lastmile_qr_scan"}}, {"name": "b8caf975e40143c8d3a197e0e4b36167", "type": "electric_scooter", "lat": 38.91697533333333, "is_reserved": 0, "lon": -77.0123185, "fusion_lon": 0.0, "is_disabled": 0, "fusion_lat": 0.0, "bike_id": "b8caf975e40143c8d3a197e0e4b36167", "rental_uris": {"ios": "https://dc.lft.to/lastmile_qr_scan", "android": "https://dc.lft.to/lastmile_qr_scan"}}, {"name": "75d00fc44cdda68f6baabccd81e5302b", "type": "electric_scooter", "lat": 38.91917566666667, "is_reserved": 0, "lon": -77.03421233333333, "fusion_lon": 0.0, "is_disabled": 0, "fusion_lat": 0.0, "bike_id": "75d00fc44cdda68f6baabccd81e5302b", "rental_uris": {"ios": "https://dc.lft.to/lastmile_qr_scan", "android": "https://dc.lft.to/lastmile_qr_scan"}}, {"name": "0e5d03aec771ace287a2ad89ea3f9c5b", "type": "electric_scooter", "lat": 38.908921666666664, "is_reserved": 0, "lon": -77.03150783333334, "fusion_lon": 0.0, "is_disabled": 0, "fusion_lat": 0.0, "bike_id": "0e5d03aec771ace287a2ad89ea3f9c5b", "rental_uris": {"ios": "https://dc.lft.to/lastmile_qr_scan", "android": "https://dc.lft.to/lastmile_qr_scan"}}, {"name": "105adccd1fa1e374af2db304412d6745", "type": "electric_scooter", "lat": 38.9201395, "is_reserved": 0, "lon": -77.03864833333333, "fusion_lon": 0.0, "is_disabled": 0, "fusion_lat": 0.0, "bike_id": "105adccd1fa1e374af2db304412d6745", "rental_uris": {"ios": "https://dc.lft.to/lastmile_qr_scan", "android": "https://dc.lft.to/lastmile_qr_scan"}}, {"name": "083cd50003db0d6002e4ae4b2bc627d0", "type": "electric_scooter", "lat": 38.904105666666666, "is_reserved": 0, "lon": -76.97328516666667, "fusion_lon": 0.0, "is_disabled": 0, "fusion_lat": 0.0, "bike_id": "083cd50003db0d6002e4ae4b2bc627d0", "rental_uris": {"ios": "https://dc.lft.to/lastmile_qr_scan", "android": "https://dc.lft.to/lastmile_qr_scan"}}, {"name": "055de3f5c95007bbb49bfd290b7fabc2", "type": "electric_scooter", "lat": 38.92250116666666, "is_reserved": 0, "lon": -77.030836, "fusion_lon": 0.0, "is_disabled": 0, "fusion_lat": 0.0, "bike_id": "055de3f5c95007bbb49bfd290b7fabc2", "rental_uris": {"ios": "https://dc.lft.to/lastmile_qr_scan", "android": "https://dc.lft.to/lastmile_qr_scan"}}, {"name": "7f1867dc7bd5e4da960909dfbae9b752", "type": "electric_scooter", "lat": 38.885163, "is_reserved": 0, "lon": -77.03350216666666, "fusion_lon": 0.0, "is_disabled": 0, "fusion_lat": 0.0, "bike_id": "7f1867dc7bd5e4da960909dfbae9b752", "rental_uris": {"ios": "https://dc.lft.to/lastmile_qr_scan", "android": "https://dc.lft.to/lastmile_qr_scan"}}, {"name": "66440f6bc2da22545a7b4399a9c02472", "type": "electric_scooter", "lat": 38.90441216666667, "is_reserved": 0, "lon": -76.984965, "fusion_lon": 0.0, "is_disabled": 0, "fusion_lat": 0.0, "bike_id": "66440f6bc2da22545a7b4399a9c02472", "rental_uris": {"ios": "https://dc.lft.to/lastmile_qr_scan", "android": "https://dc.lft.to/lastmile_qr_scan"}}, {"name": "160abb774af1bd928e54ae65d50fe4c6", "type": "electric_scooter", "lat": 38.885196, "is_reserved": 0, "lon": -76.97707883333334, "fusion_lon": 0.0, "is_disabled": 0, "fusion_lat": 0.0, "bike_id": "160abb774af1bd928e54ae65d50fe4c6", "rental_uris": {"ios": "https://dc.lft.to/lastmile_qr_scan", "android": "https://dc.lft.to/lastmile_qr_scan"}}, {"name": "0a2a0994ac699246683bda4bc34e3c66", "type": "electric_scooter", "lat": 38.910064, "is_reserved": 0, "lon": -77.02202783333334, "fusion_lon": 0.0, "is_disabled": 0, "fusion_lat": 0.0, "bike_id": "0a2a0994ac699246683bda4bc34e3c66", "rental_uris": {"ios": "https://dc.lft.to/lastmile_qr_scan", "android": "https://dc.lft.to/lastmile_qr_scan"}}, {"name": "78fb71346920b1c474f419f698271349", "type": "electric_bike", "lat": 38.8826945, "is_reserved": 0, "lon": -76.99939433333333, "fusion_lon": 0.0, "is_disabled": 0, "fusion_lat": 0.0, "bike_id": "78fb71346920b1c474f419f698271349", "rental_uris": {"ios": "https://dc.lft.to/lastmile_qr_scan", "android": "https://dc.lft.to/lastmile_qr_scan"}}, {"name": "f9e93ed93fde840dd744ae7e8d8f8f9b", "type": "electric_scooter", "lat": 38.91801616666667, "is_reserved": 0, "lon": -77.02788933333333, "fusion_lon": 0.0, "is_disabled": 0, "fusion_lat": 0.0, "bike_id": "f9e93ed93fde840dd744ae7e8d8f8f9b", "rental_uris": {"ios": "https://dc.lft.to/lastmile_qr_scan", "android": "https://dc.lft.to/lastmile_qr_scan"}}, {"name": "9193d021d8d04d94a7c33b17d25d3579", "type": "electric_scooter", "lat": 38.93168716666667, "is_reserved": 0, "lon": -77.02848733333333, "fusion_lon": 0.0, "is_disabled": 0, "fusion_lat": 0.0, "bike_id": "9193d021d8d04d94a7c33b17d25d3579", "rental_uris": {"ios": "https://dc.lft.to/lastmile_qr_scan", "android": "https://dc.lft.to/lastmile_qr_scan"}}, {"name": "a93bac2346c4ac212939e3fdc9db0a53", "type": "electric_scooter", "lat": 38.91497316666667, "is_reserved": 0, "lon": -77.01222466666667, "fusion_lon": 0.0, "is_disabled": 0, "fusion_lat": 0.0, "bike_id": "a93bac2346c4ac212939e3fdc9db0a53", "rental_uris": {"ios": "https://dc.lft.to/lastmile_qr_scan", "android": "https://dc.lft.to/lastmile_qr_scan"}}, {"name": "cf3bd5ddf5259ea001d29b46cea15d88", "type": "electric_scooter", "lat": 38.89036733333333, "is_reserved": 0, "lon": -77.02974616666667, "fusion_lon": 0.0, "is_disabled": 0, "fusion_lat": 0.0, "bike_id": "cf3bd5ddf5259ea001d29b46cea15d88", "rental_uris": {"ios": "https://dc.lft.to/lastmile_qr_scan", "android": "https://dc.lft.to/lastmile_qr_scan"}}, {"name": "db41662719e4461ff82e3147dab9d79c", "type": "electric_scooter", "lat": 38.920804, "is_reserved": 0, "lon": -77.02538216666666, "fusion_lon": 0.0, "is_disabled": 0, "fusion_lat": 0.0, "bike_id": "db41662719e4461ff82e3147dab9d79c", "rental_uris": {"ios": "https://dc.lft.to/lastmile_qr_scan", "android": "https://dc.lft.to/lastmile_qr_scan"}}, {"name": "5b43e1aa8aa6f3b0949171bde8ca49a0", "type": "electric_bike", "lat": 38.96492633333333, "is_reserved": 0, "lon": -77.064932, "fusion_lon": 0.0, "is_disabled": 0, "fusion_lat": 0.0, "bike_id": "5b43e1aa8aa6f3b0949171bde8ca49a0", "rental_uris": {"ios": "https://dc.lft.to/lastmile_qr_scan", "android": "https://dc.lft.to/lastmile_qr_scan"}}, {"name": "e4becd3945eda1665bf770d9a066f8b4", "type": "electric_scooter", "lat": 38.89531216666666, "is_reserved": 0, "lon": -77.03347783333334, "fusion_lon": 0.0, "is_disabled": 0, "fusion_lat": 0.0, "bike_id": "e4becd3945eda1665bf770d9a066f8b4", "rental_uris": {"ios": "https://dc.lft.to/lastmile_qr_scan", "android": "https://dc.lft.to/lastmile_qr_scan"}}, {"name": "0197002cb3564a34f8d60419fef5c09d", "type": "electric_scooter", "lat": 38.92344633333333, "is_reserved": 0, "lon": -77.05068016666667, "fusion_lon": 0.0, "is_disabled": 0, "fusion_lat": 0.0, "bike_id": "0197002cb3564a34f8d60419fef5c09d", "rental_uris": {"ios": "https://dc.lft.to/lastmile_qr_scan", "android": "https://dc.lft.to/lastmile_qr_scan"}}, {"name": "5a68d285dfab8c6ac439aada9f89b732", "type": "electric_scooter", "lat": 38.895058666666664, "is_reserved": 0, "lon": -77.0033975, "fusion_lon": 0.0, "is_disabled": 0, "fusion_lat": 0.0, "bike_id": "5a68d285dfab8c6ac439aada9f89b732", "rental_uris": {"ios": "https://dc.lft.to/lastmile_qr_scan", "android": "https://dc.lft.to/lastmile_qr_scan"}}, {"name": "45cfe4fdcc2938dba1abacdd385d59cc", "type": "electric_scooter", "lat": 38.8947855, "is_reserved": 0, "lon": -77.00132883333333, "fusion_lon": 0.0, "is_disabled": 0, "fusion_lat": 0.0, "bike_id": "45cfe4fdcc2938dba1abacdd385d59cc", "rental_uris": {"ios": "https://dc.lft.to/lastmile_qr_scan", "android": "https://dc.lft.to/lastmile_qr_scan"}}, {"name": "2d96e86e0b2ddb26505c15c6f66e90a8", "type": "electric_scooter", "lat": 38.920713666666664, "is_reserved": 0, "lon": -77.02212016666667, "fusion_lon": 0.0, "is_disabled": 0, "fusion_lat": 0.0, "bike_id": "2d96e86e0b2ddb26505c15c6f66e90a8", "rental_uris": {"ios": "https://dc.lft.to/lastmile_qr_scan", "android": "https://dc.lft.to/lastmile_qr_scan"}}, {"name": "2e08d24074ef40bdd0bd977160415b29", "type": "electric_bike", "lat": 38.958814333333336, "is_reserved": 0, "lon": -77.01740583333333, "fusion_lon": 0.0, "is_disabled": 0, "fusion_lat": 0.0, "bike_id": "2e08d24074ef40bdd0bd977160415b29", "rental_uris": {"ios": "https://dc.lft.to/lastmile_qr_scan", "android": "https://dc.lft.to/lastmile_qr_scan"}}, {"name": "dc9457d0e55f5af13dbe82d66dea9af5", "type": "electric_scooter", "lat": 38.92258366666667, "is_reserved": 0, "lon": -77.036438, "fusion_lon": 0.0, "is_disabled": 0, "fusion_lat": 0.0, "bike_id": "dc9457d0e55f5af13dbe82d66dea9af5", "rental_uris": {"ios": "https://dc.lft.to/lastmile_qr_scan", "android": "https://dc.lft.to/lastmile_qr_scan"}}, {"name": "bcd1421bcae5e121f1f570d04484f623", "type": "electric_scooter", "lat": 38.92479633333333, "is_reserved": 0, "lon": -77.02668366666667, "fusion_lon": 0.0, "is_disabled": 0, "fusion_lat": 0.0, "bike_id": "bcd1421bcae5e121f1f570d04484f623", "rental_uris": {"ios": "https://dc.lft.to/lastmile_qr_scan", "android": "https://dc.lft.to/lastmile_qr_scan"}}, {"name": "df876bae609c5dd889cb4d8c08b84f55", "type": "electric_scooter", "lat": 38.89991116666667, "is_reserved": 0, "lon": -77.02957416666666, "fusion_lon": 0.0, "is_disabled": 0, "fusion_lat": 0.0, "bike_id": "df876bae609c5dd889cb4d8c08b84f55", "rental_uris": {"ios": "https://dc.lft.to/lastmile_qr_scan", "android": "https://dc.lft.to/lastmile_qr_scan"}}, {"name": "8d82501beeb8ab70a0c5c6dbc5252cbb", "type": "electric_scooter", "lat": 38.95519, "is_reserved": 0, "lon": -77.0698805, "fusion_lon": 0.0, "is_disabled": 0, "fusion_lat": 0.0, "bike_id": "8d82501beeb8ab70a0c5c6dbc5252cbb", "rental_uris": {"ios": "https://dc.lft.to/lastmile_qr_scan", "android": "https://dc.lft.to/lastmile_qr_scan"}}, {"name": "b2c8a97c61d66f638968edf244b7c45d", "type": "electric_scooter", "lat": 38.86524266666667, "is_reserved": 0, "lon": -76.99028016666666, "fusion_lon": 0.0, "is_disabled": 0, "fusion_lat": 0.0, "bike_id": "b2c8a97c61d66f638968edf244b7c45d", "rental_uris": {"ios": "https://dc.lft.to/lastmile_qr_scan", "android": "https://dc.lft.to/lastmile_qr_scan"}}, {"name": "9bcc59127ded996ebed45140632b4f0a", "type": "electric_scooter", "lat": 38.919376666666665, "is_reserved": 0, "lon": -77.04542033333334, "fusion_lon": 0.0, "is_disabled": 0, "fusion_lat": 0.0, "bike_id": "9bcc59127ded996ebed45140632b4f0a", "rental_uris": {"ios": "https://dc.lft.to/lastmile_qr_scan", "android": "https://dc.lft.to/lastmile_qr_scan"}}, {"name": "47be220a0eae5150e7ae6c4fc3f04c93", "type": "electric_scooter", "lat": 38.9351815, "is_reserved": 0, "lon": -77.024679, "fusion_lon": 0.0, "is_disabled": 0, "fusion_lat": 0.0, "bike_id": "47be220a0eae5150e7ae6c4fc3f04c93", "rental_uris": {"ios": "https://dc.lft.to/lastmile_qr_scan", "android": "https://dc.lft.to/lastmile_qr_scan"}}, {"name": "f7a0635d8b0ecbb9495642482cf944c1", "type": "electric_scooter", "lat": 38.921152666666664, "is_reserved": 0, "lon": -77.04203666666666, "fusion_lon": 0.0, "is_disabled": 0, "fusion_lat": 0.0, "bike_id": "f7a0635d8b0ecbb9495642482cf944c1", "rental_uris": {"ios": "https://dc.lft.to/lastmile_qr_scan", "android": "https://dc.lft.to/lastmile_qr_scan"}}, {"name": "0860773f721f3cf0e537b63d9925e21b", "type": "electric_scooter", "lat": 38.94180266666667, "is_reserved": 0, "lon": -77.03089633333333, "fusion_lon": 0.0, "is_disabled": 0, "fusion_lat": 0.0, "bike_id": "0860773f721f3cf0e537b63d9925e21b", "rental_uris": {"ios": "https://dc.lft.to/lastmile_qr_scan", "android": "https://dc.lft.to/lastmile_qr_scan"}}, {"name": "cdc3bf4aaa06fdd2c9dfe38c66ba5696", "type": "electric_scooter", "lat": 38.9060665, "is_reserved": 0, "lon": -77.013204, "fusion_lon": 0.0, "is_disabled": 0, "fusion_lat": 0.0, "bike_id": "cdc3bf4aaa06fdd2c9dfe38c66ba5696", "rental_uris": {"ios": "https://dc.lft.to/lastmile_qr_scan", "android": "https://dc.lft.to/lastmile_qr_scan"}}, {"name": "1ce6bb0e0840f170e4ce72e82e824050", "type": "electric_bike", "lat": 38.854376333333335, "is_reserved": 0, "lon": -77.11703633333333, "fusion_lon": 0.0, "is_disabled": 0, "fusion_lat": 0.0, "bike_id": "1ce6bb0e0840f170e4ce72e82e824050", "rental_uris": {"ios": "https://dc.lft.to/lastmile_qr_scan", "android": "https://dc.lft.to/lastmile_qr_scan"}}, {"name": "3c0aeae8feeacb81ddd64a38e4c970e0", "type": "electric_scooter", "lat": 38.90720066666667, "is_reserved": 0, "lon": -77.02503866666666, "fusion_lon": 0.0, "is_disabled": 0, "fusion_lat": 0.0, "bike_id": "3c0aeae8feeacb81ddd64a38e4c970e0", "rental_uris": {"ios": "https://dc.lft.to/lastmile_qr_scan", "android": "https://dc.lft.to/lastmile_qr_scan"}}, {"name": "9e7f90ce96b999c011ab963296601a79", "type": "electric_bike", "lat": 38.918034, "is_reserved": 0, "lon": -77.03308766666666, "fusion_lon": 0.0, "is_disabled": 0, "fusion_lat": 0.0, "bike_id": "9e7f90ce96b999c011ab963296601a79", "rental_uris": {"ios": "https://dc.lft.to/lastmile_qr_scan", "android": "https://dc.lft.to/lastmile_qr_scan"}}, {"name": "02cdc91b5aea9cc48030b35aae894de3", "type": "electric_scooter", "lat": 38.93524, "is_reserved": 0, "lon": -77.0285655, "fusion_lon": 0.0, "is_disabled": 0, "fusion_lat": 0.0, "bike_id": "02cdc91b5aea9cc48030b35aae894de3", "rental_uris": {"ios": "https://dc.lft.to/lastmile_qr_scan", "android": "https://dc.lft.to/lastmile_qr_scan"}}, {"name": "4f9a883a9f2390686d673b28de2f3d26", "type": "electric_scooter", "lat": 38.87887516666667, "is_reserved": 0, "lon": -77.02197516666666, "fusion_lon": 0.0, "is_disabled": 0, "fusion_lat": 0.0, "bike_id": "4f9a883a9f2390686d673b28de2f3d26", "rental_uris": {"ios": "https://dc.lft.to/lastmile_qr_scan", "android": "https://dc.lft.to/lastmile_qr_scan"}}, {"name": "137f3f585299448e317fbb9705d68892", "type": "electric_scooter", "lat": 38.926852333333336, "is_reserved": 0, "lon": -77.02157, "fusion_lon": 0.0, "is_disabled": 0, "fusion_lat": 0.0, "bike_id": "137f3f585299448e317fbb9705d68892", "rental_uris": {"ios": "https://dc.lft.to/lastmile_qr_scan", "android": "https://dc.lft.to/lastmile_qr_scan"}}, {"name": "887dc133ac9ecd21e8fa9a77ace6f133", "type": "electric_scooter", "lat": 38.90795983333334, "is_reserved": 0, "lon": -76.99699016666666, "fusion_lon": 0.0, "is_disabled": 0, "fusion_lat": 0.0, "bike_id": "887dc133ac9ecd21e8fa9a77ace6f133", "rental_uris": {"ios": "https://dc.lft.to/lastmile_qr_scan", "android": "https://dc.lft.to/lastmile_qr_scan"}}, {"name": "81889a3d8daa4dec26f91b0a592a6a55", "type": "electric_bike", "lat": 38.94887416666667, "is_reserved": 0, "lon": -77.01928566666666, "fusion_lon": 0.0, "is_disabled": 0, "fusion_lat": 0.0, "bike_id": "81889a3d8daa4dec26f91b0a592a6a55", "rental_uris": {"ios": "https://dc.lft.to/lastmile_qr_scan", "android": "https://dc.lft.to/lastmile_qr_scan"}}, {"name": "58c85b03c2920095adf583f158e178f6", "type": "electric_scooter", "lat": 38.910609, "is_reserved": 0, "lon": -77.0303855, "fusion_lon": 0.0, "is_disabled": 0, "fusion_lat": 0.0, "bike_id": "58c85b03c2920095adf583f158e178f6", "rental_uris": {"ios": "https://dc.lft.to/lastmile_qr_scan", "android": "https://dc.lft.to/lastmile_qr_scan"}}, {"name": "dc204e6050d98af5c104c360baa9552e", "type": "electric_scooter", "lat": 38.89523833333333, "is_reserved": 0, "lon": -77.016166, "fusion_lon": 0.0, "is_disabled": 0, "fusion_lat": 0.0, "bike_id": "dc204e6050d98af5c104c360baa9552e", "rental_uris": {"ios": "https://dc.lft.to/lastmile_qr_scan", "android": "https://dc.lft.to/lastmile_qr_scan"}}, {"name": "10001b4e7278477fcd4a1bc708841035", "type": "electric_scooter", "lat": 38.93502683333333, "is_reserved": 0, "lon": -77.02844383333333, "fusion_lon": 0.0, "is_disabled": 0, "fusion_lat": 0.0, "bike_id": "10001b4e7278477fcd4a1bc708841035", "rental_uris": {"ios": "https://dc.lft.to/lastmile_qr_scan", "android": "https://dc.lft.to/lastmile_qr_scan"}}, {"name": "feb6aa90ecc821d21c4134959d21cac5", "type": "electric_scooter", "lat": 38.920714833333335, "is_reserved": 0, "lon": -77.0322395, "fusion_lon": 0.0, "is_disabled": 0, "fusion_lat": 0.0, "bike_id": "feb6aa90ecc821d21c4134959d21cac5", "rental_uris": {"ios": "https://dc.lft.to/lastmile_qr_scan", "android": "https://dc.lft.to/lastmile_qr_scan"}}, {"name": "66750a6f38bfe1a1b65f70e9525d390d", "type": "electric_scooter", "lat": 38.899972166666664, "is_reserved": 0, "lon": -76.9950745, "fusion_lon": 0.0, "is_disabled": 0, "fusion_lat": 0.0, "bike_id": "66750a6f38bfe1a1b65f70e9525d390d", "rental_uris": {"ios": "https://dc.lft.to/lastmile_qr_scan", "android": "https://dc.lft.to/lastmile_qr_scan"}}, {"name": "1d4cd27586b0e0889cf715aecfa7a80d", "type": "electric_bike", "lat": 38.945134333333336, "is_reserved": 0, "lon": -77.00674683333334, "fusion_lon": 0.0, "is_disabled": 0, "fusion_lat": 0.0, "bike_id": "1d4cd27586b0e0889cf715aecfa7a80d", "rental_uris": {"ios": "https://dc.lft.to/lastmile_qr_scan", "android": "https://dc.lft.to/lastmile_qr_scan"}}, {"name": "6b7c8f015adddddcd7656378fdb07048", "type": "electric_scooter", "lat": 38.907288666666666, "is_reserved": 0, "lon": -77.034395, "fusion_lon": 0.0, "is_disabled": 0, "fusion_lat": 0.0, "bike_id": "6b7c8f015adddddcd7656378fdb07048", "rental_uris": {"ios": "https://dc.lft.to/lastmile_qr_scan", "android": "https://dc.lft.to/lastmile_qr_scan"}}, {"name": "6cc3ac7323376940e7f24ae247698190", "type": "electric_scooter", "lat": 38.86415916666667, "is_reserved": 0, "lon": -76.98045083333334, "fusion_lon": 0.0, "is_disabled": 0, "fusion_lat": 0.0, "bike_id": "6cc3ac7323376940e7f24ae247698190", "rental_uris": {"ios": "https://dc.lft.to/lastmile_qr_scan", "android": "https://dc.lft.to/lastmile_qr_scan"}}, {"name": "5acfd40e3d11fc21b15480ee2a0b470f", "type": "electric_scooter", "lat": 38.917525833333336, "is_reserved": 0, "lon": -77.03960016666667, "fusion_lon": 0.0, "is_disabled": 0, "fusion_lat": 0.0, "bike_id": "5acfd40e3d11fc21b15480ee2a0b470f", "rental_uris": {"ios": "https://dc.lft.to/lastmile_qr_scan", "android": "https://dc.lft.to/lastmile_qr_scan"}}, {"name": "1ac636f05bf20517d5acdae033d89c96", "type": "electric_scooter", "lat": 38.90560266666667, "is_reserved": 0, "lon": -77.02174333333333, "fusion_lon": 0.0, "is_disabled": 0, "fusion_lat": 0.0, "bike_id": "1ac636f05bf20517d5acdae033d89c96", "rental_uris": {"ios": "https://dc.lft.to/lastmile_qr_scan", "android": "https://dc.lft.to/lastmile_qr_scan"}}, {"name": "33d3092db202a68de8ae72570179d463", "type": "electric_scooter", "lat": 38.90145116666667, "is_reserved": 0, "lon": -77.03324266666667, "fusion_lon": 0.0, "is_disabled": 0, "fusion_lat": 0.0, "bike_id": "33d3092db202a68de8ae72570179d463", "rental_uris": {"ios": "https://dc.lft.to/lastmile_qr_scan", "android": "https://dc.lft.to/lastmile_qr_scan"}}, {"name": "89c112b8bde60a3e124fe09890807919", "type": "electric_scooter", "lat": 38.93044283333333, "is_reserved": 0, "lon": -77.02789016666667, "fusion_lon": 0.0, "is_disabled": 0, "fusion_lat": 0.0, "bike_id": "89c112b8bde60a3e124fe09890807919", "rental_uris": {"ios": "https://dc.lft.to/lastmile_qr_scan", "android": "https://dc.lft.to/lastmile_qr_scan"}}, {"name": "f49e22b79e034ab5057752598caac1d8", "type": "electric_scooter", "lat": 38.92711516666667, "is_reserved": 0, "lon": -77.022947, "fusion_lon": 0.0, "is_disabled": 0, "fusion_lat": 0.0, "bike_id": "f49e22b79e034ab5057752598caac1d8", "rental_uris": {"ios": "https://dc.lft.to/lastmile_qr_scan", "android": "https://dc.lft.to/lastmile_qr_scan"}}, {"name": "9a15b4cf734f4174608ab11acaea43f0", "type": "electric_scooter", "lat": 38.924463333333335, "is_reserved": 0, "lon": -77.0337105, "fusion_lon": 0.0, "is_disabled": 0, "fusion_lat": 0.0, "bike_id": "9a15b4cf734f4174608ab11acaea43f0", "rental_uris": {"ios": "https://dc.lft.to/lastmile_qr_scan", "android": "https://dc.lft.to/lastmile_qr_scan"}}, {"name": "a1ad1eedbac7d43c7a6475779ff86667", "type": "electric_scooter", "lat": 38.92444783333333, "is_reserved": 0, "lon": -77.02034983333333, "fusion_lon": 0.0, "is_disabled": 0, "fusion_lat": 0.0, "bike_id": "a1ad1eedbac7d43c7a6475779ff86667", "rental_uris": {"ios": "https://dc.lft.to/lastmile_qr_scan", "android": "https://dc.lft.to/lastmile_qr_scan"}}, {"name": "3be773a426b0ae1ed0b074e53754cdd9", "type": "electric_scooter", "lat": 38.972384166666664, "is_reserved": 0, "lon": -77.02712783333334, "fusion_lon": 0.0, "is_disabled": 0, "fusion_lat": 0.0, "bike_id": "3be773a426b0ae1ed0b074e53754cdd9", "rental_uris": {"ios": "https://dc.lft.to/lastmile_qr_scan", "android": "https://dc.lft.to/lastmile_qr_scan"}}, {"name": "e3df3a0c156c664f345a66540a0e4766", "type": "electric_scooter", "lat": 38.940951166666665, "is_reserved": 0, "lon": -77.03278433333334, "fusion_lon": 0.0, "is_disabled": 0, "fusion_lat": 0.0, "bike_id": "e3df3a0c156c664f345a66540a0e4766", "rental_uris": {"ios": "https://dc.lft.to/lastmile_qr_scan", "android": "https://dc.lft.to/lastmile_qr_scan"}}, {"name": "f4c1f6636c99cd923f024f13ac4b3a9d", "type": "electric_scooter", "lat": 38.855256, "is_reserved": 0, "lon": -76.9691795, "fusion_lon": 0.0, "is_disabled": 0, "fusion_lat": 0.0, "bike_id": "f4c1f6636c99cd923f024f13ac4b3a9d", "rental_uris": {"ios": "https://dc.lft.to/lastmile_qr_scan", "android": "https://dc.lft.to/lastmile_qr_scan"}}, {"name": "895791cb62358006c54b65cc2a8d5b77", "type": "electric_scooter", "lat": 38.91815483333333, "is_reserved": 0, "lon": -77.0362045, "fusion_lon": 0.0, "is_disabled": 0, "fusion_lat": 0.0, "bike_id": "895791cb62358006c54b65cc2a8d5b77", "rental_uris": {"ios": "https://dc.lft.to/lastmile_qr_scan", "android": "https://dc.lft.to/lastmile_qr_scan"}}, {"name": "665cc6d36ef49425509422bec2a72dc9", "type": "electric_scooter", "lat": 38.89401333333333, "is_reserved": 0, "lon": -76.94804816666667, "fusion_lon": 0.0, "is_disabled": 0, "fusion_lat": 0.0, "bike_id": "665cc6d36ef49425509422bec2a72dc9", "rental_uris": {"ios": "https://dc.lft.to/lastmile_qr_scan", "android": "https://dc.lft.to/lastmile_qr_scan"}}, {"name": "431974351f9eb060d2e32592a22df2f8", "type": "electric_scooter", "lat": 38.92025533333333, "is_reserved": 0, "lon": -77.01117366666666, "fusion_lon": 0.0, "is_disabled": 0, "fusion_lat": 0.0, "bike_id": "431974351f9eb060d2e32592a22df2f8", "rental_uris": {"ios": "https://dc.lft.to/lastmile_qr_scan", "android": "https://dc.lft.to/lastmile_qr_scan"}}, {"name": "12067af42e4e6f44378797aa4b595780", "type": "electric_scooter", "lat": 38.9039065, "is_reserved": 0, "lon": -77.04050616666666, "fusion_lon": 0.0, "is_disabled": 0, "fusion_lat": 0.0, "bike_id": "12067af42e4e6f44378797aa4b595780", "rental_uris": {"ios": "https://dc.lft.to/lastmile_qr_scan", "android": "https://dc.lft.to/lastmile_qr_scan"}}, {"name": "fa2b447c59253aae0a330d71343b85c7", "type": "electric_scooter", "lat": 38.84291366666667, "is_reserved": 0, "lon": -76.99945083333333, "fusion_lon": 0.0, "is_disabled": 0, "fusion_lat": 0.0, "bike_id": "fa2b447c59253aae0a330d71343b85c7", "rental_uris": {"ios": "https://dc.lft.to/lastmile_qr_scan", "android": "https://dc.lft.to/lastmile_qr_scan"}}, {"name": "2545b4036c15b514acd8554dc76ee962", "type": "electric_bike", "lat": 38.8580345, "is_reserved": 0, "lon": -76.987497, "fusion_lon": 0.0, "is_disabled": 0, "fusion_lat": 0.0, "bike_id": "2545b4036c15b514acd8554dc76ee962", "rental_uris": {"ios": "https://dc.lft.to/lastmile_qr_scan", "android": "https://dc.lft.to/lastmile_qr_scan"}}, {"name": "c2c2eb090aebf79e18326590b17f3c60", "type": "electric_scooter", "lat": 38.897320666666666, "is_reserved": 0, "lon": -76.947199, "fusion_lon": 0.0, "is_disabled": 0, "fusion_lat": 0.0, "bike_id": "c2c2eb090aebf79e18326590b17f3c60", "rental_uris": {"ios": "https://dc.lft.to/lastmile_qr_scan", "android": "https://dc.lft.to/lastmile_qr_scan"}}, {"name": "3ed3ae2260b8dbe1b55a22481147d8d8", "type": "electric_scooter", "lat": 38.974672, "is_reserved": 0, "lon": -77.01901866666667, "fusion_lon": 0.0, "is_disabled": 0, "fusion_lat": 0.0, "bike_id": "3ed3ae2260b8dbe1b55a22481147d8d8", "rental_uris": {"ios": "https://dc.lft.to/lastmile_qr_scan", "android": "https://dc.lft.to/lastmile_qr_scan"}}, {"name": "3ecbc22813ce84cbea455adf18220ab9", "type": "electric_scooter", "lat": 38.901435666666664, "is_reserved": 0, "lon": -77.0445375, "fusion_lon": 0.0, "is_disabled": 0, "fusion_lat": 0.0, "bike_id": "3ecbc22813ce84cbea455adf18220ab9", "rental_uris": {"ios": "https://dc.lft.to/lastmile_qr_scan", "android": "https://dc.lft.to/lastmile_qr_scan"}}, {"name": "6631823cb8d2958d92febcd560ab2921", "type": "electric_scooter", "lat": 38.915525, "is_reserved": 0, "lon": -77.0727365, "fusion_lon": 0.0, "is_disabled": 0, "fusion_lat": 0.0, "bike_id": "6631823cb8d2958d92febcd560ab2921", "rental_uris": {"ios": "https://dc.lft.to/lastmile_qr_scan", "android": "https://dc.lft.to/lastmile_qr_scan"}}, {"name": "ffd7330b2363d39a32c323f36887e5ae", "type": "electric_scooter", "lat": 38.897512666666664, "is_reserved": 0, "lon": -77.05162766666666, "fusion_lon": 0.0, "is_disabled": 0, "fusion_lat": 0.0, "bike_id": "ffd7330b2363d39a32c323f36887e5ae", "rental_uris": {"ios": "https://dc.lft.to/lastmile_qr_scan", "android": "https://dc.lft.to/lastmile_qr_scan"}}, {"name": "9611c750031498d84246c357ac331eb7", "type": "electric_scooter", "lat": 38.95270633333333, "is_reserved": 0, "lon": -77.0682295, "fusion_lon": 0.0, "is_disabled": 0, "fusion_lat": 0.0, "bike_id": "9611c750031498d84246c357ac331eb7", "rental_uris": {"ios": "https://dc.lft.to/lastmile_qr_scan", "android": "https://dc.lft.to/lastmile_qr_scan"}}, {"name": "7dc602df604dcdd258e0deb0d5765e96", "type": "electric_scooter", "lat": 38.918251166666664, "is_reserved": 0, "lon": -77.03443983333334, "fusion_lon": 0.0, "is_disabled": 0, "fusion_lat": 0.0, "bike_id": "7dc602df604dcdd258e0deb0d5765e96", "rental_uris": {"ios": "https://dc.lft.to/lastmile_qr_scan", "android": "https://dc.lft.to/lastmile_qr_scan"}}, {"name": "870a13d2d95a0c431d13e8f207b6b8c3", "type": "electric_scooter", "lat": 38.9330045, "is_reserved": 0, "lon": -77.02802733333333, "fusion_lon": 0.0, "is_disabled": 0, "fusion_lat": 0.0, "bike_id": "870a13d2d95a0c431d13e8f207b6b8c3", "rental_uris": {"ios": "https://dc.lft.to/lastmile_qr_scan", "android": "https://dc.lft.to/lastmile_qr_scan"}}, {"name": "b029f97880b83057237a365a07529134", "type": "electric_scooter", "lat": 38.927892166666666, "is_reserved": 0, "lon": -77.0398515, "fusion_lon": 0.0, "is_disabled": 0, "fusion_lat": 0.0, "bike_id": "b029f97880b83057237a365a07529134", "rental_uris": {"ios": "https://dc.lft.to/lastmile_qr_scan", "android": "https://dc.lft.to/lastmile_qr_scan"}}, {"name": "88cd122a04aef61451940060abf038e8", "type": "electric_scooter", "lat": 38.92991833333333, "is_reserved": 0, "lon": -77.02485516666667, "fusion_lon": 0.0, "is_disabled": 0, "fusion_lat": 0.0, "bike_id": "88cd122a04aef61451940060abf038e8", "rental_uris": {"ios": "https://dc.lft.to/lastmile_qr_scan", "android": "https://dc.lft.to/lastmile_qr_scan"}}, {"name": "725ff75b5d69b59dac51dd79f740a0b2", "type": "electric_scooter", "lat": 38.90252383333333, "is_reserved": 0, "lon": -77.05958033333333, "fusion_lon": 0.0, "is_disabled": 0, "fusion_lat": 0.0, "bike_id": "725ff75b5d69b59dac51dd79f740a0b2", "rental_uris": {"ios": "https://dc.lft.to/lastmile_qr_scan", "android": "https://dc.lft.to/lastmile_qr_scan"}}, {"name": "8ab63cb196485fb301071ef413e57e4f", "type": "electric_scooter", "lat": 38.91197616666667, "is_reserved": 0, "lon": -77.060953, "fusion_lon": 0.0, "is_disabled": 0, "fusion_lat": 0.0, "bike_id": "8ab63cb196485fb301071ef413e57e4f", "rental_uris": {"ios": "https://dc.lft.to/lastmile_qr_scan", "android": "https://dc.lft.to/lastmile_qr_scan"}}, {"name": "60828c5cda063b6e092c55584cc1a63c", "type": "electric_scooter", "lat": 38.90397033333333, "is_reserved": 0, "lon": -77.04363, "fusion_lon": 0.0, "is_disabled": 0, "fusion_lat": 0.0, "bike_id": "60828c5cda063b6e092c55584cc1a63c", "rental_uris": {"ios": "https://dc.lft.to/lastmile_qr_scan", "android": "https://dc.lft.to/lastmile_qr_scan"}}, {"name": "914cca29718d915c04f05387b9f65fa8", "type": "electric_scooter", "lat": 38.9045895, "is_reserved": 0, "lon": -77.014279, "fusion_lon": 0.0, "is_disabled": 0, "fusion_lat": 0.0, "bike_id": "914cca29718d915c04f05387b9f65fa8", "rental_uris": {"ios": "https://dc.lft.to/lastmile_qr_scan", "android": "https://dc.lft.to/lastmile_qr_scan"}}, {"name": "5b7aabb259fccb85c135d8823732cf85", "type": "electric_scooter", "lat": 38.9156055, "is_reserved": 0, "lon": -77.03944883333334, "fusion_lon": 0.0, "is_disabled": 0, "fusion_lat": 0.0, "bike_id": "5b7aabb259fccb85c135d8823732cf85", "rental_uris": {"ios": "https://dc.lft.to/lastmile_qr_scan", "android": "https://dc.lft.to/lastmile_qr_scan"}}, {"name": "8e9d1fe8b2eaaa2549c9ba2b609f1583", "type": "electric_scooter", "lat": 38.8954785, "is_reserved": 0, "lon": -77.0092075, "fusion_lon": 0.0, "is_disabled": 0, "fusion_lat": 0.0, "bike_id": "8e9d1fe8b2eaaa2549c9ba2b609f1583", "rental_uris": {"ios": "https://dc.lft.to/lastmile_qr_scan", "android": "https://dc.lft.to/lastmile_qr_scan"}}, {"name": "00eff95da9927238e82e0873b7ce3d5c", "type": "electric_scooter", "lat": 38.92848733333334, "is_reserved": 0, "lon": -77.05426783333333, "fusion_lon": 0.0, "is_disabled": 0, "fusion_lat": 0.0, "bike_id": "00eff95da9927238e82e0873b7ce3d5c", "rental_uris": {"ios": "https://dc.lft.to/lastmile_qr_scan", "android": "https://dc.lft.to/lastmile_qr_scan"}}, {"name": "7e27ee3235d3f52d084e385c43653743", "type": "electric_scooter", "lat": 38.9295505, "is_reserved": 0, "lon": -77.02341883333334, "fusion_lon": 0.0, "is_disabled": 0, "fusion_lat": 0.0, "bike_id": "7e27ee3235d3f52d084e385c43653743", "rental_uris": {"ios": "https://dc.lft.to/lastmile_qr_scan", "android": "https://dc.lft.to/lastmile_qr_scan"}}, {"name": "3256f8e342c6ecfd48818fe24c3af93f", "type": "electric_scooter", "lat": 38.89506166666666, "is_reserved": 0, "lon": -77.00340283333334, "fusion_lon": 0.0, "is_disabled": 0, "fusion_lat": 0.0, "bike_id": "3256f8e342c6ecfd48818fe24c3af93f", "rental_uris": {"ios": "https://dc.lft.to/lastmile_qr_scan", "android": "https://dc.lft.to/lastmile_qr_scan"}}, {"name": "722235775276b842adeb980b2f643a3d", "type": "electric_bike", "lat": 38.928978666666666, "is_reserved": 0, "lon": -77.0649795, "fusion_lon": 0.0, "is_disabled": 0, "fusion_lat": 0.0, "bike_id": "722235775276b842adeb980b2f643a3d", "rental_uris": {"ios": "https://dc.lft.to/lastmile_qr_scan", "android": "https://dc.lft.to/lastmile_qr_scan"}}, {"name": "60041e1f1b72038ac457f8cc4d1368f5", "type": "electric_scooter", "lat": 38.88495066666667, "is_reserved": 0, "lon": -77.007259, "fusion_lon": 0.0, "is_disabled": 0, "fusion_lat": 0.0, "bike_id": "60041e1f1b72038ac457f8cc4d1368f5", "rental_uris": {"ios": "https://dc.lft.to/lastmile_qr_scan", "android": "https://dc.lft.to/lastmile_qr_scan"}}, {"name": "1e78b3d0eaeca1a01cf9c4e236dc3417", "type": "electric_scooter", "lat": 38.907976833333336, "is_reserved": 0, "lon": -77.009556, "fusion_lon": 0.0, "is_disabled": 0, "fusion_lat": 0.0, "bike_id": "1e78b3d0eaeca1a01cf9c4e236dc3417", "rental_uris": {"ios": "https://dc.lft.to/lastmile_qr_scan", "android": "https://dc.lft.to/lastmile_qr_scan"}}, {"name": "422983d5987380c3caafea28ecedb1fb", "type": "electric_bike", "lat": 38.959567166666666, "is_reserved": 0, "lon": -77.10092716666666, "fusion_lon": 0.0, "is_disabled": 0, "fusion_lat": 0.0, "bike_id": "422983d5987380c3caafea28ecedb1fb", "rental_uris": {"ios": "https://dc.lft.to/lastmile_qr_scan", "android": "https://dc.lft.to/lastmile_qr_scan"}}, {"name": "97acedb6b3417ddb3a6eaa89f8e83707", "type": "electric_scooter", "lat": 38.90653433333333, "is_reserved": 0, "lon": -77.00898883333333, "fusion_lon": 0.0, "is_disabled": 0, "fusion_lat": 0.0, "bike_id": "97acedb6b3417ddb3a6eaa89f8e83707", "rental_uris": {"ios": "https://dc.lft.to/lastmile_qr_scan", "android": "https://dc.lft.to/lastmile_qr_scan"}}, {"name": "10bd036b79b00d1653f6ec4222a7e4c3", "type": "electric_scooter", "lat": 38.90269416666667, "is_reserved": 0, "lon": -77.03854833333334, "fusion_lon": 0.0, "is_disabled": 0, "fusion_lat": 0.0, "bike_id": "10bd036b79b00d1653f6ec4222a7e4c3", "rental_uris": {"ios": "https://dc.lft.to/lastmile_qr_scan", "android": "https://dc.lft.to/lastmile_qr_scan"}}, {"name": "059ae9860ea1c25e48e9afb53f66adbd", "type": "electric_scooter", "lat": 38.9750355, "is_reserved": 0, "lon": -77.0168675, "fusion_lon": 0.0, "is_disabled": 0, "fusion_lat": 0.0, "bike_id": "059ae9860ea1c25e48e9afb53f66adbd", "rental_uris": {"ios": "https://dc.lft.to/lastmile_qr_scan", "android": "https://dc.lft.to/lastmile_qr_scan"}}, {"name": "8d16c926260ebfc126effa4a4bcd4ec2", "type": "electric_scooter", "lat": 38.90670433333333, "is_reserved": 0, "lon": -77.0269, "fusion_lon": 0.0, "is_disabled": 0, "fusion_lat": 0.0, "bike_id": "8d16c926260ebfc126effa4a4bcd4ec2", "rental_uris": {"ios": "https://dc.lft.to/lastmile_qr_scan", "android": "https://dc.lft.to/lastmile_qr_scan"}}, {"name": "4ab678e1c0592d90082a4a5a8ee44025", "type": "electric_scooter", "lat": 38.91232, "is_reserved": 0, "lon": -77.048689, "fusion_lon": 0.0, "is_disabled": 0, "fusion_lat": 0.0, "bike_id": "4ab678e1c0592d90082a4a5a8ee44025", "rental_uris": {"ios": "https://dc.lft.to/lastmile_qr_scan", "android": "https://dc.lft.to/lastmile_qr_scan"}}, {"name": "62c1006e99a7d7ff7833e6d88fdae0b4", "type": "electric_scooter", "lat": 38.909637000000004, "is_reserved": 0, "lon": -77.01118116666666, "fusion_lon": 0.0, "is_disabled": 0, "fusion_lat": 0.0, "bike_id": "62c1006e99a7d7ff7833e6d88fdae0b4", "rental_uris": {"ios": "https://dc.lft.to/lastmile_qr_scan", "android": "https://dc.lft.to/lastmile_qr_scan"}}, {"name": "2172eb44c5fc842a90fb4f966942bfbf", "type": "electric_bike", "lat": 38.93954, "is_reserved": 0, "lon": -77.36098266666667, "fusion_lon": 0.0, "is_disabled": 0, "fusion_lat": 0.0, "bike_id": "2172eb44c5fc842a90fb4f966942bfbf", "rental_uris": {"ios": "https://dc.lft.to/lastmile_qr_scan", "android": "https://dc.lft.to/lastmile_qr_scan"}}, {"name": "9ada1672e60aacfee660a62ef31ccd20", "type": "electric_scooter", "lat": 38.9243065, "is_reserved": 0, "lon": -77.04237433333333, "fusion_lon": 0.0, "is_disabled": 0, "fusion_lat": 0.0, "bike_id": "9ada1672e60aacfee660a62ef31ccd20", "rental_uris": {"ios": "https://dc.lft.to/lastmile_qr_scan", "android": "https://dc.lft.to/lastmile_qr_scan"}}, {"name": "f31e916856c4630fb3e7f762652caab2", "type": "electric_scooter", "lat": 38.86958083333333, "is_reserved": 0, "lon": -77.01375, "fusion_lon": 0.0, "is_disabled": 0, "fusion_lat": 0.0, "bike_id": "f31e916856c4630fb3e7f762652caab2", "rental_uris": {"ios": "https://dc.lft.to/lastmile_qr_scan", "android": "https://dc.lft.to/lastmile_qr_scan"}}, {"name": "4f2f06f3b287385939a73919755ef750", "type": "electric_bike", "lat": 38.87749933333333, "is_reserved": 0, "lon": -76.9798575, "fusion_lon": 0.0, "is_disabled": 0, "fusion_lat": 0.0, "bike_id": "4f2f06f3b287385939a73919755ef750", "rental_uris": {"ios": "https://dc.lft.to/lastmile_qr_scan", "android": "https://dc.lft.to/lastmile_qr_scan"}}, {"name": "f8abd9822615aaef591c85708a46e266", "type": "electric_bike", "lat": 38.95331383333333, "is_reserved": 0, "lon": -76.98250516666667, "fusion_lon": 0.0, "is_disabled": 0, "fusion_lat": 0.0, "bike_id": "f8abd9822615aaef591c85708a46e266", "rental_uris": {"ios": "https://dc.lft.to/lastmile_qr_scan", "android": "https://dc.lft.to/lastmile_qr_scan"}}, {"name": "080d27db65b88b4b56bc2cef110b5652", "type": "electric_bike", "lat": 38.95929066666667, "is_reserved": 0, "lon": -76.9253695, "fusion_lon": 0.0, "is_disabled": 0, "fusion_lat": 0.0, "bike_id": "080d27db65b88b4b56bc2cef110b5652", "rental_uris": {"ios": "https://dc.lft.to/lastmile_qr_scan", "android": "https://dc.lft.to/lastmile_qr_scan"}}, {"name": "b80330255315e4c1b1b0c4d26d7f924f", "type": "electric_scooter", "lat": 38.9353685, "is_reserved": 0, "lon": -77.03422333333333, "fusion_lon": 0.0, "is_disabled": 0, "fusion_lat": 0.0, "bike_id": "b80330255315e4c1b1b0c4d26d7f924f", "rental_uris": {"ios": "https://dc.lft.to/lastmile_qr_scan", "android": "https://dc.lft.to/lastmile_qr_scan"}}, {"name": "872998017b72d39fb47dff39d5a71a87", "type": "electric_scooter", "lat": 38.91028983333333, "is_reserved": 0, "lon": -77.04389366666666, "fusion_lon": 0.0, "is_disabled": 0, "fusion_lat": 0.0, "bike_id": "872998017b72d39fb47dff39d5a71a87", "rental_uris": {"ios": "https://dc.lft.to/lastmile_qr_scan", "android": "https://dc.lft.to/lastmile_qr_scan"}}, {"name": "8de7e75614117352c7e09e16de34e395", "type": "electric_scooter", "lat": 38.957513, "is_reserved": 0, "lon": -77.02413616666666, "fusion_lon": 0.0, "is_disabled": 0, "fusion_lat": 0.0, "bike_id": "8de7e75614117352c7e09e16de34e395", "rental_uris": {"ios": "https://dc.lft.to/lastmile_qr_scan", "android": "https://dc.lft.to/lastmile_qr_scan"}}, {"name": "2321482a73ee3e8b8947f47bb7823dd3", "type": "electric_bike", "lat": 38.93885266666667, "is_reserved": 0, "lon": -76.954136, "fusion_lon": 0.0, "is_disabled": 0, "fusion_lat": 0.0, "bike_id": "2321482a73ee3e8b8947f47bb7823dd3", "rental_uris": {"ios": "https://dc.lft.to/lastmile_qr_scan", "android": "https://dc.lft.to/lastmile_qr_scan"}}, {"name": "3e34988f6e5b4b6b9aa125223a045e4e", "type": "electric_scooter", "lat": 38.956444, "is_reserved": 0, "lon": -77.03286483333333, "fusion_lon": 0.0, "is_disabled": 0, "fusion_lat": 0.0, "bike_id": "3e34988f6e5b4b6b9aa125223a045e4e", "rental_uris": {"ios": "https://dc.lft.to/lastmile_qr_scan", "android": "https://dc.lft.to/lastmile_qr_scan"}}, {"name": "3b5aaefb6245a3a8a6b50c0e4288782d", "type": "electric_bike", "lat": 38.924823833333335, "is_reserved": 0, "lon": -77.0732815, "fusion_lon": 0.0, "is_disabled": 0, "fusion_lat": 0.0, "bike_id": "3b5aaefb6245a3a8a6b50c0e4288782d", "rental_uris": {"ios": "https://dc.lft.to/lastmile_qr_scan", "android": "https://dc.lft.to/lastmile_qr_scan"}}, {"name": "00c52e449c3fced3cb2053d462d4dbd3", "type": "electric_scooter", "lat": 38.865359833333336, "is_reserved": 0, "lon": -76.987047, "fusion_lon": 0.0, "is_disabled": 0, "fusion_lat": 0.0, "bike_id": "00c52e449c3fced3cb2053d462d4dbd3", "rental_uris": {"ios": "https://dc.lft.to/lastmile_qr_scan", "android": "https://dc.lft.to/lastmile_qr_scan"}}, {"name": "ca1cf2185026cd4734e06d53e1d44fb1", "type": "electric_bike", "lat": 39.088581, "is_reserved": 0, "lon": -77.1784585, "fusion_lon": 0.0, "is_disabled": 0, "fusion_lat": 0.0, "bike_id": "ca1cf2185026cd4734e06d53e1d44fb1", "rental_uris": {"ios": "https://dc.lft.to/lastmile_qr_scan", "android": "https://dc.lft.to/lastmile_qr_scan"}}, {"name": "2c15eacdc5fbc57074a8cbbbfd876ad0", "type": "electric_bike", "lat": 38.950835833333336, "is_reserved": 0, "lon": -77.01226733333333, "fusion_lon": 0.0, "is_disabled": 0, "fusion_lat": 0.0, "bike_id": "2c15eacdc5fbc57074a8cbbbfd876ad0", "rental_uris": {"ios": "https://dc.lft.to/lastmile_qr_scan", "android": "https://dc.lft.to/lastmile_qr_scan"}}, {"name": "0e65bc59feff13c09d06b1a4dd32eef1", "type": "electric_scooter", "lat": 38.915576, "is_reserved": 0, "lon": -77.0226085, "fusion_lon": 0.0, "is_disabled": 0, "fusion_lat": 0.0, "bike_id": "0e65bc59feff13c09d06b1a4dd32eef1", "rental_uris": {"ios": "https://dc.lft.to/lastmile_qr_scan", "android": "https://dc.lft.to/lastmile_qr_scan"}}, {"name": "240dc1c0dde641bd30128e25d02f7ed2", "type": "electric_bike", "lat": 38.9286045, "is_reserved": 0, "lon": -77.2221765, "fusion_lon": 0.0, "is_disabled": 0, "fusion_lat": 0.0, "bike_id": "240dc1c0dde641bd30128e25d02f7ed2", "rental_uris": {"ios": "https://dc.lft.to/lastmile_qr_scan", "android": "https://dc.lft.to/lastmile_qr_scan"}}, {"name": "f7971bb698edf29b3020ddc51e22712e", "type": "electric_scooter", "lat": 38.930476, "is_reserved": 0, "lon": -77.02782, "fusion_lon": 0.0, "is_disabled": 0, "fusion_lat": 0.0, "bike_id": "f7971bb698edf29b3020ddc51e22712e", "rental_uris": {"ios": "https://dc.lft.to/lastmile_qr_scan", "android": "https://dc.lft.to/lastmile_qr_scan"}}, {"name": "838e5c645b140732a2c9d4d6045de98e", "type": "electric_scooter", "lat": 38.90403233333333, "is_reserved": 0, "lon": -77.01838433333333, "fusion_lon": 0.0, "is_disabled": 0, "fusion_lat": 0.0, "bike_id": "838e5c645b140732a2c9d4d6045de98e", "rental_uris": {"ios": "https://dc.lft.to/lastmile_qr_scan", "android": "https://dc.lft.to/lastmile_qr_scan"}}, {"name": "8b53fba3a5ef7c554c2e68e7a046ca71", "type": "electric_scooter", "lat": 38.85448566666667, "is_reserved": 0, "lon": -76.98575966666667, "fusion_lon": 0.0, "is_disabled": 0, "fusion_lat": 0.0, "bike_id": "8b53fba3a5ef7c554c2e68e7a046ca71", "rental_uris": {"ios": "https://dc.lft.to/lastmile_qr_scan", "android": "https://dc.lft.to/lastmile_qr_scan"}}, {"name": "4638c998da7be76ab84db115f38cee32", "type": "electric_scooter", "lat": 38.91869533333333, "is_reserved": 0, "lon": -77.04346133333334, "fusion_lon": 0.0, "is_disabled": 0, "fusion_lat": 0.0, "bike_id": "4638c998da7be76ab84db115f38cee32", "rental_uris": {"ios": "https://dc.lft.to/lastmile_qr_scan", "android": "https://dc.lft.to/lastmile_qr_scan"}}, {"name": "b322574d3e7b865de96ca38f166ab0f7", "type": "electric_scooter", "lat": 38.92878283333334, "is_reserved": 0, "lon": -77.0375875, "fusion_lon": 0.0, "is_disabled": 0, "fusion_lat": 0.0, "bike_id": "b322574d3e7b865de96ca38f166ab0f7", "rental_uris": {"ios": "https://dc.lft.to/lastmile_qr_scan", "android": "https://dc.lft.to/lastmile_qr_scan"}}, {"name": "4ac8810b27ffc2001f92d56f623b7351", "type": "electric_scooter", "lat": 38.940973666666665, "is_reserved": 0, "lon": -77.02110233333333, "fusion_lon": 0.0, "is_disabled": 0, "fusion_lat": 0.0, "bike_id": "4ac8810b27ffc2001f92d56f623b7351", "rental_uris": {"ios": "https://dc.lft.to/lastmile_qr_scan", "android": "https://dc.lft.to/lastmile_qr_scan"}}, {"name": "393236216fa80b3510989b113bf05f1e", "type": "electric_scooter", "lat": 38.924806, "is_reserved": 0, "lon": -77.028384, "fusion_lon": 0.0, "is_disabled": 0, "fusion_lat": 0.0, "bike_id": "393236216fa80b3510989b113bf05f1e", "rental_uris": {"ios": "https://dc.lft.to/lastmile_qr_scan", "android": "https://dc.lft.to/lastmile_qr_scan"}}, {"name": "599e3c79122d69959f2f98106932e7aa", "type": "electric_scooter", "lat": 38.878453, "is_reserved": 0, "lon": -77.0196195, "fusion_lon": 0.0, "is_disabled": 0, "fusion_lat": 0.0, "bike_id": "599e3c79122d69959f2f98106932e7aa", "rental_uris": {"ios": "https://dc.lft.to/lastmile_qr_scan", "android": "https://dc.lft.to/lastmile_qr_scan"}}, {"name": "56d3aec804aff9e1744e4e4eb3484b69", "type": "electric_scooter", "lat": 38.899552666666665, "is_reserved": 0, "lon": -77.03133183333334, "fusion_lon": 0.0, "is_disabled": 0, "fusion_lat": 0.0, "bike_id": "56d3aec804aff9e1744e4e4eb3484b69", "rental_uris": {"ios": "https://dc.lft.to/lastmile_qr_scan", "android": "https://dc.lft.to/lastmile_qr_scan"}}, {"name": "281dc978c7968d0a9c0aa70e588ad9e1", "type": "electric_scooter", "lat": 38.8722855, "is_reserved": 0, "lon": -77.01161583333334, "fusion_lon": 0.0, "is_disabled": 0, "fusion_lat": 0.0, "bike_id": "281dc978c7968d0a9c0aa70e588ad9e1", "rental_uris": {"ios": "https://dc.lft.to/lastmile_qr_scan", "android": "https://dc.lft.to/lastmile_qr_scan"}}, {"name": "35390fe8089daf4fda2f5f7d2b578a43", "type": "electric_bike", "lat": 38.95912933333334, "is_reserved": 0, "lon": -77.0015405, "fusion_lon": 0.0, "is_disabled": 0, "fusion_lat": 0.0, "bike_id": "35390fe8089daf4fda2f5f7d2b578a43", "rental_uris": {"ios": "https://dc.lft.to/lastmile_qr_scan", "android": "https://dc.lft.to/lastmile_qr_scan"}}, {"name": "e03d580fb1cb5cd222a85bd1e7243394", "type": "electric_scooter", "lat": 38.915648166666664, "is_reserved": 0, "lon": -77.021953, "fusion_lon": 0.0, "is_disabled": 0, "fusion_lat": 0.0, "bike_id": "e03d580fb1cb5cd222a85bd1e7243394", "rental_uris": {"ios": "https://dc.lft.to/lastmile_qr_scan", "android": "https://dc.lft.to/lastmile_qr_scan"}}, {"name": "2787f148319d5166dfa5faba236955aa", "type": "electric_scooter", "lat": 38.941198666666665, "is_reserved": 0, "lon": -77.02660333333333, "fusion_lon": 0.0, "is_disabled": 0, "fusion_lat": 0.0, "bike_id": "2787f148319d5166dfa5faba236955aa", "rental_uris": {"ios": "https://dc.lft.to/lastmile_qr_scan", "android": "https://dc.lft.to/lastmile_qr_scan"}}, {"name": "327057cfa30f1918fc73389543e0c00a", "type": "electric_scooter", "lat": 38.88490783333334, "is_reserved": 0, "lon": -77.02858833333333, "fusion_lon": 0.0, "is_disabled": 0, "fusion_lat": 0.0, "bike_id": "327057cfa30f1918fc73389543e0c00a", "rental_uris": {"ios": "https://dc.lft.to/lastmile_qr_scan", "android": "https://dc.lft.to/lastmile_qr_scan"}}, {"name": "81bb6b4a2fc9f97ea59d5b021fb7136e", "type": "electric_scooter", "lat": 38.908588333333334, "is_reserved": 0, "lon": -76.98616266666667, "fusion_lon": 0.0, "is_disabled": 0, "fusion_lat": 0.0, "bike_id": "81bb6b4a2fc9f97ea59d5b021fb7136e", "rental_uris": {"ios": "https://dc.lft.to/lastmile_qr_scan", "android": "https://dc.lft.to/lastmile_qr_scan"}}, {"name": "4e1887fdb4ee5e041d56033c53df20a5", "type": "electric_scooter", "lat": 38.9003255, "is_reserved": 0, "lon": -76.9884425, "fusion_lon": 0.0, "is_disabled": 0, "fusion_lat": 0.0, "bike_id": "4e1887fdb4ee5e041d56033c53df20a5", "rental_uris": {"ios": "https://dc.lft.to/lastmile_qr_scan", "android": "https://dc.lft.to/lastmile_qr_scan"}}, {"name": "a5864df21e29683822297bb1b1a7cd50", "type": "electric_scooter", "lat": 38.90512, "is_reserved": 0, "lon": -77.06584283333333, "fusion_lon": 0.0, "is_disabled": 0, "fusion_lat": 0.0, "bike_id": "a5864df21e29683822297bb1b1a7cd50", "rental_uris": {"ios": "https://dc.lft.to/lastmile_qr_scan", "android": "https://dc.lft.to/lastmile_qr_scan"}}, {"name": "35b448ffcd6a12e1f02d8b48e214dc14", "type": "electric_bike", "lat": 38.903629, "is_reserved": 0, "lon": -76.98325183333333, "fusion_lon": 0.0, "is_disabled": 0, "fusion_lat": 0.0, "bike_id": "35b448ffcd6a12e1f02d8b48e214dc14", "rental_uris": {"ios": "https://dc.lft.to/lastmile_qr_scan", "android": "https://dc.lft.to/lastmile_qr_scan"}}, {"name": "2038912367631662c38c7e9ca526ea69", "type": "electric_scooter", "lat": 38.8635865, "is_reserved": 0, "lon": -76.99066933333333, "fusion_lon": 0.0, "is_disabled": 0, "fusion_lat": 0.0, "bike_id": "2038912367631662c38c7e9ca526ea69", "rental_uris": {"ios": "https://dc.lft.to/lastmile_qr_scan", "android": "https://dc.lft.to/lastmile_qr_scan"}}, {"name": "2fcf1cda49a2931c15770447ff20c544", "type": "electric_scooter", "lat": 38.901699, "is_reserved": 0, "lon": -77.0000385, "fusion_lon": 0.0, "is_disabled": 0, "fusion_lat": 0.0, "bike_id": "2fcf1cda49a2931c15770447ff20c544", "rental_uris": {"ios": "https://dc.lft.to/lastmile_qr_scan", "android": "https://dc.lft.to/lastmile_qr_scan"}}, {"name": "fc1b0c80d0ab5b779f1388b4dcd15ed0", "type": "electric_scooter", "lat": 38.905548833333334, "is_reserved": 0, "lon": -77.04668616666666, "fusion_lon": 0.0, "is_disabled": 0, "fusion_lat": 0.0, "bike_id": "fc1b0c80d0ab5b779f1388b4dcd15ed0", "rental_uris": {"ios": "https://dc.lft.to/lastmile_qr_scan", "android": "https://dc.lft.to/lastmile_qr_scan"}}, {"name": "8b32f175294bbfc919f923ae3ca1372f", "type": "electric_scooter", "lat": 38.903659833333336, "is_reserved": 0, "lon": -77.0450475, "fusion_lon": 0.0, "is_disabled": 0, "fusion_lat": 0.0, "bike_id": "8b32f175294bbfc919f923ae3ca1372f", "rental_uris": {"ios": "https://dc.lft.to/lastmile_qr_scan", "android": "https://dc.lft.to/lastmile_qr_scan"}}, {"name": "23506720a9049a9f56fdacaa1860eeb6", "type": "electric_scooter", "lat": 38.892193166666665, "is_reserved": 0, "lon": -77.04540266666666, "fusion_lon": 0.0, "is_disabled": 0, "fusion_lat": 0.0, "bike_id": "23506720a9049a9f56fdacaa1860eeb6", "rental_uris": {"ios": "https://dc.lft.to/lastmile_qr_scan", "android": "https://dc.lft.to/lastmile_qr_scan"}}, {"name": "e339a64fcf2de1bbf60baeef97808a02", "type": "electric_scooter", "lat": 38.92904883333333, "is_reserved": 0, "lon": -77.02162633333333, "fusion_lon": 0.0, "is_disabled": 0, "fusion_lat": 0.0, "bike_id": "e339a64fcf2de1bbf60baeef97808a02", "rental_uris": {"ios": "https://dc.lft.to/lastmile_qr_scan", "android": "https://dc.lft.to/lastmile_qr_scan"}}, {"name": "97d3f5d680f7fe483e2ec4b0ea798920", "type": "electric_scooter", "lat": 38.93494366666667, "is_reserved": 0, "lon": -77.02842366666667, "fusion_lon": 0.0, "is_disabled": 0, "fusion_lat": 0.0, "bike_id": "97d3f5d680f7fe483e2ec4b0ea798920", "rental_uris": {"ios": "https://dc.lft.to/lastmile_qr_scan", "android": "https://dc.lft.to/lastmile_qr_scan"}}, {"name": "fa142f68c6754c548ffab142818ee033", "type": "electric_bike", "lat": 38.8542415, "is_reserved": 0, "lon": -76.90965216666666, "fusion_lon": 0.0, "is_disabled": 0, "fusion_lat": 0.0, "bike_id": "fa142f68c6754c548ffab142818ee033", "rental_uris": {"ios": "https://dc.lft.to/lastmile_qr_scan", "android": "https://dc.lft.to/lastmile_qr_scan"}}, {"name": "09c43094f74f622b5b13dcebc9ebe9c8", "type": "electric_scooter", "lat": 38.935413833333335, "is_reserved": 0, "lon": -77.034229, "fusion_lon": 0.0, "is_disabled": 0, "fusion_lat": 0.0, "bike_id": "09c43094f74f622b5b13dcebc9ebe9c8", "rental_uris": {"ios": "https://dc.lft.to/lastmile_qr_scan", "android": "https://dc.lft.to/lastmile_qr_scan"}}, {"name": "987d2be63e9a3cb8539082b2131adb13", "type": "electric_scooter", "lat": 38.900022, "is_reserved": 0, "lon": -76.9870055, "fusion_lon": 0.0, "is_disabled": 0, "fusion_lat": 0.0, "bike_id": "987d2be63e9a3cb8539082b2131adb13", "rental_uris": {"ios": "https://dc.lft.to/lastmile_qr_scan", "android": "https://dc.lft.to/lastmile_qr_scan"}}, {"name": "97f1fe216cc75d0d347b0d72f8cdf308", "type": "electric_bike", "lat": 38.810481333333335, "is_reserved": 0, "lon": -77.08505483333333, "fusion_lon": 0.0, "is_disabled": 0, "fusion_lat": 0.0, "bike_id": "97f1fe216cc75d0d347b0d72f8cdf308", "rental_uris": {"ios": "https://dc.lft.to/lastmile_qr_scan", "android": "https://dc.lft.to/lastmile_qr_scan"}}, {"name": "53834d6b169e9919c6f0ff0b97f6f411", "type": "electric_scooter", "lat": 38.926680166666664, "is_reserved": 0, "lon": -76.99537416666666, "fusion_lon": 0.0, "is_disabled": 0, "fusion_lat": 0.0, "bike_id": "53834d6b169e9919c6f0ff0b97f6f411", "rental_uris": {"ios": "https://dc.lft.to/lastmile_qr_scan", "android": "https://dc.lft.to/lastmile_qr_scan"}}, {"name": "7e7b3c19bd6f702cd2fe2614a97b5e5e", "type": "electric_scooter", "lat": 38.8442675, "is_reserved": 0, "lon": -76.997768, "fusion_lon": 0.0, "is_disabled": 0, "fusion_lat": 0.0, "bike_id": "7e7b3c19bd6f702cd2fe2614a97b5e5e", "rental_uris": {"ios": "https://dc.lft.to/lastmile_qr_scan", "android": "https://dc.lft.to/lastmile_qr_scan"}}, {"name": "fefe30180c5aad5c88557edb7aed3374", "type": "electric_bike", "lat": 39.026437333333334, "is_reserved": 0, "lon": -77.12547233333333, "fusion_lon": 0.0, "is_disabled": 0, "fusion_lat": 0.0, "bike_id": "fefe30180c5aad5c88557edb7aed3374", "rental_uris": {"ios": "https://dc.lft.to/lastmile_qr_scan", "android": "https://dc.lft.to/lastmile_qr_scan"}}, {"name": "11ce4430699bb53d5bebf63a40cd3c37", "type": "electric_scooter", "lat": 38.899004833333336, "is_reserved": 0, "lon": -77.033031, "fusion_lon": 0.0, "is_disabled": 0, "fusion_lat": 0.0, "bike_id": "11ce4430699bb53d5bebf63a40cd3c37", "rental_uris": {"ios": "https://dc.lft.to/lastmile_qr_scan", "android": "https://dc.lft.to/lastmile_qr_scan"}}, {"name": "a9f8075c717ac6cc69acf02fb23a91be", "type": "electric_scooter", "lat": 38.916771833333335, "is_reserved": 0, "lon": -77.02407483333333, "fusion_lon": 0.0, "is_disabled": 0, "fusion_lat": 0.0, "bike_id": "a9f8075c717ac6cc69acf02fb23a91be", "rental_uris": {"ios": "https://dc.lft.to/lastmile_qr_scan", "android": "https://dc.lft.to/lastmile_qr_scan"}}, {"name": "14439f44f5706a3a98976cecf3c70983", "type": "electric_scooter", "lat": 38.878371666666666, "is_reserved": 0, "lon": -77.00052783333334, "fusion_lon": 0.0, "is_disabled": 0, "fusion_lat": 0.0, "bike_id": "14439f44f5706a3a98976cecf3c70983", "rental_uris": {"ios": "https://dc.lft.to/lastmile_qr_scan", "android": "https://dc.lft.to/lastmile_qr_scan"}}, {"name": "69c6e368fe92f3f0d39b23c577e540e1", "type": "electric_scooter", "lat": 38.8851375, "is_reserved": 0, "lon": -77.00570016666667, "fusion_lon": 0.0, "is_disabled": 0, "fusion_lat": 0.0, "bike_id": "69c6e368fe92f3f0d39b23c577e540e1", "rental_uris": {"ios": "https://dc.lft.to/lastmile_qr_scan", "android": "https://dc.lft.to/lastmile_qr_scan"}}, {"name": "59efc84db1785aa5400639c448c05b4c", "type": "electric_scooter", "lat": 38.91193166666667, "is_reserved": 0, "lon": -77.06095616666667, "fusion_lon": 0.0, "is_disabled": 0, "fusion_lat": 0.0, "bike_id": "59efc84db1785aa5400639c448c05b4c", "rental_uris": {"ios": "https://dc.lft.to/lastmile_qr_scan", "android": "https://dc.lft.to/lastmile_qr_scan"}}, {"name": "e4b8a91497affedcf02c26f9a5f6eb3f", "type": "electric_scooter", "lat": 38.8953045, "is_reserved": 0, "lon": -76.9493215, "fusion_lon": 0.0, "is_disabled": 0, "fusion_lat": 0.0, "bike_id": "e4b8a91497affedcf02c26f9a5f6eb3f", "rental_uris": {"ios": "https://dc.lft.to/lastmile_qr_scan", "android": "https://dc.lft.to/lastmile_qr_scan"}}, {"name": "24651d46abde0792b449690ab5c3fad2", "type": "electric_scooter", "lat": 38.90059133333333, "is_reserved": 0, "lon": -77.05061233333333, "fusion_lon": 0.0, "is_disabled": 0, "fusion_lat": 0.0, "bike_id": "24651d46abde0792b449690ab5c3fad2", "rental_uris": {"ios": "https://dc.lft.to/lastmile_qr_scan", "android": "https://dc.lft.to/lastmile_qr_scan"}}, {"name": "ce1a9b5cb6279114dd552f7f09b1133e", "type": "electric_scooter", "lat": 38.935758666666665, "is_reserved": 0, "lon": -77.0377495, "fusion_lon": 0.0, "is_disabled": 0, "fusion_lat": 0.0, "bike_id": "ce1a9b5cb6279114dd552f7f09b1133e", "rental_uris": {"ios": "https://dc.lft.to/lastmile_qr_scan", "android": "https://dc.lft.to/lastmile_qr_scan"}}, {"name": "6a68d9492578bcc47edf48bc9d5e458a", "type": "electric_scooter", "lat": 38.90589, "is_reserved": 0, "lon": -77.01619733333334, "fusion_lon": 0.0, "is_disabled": 0, "fusion_lat": 0.0, "bike_id": "6a68d9492578bcc47edf48bc9d5e458a", "rental_uris": {"ios": "https://dc.lft.to/lastmile_qr_scan", "android": "https://dc.lft.to/lastmile_qr_scan"}}, {"name": "b0ad05df7f7c3ec599b460ed6b8c4d08", "type": "electric_scooter", "lat": 38.91460883333333, "is_reserved": 0, "lon": -77.03842983333334, "fusion_lon": 0.0, "is_disabled": 0, "fusion_lat": 0.0, "bike_id": "b0ad05df7f7c3ec599b460ed6b8c4d08", "rental_uris": {"ios": "https://dc.lft.to/lastmile_qr_scan", "android": "https://dc.lft.to/lastmile_qr_scan"}}, {"name": "ddb09f4de4fb3cf4418cad34ea4e8f5c", "type": "electric_scooter", "lat": 38.90017866666667, "is_reserved": 0, "lon": -77.01167983333333, "fusion_lon": 0.0, "is_disabled": 0, "fusion_lat": 0.0, "bike_id": "ddb09f4de4fb3cf4418cad34ea4e8f5c", "rental_uris": {"ios": "https://dc.lft.to/lastmile_qr_scan", "android": "https://dc.lft.to/lastmile_qr_scan"}}, {"name": "b9f693b14f41e3c32d90a6ed4350114a", "type": "electric_scooter", "lat": 38.8983045, "is_reserved": 0, "lon": -77.03314516666667, "fusion_lon": 0.0, "is_disabled": 0, "fusion_lat": 0.0, "bike_id": "b9f693b14f41e3c32d90a6ed4350114a", "rental_uris": {"ios": "https://dc.lft.to/lastmile_qr_scan", "android": "https://dc.lft.to/lastmile_qr_scan"}}, {"name": "1c13ca6c22164c725ef68b78ad1613be", "type": "electric_bike", "lat": 38.839319333333336, "is_reserved": 0, "lon": -77.07910966666667, "fusion_lon": 0.0, "is_disabled": 0, "fusion_lat": 0.0, "bike_id": "1c13ca6c22164c725ef68b78ad1613be", "rental_uris": {"ios": "https://dc.lft.to/lastmile_qr_scan", "android": "https://dc.lft.to/lastmile_qr_scan"}}, {"name": "b3cb497e764b6c58dc9f1ee044db727d", "type": "electric_scooter", "lat": 38.911121, "is_reserved": 0, "lon": -77.03478516666667, "fusion_lon": 0.0, "is_disabled": 0, "fusion_lat": 0.0, "bike_id": "b3cb497e764b6c58dc9f1ee044db727d", "rental_uris": {"ios": "https://dc.lft.to/lastmile_qr_scan", "android": "https://dc.lft.to/lastmile_qr_scan"}}, {"name": "fdf0ac74f29a2d2062e9ce92db2b4968", "type": "electric_scooter", "lat": 38.903248166666664, "is_reserved": 0, "lon": -77.033319, "fusion_lon": 0.0, "is_disabled": 0, "fusion_lat": 0.0, "bike_id": "fdf0ac74f29a2d2062e9ce92db2b4968", "rental_uris": {"ios": "https://dc.lft.to/lastmile_qr_scan", "android": "https://dc.lft.to/lastmile_qr_scan"}}, {"name": "a3198599aedcedd4e227601b19805920", "type": "electric_bike", "lat": 38.88039583333333, "is_reserved": 0, "lon": -77.0132855, "fusion_lon": 0.0, "is_disabled": 0, "fusion_lat": 0.0, "bike_id": "a3198599aedcedd4e227601b19805920", "rental_uris": {"ios": "https://dc.lft.to/lastmile_qr_scan", "android": "https://dc.lft.to/lastmile_qr_scan"}}, {"name": "c6293d5abd38c857c939323fab630b28", "type": "electric_scooter", "lat": 38.939808666666664, "is_reserved": 0, "lon": -77.02590983333333, "fusion_lon": 0.0, "is_disabled": 0, "fusion_lat": 0.0, "bike_id": "c6293d5abd38c857c939323fab630b28", "rental_uris": {"ios": "https://dc.lft.to/lastmile_qr_scan", "android": "https://dc.lft.to/lastmile_qr_scan"}}, {"name": "cd96709bcc21c0bd014cd58d5e2bc077", "type": "electric_bike", "lat": 38.84273533333333, "is_reserved": 0, "lon": -76.9884645, "fusion_lon": 0.0, "is_disabled": 0, "fusion_lat": 0.0, "bike_id": "cd96709bcc21c0bd014cd58d5e2bc077", "rental_uris": {"ios": "https://dc.lft.to/lastmile_qr_scan", "android": "https://dc.lft.to/lastmile_qr_scan"}}, {"name": "530ba1e1f66b876ae0889f7efea7f6ae", "type": "electric_scooter", "lat": 38.9156565, "is_reserved": 0, "lon": -77.021915, "fusion_lon": 0.0, "is_disabled": 0, "fusion_lat": 0.0, "bike_id": "530ba1e1f66b876ae0889f7efea7f6ae", "rental_uris": {"ios": "https://dc.lft.to/lastmile_qr_scan", "android": "https://dc.lft.to/lastmile_qr_scan"}}, {"name": "036710840aa14a6f181f7b8afafb7457", "type": "electric_scooter", "lat": 38.9148355, "is_reserved": 0, "lon": -77.03933216666667, "fusion_lon": 0.0, "is_disabled": 0, "fusion_lat": 0.0, "bike_id": "036710840aa14a6f181f7b8afafb7457", "rental_uris": {"ios": "https://dc.lft.to/lastmile_qr_scan", "android": "https://dc.lft.to/lastmile_qr_scan"}}, {"name": "37febc6c75537bb53843ed3f1e0d9731", "type": "electric_scooter", "lat": 38.92308883333333, "is_reserved": 0, "lon": -77.01204816666667, "fusion_lon": 0.0, "is_disabled": 0, "fusion_lat": 0.0, "bike_id": "37febc6c75537bb53843ed3f1e0d9731", "rental_uris": {"ios": "https://dc.lft.to/lastmile_qr_scan", "android": "https://dc.lft.to/lastmile_qr_scan"}}, {"name": "23f0f2d7c7870d30e7f449f6d2b1aec4", "type": "electric_bike", "lat": 38.999057666666666, "is_reserved": 0, "lon": -77.046283, "fusion_lon": 0.0, "is_disabled": 0, "fusion_lat": 0.0, "bike_id": "23f0f2d7c7870d30e7f449f6d2b1aec4", "rental_uris": {"ios": "https://dc.lft.to/lastmile_qr_scan", "android": "https://dc.lft.to/lastmile_qr_scan"}}, {"name": "fef56fc6351c1713754de1c331611f80", "type": "electric_bike", "lat": 38.9086465, "is_reserved": 0, "lon": -76.93161233333333, "fusion_lon": 0.0, "is_disabled": 0, "fusion_lat": 0.0, "bike_id": "fef56fc6351c1713754de1c331611f80", "rental_uris": {"ios": "https://dc.lft.to/lastmile_qr_scan", "android": "https://dc.lft.to/lastmile_qr_scan"}}, {"name": "29b01055712ff4af9d9522d75bfb8b5c", "type": "electric_scooter", "lat": 38.961153, "is_reserved": 0, "lon": -77.028168, "fusion_lon": 0.0, "is_disabled": 0, "fusion_lat": 0.0, "bike_id": "29b01055712ff4af9d9522d75bfb8b5c", "rental_uris": {"ios": "https://dc.lft.to/lastmile_qr_scan", "android": "https://dc.lft.to/lastmile_qr_scan"}}, {"name": "22367f7a8a55b5c8ee88e6eb2e35f2f1", "type": "electric_scooter", "lat": 38.91929483333333, "is_reserved": 0, "lon": -77.0448635, "fusion_lon": 0.0, "is_disabled": 0, "fusion_lat": 0.0, "bike_id": "22367f7a8a55b5c8ee88e6eb2e35f2f1", "rental_uris": {"ios": "https://dc.lft.to/lastmile_qr_scan", "android": "https://dc.lft.to/lastmile_qr_scan"}}, {"name": "4c9d6af094af65f58a82d0303e297636", "type": "electric_scooter", "lat": 38.913324333333335, "is_reserved": 0, "lon": -77.01622616666667, "fusion_lon": 0.0, "is_disabled": 0, "fusion_lat": 0.0, "bike_id": "4c9d6af094af65f58a82d0303e297636", "rental_uris": {"ios": "https://dc.lft.to/lastmile_qr_scan", "android": "https://dc.lft.to/lastmile_qr_scan"}}, {"name": "55c30046d4b468ceafc267cdbdad186e", "type": "electric_scooter", "lat": 38.906851833333334, "is_reserved": 0, "lon": -77.02498866666667, "fusion_lon": 0.0, "is_disabled": 0, "fusion_lat": 0.0, "bike_id": "55c30046d4b468ceafc267cdbdad186e", "rental_uris": {"ios": "https://dc.lft.to/lastmile_qr_scan", "android": "https://dc.lft.to/lastmile_qr_scan"}}, {"name": "5fb03da569c29a10f434b5aaff3b39aa", "type": "electric_scooter", "lat": 38.902679, "is_reserved": 0, "lon": -77.01753783333334, "fusion_lon": 0.0, "is_disabled": 0, "fusion_lat": 0.0, "bike_id": "5fb03da569c29a10f434b5aaff3b39aa", "rental_uris": {"ios": "https://dc.lft.to/lastmile_qr_scan", "android": "https://dc.lft.to/lastmile_qr_scan"}}, {"name": "52a048f452c35b09494dc0f0711f6302", "type": "electric_scooter", "lat": 38.893431166666666, "is_reserved": 0, "lon": -76.99387633333333, "fusion_lon": 0.0, "is_disabled": 0, "fusion_lat": 0.0, "bike_id": "52a048f452c35b09494dc0f0711f6302", "rental_uris": {"ios": "https://dc.lft.to/lastmile_qr_scan", "android": "https://dc.lft.to/lastmile_qr_scan"}}, {"name": "6a29dc8ec12d0c538919b735fc7bf3be", "type": "electric_bike", "lat": 38.845718, "is_reserved": 0, "lon": -77.0962335, "fusion_lon": 0.0, "is_disabled": 0, "fusion_lat": 0.0, "bike_id": "6a29dc8ec12d0c538919b735fc7bf3be", "rental_uris": {"ios": "https://dc.lft.to/lastmile_qr_scan", "android": "https://dc.lft.to/lastmile_qr_scan"}}, {"name": "af15b0a605ecd27ef556dcc726bde42c", "type": "electric_scooter", "lat": 38.863673, "is_reserved": 0, "lon": -77.01366633333333, "fusion_lon": 0.0, "is_disabled": 0, "fusion_lat": 0.0, "bike_id": "af15b0a605ecd27ef556dcc726bde42c", "rental_uris": {"ios": "https://dc.lft.to/lastmile_qr_scan", "android": "https://dc.lft.to/lastmile_qr_scan"}}, {"name": "0f0ab03e30cd38a374364771a9077367", "type": "electric_scooter", "lat": 38.918625666666664, "is_reserved": 0, "lon": -77.04030116666667, "fusion_lon": 0.0, "is_disabled": 0, "fusion_lat": 0.0, "bike_id": "0f0ab03e30cd38a374364771a9077367", "rental_uris": {"ios": "https://dc.lft.to/lastmile_qr_scan", "android": "https://dc.lft.to/lastmile_qr_scan"}}, {"name": "10a46f5b5d70506440056675eec60116", "type": "electric_bike", "lat": 38.89215883333333, "is_reserved": 0, "lon": -77.10783483333333, "fusion_lon": 0.0, "is_disabled": 0, "fusion_lat": 0.0, "bike_id": "10a46f5b5d70506440056675eec60116", "rental_uris": {"ios": "https://dc.lft.to/lastmile_qr_scan", "android": "https://dc.lft.to/lastmile_qr_scan"}}, {"name": "11dec35aead95ae63350d2899213853b", "type": "electric_scooter", "lat": 38.905133666666664, "is_reserved": 0, "lon": -77.067523, "fusion_lon": 0.0, "is_disabled": 0, "fusion_lat": 0.0, "bike_id": "11dec35aead95ae63350d2899213853b", "rental_uris": {"ios": "https://dc.lft.to/lastmile_qr_scan", "android": "https://dc.lft.to/lastmile_qr_scan"}}, {"name": "dd940febd4baa28e03af67869323d01b", "type": "electric_scooter", "lat": 38.9375255, "is_reserved": 0, "lon": -77.03495683333334, "fusion_lon": 0.0, "is_disabled": 0, "fusion_lat": 0.0, "bike_id": "dd940febd4baa28e03af67869323d01b", "rental_uris": {"ios": "https://dc.lft.to/lastmile_qr_scan", "android": "https://dc.lft.to/lastmile_qr_scan"}}, {"name": "48de42cb03b6157b07bb392717726132", "type": "electric_scooter", "lat": 38.94295533333333, "is_reserved": 0, "lon": -77.02175983333333, "fusion_lon": 0.0, "is_disabled": 0, "fusion_lat": 0.0, "bike_id": "48de42cb03b6157b07bb392717726132", "rental_uris": {"ios": "https://dc.lft.to/lastmile_qr_scan", "android": "https://dc.lft.to/lastmile_qr_scan"}}, {"name": "4350d15a8437ac3f749ff0333dc8b6b1", "type": "electric_scooter", "lat": 38.923454666666665, "is_reserved": 0, "lon": -77.03390316666666, "fusion_lon": 0.0, "is_disabled": 0, "fusion_lat": 0.0, "bike_id": "4350d15a8437ac3f749ff0333dc8b6b1", "rental_uris": {"ios": "https://dc.lft.to/lastmile_qr_scan", "android": "https://dc.lft.to/lastmile_qr_scan"}}, {"name": "ecb0e3f46a773a801a381e9b95d851c4", "type": "electric_scooter", "lat": 38.93392266666667, "is_reserved": 0, "lon": -77.03582716666666, "fusion_lon": 0.0, "is_disabled": 0, "fusion_lat": 0.0, "bike_id": "ecb0e3f46a773a801a381e9b95d851c4", "rental_uris": {"ios": "https://dc.lft.to/lastmile_qr_scan", "android": "https://dc.lft.to/lastmile_qr_scan"}}, {"name": "6fb2fc4f25778921d8ad041a4989e1b5", "type": "electric_scooter", "lat": 38.91962766666666, "is_reserved": 0, "lon": -77.0143915, "fusion_lon": 0.0, "is_disabled": 0, "fusion_lat": 0.0, "bike_id": "6fb2fc4f25778921d8ad041a4989e1b5", "rental_uris": {"ios": "https://dc.lft.to/lastmile_qr_scan", "android": "https://dc.lft.to/lastmile_qr_scan"}}, {"name": "d199642aceb6d152cc9753215c3f70fb", "type": "electric_scooter", "lat": 38.92707566666667, "is_reserved": 0, "lon": -77.02102283333333, "fusion_lon": 0.0, "is_disabled": 0, "fusion_lat": 0.0, "bike_id": "d199642aceb6d152cc9753215c3f70fb", "rental_uris": {"ios": "https://dc.lft.to/lastmile_qr_scan", "android": "https://dc.lft.to/lastmile_qr_scan"}}, {"name": "f897c567d858d7aa98390eb69b427304", "type": "electric_bike", "lat": 38.93713283333334, "is_reserved": 0, "lon": -77.0210405, "fusion_lon": 0.0, "is_disabled": 0, "fusion_lat": 0.0, "bike_id": "f897c567d858d7aa98390eb69b427304", "rental_uris": {"ios": "https://dc.lft.to/lastmile_qr_scan", "android": "https://dc.lft.to/lastmile_qr_scan"}}, {"name": "b285680bd88dc9b5317d73f9db26c16e", "type": "electric_bike", "lat": 38.87479183333333, "is_reserved": 0, "lon": -76.9653195, "fusion_lon": 0.0, "is_disabled": 0, "fusion_lat": 0.0, "bike_id": "b285680bd88dc9b5317d73f9db26c16e", "rental_uris": {"ios": "https://dc.lft.to/lastmile_qr_scan", "android": "https://dc.lft.to/lastmile_qr_scan"}}, {"name": "b8f997b1efbf193c3be190fc784e35b3", "type": "electric_scooter", "lat": 38.902331, "is_reserved": 0, "lon": -77.05343433333333, "fusion_lon": 0.0, "is_disabled": 0, "fusion_lat": 0.0, "bike_id": "b8f997b1efbf193c3be190fc784e35b3", "rental_uris": {"ios": "https://dc.lft.to/lastmile_qr_scan", "android": "https://dc.lft.to/lastmile_qr_scan"}}, {"name": "b5c3c81ca3a33fdbf6cc4b05d9f05324", "type": "electric_scooter", "lat": 38.9051915, "is_reserved": 0, "lon": -77.051393, "fusion_lon": 0.0, "is_disabled": 0, "fusion_lat": 0.0, "bike_id": "b5c3c81ca3a33fdbf6cc4b05d9f05324", "rental_uris": {"ios": "https://dc.lft.to/lastmile_qr_scan", "android": "https://dc.lft.to/lastmile_qr_scan"}}, {"name": "fb5f035e70f3385dae71cf6b16773f51", "type": "electric_scooter", "lat": 38.908532, "is_reserved": 0, "lon": -77.042552, "fusion_lon": 0.0, "is_disabled": 0, "fusion_lat": 0.0, "bike_id": "fb5f035e70f3385dae71cf6b16773f51", "rental_uris": {"ios": "https://dc.lft.to/lastmile_qr_scan", "android": "https://dc.lft.to/lastmile_qr_scan"}}, {"name": "4cd6da20af4feb0fef6510f4d457c8bf", "type": "electric_scooter", "lat": 38.89371383333334, "is_reserved": 0, "lon": -76.94986783333333, "fusion_lon": 0.0, "is_disabled": 0, "fusion_lat": 0.0, "bike_id": "4cd6da20af4feb0fef6510f4d457c8bf", "rental_uris": {"ios": "https://dc.lft.to/lastmile_qr_scan", "android": "https://dc.lft.to/lastmile_qr_scan"}}, {"name": "830359c04fb7b3e357a86142cdb10b31", "type": "electric_scooter", "lat": 38.897919, "is_reserved": 0, "lon": -77.02735816666667, "fusion_lon": 0.0, "is_disabled": 0, "fusion_lat": 0.0, "bike_id": "830359c04fb7b3e357a86142cdb10b31", "rental_uris": {"ios": "https://dc.lft.to/lastmile_qr_scan", "android": "https://dc.lft.to/lastmile_qr_scan"}}, {"name": "a300b818a5ab4b2ede190e5ec46e9eab", "type": "electric_scooter", "lat": 38.88210216666667, "is_reserved": 0, "lon": -77.0144895, "fusion_lon": 0.0, "is_disabled": 0, "fusion_lat": 0.0, "bike_id": "a300b818a5ab4b2ede190e5ec46e9eab", "rental_uris": {"ios": "https://dc.lft.to/lastmile_qr_scan", "android": "https://dc.lft.to/lastmile_qr_scan"}}, {"name": "c1ce7737c5c91cc233f7cae03799fc8a", "type": "electric_scooter", "lat": 38.9067235, "is_reserved": 0, "lon": -77.038316, "fusion_lon": 0.0, "is_disabled": 0, "fusion_lat": 0.0, "bike_id": "c1ce7737c5c91cc233f7cae03799fc8a", "rental_uris": {"ios": "https://dc.lft.to/lastmile_qr_scan", "android": "https://dc.lft.to/lastmile_qr_scan"}}, {"name": "8da8b837f5a7a66af1983b09a970bdc6", "type": "electric_scooter", "lat": 38.92538416666667, "is_reserved": 0, "lon": -77.03522983333333, "fusion_lon": 0.0, "is_disabled": 0, "fusion_lat": 0.0, "bike_id": "8da8b837f5a7a66af1983b09a970bdc6", "rental_uris": {"ios": "https://dc.lft.to/lastmile_qr_scan", "android": "https://dc.lft.to/lastmile_qr_scan"}}, {"name": "37a1b1cc0a156d7b34ace162fc8fa70d", "type": "electric_scooter", "lat": 38.9216905, "is_reserved": 0, "lon": -77.02679366666666, "fusion_lon": 0.0, "is_disabled": 0, "fusion_lat": 0.0, "bike_id": "37a1b1cc0a156d7b34ace162fc8fa70d", "rental_uris": {"ios": "https://dc.lft.to/lastmile_qr_scan", "android": "https://dc.lft.to/lastmile_qr_scan"}}, {"name": "85291437e7f07f44c3b07f4e6f3c842d", "type": "electric_scooter", "lat": 38.9084095, "is_reserved": 0, "lon": -77.0269275, "fusion_lon": 0.0, "is_disabled": 0, "fusion_lat": 0.0, "bike_id": "85291437e7f07f44c3b07f4e6f3c842d", "rental_uris": {"ios": "https://dc.lft.to/lastmile_qr_scan", "android": "https://dc.lft.to/lastmile_qr_scan"}}, {"name": "9c75ab1638ed24c5cc263100b48de061", "type": "electric_scooter", "lat": 38.91205133333333, "is_reserved": 0, "lon": -77.006606, "fusion_lon": 0.0, "is_disabled": 0, "fusion_lat": 0.0, "bike_id": "9c75ab1638ed24c5cc263100b48de061", "rental_uris": {"ios": "https://dc.lft.to/lastmile_qr_scan", "android": "https://dc.lft.to/lastmile_qr_scan"}}, {"name": "a4a461a2382264f3b005397a3522bbcd", "type": "electric_bike", "lat": 38.892223, "is_reserved": 0, "lon": -76.970236, "fusion_lon": 0.0, "is_disabled": 0, "fusion_lat": 0.0, "bike_id": "a4a461a2382264f3b005397a3522bbcd", "rental_uris": {"ios": "https://dc.lft.to/lastmile_qr_scan", "android": "https://dc.lft.to/lastmile_qr_scan"}}, {"name": "5f87337d4fd11c22c71c0bdc69aae5e4", "type": "electric_scooter", "lat": 38.89772283333333, "is_reserved": 0, "lon": -76.97729716666667, "fusion_lon": 0.0, "is_disabled": 0, "fusion_lat": 0.0, "bike_id": "5f87337d4fd11c22c71c0bdc69aae5e4", "rental_uris": {"ios": "https://dc.lft.to/lastmile_qr_scan", "android": "https://dc.lft.to/lastmile_qr_scan"}}, {"name": "fd6b1dd73deac5ff6c0c3d71e99e9a08", "type": "electric_scooter", "lat": 38.94047366666667, "is_reserved": 0, "lon": -77.03291416666667, "fusion_lon": 0.0, "is_disabled": 0, "fusion_lat": 0.0, "bike_id": "fd6b1dd73deac5ff6c0c3d71e99e9a08", "rental_uris": {"ios": "https://dc.lft.to/lastmile_qr_scan", "android": "https://dc.lft.to/lastmile_qr_scan"}}, {"name": "7b7fa0b1a8f1a5563bc55a0f61318e18", "type": "electric_scooter", "lat": 38.863743166666666, "is_reserved": 0, "lon": -76.99056666666667, "fusion_lon": 0.0, "is_disabled": 0, "fusion_lat": 0.0, "bike_id": "7b7fa0b1a8f1a5563bc55a0f61318e18", "rental_uris": {"ios": "https://dc.lft.to/lastmile_qr_scan", "android": "https://dc.lft.to/lastmile_qr_scan"}}, {"name": "91e476392423656130aff0d1a40f8a35", "type": "electric_scooter", "lat": 38.9277025, "is_reserved": 0, "lon": -77.0277895, "fusion_lon": 0.0, "is_disabled": 0, "fusion_lat": 0.0, "bike_id": "91e476392423656130aff0d1a40f8a35", "rental_uris": {"ios": "https://dc.lft.to/lastmile_qr_scan", "android": "https://dc.lft.to/lastmile_qr_scan"}}, {"name": "f993dac060abcba73e75e9b5912c69ad", "type": "electric_scooter", "lat": 38.920829833333336, "is_reserved": 0, "lon": -77.03749633333334, "fusion_lon": 0.0, "is_disabled": 0, "fusion_lat": 0.0, "bike_id": "f993dac060abcba73e75e9b5912c69ad", "rental_uris": {"ios": "https://dc.lft.to/lastmile_qr_scan", "android": "https://dc.lft.to/lastmile_qr_scan"}}, {"name": "a0b363976cd63c5d80da744098ad5b82", "type": "electric_scooter", "lat": 38.905470333333334, "is_reserved": 0, "lon": -77.04672283333333, "fusion_lon": 0.0, "is_disabled": 0, "fusion_lat": 0.0, "bike_id": "a0b363976cd63c5d80da744098ad5b82", "rental_uris": {"ios": "https://dc.lft.to/lastmile_qr_scan", "android": "https://dc.lft.to/lastmile_qr_scan"}}, {"name": "11ae53eb7db0337dc33b943ee1ccda3e", "type": "electric_scooter", "lat": 38.89350866666667, "is_reserved": 0, "lon": -77.01986016666666, "fusion_lon": 0.0, "is_disabled": 0, "fusion_lat": 0.0, "bike_id": "11ae53eb7db0337dc33b943ee1ccda3e", "rental_uris": {"ios": "https://dc.lft.to/lastmile_qr_scan", "android": "https://dc.lft.to/lastmile_qr_scan"}}, {"name": "b1014c7e3625e1b0c61b8b9d81256e44", "type": "electric_scooter", "lat": 38.900813666666664, "is_reserved": 0, "lon": -77.02152616666666, "fusion_lon": 0.0, "is_disabled": 0, "fusion_lat": 0.0, "bike_id": "b1014c7e3625e1b0c61b8b9d81256e44", "rental_uris": {"ios": "https://dc.lft.to/lastmile_qr_scan", "android": "https://dc.lft.to/lastmile_qr_scan"}}, {"name": "5575c1892ee936f9d9c499d3c198afa1", "type": "electric_scooter", "lat": 38.9084385, "is_reserved": 0, "lon": -77.0205065, "fusion_lon": 0.0, "is_disabled": 0, "fusion_lat": 0.0, "bike_id": "5575c1892ee936f9d9c499d3c198afa1", "rental_uris": {"ios": "https://dc.lft.to/lastmile_qr_scan", "android": "https://dc.lft.to/lastmile_qr_scan"}}, {"name": "2f4586a674b60f79192c7c5019448f30", "type": "electric_scooter", "lat": 38.924553333333336, "is_reserved": 0, "lon": -76.999007, "fusion_lon": 0.0, "is_disabled": 0, "fusion_lat": 0.0, "bike_id": "2f4586a674b60f79192c7c5019448f30", "rental_uris": {"ios": "https://dc.lft.to/lastmile_qr_scan", "android": "https://dc.lft.to/lastmile_qr_scan"}}, {"name": "95d4affe2b818ad213ffa08bf82bd745", "type": "electric_scooter", "lat": 38.93109716666667, "is_reserved": 0, "lon": -77.02097783333333, "fusion_lon": 0.0, "is_disabled": 0, "fusion_lat": 0.0, "bike_id": "95d4affe2b818ad213ffa08bf82bd745", "rental_uris": {"ios": "https://dc.lft.to/lastmile_qr_scan", "android": "https://dc.lft.to/lastmile_qr_scan"}}, {"name": "17e3e02b65991fc151a06228688fa309", "type": "electric_scooter", "lat": 38.918730333333336, "is_reserved": 0, "lon": -77.023134, "fusion_lon": 0.0, "is_disabled": 0, "fusion_lat": 0.0, "bike_id": "17e3e02b65991fc151a06228688fa309", "rental_uris": {"ios": "https://dc.lft.to/lastmile_qr_scan", "android": "https://dc.lft.to/lastmile_qr_scan"}}, {"name": "fa986971780331d5443aaaa7a7a9df6b", "type": "electric_scooter", "lat": 38.883035, "is_reserved": 0, "lon": -77.01772016666666, "fusion_lon": 0.0, "is_disabled": 0, "fusion_lat": 0.0, "bike_id": "fa986971780331d5443aaaa7a7a9df6b", "rental_uris": {"ios": "https://dc.lft.to/lastmile_qr_scan", "android": "https://dc.lft.to/lastmile_qr_scan"}}, {"name": "fbf60eefb0d9879147802a30790b21fe", "type": "electric_scooter", "lat": 38.90979016666667, "is_reserved": 0, "lon": -77.06712166666667, "fusion_lon": 0.0, "is_disabled": 0, "fusion_lat": 0.0, "bike_id": "fbf60eefb0d9879147802a30790b21fe", "rental_uris": {"ios": "https://dc.lft.to/lastmile_qr_scan", "android": "https://dc.lft.to/lastmile_qr_scan"}}, {"name": "4ac5cb2ce11761de469b39d6af2e179a", "type": "electric_scooter", "lat": 38.9172105, "is_reserved": 0, "lon": -77.03459883333333, "fusion_lon": 0.0, "is_disabled": 0, "fusion_lat": 0.0, "bike_id": "4ac5cb2ce11761de469b39d6af2e179a", "rental_uris": {"ios": "https://dc.lft.to/lastmile_qr_scan", "android": "https://dc.lft.to/lastmile_qr_scan"}}, {"name": "6360e869c08fae242e71459ef1d3954a", "type": "electric_scooter", "lat": 38.949255, "is_reserved": 0, "lon": -77.01938116666666, "fusion_lon": 0.0, "is_disabled": 0, "fusion_lat": 0.0, "bike_id": "6360e869c08fae242e71459ef1d3954a", "rental_uris": {"ios": "https://dc.lft.to/lastmile_qr_scan", "android": "https://dc.lft.to/lastmile_qr_scan"}}, {"name": "231d7b922d59a9ce3e8c5aca60e2a39d", "type": "electric_scooter", "lat": 38.917829, "is_reserved": 0, "lon": -77.0229215, "fusion_lon": 0.0, "is_disabled": 0, "fusion_lat": 0.0, "bike_id": "231d7b922d59a9ce3e8c5aca60e2a39d", "rental_uris": {"ios": "https://dc.lft.to/lastmile_qr_scan", "android": "https://dc.lft.to/lastmile_qr_scan"}}, {"name": "8c44d689e4e660598c29f5ee7fe5525c", "type": "electric_scooter", "lat": 38.9348885, "is_reserved": 0, "lon": -77.07246033333334, "fusion_lon": 0.0, "is_disabled": 0, "fusion_lat": 0.0, "bike_id": "8c44d689e4e660598c29f5ee7fe5525c", "rental_uris": {"ios": "https://dc.lft.to/lastmile_qr_scan", "android": "https://dc.lft.to/lastmile_qr_scan"}}, {"name": "044f74dabbe8cbd3a0003a25d6dc2cc7", "type": "electric_scooter", "lat": 38.908209666666664, "is_reserved": 0, "lon": -77.00032183333333, "fusion_lon": 0.0, "is_disabled": 0, "fusion_lat": 0.0, "bike_id": "044f74dabbe8cbd3a0003a25d6dc2cc7", "rental_uris": {"ios": "https://dc.lft.to/lastmile_qr_scan", "android": "https://dc.lft.to/lastmile_qr_scan"}}, {"name": "0b5d2bc6e658bf9d3b426de8af6601ef", "type": "electric_scooter", "lat": 38.907271333333334, "is_reserved": 0, "lon": -77.0421335, "fusion_lon": 0.0, "is_disabled": 0, "fusion_lat": 0.0, "bike_id": "0b5d2bc6e658bf9d3b426de8af6601ef", "rental_uris": {"ios": "https://dc.lft.to/lastmile_qr_scan", "android": "https://dc.lft.to/lastmile_qr_scan"}}, {"name": "4a879b80b0d6883d1d4a4438afc56665", "type": "electric_scooter", "lat": 38.937552833333335, "is_reserved": 0, "lon": -77.0248785, "fusion_lon": 0.0, "is_disabled": 0, "fusion_lat": 0.0, "bike_id": "4a879b80b0d6883d1d4a4438afc56665", "rental_uris": {"ios": "https://dc.lft.to/lastmile_qr_scan", "android": "https://dc.lft.to/lastmile_qr_scan"}}, {"name": "b1eb3717ebaf88c231b7ab004416212a", "type": "electric_bike", "lat": 38.894543666666664, "is_reserved": 0, "lon": -76.97035216666667, "fusion_lon": 0.0, "is_disabled": 0, "fusion_lat": 0.0, "bike_id": "b1eb3717ebaf88c231b7ab004416212a", "rental_uris": {"ios": "https://dc.lft.to/lastmile_qr_scan", "android": "https://dc.lft.to/lastmile_qr_scan"}}, {"name": "03e192f5c24ce9bf9915612a79b32679", "type": "electric_scooter", "lat": 38.91044083333333, "is_reserved": 0, "lon": -77.02811633333333, "fusion_lon": 0.0, "is_disabled": 0, "fusion_lat": 0.0, "bike_id": "03e192f5c24ce9bf9915612a79b32679", "rental_uris": {"ios": "https://dc.lft.to/lastmile_qr_scan", "android": "https://dc.lft.to/lastmile_qr_scan"}}, {"name": "15995e738a6592959d870da4c3db4795", "type": "electric_scooter", "lat": 38.95630883333333, "is_reserved": 0, "lon": -77.02549566666667, "fusion_lon": 0.0, "is_disabled": 0, "fusion_lat": 0.0, "bike_id": "15995e738a6592959d870da4c3db4795", "rental_uris": {"ios": "https://dc.lft.to/lastmile_qr_scan", "android": "https://dc.lft.to/lastmile_qr_scan"}}, {"name": "b8c0eeab1536724747104fa97074b2cc", "type": "electric_scooter", "lat": 38.908340833333334, "is_reserved": 0, "lon": -76.99973383333334, "fusion_lon": 0.0, "is_disabled": 0, "fusion_lat": 0.0, "bike_id": "b8c0eeab1536724747104fa97074b2cc", "rental_uris": {"ios": "https://dc.lft.to/lastmile_qr_scan", "android": "https://dc.lft.to/lastmile_qr_scan"}}, {"name": "9aa6173d84e6f3d1ae9cab92cfa5e1fc", "type": "electric_scooter", "lat": 38.883161333333334, "is_reserved": 0, "lon": -77.01762483333333, "fusion_lon": 0.0, "is_disabled": 0, "fusion_lat": 0.0, "bike_id": "9aa6173d84e6f3d1ae9cab92cfa5e1fc", "rental_uris": {"ios": "https://dc.lft.to/lastmile_qr_scan", "android": "https://dc.lft.to/lastmile_qr_scan"}}, {"name": "2d229e8d13cf06c7824206fa1b311f5d", "type": "electric_bike", "lat": 38.896814166666665, "is_reserved": 0, "lon": -76.94067916666667, "fusion_lon": 0.0, "is_disabled": 0, "fusion_lat": 0.0, "bike_id": "2d229e8d13cf06c7824206fa1b311f5d", "rental_uris": {"ios": "https://dc.lft.to/lastmile_qr_scan", "android": "https://dc.lft.to/lastmile_qr_scan"}}, {"name": "f46cdc229a3dce42eb5810c56fb4037f", "type": "electric_bike", "lat": 38.886389333333334, "is_reserved": 0, "lon": -76.95466933333333, "fusion_lon": 0.0, "is_disabled": 0, "fusion_lat": 0.0, "bike_id": "f46cdc229a3dce42eb5810c56fb4037f", "rental_uris": {"ios": "https://dc.lft.to/lastmile_qr_scan", "android": "https://dc.lft.to/lastmile_qr_scan"}}, {"name": "59da5385a331237110aa278687b8e014", "type": "electric_scooter", "lat": 38.864217333333336, "is_reserved": 0, "lon": -76.985808, "fusion_lon": 0.0, "is_disabled": 0, "fusion_lat": 0.0, "bike_id": "59da5385a331237110aa278687b8e014", "rental_uris": {"ios": "https://dc.lft.to/lastmile_qr_scan", "android": "https://dc.lft.to/lastmile_qr_scan"}}, {"name": "82da0cdef12df12d9179e3ba9fa44f55", "type": "electric_scooter", "lat": 38.93350733333333, "is_reserved": 0, "lon": -77.03429933333334, "fusion_lon": 0.0, "is_disabled": 0, "fusion_lat": 0.0, "bike_id": "82da0cdef12df12d9179e3ba9fa44f55", "rental_uris": {"ios": "https://dc.lft.to/lastmile_qr_scan", "android": "https://dc.lft.to/lastmile_qr_scan"}}, {"name": "45ce9e5cea6fd844d62fcaeb1de044e4", "type": "electric_scooter", "lat": 38.9336265, "is_reserved": 0, "lon": -77.05726466666667, "fusion_lon": 0.0, "is_disabled": 0, "fusion_lat": 0.0, "bike_id": "45ce9e5cea6fd844d62fcaeb1de044e4", "rental_uris": {"ios": "https://dc.lft.to/lastmile_qr_scan", "android": "https://dc.lft.to/lastmile_qr_scan"}}, {"name": "1909b82ebba82f7f879ee30c60af0e7e", "type": "electric_scooter", "lat": 38.907176166666666, "is_reserved": 0, "lon": -77.02502933333334, "fusion_lon": 0.0, "is_disabled": 0, "fusion_lat": 0.0, "bike_id": "1909b82ebba82f7f879ee30c60af0e7e", "rental_uris": {"ios": "https://dc.lft.to/lastmile_qr_scan", "android": "https://dc.lft.to/lastmile_qr_scan"}}, {"name": "e930b6d3f3d63750c06acaa69771879e", "type": "electric_scooter", "lat": 38.925996166666664, "is_reserved": 0, "lon": -77.02118883333333, "fusion_lon": 0.0, "is_disabled": 0, "fusion_lat": 0.0, "bike_id": "e930b6d3f3d63750c06acaa69771879e", "rental_uris": {"ios": "https://dc.lft.to/lastmile_qr_scan", "android": "https://dc.lft.to/lastmile_qr_scan"}}, {"name": "c04462208fecd30986ed1378b0800340", "type": "electric_scooter", "lat": 38.90562583333333, "is_reserved": 0, "lon": -77.0466835, "fusion_lon": 0.0, "is_disabled": 0, "fusion_lat": 0.0, "bike_id": "c04462208fecd30986ed1378b0800340", "rental_uris": {"ios": "https://dc.lft.to/lastmile_qr_scan", "android": "https://dc.lft.to/lastmile_qr_scan"}}, {"name": "94a890958b9578aff1c4f280e422186c", "type": "electric_scooter", "lat": 38.9176695, "is_reserved": 0, "lon": -77.02714033333334, "fusion_lon": 0.0, "is_disabled": 0, "fusion_lat": 0.0, "bike_id": "94a890958b9578aff1c4f280e422186c", "rental_uris": {"ios": "https://dc.lft.to/lastmile_qr_scan", "android": "https://dc.lft.to/lastmile_qr_scan"}}, {"name": "f6fc5706e599ce51a8b5f04f1414703f", "type": "electric_scooter", "lat": 38.892286666666664, "is_reserved": 0, "lon": -77.04997466666667, "fusion_lon": 0.0, "is_disabled": 0, "fusion_lat": 0.0, "bike_id": "f6fc5706e599ce51a8b5f04f1414703f", "rental_uris": {"ios": "https://dc.lft.to/lastmile_qr_scan", "android": "https://dc.lft.to/lastmile_qr_scan"}}, {"name": "a0581287687fe62480894e9505036095", "type": "electric_scooter", "lat": 38.932514166666664, "is_reserved": 0, "lon": -77.0327705, "fusion_lon": 0.0, "is_disabled": 0, "fusion_lat": 0.0, "bike_id": "a0581287687fe62480894e9505036095", "rental_uris": {"ios": "https://dc.lft.to/lastmile_qr_scan", "android": "https://dc.lft.to/lastmile_qr_scan"}}, {"name": "072a9f17730d712233b729b6891a825a", "type": "electric_scooter", "lat": 38.911069833333336, "is_reserved": 0, "lon": -77.04233066666667, "fusion_lon": 0.0, "is_disabled": 0, "fusion_lat": 0.0, "bike_id": "072a9f17730d712233b729b6891a825a", "rental_uris": {"ios": "https://dc.lft.to/lastmile_qr_scan", "android": "https://dc.lft.to/lastmile_qr_scan"}}, {"name": "03ddd3a7b2198081d6f23ac5907e1ff2", "type": "electric_scooter", "lat": 38.93496233333333, "is_reserved": 0, "lon": -77.02728033333334, "fusion_lon": 0.0, "is_disabled": 0, "fusion_lat": 0.0, "bike_id": "03ddd3a7b2198081d6f23ac5907e1ff2", "rental_uris": {"ios": "https://dc.lft.to/lastmile_qr_scan", "android": "https://dc.lft.to/lastmile_qr_scan"}}, {"name": "08e781926af4d1d8b55a2690edd5d043", "type": "electric_scooter", "lat": 38.903592833333335, "is_reserved": 0, "lon": -77.025051, "fusion_lon": 0.0, "is_disabled": 0, "fusion_lat": 0.0, "bike_id": "08e781926af4d1d8b55a2690edd5d043", "rental_uris": {"ios": "https://dc.lft.to/lastmile_qr_scan", "android": "https://dc.lft.to/lastmile_qr_scan"}}, {"name": "0657c924e71ce176efe140421f81bfcf", "type": "electric_scooter", "lat": 38.929013833333336, "is_reserved": 0, "lon": -77.0249885, "fusion_lon": 0.0, "is_disabled": 0, "fusion_lat": 0.0, "bike_id": "0657c924e71ce176efe140421f81bfcf", "rental_uris": {"ios": "https://dc.lft.to/lastmile_qr_scan", "android": "https://dc.lft.to/lastmile_qr_scan"}}, {"name": "7a5628528bd061a204c10313d72305e2", "type": "electric_scooter", "lat": 38.92054816666667, "is_reserved": 0, "lon": -77.03396116666667, "fusion_lon": 0.0, "is_disabled": 0, "fusion_lat": 0.0, "bike_id": "7a5628528bd061a204c10313d72305e2", "rental_uris": {"ios": "https://dc.lft.to/lastmile_qr_scan", "android": "https://dc.lft.to/lastmile_qr_scan"}},