{"data": {"bikes": [{"lat": 38.92742116666667, "is_disabled": 0, "type": "electric_scooter", "lon": -76.997279, "bike_id": "85dcdc877605d7d8f03a1fb59aa25dbb", "fusion_lat": 0.0, "name": "85dcdc877605d7d8f03a1fb59aa25dbb", "is_reserved": 0, "rental_uris": {"android": "https://dc.lft.to/lastmile_qr_scan", "ios": "https://dc.lft.to/lastmile_qr_scan"}, "fusion_lon": 0.0}, {"lat": 38.93838566666667, "is_disabled": 0, "type": "electric_bike", "lon": -76.988606, "bike_id": "28ed4c2a600b59a962472e81381dcebe", "fusion_lat": 0.0, "name": "28ed4c2a600b59a962472e81381dcebe", "is_reserved": 0, "rental_uris": {"android": "https://dc.lft.to/lastmile_qr_scan", "ios": "https://dc.lft.to/lastmile_qr_scan"}, "fusion_lon": 0.0}, {"lat": 38.91107133333333, "is_disabled": 0, "type": "electric_scooter", "lon": -77.04255633333334, "bike_id": "564ccc7854e907bfead8d42c0b8d9d70", "fusion_lat": 0.0, "name": "564ccc7854e907bfead8d42c0b8d9d70", "is_reserved": 0, "rental_uris": {"android": "https://dc.lft.to/lastmile_qr_scan", "ios": "https://dc.lft.to/lastmile_qr_scan"}, "fusion_lon": 0.0}, {"lat": 38.863618333333335, "is_disabled": 0, "type": "electric_scooter", "lon": -76.9903895, "bike_id": "33c3a65708d70ce50797e25c3bad59c5", "fusion_lat": 0.0, "name": "33c3a65708d70ce50797e25c3bad59c5", "is_reserved": 0, "rental_uris": {"android": "https://dc.lft.to/lastmile_qr_scan", "ios": "https://dc.lft.to/lastmile_qr_scan"}, "fusion_lon": 0.0}, {"lat": 38.90479366666667, "is_disabled": 0, "type": "electric_scooter", "lon": -77.04043216666666, "bike_id": "72792cafd815c43700bd7923d3dd954d", "fusion_lat": 0.0, "name": "72792cafd815c43700bd7923d3dd954d", "is_reserved": 0, "rental_uris": {"android": "https://dc.lft.to/lastmile_qr_scan", "ios": "https://dc.lft.to/lastmile_qr_scan"}, "fusion_lon": 0.0}, {"lat": 38.90772916666667, "is_disabled": 0, "type": "electric_scooter", "lon": -77.0354455, "bike_id": "a9daba02a8b511aaafc874cc2c4e86b0", "fusion_lat": 0.0, "name": "a9daba02a8b511aaafc874cc2c4e86b0", "is_reserved": 0, "rental_uris": {"android": "https://dc.lft.to/lastmile_qr_scan", "ios": "https://dc.lft.to/lastmile_qr_scan"}, "fusion_lon": 0.0}, {"lat": 38.875829, "is_disabled": 0, "type": "electric_scooter", "lon": -77.02073966666667, "bike_id": "ce0dcd1d4c089ca06f026ebb3326f62d", "fusion_lat": 0.0, "name": "ce0dcd1d4c089ca06f026ebb3326f62d", "is_reserved": 0, "rental_uris": {"android": "https://dc.lft.to/lastmile_qr_scan", "ios": "https://dc.lft.to/lastmile_qr_scan"}, "fusion_lon": 0.0}, {"lat": 39.030467333333334, "is_disabled": 0, "type": "electric_bike", "lon": -77.09488716666667, "bike_id": "ddb9eee8106af332ce0d0ce3e8c3b220", "fusion_lat": 0.0, "name": "ddb9eee8106af332ce0d0ce3e8c3b220", "is_reserved": 0, "rental_uris": {"android": "https://dc.lft.to/lastmile_qr_scan", "ios": "https://dc.lft.to/lastmile_qr_scan"}, "fusion_lon": 0.0}, {"lat": 38.90776483333333, "is_disabled": 0, "type": "electric_scooter", "lon": -77.03861133333334, "bike_id": "ee0dce4af620e25f032ce879a3cc3857", "fusion_lat": 0.0, "name": "ee0dce4af620e25f032ce879a3cc3857", "is_reserved": 0, "rental_uris": {"android": "https://dc.lft.to/lastmile_qr_scan", "ios": "https://dc.lft.to/lastmile_qr_scan"}, "fusion_lon": 0.0}, {"lat": 38.91708933333334, "is_disabled": 0, "type": "electric_scooter", "lon": -77.0372975, "bike_id": "5fbe040ff8212b742323d79fd759f36b", "fusion_lat": 0.0, "name": "5fbe040ff8212b742323d79fd759f36b", "is_reserved": 0, "rental_uris": {"android": "https://dc.lft.to/lastmile_qr_scan", "ios": "https://dc.lft.to/lastmile_qr_scan"}, "fusion_lon": 0.0}, {"lat": 38.916035666666666, "is_disabled": 0, "type": "electric_scooter", "lon": -77.03858266666667, "bike_id": "a2695c7e34b30762132f9132ff1591b2", "fusion_lat": 0.0, "name": "a2695c7e34b30762132f9132ff1591b2", "is_reserved": 0, "rental_uris": {"android": "https://dc.lft.to/lastmile_qr_scan", "ios": "https://dc.lft.to/lastmile_qr_scan"}, "fusion_lon": 0.0}, {"lat": 38.918134, "is_disabled": 0, "type": "electric_scooter", "lon": -77.0247925, "bike_id": "bd54c471394692adfa04ac055a7975d0", "fusion_lat": 0.0, "name": "bd54c471394692adfa04ac055a7975d0", "is_reserved": 0, "rental_uris": {"android": "https://dc.lft.to/lastmile_qr_scan", "ios": "https://dc.lft.to/lastmile_qr_scan"}, "fusion_lon": 0.0}, {"lat": 38.91363166666667, "is_disabled": 0, "type": "electric_scooter", "lon": -77.0457955, "bike_id": "0ed68eef85c255fce0752e7ecd1df4d5", "fusion_lat": 0.0, "name": "0ed68eef85c255fce0752e7ecd1df4d5", "is_reserved": 0, "rental_uris": {"android": "https://dc.lft.to/lastmile_qr_scan", "ios": "https://dc.lft.to/lastmile_qr_scan"}, "fusion_lon": 0.0}, {"lat": 38.885136833333334, "is_disabled": 0, "type": "electric_scooter", "lon": -77.00679933333333, "bike_id": "d84f5652a616c5a9bd1525dba4e1cef4", "fusion_lat": 0.0, "name": "d84f5652a616c5a9bd1525dba4e1cef4", "is_reserved": 0, "rental_uris": {"android": "https://dc.lft.to/lastmile_qr_scan", "ios": "https://dc.lft.to/lastmile_qr_scan"}, "fusion_lon": 0.0}, {"lat": 38.863828833333336, "is_disabled": 0, "type": "electric_scooter", "lon": -76.99252333333334, "bike_id": "5e771b69d8a1099b77a2667ccd7d4a3e", "fusion_lat": 0.0, "name": "5e771b69d8a1099b77a2667ccd7d4a3e", "is_reserved": 0, "rental_uris": {"android": "https://dc.lft.to/lastmile_qr_scan", "ios": "https://dc.lft.to/lastmile_qr_scan"}, "fusion_lon": 0.0}, {"lat": 38.91690283333333, "is_disabled": 0, "type": "electric_scooter", "lon": -77.02602066666667, "bike_id": "e93098c467c13e7885f13b3c55b4029a", "fusion_lat": 0.0, "name": "e93098c467c13e7885f13b3c55b4029a", "is_reserved": 0, "rental_uris": {"android": "https://dc.lft.to/lastmile_qr_scan", "ios": "https://dc.lft.to/lastmile_qr_scan"}, "fusion_lon": 0.0}, {"lat": 38.9431235, "is_disabled": 0, "type": "electric_scooter", "lon": -77.05930016666667, "bike_id": "915b87303a3d24332bd3831ed2cb875c", "fusion_lat": 0.0, "name": "915b87303a3d24332bd3831ed2cb875c", "is_reserved": 0, "rental_uris": {"android": "https://dc.lft.to/lastmile_qr_scan", "ios": "https://dc.lft.to/lastmile_qr_scan"}, "fusion_lon": 0.0}, {"lat": 38.89036383333333, "is_disabled": 0, "type": "electric_scooter", "lon": -77.02977966666667, "bike_id": "d69574d24ffa63a646e9d742624df368", "fusion_lat": 0.0, "name": "d69574d24ffa63a646e9d742624df368", "is_reserved": 0, "rental_uris": {"android": "https://dc.lft.to/lastmile_qr_scan", "ios": "https://dc.lft.to/lastmile_qr_scan"}, "fusion_lon": 0.0}, {"lat": 38.9068745, "is_disabled": 0, "type": "electric_bike", "lon": -77.0637065, "bike_id": "3d7101f34d67a2307254bb037a678e0b", "fusion_lat": 0.0, "name": "3d7101f34d67a2307254bb037a678e0b", "is_reserved": 0, "rental_uris": {"android": "https://dc.lft.to/lastmile_qr_scan", "ios": "https://dc.lft.to/lastmile_qr_scan"}, "fusion_lon": 0.0}, {"lat": 38.85461183333334, "is_disabled": 0, "type": "electric_scooter", "lon": -76.9723635, "bike_id": "d81fb5a78b1938fc75c7917db7b059f3", "fusion_lat": 0.0, "name": "d81fb5a78b1938fc75c7917db7b059f3", "is_reserved": 0, "rental_uris": {"android": "https://dc.lft.to/lastmile_qr_scan", "ios": "https://dc.lft.to/lastmile_qr_scan"}, "fusion_lon": 0.0}, {"lat": 38.923642, "is_disabled": 0, "type": "electric_scooter", "lon": -77.043847, "bike_id": "d0e324aa64e0b8bd028a54e449e6d33d", "fusion_lat": 0.0, "name": "d0e324aa64e0b8bd028a54e449e6d33d", "is_reserved": 0, "rental_uris": {"android": "https://dc.lft.to/lastmile_qr_scan", "ios": "https://dc.lft.to/lastmile_qr_scan"}, "fusion_lon": 0.0}, {"lat": 38.9198055, "is_disabled": 0, "type": "electric_scooter", "lon": -77.02366066666667, "bike_id": "4b1ebf622444a6fd1a915c74cd4888eb", "fusion_lat": 0.0, "name": "4b1ebf622444a6fd1a915c74cd4888eb", "is_reserved": 0, "rental_uris": {"android": "https://dc.lft.to/lastmile_qr_scan", "ios": "https://dc.lft.to/lastmile_qr_scan"}, "fusion_lon": 0.0}, {"lat": 38.88678816666667, "is_disabled": 0, "type": "electric_bike", "lon": -77.00219066666666, "bike_id": "4e3ce5ccb37db07567dc70b93ee60f56", "fusion_lat": 0.0, "name": "4e3ce5ccb37db07567dc70b93ee60f56", "is_reserved": 0, "rental_uris": {"android": "https://dc.lft.to/lastmile_qr_scan", "ios": "https://dc.lft.to/lastmile_qr_scan"}, "fusion_lon": 0.0}, {"lat": 38.978367166666665, "is_disabled": 0, "type": "electric_bike", "lon": -77.02652433333333, "bike_id": "ed44b6c7d556db75fc582f239b008159", "fusion_lat": 0.0, "name": "ed44b6c7d556db75fc582f239b008159", "is_reserved": 0, "rental_uris": {"android": "https://dc.lft.to/lastmile_qr_scan", "ios": "https://dc.lft.to/lastmile_qr_scan"}, "fusion_lon": 0.0}, {"lat": 38.91989133333333, "is_disabled": 0, "type": "electric_scooter", "lon": -77.032485, "bike_id": "4f33d4e79d2d3d6dadc0b094a8358e3f", "fusion_lat": 0.0, "name": "4f33d4e79d2d3d6dadc0b094a8358e3f", "is_reserved": 0, "rental_uris": {"android": "https://dc.lft.to/lastmile_qr_scan", "ios": "https://dc.lft.to/lastmile_qr_scan"}, "fusion_lon": 0.0}, {"lat": 38.9611455, "is_disabled": 0, "type": "electric_scooter", "lon": -77.0281695, "bike_id": "6ab64eb82f6e9a0421424bfee73e5c77", "fusion_lat": 0.0, "name": "6ab64eb82f6e9a0421424bfee73e5c77", "is_reserved": 0, "rental_uris": {"android": "https://dc.lft.to/lastmile_qr_scan", "ios": "https://dc.lft.to/lastmile_qr_scan"}, "fusion_lon": 0.0}, {"lat": 38.892213166666664, "is_disabled": 0, "type": "electric_scooter", "lon": -77.02119483333334, "bike_id": "25db19efb9e999f9dd84bb2d884e50b5", "fusion_lat": 0.0, "name": "25db19efb9e999f9dd84bb2d884e50b5", "is_reserved": 0, "rental_uris": {"android": "https://dc.lft.to/lastmile_qr_scan", "ios": "https://dc.lft.to/lastmile_qr_scan"}, "fusion_lon": 0.0}, {"lat": 38.926678833333334, "is_disabled": 0, "type": "electric_scooter", "lon": -77.01465533333334, "bike_id": "c29f3a9f84496cb1d3b5aeb4f7db1ee4", "fusion_lat": 0.0, "name": "c29f3a9f84496cb1d3b5aeb4f7db1ee4", "is_reserved": 0, "rental_uris": {"android": "https://dc.lft.to/lastmile_qr_scan", "ios": "https://dc.lft.to/lastmile_qr_scan"}, "fusion_lon": 0.0}, {"lat": 38.90975016666667, "is_disabled": 0, "type": "electric_scooter", "lon": -77.0345485, "bike_id": "c1cf58104de36ceda95927c32d271b3b", "fusion_lat": 0.0, "name": "c1cf58104de36ceda95927c32d271b3b", "is_reserved": 0, "rental_uris": {"android": "https://dc.lft.to/lastmile_qr_scan", "ios": "https://dc.lft.to/lastmile_qr_scan"}, "fusion_lon": 0.0}, {"lat": 38.918382, "is_disabled": 0, "type": "electric_scooter", "lon": -77.03524066666667, "bike_id": "6d291aa3d31be9f301709f50a27ab5d3", "fusion_lat": 0.0, "name": "6d291aa3d31be9f301709f50a27ab5d3", "is_reserved": 0, "rental_uris": {"android": "https://dc.lft.to/lastmile_qr_scan", "ios": "https://dc.lft.to/lastmile_qr_scan"}, "fusion_lon": 0.0}, {"lat": 38.9258255, "is_disabled": 0, "type": "electric_scooter", "lon": -77.05762616666667, "bike_id": "82653af8d5522a84acf9f6e7c7c077f8", "fusion_lat": 0.0, "name": "82653af8d5522a84acf9f6e7c7c077f8", "is_reserved": 0, "rental_uris": {"android": "https://dc.lft.to/lastmile_qr_scan", "ios": "https://dc.lft.to/lastmile_qr_scan"}, "fusion_lon": 0.0}, {"lat": 38.89514116666667, "is_disabled": 0, "type": "electric_scooter", "lon": -77.007407, "bike_id": "f1da8e9a2cc5501bc9fc4baf089e0637", "fusion_lat": 0.0, "name": "f1da8e9a2cc5501bc9fc4baf089e0637", "is_reserved": 0, "rental_uris": {"android": "https://dc.lft.to/lastmile_qr_scan", "ios": "https://dc.lft.to/lastmile_qr_scan"}, "fusion_lon": 0.0}, {"lat": 38.917056, "is_disabled": 0, "type": "electric_bike", "lon": -77.09578716666667, "bike_id": "3139dc11789f81907f19fab8fe87a2fa", "fusion_lat": 0.0, "name": "3139dc11789f81907f19fab8fe87a2fa", "is_reserved": 0, "rental_uris": {"android": "https://dc.lft.to/lastmile_qr_scan", "ios": "https://dc.lft.to/lastmile_qr_scan"}, "fusion_lon": 0.0}, {"lat": 38.913037333333335, "is_disabled": 0, "type": "electric_scooter", "lon": -77.0195485, "bike_id": "55c79a9951bc107837e7748557c52350", "fusion_lat": 0.0, "name": "55c79a9951bc107837e7748557c52350", "is_reserved": 0, "rental_uris": {"android": "https://dc.lft.to/lastmile_qr_scan", "ios": "https://dc.lft.to/lastmile_qr_scan"}, "fusion_lon": 0.0}, {"lat": 38.90203283333334, "is_disabled": 0, "type": "electric_scooter", "lon": -77.02325616666667, "bike_id": "0c444363858a00f45735e4955fe80bd5", "fusion_lat": 0.0, "name": "0c444363858a00f45735e4955fe80bd5", "is_reserved": 0, "rental_uris": {"android": "https://dc.lft.to/lastmile_qr_scan", "ios": "https://dc.lft.to/lastmile_qr_scan"}, "fusion_lon": 0.0}, {"lat": 38.9124655, "is_disabled": 0, "type": "electric_scooter", "lon": -77.01995283333333, "bike_id": "3d37846883ddc35965f426dd950488bd", "fusion_lat": 0.0, "name": "3d37846883ddc35965f426dd950488bd", "is_reserved": 0, "rental_uris": {"android": "https://dc.lft.to/lastmile_qr_scan", "ios": "https://dc.lft.to/lastmile_qr_scan"}, "fusion_lon": 0.0}, {"lat": 38.90996916666667, "is_disabled": 0, "type": "electric_scooter", "lon": -77.03192383333334, "bike_id": "851bb51bff8738de4d1c0333602cee74", "fusion_lat": 0.0, "name": "851bb51bff8738de4d1c0333602cee74", "is_reserved": 0, "rental_uris": {"android": "https://dc.lft.to/lastmile_qr_scan", "ios": "https://dc.lft.to/lastmile_qr_scan"}, "fusion_lon": 0.0}, {"lat": 38.90081683333333, "is_disabled": 0, "type": "electric_scooter", "lon": -77.0495735, "bike_id": "a49117f6cbd462092bcd91a9cfd7f658", "fusion_lat": 0.0, "name": "a49117f6cbd462092bcd91a9cfd7f658", "is_reserved": 0, "rental_uris": {"android": "https://dc.lft.to/lastmile_qr_scan", "ios": "https://dc.lft.to/lastmile_qr_scan"}, "fusion_lon": 0.0}, {"lat": 38.956362166666665, "is_disabled": 0, "type": "electric_bike", "lon": -76.9388365, "bike_id": "eb063ebd7c2051e05a5acec7ceaa9012", "fusion_lat": 0.0, "name": "eb063ebd7c2051e05a5acec7ceaa9012", "is_reserved": 0, "rental_uris": {"android": "https://dc.lft.to/lastmile_qr_scan", "ios": "https://dc.lft.to/lastmile_qr_scan"}, "fusion_lon": 0.0}, {"lat": 38.84274033333333, "is_disabled": 0, "type": "electric_bike", "lon": -76.98848283333334, "bike_id": "e3c62658211a9a6a9eda56cfbdded47c", "fusion_lat": 0.0, "name": "e3c62658211a9a6a9eda56cfbdded47c", "is_reserved": 0, "rental_uris": {"android": "https://dc.lft.to/lastmile_qr_scan", "ios": "https://dc.lft.to/lastmile_qr_scan"}, "fusion_lon": 0.0}, {"lat": 38.880974, "is_disabled": 0, "type": "electric_scooter", "lon": -76.99857216666666, "bike_id": "b84c600e617719844d0ae7e8acc574f4", "fusion_lat": 0.0, "name": "b84c600e617719844d0ae7e8acc574f4", "is_reserved": 0, "rental_uris": {"android": "https://dc.lft.to/lastmile_qr_scan", "ios": "https://dc.lft.to/lastmile_qr_scan"}, "fusion_lon": 0.0}, {"lat": 38.914453, "is_disabled": 0, "type": "electric_scooter", "lon": -77.012217, "bike_id": "4401702d77e3debc10189f6bfb5cff26", "fusion_lat": 0.0, "name": "4401702d77e3debc10189f6bfb5cff26", "is_reserved": 0, "rental_uris": {"android": "https://dc.lft.to/lastmile_qr_scan", "ios": "https://dc.lft.to/lastmile_qr_scan"}, "fusion_lon": 0.0}, {"lat": 38.9072645, "is_disabled": 0, "type": "electric_scooter", "lon": -77.0372225, "bike_id": "4e22970f384e8e3952264f9588bdd2e0", "fusion_lat": 0.0, "name": "4e22970f384e8e3952264f9588bdd2e0", "is_reserved": 0, "rental_uris": {"android": "https://dc.lft.to/lastmile_qr_scan", "ios": "https://dc.lft.to/lastmile_qr_scan"}, "fusion_lon": 0.0}, {"lat": 38.91969533333334, "is_disabled": 0, "type": "electric_scooter", "lon": -77.01211733333334, "bike_id": "4594b216d7138e3aa723e6b141cf3bcb", "fusion_lat": 0.0, "name": "4594b216d7138e3aa723e6b141cf3bcb", "is_reserved": 0, "rental_uris": {"android": "https://dc.lft.to/lastmile_qr_scan", "ios": "https://dc.lft.to/lastmile_qr_scan"}, "fusion_lon": 0.0}, {"lat": 38.902055, "is_disabled": 0, "type": "electric_scooter", "lon": -77.02169, "bike_id": "884b08651fedd4f731e1f2d24099d8c1", "fusion_lat": 0.0, "name": "884b08651fedd4f731e1f2d24099d8c1", "is_reserved": 0, "rental_uris": {"android": "https://dc.lft.to/lastmile_qr_scan", "ios": "https://dc.lft.to/lastmile_qr_scan"}, "fusion_lon": 0.0}, {"lat": 38.925728166666666, "is_disabled": 0, "type": "electric_scooter", "lon": -77.05764533333334, "bike_id": "32add508e7d4dd3deb9c25d06ed57d2c", "fusion_lat": 0.0, "name": "32add508e7d4dd3deb9c25d06ed57d2c", "is_reserved": 0, "rental_uris": {"android": "https://dc.lft.to/lastmile_qr_scan", "ios": "https://dc.lft.to/lastmile_qr_scan"}, "fusion_lon": 0.0}, {"lat": 38.89808033333333, "is_disabled": 0, "type": "electric_scooter", "lon": -77.00071066666666, "bike_id": "1a333cd5b54a5d5aec98e98a38f73786", "fusion_lat": 0.0, "name": "1a333cd5b54a5d5aec98e98a38f73786", "is_reserved": 0, "rental_uris": {"android": "https://dc.lft.to/lastmile_qr_scan", "ios": "https://dc.lft.to/lastmile_qr_scan"}, "fusion_lon": 0.0}, {"lat": 38.89775483333333, "is_disabled": 0, "type": "electric_bike", "lon": -76.90440683333334, "bike_id": "78dcef2132cd23ba30d73b16a2992f32", "fusion_lat": 0.0, "name": "78dcef2132cd23ba30d73b16a2992f32", "is_reserved": 0, "rental_uris": {"android": "https://dc.lft.to/lastmile_qr_scan", "ios": "https://dc.lft.to/lastmile_qr_scan"}, "fusion_lon": 0.0}, {"lat": 38.926754333333335, "is_disabled": 0, "type": "electric_scooter", "lon": -76.995384, "bike_id": "a14f0b26c287271c84a87df95c7d52ea", "fusion_lat": 0.0, "name": "a14f0b26c287271c84a87df95c7d52ea", "is_reserved": 0, "rental_uris": {"android": "https://dc.lft.to/lastmile_qr_scan", "ios": "https://dc.lft.to/lastmile_qr_scan"}, "fusion_lon": 0.0}, {"lat": 38.92117233333333, "is_disabled": 0, "type": "electric_scooter", "lon": -77.0316045, "bike_id": "8f76b891200c8535746fd7b0729e865c", "fusion_lat": 0.0, "name": "8f76b891200c8535746fd7b0729e865c", "is_reserved": 0, "rental_uris": {"android": "https://dc.lft.to/lastmile_qr_scan", "ios": "https://dc.lft.to/lastmile_qr_scan"}, "fusion_lon": 0.0}, {"lat": 38.89552466666667, "is_disabled": 0, "type": "electric_scooter", "lon": -76.93383, "bike_id": "4a13638617555359ba0994c202bdb13b", "fusion_lat": 0.0, "name": "4a13638617555359ba0994c202bdb13b", "is_reserved": 0, "rental_uris": {"android": "https://dc.lft.to/lastmile_qr_scan", "ios": "https://dc.lft.to/lastmile_qr_scan"}, "fusion_lon": 0.0}, {"lat": 38.87472266666666, "is_disabled": 0, "type": "electric_scooter", "lon": -77.00520883333333, "bike_id": "043314b45d062d10a3ce50d66a2ba83e", "fusion_lat": 0.0, "name": "043314b45d062d10a3ce50d66a2ba83e", "is_reserved": 0, "rental_uris": {"android": "https://dc.lft.to/lastmile_qr_scan", "ios": "https://dc.lft.to/lastmile_qr_scan"}, "fusion_lon": 0.0}, {"lat": 38.92660883333333, "is_disabled": 0, "type": "electric_scooter", "lon": -77.05599966666666, "bike_id": "8ecdbc2179a423b11bcaec5110d61914", "fusion_lat": 0.0, "name": "8ecdbc2179a423b11bcaec5110d61914", "is_reserved": 0, "rental_uris": {"android": "https://dc.lft.to/lastmile_qr_scan", "ios": "https://dc.lft.to/lastmile_qr_scan"}, "fusion_lon": 0.0}, {"lat": 38.91487633333333, "is_disabled": 0, "type": "electric_scooter", "lon": -77.03245316666667, "bike_id": "10a74c8c1bd14bb97137390d5abe9faa", "fusion_lat": 0.0, "name": "10a74c8c1bd14bb97137390d5abe9faa", "is_reserved": 0, "rental_uris": {"android": "https://dc.lft.to/lastmile_qr_scan", "ios": "https://dc.lft.to/lastmile_qr_scan"}, "fusion_lon": 0.0}, {"lat": 38.89227533333333, "is_disabled": 0, "type": "electric_scooter", "lon": -77.028309, "bike_id": "6fb52374d7249999d8af0078625f959e", "fusion_lat": 0.0, "name": "6fb52374d7249999d8af0078625f959e", "is_reserved": 0, "rental_uris": {"android": "https://dc.lft.to/lastmile_qr_scan", "ios": "https://dc.lft.to/lastmile_qr_scan"}, "fusion_lon": 0.0}, {"lat": 38.960690166666666, "is_disabled": 0, "type": "electric_scooter", "lon": -77.07301333333334, "bike_id": "c5283f0ae6b095d650436d3b4216ae43", "fusion_lat": 0.0, "name": "c5283f0ae6b095d650436d3b4216ae43", "is_reserved": 0, "rental_uris": {"android": "https://dc.lft.to/lastmile_qr_scan", "ios": "https://dc.lft.to/lastmile_qr_scan"}, "fusion_lon": 0.0}, {"lat": 38.925887833333334, "is_disabled": 0, "type": "electric_scooter", "lon": -77.024964, "bike_id": "ac23be83d81c84ab716635067b108771", "fusion_lat": 0.0, "name": "ac23be83d81c84ab716635067b108771", "is_reserved": 0, "rental_uris": {"android": "https://dc.lft.to/lastmile_qr_scan", "ios": "https://dc.lft.to/lastmile_qr_scan"}, "fusion_lon": 0.0}, {"lat": 38.913464, "is_disabled": 0, "type": "electric_scooter", "lon": -77.04280733333333, "bike_id": "77f563044bc578887d81ebd97e407a88", "fusion_lat": 0.0, "name": "77f563044bc578887d81ebd97e407a88", "is_reserved": 0, "rental_uris": {"android": "https://dc.lft.to/lastmile_qr_scan", "ios": "https://dc.lft.to/lastmile_qr_scan"}, "fusion_lon": 0.0}, {"lat": 38.900658, "is_disabled": 0, "type": "electric_scooter", "lon": -77.04540633333333, "bike_id": "938a49faa80112dc266983b4a41f14dc", "fusion_lat": 0.0, "name": "938a49faa80112dc266983b4a41f14dc", "is_reserved": 0, "rental_uris": {"android": "https://dc.lft.to/lastmile_qr_scan", "ios": "https://dc.lft.to/lastmile_qr_scan"}, "fusion_lon": 0.0}, {"lat": 38.89229616666667, "is_disabled": 0, "type": "electric_scooter", "lon": -77.05007133333334, "bike_id": "9264251a40b8e7b624bdc4011729d858", "fusion_lat": 0.0, "name": "9264251a40b8e7b624bdc4011729d858", "is_reserved": 0, "rental_uris": {"android": "https://dc.lft.to/lastmile_qr_scan", "ios": "https://dc.lft.to/lastmile_qr_scan"}, "fusion_lon": 0.0}, {"lat": 38.8865665, "is_disabled": 0, "type": "electric_bike", "lon": -77.03390916666666, "bike_id": "16d02f5b4f95ac02bba2b559751c028b", "fusion_lat": 0.0, "name": "16d02f5b4f95ac02bba2b559751c028b", "is_reserved": 0, "rental_uris": {"android": "https://dc.lft.to/lastmile_qr_scan", "ios": "https://dc.lft.to/lastmile_qr_scan"}, "fusion_lon": 0.0}, {"lat": 38.917810833333334, "is_disabled": 0, "type": "electric_scooter", "lon": -77.02605633333333, "bike_id": "b3ac7bfe5d4a9fb19860b5ba11775731", "fusion_lat": 0.0, "name": "b3ac7bfe5d4a9fb19860b5ba11775731", "is_reserved": 0, "rental_uris": {"android": "https://dc.lft.to/lastmile_qr_scan", "ios": "https://dc.lft.to/lastmile_qr_scan"}, "fusion_lon": 0.0}, {"lat": 38.928564333333334, "is_disabled": 0, "type": "electric_scooter", "lon": -77.02999266666667, "bike_id": "9e36cba00936c72a7ebfe56b9dd7656b", "fusion_lat": 0.0, "name": "9e36cba00936c72a7ebfe56b9dd7656b", "is_reserved": 0, "rental_uris": {"android": "https://dc.lft.to/lastmile_qr_scan", "ios": "https://dc.lft.to/lastmile_qr_scan"}, "fusion_lon": 0.0}, {"lat": 38.91824666666667, "is_disabled": 0, "type": "electric_scooter", "lon": -77.03443133333333, "bike_id": "abf7f69e12db9f49cc2837c90aab2eb2", "fusion_lat": 0.0, "name": "abf7f69e12db9f49cc2837c90aab2eb2", "is_reserved": 0, "rental_uris": {"android": "https://dc.lft.to/lastmile_qr_scan", "ios": "https://dc.lft.to/lastmile_qr_scan"}, "fusion_lon": 0.0}, {"lat": 38.9071025, "is_disabled": 0, "type": "electric_scooter", "lon": -77.02389633333334, "bike_id": "c0f8a06465466564381dfe8ffee9e6a7", "fusion_lat": 0.0, "name": "c0f8a06465466564381dfe8ffee9e6a7", "is_reserved": 0, "rental_uris": {"android": "https://dc.lft.to/lastmile_qr_scan", "ios": "https://dc.lft.to/lastmile_qr_scan"}, "fusion_lon": 0.0}, {"lat": 38.90286166666667, "is_disabled": 0, "type": "electric_scooter", "lon": -77.03649933333334, "bike_id": "c90e74f3a3e3aada21ce59dd28f357e1", "fusion_lat": 0.0, "name": "c90e74f3a3e3aada21ce59dd28f357e1", "is_reserved": 0, "rental_uris": {"android": "https://dc.lft.to/lastmile_qr_scan", "ios": "https://dc.lft.to/lastmile_qr_scan"}, "fusion_lon": 0.0}, {"lat": 38.90883616666667, "is_disabled": 0, "type": "electric_scooter", "lon": -77.04451183333333, "bike_id": "e45964ad0dffc908157aec2c5cf2f30f", "fusion_lat": 0.0, "name": "e45964ad0dffc908157aec2c5cf2f30f", "is_reserved": 0, "rental_uris": {"android": "https://dc.lft.to/lastmile_qr_scan", "ios": "https://dc.lft.to/lastmile_qr_scan"}, "fusion_lon": 0.0}, {"lat": 38.91194433333333, "is_disabled": 0, "type": "electric_scooter", "lon": -77.03432366666667, "bike_id": "979d233fa7570f8b00a7a02c184a9068", "fusion_lat": 0.0, "name": "979d233fa7570f8b00a7a02c184a9068", "is_reserved": 0, "rental_uris": {"android": "https://dc.lft.to/lastmile_qr_scan", "ios": "https://dc.lft.to/lastmile_qr_scan"}, "fusion_lon": 0.0}, {"lat": 38.90720983333333, "is_disabled": 0, "type": "electric_scooter", "lon": -77.04348016666667, "bike_id": "bd9ffb8eb6066af53358138b2e8e0896", "fusion_lat": 0.0, "name": "bd9ffb8eb6066af53358138b2e8e0896", "is_reserved": 0, "rental_uris": {"android": "https://dc.lft.to/lastmile_qr_scan", "ios": "https://dc.lft.to/lastmile_qr_scan"}, "fusion_lon": 0.0}, {"lat": 38.9349795, "is_disabled": 0, "type": "electric_scooter", "lon": -77.02725283333334, "bike_id": "f0b9953b8f0ed82a2e321f44a40e39fc", "fusion_lat": 0.0, "name": "f0b9953b8f0ed82a2e321f44a40e39fc", "is_reserved": 0, "rental_uris": {"android": "https://dc.lft.to/lastmile_qr_scan", "ios": "https://dc.lft.to/lastmile_qr_scan"}, "fusion_lon": 0.0}, {"lat": 38.906752166666664, "is_disabled": 0, "type": "electric_scooter", "lon": -77.02702666666667, "bike_id": "8ebc9add54bce36f134911fe486e3404", "fusion_lat": 0.0, "name": "8ebc9add54bce36f134911fe486e3404", "is_reserved": 0, "rental_uris": {"android": "https://dc.lft.to/lastmile_qr_scan", "ios": "https://dc.lft.to/lastmile_qr_scan"}, "fusion_lon": 0.0}, {"lat": 38.954766666666664, "is_disabled": 0, "type": "electric_scooter", "lon": -77.06553183333334, "bike_id": "4de1ff24fb2c2a5b2387a3c100e1b122", "fusion_lat": 0.0, "name": "4de1ff24fb2c2a5b2387a3c100e1b122", "is_reserved": 0, "rental_uris": {"android": "https://dc.lft.to/lastmile_qr_scan", "ios": "https://dc.lft.to/lastmile_qr_scan"}, "fusion_lon": 0.0}, {"lat": 38.91198133333333, "is_disabled": 0, "type": "electric_scooter", "lon": -77.01466683333334, "bike_id": "f67c625b3be818ab60664be462452012", "fusion_lat": 0.0, "name": "f67c625b3be818ab60664be462452012", "is_reserved": 0, "rental_uris": {"android": "https://dc.lft.to/lastmile_qr_scan", "ios": "https://dc.lft.to/lastmile_qr_scan"}, "fusion_lon": 0.0}, {"lat": 38.90971183333333, "is_disabled": 0, "type": "electric_scooter", "lon": -77.0386395, "bike_id": "16cdcc68d4f6b07140c17c6b55604182", "fusion_lat": 0.0, "name": "16cdcc68d4f6b07140c17c6b55604182", "is_reserved": 0, "rental_uris": {"android": "https://dc.lft.to/lastmile_qr_scan", "ios": "https://dc.lft.to/lastmile_qr_scan"}, "fusion_lon": 0.0}, {"lat": 38.915673, "is_disabled": 0, "type": "electric_scooter", "lon": -77.03848516666666, "bike_id": "1da664a8391731d0300fed09f2b428c0", "fusion_lat": 0.0, "name": "1da664a8391731d0300fed09f2b428c0", "is_reserved": 0, "rental_uris": {"android": "https://dc.lft.to/lastmile_qr_scan", "ios": "https://dc.lft.to/lastmile_qr_scan"}, "fusion_lon": 0.0}, {"lat": 38.918666, "is_disabled": 0, "type": "electric_scooter", "lon": -77.03218783333334, "bike_id": "59bdc5f076ba8ac6c6830468f55dee99", "fusion_lat": 0.0, "name": "59bdc5f076ba8ac6c6830468f55dee99", "is_reserved": 0, "rental_uris": {"android": "https://dc.lft.to/lastmile_qr_scan", "ios": "https://dc.lft.to/lastmile_qr_scan"}, "fusion_lon": 0.0}, {"lat": 38.916155, "is_disabled": 0, "type": "electric_scooter", "lon": -77.0364565, "bike_id": "e00b2a9f8781710fbda1ce3fa525c8e0", "fusion_lat": 0.0, "name": "e00b2a9f8781710fbda1ce3fa525c8e0", "is_reserved": 0, "rental_uris": {"android": "https://dc.lft.to/lastmile_qr_scan", "ios": "https://dc.lft.to/lastmile_qr_scan"}, "fusion_lon": 0.0}, {"lat": 38.939805, "is_disabled": 0, "type": "electric_scooter", "lon": -77.02888133333333, "bike_id": "05f305853cc54e90dc048bf8c6883b0f", "fusion_lat": 0.0, "name": "05f305853cc54e90dc048bf8c6883b0f", "is_reserved": 0, "rental_uris": {"android": "https://dc.lft.to/lastmile_qr_scan", "ios": "https://dc.lft.to/lastmile_qr_scan"}, "fusion_lon": 0.0}, {"lat": 38.94902183333333, "is_disabled": 0, "type": "electric_bike", "lon": -76.9724205, "bike_id": "8c830db5e6dbdbaf14d196add75098af", "fusion_lat": 0.0, "name": "8c830db5e6dbdbaf14d196add75098af", "is_reserved": 0, "rental_uris": {"android": "https://dc.lft.to/lastmile_qr_scan", "ios": "https://dc.lft.to/lastmile_qr_scan"}, "fusion_lon": 0.0}, {"lat": 38.883297, "is_disabled": 0, "type": "electric_scooter", "lon": -77.0093855, "bike_id": "de0a4a0188acaa3bd392520b458bf009", "fusion_lat": 0.0, "name": "de0a4a0188acaa3bd392520b458bf009", "is_reserved": 0, "rental_uris": {"android": "https://dc.lft.to/lastmile_qr_scan", "ios": "https://dc.lft.to/lastmile_qr_scan"}, "fusion_lon": 0.0}, {"lat": 38.8981275, "is_disabled": 0, "type": "electric_scooter", "lon": -77.05020116666667, "bike_id": "8e2deefdd0bef7d1d0b1d5a4a12addb3", "fusion_lat": 0.0, "name": "8e2deefdd0bef7d1d0b1d5a4a12addb3", "is_reserved": 0, "rental_uris": {"android": "https://dc.lft.to/lastmile_qr_scan", "ios": "https://dc.lft.to/lastmile_qr_scan"}, "fusion_lon": 0.0}, {"lat": 38.7932585, "is_disabled": 0, "type": "electric_bike", "lon": -77.0401745, "bike_id": "f283d08b7f451cad0ebe3a64c59911b8", "fusion_lat": 0.0, "name": "f283d08b7f451cad0ebe3a64c59911b8", "is_reserved": 0, "rental_uris": {"android": "https://dc.lft.to/lastmile_qr_scan", "ios": "https://dc.lft.to/lastmile_qr_scan"}, "fusion_lon": 0.0}, {"lat": 38.908680833333335, "is_disabled": 0, "type": "electric_scooter", "lon": -77.00386583333334, "bike_id": "aa95a6cf0af1456440c9bbdf64a3906e", "fusion_lat": 0.0, "name": "aa95a6cf0af1456440c9bbdf64a3906e", "is_reserved": 0, "rental_uris": {"android": "https://dc.lft.to/lastmile_qr_scan", "ios": "https://dc.lft.to/lastmile_qr_scan"}, "fusion_lon": 0.0}, {"lat": 38.905886833333334, "is_disabled": 0, "type": "electric_scooter", "lon": -77.0338755, "bike_id": "4cd5d2882be10ad0b8b9016b4aa855dd", "fusion_lat": 0.0, "name": "4cd5d2882be10ad0b8b9016b4aa855dd", "is_reserved": 0, "rental_uris": {"android": "https://dc.lft.to/lastmile_qr_scan", "ios": "https://dc.lft.to/lastmile_qr_scan"}, "fusion_lon": 0.0}, {"lat": 38.926820166666666, "is_disabled": 0, "type": "electric_scooter", "lon": -77.01574366666667, "bike_id": "a46e35599ee1ad8dd46d8b515553d81c", "fusion_lat": 0.0, "name": "a46e35599ee1ad8dd46d8b515553d81c", "is_reserved": 0, "rental_uris": {"android": "https://dc.lft.to/lastmile_qr_scan", "ios": "https://dc.lft.to/lastmile_qr_scan"}, "fusion_lon": 0.0}, {"lat": 38.918033333333334, "is_disabled": 0, "type": "electric_bike", "lon": -77.22330066666666, "bike_id": "79a4e7efee345e128178340c635ada58", "fusion_lat": 0.0, "name": "79a4e7efee345e128178340c635ada58", "is_reserved": 0, "rental_uris": {"android": "https://dc.lft.to/lastmile_qr_scan", "ios": "https://dc.lft.to/lastmile_qr_scan"}, "fusion_lon": 0.0}, {"lat": 38.9264755, "is_disabled": 0, "type": "electric_scooter", "lon": -77.04322366666666, "bike_id": "0a4a5e6b8f10950eac201cb199e7c578", "fusion_lat": 0.0, "name": "0a4a5e6b8f10950eac201cb199e7c578", "is_reserved": 0, "rental_uris": {"android": "https://dc.lft.to/lastmile_qr_scan", "ios": "https://dc.lft.to/lastmile_qr_scan"}, "fusion_lon": 0.0}, {"lat": 38.908536, "is_disabled": 0, "type": "electric_scooter", "lon": -77.00625266666667, "bike_id": "586ac9accb5becb50e688e7efc24cf31", "fusion_lat": 0.0, "name": "586ac9accb5becb50e688e7efc24cf31", "is_reserved": 0, "rental_uris": {"android": "https://dc.lft.to/lastmile_qr_scan", "ios": "https://dc.lft.to/lastmile_qr_scan"}, "fusion_lon": 0.0}, {"lat": 38.9375965, "is_disabled": 0, "type": "electric_scooter", "lon": -77.02137816666666, "bike_id": "0ca331fc855823badd140aea57eef2cf", "fusion_lat": 0.0, "name": "0ca331fc855823badd140aea57eef2cf", "is_reserved": 0, "rental_uris": {"android": "https://dc.lft.to/lastmile_qr_scan", "ios": "https://dc.lft.to/lastmile_qr_scan"}, "fusion_lon": 0.0}, {"lat": 38.89678333333333, "is_disabled": 0, "type": "electric_scooter", "lon": -77.0513, "bike_id": "7f02b2303cda662efbce7d63900d2296", "fusion_lat": 0.0, "name": "7f02b2303cda662efbce7d63900d2296", "is_reserved": 0, "rental_uris": {"android": "https://dc.lft.to/lastmile_qr_scan", "ios": "https://dc.lft.to/lastmile_qr_scan"}, "fusion_lon": 0.0}, {"lat": 38.9206185, "is_disabled": 0, "type": "electric_scooter", "lon": -77.02948533333333, "bike_id": "faa5e81321964dd44fa56c8b9885c530", "fusion_lat": 0.0, "name": "faa5e81321964dd44fa56c8b9885c530", "is_reserved": 0, "rental_uris": {"android": "https://dc.lft.to/lastmile_qr_scan", "ios": "https://dc.lft.to/lastmile_qr_scan"}, "fusion_lon": 0.0}, {"lat": 38.8802095, "is_disabled": 0, "type": "electric_scooter", "lon": -76.960125, "bike_id": "5924f0ebfc0d8ecff7384fb7e9b371f7", "fusion_lat": 0.0, "name": "5924f0ebfc0d8ecff7384fb7e9b371f7", "is_reserved": 0, "rental_uris": {"android": "https://dc.lft.to/lastmile_qr_scan", "ios": "https://dc.lft.to/lastmile_qr_scan"}, "fusion_lon": 0.0}, {"lat": 38.9529365, "is_disabled": 0, "type": "electric_scooter", "lon": -77.0815295, "bike_id": "de852462a1fae4f3c113ebfc230df7b2", "fusion_lat": 0.0, "name": "de852462a1fae4f3c113ebfc230df7b2", "is_reserved": 0, "rental_uris": {"android": "https://dc.lft.to/lastmile_qr_scan", "ios": "https://dc.lft.to/lastmile_qr_scan"}, "fusion_lon": 0.0}, {"lat": 38.866496166666664, "is_disabled": 0, "type": "electric_scooter", "lon": -76.988859, "bike_id": "8c7ec5ac13a6cb9c9e2a44cfcf628b34", "fusion_lat": 0.0, "name": "8c7ec5ac13a6cb9c9e2a44cfcf628b34", "is_reserved": 0, "rental_uris": {"android": "https://dc.lft.to/lastmile_qr_scan", "ios": "https://dc.lft.to/lastmile_qr_scan"}, "fusion_lon": 0.0}, {"lat": 38.9387095, "is_disabled": 0, "type": "electric_scooter", "lon": -77.03127366666666, "bike_id": "f550a1b86e82d1b0bcc937d5a0898ad9", "fusion_lat": 0.0, "name": "f550a1b86e82d1b0bcc937d5a0898ad9", "is_reserved": 0, "rental_uris": {"android": "https://dc.lft.to/lastmile_qr_scan", "ios": "https://dc.lft.to/lastmile_qr_scan"}, "fusion_lon": 0.0}, {"lat": 38.9168895, "is_disabled": 0, "type": "electric_scooter", "lon": -77.0319845, "bike_id": "13e63198d5c0e8d48688b18a1204d036", "fusion_lat": 0.0, "name": "13e63198d5c0e8d48688b18a1204d036", "is_reserved": 0, "rental_uris": {"android": "https://dc.lft.to/lastmile_qr_scan", "ios": "https://dc.lft.to/lastmile_qr_scan"}, "fusion_lon": 0.0}, {"lat": 38.8977735, "is_disabled": 0, "type": "electric_scooter", "lon": -77.00919733333333, "bike_id": "6891ab85dc9c20127fe960c12bd4a03c", "fusion_lat": 0.0, "name": "6891ab85dc9c20127fe960c12bd4a03c", "is_reserved": 0, "rental_uris": {"android": "https://dc.lft.to/lastmile_qr_scan", "ios": "https://dc.lft.to/lastmile_qr_scan"}, "fusion_lon": 0.0}, {"lat": 38.920592666666664, "is_disabled": 0, "type": "electric_scooter", "lon": -77.04377983333333, "bike_id": "9c0127b2adb814d2afd86f25e0f9a3e3", "fusion_lat": 0.0, "name": "9c0127b2adb814d2afd86f25e0f9a3e3", "is_reserved": 0, "rental_uris": {"android": "https://dc.lft.to/lastmile_qr_scan", "ios": "https://dc.lft.to/lastmile_qr_scan"}, "fusion_lon": 0.0}, {"lat": 38.90675683333333, "is_disabled": 0, "type": "electric_scooter", "lon": -77.027047, "bike_id": "b4c65ce1d122859b9cbe54f6a1e4a152", "fusion_lat": 0.0, "name": "b4c65ce1d122859b9cbe54f6a1e4a152", "is_reserved": 0, "rental_uris": {"android": "https://dc.lft.to/lastmile_qr_scan", "ios": "https://dc.lft.to/lastmile_qr_scan"}, "fusion_lon": 0.0}, {"lat": 38.91697533333333, "is_disabled": 0, "type": "electric_scooter", "lon": -77.03110766666667, "bike_id": "63725def8ec4fb114d371615f91aa866", "fusion_lat": 0.0, "name": "63725def8ec4fb114d371615f91aa866", "is_reserved": 0, "rental_uris": {"android": "https://dc.lft.to/lastmile_qr_scan", "ios": "https://dc.lft.to/lastmile_qr_scan"}, "fusion_lon": 0.0}, {"lat": 38.930899833333335, "is_disabled": 0, "type": "electric_scooter", "lon": -77.07750716666666, "bike_id": "d97c8513d1f66b212de4c53e49b3a074", "fusion_lat": 0.0, "name": "d97c8513d1f66b212de4c53e49b3a074", "is_reserved": 0, "rental_uris": {"android": "https://dc.lft.to/lastmile_qr_scan", "ios": "https://dc.lft.to/lastmile_qr_scan"}, "fusion_lon": 0.0}, {"lat": 38.866960666666664, "is_disabled": 0, "type": "electric_scooter", "lon": -76.987167, "bike_id": "378e893e71579d70e1a29bebc09455cc", "fusion_lat": 0.0, "name": "378e893e71579d70e1a29bebc09455cc", "is_reserved": 0, "rental_uris": {"android": "https://dc.lft.to/lastmile_qr_scan", "ios": "https://dc.lft.to/lastmile_qr_scan"}, "fusion_lon": 0.0}, {"lat": 38.95785, "is_disabled": 0, "type": "electric_bike", "lon": -77.02751666666667, "bike_id": "f96edded3bbf6821314b71396217c2a8", "fusion_lat": 0.0, "name": "f96edded3bbf6821314b71396217c2a8", "is_reserved": 0, "rental_uris": {"android": "https://dc.lft.to/lastmile_qr_scan", "ios": "https://dc.lft.to/lastmile_qr_scan"}, "fusion_lon": 0.0}, {"lat": 38.9094125, "is_disabled": 0, "type": "electric_scooter", "lon": -76.9896135, "bike_id": "64b218ed02baf6ddb9d18badcbb1daa9", "fusion_lat": 0.0, "name": "64b218ed02baf6ddb9d18badcbb1daa9", "is_reserved": 0, "rental_uris": {"android": "https://dc.lft.to/lastmile_qr_scan", "ios": "https://dc.lft.to/lastmile_qr_scan"}, "fusion_lon": 0.0}, {"lat": 38.84029316666667, "is_disabled": 0, "type": "electric_bike", "lon": -76.9758825, "bike_id": "975ddae350803aa0f85efdb797afc1c2", "fusion_lat": 0.0, "name": "975ddae350803aa0f85efdb797afc1c2", "is_reserved": 0, "rental_uris": {"android": "https://dc.lft.to/lastmile_qr_scan", "ios": "https://dc.lft.to/lastmile_qr_scan"}, "fusion_lon": 0.0}, {"lat": 38.899723333333334, "is_disabled": 0, "type": "electric_scooter", "lon": -77.03380366666667, "bike_id": "1c14bdc9919d0dd0eeff1a8e55a24eba", "fusion_lat": 0.0, "name": "1c14bdc9919d0dd0eeff1a8e55a24eba", "is_reserved": 0, "rental_uris": {"android": "https://dc.lft.to/lastmile_qr_scan", "ios": "https://dc.lft.to/lastmile_qr_scan"}, "fusion_lon": 0.0}, {"lat": 38.9096765, "is_disabled": 0, "type": "electric_bike", "lon": -77.03223616666666, "bike_id": "33e40242b8e1dfa1f373143e92049e05", "fusion_lat": 0.0, "name": "33e40242b8e1dfa1f373143e92049e05", "is_reserved": 0, "rental_uris": {"android": "https://dc.lft.to/lastmile_qr_scan", "ios": "https://dc.lft.to/lastmile_qr_scan"}, "fusion_lon": 0.0}, {"lat": 38.90024483333333, "is_disabled": 0, "type": "electric_scooter", "lon": -76.99898583333334, "bike_id": "12c26a04637b5f5a772ef9f4bc0d4938", "fusion_lat": 0.0, "name": "12c26a04637b5f5a772ef9f4bc0d4938", "is_reserved": 0, "rental_uris": {"android": "https://dc.lft.to/lastmile_qr_scan", "ios": "https://dc.lft.to/lastmile_qr_scan"}, "fusion_lon": 0.0}, {"lat": 38.911243666666664, "is_disabled": 0, "type": "electric_scooter", "lon": -77.03818133333333, "bike_id": "f7849232064acd0bb0761733d5d0b9f0", "fusion_lat": 0.0, "name": "f7849232064acd0bb0761733d5d0b9f0", "is_reserved": 0, "rental_uris": {"android": "https://dc.lft.to/lastmile_qr_scan", "ios": "https://dc.lft.to/lastmile_qr_scan"}, "fusion_lon": 0.0}, {"lat": 38.9223415, "is_disabled": 0, "type": "electric_scooter", "lon": -77.02963266666667, "bike_id": "23ba19bb1c2a66d767ad9308363dc2c5", "fusion_lat": 0.0, "name": "23ba19bb1c2a66d767ad9308363dc2c5", "is_reserved": 0, "rental_uris": {"android": "https://dc.lft.to/lastmile_qr_scan", "ios": "https://dc.lft.to/lastmile_qr_scan"}, "fusion_lon": 0.0}, {"lat": 38.93195566666667, "is_disabled": 0, "type": "electric_scooter", "lon": -77.02356383333333, "bike_id": "711940554480f4774f98ffe8c66ff811", "fusion_lat": 0.0, "name": "711940554480f4774f98ffe8c66ff811", "is_reserved": 0, "rental_uris": {"android": "https://dc.lft.to/lastmile_qr_scan", "ios": "https://dc.lft.to/lastmile_qr_scan"}, "fusion_lon": 0.0}, {"lat": 38.886612166666666, "is_disabled": 0, "type": "electric_scooter", "lon": -77.03389733333333, "bike_id": "96c8a6dd216ccd88deef4e0373697f8f", "fusion_lat": 0.0, "name": "96c8a6dd216ccd88deef4e0373697f8f", "is_reserved": 0, "rental_uris": {"android": "https://dc.lft.to/lastmile_qr_scan", "ios": "https://dc.lft.to/lastmile_qr_scan"}, "fusion_lon": 0.0}, {"lat": 38.886888666666664, "is_disabled": 0, "type": "electric_scooter", "lon": -77.0176835, "bike_id": "cb31e5ca0f6fb4baf30344ef63ccac10", "fusion_lat": 0.0, "name": "cb31e5ca0f6fb4baf30344ef63ccac10", "is_reserved": 0, "rental_uris": {"android": "https://dc.lft.to/lastmile_qr_scan", "ios": "https://dc.lft.to/lastmile_qr_scan"}, "fusion_lon": 0.0}, {"lat": 38.89837333333333, "is_disabled": 0, "type": "electric_scooter", "lon": -76.99502316666667, "bike_id": "83f0462dcd21104ec192216fe15ef3e8", "fusion_lat": 0.0, "name": "83f0462dcd21104ec192216fe15ef3e8", "is_reserved": 0, "rental_uris": {"android": "https://dc.lft.to/lastmile_qr_scan", "ios": "https://dc.lft.to/lastmile_qr_scan"}, "fusion_lon": 0.0}, {"lat": 38.91600433333333, "is_disabled": 0, "type": "electric_scooter", "lon": -77.0456845, "bike_id": "2b60ba422136c5c5f919fb9353fc9535", "fusion_lat": 0.0, "name": "2b60ba422136c5c5f919fb9353fc9535", "is_reserved": 0, "rental_uris": {"android": "https://dc.lft.to/lastmile_qr_scan", "ios": "https://dc.lft.to/lastmile_qr_scan"}, "fusion_lon": 0.0}, {"lat": 38.89495266666667, "is_disabled": 0, "type": "electric_scooter", "lon": -77.00209683333334, "bike_id": "e769e6b4809e429cca621da35466d669", "fusion_lat": 0.0, "name": "e769e6b4809e429cca621da35466d669", "is_reserved": 0, "rental_uris": {"android": "https://dc.lft.to/lastmile_qr_scan", "ios": "https://dc.lft.to/lastmile_qr_scan"}, "fusion_lon": 0.0}, {"lat": 38.90207233333334, "is_disabled": 0, "type": "electric_scooter", "lon": -77.02327583333333, "bike_id": "28d6a4fca29eb364457398804a601a7b", "fusion_lat": 0.0, "name": "28d6a4fca29eb364457398804a601a7b", "is_reserved": 0, "rental_uris": {"android": "https://dc.lft.to/lastmile_qr_scan", "ios": "https://dc.lft.to/lastmile_qr_scan"}, "fusion_lon": 0.0}, {"lat": 38.90027766666667, "is_disabled": 0, "type": "electric_scooter", "lon": -76.99062, "bike_id": "6df10f333eb6493a808d379dfac8c223", "fusion_lat": 0.0, "name": "6df10f333eb6493a808d379dfac8c223", "is_reserved": 0, "rental_uris": {"android": "https://dc.lft.to/lastmile_qr_scan", "ios": "https://dc.lft.to/lastmile_qr_scan"}, "fusion_lon": 0.0}, {"lat": 38.905495333333334, "is_disabled": 0, "type": "electric_scooter", "lon": -77.057066, "bike_id": "e7524e3583c615b927c719b340f1f0fb", "fusion_lat": 0.0, "name": "e7524e3583c615b927c719b340f1f0fb", "is_reserved": 0, "rental_uris": {"android": "https://dc.lft.to/lastmile_qr_scan", "ios": "https://dc.lft.to/lastmile_qr_scan"}, "fusion_lon": 0.0}, {"lat": 38.892190666666664, "is_disabled": 0, "type": "electric_bike", "lon": -77.10783483333333, "bike_id": "70c9e7fd353cc4f363924ef8a97ab03f", "fusion_lat": 0.0, "name": "70c9e7fd353cc4f363924ef8a97ab03f", "is_reserved": 0, "rental_uris": {"android": "https://dc.lft.to/lastmile_qr_scan", "ios": "https://dc.lft.to/lastmile_qr_scan"}, "fusion_lon": 0.0}, {"lat": 38.894546, "is_disabled": 0, "type": "electric_bike", "lon": -77.07301183333334, "bike_id": "1ecc5e56c9f6039b6746b447df5e3178", "fusion_lat": 0.0, "name": "1ecc5e56c9f6039b6746b447df5e3178", "is_reserved": 0, "rental_uris": {"android": "https://dc.lft.to/lastmile_qr_scan", "ios": "https://dc.lft.to/lastmile_qr_scan"}, "fusion_lon": 0.0}, {"lat": 38.962174166666664, "is_disabled": 0, "type": "electric_bike", "lon": -77.02631466666666, "bike_id": "159cf449016bd66e021eb8fa8c48fff5", "fusion_lat": 0.0, "name": "159cf449016bd66e021eb8fa8c48fff5", "is_reserved": 0, "rental_uris": {"android": "https://dc.lft.to/lastmile_qr_scan", "ios": "https://dc.lft.to/lastmile_qr_scan"}, "fusion_lon": 0.0}, {"lat": 38.85733033333333, "is_disabled": 0, "type": "electric_scooter", "lon": -76.994409, "bike_id": "c056f614fc30747e8d81f844b84fe1ec", "fusion_lat": 0.0, "name": "c056f614fc30747e8d81f844b84fe1ec", "is_reserved": 0, "rental_uris": {"android": "https://dc.lft.to/lastmile_qr_scan", "ios": "https://dc.lft.to/lastmile_qr_scan"}, "fusion_lon": 0.0}, {"lat": 38.936598333333336, "is_disabled": 0, "type": "electric_scooter", "lon": -77.03639216666667, "bike_id": "d6a2bd5763f0d74a79023640ab072c88", "fusion_lat": 0.0, "name": "d6a2bd5763f0d74a79023640ab072c88", "is_reserved": 0, "rental_uris": {"android": "https://dc.lft.to/lastmile_qr_scan", "ios": "https://dc.lft.to/lastmile_qr_scan"}, "fusion_lon": 0.0}, {"lat": 38.90194266666666, "is_disabled": 0, "type": "electric_scooter", "lon": -77.021447, "bike_id": "6f52e28ee2f120f21dc4dd5d7045595e", "fusion_lat": 0.0, "name": "6f52e28ee2f120f21dc4dd5d7045595e", "is_reserved": 0, "rental_uris": {"android": "https://dc.lft.to/lastmile_qr_scan", "ios": "https://dc.lft.to/lastmile_qr_scan"}, "fusion_lon": 0.0}, {"lat": 38.944421, "is_disabled": 0, "type": "electric_scooter", "lon": -77.023426, "bike_id": "a9b0653bfef338ebe7d824fa48f50a3c", "fusion_lat": 0.0, "name": "a9b0653bfef338ebe7d824fa48f50a3c", "is_reserved": 0, "rental_uris": {"android": "https://dc.lft.to/lastmile_qr_scan", "ios": "https://dc.lft.to/lastmile_qr_scan"}, "fusion_lon": 0.0}, {"lat": 38.90960316666666, "is_disabled": 0, "type": "electric_scooter", "lon": -77.03425066666667, "bike_id": "9bdf78e0ae9855ab71839cfe5c1c8ea6", "fusion_lat": 0.0, "name": "9bdf78e0ae9855ab71839cfe5c1c8ea6", "is_reserved": 0, "rental_uris": {"android": "https://dc.lft.to/lastmile_qr_scan", "ios": "https://dc.lft.to/lastmile_qr_scan"}, "fusion_lon": 0.0}, {"lat": 38.92061866666667, "is_disabled": 0, "type": "electric_scooter", "lon": -77.04237466666666, "bike_id": "2a5f7a24f5779d32761e0bc6d4702568", "fusion_lat": 0.0, "name": "2a5f7a24f5779d32761e0bc6d4702568", "is_reserved": 0, "rental_uris": {"android": "https://dc.lft.to/lastmile_qr_scan", "ios": "https://dc.lft.to/lastmile_qr_scan"}, "fusion_lon": 0.0}, {"lat": 38.87296383333333, "is_disabled": 0, "type": "electric_scooter", "lon": -77.0093065, "bike_id": "59f5a5ca16237fd22e9f85a24cb6a4f0", "fusion_lat": 0.0, "name": "59f5a5ca16237fd22e9f85a24cb6a4f0", "is_reserved": 0, "rental_uris": {"android": "https://dc.lft.to/lastmile_qr_scan", "ios": "https://dc.lft.to/lastmile_qr_scan"}, "fusion_lon": 0.0}, {"lat": 38.884900333333334, "is_disabled": 0, "type": "electric_scooter", "lon": -77.0071475, "bike_id": "25f0aa45ec19defcaa448b607cf5bc80", "fusion_lat": 0.0, "name": "25f0aa45ec19defcaa448b607cf5bc80", "is_reserved": 0, "rental_uris": {"android": "https://dc.lft.to/lastmile_qr_scan", "ios": "https://dc.lft.to/lastmile_qr_scan"}, "fusion_lon": 0.0}, {"lat": 38.923516166666666, "is_disabled": 0, "type": "electric_bike", "lon": -76.9712785, "bike_id": "8219894e8d4a99c139123cf14f08f4d9", "fusion_lat": 0.0, "name": "8219894e8d4a99c139123cf14f08f4d9", "is_reserved": 0, "rental_uris": {"android": "https://dc.lft.to/lastmile_qr_scan", "ios": "https://dc.lft.to/lastmile_qr_scan"}, "fusion_lon": 0.0}, {"lat": 39.03698833333333, "is_disabled": 0, "type": "electric_bike", "lon": -77.05141283333333, "bike_id": "9b49ad6647b5fc67231620dd18831988", "fusion_lat": 0.0, "name": "9b49ad6647b5fc67231620dd18831988", "is_reserved": 0, "rental_uris": {"android": "https://dc.lft.to/lastmile_qr_scan", "ios": "https://dc.lft.to/lastmile_qr_scan"}, "fusion_lon": 0.0}, {"lat": 38.80754916666667, "is_disabled": 0, "type": "electric_bike", "lon": -77.09454866666667, "bike_id": "c82c8912d5576f126663910309017e58", "fusion_lat": 0.0, "name": "c82c8912d5576f126663910309017e58", "is_reserved": 0, "rental_uris": {"android": "https://dc.lft.to/lastmile_qr_scan", "ios": "https://dc.lft.to/lastmile_qr_scan"}, "fusion_lon": 0.0}, {"lat": 38.9532715, "is_disabled": 0, "type": "electric_scooter", "lon": -77.027568, "bike_id": "1052e33cccd5437d6713f142b775d963", "fusion_lat": 0.0, "name": "1052e33cccd5437d6713f142b775d963", "is_reserved": 0, "rental_uris": {"android": "https://dc.lft.to/lastmile_qr_scan", "ios": "https://dc.lft.to/lastmile_qr_scan"}, "fusion_lon": 0.0}, {"lat": 38.88469633333333, "is_disabled": 0, "type": "electric_scooter", "lon": -76.99279866666667, "bike_id": "b71a453452348a4095243ad50098f605", "fusion_lat": 0.0, "name": "b71a453452348a4095243ad50098f605", "is_reserved": 0, "rental_uris": {"android": "https://dc.lft.to/lastmile_qr_scan", "ios": "https://dc.lft.to/lastmile_qr_scan"}, "fusion_lon": 0.0}, {"lat": 38.91128533333333, "is_disabled": 0, "type": "electric_scooter", "lon": -77.0435095, "bike_id": "067fddaf8c898e0a41351e4353aeaf09", "fusion_lat": 0.0, "name": "067fddaf8c898e0a41351e4353aeaf09", "is_reserved": 0, "rental_uris": {"android": "https://dc.lft.to/lastmile_qr_scan", "ios": "https://dc.lft.to/lastmile_qr_scan"}, "fusion_lon": 0.0}, {"lat": 38.8766345, "is_disabled": 0, "type": "electric_scooter", "lon": -77.00583083333333, "bike_id": "c150418c46d81cfd9613770d333202c2", "fusion_lat": 0.0, "name": "c150418c46d81cfd9613770d333202c2", "is_reserved": 0, "rental_uris": {"android": "https://dc.lft.to/lastmile_qr_scan", "ios": "https://dc.lft.to/lastmile_qr_scan"}, "fusion_lon": 0.0}, {"lat": 38.916816833333336, "is_disabled": 0, "type": "electric_scooter", "lon": -77.03203266666667, "bike_id": "108f9a8a55e5ab4795e9d9d4c92ac99a", "fusion_lat": 0.0, "name": "108f9a8a55e5ab4795e9d9d4c92ac99a", "is_reserved": 0, "rental_uris": {"android": "https://dc.lft.to/lastmile_qr_scan", "ios": "https://dc.lft.to/lastmile_qr_scan"}, "fusion_lon": 0.0}, {"lat": 38.865247833333335, "is_disabled": 0, "type": "electric_scooter", "lon": -76.990286, "bike_id": "5260bdba6fdc63962e0249aded141c25", "fusion_lat": 0.0, "name": "5260bdba6fdc63962e0249aded141c25", "is_reserved": 0, "rental_uris": {"android": "https://dc.lft.to/lastmile_qr_scan", "ios": "https://dc.lft.to/lastmile_qr_scan"}, "fusion_lon": 0.0}, {"lat": 38.933572, "is_disabled": 0, "type": "electric_bike", "lon": -77.09962116666667, "bike_id": "f69db6a4b3daeab6a0af18e59b5cafa8", "fusion_lat": 0.0, "name": "f69db6a4b3daeab6a0af18e59b5cafa8", "is_reserved": 0, "rental_uris": {"android": "https://dc.lft.to/lastmile_qr_scan", "ios": "https://dc.lft.to/lastmile_qr_scan"}, "fusion_lon": 0.0}, {"lat": 38.91418433333333, "is_disabled": 0, "type": "electric_scooter", "lon": -77.03187433333333, "bike_id": "1b226f0351f984babd9c69c85e1a33e7", "fusion_lat": 0.0, "name": "1b226f0351f984babd9c69c85e1a33e7", "is_reserved": 0, "rental_uris": {"android": "https://dc.lft.to/lastmile_qr_scan", "ios": "https://dc.lft.to/lastmile_qr_scan"}, "fusion_lon": 0.0}, {"lat": 38.9320885, "is_disabled": 0, "type": "electric_scooter", "lon": -76.97770166666666, "bike_id": "09b542082b998f0b1cfcce6115d34146", "fusion_lat": 0.0, "name": "09b542082b998f0b1cfcce6115d34146", "is_reserved": 0, "rental_uris": {"android": "https://dc.lft.to/lastmile_qr_scan", "ios": "https://dc.lft.to/lastmile_qr_scan"}, "fusion_lon": 0.0}, {"lat": 38.9029445, "is_disabled": 0, "type": "electric_scooter", "lon": -77.03671316666667, "bike_id": "3554d895613cc1844ed2e86128ac6683", "fusion_lat": 0.0, "name": "3554d895613cc1844ed2e86128ac6683", "is_reserved": 0, "rental_uris": {"android": "https://dc.lft.to/lastmile_qr_scan", "ios": "https://dc.lft.to/lastmile_qr_scan"}, "fusion_lon": 0.0}, {"lat": 38.9095565, "is_disabled": 0, "type": "electric_scooter", "lon": -77.03428466666666, "bike_id": "5310629c282a624e6098e68a39fbe9b7", "fusion_lat": 0.0, "name": "5310629c282a624e6098e68a39fbe9b7", "is_reserved": 0, "rental_uris": {"android": "https://dc.lft.to/lastmile_qr_scan", "ios": "https://dc.lft.to/lastmile_qr_scan"}, "fusion_lon": 0.0}, {"lat": 38.911243, "is_disabled": 0, "type": "electric_scooter", "lon": -77.0434965, "bike_id": "a995aa426172bc7c2794d8810402462b", "fusion_lat": 0.0, "name": "a995aa426172bc7c2794d8810402462b", "is_reserved": 0, "rental_uris": {"android": "https://dc.lft.to/lastmile_qr_scan", "ios": "https://dc.lft.to/lastmile_qr_scan"}, "fusion_lon": 0.0}, {"lat": 38.895918333333334, "is_disabled": 0, "type": "electric_bike", "lon": -77.127153, "bike_id": "a3655f24080a506cc33c5eab78d5a284", "fusion_lat": 0.0, "name": "a3655f24080a506cc33c5eab78d5a284", "is_reserved": 0, "rental_uris": {"android": "https://dc.lft.to/lastmile_qr_scan", "ios": "https://dc.lft.to/lastmile_qr_scan"}, "fusion_lon": 0.0}, {"lat": 38.910013, "is_disabled": 0, "type": "electric_scooter", "lon": -77.04427683333333, "bike_id": "e888577e66884d2e1a3f6fee32c6e251", "fusion_lat": 0.0, "name": "e888577e66884d2e1a3f6fee32c6e251", "is_reserved": 0, "rental_uris": {"android": "https://dc.lft.to/lastmile_qr_scan", "ios": "https://dc.lft.to/lastmile_qr_scan"}, "fusion_lon": 0.0}, {"lat": 38.9066245, "is_disabled": 0, "type": "electric_scooter", "lon": -77.0385905, "bike_id": "7c51c84a00cc2772a2e119492eb96782", "fusion_lat": 0.0, "name": "7c51c84a00cc2772a2e119492eb96782", "is_reserved": 0, "rental_uris": {"android": "https://dc.lft.to/lastmile_qr_scan", "ios": "https://dc.lft.to/lastmile_qr_scan"}, "fusion_lon": 0.0}, {"lat": 38.91011533333333, "is_disabled": 0, "type": "electric_scooter", "lon": -77.044436, "bike_id": "26f464f8a1e5aa506901cf61c31f56d2", "fusion_lat": 0.0, "name": "26f464f8a1e5aa506901cf61c31f56d2", "is_reserved": 0, "rental_uris": {"android": "https://dc.lft.to/lastmile_qr_scan", "ios": "https://dc.lft.to/lastmile_qr_scan"}, "fusion_lon": 0.0}, {"lat": 38.899038166666664, "is_disabled": 0, "type": "electric_scooter", "lon": -76.93359966666667, "bike_id": "5838d0d8ce4df798288634dd49c44b90", "fusion_lat": 0.0, "name": "5838d0d8ce4df798288634dd49c44b90", "is_reserved": 0, "rental_uris": {"android": "https://dc.lft.to/lastmile_qr_scan", "ios": "https://dc.lft.to/lastmile_qr_scan"}, "fusion_lon": 0.0}, {"lat": 39.05205266666667, "is_disabled": 0, "type": "electric_bike", "lon": -77.10914716666667, "bike_id": "a4382429c1bbfe668bccfba1864a6014", "fusion_lat": 0.0, "name": "a4382429c1bbfe668bccfba1864a6014", "is_reserved": 0, "rental_uris": {"android": "https://dc.lft.to/lastmile_qr_scan", "ios": "https://dc.lft.to/lastmile_qr_scan"}, "fusion_lon": 0.0}, {"lat": 38.908584166666664, "is_disabled": 0, "type": "electric_scooter", "lon": -76.99166183333334, "bike_id": "cb933135dcbbebd47e2c6ab39c6a8dd5", "fusion_lat": 0.0, "name": "cb933135dcbbebd47e2c6ab39c6a8dd5", "is_reserved": 0, "rental_uris": {"android": "https://dc.lft.to/lastmile_qr_scan", "ios": "https://dc.lft.to/lastmile_qr_scan"}, "fusion_lon": 0.0}, {"lat": 38.90619933333333, "is_disabled": 0, "type": "electric_scooter", "lon": -76.9898755, "bike_id": "72b9fca267a25398878de5efe8b28aa1", "fusion_lat": 0.0, "name": "72b9fca267a25398878de5efe8b28aa1", "is_reserved": 0, "rental_uris": {"android": "https://dc.lft.to/lastmile_qr_scan", "ios": "https://dc.lft.to/lastmile_qr_scan"}, "fusion_lon": 0.0}, {"lat": 38.9274645, "is_disabled": 0, "type": "electric_scooter", "lon": -77.025386, "bike_id": "212ef7a89c56bd8795d762fa3986109e", "fusion_lat": 0.0, "name": "212ef7a89c56bd8795d762fa3986109e", "is_reserved": 0, "rental_uris": {"android": "https://dc.lft.to/lastmile_qr_scan", "ios": "https://dc.lft.to/lastmile_qr_scan"}, "fusion_lon": 0.0}, {"lat": 38.85897466666667, "is_disabled": 0, "type": "electric_scooter", "lon": -76.99153633333333, "bike_id": "aae4488b0ca25f038dbb76a0bcebd034", "fusion_lat": 0.0, "name": "aae4488b0ca25f038dbb76a0bcebd034", "is_reserved": 0, "rental_uris": {"android": "https://dc.lft.to/lastmile_qr_scan", "ios": "https://dc.lft.to/lastmile_qr_scan"}, "fusion_lon": 0.0}, {"lat": 38.89133433333333, "is_disabled": 0, "type": "electric_scooter", "lon": -76.943955, "bike_id": "ec1b04f6425df0903eb89bd01fe41a02", "fusion_lat": 0.0, "name": "ec1b04f6425df0903eb89bd01fe41a02", "is_reserved": 0, "rental_uris": {"android": "https://dc.lft.to/lastmile_qr_scan", "ios": "https://dc.lft.to/lastmile_qr_scan"}, "fusion_lon": 0.0}, {"lat": 38.90730333333333, "is_disabled": 0, "type": "electric_scooter", "lon": -77.00062833333334, "bike_id": "dbbde5eb0e9453e159089c703524c994", "fusion_lat": 0.0, "name": "dbbde5eb0e9453e159089c703524c994", "is_reserved": 0, "rental_uris": {"android": "https://dc.lft.to/lastmile_qr_scan", "ios": "https://dc.lft.to/lastmile_qr_scan"}, "fusion_lon": 0.0}, {"lat": 38.900409333333336, "is_disabled": 0, "type": "electric_scooter", "lon": -76.99381066666666, "bike_id": "30326cd0920faffa5da15b920e55f67a", "fusion_lat": 0.0, "name": "30326cd0920faffa5da15b920e55f67a", "is_reserved": 0, "rental_uris": {"android": "https://dc.lft.to/lastmile_qr_scan", "ios": "https://dc.lft.to/lastmile_qr_scan"}, "fusion_lon": 0.0}, {"lat": 38.91101233333333, "is_disabled": 0, "type": "electric_scooter", "lon": -77.04231083333333, "bike_id": "a8f83d501f386c61cec4b99f9de2b1ae", "fusion_lat": 0.0, "name": "a8f83d501f386c61cec4b99f9de2b1ae", "is_reserved": 0, "rental_uris": {"android": "https://dc.lft.to/lastmile_qr_scan", "ios": "https://dc.lft.to/lastmile_qr_scan"}, "fusion_lon": 0.0}, {"lat": 38.86648616666667, "is_disabled": 0, "type": "electric_scooter", "lon": -76.98882383333333, "bike_id": "63343e1c28a564ec9014c21dbaedbf65", "fusion_lat": 0.0, "name": "63343e1c28a564ec9014c21dbaedbf65", "is_reserved": 0, "rental_uris": {"android": "https://dc.lft.to/lastmile_qr_scan", "ios": "https://dc.lft.to/lastmile_qr_scan"}, "fusion_lon": 0.0}, {"lat": 38.952941833333334, "is_disabled": 0, "type": "electric_scooter", "lon": -77.0687025, "bike_id": "6b3de03afabb5c9adeda27f792ee54e4", "fusion_lat": 0.0, "name": "6b3de03afabb5c9adeda27f792ee54e4", "is_reserved": 0, "rental_uris": {"android": "https://dc.lft.to/lastmile_qr_scan", "ios": "https://dc.lft.to/lastmile_qr_scan"}, "fusion_lon": 0.0}, {"lat": 38.91558916666666, "is_disabled": 0, "type": "electric_scooter", "lon": -77.05317183333334, "bike_id": "e6b3df1fa9ea70fb8f539eb9a604bd97", "fusion_lat": 0.0, "name": "e6b3df1fa9ea70fb8f539eb9a604bd97", "is_reserved": 0, "rental_uris": {"android": "https://dc.lft.to/lastmile_qr_scan", "ios": "https://dc.lft.to/lastmile_qr_scan"}, "fusion_lon": 0.0}, {"lat": 38.89534333333334, "is_disabled": 0, "type": "electric_scooter", "lon": -77.0282265, "bike_id": "ccb3804d0bec4a8c0f452181f417ff95", "fusion_lat": 0.0, "name": "ccb3804d0bec4a8c0f452181f417ff95", "is_reserved": 0, "rental_uris": {"android": "https://dc.lft.to/lastmile_qr_scan", "ios": "https://dc.lft.to/lastmile_qr_scan"}, "fusion_lon": 0.0}, {"lat": 38.855656333333336, "is_disabled": 0, "type": "electric_bike", "lon": -77.11140366666666, "bike_id": "ab261565212e732976e496025cb5d813", "fusion_lat": 0.0, "name": "ab261565212e732976e496025cb5d813", "is_reserved": 0, "rental_uris": {"android": "https://dc.lft.to/lastmile_qr_scan", "ios": "https://dc.lft.to/lastmile_qr_scan"}, "fusion_lon": 0.0}, {"lat": 38.9052625, "is_disabled": 0, "type": "electric_scooter", "lon": -77.06242683333333, "bike_id": "4657b6c1e0f55d6895b67ffda63953d3", "fusion_lat": 0.0, "name": "4657b6c1e0f55d6895b67ffda63953d3", "is_reserved": 0, "rental_uris": {"android": "https://dc.lft.to/lastmile_qr_scan", "ios": "https://dc.lft.to/lastmile_qr_scan"}, "fusion_lon": 0.0}, {"lat": 38.933255, "is_disabled": 0, "type": "electric_scooter", "lon": -77.04368816666667, "bike_id": "4736878938f5994e28fe6e3685cdb360", "fusion_lat": 0.0, "name": "4736878938f5994e28fe6e3685cdb360", "is_reserved": 0, "rental_uris": {"android": "https://dc.lft.to/lastmile_qr_scan", "ios": "https://dc.lft.to/lastmile_qr_scan"}, "fusion_lon": 0.0}, {"lat": 38.8921955, "is_disabled": 0, "type": "electric_scooter", "lon": -77.02630183333333, "bike_id": "8277d028faaa5e5e7108868cdf8aa4d2", "fusion_lat": 0.0, "name": "8277d028faaa5e5e7108868cdf8aa4d2", "is_reserved": 0, "rental_uris": {"android": "https://dc.lft.to/lastmile_qr_scan", "ios": "https://dc.lft.to/lastmile_qr_scan"}, "fusion_lon": 0.0}, {"lat": 38.91949233333333, "is_disabled": 0, "type": "electric_scooter", "lon": -76.98079033333333, "bike_id": "5631d75902304f4f1e41b8dc600b8725", "fusion_lat": 0.0, "name": "5631d75902304f4f1e41b8dc600b8725", "is_reserved": 0, "rental_uris": {"android": "https://dc.lft.to/lastmile_qr_scan", "ios": "https://dc.lft.to/lastmile_qr_scan"}, "fusion_lon": 0.0}, {"lat": 38.902337333333335, "is_disabled": 0, "type": "electric_scooter", "lon": -77.0282635, "bike_id": "9d939085dfad908e502ffee56b4fc03e", "fusion_lat": 0.0, "name": "9d939085dfad908e502ffee56b4fc03e", "is_reserved": 0, "rental_uris": {"android": "https://dc.lft.to/lastmile_qr_scan", "ios": "https://dc.lft.to/lastmile_qr_scan"}, "fusion_lon": 0.0}, {"lat": 38.900376, "is_disabled": 0, "type": "electric_scooter", "lon": -76.99385716666667, "bike_id": "7e7ebfc1701504a4a403b3f65452b96d", "fusion_lat": 0.0, "name": "7e7ebfc1701504a4a403b3f65452b96d", "is_reserved": 0, "rental_uris": {"android": "https://dc.lft.to/lastmile_qr_scan", "ios": "https://dc.lft.to/lastmile_qr_scan"}, "fusion_lon": 0.0}, {"lat": 38.9364385, "is_disabled": 0, "type": "electric_scooter", "lon": -77.0249055, "bike_id": "00c2d7a0ebcca993f5bbdfc57b45d26c", "fusion_lat": 0.0, "name": "00c2d7a0ebcca993f5bbdfc57b45d26c", "is_reserved": 0, "rental_uris": {"android": "https://dc.lft.to/lastmile_qr_scan", "ios": "https://dc.lft.to/lastmile_qr_scan"}, "fusion_lon": 0.0}, {"lat": 38.908012166666666, "is_disabled": 0, "type": "electric_scooter", "lon": -77.063713, "bike_id": "dff830a02f01216dd3c2083e8b67a656", "fusion_lat": 0.0, "name": "dff830a02f01216dd3c2083e8b67a656", "is_reserved": 0, "rental_uris": {"android": "https://dc.lft.to/lastmile_qr_scan", "ios": "https://dc.lft.to/lastmile_qr_scan"}, "fusion_lon": 0.0}, {"lat": 38.92257083333333, "is_disabled": 0, "type": "electric_scooter", "lon": -77.04300716666667, "bike_id": "69a5aadcad96a7e77612ace71192c885", "fusion_lat": 0.0, "name": "69a5aadcad96a7e77612ace71192c885", "is_reserved": 0, "rental_uris": {"android": "https://dc.lft.to/lastmile_qr_scan", "ios": "https://dc.lft.to/lastmile_qr_scan"}, "fusion_lon": 0.0}, {"lat": 38.925302, "is_disabled": 0, "type": "electric_scooter", "lon": -77.04425783333333, "bike_id": "0b70dd4c6bb3be9e9fdda37099784698", "fusion_lat": 0.0, "name": "0b70dd4c6bb3be9e9fdda37099784698", "is_reserved": 0, "rental_uris": {"android": "https://dc.lft.to/lastmile_qr_scan", "ios": "https://dc.lft.to/lastmile_qr_scan"}, "fusion_lon": 0.0}, {"lat": 38.9148635, "is_disabled": 0, "type": "electric_scooter", "lon": -77.03259566666667, "bike_id": "8e994fb8bc775e437d11d015141a4d1c", "fusion_lat": 0.0, "name": "8e994fb8bc775e437d11d015141a4d1c", "is_reserved": 0, "rental_uris": {"android": "https://dc.lft.to/lastmile_qr_scan", "ios": "https://dc.lft.to/lastmile_qr_scan"}, "fusion_lon": 0.0}, {"lat": 38.89931283333333, "is_disabled": 0, "type": "electric_scooter", "lon": -77.00347833333333, "bike_id": "a86c2ebd4f4b2d8585b39eb6bc2ae3ed", "fusion_lat": 0.0, "name": "a86c2ebd4f4b2d8585b39eb6bc2ae3ed", "is_reserved": 0, "rental_uris": {"android": "https://dc.lft.to/lastmile_qr_scan", "ios": "https://dc.lft.to/lastmile_qr_scan"}, "fusion_lon": 0.0}, {"lat": 38.916904, "is_disabled": 0, "type": "electric_scooter", "lon": -77.0372215, "bike_id": "3f6310f4a09e919be53d202e74a6c12b", "fusion_lat": 0.0, "name": "3f6310f4a09e919be53d202e74a6c12b", "is_reserved": 0, "rental_uris": {"android": "https://dc.lft.to/lastmile_qr_scan", "ios": "https://dc.lft.to/lastmile_qr_scan"}, "fusion_lon": 0.0}, {"lat": 38.9285025, "is_disabled": 0, "type": "electric_bike", "lon": -77.1068035, "bike_id": "d55b4598476646d12558e71c8c0a334a", "fusion_lat": 0.0, "name": "d55b4598476646d12558e71c8c0a334a", "is_reserved": 0, "rental_uris": {"android": "https://dc.lft.to/lastmile_qr_scan", "ios": "https://dc.lft.to/lastmile_qr_scan"}, "fusion_lon": 0.0}, {"lat": 38.91195166666667, "is_disabled": 0, "type": "electric_scooter", "lon": -77.04477266666666, "bike_id": "70cf9d56f63f9e1caf789b9024f8cd0a", "fusion_lat": 0.0, "name": "70cf9d56f63f9e1caf789b9024f8cd0a", "is_reserved": 0, "rental_uris": {"android": "https://dc.lft.to/lastmile_qr_scan", "ios": "https://dc.lft.to/lastmile_qr_scan"}, "fusion_lon": 0.0}, {"lat": 38.907573666666664, "is_disabled": 0, "type": "electric_scooter", "lon": -77.04154966666667, "bike_id": "7ea86cc0a7b6c2fcebb07f19bcc1df3f", "fusion_lat": 0.0, "name": "7ea86cc0a7b6c2fcebb07f19bcc1df3f", "is_reserved": 0, "rental_uris": {"android": "https://dc.lft.to/lastmile_qr_scan", "ios": "https://dc.lft.to/lastmile_qr_scan"}, "fusion_lon": 0.0}, {"lat": 38.90639383333333, "is_disabled": 0, "type": "electric_scooter", "lon": -77.00583566666667, "bike_id": "81a70d3e7513e77dc139b4c1bc587c17", "fusion_lat": 0.0, "name": "81a70d3e7513e77dc139b4c1bc587c17", "is_reserved": 0, "rental_uris": {"android": "https://dc.lft.to/lastmile_qr_scan", "ios": "https://dc.lft.to/lastmile_qr_scan"}, "fusion_lon": 0.0}, {"lat": 38.9062175, "is_disabled": 0, "type": "electric_scooter", "lon": -77.02185666666666, "bike_id": "2506cf8f353d83c542c952b7c3979291", "fusion_lat": 0.0, "name": "2506cf8f353d83c542c952b7c3979291", "is_reserved": 0, "rental_uris": {"android": "https://dc.lft.to/lastmile_qr_scan", "ios": "https://dc.lft.to/lastmile_qr_scan"}, "fusion_lon": 0.0}, {"lat": 38.9021385, "is_disabled": 0, "type": "electric_scooter", "lon": -77.0212905, "bike_id": "dd237419b82617dabfa751bef4981909", "fusion_lat": 0.0, "name": "dd237419b82617dabfa751bef4981909", "is_reserved": 0, "rental_uris": {"android": "https://dc.lft.to/lastmile_qr_scan", "ios": "https://dc.lft.to/lastmile_qr_scan"}, "fusion_lon": 0.0}, {"lat": 38.9149135, "is_disabled": 0, "type": "electric_scooter", "lon": -76.98388333333334, "bike_id": "a96baeb0ddf6b7c09cec361a2912598a", "fusion_lat": 0.0, "name": "a96baeb0ddf6b7c09cec361a2912598a", "is_reserved": 0, "rental_uris": {"android": "https://dc.lft.to/lastmile_qr_scan", "ios": "https://dc.lft.to/lastmile_qr_scan"}, "fusion_lon": 0.0}, {"lat": 38.8827955, "is_disabled": 0, "type": "electric_bike", "lon": -76.93238016666666, "bike_id": "9436614cb68f036c474f3927a04c6b6a", "fusion_lat": 0.0, "name": "9436614cb68f036c474f3927a04c6b6a", "is_reserved": 0, "rental_uris": {"android": "https://dc.lft.to/lastmile_qr_scan", "ios": "https://dc.lft.to/lastmile_qr_scan"}, "fusion_lon": 0.0}, {"lat": 38.908760666666666, "is_disabled": 0, "type": "electric_scooter", "lon": -77.0365425, "bike_id": "0567963f1f32fb299c3d57d85fd3cfb0", "fusion_lat": 0.0, "name": "0567963f1f32fb299c3d57d85fd3cfb0", "is_reserved": 0, "rental_uris": {"android": "https://dc.lft.to/lastmile_qr_scan", "ios": "https://dc.lft.to/lastmile_qr_scan"}, "fusion_lon": 0.0}, {"lat": 38.95735783333333, "is_disabled": 0, "type": "electric_scooter", "lon": -77.02383966666666, "bike_id": "5567d78208b77035c99b3a3b13823d55", "fusion_lat": 0.0, "name": "5567d78208b77035c99b3a3b13823d55", "is_reserved": 0, "rental_uris": {"android": "https://dc.lft.to/lastmile_qr_scan", "ios": "https://dc.lft.to/lastmile_qr_scan"}, "fusion_lon": 0.0}, {"lat": 38.866170333333336, "is_disabled": 0, "type": "electric_scooter", "lon": -76.9866625, "bike_id": "dc089bb2bc92e14c4c3f0c7d3ee982ab", "fusion_lat": 0.0, "name": "dc089bb2bc92e14c4c3f0c7d3ee982ab", "is_reserved": 0, "rental_uris": {"android": "https://dc.lft.to/lastmile_qr_scan", "ios": "https://dc.lft.to/lastmile_qr_scan"}, "fusion_lon": 0.0}, {"lat": 38.90751566666667, "is_disabled": 0, "type": "electric_scooter", "lon": -77.03197933333334, "bike_id": "d9bc1bdaf711b9ab674c135e6769e510", "fusion_lat": 0.0, "name": "d9bc1bdaf711b9ab674c135e6769e510", "is_reserved": 0, "rental_uris": {"android": "https://dc.lft.to/lastmile_qr_scan", "ios": "https://dc.lft.to/lastmile_qr_scan"}, "fusion_lon": 0.0}, {"lat": 38.9357935, "is_disabled": 0, "type": "electric_scooter", "lon": -77.03758066666667, "bike_id": "97691015257e50e3cd8f19e2cf09b6f8", "fusion_lat": 0.0, "name": "97691015257e50e3cd8f19e2cf09b6f8", "is_reserved": 0, "rental_uris": {"android": "https://dc.lft.to/lastmile_qr_scan", "ios": "https://dc.lft.to/lastmile_qr_scan"}, "fusion_lon": 0.0}, {"lat": 38.90336466666667, "is_disabled": 0, "type": "electric_scooter", "lon": -76.97057583333333, "bike_id": "002f8f381c8756506cfe327d00f529ae", "fusion_lat": 0.0, "name": "002f8f381c8756506cfe327d00f529ae", "is_reserved": 0, "rental_uris": {"android": "https://dc.lft.to/lastmile_qr_scan", "ios": "https://dc.lft.to/lastmile_qr_scan"}, "fusion_lon": 0.0}, {"lat": 38.901441166666665, "is_disabled": 0, "type": "electric_scooter", "lon": -77.05104516666667, "bike_id": "f8376c492202cea61a117e4772974f52", "fusion_lat": 0.0, "name": "f8376c492202cea61a117e4772974f52", "is_reserved": 0, "rental_uris": {"android": "https://dc.lft.to/lastmile_qr_scan", "ios": "https://dc.lft.to/lastmile_qr_scan"}, "fusion_lon": 0.0}, {"lat": 38.89430466666666, "is_disabled": 0, "type": "electric_scooter", "lon": -77.02095766666666, "bike_id": "ab018d6d1e07db46a7423aaddab2da56", "fusion_lat": 0.0, "name": "ab018d6d1e07db46a7423aaddab2da56", "is_reserved": 0, "rental_uris": {"android": "https://dc.lft.to/lastmile_qr_scan", "ios": "https://dc.lft.to/lastmile_qr_scan"}, "fusion_lon": 0.0}, {"lat": 38.9507495, "is_disabled": 0, "type": "electric_bike", "lon": -77.0119425, "bike_id": "d4dc7b9f41e2a312e01e3de5cb2b6585", "fusion_lat": 0.0, "name": "d4dc7b9f41e2a312e01e3de5cb2b6585", "is_reserved": 0, "rental_uris": {"android": "https://dc.lft.to/lastmile_qr_scan", "ios": "https://dc.lft.to/lastmile_qr_scan"}, "fusion_lon": 0.0}, {"lat": 38.926027, "is_disabled": 0, "type": "electric_scooter", "lon": -77.02159266666666, "bike_id": "1e76f4c4056b572f2df1a416038ef5a7", "fusion_lat": 0.0, "name": "1e76f4c4056b572f2df1a416038ef5a7", "is_reserved": 0, "rental_uris": {"android": "https://dc.lft.to/lastmile_qr_scan", "ios": "https://dc.lft.to/lastmile_qr_scan"}, "fusion_lon": 0.0}, {"lat": 38.9399075, "is_disabled": 0, "type": "electric_scooter", "lon": -77.02093833333333, "bike_id": "3fefffbf024b5d5765b2adb4275a37ba", "fusion_lat": 0.0, "name": "3fefffbf024b5d5765b2adb4275a37ba", "is_reserved": 0, "rental_uris": {"android": "https://dc.lft.to/lastmile_qr_scan", "ios": "https://dc.lft.to/lastmile_qr_scan"}, "fusion_lon": 0.0}, {"lat": 38.9273285, "is_disabled": 0, "type": "electric_scooter", "lon": -77.022445, "bike_id": "8ae0344deeaa4ed898e97cfa24ecbeed", "fusion_lat": 0.0, "name": "8ae0344deeaa4ed898e97cfa24ecbeed", "is_reserved": 0, "rental_uris": {"android": "https://dc.lft.to/lastmile_qr_scan", "ios": "https://dc.lft.to/lastmile_qr_scan"}, "fusion_lon": 0.0}, {"lat": 38.913151666666664, "is_disabled": 0, "type": "electric_scooter", "lon": -77.0450345, "bike_id": "ebed2b702d13f36e2ef027818e669ba1", "fusion_lat": 0.0, "name": "ebed2b702d13f36e2ef027818e669ba1", "is_reserved": 0, "rental_uris": {"android": "https://dc.lft.to/lastmile_qr_scan", "ios": "https://dc.lft.to/lastmile_qr_scan"}, "fusion_lon": 0.0}, {"lat": 38.88594766666667, "is_disabled": 0, "type": "electric_scooter", "lon": -77.02205733333334, "bike_id": "89db9a0bafaf0e83aef00c1cca5d36c9", "fusion_lat": 0.0, "name": "89db9a0bafaf0e83aef00c1cca5d36c9", "is_reserved": 0, "rental_uris": {"android": "https://dc.lft.to/lastmile_qr_scan", "ios": "https://dc.lft.to/lastmile_qr_scan"}, "fusion_lon": 0.0}, {"lat": 38.920579000000004, "is_disabled": 0, "type": "electric_scooter", "lon": -77.033887, "bike_id": "9b8ced06d7a4a8bda4ca540eedd46842", "fusion_lat": 0.0, "name": "9b8ced06d7a4a8bda4ca540eedd46842", "is_reserved": 0, "rental_uris": {"android": "https://dc.lft.to/lastmile_qr_scan", "ios": "https://dc.lft.to/lastmile_qr_scan"}, "fusion_lon": 0.0}, {"lat": 38.9043065, "is_disabled": 0, "type": "electric_scooter", "lon": -77.05332866666667, "bike_id": "0622dab478b3cefe34d2b3a4059b461b", "fusion_lat": 0.0, "name": "0622dab478b3cefe34d2b3a4059b461b", "is_reserved": 0, "rental_uris": {"android": "https://dc.lft.to/lastmile_qr_scan", "ios": "https://dc.lft.to/lastmile_qr_scan"}, "fusion_lon": 0.0}, {"lat": 38.926996, "is_disabled": 0, "type": "electric_scooter", "lon": -77.015019, "bike_id": "cf444d466addd12b3fb25372cc075952", "fusion_lat": 0.0, "name": "cf444d466addd12b3fb25372cc075952", "is_reserved": 0, "rental_uris": {"android": "https://dc.lft.to/lastmile_qr_scan", "ios": "https://dc.lft.to/lastmile_qr_scan"}, "fusion_lon": 0.0}, {"lat": 38.93386366666667, "is_disabled": 0, "type": "electric_scooter", "lon": -77.03247483333334, "bike_id": "f1f2407b7e0d5128efab8640b8b19572", "fusion_lat": 0.0, "name": "f1f2407b7e0d5128efab8640b8b19572", "is_reserved": 0, "rental_uris": {"android": "https://dc.lft.to/lastmile_qr_scan", "ios": "https://dc.lft.to/lastmile_qr_scan"}, "fusion_lon": 0.0}, {"lat": 38.928434333333335, "is_disabled": 0, "type": "electric_scooter", "lon": -77.032744, "bike_id": "2932ef6440ab03baed47943f85b7df13", "fusion_lat": 0.0, "name": "2932ef6440ab03baed47943f85b7df13", "is_reserved": 0, "rental_uris": {"android": "https://dc.lft.to/lastmile_qr_scan", "ios": "https://dc.lft.to/lastmile_qr_scan"}, "fusion_lon": 0.0}, {"lat": 38.914159166666664, "is_disabled": 0, "type": "electric_scooter", "lon": -77.02949483333333, "bike_id": "4208a8a327cb461c52b01d79b3d1b1cf", "fusion_lat": 0.0, "name": "4208a8a327cb461c52b01d79b3d1b1cf", "is_reserved": 0, "rental_uris": {"android": "https://dc.lft.to/lastmile_qr_scan", "ios": "https://dc.lft.to/lastmile_qr_scan"}, "fusion_lon": 0.0}, {"lat": 38.910605333333336, "is_disabled": 0, "type": "electric_scooter", "lon": -77.052469, "bike_id": "1775953ed68b5f8626f82e2193946de9", "fusion_lat": 0.0, "name": "1775953ed68b5f8626f82e2193946de9", "is_reserved": 0, "rental_uris": {"android": "https://dc.lft.to/lastmile_qr_scan", "ios": "https://dc.lft.to/lastmile_qr_scan"}, "fusion_lon": 0.0}, {"lat": 38.90268566666667, "is_disabled": 0, "type": "electric_scooter", "lon": -77.03636416666667, "bike_id": "cfe027b5c2eab8c1808e4283fe3e9ad3", "fusion_lat": 0.0, "name": "cfe027b5c2eab8c1808e4283fe3e9ad3", "is_reserved": 0, "rental_uris": {"android": "https://dc.lft.to/lastmile_qr_scan", "ios": "https://dc.lft.to/lastmile_qr_scan"}, "fusion_lon": 0.0}, {"lat": 38.902594666666666, "is_disabled": 0, "type": "electric_scooter", "lon": -77.04375933333333, "bike_id": "68a6c11001d8d1bab3f617573dab8f4f", "fusion_lat": 0.0, "name": "68a6c11001d8d1bab3f617573dab8f4f", "is_reserved": 0, "rental_uris": {"android": "https://dc.lft.to/lastmile_qr_scan", "ios": "https://dc.lft.to/lastmile_qr_scan"}, "fusion_lon": 0.0}, {"lat": 38.802247333333334, "is_disabled": 0, "type": "electric_bike", "lon": -77.079154, "bike_id": "1bb30fbd4eff5c3db2f955924ea60abc", "fusion_lat": 0.0, "name": "1bb30fbd4eff5c3db2f955924ea60abc", "is_reserved": 0, "rental_uris": {"android": "https://dc.lft.to/lastmile_qr_scan", "ios": "https://dc.lft.to/lastmile_qr_scan"}, "fusion_lon": 0.0}, {"lat": 38.910622000000004, "is_disabled": 0, "type": "electric_scooter", "lon": -77.02659616666666, "bike_id": "00fe98bc763acd8b3b82c2ecbfb1617c", "fusion_lat": 0.0, "name": "00fe98bc763acd8b3b82c2ecbfb1617c", "is_reserved": 0, "rental_uris": {"android": "https://dc.lft.to/lastmile_qr_scan", "ios": "https://dc.lft.to/lastmile_qr_scan"}, "fusion_lon": 0.0}, {"lat": 38.92797016666667, "is_disabled": 0, "type": "electric_scooter", "lon": -77.02599516666666, "bike_id": "47ae9d5d625355f50b2ac353a794ecee", "fusion_lat": 0.0, "name": "47ae9d5d625355f50b2ac353a794ecee", "is_reserved": 0, "rental_uris": {"android": "https://dc.lft.to/lastmile_qr_scan", "ios": "https://dc.lft.to/lastmile_qr_scan"}, "fusion_lon": 0.0}, {"lat": 38.907603333333334, "is_disabled": 0, "type": "electric_scooter", "lon": -77.034626, "bike_id": "bf48f657ef2aa7e1b5262429789915e9", "fusion_lat": 0.0, "name": "bf48f657ef2aa7e1b5262429789915e9", "is_reserved": 0, "rental_uris": {"android": "https://dc.lft.to/lastmile_qr_scan", "ios": "https://dc.lft.to/lastmile_qr_scan"}, "fusion_lon": 0.0}, {"lat": 38.911061333333336, "is_disabled": 0, "type": "electric_scooter", "lon": -77.04233983333333, "bike_id": "1df0a5236e15a2b6a790a15bd6bce062", "fusion_lat": 0.0, "name": "1df0a5236e15a2b6a790a15bd6bce062", "is_reserved": 0, "rental_uris": {"android": "https://dc.lft.to/lastmile_qr_scan", "ios": "https://dc.lft.to/lastmile_qr_scan"}, "fusion_lon": 0.0}, {"lat": 38.86359816666667, "is_disabled": 0, "type": "electric_scooter", "lon": -76.990416, "bike_id": "a2eb5178889d41ee771e31c6cb39ff63", "fusion_lat": 0.0, "name": "a2eb5178889d41ee771e31c6cb39ff63", "is_reserved": 0, "rental_uris": {"android": "https://dc.lft.to/lastmile_qr_scan", "ios": "https://dc.lft.to/lastmile_qr_scan"}, "fusion_lon": 0.0}, {"lat": 38.92549233333333, "is_disabled": 0, "type": "electric_scooter", "lon": -77.03226066666667, "bike_id": "d5064d176665b04e74248a2db2f8aff4", "fusion_lat": 0.0, "name": "d5064d176665b04e74248a2db2f8aff4", "is_reserved": 0, "rental_uris": {"android": "https://dc.lft.to/lastmile_qr_scan", "ios": "https://dc.lft.to/lastmile_qr_scan"}, "fusion_lon": 0.0}, {"lat": 38.92437483333333, "is_disabled": 0, "type": "electric_scooter", "lon": -77.052165, "bike_id": "336c7d774f6d9fe480c832cfb20857bc", "fusion_lat": 0.0, "name": "336c7d774f6d9fe480c832cfb20857bc", "is_reserved": 0, "rental_uris": {"android": "https://dc.lft.to/lastmile_qr_scan", "ios": "https://dc.lft.to/lastmile_qr_scan"}, "fusion_lon": 0.0}, {"lat": 38.915353833333334, "is_disabled": 0, "type": "electric_scooter", "lon": -77.03185366666666, "bike_id": "08caffcc0edaf266ee914328d0c07cfe", "fusion_lat": 0.0, "name": "08caffcc0edaf266ee914328d0c07cfe", "is_reserved": 0, "rental_uris": {"android": "https://dc.lft.to/lastmile_qr_scan", "ios": "https://dc.lft.to/lastmile_qr_scan"}, "fusion_lon": 0.0}, {"lat": 38.917713, "is_disabled": 0, "type": "electric_scooter", "lon": -77.047806, "bike_id": "8a7b8ac8c7e5aa555ac7487df3c24e2a", "fusion_lat": 0.0, "name": "8a7b8ac8c7e5aa555ac7487df3c24e2a", "is_reserved": 0, "rental_uris": {"android": "https://dc.lft.to/lastmile_qr_scan", "ios": "https://dc.lft.to/lastmile_qr_scan"}, "fusion_lon": 0.0}, {"lat": 38.917711833333335, "is_disabled": 0, "type": "electric_scooter", "lon": -77.0290625, "bike_id": "ee744ded49ccf754b03ae4e4c689ef0e", "fusion_lat": 0.0, "name": "ee744ded49ccf754b03ae4e4c689ef0e", "is_reserved": 0, "rental_uris": {"android": "https://dc.lft.to/lastmile_qr_scan", "ios": "https://dc.lft.to/lastmile_qr_scan"}, "fusion_lon": 0.0}, {"lat": 38.92202566666667, "is_disabled": 0, "type": "electric_scooter", "lon": -76.956617, "bike_id": "dd4809e3a96df75b03cdba40febf12e8", "fusion_lat": 0.0, "name": "dd4809e3a96df75b03cdba40febf12e8", "is_reserved": 0, "rental_uris": {"android": "https://dc.lft.to/lastmile_qr_scan", "ios": "https://dc.lft.to/lastmile_qr_scan"}, "fusion_lon": 0.0}, {"lat": 39.08852683333333, "is_disabled": 0, "type": "electric_bike", "lon": -77.1784485, "bike_id": "21fc8a98bc09f376998a0dc406b7efb5", "fusion_lat": 0.0, "name": "21fc8a98bc09f376998a0dc406b7efb5", "is_reserved": 0, "rental_uris": {"android": "https://dc.lft.to/lastmile_qr_scan", "ios": "https://dc.lft.to/lastmile_qr_scan"}, "fusion_lon": 0.0}, {"lat": 38.928544333333335, "is_disabled": 0, "type": "electric_bike", "lon": -77.22203883333333, "bike_id": "79ccbb1631a7dac1625c657c5052872b", "fusion_lat": 0.0, "name": "79ccbb1631a7dac1625c657c5052872b", "is_reserved": 0, "rental_uris": {"android": "https://dc.lft.to/lastmile_qr_scan", "ios": "https://dc.lft.to/lastmile_qr_scan"}, "fusion_lon": 0.0}, {"lat": 38.96556366666667, "is_disabled": 0, "type": "electric_bike", "lon": -77.02040633333333, "bike_id": "e1681cde8170de99be357bea064b3a12", "fusion_lat": 0.0, "name": "e1681cde8170de99be357bea064b3a12", "is_reserved": 0, "rental_uris": {"android": "https://dc.lft.to/lastmile_qr_scan", "ios": "https://dc.lft.to/lastmile_qr_scan"}, "fusion_lon": 0.0}, {"lat": 38.90177283333333, "is_disabled": 0, "type": "electric_scooter", "lon": -77.050098, "bike_id": "213a2b744d96969c050ec14488836e1e", "fusion_lat": 0.0, "name": "213a2b744d96969c050ec14488836e1e", "is_reserved": 0, "rental_uris": {"android": "https://dc.lft.to/lastmile_qr_scan", "ios": "https://dc.lft.to/lastmile_qr_scan"}, "fusion_lon": 0.0}, {"lat": 38.90633283333333, "is_disabled": 0, "type": "electric_scooter", "lon": -77.03141583333333, "bike_id": "7e5ce853783fa856a5527deafde1c85e", "fusion_lat": 0.0, "name": "7e5ce853783fa856a5527deafde1c85e", "is_reserved": 0, "rental_uris": {"android": "https://dc.lft.to/lastmile_qr_scan", "ios": "https://dc.lft.to/lastmile_qr_scan"}, "fusion_lon": 0.0}, {"lat": 38.90317783333333, "is_disabled": 0, "type": "electric_scooter", "lon": -77.028818, "bike_id": "00260dcf5627b82709570cb614126a03", "fusion_lat": 0.0, "name": "00260dcf5627b82709570cb614126a03", "is_reserved": 0, "rental_uris": {"android": "https://dc.lft.to/lastmile_qr_scan", "ios": "https://dc.lft.to/lastmile_qr_scan"}, "fusion_lon": 0.0}, {"lat": 38.93318433333334, "is_disabled": 0, "type": "electric_scooter", "lon": -77.04530433333333, "bike_id": "72630d0a534b0edf136c92effd0f84dd", "fusion_lat": 0.0, "name": "72630d0a534b0edf136c92effd0f84dd", "is_reserved": 0, "rental_uris": {"android": "https://dc.lft.to/lastmile_qr_scan", "ios": "https://dc.lft.to/lastmile_qr_scan"}, "fusion_lon": 0.0}, {"lat": 38.97229816666667, "is_disabled": 0, "type": "electric_bike", "lon": -76.99342833333333, "bike_id": "64d23dfbdbee29159e1feda73caa2114", "fusion_lat": 0.0, "name": "64d23dfbdbee29159e1feda73caa2114", "is_reserved": 0, "rental_uris": {"android": "https://dc.lft.to/lastmile_qr_scan", "ios": "https://dc.lft.to/lastmile_qr_scan"}, "fusion_lon": 0.0}, {"lat": 38.90832566666667, "is_disabled": 0, "type": "electric_scooter", "lon": -76.99692833333333, "bike_id": "00ea10f8ce3f0ca9c509ffcac61d31b1", "fusion_lat": 0.0, "name": "00ea10f8ce3f0ca9c509ffcac61d31b1", "is_reserved": 0, "rental_uris": {"android": "https://dc.lft.to/lastmile_qr_scan", "ios": "https://dc.lft.to/lastmile_qr_scan"}, "fusion_lon": 0.0}, {"lat": 38.90328616666667, "is_disabled": 0, "type": "electric_scooter", "lon": -77.0376525, "bike_id": "d6bf6eec8fd9a8255f929b754000a2c8", "fusion_lat": 0.0, "name": "d6bf6eec8fd9a8255f929b754000a2c8", "is_reserved": 0, "rental_uris": {"android": "https://dc.lft.to/lastmile_qr_scan", "ios": "https://dc.lft.to/lastmile_qr_scan"}, "fusion_lon": 0.0}, {"lat": 38.9489345, "is_disabled": 0, "type": "electric_scooter", "lon": -77.03048733333334, "bike_id": "1af9a820d4fdff9456b694238468ee52", "fusion_lat": 0.0, "name": "1af9a820d4fdff9456b694238468ee52", "is_reserved": 0, "rental_uris": {"android": "https://dc.lft.to/lastmile_qr_scan", "ios": "https://dc.lft.to/lastmile_qr_scan"}, "fusion_lon": 0.0}, {"lat": 38.922395, "is_disabled": 0, "type": "electric_scooter", "lon": -77.045715, "bike_id": "17f329edfd0b303dc17da42d07d8a088", "fusion_lat": 0.0, "name": "17f329edfd0b303dc17da42d07d8a088", "is_reserved": 0, "rental_uris": {"android": "https://dc.lft.to/lastmile_qr_scan", "ios": "https://dc.lft.to/lastmile_qr_scan"}, "fusion_lon": 0.0}, {"lat": 38.901612666666665, "is_disabled": 0, "type": "electric_scooter", "lon": -77.020124, "bike_id": "b1b495b01bb2a6a654cbb87f24a09617", "fusion_lat": 0.0, "name": "b1b495b01bb2a6a654cbb87f24a09617", "is_reserved": 0, "rental_uris": {"android": "https://dc.lft.to/lastmile_qr_scan", "ios": "https://dc.lft.to/lastmile_qr_scan"}, "fusion_lon": 0.0}, {"lat": 38.90354133333334, "is_disabled": 0, "type": "electric_scooter", "lon": -77.05073366666667, "bike_id": "0b4bd923dc2b6b00fedc64c9e48c3e39", "fusion_lat": 0.0, "name": "0b4bd923dc2b6b00fedc64c9e48c3e39", "is_reserved": 0, "rental_uris": {"android": "https://dc.lft.to/lastmile_qr_scan", "ios": "https://dc.lft.to/lastmile_qr_scan"}, "fusion_lon": 0.0}, {"lat": 38.90024916666667, "is_disabled": 0, "type": "electric_scooter", "lon": -77.03318933333334, "bike_id": "31ec6d323cac9e785f5c6b823987699a", "fusion_lat": 0.0, "name": "31ec6d323cac9e785f5c6b823987699a", "is_reserved": 0, "rental_uris": {"android": "https://dc.lft.to/lastmile_qr_scan", "ios": "https://dc.lft.to/lastmile_qr_scan"}, "fusion_lon": 0.0}, {"lat": 38.89215316666667, "is_disabled": 0, "type": "electric_scooter", "lon": -77.02836333333333, "bike_id": "a11b3c6ebd5aeb6f042ab91bc10e1a7e", "fusion_lat": 0.0, "name": "a11b3c6ebd5aeb6f042ab91bc10e1a7e", "is_reserved": 0, "rental_uris": {"android": "https://dc.lft.to/lastmile_qr_scan", "ios": "https://dc.lft.to/lastmile_qr_scan"}, "fusion_lon": 0.0}, {"lat": 38.89221833333333, "is_disabled": 0, "type": "electric_scooter", "lon": -76.9329945, "bike_id": "c43c449b77d8a24327506515929826b9", "fusion_lat": 0.0, "name": "c43c449b77d8a24327506515929826b9", "is_reserved": 0, "rental_uris": {"android": "https://dc.lft.to/lastmile_qr_scan", "ios": "https://dc.lft.to/lastmile_qr_scan"}, "fusion_lon": 0.0}, {"lat": 38.865069166666665, "is_disabled": 0, "type": "electric_scooter", "lon": -76.99008516666666, "bike_id": "d0ae7b8d8db91f8920148fdee2c59029", "fusion_lat": 0.0, "name": "d0ae7b8d8db91f8920148fdee2c59029", "is_reserved": 0, "rental_uris": {"android": "https://dc.lft.to/lastmile_qr_scan", "ios": "https://dc.lft.to/lastmile_qr_scan"}, "fusion_lon": 0.0}, {"lat": 38.937547, "is_disabled": 0, "type": "electric_scooter", "lon": -77.03257583333334, "bike_id": "cfeaae36b9907562a0b7a631e63d1115", "fusion_lat": 0.0, "name": "cfeaae36b9907562a0b7a631e63d1115", "is_reserved": 0, "rental_uris": {"android": "https://dc.lft.to/lastmile_qr_scan", "ios": "https://dc.lft.to/lastmile_qr_scan"}, "fusion_lon": 0.0}, {"lat": 38.900863666666666, "is_disabled": 0, "type": "electric_scooter", "lon": -77.05616183333333, "bike_id": "276283474e941a684f928ff7fc4bd65c", "fusion_lat": 0.0, "name": "276283474e941a684f928ff7fc4bd65c", "is_reserved": 0, "rental_uris": {"android": "https://dc.lft.to/lastmile_qr_scan", "ios": "https://dc.lft.to/lastmile_qr_scan"}, "fusion_lon": 0.0}, {"lat": 38.899680833333335, "is_disabled": 0, "type": "electric_scooter", "lon": -77.01910583333333, "bike_id": "56cd5ed44b6a6fc85a30f5188fb51a68", "fusion_lat": 0.0, "name": "56cd5ed44b6a6fc85a30f5188fb51a68", "is_reserved": 0, "rental_uris": {"android": "https://dc.lft.to/lastmile_qr_scan", "ios": "https://dc.lft.to/lastmile_qr_scan"}, "fusion_lon": 0.0}, {"lat": 38.91058433333333, "is_disabled": 0, "type": "electric_scooter", "lon": -77.04273383333333, "bike_id": "5b2c620604f8082bdd33fa8ac95acaad", "fusion_lat": 0.0, "name": "5b2c620604f8082bdd33fa8ac95acaad", "is_reserved": 0, "rental_uris": {"android": "https://dc.lft.to/lastmile_qr_scan", "ios": "https://dc.lft.to/lastmile_qr_scan"}, "fusion_lon": 0.0}, {"lat": 38.917073333333335, "is_disabled": 0, "type": "electric_scooter", "lon": -77.03222683333334, "bike_id": "c350a0c7fb1f13c3ace065e2a32eacd8", "fusion_lat": 0.0, "name": "c350a0c7fb1f13c3ace065e2a32eacd8", "is_reserved": 0, "rental_uris": {"android": "https://dc.lft.to/lastmile_qr_scan", "ios": "https://dc.lft.to/lastmile_qr_scan"}, "fusion_lon": 0.0}, {"lat": 38.9174805, "is_disabled": 0, "type": "electric_scooter", "lon": -77.0359805, "bike_id": "4f9e8a7e20a3c418ca847c0c66d02c70", "fusion_lat": 0.0, "name": "4f9e8a7e20a3c418ca847c0c66d02c70", "is_reserved": 0, "rental_uris": {"android": "https://dc.lft.to/lastmile_qr_scan", "ios": "https://dc.lft.to/lastmile_qr_scan"}, "fusion_lon": 0.0}, {"lat": 38.9171125, "is_disabled": 0, "type": "electric_scooter", "lon": -77.0414715, "bike_id": "dcb3a4f02299d9860abfc0e388c360c6", "fusion_lat": 0.0, "name": "dcb3a4f02299d9860abfc0e388c360c6", "is_reserved": 0, "rental_uris": {"android": "https://dc.lft.to/lastmile_qr_scan", "ios": "https://dc.lft.to/lastmile_qr_scan"}, "fusion_lon": 0.0}, {"lat": 38.94822283333333, "is_disabled": 0, "type": "electric_scooter", "lon": -76.999034, "bike_id": "c43d9cae98d13c6586309044be4b0345", "fusion_lat": 0.0, "name": "c43d9cae98d13c6586309044be4b0345", "is_reserved": 0, "rental_uris": {"android": "https://dc.lft.to/lastmile_qr_scan", "ios": "https://dc.lft.to/lastmile_qr_scan"}, "fusion_lon": 0.0}, {"lat": 38.89995183333333, "is_disabled": 0, "type": "electric_scooter", "lon": -77.04229133333334, "bike_id": "879921b0e0548dfc184d9108992b1fa8", "fusion_lat": 0.0, "name": "879921b0e0548dfc184d9108992b1fa8", "is_reserved": 0, "rental_uris": {"android": "https://dc.lft.to/lastmile_qr_scan", "ios": "https://dc.lft.to/lastmile_qr_scan"}, "fusion_lon": 0.0}, {"lat": 38.90436033333334, "is_disabled": 0, "type": "electric_scooter", "lon": -77.05094033333333, "bike_id": "d29321d4a3f93d6aeaf8e36118e700d7", "fusion_lat": 0.0, "name": "d29321d4a3f93d6aeaf8e36118e700d7", "is_reserved": 0, "rental_uris": {"android": "https://dc.lft.to/lastmile_qr_scan", "ios": "https://dc.lft.to/lastmile_qr_scan"}, "fusion_lon": 0.0}, {"lat": 38.88684583333333, "is_disabled": 0, "type": "electric_bike", "lon": -77.16240333333333, "bike_id": "7b28beec2bb859219cc741e68fe9a266", "fusion_lat": 0.0, "name": "7b28beec2bb859219cc741e68fe9a266", "is_reserved": 0, "rental_uris": {"android": "https://dc.lft.to/lastmile_qr_scan", "ios": "https://dc.lft.to/lastmile_qr_scan"}, "fusion_lon": 0.0}, {"lat": 38.908250833333334, "is_disabled": 0, "type": "electric_scooter", "lon": -77.02010516666667, "bike_id": "7c63f4bc27438a0d321d4cdc67facabc", "fusion_lat": 0.0, "name": "7c63f4bc27438a0d321d4cdc67facabc", "is_reserved": 0, "rental_uris": {"android": "https://dc.lft.to/lastmile_qr_scan", "ios": "https://dc.lft.to/lastmile_qr_scan"}, "fusion_lon": 0.0}, {"lat": 38.906628833333336, "is_disabled": 0, "type": "electric_scooter", "lon": -77.00821816666667, "bike_id": "53445926989dc212f2b12e06d1674329", "fusion_lat": 0.0, "name": "53445926989dc212f2b12e06d1674329", "is_reserved": 0, "rental_uris": {"android": "https://dc.lft.to/lastmile_qr_scan", "ios": "https://dc.lft.to/lastmile_qr_scan"}, "fusion_lon": 0.0}, {"lat": 38.933873, "is_disabled": 0, "type": "electric_scooter", "lon": -77.03549733333334, "bike_id": "18586ffef0299e2cbc70b68c8a012e15", "fusion_lat": 0.0, "name": "18586ffef0299e2cbc70b68c8a012e15", "is_reserved": 0, "rental_uris": {"android": "https://dc.lft.to/lastmile_qr_scan", "ios": "https://dc.lft.to/lastmile_qr_scan"}, "fusion_lon": 0.0}, {"lat": 38.9289725, "is_disabled": 0, "type": "electric_scooter", "lon": -77.01633966666667, "bike_id": "fbd016303d9b2479867f05189bf786c0", "fusion_lat": 0.0, "name": "fbd016303d9b2479867f05189bf786c0", "is_reserved": 0, "rental_uris": {"android": "https://dc.lft.to/lastmile_qr_scan", "ios": "https://dc.lft.to/lastmile_qr_scan"}, "fusion_lon": 0.0}, {"lat": 38.8859775, "is_disabled": 0, "type": "electric_scooter", "lon": -77.01889733333333, "bike_id": "3111b6b5a28e470971c2b0277177d4dc", "fusion_lat": 0.0, "name": "3111b6b5a28e470971c2b0277177d4dc", "is_reserved": 0, "rental_uris": {"android": "https://dc.lft.to/lastmile_qr_scan", "ios": "https://dc.lft.to/lastmile_qr_scan"}, "fusion_lon": 0.0}, {"lat": 38.885475166666666, "is_disabled": 0, "type": "electric_bike", "lon": -77.11788683333333, "bike_id": "670c81daf2969d8d8681752bbdb43eb4", "fusion_lat": 0.0, "name": "670c81daf2969d8d8681752bbdb43eb4", "is_reserved": 0, "rental_uris": {"android": "https://dc.lft.to/lastmile_qr_scan", "ios": "https://dc.lft.to/lastmile_qr_scan"}, "fusion_lon": 0.0}, {"lat": 38.90395916666667, "is_disabled": 0, "type": "electric_scooter", "lon": -76.990063, "bike_id": "8b662f71051f45b7e143fe7700cd8151", "fusion_lat": 0.0, "name": "8b662f71051f45b7e143fe7700cd8151", "is_reserved": 0, "rental_uris": {"android": "https://dc.lft.to/lastmile_qr_scan", "ios": "https://dc.lft.to/lastmile_qr_scan"}, "fusion_lon": 0.0}, {"lat": 38.95709383333333, "is_disabled": 0, "type": "electric_scooter", "lon": -77.02401266666666, "bike_id": "8d5a0fa7e309846beb94d31ed32e186f", "fusion_lat": 0.0, "name": "8d5a0fa7e309846beb94d31ed32e186f", "is_reserved": 0, "rental_uris": {"android": "https://dc.lft.to/lastmile_qr_scan", "ios": "https://dc.lft.to/lastmile_qr_scan"}, "fusion_lon": 0.0}, {"lat": 38.916954, "is_disabled": 0, "type": "electric_scooter", "lon": -77.042859, "bike_id": "cbaa71eaa8e3f04b454b7f87e1eefcae", "fusion_lat": 0.0, "name": "cbaa71eaa8e3f04b454b7f87e1eefcae", "is_reserved": 0, "rental_uris": {"android": "https://dc.lft.to/lastmile_qr_scan", "ios": "https://dc.lft.to/lastmile_qr_scan"}, "fusion_lon": 0.0}, {"lat": 38.93605133333333, "is_disabled": 0, "type": "electric_scooter", "lon": -77.03531, "bike_id": "b56a02f3d6b04d161d98f3fa54d2ee3c", "fusion_lat": 0.0, "name": "b56a02f3d6b04d161d98f3fa54d2ee3c", "is_reserved": 0, "rental_uris": {"android": "https://dc.lft.to/lastmile_qr_scan", "ios": "https://dc.lft.to/lastmile_qr_scan"}, "fusion_lon": 0.0}, {"lat": 38.9168885, "is_disabled": 0, "type": "electric_scooter", "lon": -77.03763833333333, "bike_id": "d93d9091bb8b2571654d1e234ff4c0e2", "fusion_lat": 0.0, "name": "d93d9091bb8b2571654d1e234ff4c0e2", "is_reserved": 0, "rental_uris": {"android": "https://dc.lft.to/lastmile_qr_scan", "ios": "https://dc.lft.to/lastmile_qr_scan"}, "fusion_lon": 0.0}, {"lat": 38.8845145, "is_disabled": 0, "type": "electric_bike", "lon": -77.0966475, "bike_id": "1b942a9b27e3a420d3153f10b94bfd6f", "fusion_lat": 0.0, "name": "1b942a9b27e3a420d3153f10b94bfd6f", "is_reserved": 0, "rental_uris": {"android": "https://dc.lft.to/lastmile_qr_scan", "ios": "https://dc.lft.to/lastmile_qr_scan"}, "fusion_lon": 0.0}, {"lat": 38.9003635, "is_disabled": 0, "type": "electric_scooter", "lon": -77.00592633333333, "bike_id": "8816c6a325893c6af969a981c5656df7", "fusion_lat": 0.0, "name": "8816c6a325893c6af969a981c5656df7", "is_reserved": 0, "rental_uris": {"android": "https://dc.lft.to/lastmile_qr_scan", "ios": "https://dc.lft.to/lastmile_qr_scan"}, "fusion_lon": 0.0}, {"lat": 38.9110795, "is_disabled": 0, "type": "electric_scooter", "lon": -77.03838016666667, "bike_id": "61461cb35666956e8869779a382474fb", "fusion_lat": 0.0, "name": "61461cb35666956e8869779a382474fb", "is_reserved": 0, "rental_uris": {"android": "https://dc.lft.to/lastmile_qr_scan", "ios": "https://dc.lft.to/lastmile_qr_scan"}, "fusion_lon": 0.0}, {"lat": 38.897265833333336, "is_disabled": 0, "type": "electric_scooter", "lon": -77.04799916666667, "bike_id": "562b304bd2bb601981bf16ce141c4af3", "fusion_lat": 0.0, "name": "562b304bd2bb601981bf16ce141c4af3", "is_reserved": 0, "rental_uris": {"android": "https://dc.lft.to/lastmile_qr_scan", "ios": "https://dc.lft.to/lastmile_qr_scan"}, "fusion_lon": 0.0}, {"lat": 38.90718, "is_disabled": 0, "type": "electric_scooter", "lon": -77.00602733333334, "bike_id": "57382d4daf397a31889cf290d9443e0d", "fusion_lat": 0.0, "name": "57382d4daf397a31889cf290d9443e0d", "is_reserved": 0, "rental_uris": {"android": "https://dc.lft.to/lastmile_qr_scan", "ios": "https://dc.lft.to/lastmile_qr_scan"}, "fusion_lon": 0.0}, {"lat": 38.924654, "is_disabled": 0, "type": "electric_bike", "lon": -77.20844016666666, "bike_id": "c61c9a2a830e978031f25f42fb3d5da2", "fusion_lat": 0.0, "name": "c61c9a2a830e978031f25f42fb3d5da2", "is_reserved": 0, "rental_uris": {"android": "https://dc.lft.to/lastmile_qr_scan", "ios": "https://dc.lft.to/lastmile_qr_scan"}, "fusion_lon": 0.0}, {"lat": 38.9389125, "is_disabled": 0, "type": "electric_scooter", "lon": -77.02823066666667, "bike_id": "ad7993bba94d2a0fa7bb19951bec1fb3", "fusion_lat": 0.0, "name": "ad7993bba94d2a0fa7bb19951bec1fb3", "is_reserved": 0, "rental_uris": {"android": "https://dc.lft.to/lastmile_qr_scan", "ios": "https://dc.lft.to/lastmile_qr_scan"}, "fusion_lon": 0.0}, {"lat": 38.90599233333333, "is_disabled": 0, "type": "electric_scooter", "lon": -77.04037466666666, "bike_id": "f04c856acf8efcb247f3aae157919793", "fusion_lat": 0.0, "name": "f04c856acf8efcb247f3aae157919793", "is_reserved": 0, "rental_uris": {"android": "https://dc.lft.to/lastmile_qr_scan", "ios": "https://dc.lft.to/lastmile_qr_scan"}, "fusion_lon": 0.0}, {"lat": 38.9112085, "is_disabled": 0, "type": "electric_scooter", "lon": -77.0032715, "bike_id": "18adc336f98aeda42d38033e726f440d", "fusion_lat": 0.0, "name": "18adc336f98aeda42d38033e726f440d", "is_reserved": 0, "rental_uris": {"android": "https://dc.lft.to/lastmile_qr_scan", "ios": "https://dc.lft.to/lastmile_qr_scan"}, "fusion_lon": 0.0}, {"lat": 38.8425345, "is_disabled": 0, "type": "electric_bike", "lon": -77.05834416666667, "bike_id": "e421be6c4b2e112debd02170eb0382d6", "fusion_lat": 0.0, "name": "e421be6c4b2e112debd02170eb0382d6", "is_reserved": 0, "rental_uris": {"android": "https://dc.lft.to/lastmile_qr_scan", "ios": "https://dc.lft.to/lastmile_qr_scan"}, "fusion_lon": 0.0}, {"lat": 38.932136666666665, "is_disabled": 0, "type": "electric_scooter", "lon": -77.0225085, "bike_id": "0f430f0518c871dcbbf0bd726ce68895", "fusion_lat": 0.0, "name": "0f430f0518c871dcbbf0bd726ce68895", "is_reserved": 0, "rental_uris": {"android": "https://dc.lft.to/lastmile_qr_scan", "ios": "https://dc.lft.to/lastmile_qr_scan"}, "fusion_lon": 0.0}, {"lat": 38.911693666666665, "is_disabled": 0, "type": "electric_scooter", "lon": -77.04673133333333, "bike_id": "fac86e04f41183029a5a0ceca58e7089", "fusion_lat": 0.0, "name": "fac86e04f41183029a5a0ceca58e7089", "is_reserved": 0, "rental_uris": {"android": "https://dc.lft.to/lastmile_qr_scan", "ios": "https://dc.lft.to/lastmile_qr_scan"}, "fusion_lon": 0.0}, {"lat": 38.89813266666667, "is_disabled": 0, "type": "electric_scooter", "lon": -76.996951, "bike_id": "6c13100094a4b0c14c0cf90ead18a754", "fusion_lat": 0.0, "name": "6c13100094a4b0c14c0cf90ead18a754", "is_reserved": 0, "rental_uris": {"android": "https://dc.lft.to/lastmile_qr_scan", "ios": "https://dc.lft.to/lastmile_qr_scan"}, "fusion_lon": 0.0}, {"lat": 38.908419, "is_disabled": 0, "type": "electric_scooter", "lon": -77.0020355, "bike_id": "ccfaa686320d8e26892e15dba9b10658", "fusion_lat": 0.0, "name": "ccfaa686320d8e26892e15dba9b10658", "is_reserved": 0, "rental_uris": {"android": "https://dc.lft.to/lastmile_qr_scan", "ios": "https://dc.lft.to/lastmile_qr_scan"}, "fusion_lon": 0.0}, {"lat": 38.905710166666665, "is_disabled": 0, "type": "electric_scooter", "lon": -77.0242235, "bike_id": "effb767a594d10a30e37821845d45d98", "fusion_lat": 0.0, "name": "effb767a594d10a30e37821845d45d98", "is_reserved": 0, "rental_uris": {"android": "https://dc.lft.to/lastmile_qr_scan", "ios": "https://dc.lft.to/lastmile_qr_scan"}, "fusion_lon": 0.0}, {"lat": 38.902542, "is_disabled": 0, "type": "electric_scooter", "lon": -77.04383883333334, "bike_id": "c4ffdcc12b02b17c3c0c2d48b277eb75", "fusion_lat": 0.0, "name": "c4ffdcc12b02b17c3c0c2d48b277eb75", "is_reserved": 0, "rental_uris": {"android": "https://dc.lft.to/lastmile_qr_scan", "ios": "https://dc.lft.to/lastmile_qr_scan"}, "fusion_lon": 0.0}, {"lat": 38.884083333333336, "is_disabled": 0, "type": "electric_bike", "lon": -76.95426866666666, "bike_id": "357853bc3c85f833d5f5affde314e531", "fusion_lat": 0.0, "name": "357853bc3c85f833d5f5affde314e531", "is_reserved": 0, "rental_uris": {"android": "https://dc.lft.to/lastmile_qr_scan", "ios": "https://dc.lft.to/lastmile_qr_scan"}, "fusion_lon": 0.0}, {"lat": 39.05637216666667, "is_disabled": 0, "type": "electric_bike", "lon": -77.125275, "bike_id": "d213e197dcdeb42a4fa27fda80cf337c", "fusion_lat": 0.0, "name": "d213e197dcdeb42a4fa27fda80cf337c", "is_reserved": 0, "rental_uris": {"android": "https://dc.lft.to/lastmile_qr_scan", "ios": "https://dc.lft.to/lastmile_qr_scan"}, "fusion_lon": 0.0}, {"lat": 38.888849666666665, "is_disabled": 0, "type": "electric_scooter", "lon": -76.9315585, "bike_id": "9a2ae8cc9b7432fe715ed61df1714ef2", "fusion_lat": 0.0, "name": "9a2ae8cc9b7432fe715ed61df1714ef2", "is_reserved": 0, "rental_uris": {"android": "https://dc.lft.to/lastmile_qr_scan", "ios": "https://dc.lft.to/lastmile_qr_scan"}, "fusion_lon": 0.0}, {"lat": 38.88737616666667, "is_disabled": 0, "type": "electric_scooter", "lon": -77.01535583333333, "bike_id": "6593176e5e45965785955a0ee71f164d", "fusion_lat": 0.0, "name": "6593176e5e45965785955a0ee71f164d", "is_reserved": 0, "rental_uris": {"android": "https://dc.lft.to/lastmile_qr_scan", "ios": "https://dc.lft.to/lastmile_qr_scan"}, "fusion_lon": 0.0}, {"lat": 38.89042533333333, "is_disabled": 0, "type": "electric_scooter", "lon": -76.95248616666666, "bike_id": "5baa634d235f4c0b73e6e54a1b0600c5", "fusion_lat": 0.0, "name": "5baa634d235f4c0b73e6e54a1b0600c5", "is_reserved": 0, "rental_uris": {"android": "https://dc.lft.to/lastmile_qr_scan", "ios": "https://dc.lft.to/lastmile_qr_scan"}, "fusion_lon": 0.0}, {"lat": 38.911209, "is_disabled": 0, "type": "electric_scooter", "lon": -77.038367, "bike_id": "b3f47e1f8ba9e0879ab6e5c70f5ec353", "fusion_lat": 0.0, "name": "b3f47e1f8ba9e0879ab6e5c70f5ec353", "is_reserved": 0, "rental_uris": {"android": "https://dc.lft.to/lastmile_qr_scan", "ios": "https://dc.lft.to/lastmile_qr_scan"}, "fusion_lon": 0.0},