{"data": {"bikes": [{"bike_id": "5ba627d8ae74af4e6f7ae64ed1827968", "is_reserved": 0, "fusion_lon": 0.0, "lat": 38.879160666666664, "is_disabled": 0, "name": "5ba627d8ae74af4e6f7ae64ed1827968", "fusion_lat": 0.0, "rental_uris": {"ios": "https://dc.lft.to/lastmile_qr_scan", "android": "https://dc.lft.to/lastmile_qr_scan"}, "lon": -77.0228215, "type": "electric_scooter"}, {"bike_id": "9ebee65edfd94ce9d3a384af5eea9087", "is_reserved": 0, "fusion_lon": 0.0, "lat": 38.896804833333334, "is_disabled": 0, "name": "9ebee65edfd94ce9d3a384af5eea9087", "fusion_lat": 0.0, "rental_uris": {"ios": "https://dc.lft.to/lastmile_qr_scan", "android": "https://dc.lft.to/lastmile_qr_scan"}, "lon": -76.9963015, "type": "electric_scooter"}, {"bike_id": "36d7af35d2ab941259290e5df3e98e2a", "is_reserved": 0, "fusion_lon": 0.0, "lat": 38.918131333333335, "is_disabled": 0, "name": "36d7af35d2ab941259290e5df3e98e2a", "fusion_lat": 0.0, "rental_uris": {"ios": "https://dc.lft.to/lastmile_qr_scan", "android": "https://dc.lft.to/lastmile_qr_scan"}, "lon": -77.035648, "type": "electric_scooter"}, {"bike_id": "fe23ff283d682af6cbebf58418f42fe5", "is_reserved": 0, "fusion_lon": 0.0, "lat": 38.900262833333336, "is_disabled": 0, "name": "fe23ff283d682af6cbebf58418f42fe5", "fusion_lat": 0.0, "rental_uris": {"ios": "https://dc.lft.to/lastmile_qr_scan", "android": "https://dc.lft.to/lastmile_qr_scan"}, "lon": -76.99544633333333, "type": "electric_scooter"}, {"bike_id": "1f10f2fa8311dd158e642ab1450c65e0", "is_reserved": 0, "fusion_lon": 0.0, "lat": 38.90030316666667, "is_disabled": 0, "name": "1f10f2fa8311dd158e642ab1450c65e0", "fusion_lat": 0.0, "rental_uris": {"ios": "https://dc.lft.to/lastmile_qr_scan", "android": "https://dc.lft.to/lastmile_qr_scan"}, "lon": -76.98753016666667, "type": "electric_scooter"}, {"bike_id": "4103e75453e25570723facb19f2a9096", "is_reserved": 0, "fusion_lon": 0.0, "lat": 38.912646333333335, "is_disabled": 0, "name": "4103e75453e25570723facb19f2a9096", "fusion_lat": 0.0, "rental_uris": {"ios": "https://dc.lft.to/lastmile_qr_scan", "android": "https://dc.lft.to/lastmile_qr_scan"}, "lon": -77.03766166666666, "type": "electric_scooter"}, {"bike_id": "62bc29e27ff405d07fe58ad159fb8866", "is_reserved": 0, "fusion_lon": 0.0, "lat": 38.8910185, "is_disabled": 0, "name": "62bc29e27ff405d07fe58ad159fb8866", "fusion_lat": 0.0, "rental_uris": {"ios": "https://dc.lft.to/lastmile_qr_scan", "android": "https://dc.lft.to/lastmile_qr_scan"}, "lon": -76.98705533333333, "type": "electric_scooter"}, {"bike_id": "747ebf74cd780bc451581321b18f5be8", "is_reserved": 0, "fusion_lon": 0.0, "lat": 38.85925183333333, "is_disabled": 0, "name": "747ebf74cd780bc451581321b18f5be8", "fusion_lat": 0.0, "rental_uris": {"ios": "https://dc.lft.to/lastmile_qr_scan", "android": "https://dc.lft.to/lastmile_qr_scan"}, "lon": -76.98979416666667, "type": "electric_scooter"}, {"bike_id": "0e4ea2305b2702ad6a627b8be04f56c9", "is_reserved": 0, "fusion_lon": 0.0, "lat": 38.90623566666667, "is_disabled": 0, "name": "0e4ea2305b2702ad6a627b8be04f56c9", "fusion_lat": 0.0, "rental_uris": {"ios": "https://dc.lft.to/lastmile_qr_scan", "android": "https://dc.lft.to/lastmile_qr_scan"}, "lon": -76.9860375, "type": "electric_bike"}, {"bike_id": "4a66d376cd0e5a3b7a461a3cffb34f5c", "is_reserved": 0, "fusion_lon": 0.0, "lat": 38.87081516666667, "is_disabled": 0, "name": "4a66d376cd0e5a3b7a461a3cffb34f5c", "fusion_lat": 0.0, "rental_uris": {"ios": "https://dc.lft.to/lastmile_qr_scan", "android": "https://dc.lft.to/lastmile_qr_scan"}, "lon": -77.0121375, "type": "electric_bike"}, {"bike_id": "1b2d91fa1ffe294c6b4bb56f224dd7cc", "is_reserved": 0, "fusion_lon": 0.0, "lat": 38.92088666666667, "is_disabled": 0, "name": "1b2d91fa1ffe294c6b4bb56f224dd7cc", "fusion_lat": 0.0, "rental_uris": {"ios": "https://dc.lft.to/lastmile_qr_scan", "android": "https://dc.lft.to/lastmile_qr_scan"}, "lon": -77.02514866666667, "type": "electric_scooter"}, {"bike_id": "e334426fc714ed8aaea3bd61d0204852", "is_reserved": 0, "fusion_lon": 0.0, "lat": 38.90980616666667, "is_disabled": 0, "name": "e334426fc714ed8aaea3bd61d0204852", "fusion_lat": 0.0, "rental_uris": {"ios": "https://dc.lft.to/lastmile_qr_scan", "android": "https://dc.lft.to/lastmile_qr_scan"}, "lon": -77.0239575, "type": "electric_scooter"}, {"bike_id": "0347286e2a0894c40780b73838232aa3", "is_reserved": 0, "fusion_lon": 0.0, "lat": 38.922456, "is_disabled": 0, "name": "0347286e2a0894c40780b73838232aa3", "fusion_lat": 0.0, "rental_uris": {"ios": "https://dc.lft.to/lastmile_qr_scan", "android": "https://dc.lft.to/lastmile_qr_scan"}, "lon": -77.03082916666666, "type": "electric_scooter"}, {"bike_id": "496c5e632ac5c8117b480c8215789aaa", "is_reserved": 0, "fusion_lon": 0.0, "lat": 38.93752933333333, "is_disabled": 0, "name": "496c5e632ac5c8117b480c8215789aaa", "fusion_lat": 0.0, "rental_uris": {"ios": "https://dc.lft.to/lastmile_qr_scan", "android": "https://dc.lft.to/lastmile_qr_scan"}, "lon": -77.03279566666667, "type": "electric_scooter"}, {"bike_id": "e311e71dec5f5f91e320591f0cb28809", "is_reserved": 0, "fusion_lon": 0.0, "lat": 38.923348833333336, "is_disabled": 0, "name": "e311e71dec5f5f91e320591f0cb28809", "fusion_lat": 0.0, "rental_uris": {"ios": "https://dc.lft.to/lastmile_qr_scan", "android": "https://dc.lft.to/lastmile_qr_scan"}, "lon": -77.03533633333333, "type": "electric_scooter"}, {"bike_id": "aa991e5680f47a68fea2d83d3495e4cb", "is_reserved": 0, "fusion_lon": 0.0, "lat": 38.921598, "is_disabled": 0, "name": "aa991e5680f47a68fea2d83d3495e4cb", "fusion_lat": 0.0, "rental_uris": {"ios": "https://dc.lft.to/lastmile_qr_scan", "android": "https://dc.lft.to/lastmile_qr_scan"}, "lon": -77.04689233333333, "type": "electric_scooter"}, {"bike_id": "93ff40fea0896dc62406c7c9a5c8b747", "is_reserved": 0, "fusion_lon": 0.0, "lat": 38.9087415, "is_disabled": 0, "name": "93ff40fea0896dc62406c7c9a5c8b747", "fusion_lat": 0.0, "rental_uris": {"ios": "https://dc.lft.to/lastmile_qr_scan", "android": "https://dc.lft.to/lastmile_qr_scan"}, "lon": -77.03293583333334, "type": "electric_scooter"}, {"bike_id": "d105865f10e6670d54dc4914b672f043", "is_reserved": 0, "fusion_lon": 0.0, "lat": 38.8636615, "is_disabled": 0, "name": "d105865f10e6670d54dc4914b672f043", "fusion_lat": 0.0, "rental_uris": {"ios": "https://dc.lft.to/lastmile_qr_scan", "android": "https://dc.lft.to/lastmile_qr_scan"}, "lon": -77.01360283333334, "type": "electric_scooter"}, {"bike_id": "8b81dfbef1145a8702fb2e3662d430da", "is_reserved": 0, "fusion_lon": 0.0, "lat": 38.905316666666664, "is_disabled": 0, "name": "8b81dfbef1145a8702fb2e3662d430da", "fusion_lat": 0.0, "rental_uris": {"ios": "https://dc.lft.to/lastmile_qr_scan", "android": "https://dc.lft.to/lastmile_qr_scan"}, "lon": -77.05768716666667, "type": "electric_scooter"}, {"bike_id": "f6948c623ceaddecee38a5f3363c9cab", "is_reserved": 0, "fusion_lon": 0.0, "lat": 38.929606666666665, "is_disabled": 0, "name": "f6948c623ceaddecee38a5f3363c9cab", "fusion_lat": 0.0, "rental_uris": {"ios": "https://dc.lft.to/lastmile_qr_scan", "android": "https://dc.lft.to/lastmile_qr_scan"}, "lon": -77.011487, "type": "electric_scooter"}, {"bike_id": "ff93d9b12c74ec1f765897c814188461", "is_reserved": 0, "fusion_lon": 0.0, "lat": 38.91799666666667, "is_disabled": 0, "name": "ff93d9b12c74ec1f765897c814188461", "fusion_lat": 0.0, "rental_uris": {"ios": "https://dc.lft.to/lastmile_qr_scan", "android": "https://dc.lft.to/lastmile_qr_scan"}, "lon": -77.034425, "type": "electric_scooter"}, {"bike_id": "a18a3de1c18f8e1bb79d5950686c8ea6", "is_reserved": 0, "fusion_lon": 0.0, "lat": 38.84571283333333, "is_disabled": 0, "name": "a18a3de1c18f8e1bb79d5950686c8ea6", "fusion_lat": 0.0, "rental_uris": {"ios": "https://dc.lft.to/lastmile_qr_scan", "android": "https://dc.lft.to/lastmile_qr_scan"}, "lon": -77.09619516666666, "type": "electric_bike"}, {"bike_id": "82d307c83c0a9a2428b4897e4350bf11", "is_reserved": 0, "fusion_lon": 0.0, "lat": 38.927435833333334, "is_disabled": 0, "name": "82d307c83c0a9a2428b4897e4350bf11", "fusion_lat": 0.0, "rental_uris": {"ios": "https://dc.lft.to/lastmile_qr_scan", "android": "https://dc.lft.to/lastmile_qr_scan"}, "lon": -77.03635766666666, "type": "electric_bike"}, {"bike_id": "10703f437c9fff744135e64cc843e1b3", "is_reserved": 0, "fusion_lon": 0.0, "lat": 38.94603083333333, "is_disabled": 0, "name": "10703f437c9fff744135e64cc843e1b3", "fusion_lat": 0.0, "rental_uris": {"ios": "https://dc.lft.to/lastmile_qr_scan", "android": "https://dc.lft.to/lastmile_qr_scan"}, "lon": -77.02977916666667, "type": "electric_scooter"}, {"bike_id": "570fb845cba8a9d94be4e50f70164a9c", "is_reserved": 0, "fusion_lon": 0.0, "lat": 38.90032866666667, "is_disabled": 0, "name": "570fb845cba8a9d94be4e50f70164a9c", "fusion_lat": 0.0, "rental_uris": {"ios": "https://dc.lft.to/lastmile_qr_scan", "android": "https://dc.lft.to/lastmile_qr_scan"}, "lon": -76.9952335, "type": "electric_scooter"}, {"bike_id": "e474d57eb69d03d5d9a3d1031560b76f", "is_reserved": 0, "fusion_lon": 0.0, "lat": 38.8859445, "is_disabled": 0, "name": "e474d57eb69d03d5d9a3d1031560b76f", "fusion_lat": 0.0, "rental_uris": {"ios": "https://dc.lft.to/lastmile_qr_scan", "android": "https://dc.lft.to/lastmile_qr_scan"}, "lon": -77.00564066666666, "type": "electric_scooter"}, {"bike_id": "358f4ddada88dbf06cc3941a965f0061", "is_reserved": 0, "fusion_lon": 0.0, "lat": 38.892201, "is_disabled": 0, "name": "358f4ddada88dbf06cc3941a965f0061", "fusion_lat": 0.0, "rental_uris": {"ios": "https://dc.lft.to/lastmile_qr_scan", "android": "https://dc.lft.to/lastmile_qr_scan"}, "lon": -77.04859416666666, "type": "electric_scooter"}, {"bike_id": "97ebe719a5c2b3d83f7fd907bd9b9acb", "is_reserved": 0, "fusion_lon": 0.0, "lat": 38.914451166666666, "is_disabled": 0, "name": "97ebe719a5c2b3d83f7fd907bd9b9acb", "fusion_lat": 0.0, "rental_uris": {"ios": "https://dc.lft.to/lastmile_qr_scan", "android": "https://dc.lft.to/lastmile_qr_scan"}, "lon": -77.03464816666667, "type": "electric_scooter"}, {"bike_id": "f2f481727f3d04dc53e06527d1682747", "is_reserved": 0, "fusion_lon": 0.0, "lat": 38.89799716666667, "is_disabled": 0, "name": "f2f481727f3d04dc53e06527d1682747", "fusion_lat": 0.0, "rental_uris": {"ios": "https://dc.lft.to/lastmile_qr_scan", "android": "https://dc.lft.to/lastmile_qr_scan"}, "lon": -76.99164916666666, "type": "electric_scooter"}, {"bike_id": "2a9bf3b5111f16d2458e880d2a7b9513", "is_reserved": 0, "fusion_lon": 0.0, "lat": 38.911681, "is_disabled": 0, "name": "2a9bf3b5111f16d2458e880d2a7b9513", "fusion_lat": 0.0, "rental_uris": {"ios": "https://dc.lft.to/lastmile_qr_scan", "android": "https://dc.lft.to/lastmile_qr_scan"}, "lon": -77.00283116666667, "type": "electric_bike"}, {"bike_id": "00781413359e51c9aefc8f10515ba977", "is_reserved": 0, "fusion_lon": 0.0, "lat": 38.844233, "is_disabled": 0, "name": "00781413359e51c9aefc8f10515ba977", "fusion_lat": 0.0, "rental_uris": {"ios": "https://dc.lft.to/lastmile_qr_scan", "android": "https://dc.lft.to/lastmile_qr_scan"}, "lon": -76.99775966666667, "type": "electric_scooter"}, {"bike_id": "ed82e66ae6f3c0127d8fad7791ec7742", "is_reserved": 0, "fusion_lon": 0.0, "lat": 38.911891833333335, "is_disabled": 0, "name": "ed82e66ae6f3c0127d8fad7791ec7742", "fusion_lat": 0.0, "rental_uris": {"ios": "https://dc.lft.to/lastmile_qr_scan", "android": "https://dc.lft.to/lastmile_qr_scan"}, "lon": -77.06098333333334, "type": "electric_scooter"}, {"bike_id": "023d13cb5089e4878058f17fd32a6b14", "is_reserved": 0, "fusion_lon": 0.0, "lat": 38.931513833333334, "is_disabled": 0, "name": "023d13cb5089e4878058f17fd32a6b14", "fusion_lat": 0.0, "rental_uris": {"ios": "https://dc.lft.to/lastmile_qr_scan", "android": "https://dc.lft.to/lastmile_qr_scan"}, "lon": -77.04360816666667, "type": "electric_scooter"}, {"bike_id": "cd303fc89b7e335ce1a7150e8b07b616", "is_reserved": 0, "fusion_lon": 0.0, "lat": 38.81051383333333, "is_disabled": 0, "name": "cd303fc89b7e335ce1a7150e8b07b616", "fusion_lat": 0.0, "rental_uris": {"ios": "https://dc.lft.to/lastmile_qr_scan", "android": "https://dc.lft.to/lastmile_qr_scan"}, "lon": -77.08509833333333, "type": "electric_bike"}, {"bike_id": "cd927d0df377edb7019559a57e64f5d1", "is_reserved": 0, "fusion_lon": 0.0, "lat": 38.911902166666664, "is_disabled": 0, "name": "cd927d0df377edb7019559a57e64f5d1", "fusion_lat": 0.0, "rental_uris": {"ios": "https://dc.lft.to/lastmile_qr_scan", "android": "https://dc.lft.to/lastmile_qr_scan"}, "lon": -77.0454105, "type": "electric_scooter"}, {"bike_id": "de4b1b73dd0487e355067d308faa14aa", "is_reserved": 0, "fusion_lon": 0.0, "lat": 38.85431, "is_disabled": 0, "name": "de4b1b73dd0487e355067d308faa14aa", "fusion_lat": 0.0, "rental_uris": {"ios": "https://dc.lft.to/lastmile_qr_scan", "android": "https://dc.lft.to/lastmile_qr_scan"}, "lon": -76.90964933333333, "type": "electric_bike"}, {"bike_id": "d1c8978eb2f44cab574827b19eeeecc2", "is_reserved": 0, "fusion_lon": 0.0, "lat": 38.93498183333333, "is_disabled": 0, "name": "d1c8978eb2f44cab574827b19eeeecc2", "fusion_lat": 0.0, "rental_uris": {"ios": "https://dc.lft.to/lastmile_qr_scan", "android": "https://dc.lft.to/lastmile_qr_scan"}, "lon": -77.02842, "type": "electric_scooter"}, {"bike_id": "de91bc77bd5757d84eddeea9912ef8d9", "is_reserved": 0, "fusion_lon": 0.0, "lat": 38.90306983333333, "is_disabled": 0, "name": "de91bc77bd5757d84eddeea9912ef8d9", "fusion_lat": 0.0, "rental_uris": {"ios": "https://dc.lft.to/lastmile_qr_scan", "android": "https://dc.lft.to/lastmile_qr_scan"}, "lon": -77.03300266666666, "type": "electric_scooter"}, {"bike_id": "563457d05aa45941a65aa12019bfbd4f", "is_reserved": 0, "fusion_lon": 0.0, "lat": 38.92497133333333, "is_disabled": 0, "name": "563457d05aa45941a65aa12019bfbd4f", "fusion_lat": 0.0, "rental_uris": {"ios": "https://dc.lft.to/lastmile_qr_scan", "android": "https://dc.lft.to/lastmile_qr_scan"}, "lon": -77.0088815, "type": "electric_scooter"}, {"bike_id": "f60e0b41fed4449a442b59876b25b7aa", "is_reserved": 0, "fusion_lon": 0.0, "lat": 38.89873266666667, "is_disabled": 0, "name": "f60e0b41fed4449a442b59876b25b7aa", "fusion_lat": 0.0, "rental_uris": {"ios": "https://dc.lft.to/lastmile_qr_scan", "android": "https://dc.lft.to/lastmile_qr_scan"}, "lon": -76.93157483333333, "type": "electric_scooter"}, {"bike_id": "97bc84e42d2a07c65e0c0973e2d4873a", "is_reserved": 0, "fusion_lon": 0.0, "lat": 38.8637065, "is_disabled": 0, "name": "97bc84e42d2a07c65e0c0973e2d4873a", "fusion_lat": 0.0, "rental_uris": {"ios": "https://dc.lft.to/lastmile_qr_scan", "android": "https://dc.lft.to/lastmile_qr_scan"}, "lon": -76.990582, "type": "electric_scooter"}, {"bike_id": "a7a2f61cff99f46ec474cd8cc4aa43a9", "is_reserved": 0, "fusion_lon": 0.0, "lat": 38.89956166666666, "is_disabled": 0, "name": "a7a2f61cff99f46ec474cd8cc4aa43a9", "fusion_lat": 0.0, "rental_uris": {"ios": "https://dc.lft.to/lastmile_qr_scan", "android": "https://dc.lft.to/lastmile_qr_scan"}, "lon": -77.03333366666666, "type": "electric_scooter"}, {"bike_id": "778b0bd621b1f34b3d0b8c43cb867885", "is_reserved": 0, "fusion_lon": 0.0, "lat": 38.93433066666667, "is_disabled": 0, "name": "778b0bd621b1f34b3d0b8c43cb867885", "fusion_lat": 0.0, "rental_uris": {"ios": "https://dc.lft.to/lastmile_qr_scan", "android": "https://dc.lft.to/lastmile_qr_scan"}, "lon": -77.034491, "type": "electric_scooter"}, {"bike_id": "30801cf6452539ffd095e484e57e4cba", "is_reserved": 0, "fusion_lon": 0.0, "lat": 38.89359433333333, "is_disabled": 0, "name": "30801cf6452539ffd095e484e57e4cba", "fusion_lat": 0.0, "rental_uris": {"ios": "https://dc.lft.to/lastmile_qr_scan", "android": "https://dc.lft.to/lastmile_qr_scan"}, "lon": -76.985183, "type": "electric_bike"}, {"bike_id": "919e90769482405783c81f5f044e63d7", "is_reserved": 0, "fusion_lon": 0.0, "lat": 38.950759166666664, "is_disabled": 0, "name": "919e90769482405783c81f5f044e63d7", "fusion_lat": 0.0, "rental_uris": {"ios": "https://dc.lft.to/lastmile_qr_scan", "android": "https://dc.lft.to/lastmile_qr_scan"}, "lon": -77.0119505, "type": "electric_bike"}, {"bike_id": "d9478099cee1c9c2b01856a22110094c", "is_reserved": 0, "fusion_lon": 0.0, "lat": 39.0885485, "is_disabled": 0, "name": "d9478099cee1c9c2b01856a22110094c", "fusion_lat": 0.0, "rental_uris": {"ios": "https://dc.lft.to/lastmile_qr_scan", "android": "https://dc.lft.to/lastmile_qr_scan"}, "lon": -77.17836983333333, "type": "electric_bike"}, {"bike_id": "bd3559f03b95b60620e96f501a5cb466", "is_reserved": 0, "fusion_lon": 0.0, "lat": 38.957471, "is_disabled": 0, "name": "bd3559f03b95b60620e96f501a5cb466", "fusion_lat": 0.0, "rental_uris": {"ios": "https://dc.lft.to/lastmile_qr_scan", "android": "https://dc.lft.to/lastmile_qr_scan"}, "lon": -77.02414533333334, "type": "electric_scooter"}, {"bike_id": "2ad58c8ab5d48c8ae7de6d82eaa96358", "is_reserved": 0, "fusion_lon": 0.0, "lat": 38.90941316666667, "is_disabled": 0, "name": "2ad58c8ab5d48c8ae7de6d82eaa96358", "fusion_lat": 0.0, "rental_uris": {"ios": "https://dc.lft.to/lastmile_qr_scan", "android": "https://dc.lft.to/lastmile_qr_scan"}, "lon": -77.0487225, "type": "electric_scooter"}, {"bike_id": "b9461994a69645e1514973e9e1cd03e0", "is_reserved": 0, "fusion_lon": 0.0, "lat": 38.905675333333335, "is_disabled": 0, "name": "b9461994a69645e1514973e9e1cd03e0", "fusion_lat": 0.0, "rental_uris": {"ios": "https://dc.lft.to/lastmile_qr_scan", "android": "https://dc.lft.to/lastmile_qr_scan"}, "lon": -77.02172166666666, "type": "electric_scooter"}, {"bike_id": "731a975d5dcbb5e822391b2ab8f27836", "is_reserved": 0, "fusion_lon": 0.0, "lat": 38.953375666666666, "is_disabled": 0, "name": "731a975d5dcbb5e822391b2ab8f27836", "fusion_lat": 0.0, "rental_uris": {"ios": "https://dc.lft.to/lastmile_qr_scan", "android": "https://dc.lft.to/lastmile_qr_scan"}, "lon": -77.009585, "type": "electric_bike"}, {"bike_id": "f9e1d17c58ea1022f36035340c327ddd", "is_reserved": 0, "fusion_lon": 0.0, "lat": 38.915511333333335, "is_disabled": 0, "name": "f9e1d17c58ea1022f36035340c327ddd", "fusion_lat": 0.0, "rental_uris": {"ios": "https://dc.lft.to/lastmile_qr_scan", "android": "https://dc.lft.to/lastmile_qr_scan"}, "lon": -77.03871483333333, "type": "electric_scooter"}, {"bike_id": "051d2614a4d734331dc226ad314aab14", "is_reserved": 0, "fusion_lon": 0.0, "lat": 38.928603, "is_disabled": 0, "name": "051d2614a4d734331dc226ad314aab14", "fusion_lat": 0.0, "rental_uris": {"ios": "https://dc.lft.to/lastmile_qr_scan", "android": "https://dc.lft.to/lastmile_qr_scan"}, "lon": -77.2222025, "type": "electric_bike"}, {"bike_id": "a734eb70a7eb681ed5a1c43bfb4013e0", "is_reserved": 0, "fusion_lon": 0.0, "lat": 38.95651466666666, "is_disabled": 0, "name": "a734eb70a7eb681ed5a1c43bfb4013e0", "fusion_lat": 0.0, "rental_uris": {"ios": "https://dc.lft.to/lastmile_qr_scan", "android": "https://dc.lft.to/lastmile_qr_scan"}, "lon": -77.0329265, "type": "electric_scooter"}, {"bike_id": "34adad47003ad1c6d811d256aee04982", "is_reserved": 0, "fusion_lon": 0.0, "lat": 38.916966, "is_disabled": 0, "name": "34adad47003ad1c6d811d256aee04982", "fusion_lat": 0.0, "rental_uris": {"ios": "https://dc.lft.to/lastmile_qr_scan", "android": "https://dc.lft.to/lastmile_qr_scan"}, "lon": -77.0232835, "type": "electric_scooter"}, {"bike_id": "fadaf33d5a314c9e79895cbfd4f5a267", "is_reserved": 0, "fusion_lon": 0.0, "lat": 38.865350666666664, "is_disabled": 0, "name": "fadaf33d5a314c9e79895cbfd4f5a267", "fusion_lat": 0.0, "rental_uris": {"ios": "https://dc.lft.to/lastmile_qr_scan", "android": "https://dc.lft.to/lastmile_qr_scan"}, "lon": -76.9870405, "type": "electric_scooter"}, {"bike_id": "2f19d5fa0dcef125ecc0ca2759984979", "is_reserved": 0, "fusion_lon": 0.0, "lat": 38.88749383333333, "is_disabled": 0, "name": "2f19d5fa0dcef125ecc0ca2759984979", "fusion_lat": 0.0, "rental_uris": {"ios": "https://dc.lft.to/lastmile_qr_scan", "android": "https://dc.lft.to/lastmile_qr_scan"}, "lon": -77.02264216666667, "type": "electric_bike"}, {"bike_id": "3f35ddefa2c4c499c1096371f1521dc3", "is_reserved": 0, "fusion_lon": 0.0, "lat": 38.91115716666667, "is_disabled": 0, "name": "3f35ddefa2c4c499c1096371f1521dc3", "fusion_lat": 0.0, "rental_uris": {"ios": "https://dc.lft.to/lastmile_qr_scan", "android": "https://dc.lft.to/lastmile_qr_scan"}, "lon": -77.03831633333333, "type": "electric_scooter"}, {"bike_id": "14b7608dfaff99bbe19f7048fc7d159b", "is_reserved": 0, "fusion_lon": 0.0, "lat": 38.9483075, "is_disabled": 0, "name": "14b7608dfaff99bbe19f7048fc7d159b", "fusion_lat": 0.0, "rental_uris": {"ios": "https://dc.lft.to/lastmile_qr_scan", "android": "https://dc.lft.to/lastmile_qr_scan"}, "lon": -77.039024, "type": "electric_bike"}, {"bike_id": "f37831e8a940d2d89522eb006407de2d", "is_reserved": 0, "fusion_lon": 0.0, "lat": 38.9337475, "is_disabled": 0, "name": "f37831e8a940d2d89522eb006407de2d", "fusion_lat": 0.0, "rental_uris": {"ios": "https://dc.lft.to/lastmile_qr_scan", "android": "https://dc.lft.to/lastmile_qr_scan"}, "lon": -77.03464866666667, "type": "electric_scooter"}, {"bike_id": "696511a5a4586390cca326ec6ce53b21", "is_reserved": 0, "fusion_lon": 0.0, "lat": 38.917180333333334, "is_disabled": 0, "name": "696511a5a4586390cca326ec6ce53b21", "fusion_lat": 0.0, "rental_uris": {"ios": "https://dc.lft.to/lastmile_qr_scan", "android": "https://dc.lft.to/lastmile_qr_scan"}, "lon": -77.06836316666667, "type": "electric_scooter"}, {"bike_id": "342f3b37f84adf89d6bea0959b071326", "is_reserved": 0, "fusion_lon": 0.0, "lat": 38.938977, "is_disabled": 0, "name": "342f3b37f84adf89d6bea0959b071326", "fusion_lat": 0.0, "rental_uris": {"ios": "https://dc.lft.to/lastmile_qr_scan", "android": "https://dc.lft.to/lastmile_qr_scan"}, "lon": -77.07728966666667, "type": "electric_scooter"}, {"bike_id": "f7f6aa63b1ae60374eee10dd61a0f502", "is_reserved": 0, "fusion_lon": 0.0, "lat": 38.89491666666667, "is_disabled": 0, "name": "f7f6aa63b1ae60374eee10dd61a0f502", "fusion_lat": 0.0, "rental_uris": {"ios": "https://dc.lft.to/lastmile_qr_scan", "android": "https://dc.lft.to/lastmile_qr_scan"}, "lon": -77.03044816666667, "type": "electric_scooter"}, {"bike_id": "d28b593696fa5eea7ec54c7b8df97d6a", "is_reserved": 0, "fusion_lon": 0.0, "lat": 38.922097, "is_disabled": 0, "name": "d28b593696fa5eea7ec54c7b8df97d6a", "fusion_lat": 0.0, "rental_uris": {"ios": "https://dc.lft.to/lastmile_qr_scan", "android": "https://dc.lft.to/lastmile_qr_scan"}, "lon": -77.04258666666666, "type": "electric_scooter"}, {"bike_id": "6197396ab637e6811d37b9cf9f2d4266", "is_reserved": 0, "fusion_lon": 0.0, "lat": 38.905950833333335, "is_disabled": 0, "name": "6197396ab637e6811d37b9cf9f2d4266", "fusion_lat": 0.0, "rental_uris": {"ios": "https://dc.lft.to/lastmile_qr_scan", "android": "https://dc.lft.to/lastmile_qr_scan"}, "lon": -77.0403545, "type": "electric_scooter"}, {"bike_id": "f7a4e25fc2c765d5ad2ca33413163be9", "is_reserved": 0, "fusion_lon": 0.0, "lat": 38.90060233333333, "is_disabled": 0, "name": "f7a4e25fc2c765d5ad2ca33413163be9", "fusion_lat": 0.0, "rental_uris": {"ios": "https://dc.lft.to/lastmile_qr_scan", "android": "https://dc.lft.to/lastmile_qr_scan"}, "lon": -76.9338835, "type": "electric_scooter"}, {"bike_id": "5dff966298784a845c67305a45480db2", "is_reserved": 0, "fusion_lon": 0.0, "lat": 38.9074635, "is_disabled": 0, "name": "5dff966298784a845c67305a45480db2", "fusion_lat": 0.0, "rental_uris": {"ios": "https://dc.lft.to/lastmile_qr_scan", "android": "https://dc.lft.to/lastmile_qr_scan"}, "lon": -77.03468383333333, "type": "electric_scooter"}, {"bike_id": "8d3f0fe330003c8e98067d72c2e1bf7e", "is_reserved": 0, "fusion_lon": 0.0, "lat": 38.919739, "is_disabled": 0, "name": "8d3f0fe330003c8e98067d72c2e1bf7e", "fusion_lat": 0.0, "rental_uris": {"ios": "https://dc.lft.to/lastmile_qr_scan", "android": "https://dc.lft.to/lastmile_qr_scan"}, "lon": -77.02603516666667, "type": "electric_scooter"}, {"bike_id": "235bafc6561a0723441cf836ef5a4904", "is_reserved": 0, "fusion_lon": 0.0, "lat": 38.86699183333333, "is_disabled": 0, "name": "235bafc6561a0723441cf836ef5a4904", "fusion_lat": 0.0, "rental_uris": {"ios": "https://dc.lft.to/lastmile_qr_scan", "android": "https://dc.lft.to/lastmile_qr_scan"}, "lon": -76.98715516666667, "type": "electric_scooter"}, {"bike_id": "ab4561977f596e44a9507ff5a020f7c6", "is_reserved": 0, "fusion_lon": 0.0, "lat": 38.905591, "is_disabled": 0, "name": "ab4561977f596e44a9507ff5a020f7c6", "fusion_lat": 0.0, "rental_uris": {"ios": "https://dc.lft.to/lastmile_qr_scan", "android": "https://dc.lft.to/lastmile_qr_scan"}, "lon": -76.9979275, "type": "electric_bike"}, {"bike_id": "6f15b4183399c335423313e819088221", "is_reserved": 0, "fusion_lon": 0.0, "lat": 38.92282383333333, "is_disabled": 0, "name": "6f15b4183399c335423313e819088221", "fusion_lat": 0.0, "rental_uris": {"ios": "https://dc.lft.to/lastmile_qr_scan", "android": "https://dc.lft.to/lastmile_qr_scan"}, "lon": -77.02064166666666, "type": "electric_scooter"}, {"bike_id": "2671e35a51c4a75054824e1b12b915b4", "is_reserved": 0, "fusion_lon": 0.0, "lat": 38.90569266666667, "is_disabled": 0, "name": "2671e35a51c4a75054824e1b12b915b4", "fusion_lat": 0.0, "rental_uris": {"ios": "https://dc.lft.to/lastmile_qr_scan", "android": "https://dc.lft.to/lastmile_qr_scan"}, "lon": -77.021744, "type": "electric_scooter"}, {"bike_id": "ea924419244267e8ee5ae627ac3fcb38", "is_reserved": 0, "fusion_lon": 0.0, "lat": 38.9415325, "is_disabled": 0, "name": "ea924419244267e8ee5ae627ac3fcb38", "fusion_lat": 0.0, "rental_uris": {"ios": "https://dc.lft.to/lastmile_qr_scan", "android": "https://dc.lft.to/lastmile_qr_scan"}, "lon": -77.03648033333333, "type": "electric_scooter"}, {"bike_id": "cd90251ed5b40fe7b1b447a4ff5cc849", "is_reserved": 0, "fusion_lon": 0.0, "lat": 38.8843465, "is_disabled": 0, "name": "cd90251ed5b40fe7b1b447a4ff5cc849", "fusion_lat": 0.0, "rental_uris": {"ios": "https://dc.lft.to/lastmile_qr_scan", "android": "https://dc.lft.to/lastmile_qr_scan"}, "lon": -76.95753066666667, "type": "electric_scooter"}, {"bike_id": "9218b2f6bc2f2fda1f5ee51e7c1c52b5", "is_reserved": 0, "fusion_lon": 0.0, "lat": 38.9132965, "is_disabled": 0, "name": "9218b2f6bc2f2fda1f5ee51e7c1c52b5", "fusion_lat": 0.0, "rental_uris": {"ios": "https://dc.lft.to/lastmile_qr_scan", "android": "https://dc.lft.to/lastmile_qr_scan"}, "lon": -77.030402, "type": "electric_scooter"}, {"bike_id": "f5568f2fe979f305183eaf175a69fdd2", "is_reserved": 0, "fusion_lon": 0.0, "lat": 38.9909105, "is_disabled": 0, "name": "f5568f2fe979f305183eaf175a69fdd2", "fusion_lat": 0.0, "rental_uris": {"ios": "https://dc.lft.to/lastmile_qr_scan", "android": "https://dc.lft.to/lastmile_qr_scan"}, "lon": -76.87498033333334, "type": "electric_bike"}, {"bike_id": "903f5004b4c6edbbdb874573f08ae351", "is_reserved": 0, "fusion_lon": 0.0, "lat": 38.924041333333335, "is_disabled": 0, "name": "903f5004b4c6edbbdb874573f08ae351", "fusion_lat": 0.0, "rental_uris": {"ios": "https://dc.lft.to/lastmile_qr_scan", "android": "https://dc.lft.to/lastmile_qr_scan"}, "lon": -77.025425, "type": "electric_scooter"}, {"bike_id": "a6d6b2a28a3d2bfad4b5a27d445e2532", "is_reserved": 0, "fusion_lon": 0.0, "lat": 38.9228565, "is_disabled": 0, "name": "a6d6b2a28a3d2bfad4b5a27d445e2532", "fusion_lat": 0.0, "rental_uris": {"ios": "https://dc.lft.to/lastmile_qr_scan", "android": "https://dc.lft.to/lastmile_qr_scan"}, "lon": -77.03192183333333, "type": "electric_scooter"}, {"bike_id": "cd785d691c0fdd547d6dd2569b5bdef9", "is_reserved": 0, "fusion_lon": 0.0, "lat": 38.905333, "is_disabled": 0, "name": "cd785d691c0fdd547d6dd2569b5bdef9", "fusion_lat": 0.0, "rental_uris": {"ios": "https://dc.lft.to/lastmile_qr_scan", "android": "https://dc.lft.to/lastmile_qr_scan"}, "lon": -76.998077, "type": "electric_bike"}, {"bike_id": "d2359359980a35147ad39173688eb88f", "is_reserved": 0, "fusion_lon": 0.0, "lat": 38.87008133333333, "is_disabled": 0, "name": "d2359359980a35147ad39173688eb88f", "fusion_lat": 0.0, "rental_uris": {"ios": "https://dc.lft.to/lastmile_qr_scan", "android": "https://dc.lft.to/lastmile_qr_scan"}, "lon": -77.01227916666667, "type": "electric_scooter"}, {"bike_id": "f69fa49c150cac5f19e912bbe4289179", "is_reserved": 0, "fusion_lon": 0.0, "lat": 38.86537283333333, "is_disabled": 0, "name": "f69fa49c150cac5f19e912bbe4289179", "fusion_lat": 0.0, "rental_uris": {"ios": "https://dc.lft.to/lastmile_qr_scan", "android": "https://dc.lft.to/lastmile_qr_scan"}, "lon": -76.98704233333333, "type": "electric_scooter"}, {"bike_id": "60f55473a323dc9667fdaeddcd8124dd", "is_reserved": 0, "fusion_lon": 0.0, "lat": 38.90414916666667, "is_disabled": 0, "name": "60f55473a323dc9667fdaeddcd8124dd", "fusion_lat": 0.0, "rental_uris": {"ios": "https://dc.lft.to/lastmile_qr_scan", "android": "https://dc.lft.to/lastmile_qr_scan"}, "lon": -77.00606066666667, "type": "electric_scooter"}, {"bike_id": "eaf886adc0cf58aee8357a82270df90b", "is_reserved": 0, "fusion_lon": 0.0, "lat": 38.911195, "is_disabled": 0, "name": "eaf886adc0cf58aee8357a82270df90b", "fusion_lat": 0.0, "rental_uris": {"ios": "https://dc.lft.to/lastmile_qr_scan", "android": "https://dc.lft.to/lastmile_qr_scan"}, "lon": -77.03721116666667, "type": "electric_scooter"}, {"bike_id": "5c50fc9d0e9c1bab43d060169cbbe837", "is_reserved": 0, "fusion_lon": 0.0, "lat": 38.86995366666667, "is_disabled": 0, "name": "5c50fc9d0e9c1bab43d060169cbbe837", "fusion_lat": 0.0, "rental_uris": {"ios": "https://dc.lft.to/lastmile_qr_scan", "android": "https://dc.lft.to/lastmile_qr_scan"}, "lon": -76.95981216666667, "type": "electric_bike"}, {"bike_id": "145a7288411a03df1e9292c99c2320ab", "is_reserved": 0, "fusion_lon": 0.0, "lat": 38.932471666666665, "is_disabled": 0, "name": "145a7288411a03df1e9292c99c2320ab", "fusion_lat": 0.0, "rental_uris": {"ios": "https://dc.lft.to/lastmile_qr_scan", "android": "https://dc.lft.to/lastmile_qr_scan"}, "lon": -77.03826983333333, "type": "electric_scooter"}, {"bike_id": "4029c67f72305774f8d6c8c63635c96d", "is_reserved": 0, "fusion_lon": 0.0, "lat": 38.8226315, "is_disabled": 0, "name": "4029c67f72305774f8d6c8c63635c96d", "fusion_lat": 0.0, "rental_uris": {"ios": "https://dc.lft.to/lastmile_qr_scan", "android": "https://dc.lft.to/lastmile_qr_scan"}, "lon": -77.05810383333333, "type": "electric_bike"}, {"bike_id": "729bcd94f4f8b36bfee25334d70f4184", "is_reserved": 0, "fusion_lon": 0.0, "lat": 38.907953, "is_disabled": 0, "name": "729bcd94f4f8b36bfee25334d70f4184", "fusion_lat": 0.0, "rental_uris": {"ios": "https://dc.lft.to/lastmile_qr_scan", "android": "https://dc.lft.to/lastmile_qr_scan"}, "lon": -77.036438, "type": "electric_scooter"}, {"bike_id": "c3c998c09c6412f884014f3171833d37", "is_reserved": 0, "fusion_lon": 0.0, "lat": 38.902746666666665, "is_disabled": 0, "name": "c3c998c09c6412f884014f3171833d37", "fusion_lat": 0.0, "rental_uris": {"ios": "https://dc.lft.to/lastmile_qr_scan", "android": "https://dc.lft.to/lastmile_qr_scan"}, "lon": -77.0393525, "type": "electric_scooter"}, {"bike_id": "9f657593f031ebed293be58c4e5556b8", "is_reserved": 0, "fusion_lon": 0.0, "lat": 38.985063833333335, "is_disabled": 0, "name": "9f657593f031ebed293be58c4e5556b8", "fusion_lat": 0.0, "rental_uris": {"ios": "https://dc.lft.to/lastmile_qr_scan", "android": "https://dc.lft.to/lastmile_qr_scan"}, "lon": -76.982176, "type": "electric_bike"}, {"bike_id": "3bde8f646a50af6e7693bb119c5b49a3", "is_reserved": 0, "fusion_lon": 0.0, "lat": 38.862412, "is_disabled": 0, "name": "3bde8f646a50af6e7693bb119c5b49a3", "fusion_lat": 0.0, "rental_uris": {"ios": "https://dc.lft.to/lastmile_qr_scan", "android": "https://dc.lft.to/lastmile_qr_scan"}, "lon": -76.99494016666667, "type": "electric_scooter"}, {"bike_id": "342e997725a0e395bf2d41ef89cb6788", "is_reserved": 0, "fusion_lon": 0.0, "lat": 38.90063766666667, "is_disabled": 0, "name": "342e997725a0e395bf2d41ef89cb6788", "fusion_lat": 0.0, "rental_uris": {"ios": "https://dc.lft.to/lastmile_qr_scan", "android": "https://dc.lft.to/lastmile_qr_scan"}, "lon": -76.98712366666666, "type": "electric_scooter"}, {"bike_id": "40d2bf39134bd26563dff6f11be1a8d0", "is_reserved": 0, "fusion_lon": 0.0, "lat": 38.9328855, "is_disabled": 0, "name": "40d2bf39134bd26563dff6f11be1a8d0", "fusion_lat": 0.0, "rental_uris": {"ios": "https://dc.lft.to/lastmile_qr_scan", "android": "https://dc.lft.to/lastmile_qr_scan"}, "lon": -77.025097, "type": "electric_bike"}, {"bike_id": "f7fc47219c57accfde5ecb10ae2a32e8", "is_reserved": 0, "fusion_lon": 0.0, "lat": 38.893865, "is_disabled": 0, "name": "f7fc47219c57accfde5ecb10ae2a32e8", "fusion_lat": 0.0, "rental_uris": {"ios": "https://dc.lft.to/lastmile_qr_scan", "android": "https://dc.lft.to/lastmile_qr_scan"}, "lon": -77.0059945, "type": "electric_scooter"}, {"bike_id": "fe55558e3942cb831a944fa9aae52f58", "is_reserved": 0, "fusion_lon": 0.0, "lat": 38.909611, "is_disabled": 0, "name": "fe55558e3942cb831a944fa9aae52f58", "fusion_lat": 0.0, "rental_uris": {"ios": "https://dc.lft.to/lastmile_qr_scan", "android": "https://dc.lft.to/lastmile_qr_scan"}, "lon": -77.0227945, "type": "electric_scooter"}, {"bike_id": "4f9ff8ed6227f57ca1c35bbad4f1cd30", "is_reserved": 0, "fusion_lon": 0.0, "lat": 38.9209195, "is_disabled": 0, "name": "4f9ff8ed6227f57ca1c35bbad4f1cd30", "fusion_lat": 0.0, "rental_uris": {"ios": "https://dc.lft.to/lastmile_qr_scan", "android": "https://dc.lft.to/lastmile_qr_scan"}, "lon": -77.02513566666667, "type": "electric_scooter"}, {"bike_id": "db2eb5aefb2c69f6911dd17649be246c", "is_reserved": 0, "fusion_lon": 0.0, "lat": 38.9279175, "is_disabled": 0, "name": "db2eb5aefb2c69f6911dd17649be246c", "fusion_lat": 0.0, "rental_uris": {"ios": "https://dc.lft.to/lastmile_qr_scan", "android": "https://dc.lft.to/lastmile_qr_scan"}, "lon": -77.03147416666667, "type": "electric_scooter"}, {"bike_id": "e22b73af040f61b5085423982b26c093", "is_reserved": 0, "fusion_lon": 0.0, "lat": 38.90049783333333, "is_disabled": 0, "name": "e22b73af040f61b5085423982b26c093", "fusion_lat": 0.0, "rental_uris": {"ios": "https://dc.lft.to/lastmile_qr_scan", "android": "https://dc.lft.to/lastmile_qr_scan"}, "lon": -77.00761566666667, "type": "electric_scooter"}, {"bike_id": "7f2641f04b5847b1306c32c2e5fb9fb1", "is_reserved": 0, "fusion_lon": 0.0, "lat": 38.865585833333334, "is_disabled": 0, "name": "7f2641f04b5847b1306c32c2e5fb9fb1", "fusion_lat": 0.0, "rental_uris": {"ios": "https://dc.lft.to/lastmile_qr_scan", "android": "https://dc.lft.to/lastmile_qr_scan"}, "lon": -76.9895175, "type": "electric_scooter"}, {"bike_id": "372ebf16c9668e9bcb977eb764546279", "is_reserved": 0, "fusion_lon": 0.0, "lat": 38.905733, "is_disabled": 0, "name": "372ebf16c9668e9bcb977eb764546279", "fusion_lat": 0.0, "rental_uris": {"ios": "https://dc.lft.to/lastmile_qr_scan", "android": "https://dc.lft.to/lastmile_qr_scan"}, "lon": -77.02983266666666, "type": "electric_scooter"}, {"bike_id": "61e91382f12989a3f7d15c8bcf43c0cd", "is_reserved": 0, "fusion_lon": 0.0, "lat": 38.90197633333333, "is_disabled": 0, "name": "61e91382f12989a3f7d15c8bcf43c0cd", "fusion_lat": 0.0, "rental_uris": {"ios": "https://dc.lft.to/lastmile_qr_scan", "android": "https://dc.lft.to/lastmile_qr_scan"}, "lon": -77.04792833333333, "type": "electric_scooter"}, {"bike_id": "847c30a6e26c98d484400a5940117d21", "is_reserved": 0, "fusion_lon": 0.0, "lat": 38.86590783333333, "is_disabled": 0, "name": "847c30a6e26c98d484400a5940117d21", "fusion_lat": 0.0, "rental_uris": {"ios": "https://dc.lft.to/lastmile_qr_scan", "android": "https://dc.lft.to/lastmile_qr_scan"}, "lon": -76.9322915, "type": "electric_bike"}, {"bike_id": "72f2ec67b3ac8aa903825a300026e120", "is_reserved": 0, "fusion_lon": 0.0, "lat": 38.939492666666666, "is_disabled": 0, "name": "72f2ec67b3ac8aa903825a300026e120", "fusion_lat": 0.0, "rental_uris": {"ios": "https://dc.lft.to/lastmile_qr_scan", "android": "https://dc.lft.to/lastmile_qr_scan"}, "lon": -77.0327155, "type": "electric_scooter"}, {"bike_id": "d5169a800b2de5e752035af55a0d69e9", "is_reserved": 0, "fusion_lon": 0.0, "lat": 38.892218166666666, "is_disabled": 0, "name": "d5169a800b2de5e752035af55a0d69e9", "fusion_lat": 0.0, "rental_uris": {"ios": "https://dc.lft.to/lastmile_qr_scan", "android": "https://dc.lft.to/lastmile_qr_scan"}, "lon": -77.028391, "type": "electric_scooter"}, {"bike_id": "8cc5dfe949627ed483986168c76003de", "is_reserved": 0, "fusion_lon": 0.0, "lat": 38.806959666666664, "is_disabled": 0, "name": "8cc5dfe949627ed483986168c76003de", "fusion_lat": 0.0, "rental_uris": {"ios": "https://dc.lft.to/lastmile_qr_scan", "android": "https://dc.lft.to/lastmile_qr_scan"}, "lon": -77.05963, "type": "electric_bike"}, {"bike_id": "b424c7a4e458190dca26dace9ec55b70", "is_reserved": 0, "fusion_lon": 0.0, "lat": 38.8521645, "is_disabled": 0, "name": "b424c7a4e458190dca26dace9ec55b70", "fusion_lat": 0.0, "rental_uris": {"ios": "https://dc.lft.to/lastmile_qr_scan", "android": "https://dc.lft.to/lastmile_qr_scan"}, "lon": -77.129584, "type": "electric_bike"}, {"bike_id": "518f26b02d8fd05ffc11dd7dd58981e3", "is_reserved": 0, "fusion_lon": 0.0, "lat": 38.8998675, "is_disabled": 0, "name": "518f26b02d8fd05ffc11dd7dd58981e3", "fusion_lat": 0.0, "rental_uris": {"ios": "https://dc.lft.to/lastmile_qr_scan", "android": "https://dc.lft.to/lastmile_qr_scan"}, "lon": -77.02150783333333, "type": "electric_scooter"}, {"bike_id": "88faa021c8250848531a18e0b3130549", "is_reserved": 0, "fusion_lon": 0.0, "lat": 38.94179916666667, "is_disabled": 0, "name": "88faa021c8250848531a18e0b3130549", "fusion_lat": 0.0, "rental_uris": {"ios": "https://dc.lft.to/lastmile_qr_scan", "android": "https://dc.lft.to/lastmile_qr_scan"}, "lon": -77.0252885, "type": "electric_scooter"}, {"bike_id": "910542aa1657721e3e9e7a05c43c5fe8", "is_reserved": 0, "fusion_lon": 0.0, "lat": 38.89227966666667, "is_disabled": 0, "name": "910542aa1657721e3e9e7a05c43c5fe8", "fusion_lat": 0.0, "rental_uris": {"ios": "https://dc.lft.to/lastmile_qr_scan", "android": "https://dc.lft.to/lastmile_qr_scan"}, "lon": -77.02582316666667, "type": "electric_scooter"}, {"bike_id": "ee01a8321360c37eef7771319c08467e", "is_reserved": 0, "fusion_lon": 0.0, "lat": 38.91656783333333, "is_disabled": 0, "name": "ee01a8321360c37eef7771319c08467e", "fusion_lat": 0.0, "rental_uris": {"ios": "https://dc.lft.to/lastmile_qr_scan", "android": "https://dc.lft.to/lastmile_qr_scan"}, "lon": -77.0364365, "type": "electric_scooter"}, {"bike_id": "09638e6a6d586906cfb8fbffd2c2f3b9", "is_reserved": 0, "fusion_lon": 0.0, "lat": 38.919792666666666, "is_disabled": 0, "name": "09638e6a6d586906cfb8fbffd2c2f3b9", "fusion_lat": 0.0, "rental_uris": {"ios": "https://dc.lft.to/lastmile_qr_scan", "android": "https://dc.lft.to/lastmile_qr_scan"}, "lon": -77.02387966666667, "type": "electric_scooter"}, {"bike_id": "d48286ce7951eeebb4e7bbfb231752b9", "is_reserved": 0, "fusion_lon": 0.0, "lat": 38.9088825, "is_disabled": 0, "name": "d48286ce7951eeebb4e7bbfb231752b9", "fusion_lat": 0.0, "rental_uris": {"ios": "https://dc.lft.to/lastmile_qr_scan", "android": "https://dc.lft.to/lastmile_qr_scan"}, "lon": -77.023023, "type": "electric_scooter"}, {"bike_id": "aaf490d94767fea9e859740934ea8022", "is_reserved": 0, "fusion_lon": 0.0, "lat": 38.8972025, "is_disabled": 0, "name": "aaf490d94767fea9e859740934ea8022", "fusion_lat": 0.0, "rental_uris": {"ios": "https://dc.lft.to/lastmile_qr_scan", "android": "https://dc.lft.to/lastmile_qr_scan"}, "lon": -77.02687316666666, "type": "electric_scooter"}, {"bike_id": "0a199652c8ad143b0c69df862b03c4b2", "is_reserved": 0, "fusion_lon": 0.0, "lat": 38.9027315, "is_disabled": 0, "name": "0a199652c8ad143b0c69df862b03c4b2", "fusion_lat": 0.0, "rental_uris": {"ios": "https://dc.lft.to/lastmile_qr_scan", "android": "https://dc.lft.to/lastmile_qr_scan"}, "lon": -77.04054183333334, "type": "electric_scooter"}, {"bike_id": "651e662802264e0ee31ca9a685bcf79c", "is_reserved": 0, "fusion_lon": 0.0, "lat": 38.939482166666664, "is_disabled": 0, "name": "651e662802264e0ee31ca9a685bcf79c", "fusion_lat": 0.0, "rental_uris": {"ios": "https://dc.lft.to/lastmile_qr_scan", "android": "https://dc.lft.to/lastmile_qr_scan"}, "lon": -77.03267616666666, "type": "electric_scooter"}, {"bike_id": "c7f9a9eec2d5dac43757247c9b86a52b", "is_reserved": 0, "fusion_lon": 0.0, "lat": 38.984644, "is_disabled": 0, "name": "c7f9a9eec2d5dac43757247c9b86a52b", "fusion_lat": 0.0, "rental_uris": {"ios": "https://dc.lft.to/lastmile_qr_scan", "android": "https://dc.lft.to/lastmile_qr_scan"}, "lon": -76.95526566666666, "type": "electric_bike"}, {"bike_id": "dfd8296e5c649bf3d578ef5089d78bf3", "is_reserved": 0, "fusion_lon": 0.0, "lat": 38.927472333333334, "is_disabled": 0, "name": "dfd8296e5c649bf3d578ef5089d78bf3", "fusion_lat": 0.0, "rental_uris": {"ios": "https://dc.lft.to/lastmile_qr_scan", "android": "https://dc.lft.to/lastmile_qr_scan"}, "lon": -77.05383733333333, "type": "electric_scooter"}, {"bike_id": "258c35613b869175bf02b856353c339d", "is_reserved": 0, "fusion_lon": 0.0, "lat": 38.92149583333333, "is_disabled": 0, "name": "258c35613b869175bf02b856353c339d", "fusion_lat": 0.0, "rental_uris": {"ios": "https://dc.lft.to/lastmile_qr_scan", "android": "https://dc.lft.to/lastmile_qr_scan"}, "lon": -77.035306, "type": "electric_scooter"}, {"bike_id": "d93fa3db288183f5f5b4b5e01e556643", "is_reserved": 0, "fusion_lon": 0.0, "lat": 38.89999, "is_disabled": 0, "name": "d93fa3db288183f5f5b4b5e01e556643", "fusion_lat": 0.0, "rental_uris": {"ios": "https://dc.lft.to/lastmile_qr_scan", "android": "https://dc.lft.to/lastmile_qr_scan"}, "lon": -76.99779633333333, "type": "electric_scooter"}, {"bike_id": "573cc28008093c25c28fcfcfc110bfa4", "is_reserved": 0, "fusion_lon": 0.0, "lat": 38.92735883333334, "is_disabled": 0, "name": "573cc28008093c25c28fcfcfc110bfa4", "fusion_lat": 0.0, "rental_uris": {"ios": "https://dc.lft.to/lastmile_qr_scan", "android": "https://dc.lft.to/lastmile_qr_scan"}, "lon": -77.005709, "type": "electric_scooter"}, {"bike_id": "23fb0a948c98dd7ee4ef2d851c80f3cf", "is_reserved": 0, "fusion_lon": 0.0, "lat": 38.9052845, "is_disabled": 0, "name": "23fb0a948c98dd7ee4ef2d851c80f3cf", "fusion_lat": 0.0, "rental_uris": {"ios": "https://dc.lft.to/lastmile_qr_scan", "android": "https://dc.lft.to/lastmile_qr_scan"}, "lon": -77.02591633333333, "type": "electric_scooter"}, {"bike_id": "50d859b295de0103fe354245ce4002dd", "is_reserved": 0, "fusion_lon": 0.0, "lat": 38.872599666666666, "is_disabled": 0, "name": "50d859b295de0103fe354245ce4002dd", "fusion_lat": 0.0, "rental_uris": {"ios": "https://dc.lft.to/lastmile_qr_scan", "android": "https://dc.lft.to/lastmile_qr_scan"}, "lon": -76.97910566666667, "type": "electric_bike"}, {"bike_id": "bf19e2f56c624e652223531c0aba4e13", "is_reserved": 0, "fusion_lon": 0.0, "lat": 38.84058733333333, "is_disabled": 0, "name": "bf19e2f56c624e652223531c0aba4e13", "fusion_lat": 0.0, "rental_uris": {"ios": "https://dc.lft.to/lastmile_qr_scan", "android": "https://dc.lft.to/lastmile_qr_scan"}, "lon": -77.06406133333333, "type": "electric_bike"}, {"bike_id": "79fa1234bbc80bebb92daec482628478", "is_reserved": 0, "fusion_lon": 0.0, "lat": 39.094592666666664, "is_disabled": 0, "name": "79fa1234bbc80bebb92daec482628478", "fusion_lat": 0.0, "rental_uris": {"ios": "https://dc.lft.to/lastmile_qr_scan", "android": "https://dc.lft.to/lastmile_qr_scan"}, "lon": -77.14993383333334, "type": "electric_bike"}, {"bike_id": "c4439b8489a8770b375484b9591046b0", "is_reserved": 0, "fusion_lon": 0.0, "lat": 38.827805, "is_disabled": 0, "name": "c4439b8489a8770b375484b9591046b0", "fusion_lat": 0.0, "rental_uris": {"ios": "https://dc.lft.to/lastmile_qr_scan", "android": "https://dc.lft.to/lastmile_qr_scan"}, "lon": -77.00905366666667, "type": "electric_bike"}, {"bike_id": "9efcf44c1851b6134c68554b06d41d1e", "is_reserved": 0, "fusion_lon": 0.0, "lat": 38.89844083333333, "is_disabled": 0, "name": "9efcf44c1851b6134c68554b06d41d1e", "fusion_lat": 0.0, "rental_uris": {"ios": "https://dc.lft.to/lastmile_qr_scan", "android": "https://dc.lft.to/lastmile_qr_scan"}, "lon": -76.9447555, "type": "electric_scooter"}, {"bike_id": "ee1b51cf70661220de7f4e57532fa4c1", "is_reserved": 0, "fusion_lon": 0.0, "lat": 38.885321166666664, "is_disabled": 0, "name": "ee1b51cf70661220de7f4e57532fa4c1", "fusion_lat": 0.0, "rental_uris": {"ios": "https://dc.lft.to/lastmile_qr_scan", "android": "https://dc.lft.to/lastmile_qr_scan"}, "lon": -76.98052916666667, "type": "electric_scooter"}, {"bike_id": "1a527855f5bdb33ad13cac9e873a500c", "is_reserved": 0, "fusion_lon": 0.0, "lat": 38.84292033333333, "is_disabled": 0, "name": "1a527855f5bdb33ad13cac9e873a500c", "fusion_lat": 0.0, "rental_uris": {"ios": "https://dc.lft.to/lastmile_qr_scan", "android": "https://dc.lft.to/lastmile_qr_scan"}, "lon": -76.99946933333334, "type": "electric_scooter"}, {"bike_id": "606d0599842c8fdb7abf195845fa7053", "is_reserved": 0, "fusion_lon": 0.0, "lat": 38.919254333333335, "is_disabled": 0, "name": "606d0599842c8fdb7abf195845fa7053", "fusion_lat": 0.0, "rental_uris": {"ios": "https://dc.lft.to/lastmile_qr_scan", "android": "https://dc.lft.to/lastmile_qr_scan"}, "lon": -77.031921, "type": "electric_scooter"}, {"bike_id": "af661ca9179957ab98538ee64b87df36", "is_reserved": 0, "fusion_lon": 0.0, "lat": 38.90777633333333, "is_disabled": 0, "name": "af661ca9179957ab98538ee64b87df36", "fusion_lat": 0.0, "rental_uris": {"ios": "https://dc.lft.to/lastmile_qr_scan", "android": "https://dc.lft.to/lastmile_qr_scan"}, "lon": -77.06927183333333, "type": "electric_scooter"}, {"bike_id": "496d115073de9ce27f114a5a57f15817", "is_reserved": 0, "fusion_lon": 0.0, "lat": 38.904455, "is_disabled": 0, "name": "496d115073de9ce27f114a5a57f15817", "fusion_lat": 0.0, "rental_uris": {"ios": "https://dc.lft.to/lastmile_qr_scan", "android": "https://dc.lft.to/lastmile_qr_scan"}, "lon": -76.996219, "type": "electric_scooter"}, {"bike_id": "0ad70faa8639c787c0e0a3762a86ebb9", "is_reserved": 0, "fusion_lon": 0.0, "lat": 38.92263416666667, "is_disabled": 0, "name": "0ad70faa8639c787c0e0a3762a86ebb9", "fusion_lat": 0.0, "rental_uris": {"ios": "https://dc.lft.to/lastmile_qr_scan", "android": "https://dc.lft.to/lastmile_qr_scan"}, "lon": -77.01824666666667, "type": "electric_scooter"}, {"bike_id": "325c5927dcf6d229b21173e7cc34b7e3", "is_reserved": 0, "fusion_lon": 0.0, "lat": 38.856141, "is_disabled": 0, "name": "325c5927dcf6d229b21173e7cc34b7e3", "fusion_lat": 0.0, "rental_uris": {"ios": "https://dc.lft.to/lastmile_qr_scan", "android": "https://dc.lft.to/lastmile_qr_scan"}, "lon": -76.98020616666666, "type": "electric_scooter"}, {"bike_id": "1992d0d5a6e89e7ba7ecb87605987185", "is_reserved": 0, "fusion_lon": 0.0, "lat": 38.91617433333333, "is_disabled": 0, "name": "1992d0d5a6e89e7ba7ecb87605987185", "fusion_lat": 0.0, "rental_uris": {"ios": "https://dc.lft.to/lastmile_qr_scan", "android": "https://dc.lft.to/lastmile_qr_scan"}, "lon": -77.03169016666666, "type": "electric_scooter"}, {"bike_id": "8c48d45fcdd303178114c5311328e8fa", "is_reserved": 0, "fusion_lon": 0.0, "lat": 38.902950833333335, "is_disabled": 0, "name": "8c48d45fcdd303178114c5311328e8fa", "fusion_lat": 0.0, "rental_uris": {"ios": "https://dc.lft.to/lastmile_qr_scan", "android": "https://dc.lft.to/lastmile_qr_scan"}, "lon": -76.99857083333333, "type": "electric_scooter"}, {"bike_id": "6743f8c443f71c8606a2da87c39c3046", "is_reserved": 0, "fusion_lon": 0.0, "lat": 38.8784055, "is_disabled": 0, "name": "6743f8c443f71c8606a2da87c39c3046", "fusion_lat": 0.0, "rental_uris": {"ios": "https://dc.lft.to/lastmile_qr_scan", "android": "https://dc.lft.to/lastmile_qr_scan"}, "lon": -76.99040733333334, "type": "electric_scooter"}, {"bike_id": "ec4a92e3314f6540d9579c8e822c7533", "is_reserved": 0, "fusion_lon": 0.0, "lat": 38.941744, "is_disabled": 0, "name": "ec4a92e3314f6540d9579c8e822c7533", "fusion_lat": 0.0, "rental_uris": {"ios": "https://dc.lft.to/lastmile_qr_scan", "android": "https://dc.lft.to/lastmile_qr_scan"}, "lon": -77.02499083333333, "type": "electric_scooter"}, {"bike_id": "c95bfbf3b069949ca8dba2cb91b18f22", "is_reserved": 0, "fusion_lon": 0.0, "lat": 38.88502066666667, "is_disabled": 0, "name": "c95bfbf3b069949ca8dba2cb91b18f22", "fusion_lat": 0.0, "rental_uris": {"ios": "https://dc.lft.to/lastmile_qr_scan", "android": "https://dc.lft.to/lastmile_qr_scan"}, "lon": -77.09688716666666, "type": "electric_bike"}, {"bike_id": "e9b1b7703e30ab3c56546e6a7cb4e10e", "is_reserved": 0, "fusion_lon": 0.0, "lat": 38.87633, "is_disabled": 0, "name": "e9b1b7703e30ab3c56546e6a7cb4e10e", "fusion_lat": 0.0, "rental_uris": {"ios": "https://dc.lft.to/lastmile_qr_scan", "android": "https://dc.lft.to/lastmile_qr_scan"}, "lon": -76.9652535, "type": "electric_scooter"}, {"bike_id": "c9c93d2a077dbfa30414a9420e2d2061", "is_reserved": 0, "fusion_lon": 0.0, "lat": 38.802266833333334, "is_disabled": 0, "name": "c9c93d2a077dbfa30414a9420e2d2061", "fusion_lat": 0.0, "rental_uris": {"ios": "https://dc.lft.to/lastmile_qr_scan", "android": "https://dc.lft.to/lastmile_qr_scan"}, "lon": -77.07915466666667, "type": "electric_bike"}, {"bike_id": "4aadf468d9ed4e7175ea6b7731fc560c", "is_reserved": 0, "fusion_lon": 0.0, "lat": 38.906915833333336, "is_disabled": 0, "name": "4aadf468d9ed4e7175ea6b7731fc560c", "fusion_lat": 0.0, "rental_uris": {"ios": "https://dc.lft.to/lastmile_qr_scan", "android": "https://dc.lft.to/lastmile_qr_scan"}, "lon": -76.95185933333333, "type": "electric_bike"}, {"bike_id": "637a364152fc0964d5cd2a13b9a20672", "is_reserved": 0, "fusion_lon": 0.0, "lat": 38.958808833333336, "is_disabled": 0, "name": "637a364152fc0964d5cd2a13b9a20672", "fusion_lat": 0.0, "rental_uris": {"ios": "https://dc.lft.to/lastmile_qr_scan", "android": "https://dc.lft.to/lastmile_qr_scan"}, "lon": -77.01032616666667, "type": "electric_bike"}, {"bike_id": "a09f8c6858dad22cb32e0ea9f022ba9c", "is_reserved": 0, "fusion_lon": 0.0, "lat": 38.90151516666667, "is_disabled": 0, "name": "a09f8c6858dad22cb32e0ea9f022ba9c", "fusion_lat": 0.0, "rental_uris": {"ios": "https://dc.lft.to/lastmile_qr_scan", "android": "https://dc.lft.to/lastmile_qr_scan"}, "lon": -77.03320733333334, "type": "electric_scooter"}, {"bike_id": "172b1217b8dcab690d7fdfde4e5b91e5", "is_reserved": 0, "fusion_lon": 0.0, "lat": 38.932011, "is_disabled": 0, "name": "172b1217b8dcab690d7fdfde4e5b91e5", "fusion_lat": 0.0, "rental_uris": {"ios": "https://dc.lft.to/lastmile_qr_scan", "android": "https://dc.lft.to/lastmile_qr_scan"}, "lon": -77.03881733333333, "type": "electric_scooter"}, {"bike_id": "74b09d82996de1983802a841fca991fa", "is_reserved": 0, "fusion_lon": 0.0, "lat": 38.94414416666667, "is_disabled": 0, "name": "74b09d82996de1983802a841fca991fa", "fusion_lat": 0.0, "rental_uris": {"ios": "https://dc.lft.to/lastmile_qr_scan", "android": "https://dc.lft.to/lastmile_qr_scan"}, "lon": -77.0551945, "type": "electric_scooter"}, {"bike_id": "b530f34a828d655bff5222659b21163a", "is_reserved": 0, "fusion_lon": 0.0, "lat": 38.9046965, "is_disabled": 0, "name": "b530f34a828d655bff5222659b21163a", "fusion_lat": 0.0, "rental_uris": {"ios": "https://dc.lft.to/lastmile_qr_scan", "android": "https://dc.lft.to/lastmile_qr_scan"}, "lon": -77.03230816666667, "type": "electric_scooter"}, {"bike_id": "100aec64886f4202dcab638bda73bebf", "is_reserved": 0, "fusion_lon": 0.0, "lat": 38.917162166666664, "is_disabled": 0, "name": "100aec64886f4202dcab638bda73bebf", "fusion_lat": 0.0, "rental_uris": {"ios": "https://dc.lft.to/lastmile_qr_scan", "android": "https://dc.lft.to/lastmile_qr_scan"}, "lon": -77.01204116666666, "type": "electric_scooter"}, {"bike_id": "11ddacbf6641781eb88759ac3abf1df7", "is_reserved": 0, "fusion_lon": 0.0, "lat": 38.92944683333333, "is_disabled": 0, "name": "11ddacbf6641781eb88759ac3abf1df7", "fusion_lat": 0.0, "rental_uris": {"ios": "https://dc.lft.to/lastmile_qr_scan", "android": "https://dc.lft.to/lastmile_qr_scan"}, "lon": -77.04404533333333, "type": "electric_scooter"}, {"bike_id": "01716dc3ec6786623d0317303d5d081d", "is_reserved": 0, "fusion_lon": 0.0, "lat": 38.866276, "is_disabled": 0, "name": "01716dc3ec6786623d0317303d5d081d", "fusion_lat": 0.0, "rental_uris": {"ios": "https://dc.lft.to/lastmile_qr_scan", "android": "https://dc.lft.to/lastmile_qr_scan"}, "lon": -76.98713333333333, "type": "electric_scooter"}, {"bike_id": "215c587ecd4a113bfe1dde07f8559e27", "is_reserved": 0, "fusion_lon": 0.0, "lat": 38.9288445, "is_disabled": 0, "name": "215c587ecd4a113bfe1dde07f8559e27", "fusion_lat": 0.0, "rental_uris": {"ios": "https://dc.lft.to/lastmile_qr_scan", "android": "https://dc.lft.to/lastmile_qr_scan"}, "lon": -77.05448216666667, "type": "electric_scooter"}, {"bike_id": "0444f3a060e93635d823a054ed9a22a6", "is_reserved": 0, "fusion_lon": 0.0, "lat": 38.90977483333333, "is_disabled": 0, "name": "0444f3a060e93635d823a054ed9a22a6", "fusion_lat": 0.0, "rental_uris": {"ios": "https://dc.lft.to/lastmile_qr_scan", "android": "https://dc.lft.to/lastmile_qr_scan"}, "lon": -77.02387366666666, "type": "electric_scooter"}, {"bike_id": "d3eaf93909e0524c8d0aa0ea63136429", "is_reserved": 0, "fusion_lon": 0.0, "lat": 38.9080165, "is_disabled": 0, "name": "d3eaf93909e0524c8d0aa0ea63136429", "fusion_lat": 0.0, "rental_uris": {"ios": "https://dc.lft.to/lastmile_qr_scan", "android": "https://dc.lft.to/lastmile_qr_scan"}, "lon": -77.03460733333333, "type": "electric_scooter"}, {"bike_id": "ba5d9ac543f7e80b7b6c89d86fbf178b", "is_reserved": 0, "fusion_lon": 0.0, "lat": 38.90012133333333, "is_disabled": 0, "name": "ba5d9ac543f7e80b7b6c89d86fbf178b", "fusion_lat": 0.0, "rental_uris": {"ios": "https://dc.lft.to/lastmile_qr_scan", "android": "https://dc.lft.to/lastmile_qr_scan"}, "lon": -76.97307883333333, "type": "electric_scooter"}, {"bike_id": "7ea36fb17934ed51bba3c8904e98273b", "is_reserved": 0, "fusion_lon": 0.0, "lat": 38.899398833333336, "is_disabled": 0, "name": "7ea36fb17934ed51bba3c8904e98273b", "fusion_lat": 0.0, "rental_uris": {"ios": "https://dc.lft.to/lastmile_qr_scan", "android": "https://dc.lft.to/lastmile_qr_scan"}, "lon": -77.003446, "type": "electric_scooter"}, {"bike_id": "32a69ab97531d580845a22011c1c9a95", "is_reserved": 0, "fusion_lon": 0.0, "lat": 38.904963333333335, "is_disabled": 0, "name": "32a69ab97531d580845a22011c1c9a95", "fusion_lat": 0.0, "rental_uris": {"ios": "https://dc.lft.to/lastmile_qr_scan", "android": "https://dc.lft.to/lastmile_qr_scan"}, "lon": -77.029567, "type": "electric_scooter"}, {"bike_id": "5341b574ea7c40fe1a99cc290dd8b256", "is_reserved": 0, "fusion_lon": 0.0, "lat": 38.90215233333333, "is_disabled": 0, "name": "5341b574ea7c40fe1a99cc290dd8b256", "fusion_lat": 0.0, "rental_uris": {"ios": "https://dc.lft.to/lastmile_qr_scan", "android": "https://dc.lft.to/lastmile_qr_scan"}, "lon": -77.060623, "type": "electric_scooter"}, {"bike_id": "f99afdfe6ff85e334c10a903cf82386e", "is_reserved": 0, "fusion_lon": 0.0, "lat": 38.908409166666665, "is_disabled": 0, "name": "f99afdfe6ff85e334c10a903cf82386e", "fusion_lat": 0.0, "rental_uris": {"ios": "https://dc.lft.to/lastmile_qr_scan", "android": "https://dc.lft.to/lastmile_qr_scan"}, "lon": -77.08529783333333, "type": "electric_scooter"}, {"bike_id": "69bbf4e6c6e2f75f184ece534b4bb3b3", "is_reserved": 0, "fusion_lon": 0.0, "lat": 38.920832833333336, "is_disabled": 0, "name": "69bbf4e6c6e2f75f184ece534b4bb3b3", "fusion_lat": 0.0, "rental_uris": {"ios": "https://dc.lft.to/lastmile_qr_scan", "android": "https://dc.lft.to/lastmile_qr_scan"}, "lon": -77.02523016666666, "type": "electric_scooter"}, {"bike_id": "8fef1eaceb3bf4a53cb147eb613a3396", "is_reserved": 0, "fusion_lon": 0.0, "lat": 38.9037105, "is_disabled": 0, "name": "8fef1eaceb3bf4a53cb147eb613a3396", "fusion_lat": 0.0, "rental_uris": {"ios": "https://dc.lft.to/lastmile_qr_scan", "android": "https://dc.lft.to/lastmile_qr_scan"}, "lon": -77.04344333333333, "type": "electric_scooter"}, {"bike_id": "01b323f36d4aecdcd7d7ccf4a1cebd98", "is_reserved": 0, "fusion_lon": 0.0, "lat": 38.879946333333336, "is_disabled": 0, "name": "01b323f36d4aecdcd7d7ccf4a1cebd98", "fusion_lat": 0.0, "rental_uris": {"ios": "https://dc.lft.to/lastmile_qr_scan", "android": "https://dc.lft.to/lastmile_qr_scan"}, "lon": -76.9949915, "type": "electric_scooter"}, {"bike_id": "c703a0a4f72d15966c71f310668a1811", "is_reserved": 0, "fusion_lon": 0.0, "lat": 38.878372, "is_disabled": 0, "name": "c703a0a4f72d15966c71f310668a1811", "fusion_lat": 0.0, "rental_uris": {"ios": "https://dc.lft.to/lastmile_qr_scan", "android": "https://dc.lft.to/lastmile_qr_scan"}, "lon": -77.02278333333334, "type": "electric_scooter"}, {"bike_id": "b2cc64dba54706e5461ff4125feb0a3e", "is_reserved": 0, "fusion_lon": 0.0, "lat": 38.88401133333333, "is_disabled": 0, "name": "b2cc64dba54706e5461ff4125feb0a3e", "fusion_lat": 0.0, "rental_uris": {"ios": "https://dc.lft.to/lastmile_qr_scan", "android": "https://dc.lft.to/lastmile_qr_scan"}, "lon": -77.01527966666667, "type": "electric_scooter"}, {"bike_id": "17682b4649c665c079f6d4ca3cae50d8", "is_reserved": 0, "fusion_lon": 0.0, "lat": 38.910901333333335, "is_disabled": 0, "name": "17682b4649c665c079f6d4ca3cae50d8", "fusion_lat": 0.0, "rental_uris": {"ios": "https://dc.lft.to/lastmile_qr_scan", "android": "https://dc.lft.to/lastmile_qr_scan"}, "lon": -77.03450683333334, "type": "electric_scooter"}, {"bike_id": "29d69f4fbdf8d283743416c080f66ef8", "is_reserved": 0, "fusion_lon": 0.0, "lat": 38.919789333333334, "is_disabled": 0, "name": "29d69f4fbdf8d283743416c080f66ef8", "fusion_lat": 0.0, "rental_uris": {"ios": "https://dc.lft.to/lastmile_qr_scan", "android": "https://dc.lft.to/lastmile_qr_scan"}, "lon": -77.02393216666667, "type": "electric_scooter"}, {"bike_id": "c8eb4d4f948d664d4ea823885fce2e42", "is_reserved": 0, "fusion_lon": 0.0, "lat": 38.916725, "is_disabled": 0, "name": "c8eb4d4f948d664d4ea823885fce2e42", "fusion_lat": 0.0, "rental_uris": {"ios": "https://dc.lft.to/lastmile_qr_scan", "android": "https://dc.lft.to/lastmile_qr_scan"}, "lon": -77.03639433333333, "type": "electric_scooter"}, {"bike_id": "3d8a64eece08c19e895af9ef517d19b8", "is_reserved": 0, "fusion_lon": 0.0, "lat": 38.91992483333333, "is_disabled": 0, "name": "3d8a64eece08c19e895af9ef517d19b8", "fusion_lat": 0.0, "rental_uris": {"ios": "https://dc.lft.to/lastmile_qr_scan", "android": "https://dc.lft.to/lastmile_qr_scan"}, "lon": -77.03220033333334, "type": "electric_scooter"}, {"bike_id": "67064a719ca3c52ef6d9f2ad63d5530b", "is_reserved": 0, "fusion_lon": 0.0, "lat": 38.936049, "is_disabled": 0, "name": "67064a719ca3c52ef6d9f2ad63d5530b", "fusion_lat": 0.0, "rental_uris": {"ios": "https://dc.lft.to/lastmile_qr_scan", "android": "https://dc.lft.to/lastmile_qr_scan"}, "lon": -77.058624, "type": "electric_scooter"}, {"bike_id": "c36fba95b4d9050f0c4b0267c7cac7b3", "is_reserved": 0, "fusion_lon": 0.0, "lat": 38.990873, "is_disabled": 0, "name": "c36fba95b4d9050f0c4b0267c7cac7b3", "fusion_lat": 0.0, "rental_uris": {"ios": "https://dc.lft.to/lastmile_qr_scan", "android": "https://dc.lft.to/lastmile_qr_scan"}, "lon": -76.87491066666666, "type": "electric_bike"}, {"bike_id": "6c1bd7e8884438513fc539d71226ef75", "is_reserved": 0, "fusion_lon": 0.0, "lat": 38.91798716666667, "is_disabled": 0, "name": "6c1bd7e8884438513fc539d71226ef75", "fusion_lat": 0.0, "rental_uris": {"ios": "https://dc.lft.to/lastmile_qr_scan", "android": "https://dc.lft.to/lastmile_qr_scan"}, "lon": -77.03452116666666, "type": "electric_scooter"}, {"bike_id": "2dab2c22175b993782a822050c292f4e", "is_reserved": 0, "fusion_lon": 0.0, "lat": 38.900188666666665, "is_disabled": 0, "name": "2dab2c22175b993782a822050c292f4e", "fusion_lat": 0.0, "rental_uris": {"ios": "https://dc.lft.to/lastmile_qr_scan", "android": "https://dc.lft.to/lastmile_qr_scan"}, "lon": -77.01366433333334, "type": "electric_scooter"}, {"bike_id": "4367198629051969c23f5a1156b91c04", "is_reserved": 0, "fusion_lon": 0.0, "lat": 38.900888, "is_disabled": 0, "name": "4367198629051969c23f5a1156b91c04", "fusion_lat": 0.0, "rental_uris": {"ios": "https://dc.lft.to/lastmile_qr_scan", "android": "https://dc.lft.to/lastmile_qr_scan"}, "lon": -77.04863183333333, "type": "electric_scooter"}, {"bike_id": "136895964a9562a80ef52fc7a25abf8a", "is_reserved": 0, "fusion_lon": 0.0, "lat": 38.82869266666667, "is_disabled": 0, "name": "136895964a9562a80ef52fc7a25abf8a", "fusion_lat": 0.0, "rental_uris": {"ios": "https://dc.lft.to/lastmile_qr_scan", "android": "https://dc.lft.to/lastmile_qr_scan"}, "lon": -77.11222666666667, "type": "electric_bike"}, {"bike_id": "2e6e384d7cbfa4ba4a6a9cc578bcfa7a", "is_reserved": 0, "fusion_lon": 0.0, "lat": 38.85290066666666, "is_disabled": 0, "name": "2e6e384d7cbfa4ba4a6a9cc578bcfa7a", "fusion_lat": 0.0, "rental_uris": {"ios": "https://dc.lft.to/lastmile_qr_scan", "android": "https://dc.lft.to/lastmile_qr_scan"}, "lon": -77.05276833333333, "type": "electric_bike"}, {"bike_id": "3d1a5b222ca11bb449a02e6ba9be9156", "is_reserved": 0, "fusion_lon": 0.0, "lat": 38.90096483333333, "is_disabled": 0, "name": "3d1a5b222ca11bb449a02e6ba9be9156", "fusion_lat": 0.0, "rental_uris": {"ios": "https://dc.lft.to/lastmile_qr_scan", "android": "https://dc.lft.to/lastmile_qr_scan"}, "lon": -77.03158283333333, "type": "electric_scooter"}, {"bike_id": "c4c645ecf156e88573f8be4feb8d2cc1", "is_reserved": 0, "fusion_lon": 0.0, "lat": 38.8637575, "is_disabled": 0, "name": "c4c645ecf156e88573f8be4feb8d2cc1", "fusion_lat": 0.0, "rental_uris": {"ios": "https://dc.lft.to/lastmile_qr_scan", "android": "https://dc.lft.to/lastmile_qr_scan"}, "lon": -76.99058066666667, "type": "electric_scooter"}, {"bike_id": "485f6980ca91b365009d76fe8391b644", "is_reserved": 0, "fusion_lon": 0.0, "lat": 38.88719066666667, "is_disabled": 0, "name": "485f6980ca91b365009d76fe8391b644", "fusion_lat": 0.0, "rental_uris": {"ios": "https://dc.lft.to/lastmile_qr_scan", "android": "https://dc.lft.to/lastmile_qr_scan"}, "lon": -77.02581133333334, "type": "electric_scooter"}, {"bike_id": "ed5038ad6f4c55df4aeff6f79334e9b2", "is_reserved": 0, "fusion_lon": 0.0, "lat": 38.89393616666667, "is_disabled": 0, "name": "ed5038ad6f4c55df4aeff6f79334e9b2", "fusion_lat": 0.0, "rental_uris": {"ios": "https://dc.lft.to/lastmile_qr_scan", "android": "https://dc.lft.to/lastmile_qr_scan"}, "lon": -77.029883, "type": "electric_scooter"}, {"bike_id": "8d5d009b552fbf2d2f8ff64ad55a2542", "is_reserved": 0, "fusion_lon": 0.0, "lat": 38.87134833333333, "is_disabled": 0, "name": "8d5d009b552fbf2d2f8ff64ad55a2542", "fusion_lat": 0.0, "rental_uris": {"ios": "https://dc.lft.to/lastmile_qr_scan", "android": "https://dc.lft.to/lastmile_qr_scan"}, "lon": -76.97744466666667, "type": "electric_scooter"}, {"bike_id": "b75cf993b1877deff83a1e1ae062f75e", "is_reserved": 0, "fusion_lon": 0.0, "lat": 38.911204, "is_disabled": 0, "name": "b75cf993b1877deff83a1e1ae062f75e", "fusion_lat": 0.0, "rental_uris": {"ios": "https://dc.lft.to/lastmile_qr_scan", "android": "https://dc.lft.to/lastmile_qr_scan"}, "lon": -77.02188266666667, "type": "electric_scooter"}, {"bike_id": "0ac6c870247c2afbf4720a5b4884fe5d", "is_reserved": 0, "fusion_lon": 0.0, "lat": 38.924753, "is_disabled": 0, "name": "0ac6c870247c2afbf4720a5b4884fe5d", "fusion_lat": 0.0, "rental_uris": {"ios": "https://dc.lft.to/lastmile_qr_scan", "android": "https://dc.lft.to/lastmile_qr_scan"}, "lon": -77.05209816666667, "type": "electric_scooter"}, {"bike_id": "c583d590534528c1be539348da87b790", "is_reserved": 0, "fusion_lon": 0.0, "lat": 38.91080683333333, "is_disabled": 0, "name": "c583d590534528c1be539348da87b790", "fusion_lat": 0.0, "rental_uris": {"ios": "https://dc.lft.to/lastmile_qr_scan", "android": "https://dc.lft.to/lastmile_qr_scan"}, "lon": -77.038442, "type": "electric_scooter"}, {"bike_id": "6c91264a045ee06e7d6039f169acd8ba", "is_reserved": 0, "fusion_lon": 0.0, "lat": 38.85873683333333, "is_disabled": 0, "name": "6c91264a045ee06e7d6039f169acd8ba", "fusion_lat": 0.0, "rental_uris": {"ios": "https://dc.lft.to/lastmile_qr_scan", "android": "https://dc.lft.to/lastmile_qr_scan"}, "lon": -77.09554283333334, "type": "electric_bike"}, {"bike_id": "eb01584696836a6f5bc659c49fbd1b4f", "is_reserved": 0, "fusion_lon": 0.0, "lat": 38.9250905, "is_disabled": 0, "name": "eb01584696836a6f5bc659c49fbd1b4f", "fusion_lat": 0.0, "rental_uris": {"ios": "https://dc.lft.to/lastmile_qr_scan", "android": "https://dc.lft.to/lastmile_qr_scan"}, "lon": -77.01935183333333, "type": "electric_scooter"}, {"bike_id": "cac33b78bf0167b5aed106f4d205c0e6", "is_reserved": 0, "fusion_lon": 0.0, "lat": 38.86516833333334, "is_disabled": 0, "name": "cac33b78bf0167b5aed106f4d205c0e6", "fusion_lat": 0.0, "rental_uris": {"ios": "https://dc.lft.to/lastmile_qr_scan", "android": "https://dc.lft.to/lastmile_qr_scan"}, "lon": -76.99036066666666, "type": "electric_scooter"}, {"bike_id": "729feb7e21c90553b5d3c812fe593069", "is_reserved": 0, "fusion_lon": 0.0, "lat": 38.920903833333334, "is_disabled": 0, "name": "729feb7e21c90553b5d3c812fe593069", "fusion_lat": 0.0, "rental_uris": {"ios": "https://dc.lft.to/lastmile_qr_scan", "android": "https://dc.lft.to/lastmile_qr_scan"}, "lon": -77.024382, "type": "electric_scooter"}, {"bike_id": "b96a43a25379d5f76e07ab3ddb85e982", "is_reserved": 0, "fusion_lon": 0.0, "lat": 38.919921, "is_disabled": 0, "name": "b96a43a25379d5f76e07ab3ddb85e982", "fusion_lat": 0.0, "rental_uris": {"ios": "https://dc.lft.to/lastmile_qr_scan", "android": "https://dc.lft.to/lastmile_qr_scan"}, "lon": -77.038824, "type": "electric_scooter"}, {"bike_id": "954372f0d31903c486f6465dceabe370", "is_reserved": 0, "fusion_lon": 0.0, "lat": 38.905657, "is_disabled": 0, "name": "954372f0d31903c486f6465dceabe370", "fusion_lat": 0.0, "rental_uris": {"ios": "https://dc.lft.to/lastmile_qr_scan", "android": "https://dc.lft.to/lastmile_qr_scan"}, "lon": -77.03064716666667, "type": "electric_scooter"}, {"bike_id": "7c72ad557a3bca48c61a6b50b7c72358", "is_reserved": 0, "fusion_lon": 0.0, "lat": 38.9255365, "is_disabled": 0, "name": "7c72ad557a3bca48c61a6b50b7c72358", "fusion_lat": 0.0, "rental_uris": {"ios": "https://dc.lft.to/lastmile_qr_scan", "android": "https://dc.lft.to/lastmile_qr_scan"}, "lon": -77.07332083333333, "type": "electric_bike"}, {"bike_id": "dd7c738068352a197c9402be537772d3", "is_reserved": 0, "fusion_lon": 0.0, "lat": 38.9036515, "is_disabled": 0, "name": "dd7c738068352a197c9402be537772d3", "fusion_lat": 0.0, "rental_uris": {"ios": "https://dc.lft.to/lastmile_qr_scan", "android": "https://dc.lft.to/lastmile_qr_scan"}, "lon": -77.04334933333334, "type": "electric_scooter"}, {"bike_id": "2df2f1d0afc8176bd5641900ab1a8dcc", "is_reserved": 0, "fusion_lon": 0.0, "lat": 38.911153666666664, "is_disabled": 0, "name": "2df2f1d0afc8176bd5641900ab1a8dcc", "fusion_lat": 0.0, "rental_uris": {"ios": "https://dc.lft.to/lastmile_qr_scan", "android": "https://dc.lft.to/lastmile_qr_scan"}, "lon": -77.00262633333334, "type": "electric_scooter"}, {"bike_id": "cf760c9df05a45494d2bedd59b774bae", "is_reserved": 0, "fusion_lon": 0.0, "lat": 38.90725333333334, "is_disabled": 0, "name": "cf760c9df05a45494d2bedd59b774bae", "fusion_lat": 0.0, "rental_uris": {"ios": "https://dc.lft.to/lastmile_qr_scan", "android": "https://dc.lft.to/lastmile_qr_scan"}, "lon": -77.03194016666667, "type": "electric_scooter"}, {"bike_id": "e63c5d51c55bf10f04ab6561846e386d", "is_reserved": 0, "fusion_lon": 0.0, "lat": 38.9070835, "is_disabled": 0, "name": "e63c5d51c55bf10f04ab6561846e386d", "fusion_lat": 0.0, "rental_uris": {"ios": "https://dc.lft.to/lastmile_qr_scan", "android": "https://dc.lft.to/lastmile_qr_scan"}, "lon": -77.03190366666666, "type": "electric_scooter"}, {"bike_id": "556908b9db658e9fa0f26a4cc768ec99", "is_reserved": 0, "fusion_lon": 0.0, "lat": 38.92286466666667, "is_disabled": 0, "name": "556908b9db658e9fa0f26a4cc768ec99", "fusion_lat": 0.0, "rental_uris": {"ios": "https://dc.lft.to/lastmile_qr_scan", "android": "https://dc.lft.to/lastmile_qr_scan"}, "lon": -77.0366105, "type": "electric_scooter"}, {"bike_id": "af45712835f28155715f9aee4cb7b13b", "is_reserved": 0, "fusion_lon": 0.0, "lat": 38.96502866666667, "is_disabled": 0, "name": "af45712835f28155715f9aee4cb7b13b", "fusion_lat": 0.0, "rental_uris": {"ios": "https://dc.lft.to/lastmile_qr_scan", "android": "https://dc.lft.to/lastmile_qr_scan"}, "lon": -77.02827283333333, "type": "electric_bike"}, {"bike_id": "a6d5970f0ab241d2ee1cf1ddccf9b796", "is_reserved": 0, "fusion_lon": 0.0, "lat": 38.917736, "is_disabled": 0, "name": "a6d5970f0ab241d2ee1cf1ddccf9b796", "fusion_lat": 0.0, "rental_uris": {"ios": "https://dc.lft.to/lastmile_qr_scan", "android": "https://dc.lft.to/lastmile_qr_scan"}, "lon": -77.047532, "type": "electric_scooter"}, {"bike_id": "518d402649be3d5092afe3e3f77bf21d", "is_reserved": 0, "fusion_lon": 0.0, "lat": 38.9073095, "is_disabled": 0, "name": "518d402649be3d5092afe3e3f77bf21d", "fusion_lat": 0.0, "rental_uris": {"ios": "https://dc.lft.to/lastmile_qr_scan", "android": "https://dc.lft.to/lastmile_qr_scan"}, "lon": -77.0293295, "type": "electric_scooter"}, {"bike_id": "3541404587ac9d18a2f2ef2ae8dc357a", "is_reserved": 0, "fusion_lon": 0.0, "lat": 38.876266, "is_disabled": 0, "name": "3541404587ac9d18a2f2ef2ae8dc357a", "fusion_lat": 0.0, "rental_uris": {"ios": "https://dc.lft.to/lastmile_qr_scan", "android": "https://dc.lft.to/lastmile_qr_scan"}, "lon": -76.96525266666667, "type": "electric_scooter"}, {"bike_id": "80281d0300aa6d88bf55539e1da0e1de", "is_reserved": 0, "fusion_lon": 0.0, "lat": 38.92286633333333, "is_disabled": 0, "name": "80281d0300aa6d88bf55539e1da0e1de", "fusion_lat": 0.0, "rental_uris": {"ios": "https://dc.lft.to/lastmile_qr_scan", "android": "https://dc.lft.to/lastmile_qr_scan"}, "lon": -77.02961016666667, "type": "electric_scooter"}, {"bike_id": "aec6f32f1b87892ee3303230b1dfd2bc", "is_reserved": 0, "fusion_lon": 0.0, "lat": 38.901719666666665, "is_disabled": 0, "name": "aec6f32f1b87892ee3303230b1dfd2bc", "fusion_lat": 0.0, "rental_uris": {"ios": "https://dc.lft.to/lastmile_qr_scan", "android": "https://dc.lft.to/lastmile_qr_scan"}, "lon": -76.98070966666667, "type": "electric_scooter"}, {"bike_id": "936d43e5d3e883060976f1f8be62a5a1", "is_reserved": 0, "fusion_lon": 0.0, "lat": 38.89326066666667, "is_disabled": 0, "name": "936d43e5d3e883060976f1f8be62a5a1", "fusion_lat": 0.0, "rental_uris": {"ios": "https://dc.lft.to/lastmile_qr_scan", "android": "https://dc.lft.to/lastmile_qr_scan"}, "lon": -76.92994583333333, "type": "electric_scooter"}, {"bike_id": "e82246bbb49608eecdda40494d26c36c", "is_reserved": 0, "fusion_lon": 0.0, "lat": 38.90665333333333, "is_disabled": 0, "name": "e82246bbb49608eecdda40494d26c36c", "fusion_lat": 0.0, "rental_uris": {"ios": "https://dc.lft.to/lastmile_qr_scan", "android": "https://dc.lft.to/lastmile_qr_scan"}, "lon": -77.0375905, "type": "electric_scooter"}, {"bike_id": "c8d4bdf004b9f56f672c4f72e0b28126", "is_reserved": 0, "fusion_lon": 0.0, "lat": 38.899762333333335, "is_disabled": 0, "name": "c8d4bdf004b9f56f672c4f72e0b28126", "fusion_lat": 0.0, "rental_uris": {"ios": "https://dc.lft.to/lastmile_qr_scan", "android": "https://dc.lft.to/lastmile_qr_scan"}, "lon": -76.991445, "type": "electric_scooter"}, {"bike_id": "fdb0a426b13bc27cf30a8eacebaf27d7", "is_reserved": 0, "fusion_lon": 0.0, "lat": 38.9067875, "is_disabled": 0, "name": "fdb0a426b13bc27cf30a8eacebaf27d7", "fusion_lat": 0.0, "rental_uris": {"ios": "https://dc.lft.to/lastmile_qr_scan", "android": "https://dc.lft.to/lastmile_qr_scan"}, "lon": -76.978097, "type": "electric_scooter"}, {"bike_id": "3d6a208a44c6657a27750c5afdea8aed", "is_reserved": 0, "fusion_lon": 0.0, "lat": 38.935911, "is_disabled": 0, "name": "3d6a208a44c6657a27750c5afdea8aed", "fusion_lat": 0.0, "rental_uris": {"ios": "https://dc.lft.to/lastmile_qr_scan", "android": "https://dc.lft.to/lastmile_qr_scan"}, "lon": -77.0232565, "type": "electric_scooter"}, {"bike_id": "fa2c8b49d9c70d210471a3a0d4447be3", "is_reserved": 0, "fusion_lon": 0.0, "lat": 38.92472133333333, "is_disabled": 0, "name": "fa2c8b49d9c70d210471a3a0d4447be3", "fusion_lat": 0.0, "rental_uris": {"ios": "https://dc.lft.to/lastmile_qr_scan", "android": "https://dc.lft.to/lastmile_qr_scan"}, "lon": -77.20836783333333, "type": "electric_bike"}, {"bike_id": "3fa71852bac958877c64ef4effb05ba1", "is_reserved": 0, "fusion_lon": 0.0, "lat": 38.917571833333334, "is_disabled": 0, "name": "3fa71852bac958877c64ef4effb05ba1", "fusion_lat": 0.0, "rental_uris": {"ios": "https://dc.lft.to/lastmile_qr_scan", "android": "https://dc.lft.to/lastmile_qr_scan"}, "lon": -77.01499216666667, "type": "electric_scooter"}, {"bike_id": "a2702aa8c642ed30bc25e40355a8f3a2", "is_reserved": 0, "fusion_lon": 0.0, "lat": 38.9231165, "is_disabled": 0, "name": "a2702aa8c642ed30bc25e40355a8f3a2", "fusion_lat": 0.0, "rental_uris": {"ios": "https://dc.lft.to/lastmile_qr_scan", "android": "https://dc.lft.to/lastmile_qr_scan"}, "lon": -77.02972633333333, "type": "electric_scooter"}, {"bike_id": "ffcdfae89f3287e4b3e23fedf56001fa", "is_reserved": 0, "fusion_lon": 0.0, "lat": 38.90860816666667, "is_disabled": 0, "name": "ffcdfae89f3287e4b3e23fedf56001fa", "fusion_lat": 0.0, "rental_uris": {"ios": "https://dc.lft.to/lastmile_qr_scan", "android": "https://dc.lft.to/lastmile_qr_scan"}, "lon": -77.02587, "type": "electric_scooter"}, {"bike_id": "5109d5f578d92df1b145b62991a00bee", "is_reserved": 0, "fusion_lon": 0.0, "lat": 38.90832066666667, "is_disabled": 0, "name": "5109d5f578d92df1b145b62991a00bee", "fusion_lat": 0.0, "rental_uris": {"ios": "https://dc.lft.to/lastmile_qr_scan", "android": "https://dc.lft.to/lastmile_qr_scan"}, "lon": -76.99700533333333, "type": "electric_scooter"}, {"bike_id": "9b7b6e1c392043cd5f54fdd4d529aa29", "is_reserved": 0, "fusion_lon": 0.0, "lat": 38.896127666666665, "is_disabled": 0, "name": "9b7b6e1c392043cd5f54fdd4d529aa29", "fusion_lat": 0.0, "rental_uris": {"ios": "https://dc.lft.to/lastmile_qr_scan", "android": "https://dc.lft.to/lastmile_qr_scan"}, "lon": -76.994188, "type": "electric_scooter"}, {"bike_id": "7686937ec73c35ae92a49ad9bd1336be", "is_reserved": 0, "fusion_lon": 0.0, "lat": 38.95542733333333, "is_disabled": 0, "name": "7686937ec73c35ae92a49ad9bd1336be", "fusion_lat": 0.0, "rental_uris": {"ios": "https://dc.lft.to/lastmile_qr_scan", "android": "https://dc.lft.to/lastmile_qr_scan"}, "lon": -76.9353205, "type": "electric_bike"}, {"bike_id": "52ab2df32e4696af5067c68432466954", "is_reserved": 0, "fusion_lon": 0.0, "lat": 38.909383, "is_disabled": 0, "name": "52ab2df32e4696af5067c68432466954", "fusion_lat": 0.0, "rental_uris": {"ios": "https://dc.lft.to/lastmile_qr_scan", "android": "https://dc.lft.to/lastmile_qr_scan"}, "lon": -77.048281, "type": "electric_scooter"}, {"bike_id": "bbafbc2355bba7fb97e3f01fc41007cc", "is_reserved": 0, "fusion_lon": 0.0, "lat": 38.880371, "is_disabled": 0, "name": "bbafbc2355bba7fb97e3f01fc41007cc", "fusion_lat": 0.0, "rental_uris": {"ios": "https://dc.lft.to/lastmile_qr_scan", "android": "https://dc.lft.to/lastmile_qr_scan"}, "lon": -76.92719366666667, "type": "electric_scooter"}, {"bike_id": "ed8724ac01cc06ce9ca8555d8ea746d9", "is_reserved": 0, "fusion_lon": 0.0, "lat": 38.9244545, "is_disabled": 0, "name": "ed8724ac01cc06ce9ca8555d8ea746d9", "fusion_lat": 0.0, "rental_uris": {"ios": "https://dc.lft.to/lastmile_qr_scan", "android": "https://dc.lft.to/lastmile_qr_scan"}, "lon": -77.03352033333333, "type": "electric_scooter"}, {"bike_id": "89ab51d1e059489430fa8f8686cfd303", "is_reserved": 0, "fusion_lon": 0.0, "lat": 38.925524833333334, "is_disabled": 0, "name": "89ab51d1e059489430fa8f8686cfd303", "fusion_lat": 0.0, "rental_uris": {"ios": "https://dc.lft.to/lastmile_qr_scan", "android": "https://dc.lft.to/lastmile_qr_scan"}, "lon": -77.00134116666666, "type": "electric_bike"}, {"bike_id": "65e2fab0e5e31b221684c835bcf74b64", "is_reserved": 0, "fusion_lon": 0.0, "lat": 38.891871333333334, "is_disabled": 0, "name": "65e2fab0e5e31b221684c835bcf74b64", "fusion_lat": 0.0, "rental_uris": {"ios": "https://dc.lft.to/lastmile_qr_scan", "android": "https://dc.lft.to/lastmile_qr_scan"}, "lon": -77.12261166666667, "type": "electric_bike"}, {"bike_id": "eac5f7e82ab35554ed9e6e406d80d147", "is_reserved": 0, "fusion_lon": 0.0, "lat": 38.9342015, "is_disabled": 0, "name": "eac5f7e82ab35554ed9e6e406d80d147", "fusion_lat": 0.0, "rental_uris": {"ios": "https://dc.lft.to/lastmile_qr_scan", "android": "https://dc.lft.to/lastmile_qr_scan"}, "lon": -77.03402966666667, "type": "electric_scooter"}, {"bike_id": "45b94e4c6e406c30d56529026c47f69e", "is_reserved": 0, "fusion_lon": 0.0, "lat": 38.924427333333334, "is_disabled": 0, "name": "45b94e4c6e406c30d56529026c47f69e", "fusion_lat": 0.0, "rental_uris": {"ios": "https://dc.lft.to/lastmile_qr_scan", "android": "https://dc.lft.to/lastmile_qr_scan"}, "lon": -77.03404166666667, "type": "electric_scooter"}, {"bike_id": "35ed94148489f714745aa1d72a799be3", "is_reserved": 0, "fusion_lon": 0.0, "lat": 38.92013516666667, "is_disabled": 0, "name": "35ed94148489f714745aa1d72a799be3", "fusion_lat": 0.0, "rental_uris": {"ios": "https://dc.lft.to/lastmile_qr_scan", "android": "https://dc.lft.to/lastmile_qr_scan"}, "lon": -77.04175983333333, "type": "electric_scooter"}, {"bike_id": "b453b889c0924461ebc20b059bebdbab", "is_reserved": 0, "fusion_lon": 0.0, "lat": 38.91391933333333, "is_disabled": 0, "name": "b453b889c0924461ebc20b059bebdbab", "fusion_lat": 0.0, "rental_uris": {"ios": "https://dc.lft.to/lastmile_qr_scan", "android": "https://dc.lft.to/lastmile_qr_scan"}, "lon": -77.04610683333334, "type": "electric_scooter"}, {"bike_id": "cb024cf7dab931568e5fbd1c35f23df3", "is_reserved": 0, "fusion_lon": 0.0, "lat": 38.86421033333333, "is_disabled": 0, "name": "cb024cf7dab931568e5fbd1c35f23df3", "fusion_lat": 0.0, "rental_uris": {"ios": "https://dc.lft.to/lastmile_qr_scan", "android": "https://dc.lft.to/lastmile_qr_scan"}, "lon": -76.985712, "type": "electric_scooter"}, {"bike_id": "120c773c0925e0eadd804004bad14e8c", "is_reserved": 0, "fusion_lon": 0.0, "lat": 38.8945135, "is_disabled": 0, "name": "120c773c0925e0eadd804004bad14e8c", "fusion_lat": 0.0, "rental_uris": {"ios": "https://dc.lft.to/lastmile_qr_scan", "android": "https://dc.lft.to/lastmile_qr_scan"}, "lon": -76.97033383333333, "type": "electric_bike"}, {"bike_id": "23612cd67b115155aab35a69d917c1c7", "is_reserved": 0, "fusion_lon": 0.0, "lat": 38.933581, "is_disabled": 0, "name": "23612cd67b115155aab35a69d917c1c7", "fusion_lat": 0.0, "rental_uris": {"ios": "https://dc.lft.to/lastmile_qr_scan", "android": "https://dc.lft.to/lastmile_qr_scan"}, "lon": -77.05734266666667, "type": "electric_scooter"}, {"bike_id": "3bcee34fa376f1718ab658e4e2c4d3d0", "is_reserved": 0, "fusion_lon": 0.0, "lat": 38.88593816666667, "is_disabled": 0, "name": "3bcee34fa376f1718ab658e4e2c4d3d0", "fusion_lat": 0.0, "rental_uris": {"ios": "https://dc.lft.to/lastmile_qr_scan", "android": "https://dc.lft.to/lastmile_qr_scan"}, "lon": -77.01767883333333, "type": "electric_scooter"}, {"bike_id": "8e859f5283c68e537b89e5761e579225", "is_reserved": 0, "fusion_lon": 0.0, "lat": 38.91039083333333, "is_disabled": 0, "name": "8e859f5283c68e537b89e5761e579225", "fusion_lat": 0.0, "rental_uris": {"ios": "https://dc.lft.to/lastmile_qr_scan", "android": "https://dc.lft.to/lastmile_qr_scan"}, "lon": -77.03583016666667, "type": "electric_scooter"}, {"bike_id": "de114dd0f63d3e76dee32937612173de", "is_reserved": 0, "fusion_lon": 0.0, "lat": 38.93075, "is_disabled": 0, "name": "de114dd0f63d3e76dee32937612173de", "fusion_lat": 0.0, "rental_uris": {"ios": "https://dc.lft.to/lastmile_qr_scan", "android": "https://dc.lft.to/lastmile_qr_scan"}, "lon": -77.03427983333333, "type": "electric_scooter"}, {"bike_id": "575033094d9c6885afd130397836ec11", "is_reserved": 0, "fusion_lon": 0.0, "lat": 38.90777933333333, "is_disabled": 0, "name": "575033094d9c6885afd130397836ec11", "fusion_lat": 0.0, "rental_uris": {"ios": "https://dc.lft.to/lastmile_qr_scan", "android": "https://dc.lft.to/lastmile_qr_scan"}, "lon": -77.03817833333333, "type": "electric_scooter"}, {"bike_id": "9d31f7c0e5893bfc4a58a6ba248d6ebb", "is_reserved": 0, "fusion_lon": 0.0, "lat": 38.89362366666667, "is_disabled": 0, "name": "9d31f7c0e5893bfc4a58a6ba248d6ebb", "fusion_lat": 0.0, "rental_uris": {"ios": "https://dc.lft.to/lastmile_qr_scan", "android": "https://dc.lft.to/lastmile_qr_scan"}, "lon": -77.02824983333333, "type": "electric_scooter"}, {"bike_id": "28b1645395be1e742030ad9bf157053a", "is_reserved": 0, "fusion_lon": 0.0, "lat": 38.90712283333333, "is_disabled": 0, "name": "28b1645395be1e742030ad9bf157053a", "fusion_lat": 0.0, "rental_uris": {"ios": "https://dc.lft.to/lastmile_qr_scan", "android": "https://dc.lft.to/lastmile_qr_scan"}, "lon": -77.03227233333334, "type": "electric_scooter"}, {"bike_id": "1ba73d4b59882e45fe0392e103bec7ce", "is_reserved": 0, "fusion_lon": 0.0, "lat": 38.90061016666667, "is_disabled": 0, "name": "1ba73d4b59882e45fe0392e103bec7ce", "fusion_lat": 0.0, "rental_uris": {"ios": "https://dc.lft.to/lastmile_qr_scan", "android": "https://dc.lft.to/lastmile_qr_scan"}, "lon": -77.03179466666667, "type": "electric_scooter"}, {"bike_id": "01129b5b7cc96432f0f6f29b54e1911b", "is_reserved": 0, "fusion_lon": 0.0, "lat": 38.9183645, "is_disabled": 0, "name": "01129b5b7cc96432f0f6f29b54e1911b", "fusion_lat": 0.0, "rental_uris": {"ios": "https://dc.lft.to/lastmile_qr_scan", "android": "https://dc.lft.to/lastmile_qr_scan"}, "lon": -77.02604016666666, "type": "electric_scooter"}, {"bike_id": "8ba1caf4231822fecebca8e75ad28c5e", "is_reserved": 0, "fusion_lon": 0.0, "lat": 38.8225825, "is_disabled": 0, "name": "8ba1caf4231822fecebca8e75ad28c5e", "fusion_lat": 0.0, "rental_uris": {"ios": "https://dc.lft.to/lastmile_qr_scan", "android": "https://dc.lft.to/lastmile_qr_scan"}, "lon": -77.0055655, "type": "electric_bike"}, {"bike_id": "e63d357c034bb5ef6c1a414ac03117d3", "is_reserved": 0, "fusion_lon": 0.0, "lat": 38.91203183333333, "is_disabled": 0, "name": "e63d357c034bb5ef6c1a414ac03117d3", "fusion_lat": 0.0, "rental_uris": {"ios": "https://dc.lft.to/lastmile_qr_scan", "android": "https://dc.lft.to/lastmile_qr_scan"}, "lon": -77.02955066666667, "type": "electric_scooter"}, {"bike_id": "d9fe783b20c7f084bd5242d756bd7b25", "is_reserved": 0, "fusion_lon": 0.0, "lat": 38.91118516666667, "is_disabled": 0, "name": "d9fe783b20c7f084bd5242d756bd7b25", "fusion_lat": 0.0, "rental_uris": {"ios": "https://dc.lft.to/lastmile_qr_scan", "android": "https://dc.lft.to/lastmile_qr_scan"}, "lon": -77.037335, "type": "electric_scooter"}, {"bike_id": "adc0ec3433a1a0534ed5ef3c99464ec7", "is_reserved": 0, "fusion_lon": 0.0, "lat": 38.975142166666664, "is_disabled": 0, "name": "adc0ec3433a1a0534ed5ef3c99464ec7", "fusion_lat": 0.0, "rental_uris": {"ios": "https://dc.lft.to/lastmile_qr_scan", "android": "https://dc.lft.to/lastmile_qr_scan"}, "lon": -77.01741883333334, "type": "electric_scooter"}, {"bike_id": "556371173e847c811b0898185b79fc4d", "is_reserved": 0, "fusion_lon": 0.0, "lat": 38.93506416666666, "is_disabled": 0, "name": "556371173e847c811b0898185b79fc4d", "fusion_lat": 0.0, "rental_uris": {"ios": "https://dc.lft.to/lastmile_qr_scan", "android": "https://dc.lft.to/lastmile_qr_scan"}, "lon": -77.03294516666666, "type": "electric_scooter"}, {"bike_id": "2c918d495f4be1515ae3b2b1abfa9390", "is_reserved": 0, "fusion_lon": 0.0, "lat": 38.9105305, "is_disabled": 0, "name": "2c918d495f4be1515ae3b2b1abfa9390", "fusion_lat": 0.0, "rental_uris": {"ios": "https://dc.lft.to/lastmile_qr_scan", "android": "https://dc.lft.to/lastmile_qr_scan"}, "lon": -77.02180983333334, "type": "electric_scooter"}, {"bike_id": "cdd49f92285afd050738630c8ae230c4", "is_reserved": 0, "fusion_lon": 0.0, "lat": 38.9068795, "is_disabled": 0, "name": "cdd49f92285afd050738630c8ae230c4", "fusion_lat": 0.0, "rental_uris": {"ios": "https://dc.lft.to/lastmile_qr_scan", "android": "https://dc.lft.to/lastmile_qr_scan"}, "lon": -77.01088366666667, "type": "electric_scooter"}, {"bike_id": "c3748895e7dc6cb48966b88ad459a307", "is_reserved": 0, "fusion_lon": 0.0, "lat": 38.9056525, "is_disabled": 0, "name": "c3748895e7dc6cb48966b88ad459a307", "fusion_lat": 0.0, "rental_uris": {"ios": "https://dc.lft.to/lastmile_qr_scan", "android": "https://dc.lft.to/lastmile_qr_scan"}, "lon": -77.01679333333334, "type": "electric_scooter"}, {"bike_id": "1ff29f2389627b4d283dec83a3d6bc3a", "is_reserved": 0, "fusion_lon": 0.0, "lat": 38.8429325, "is_disabled": 0, "name": "1ff29f2389627b4d283dec83a3d6bc3a", "fusion_lat": 0.0, "rental_uris": {"ios": "https://dc.lft.to/lastmile_qr_scan", "android": "https://dc.lft.to/lastmile_qr_scan"}, "lon": -76.99947166666666, "type": "electric_scooter"}, {"bike_id": "7741676962c60649a17792c773c5490b", "is_reserved": 0, "fusion_lon": 0.0, "lat": 38.8867675, "is_disabled": 0, "name": "7741676962c60649a17792c773c5490b", "fusion_lat": 0.0, "rental_uris": {"ios": "https://dc.lft.to/lastmile_qr_scan", "android": "https://dc.lft.to/lastmile_qr_scan"}, "lon": -77.01369333333334, "type": "electric_scooter"}, {"bike_id": "5b852c2e248496850c9e3ec55c49a35b", "is_reserved": 0, "fusion_lon": 0.0, "lat": 38.8524665, "is_disabled": 0, "name": "5b852c2e248496850c9e3ec55c49a35b", "fusion_lat": 0.0, "rental_uris": {"ios": "https://dc.lft.to/lastmile_qr_scan", "android": "https://dc.lft.to/lastmile_qr_scan"}, "lon": -77.11427916666666, "type": "electric_bike"}, {"bike_id": "ce8559dc062c0da5383525ba065e7a78", "is_reserved": 0, "fusion_lon": 0.0, "lat": 38.92743433333333, "is_disabled": 0, "name": "ce8559dc062c0da5383525ba065e7a78", "fusion_lat": 0.0, "rental_uris": {"ios": "https://dc.lft.to/lastmile_qr_scan", "android": "https://dc.lft.to/lastmile_qr_scan"}, "lon": -77.0536975, "type": "electric_scooter"}, {"bike_id": "c78a6fc237eab1a897e0a1c721ac4aa0", "is_reserved": 0, "fusion_lon": 0.0, "lat": 38.90254616666667, "is_disabled": 0, "name": "c78a6fc237eab1a897e0a1c721ac4aa0", "fusion_lat": 0.0, "rental_uris": {"ios": "https://dc.lft.to/lastmile_qr_scan", "android": "https://dc.lft.to/lastmile_qr_scan"}, "lon": -77.0396245, "type": "electric_scooter"}, {"bike_id": "f4a23c56e32fe95a61175c54f8a2ba5a", "is_reserved": 0, "fusion_lon": 0.0, "lat": 38.90273333333333, "is_disabled": 0, "name": "f4a23c56e32fe95a61175c54f8a2ba5a", "fusion_lat": 0.0, "rental_uris": {"ios": "https://dc.lft.to/lastmile_qr_scan", "android": "https://dc.lft.to/lastmile_qr_scan"}, "lon": -77.03832816666667, "type": "electric_scooter"}, {"bike_id": "9634140b592678383aa0bfbbb686a06f", "is_reserved": 0, "fusion_lon": 0.0, "lat": 38.921268833333336, "is_disabled": 0, "name": "9634140b592678383aa0bfbbb686a06f", "fusion_lat": 0.0, "rental_uris": {"ios": "https://dc.lft.to/lastmile_qr_scan", "android": "https://dc.lft.to/lastmile_qr_scan"}, "lon": -77.022006, "type": "electric_scooter"}, {"bike_id": "f807ad31a8b3e6706ca070bb9778ce67", "is_reserved": 0, "fusion_lon": 0.0, "lat": 38.91822033333333, "is_disabled": 0, "name": "f807ad31a8b3e6706ca070bb9778ce67", "fusion_lat": 0.0, "rental_uris": {"ios": "https://dc.lft.to/lastmile_qr_scan", "android": "https://dc.lft.to/lastmile_qr_scan"}, "lon": -77.03255216666666, "type": "electric_scooter"}, {"bike_id": "5fd290071cf03e75a0a7fb4e968de89b", "is_reserved": 0, "fusion_lon": 0.0, "lat": 38.871499, "is_disabled": 0, "name": "5fd290071cf03e75a0a7fb4e968de89b", "fusion_lat": 0.0, "rental_uris": {"ios": "https://dc.lft.to/lastmile_qr_scan", "android": "https://dc.lft.to/lastmile_qr_scan"}, "lon": -76.93664333333334, "type": "electric_bike"}, {"bike_id": "6c798ce8f4ce80a463ab000c0a8f03ed", "is_reserved": 0, "fusion_lon": 0.0, "lat": 38.88452516666667, "is_disabled": 0, "name": "6c798ce8f4ce80a463ab000c0a8f03ed", "fusion_lat": 0.0, "rental_uris": {"ios": "https://dc.lft.to/lastmile_qr_scan", "android": "https://dc.lft.to/lastmile_qr_scan"}, "lon": -77.005818, "type": "electric_scooter"}, {"bike_id": "371537dfd10f1a1ba5112e9babfda6aa", "is_reserved": 0, "fusion_lon": 0.0, "lat": 38.95767716666667, "is_disabled": 0, "name": "371537dfd10f1a1ba5112e9babfda6aa", "fusion_lat": 0.0, "rental_uris": {"ios": "https://dc.lft.to/lastmile_qr_scan", "android": "https://dc.lft.to/lastmile_qr_scan"}, "lon": -77.01155683333333, "type": "electric_bike"}, {"bike_id": "20d863167872e45845c59d6bd58d071c", "is_reserved": 0, "fusion_lon": 0.0, "lat": 38.89401566666667, "is_disabled": 0, "name": "20d863167872e45845c59d6bd58d071c", "fusion_lat": 0.0, "rental_uris": {"ios": "https://dc.lft.to/lastmile_qr_scan", "android": "https://dc.lft.to/lastmile_qr_scan"}, "lon": -76.99367, "type": "electric_scooter"}, {"bike_id": "3b2fdb0c67094007d1665b38a0a4a76a", "is_reserved": 0, "fusion_lon": 0.0, "lat": 38.927533333333336, "is_disabled": 0, "name": "3b2fdb0c67094007d1665b38a0a4a76a", "fusion_lat": 0.0, "rental_uris": {"ios": "https://dc.lft.to/lastmile_qr_scan", "android": "https://dc.lft.to/lastmile_qr_scan"}, "lon": -77.02418616666667, "type": "electric_scooter"}, {"bike_id": "89c80c6e9afe279b186ab4dad68e9a78", "is_reserved": 0, "fusion_lon": 0.0, "lat": 38.89249016666667, "is_disabled": 0, "name": "89c80c6e9afe279b186ab4dad68e9a78", "fusion_lat": 0.0, "rental_uris": {"ios": "https://dc.lft.to/lastmile_qr_scan", "android": "https://dc.lft.to/lastmile_qr_scan"}, "lon": -76.94329766666667, "type": "electric_scooter"}, {"bike_id": "0a27fd25c15c3b2692f561ddda407d8c", "is_reserved": 0, "fusion_lon": 0.0, "lat": 38.9183605, "is_disabled": 0, "name": "0a27fd25c15c3b2692f561ddda407d8c", "fusion_lat": 0.0, "rental_uris": {"ios": "https://dc.lft.to/lastmile_qr_scan", "android": "https://dc.lft.to/lastmile_qr_scan"}, "lon": -77.03514383333334, "type": "electric_scooter"}, {"bike_id": "6b9b8e820f48e3a3a09a28513d9e9c55", "is_reserved": 0, "fusion_lon": 0.0, "lat": 38.906658666666665, "is_disabled": 0, "name": "6b9b8e820f48e3a3a09a28513d9e9c55", "fusion_lat": 0.0, "rental_uris": {"ios": "https://dc.lft.to/lastmile_qr_scan", "android": "https://dc.lft.to/lastmile_qr_scan"}, "lon": -77.02694183333334, "type": "electric_scooter"}, {"bike_id": "57f2aefba5b748521de5943642412588", "is_reserved": 0, "fusion_lon": 0.0, "lat": 38.905281, "is_disabled": 0, "name": "57f2aefba5b748521de5943642412588", "fusion_lat": 0.0, "rental_uris": {"ios": "https://dc.lft.to/lastmile_qr_scan", "android": "https://dc.lft.to/lastmile_qr_scan"}, "lon": -77.05972233333334, "type": "electric_scooter"}, {"bike_id": "9a7f7c56f92ffa167725b438fc61b8a2", "is_reserved": 0, "fusion_lon": 0.0, "lat": 38.9427555, "is_disabled": 0, "name": "9a7f7c56f92ffa167725b438fc61b8a2", "fusion_lat": 0.0, "rental_uris": {"ios": "https://dc.lft.to/lastmile_qr_scan", "android": "https://dc.lft.to/lastmile_qr_scan"}, "lon": -76.98072416666666, "type": "electric_bike"}, {"bike_id": "077bd44ced46ed870ce45790d07c5af7", "is_reserved": 0, "fusion_lon": 0.0, "lat": 38.9344795, "is_disabled": 0, "name": "077bd44ced46ed870ce45790d07c5af7", "fusion_lat": 0.0, "rental_uris": {"ios": "https://dc.lft.to/lastmile_qr_scan", "android": "https://dc.lft.to/lastmile_qr_scan"}, "lon": -77.07229416666667, "type": "electric_scooter"}, {"bike_id": "63fa4e37ab6374b0a866c75e253afedb", "is_reserved": 0, "fusion_lon": 0.0, "lat": 38.9003295, "is_disabled": 0, "name": "63fa4e37ab6374b0a866c75e253afedb", "fusion_lat": 0.0, "rental_uris": {"ios": "https://dc.lft.to/lastmile_qr_scan", "android": "https://dc.lft.to/lastmile_qr_scan"}, "lon": -76.98799683333333, "type": "electric_scooter"}, {"bike_id": "445f0acb4cf74c33786be1b40089d2b1", "is_reserved": 0, "fusion_lon": 0.0, "lat": 38.90269333333333, "is_disabled": 0, "name": "445f0acb4cf74c33786be1b40089d2b1", "fusion_lat": 0.0, "rental_uris": {"ios": "https://dc.lft.to/lastmile_qr_scan", "android": "https://dc.lft.to/lastmile_qr_scan"}, "lon": -77.03359933333333, "type": "electric_scooter"}, {"bike_id": "b30328b55954cac632ecb71c31d3345b", "is_reserved": 0, "fusion_lon": 0.0, "lat": 38.937193, "is_disabled": 0, "name": "b30328b55954cac632ecb71c31d3345b", "fusion_lat": 0.0, "rental_uris": {"ios": "https://dc.lft.to/lastmile_qr_scan", "android": "https://dc.lft.to/lastmile_qr_scan"}, "lon": -77.03266333333333, "type": "electric_scooter"}, {"bike_id": "c375119743a5eede2f3dcb10369b967a", "is_reserved": 0, "fusion_lon": 0.0, "lat": 38.917933833333336, "is_disabled": 0, "name": "c375119743a5eede2f3dcb10369b967a", "fusion_lat": 0.0, "rental_uris": {"ios": "https://dc.lft.to/lastmile_qr_scan", "android": "https://dc.lft.to/lastmile_qr_scan"}, "lon": -77.03438733333333, "type": "electric_scooter"}, {"bike_id": "d19990b0bb776533b895d065dbbdc79c", "is_reserved": 0, "fusion_lon": 0.0, "lat": 38.91812266666667, "is_disabled": 0, "name": "d19990b0bb776533b895d065dbbdc79c", "fusion_lat": 0.0, "rental_uris": {"ios": "https://dc.lft.to/lastmile_qr_scan", "android": "https://dc.lft.to/lastmile_qr_scan"}, "lon": -77.0101265, "type": "electric_scooter"}, {"bike_id": "1b8fb90fd27c03f5d10520acdde58913", "is_reserved": 0, "fusion_lon": 0.0, "lat": 38.883137, "is_disabled": 0, "name": "1b8fb90fd27c03f5d10520acdde58913", "fusion_lat": 0.0, "rental_uris": {"ios": "https://dc.lft.to/lastmile_qr_scan", "android": "https://dc.lft.to/lastmile_qr_scan"}, "lon": -77.00937516666667, "type": "electric_scooter"}, {"bike_id": "2ae8b8c8eedeedadf086d81793252a3c", "is_reserved": 0, "fusion_lon": 0.0, "lat": 38.896116, "is_disabled": 0, "name": "2ae8b8c8eedeedadf086d81793252a3c", "fusion_lat": 0.0, "rental_uris": {"ios": "https://dc.lft.to/lastmile_qr_scan", "android": "https://dc.lft.to/lastmile_qr_scan"}, "lon": -77.04466966666666, "type": "electric_scooter"}, {"bike_id": "705d34d947275c76d0bcbc3a45be0306", "is_reserved": 0, "fusion_lon": 0.0, "lat": 38.9200435, "is_disabled": 0, "name": "705d34d947275c76d0bcbc3a45be0306", "fusion_lat": 0.0, "rental_uris": {"ios": "https://dc.lft.to/lastmile_qr_scan", "android": "https://dc.lft.to/lastmile_qr_scan"}, "lon": -77.03216866666666, "type": "electric_scooter"}, {"bike_id": "e09219629882b4dc2216aed9e02da365", "is_reserved": 0, "fusion_lon": 0.0, "lat": 38.874780666666666, "is_disabled": 0, "name": "e09219629882b4dc2216aed9e02da365", "fusion_lat": 0.0, "rental_uris": {"ios": "https://dc.lft.to/lastmile_qr_scan", "android": "https://dc.lft.to/lastmile_qr_scan"}, "lon": -76.96525783333334, "type": "electric_bike"}, {"bike_id": "c24b0d06b46c993317137e70854df48d", "is_reserved": 0, "fusion_lon": 0.0, "lat": 38.893722333333336, "is_disabled": 0, "name": "c24b0d06b46c993317137e70854df48d", "fusion_lat": 0.0, "rental_uris": {"ios": "https://dc.lft.to/lastmile_qr_scan", "android": "https://dc.lft.to/lastmile_qr_scan"}, "lon": -76.94983516666667, "type": "electric_scooter"}, {"bike_id": "a90581239719ed117f46798b39335159", "is_reserved": 0, "fusion_lon": 0.0, "lat": 38.966195666666664, "is_disabled": 0, "name": "a90581239719ed117f46798b39335159", "fusion_lat": 0.0, "rental_uris": {"ios": "https://dc.lft.to/lastmile_qr_scan", "android": "https://dc.lft.to/lastmile_qr_scan"}, "lon": -77.034321, "type": "electric_bike"}, {"bike_id": "01ad8d96d51929dd6cd34f977a187710", "is_reserved": 0, "fusion_lon": 0.0, "lat": 38.9268665, "is_disabled": 0, "name": "01ad8d96d51929dd6cd34f977a187710", "fusion_lat": 0.0, "rental_uris": {"ios": "https://dc.lft.to/lastmile_qr_scan", "android": "https://dc.lft.to/lastmile_qr_scan"}, "lon": -77.01571216666666, "type": "electric_scooter"}, {"bike_id": "2679370c717bc7e24e9d6cf92d4b59d4", "is_reserved": 0, "fusion_lon": 0.0, "lat": 38.91011833333334, "is_disabled": 0, "name": "2679370c717bc7e24e9d6cf92d4b59d4", "fusion_lat": 0.0, "rental_uris": {"ios": "https://dc.lft.to/lastmile_qr_scan", "android": "https://dc.lft.to/lastmile_qr_scan"}, "lon": -77.03445483333333, "type": "electric_scooter"}, {"bike_id": "54b39c3e7bf611746867298d24d73211", "is_reserved": 0, "fusion_lon": 0.0, "lat": 38.92535983333333, "is_disabled": 0, "name": "54b39c3e7bf611746867298d24d73211", "fusion_lat": 0.0, "rental_uris": {"ios": "https://dc.lft.to/lastmile_qr_scan", "android": "https://dc.lft.to/lastmile_qr_scan"}, "lon": -77.035246, "type": "electric_scooter"}, {"bike_id": "28d7eb9f4358e59da4e07f992c47fcb1", "is_reserved": 0, "fusion_lon": 0.0, "lat": 38.91614716666667, "is_disabled": 0, "name": "28d7eb9f4358e59da4e07f992c47fcb1", "fusion_lat": 0.0, "rental_uris": {"ios": "https://dc.lft.to/lastmile_qr_scan", "android": "https://dc.lft.to/lastmile_qr_scan"}, "lon": -77.03645683333333, "type": "electric_scooter"}, {"bike_id": "df306dec5d1221a025566ec1f4ce87e1", "is_reserved": 0, "fusion_lon": 0.0, "lat": 38.9244025, "is_disabled": 0, "name": "df306dec5d1221a025566ec1f4ce87e1", "fusion_lat": 0.0, "rental_uris": {"ios": "https://dc.lft.to/lastmile_qr_scan", "android": "https://dc.lft.to/lastmile_qr_scan"}, "lon": -77.03373316666666, "type": "electric_scooter"}, {"bike_id": "5642ca07d44d88110228d1fd9f0da466", "is_reserved": 0, "fusion_lon": 0.0, "lat": 38.927941833333335, "is_disabled": 0, "name": "5642ca07d44d88110228d1fd9f0da466", "fusion_lat": 0.0, "rental_uris": {"ios": "https://dc.lft.to/lastmile_qr_scan", "android": "https://dc.lft.to/lastmile_qr_scan"}, "lon": -77.0259905, "type": "electric_scooter"}, {"bike_id": "d2533f72f863ca0f6e1ece6fbe0a34f1", "is_reserved": 0, "fusion_lon": 0.0, "lat": 38.92727416666666, "is_disabled": 0, "name": "d2533f72f863ca0f6e1ece6fbe0a34f1", "fusion_lat": 0.0, "rental_uris": {"ios": "https://dc.lft.to/lastmile_qr_scan", "android": "https://dc.lft.to/lastmile_qr_scan"}, "lon": -77.03043783333334, "type": "electric_bike"}, {"bike_id": "3c5041a6e21b4f04fb1a347bbc1602d5", "is_reserved": 0, "fusion_lon": 0.0, "lat": 38.9153845, "is_disabled": 0, "name": "3c5041a6e21b4f04fb1a347bbc1602d5", "fusion_lat": 0.0, "rental_uris": {"ios": "https://dc.lft.to/lastmile_qr_scan", "android": "https://dc.lft.to/lastmile_qr_scan"}, "lon": -77.03798216666667, "type": "electric_scooter"}, {"bike_id": "e201c2b0a0f387387d88157f7d599559", "is_reserved": 0, "fusion_lon": 0.0, "lat": 38.91001816666667, "is_disabled": 0, "name": "e201c2b0a0f387387d88157f7d599559", "fusion_lat": 0.0, "rental_uris": {"ios": "https://dc.lft.to/lastmile_qr_scan", "android": "https://dc.lft.to/lastmile_qr_scan"}, "lon": -77.02094616666666, "type": "electric_scooter"}, {"bike_id": "ababf457b462ebfdc74aeed8aff30bb3", "is_reserved": 0, "fusion_lon": 0.0, "lat": 38.91530366666667, "is_disabled": 0, "name": "ababf457b462ebfdc74aeed8aff30bb3", "fusion_lat": 0.0, "rental_uris": {"ios": "https://dc.lft.to/lastmile_qr_scan", "android": "https://dc.lft.to/lastmile_qr_scan"}, "lon": -77.0234915, "type": "electric_scooter"}, {"bike_id": "7e9f7c5924ca9660f1fbb351a2c4c243", "is_reserved": 0, "fusion_lon": 0.0, "lat": 38.93337066666667, "is_disabled": 0, "name": "7e9f7c5924ca9660f1fbb351a2c4c243", "fusion_lat": 0.0, "rental_uris": {"ios": "https://dc.lft.to/lastmile_qr_scan", "android": "https://dc.lft.to/lastmile_qr_scan"}, "lon": -77.03284533333333, "type": "electric_scooter"}, {"bike_id": "7d97e282ce1b421bf2ae0ce681633ed0", "is_reserved": 0, "fusion_lon": 0.0, "lat": 38.83798733333333, "is_disabled": 0, "name": "7d97e282ce1b421bf2ae0ce681633ed0", "fusion_lat": 0.0, "rental_uris": {"ios": "https://dc.lft.to/lastmile_qr_scan", "android": "https://dc.lft.to/lastmile_qr_scan"}, "lon": -76.99838166666666, "type": "electric_bike"}, {"bike_id": "e0ff0248d61b53cc4cbc6f1bfebeb1d6", "is_reserved": 0, "fusion_lon": 0.0, "lat": 39.01592816666667, "is_disabled": 0, "name": "e0ff0248d61b53cc4cbc6f1bfebeb1d6", "fusion_lat": 0.0, "rental_uris": {"ios": "https://dc.lft.to/lastmile_qr_scan", "android": "https://dc.lft.to/lastmile_qr_scan"}, "lon": -77.04424266666666, "type": "electric_bike"}, {"bike_id": "2713a9e43767329ddf8ad6c93765cbed", "is_reserved": 0, "fusion_lon": 0.0, "lat": 38.90846833333333, "is_disabled": 0, "name": "2713a9e43767329ddf8ad6c93765cbed", "fusion_lat": 0.0, "rental_uris": {"ios": "https://dc.lft.to/lastmile_qr_scan", "android": "https://dc.lft.to/lastmile_qr_scan"}, "lon": -77.0467755, "type": "electric_scooter"}, {"bike_id": "139c67c37abe296e37b3dbb9f03217ce", "is_reserved": 0, "fusion_lon": 0.0, "lat": 38.913201, "is_disabled": 0, "name": "139c67c37abe296e37b3dbb9f03217ce", "fusion_lat": 0.0, "rental_uris": {"ios": "https://dc.lft.to/lastmile_qr_scan", "android": "https://dc.lft.to/lastmile_qr_scan"}, "lon": -77.01513133333333, "type": "electric_scooter"},