{"data": {"bikes": [{"fusion_lat": 0.0, "name": "df9ed5405dd53edc06ea9211480149ce", "is_disabled": 0, "rental_uris": {"android": "https://dc.lft.to/lastmile_qr_scan", "ios": "https://dc.lft.to/lastmile_qr_scan"}, "fusion_lon": 0.0, "lat": 38.98049, "bike_id": "df9ed5405dd53edc06ea9211480149ce", "type": "electric_bike", "is_reserved": 0, "lon": -76.9578825}, {"fusion_lat": 0.0, "name": "43f472d419988650c6e956cb8dfd9d96", "is_disabled": 0, "rental_uris": {"android": "https://dc.lft.to/lastmile_qr_scan", "ios": "https://dc.lft.to/lastmile_qr_scan"}, "fusion_lon": 0.0, "lat": 38.8919505, "bike_id": "43f472d419988650c6e956cb8dfd9d96", "type": "electric_scooter", "is_reserved": 0, "lon": -77.022205}, {"fusion_lat": 0.0, "name": "839e5c9fb65b8c74dfc1d46346855a54", "is_disabled": 0, "rental_uris": {"android": "https://dc.lft.to/lastmile_qr_scan", "ios": "https://dc.lft.to/lastmile_qr_scan"}, "fusion_lon": 0.0, "lat": 38.914772666666664, "bike_id": "839e5c9fb65b8c74dfc1d46346855a54", "type": "electric_scooter", "is_reserved": 0, "lon": -77.03863533333333}, {"fusion_lat": 0.0, "name": "324144535fb9163b7933513c68743c9c", "is_disabled": 0, "rental_uris": {"android": "https://dc.lft.to/lastmile_qr_scan", "ios": "https://dc.lft.to/lastmile_qr_scan"}, "fusion_lon": 0.0, "lat": 38.9049545, "bike_id": "324144535fb9163b7933513c68743c9c", "type": "electric_scooter", "is_reserved": 0, "lon": -77.02712333333334}, {"fusion_lat": 0.0, "name": "a7b438a977b710b0f11486655ad8c050", "is_disabled": 0, "rental_uris": {"android": "https://dc.lft.to/lastmile_qr_scan", "ios": "https://dc.lft.to/lastmile_qr_scan"}, "fusion_lon": 0.0, "lat": 38.92064883333333, "bike_id": "a7b438a977b710b0f11486655ad8c050", "type": "electric_scooter", "is_reserved": 0, "lon": -77.023027}, {"fusion_lat": 0.0, "name": "4b3f56f7b11d67fe6c0a3d072901c1ba", "is_disabled": 0, "rental_uris": {"android": "https://dc.lft.to/lastmile_qr_scan", "ios": "https://dc.lft.to/lastmile_qr_scan"}, "fusion_lon": 0.0, "lat": 38.91602566666667, "bike_id": "4b3f56f7b11d67fe6c0a3d072901c1ba", "type": "electric_scooter", "is_reserved": 0, "lon": -77.03201816666666}, {"fusion_lat": 0.0, "name": "62a807a2f470d0f20f202ac00d0d10c5", "is_disabled": 0, "rental_uris": {"android": "https://dc.lft.to/lastmile_qr_scan", "ios": "https://dc.lft.to/lastmile_qr_scan"}, "fusion_lon": 0.0, "lat": 38.94977133333333, "bike_id": "62a807a2f470d0f20f202ac00d0d10c5", "type": "electric_scooter", "is_reserved": 0, "lon": -77.02449816666666}, {"fusion_lat": 0.0, "name": "361c200ca6add6ed7d8bbbdade19b090", "is_disabled": 0, "rental_uris": {"android": "https://dc.lft.to/lastmile_qr_scan", "ios": "https://dc.lft.to/lastmile_qr_scan"}, "fusion_lon": 0.0, "lat": 38.905718, "bike_id": "361c200ca6add6ed7d8bbbdade19b090", "type": "electric_scooter", "is_reserved": 0, "lon": -77.02209733333333}, {"fusion_lat": 0.0, "name": "56f184bc27e31c35385c7ff2b83db780", "is_disabled": 0, "rental_uris": {"android": "https://dc.lft.to/lastmile_qr_scan", "ios": "https://dc.lft.to/lastmile_qr_scan"}, "fusion_lon": 0.0, "lat": 38.89847733333333, "bike_id": "56f184bc27e31c35385c7ff2b83db780", "type": "electric_scooter", "is_reserved": 0, "lon": -77.02205466666666}, {"fusion_lat": 0.0, "name": "8aa6fae7db28c5d19c8e5c250bf164ca", "is_disabled": 0, "rental_uris": {"android": "https://dc.lft.to/lastmile_qr_scan", "ios": "https://dc.lft.to/lastmile_qr_scan"}, "fusion_lon": 0.0, "lat": 38.9318825, "bike_id": "8aa6fae7db28c5d19c8e5c250bf164ca", "type": "electric_scooter", "is_reserved": 0, "lon": -77.038508}, {"fusion_lat": 0.0, "name": "ac9373b2af8a1b30f81d04ddabc93601", "is_disabled": 0, "rental_uris": {"android": "https://dc.lft.to/lastmile_qr_scan", "ios": "https://dc.lft.to/lastmile_qr_scan"}, "fusion_lon": 0.0, "lat": 38.94187766666667, "bike_id": "ac9373b2af8a1b30f81d04ddabc93601", "type": "electric_scooter", "is_reserved": 0, "lon": -77.0411265}, {"fusion_lat": 0.0, "name": "299754a8db6a784dfc1ae95fc1e84aa4", "is_disabled": 0, "rental_uris": {"android": "https://dc.lft.to/lastmile_qr_scan", "ios": "https://dc.lft.to/lastmile_qr_scan"}, "fusion_lon": 0.0, "lat": 38.91403, "bike_id": "299754a8db6a784dfc1ae95fc1e84aa4", "type": "electric_scooter", "is_reserved": 0, "lon": -77.03209833333334}, {"fusion_lat": 0.0, "name": "9a2808611482ee703b3f389a47358702", "is_disabled": 0, "rental_uris": {"android": "https://dc.lft.to/lastmile_qr_scan", "ios": "https://dc.lft.to/lastmile_qr_scan"}, "fusion_lon": 0.0, "lat": 38.90270183333333, "bike_id": "9a2808611482ee703b3f389a47358702", "type": "electric_scooter", "is_reserved": 0, "lon": -77.053136}, {"fusion_lat": 0.0, "name": "fa0750daf8322de51fcc52045cbdc7bd", "is_disabled": 0, "rental_uris": {"android": "https://dc.lft.to/lastmile_qr_scan", "ios": "https://dc.lft.to/lastmile_qr_scan"}, "fusion_lon": 0.0, "lat": 38.93848, "bike_id": "fa0750daf8322de51fcc52045cbdc7bd", "type": "electric_scooter", "is_reserved": 0, "lon": -77.02476516666667}, {"fusion_lat": 0.0, "name": "dd1faf6fbdb1e385125fd04031707a46", "is_disabled": 0, "rental_uris": {"android": "https://dc.lft.to/lastmile_qr_scan", "ios": "https://dc.lft.to/lastmile_qr_scan"}, "fusion_lon": 0.0, "lat": 38.919141833333335, "bike_id": "dd1faf6fbdb1e385125fd04031707a46", "type": "electric_scooter", "is_reserved": 0, "lon": -77.03264166666666}, {"fusion_lat": 0.0, "name": "ba797b62a4abbf931bef304539dc8473", "is_disabled": 0, "rental_uris": {"android": "https://dc.lft.to/lastmile_qr_scan", "ios": "https://dc.lft.to/lastmile_qr_scan"}, "fusion_lon": 0.0, "lat": 38.91705233333333, "bike_id": "ba797b62a4abbf931bef304539dc8473", "type": "electric_scooter", "is_reserved": 0, "lon": -77.03336883333333}, {"fusion_lat": 0.0, "name": "4e5ec66700b315e25b9bb587104bdc5f", "is_disabled": 0, "rental_uris": {"android": "https://dc.lft.to/lastmile_qr_scan", "ios": "https://dc.lft.to/lastmile_qr_scan"}, "fusion_lon": 0.0, "lat": 38.8978785, "bike_id": "4e5ec66700b315e25b9bb587104bdc5f", "type": "electric_scooter", "is_reserved": 0, "lon": -76.94733716666667}, {"fusion_lat": 0.0, "name": "0081d5cf760ee11724a4123e0f400d26", "is_disabled": 0, "rental_uris": {"android": "https://dc.lft.to/lastmile_qr_scan", "ios": "https://dc.lft.to/lastmile_qr_scan"}, "fusion_lon": 0.0, "lat": 38.942713, "bike_id": "0081d5cf760ee11724a4123e0f400d26", "type": "electric_scooter", "is_reserved": 0, "lon": -77.03257066666667}, {"fusion_lat": 0.0, "name": "fa51d19f3790c7d2124eeece197b98fb", "is_disabled": 0, "rental_uris": {"android": "https://dc.lft.to/lastmile_qr_scan", "ios": "https://dc.lft.to/lastmile_qr_scan"}, "fusion_lon": 0.0, "lat": 38.93483883333333, "bike_id": "fa51d19f3790c7d2124eeece197b98fb", "type": "electric_scooter", "is_reserved": 0, "lon": -77.07268733333333}, {"fusion_lat": 0.0, "name": "5ca91b1abb20c07d8afd4338f7141de1", "is_disabled": 0, "rental_uris": {"android": "https://dc.lft.to/lastmile_qr_scan", "ios": "https://dc.lft.to/lastmile_qr_scan"}, "fusion_lon": 0.0, "lat": 38.902726333333334, "bike_id": "5ca91b1abb20c07d8afd4338f7141de1", "type": "electric_scooter", "is_reserved": 0, "lon": -77.0362965}, {"fusion_lat": 0.0, "name": "c83c76ba7f045964afb98830d63980f3", "is_disabled": 0, "rental_uris": {"android": "https://dc.lft.to/lastmile_qr_scan", "ios": "https://dc.lft.to/lastmile_qr_scan"}, "fusion_lon": 0.0, "lat": 38.91479283333334, "bike_id": "c83c76ba7f045964afb98830d63980f3", "type": "electric_scooter", "is_reserved": 0, "lon": -77.04243083333333}, {"fusion_lat": 0.0, "name": "fa7a2de62bc913bfe374fd68c37d9dbe", "is_disabled": 0, "rental_uris": {"android": "https://dc.lft.to/lastmile_qr_scan", "ios": "https://dc.lft.to/lastmile_qr_scan"}, "fusion_lon": 0.0, "lat": 38.92349316666667, "bike_id": "fa7a2de62bc913bfe374fd68c37d9dbe", "type": "electric_scooter", "is_reserved": 0, "lon": -77.03905433333334}, {"fusion_lat": 0.0, "name": "4508f0bda3909f456055168740fc9efa", "is_disabled": 0, "rental_uris": {"android": "https://dc.lft.to/lastmile_qr_scan", "ios": "https://dc.lft.to/lastmile_qr_scan"}, "fusion_lon": 0.0, "lat": 38.90762316666667, "bike_id": "4508f0bda3909f456055168740fc9efa", "type": "electric_scooter", "is_reserved": 0, "lon": -77.035268}, {"fusion_lat": 0.0, "name": "db1c9bc1b0bfcc8384046c8eb88401a6", "is_disabled": 0, "rental_uris": {"android": "https://dc.lft.to/lastmile_qr_scan", "ios": "https://dc.lft.to/lastmile_qr_scan"}, "fusion_lon": 0.0, "lat": 38.90032466666667, "bike_id": "db1c9bc1b0bfcc8384046c8eb88401a6", "type": "electric_scooter", "is_reserved": 0, "lon": -77.00212433333333}, {"fusion_lat": 0.0, "name": "10fef60d17549dc88cae1f3bb3726514", "is_disabled": 0, "rental_uris": {"android": "https://dc.lft.to/lastmile_qr_scan", "ios": "https://dc.lft.to/lastmile_qr_scan"}, "fusion_lon": 0.0, "lat": 38.8899175, "bike_id": "10fef60d17549dc88cae1f3bb3726514", "type": "electric_bike", "is_reserved": 0, "lon": -77.07129583333334}, {"fusion_lat": 0.0, "name": "8d2e1acaf0570334f68795be7183e8d9", "is_disabled": 0, "rental_uris": {"android": "https://dc.lft.to/lastmile_qr_scan", "ios": "https://dc.lft.to/lastmile_qr_scan"}, "fusion_lon": 0.0, "lat": 38.9172355, "bike_id": "8d2e1acaf0570334f68795be7183e8d9", "type": "electric_scooter", "is_reserved": 0, "lon": -77.02712066666666}, {"fusion_lat": 0.0, "name": "85f9a7f60fb95852417124f1afc76159", "is_disabled": 0, "rental_uris": {"android": "https://dc.lft.to/lastmile_qr_scan", "ios": "https://dc.lft.to/lastmile_qr_scan"}, "fusion_lon": 0.0, "lat": 38.90913716666667, "bike_id": "85f9a7f60fb95852417124f1afc76159", "type": "electric_scooter", "is_reserved": 0, "lon": -77.04208983333334}, {"fusion_lat": 0.0, "name": "da9eed909b6dc73612221a69ed59aebe", "is_disabled": 0, "rental_uris": {"android": "https://dc.lft.to/lastmile_qr_scan", "ios": "https://dc.lft.to/lastmile_qr_scan"}, "fusion_lon": 0.0, "lat": 38.911129833333334, "bike_id": "da9eed909b6dc73612221a69ed59aebe", "type": "electric_bike", "is_reserved": 0, "lon": -77.00271133333334}, {"fusion_lat": 0.0, "name": "b2a3d1a5c5d43cb75fab6c0492b5c6eb", "is_disabled": 0, "rental_uris": {"android": "https://dc.lft.to/lastmile_qr_scan", "ios": "https://dc.lft.to/lastmile_qr_scan"}, "fusion_lon": 0.0, "lat": 38.906820333333336, "bike_id": "b2a3d1a5c5d43cb75fab6c0492b5c6eb", "type": "electric_bike", "is_reserved": 0, "lon": -77.03644}, {"fusion_lat": 0.0, "name": "23ddeaf86b6d7fe8db8a85eb5bb097aa", "is_disabled": 0, "rental_uris": {"android": "https://dc.lft.to/lastmile_qr_scan", "ios": "https://dc.lft.to/lastmile_qr_scan"}, "fusion_lon": 0.0, "lat": 38.93831733333333, "bike_id": "23ddeaf86b6d7fe8db8a85eb5bb097aa", "type": "electric_scooter", "is_reserved": 0, "lon": -76.99192183333334}, {"fusion_lat": 0.0, "name": "7d99a3882ac0dfa939cd99aeeec4781d", "is_disabled": 0, "rental_uris": {"android": "https://dc.lft.to/lastmile_qr_scan", "ios": "https://dc.lft.to/lastmile_qr_scan"}, "fusion_lon": 0.0, "lat": 38.90931533333333, "bike_id": "7d99a3882ac0dfa939cd99aeeec4781d", "type": "electric_scooter", "is_reserved": 0, "lon": -76.99985116666667}, {"fusion_lat": 0.0, "name": "1ccc830a3b9d6ec011f91daf3a13ebca", "is_disabled": 0, "rental_uris": {"android": "https://dc.lft.to/lastmile_qr_scan", "ios": "https://dc.lft.to/lastmile_qr_scan"}, "fusion_lon": 0.0, "lat": 38.901422833333335, "bike_id": "1ccc830a3b9d6ec011f91daf3a13ebca", "type": "electric_scooter", "is_reserved": 0, "lon": -77.03186933333333}, {"fusion_lat": 0.0, "name": "bed073cb00807fb5a1280019d764db17", "is_disabled": 0, "rental_uris": {"android": "https://dc.lft.to/lastmile_qr_scan", "ios": "https://dc.lft.to/lastmile_qr_scan"}, "fusion_lon": 0.0, "lat": 38.935621833333336, "bike_id": "bed073cb00807fb5a1280019d764db17", "type": "electric_bike", "is_reserved": 0, "lon": -77.03703666666667}, {"fusion_lat": 0.0, "name": "31155133edc7c57a019fab708dc0b249", "is_disabled": 0, "rental_uris": {"android": "https://dc.lft.to/lastmile_qr_scan", "ios": "https://dc.lft.to/lastmile_qr_scan"}, "fusion_lon": 0.0, "lat": 38.9039565, "bike_id": "31155133edc7c57a019fab708dc0b249", "type": "electric_scooter", "is_reserved": 0, "lon": -77.0384405}, {"fusion_lat": 0.0, "name": "86d387b0f8fb3702628a23685e2d3bda", "is_disabled": 0, "rental_uris": {"android": "https://dc.lft.to/lastmile_qr_scan", "ios": "https://dc.lft.to/lastmile_qr_scan"}, "fusion_lon": 0.0, "lat": 38.91104216666667, "bike_id": "86d387b0f8fb3702628a23685e2d3bda", "type": "electric_scooter", "is_reserved": 0, "lon": -77.00214916666667}, {"fusion_lat": 0.0, "name": "1081a788ee64013f77abd73ba9738e6c", "is_disabled": 0, "rental_uris": {"android": "https://dc.lft.to/lastmile_qr_scan", "ios": "https://dc.lft.to/lastmile_qr_scan"}, "fusion_lon": 0.0, "lat": 38.904963, "bike_id": "1081a788ee64013f77abd73ba9738e6c", "type": "electric_scooter", "is_reserved": 0, "lon": -77.04878516666666}, {"fusion_lat": 0.0, "name": "028bcdac97782e6ce91216aec5413691", "is_disabled": 0, "rental_uris": {"android": "https://dc.lft.to/lastmile_qr_scan", "ios": "https://dc.lft.to/lastmile_qr_scan"}, "fusion_lon": 0.0, "lat": 38.88737966666667, "bike_id": "028bcdac97782e6ce91216aec5413691", "type": "electric_scooter", "is_reserved": 0, "lon": -77.02126966666667}, {"fusion_lat": 0.0, "name": "66c74c12bbd4b0c87326e0a12618e610", "is_disabled": 0, "rental_uris": {"android": "https://dc.lft.to/lastmile_qr_scan", "ios": "https://dc.lft.to/lastmile_qr_scan"}, "fusion_lon": 0.0, "lat": 38.90783033333334, "bike_id": "66c74c12bbd4b0c87326e0a12618e610", "type": "electric_scooter", "is_reserved": 0, "lon": -77.0725135}, {"fusion_lat": 0.0, "name": "c0fbbfd3181d5a48947ef15d16fc3ca6", "is_disabled": 0, "rental_uris": {"android": "https://dc.lft.to/lastmile_qr_scan", "ios": "https://dc.lft.to/lastmile_qr_scan"}, "fusion_lon": 0.0, "lat": 38.905981833333335, "bike_id": "c0fbbfd3181d5a48947ef15d16fc3ca6", "type": "electric_scooter", "is_reserved": 0, "lon": -77.06301616666667}, {"fusion_lat": 0.0, "name": "46782af3dab54050a43535a8e2dc6559", "is_disabled": 0, "rental_uris": {"android": "https://dc.lft.to/lastmile_qr_scan", "ios": "https://dc.lft.to/lastmile_qr_scan"}, "fusion_lon": 0.0, "lat": 38.91673333333333, "bike_id": "46782af3dab54050a43535a8e2dc6559", "type": "electric_scooter", "is_reserved": 0, "lon": -77.0271955}, {"fusion_lat": 0.0, "name": "7ca9631cf2f865e6a2cb7bc713812cb0", "is_disabled": 0, "rental_uris": {"android": "https://dc.lft.to/lastmile_qr_scan", "ios": "https://dc.lft.to/lastmile_qr_scan"}, "fusion_lon": 0.0, "lat": 38.90535833333333, "bike_id": "7ca9631cf2f865e6a2cb7bc713812cb0", "type": "electric_scooter", "is_reserved": 0, "lon": -77.02975716666667}, {"fusion_lat": 0.0, "name": "bedbc1ca42a030afdcf04f840683c303", "is_disabled": 0, "rental_uris": {"android": "https://dc.lft.to/lastmile_qr_scan", "ios": "https://dc.lft.to/lastmile_qr_scan"}, "fusion_lon": 0.0, "lat": 38.89951816666667, "bike_id": "bedbc1ca42a030afdcf04f840683c303", "type": "electric_scooter", "is_reserved": 0, "lon": -77.0510095}, {"fusion_lat": 0.0, "name": "5eb0642a8e69108edca7d45bb08cee72", "is_disabled": 0, "rental_uris": {"android": "https://dc.lft.to/lastmile_qr_scan", "ios": "https://dc.lft.to/lastmile_qr_scan"}, "fusion_lon": 0.0, "lat": 38.90754966666667, "bike_id": "5eb0642a8e69108edca7d45bb08cee72", "type": "electric_scooter", "is_reserved": 0, "lon": -77.03542883333333}, {"fusion_lat": 0.0, "name": "f09e9e5c5d5367f302fa9d1699052a0e", "is_disabled": 0, "rental_uris": {"android": "https://dc.lft.to/lastmile_qr_scan", "ios": "https://dc.lft.to/lastmile_qr_scan"}, "fusion_lon": 0.0, "lat": 38.9225095, "bike_id": "f09e9e5c5d5367f302fa9d1699052a0e", "type": "electric_scooter", "is_reserved": 0, "lon": -77.03087433333333}, {"fusion_lat": 0.0, "name": "b137243310378f4b89c51714faf25bde", "is_disabled": 0, "rental_uris": {"android": "https://dc.lft.to/lastmile_qr_scan", "ios": "https://dc.lft.to/lastmile_qr_scan"}, "fusion_lon": 0.0, "lat": 38.844212166666665, "bike_id": "b137243310378f4b89c51714faf25bde", "type": "electric_scooter", "is_reserved": 0, "lon": -76.99782466666667}, {"fusion_lat": 0.0, "name": "1c08ace5f45785d992c7a900e7182629", "is_disabled": 0, "rental_uris": {"android": "https://dc.lft.to/lastmile_qr_scan", "ios": "https://dc.lft.to/lastmile_qr_scan"}, "fusion_lon": 0.0, "lat": 38.91682383333333, "bike_id": "1c08ace5f45785d992c7a900e7182629", "type": "electric_scooter", "is_reserved": 0, "lon": -77.02897866666666}, {"fusion_lat": 0.0, "name": "8f7189f6700415a6eafe5103cd244df3", "is_disabled": 0, "rental_uris": {"android": "https://dc.lft.to/lastmile_qr_scan", "ios": "https://dc.lft.to/lastmile_qr_scan"}, "fusion_lon": 0.0, "lat": 38.88379783333333, "bike_id": "8f7189f6700415a6eafe5103cd244df3", "type": "electric_scooter", "is_reserved": 0, "lon": -77.0052425}, {"fusion_lat": 0.0, "name": "cf8cd39864f73468219567ce81b494d7", "is_disabled": 0, "rental_uris": {"android": "https://dc.lft.to/lastmile_qr_scan", "ios": "https://dc.lft.to/lastmile_qr_scan"}, "fusion_lon": 0.0, "lat": 38.92102283333333, "bike_id": "cf8cd39864f73468219567ce81b494d7", "type": "electric_scooter", "is_reserved": 0, "lon": -77.0177235}, {"fusion_lat": 0.0, "name": "4da72b362f6350fd66ea803970384ad2", "is_disabled": 0, "rental_uris": {"android": "https://dc.lft.to/lastmile_qr_scan", "ios": "https://dc.lft.to/lastmile_qr_scan"}, "fusion_lon": 0.0, "lat": 38.8867655, "bike_id": "4da72b362f6350fd66ea803970384ad2", "type": "electric_scooter", "is_reserved": 0, "lon": -77.0020005}, {"fusion_lat": 0.0, "name": "155c3724b0a08fecf3a8ea6491645fec", "is_disabled": 0, "rental_uris": {"android": "https://dc.lft.to/lastmile_qr_scan", "ios": "https://dc.lft.to/lastmile_qr_scan"}, "fusion_lon": 0.0, "lat": 38.852004, "bike_id": "155c3724b0a08fecf3a8ea6491645fec", "type": "electric_bike", "is_reserved": 0, "lon": -76.962884}, {"fusion_lat": 0.0, "name": "7dcfd3775ce02ae9070d2eb89c896cfa", "is_disabled": 0, "rental_uris": {"android": "https://dc.lft.to/lastmile_qr_scan", "ios": "https://dc.lft.to/lastmile_qr_scan"}, "fusion_lon": 0.0, "lat": 38.904299, "bike_id": "7dcfd3775ce02ae9070d2eb89c896cfa", "type": "electric_scooter", "is_reserved": 0, "lon": -76.97950183333333}, {"fusion_lat": 0.0, "name": "fc3ddf80cc192567be8a5e5f61a1c0e2", "is_disabled": 0, "rental_uris": {"android": "https://dc.lft.to/lastmile_qr_scan", "ios": "https://dc.lft.to/lastmile_qr_scan"}, "fusion_lon": 0.0, "lat": 38.907885, "bike_id": "fc3ddf80cc192567be8a5e5f61a1c0e2", "type": "electric_scooter", "is_reserved": 0, "lon": -77.04340566666667}, {"fusion_lat": 0.0, "name": "566a0af0ef3c745e7b52d1574946d036", "is_disabled": 0, "rental_uris": {"android": "https://dc.lft.to/lastmile_qr_scan", "ios": "https://dc.lft.to/lastmile_qr_scan"}, "fusion_lon": 0.0, "lat": 38.91272283333333, "bike_id": "566a0af0ef3c745e7b52d1574946d036", "type": "electric_scooter", "is_reserved": 0, "lon": -77.02230566666667}, {"fusion_lat": 0.0, "name": "895b6e5a06f71af2072f6f03cf7334e9", "is_disabled": 0, "rental_uris": {"android": "https://dc.lft.to/lastmile_qr_scan", "ios": "https://dc.lft.to/lastmile_qr_scan"}, "fusion_lon": 0.0, "lat": 38.8874585, "bike_id": "895b6e5a06f71af2072f6f03cf7334e9", "type": "electric_scooter", "is_reserved": 0, "lon": -76.998485}, {"fusion_lat": 0.0, "name": "72c9fd4d585606f21db0a021f3768e01", "is_disabled": 0, "rental_uris": {"android": "https://dc.lft.to/lastmile_qr_scan", "ios": "https://dc.lft.to/lastmile_qr_scan"}, "fusion_lon": 0.0, "lat": 38.905858333333335, "bike_id": "72c9fd4d585606f21db0a021f3768e01", "type": "electric_scooter", "is_reserved": 0, "lon": -77.016101}, {"fusion_lat": 0.0, "name": "3b57e633f29af3bd9491ffadbdb95c23", "is_disabled": 0, "rental_uris": {"android": "https://dc.lft.to/lastmile_qr_scan", "ios": "https://dc.lft.to/lastmile_qr_scan"}, "fusion_lon": 0.0, "lat": 38.9016535, "bike_id": "3b57e633f29af3bd9491ffadbdb95c23", "type": "electric_scooter", "is_reserved": 0, "lon": -76.98077733333334}, {"fusion_lat": 0.0, "name": "36b46142f18cb1fe30abc89b6b2c9b72", "is_disabled": 0, "rental_uris": {"android": "https://dc.lft.to/lastmile_qr_scan", "ios": "https://dc.lft.to/lastmile_qr_scan"}, "fusion_lon": 0.0, "lat": 38.929927, "bike_id": "36b46142f18cb1fe30abc89b6b2c9b72", "type": "electric_scooter", "is_reserved": 0, "lon": -77.03798266666666}, {"fusion_lat": 0.0, "name": "b85f5cd27c9a2a3307dd97605f9acb68", "is_disabled": 0, "rental_uris": {"android": "https://dc.lft.to/lastmile_qr_scan", "ios": "https://dc.lft.to/lastmile_qr_scan"}, "fusion_lon": 0.0, "lat": 38.90801783333333, "bike_id": "b85f5cd27c9a2a3307dd97605f9acb68", "type": "electric_scooter", "is_reserved": 0, "lon": -77.04167466666667}, {"fusion_lat": 0.0, "name": "eef5e96234896c8c55687750d7ed1e49", "is_disabled": 0, "rental_uris": {"android": "https://dc.lft.to/lastmile_qr_scan", "ios": "https://dc.lft.to/lastmile_qr_scan"}, "fusion_lon": 0.0, "lat": 38.92985933333333, "bike_id": "eef5e96234896c8c55687750d7ed1e49", "type": "electric_scooter", "is_reserved": 0, "lon": -77.03474733333333}, {"fusion_lat": 0.0, "name": "92f076dc1162a5feb1bfb5d9b18b0612", "is_disabled": 0, "rental_uris": {"android": "https://dc.lft.to/lastmile_qr_scan", "ios": "https://dc.lft.to/lastmile_qr_scan"}, "fusion_lon": 0.0, "lat": 38.93075133333333, "bike_id": "92f076dc1162a5feb1bfb5d9b18b0612", "type": "electric_scooter", "is_reserved": 0, "lon": -77.03159216666667}, {"fusion_lat": 0.0, "name": "0dc535a87d790f250875f4ecc79b613e", "is_disabled": 0, "rental_uris": {"android": "https://dc.lft.to/lastmile_qr_scan", "ios": "https://dc.lft.to/lastmile_qr_scan"}, "fusion_lon": 0.0, "lat": 38.83606016666667, "bike_id": "0dc535a87d790f250875f4ecc79b613e", "type": "electric_bike", "is_reserved": 0, "lon": -77.00383416666666}, {"fusion_lat": 0.0, "name": "e7b3b84234ad9a0c828853eed4b938e9", "is_disabled": 0, "rental_uris": {"android": "https://dc.lft.to/lastmile_qr_scan", "ios": "https://dc.lft.to/lastmile_qr_scan"}, "fusion_lon": 0.0, "lat": 38.884095333333335, "bike_id": "e7b3b84234ad9a0c828853eed4b938e9", "type": "electric_scooter", "is_reserved": 0, "lon": -77.02977433333334}, {"fusion_lat": 0.0, "name": "629eb8dea16868f16043716de711e5d7", "is_disabled": 0, "rental_uris": {"android": "https://dc.lft.to/lastmile_qr_scan", "ios": "https://dc.lft.to/lastmile_qr_scan"}, "fusion_lon": 0.0, "lat": 38.9094385, "bike_id": "629eb8dea16868f16043716de711e5d7", "type": "electric_scooter", "is_reserved": 0, "lon": -77.03950783333333}, {"fusion_lat": 0.0, "name": "19fe4a10f7514767f79fe8795c3bc307", "is_disabled": 0, "rental_uris": {"android": "https://dc.lft.to/lastmile_qr_scan", "ios": "https://dc.lft.to/lastmile_qr_scan"}, "fusion_lon": 0.0, "lat": 38.925517666666664, "bike_id": "19fe4a10f7514767f79fe8795c3bc307", "type": "electric_scooter", "is_reserved": 0, "lon": -77.0430105}, {"fusion_lat": 0.0, "name": "715339459c46f50b00ff81a59fc7fc3a", "is_disabled": 0, "rental_uris": {"android": "https://dc.lft.to/lastmile_qr_scan", "ios": "https://dc.lft.to/lastmile_qr_scan"}, "fusion_lon": 0.0, "lat": 38.92320183333333, "bike_id": "715339459c46f50b00ff81a59fc7fc3a", "type": "electric_scooter", "is_reserved": 0, "lon": -77.0403705}, {"fusion_lat": 0.0, "name": "f558db31b8dd2433cdb02d4c5cd69e47", "is_disabled": 0, "rental_uris": {"android": "https://dc.lft.to/lastmile_qr_scan", "ios": "https://dc.lft.to/lastmile_qr_scan"}, "fusion_lon": 0.0, "lat": 38.9199425, "bike_id": "f558db31b8dd2433cdb02d4c5cd69e47", "type": "electric_scooter", "is_reserved": 0, "lon": -77.03229433333334}, {"fusion_lat": 0.0, "name": "f5d0d9bb41828438127dde377ecc28ec", "is_disabled": 0, "rental_uris": {"android": "https://dc.lft.to/lastmile_qr_scan", "ios": "https://dc.lft.to/lastmile_qr_scan"}, "fusion_lon": 0.0, "lat": 38.9005075, "bike_id": "f5d0d9bb41828438127dde377ecc28ec", "type": "electric_scooter", "is_reserved": 0, "lon": -77.04914916666667}, {"fusion_lat": 0.0, "name": "eaca8a78b46a2374784d668cdd59232e", "is_disabled": 0, "rental_uris": {"android": "https://dc.lft.to/lastmile_qr_scan", "ios": "https://dc.lft.to/lastmile_qr_scan"}, "fusion_lon": 0.0, "lat": 38.994048, "bike_id": "eaca8a78b46a2374784d668cdd59232e", "type": "electric_bike", "is_reserved": 0, "lon": -77.03116833333333}, {"fusion_lat": 0.0, "name": "294e4f5bb017362d896cde8c0c8f9e61", "is_disabled": 0, "rental_uris": {"android": "https://dc.lft.to/lastmile_qr_scan", "ios": "https://dc.lft.to/lastmile_qr_scan"}, "fusion_lon": 0.0, "lat": 38.90568616666667, "bike_id": "294e4f5bb017362d896cde8c0c8f9e61", "type": "electric_scooter", "is_reserved": 0, "lon": -77.04452116666667}, {"fusion_lat": 0.0, "name": "6c09760ee1f8e2089f25566986eb56dc", "is_disabled": 0, "rental_uris": {"android": "https://dc.lft.to/lastmile_qr_scan", "ios": "https://dc.lft.to/lastmile_qr_scan"}, "fusion_lon": 0.0, "lat": 38.91402433333333, "bike_id": "6c09760ee1f8e2089f25566986eb56dc", "type": "electric_scooter", "is_reserved": 0, "lon": -77.02209383333333}, {"fusion_lat": 0.0, "name": "01df71c2e9c58722fefc6cee40173123", "is_disabled": 0, "rental_uris": {"android": "https://dc.lft.to/lastmile_qr_scan", "ios": "https://dc.lft.to/lastmile_qr_scan"}, "fusion_lon": 0.0, "lat": 38.876196666666665, "bike_id": "01df71c2e9c58722fefc6cee40173123", "type": "electric_scooter", "is_reserved": 0, "lon": -77.00118983333333}, {"fusion_lat": 0.0, "name": "d55d2176b2c6c9f09c46e695199746db", "is_disabled": 0, "rental_uris": {"android": "https://dc.lft.to/lastmile_qr_scan", "ios": "https://dc.lft.to/lastmile_qr_scan"}, "fusion_lon": 0.0, "lat": 38.9056545, "bike_id": "d55d2176b2c6c9f09c46e695199746db", "type": "electric_scooter", "is_reserved": 0, "lon": -77.02417083333333}, {"fusion_lat": 0.0, "name": "8facc971e311cf99d625333d8bc0f73f", "is_disabled": 0, "rental_uris": {"android": "https://dc.lft.to/lastmile_qr_scan", "ios": "https://dc.lft.to/lastmile_qr_scan"}, "fusion_lon": 0.0, "lat": 38.918178166666664, "bike_id": "8facc971e311cf99d625333d8bc0f73f", "type": "electric_scooter", "is_reserved": 0, "lon": -77.03752433333334}, {"fusion_lat": 0.0, "name": "ca93dadc27b900fd2302396f72163e49", "is_disabled": 0, "rental_uris": {"android": "https://dc.lft.to/lastmile_qr_scan", "ios": "https://dc.lft.to/lastmile_qr_scan"}, "fusion_lon": 0.0, "lat": 38.918084, "bike_id": "ca93dadc27b900fd2302396f72163e49", "type": "electric_scooter", "is_reserved": 0, "lon": -77.02679533333334}, {"fusion_lat": 0.0, "name": "0790aee9b99bb6ce036cd71b11406f1d", "is_disabled": 0, "rental_uris": {"android": "https://dc.lft.to/lastmile_qr_scan", "ios": "https://dc.lft.to/lastmile_qr_scan"}, "fusion_lon": 0.0, "lat": 38.91578666666667, "bike_id": "0790aee9b99bb6ce036cd71b11406f1d", "type": "electric_scooter", "is_reserved": 0, "lon": -77.012306}, {"fusion_lat": 0.0, "name": "da7703e2e541e5a744b64682691b771b", "is_disabled": 0, "rental_uris": {"android": "https://dc.lft.to/lastmile_qr_scan", "ios": "https://dc.lft.to/lastmile_qr_scan"}, "fusion_lon": 0.0, "lat": 38.87748166666667, "bike_id": "da7703e2e541e5a744b64682691b771b", "type": "electric_scooter", "is_reserved": 0, "lon": -77.00742816666667}, {"fusion_lat": 0.0, "name": "885ca446126d1a87043a9771df859787", "is_disabled": 0, "rental_uris": {"android": "https://dc.lft.to/lastmile_qr_scan", "ios": "https://dc.lft.to/lastmile_qr_scan"}, "fusion_lon": 0.0, "lat": 38.917503333333336, "bike_id": "885ca446126d1a87043a9771df859787", "type": "electric_scooter", "is_reserved": 0, "lon": -77.02827083333334}, {"fusion_lat": 0.0, "name": "afb618e87ba6284543b6167de28dc9aa", "is_disabled": 0, "rental_uris": {"android": "https://dc.lft.to/lastmile_qr_scan", "ios": "https://dc.lft.to/lastmile_qr_scan"}, "fusion_lon": 0.0, "lat": 38.90582783333333, "bike_id": "afb618e87ba6284543b6167de28dc9aa", "type": "electric_bike", "is_reserved": 0, "lon": -77.0027645}, {"fusion_lat": 0.0, "name": "a7fac5b3a549a41950880d095d2fb4d3", "is_disabled": 0, "rental_uris": {"android": "https://dc.lft.to/lastmile_qr_scan", "ios": "https://dc.lft.to/lastmile_qr_scan"}, "fusion_lon": 0.0, "lat": 38.907308666666665, "bike_id": "a7fac5b3a549a41950880d095d2fb4d3", "type": "electric_scooter", "is_reserved": 0, "lon": -77.02952633333334}, {"fusion_lat": 0.0, "name": "181df303c18fb7c37a26f89e577d5d72", "is_disabled": 0, "rental_uris": {"android": "https://dc.lft.to/lastmile_qr_scan", "ios": "https://dc.lft.to/lastmile_qr_scan"}, "fusion_lon": 0.0, "lat": 38.92337466666667, "bike_id": "181df303c18fb7c37a26f89e577d5d72", "type": "electric_scooter", "is_reserved": 0, "lon": -77.05230833333333}, {"fusion_lat": 0.0, "name": "e93c19d932dd580db8a22692102ad302", "is_disabled": 0, "rental_uris": {"android": "https://dc.lft.to/lastmile_qr_scan", "ios": "https://dc.lft.to/lastmile_qr_scan"}, "fusion_lon": 0.0, "lat": 38.916864833333335, "bike_id": "e93c19d932dd580db8a22692102ad302", "type": "electric_scooter", "is_reserved": 0, "lon": -77.03251116666667}, {"fusion_lat": 0.0, "name": "56fde07d51b74933a0436b5141bea42c", "is_disabled": 0, "rental_uris": {"android": "https://dc.lft.to/lastmile_qr_scan", "ios": "https://dc.lft.to/lastmile_qr_scan"}, "fusion_lon": 0.0, "lat": 38.9014555, "bike_id": "56fde07d51b74933a0436b5141bea42c", "type": "electric_scooter", "is_reserved": 0, "lon": -77.0592195}, {"fusion_lat": 0.0, "name": "b41b33578625394e653a040585773a35", "is_disabled": 0, "rental_uris": {"android": "https://dc.lft.to/lastmile_qr_scan", "ios": "https://dc.lft.to/lastmile_qr_scan"}, "fusion_lon": 0.0, "lat": 38.91840116666667, "bike_id": "b41b33578625394e653a040585773a35", "type": "electric_scooter", "is_reserved": 0, "lon": -77.0319775}, {"fusion_lat": 0.0, "name": "0ed98a4708de99ea444ffc3dc75606f8", "is_disabled": 0, "rental_uris": {"android": "https://dc.lft.to/lastmile_qr_scan", "ios": "https://dc.lft.to/lastmile_qr_scan"}, "fusion_lon": 0.0, "lat": 38.8796735, "bike_id": "0ed98a4708de99ea444ffc3dc75606f8", "type": "electric_scooter", "is_reserved": 0, "lon": -77.00602366666666}, {"fusion_lat": 0.0, "name": "9a9204606eecdf00f3b1d61e04d1d346", "is_disabled": 0, "rental_uris": {"android": "https://dc.lft.to/lastmile_qr_scan", "ios": "https://dc.lft.to/lastmile_qr_scan"}, "fusion_lon": 0.0, "lat": 38.942613, "bike_id": "9a9204606eecdf00f3b1d61e04d1d346", "type": "electric_bike", "is_reserved": 0, "lon": -77.028396}, {"fusion_lat": 0.0, "name": "5abfd95494e0e93a0f82f243f8bbb68a", "is_disabled": 0, "rental_uris": {"android": "https://dc.lft.to/lastmile_qr_scan", "ios": "https://dc.lft.to/lastmile_qr_scan"}, "fusion_lon": 0.0, "lat": 38.9050345, "bike_id": "5abfd95494e0e93a0f82f243f8bbb68a", "type": "electric_bike", "is_reserved": 0, "lon": -76.97445983333333}, {"fusion_lat": 0.0, "name": "041c6b5397b7f5ed9e6a681076595805", "is_disabled": 0, "rental_uris": {"android": "https://dc.lft.to/lastmile_qr_scan", "ios": "https://dc.lft.to/lastmile_qr_scan"}, "fusion_lon": 0.0, "lat": 38.89663566666667, "bike_id": "041c6b5397b7f5ed9e6a681076595805", "type": "electric_scooter", "is_reserved": 0, "lon": -77.02487366666666}, {"fusion_lat": 0.0, "name": "5c568a4492976390435b8e9b29c082a8", "is_disabled": 0, "rental_uris": {"android": "https://dc.lft.to/lastmile_qr_scan", "ios": "https://dc.lft.to/lastmile_qr_scan"}, "fusion_lon": 0.0, "lat": 38.88014233333333, "bike_id": "5c568a4492976390435b8e9b29c082a8", "type": "electric_scooter", "is_reserved": 0, "lon": -77.02485916666667}, {"fusion_lat": 0.0, "name": "e09dc5428904c2115c10a75bd4952d59", "is_disabled": 0, "rental_uris": {"android": "https://dc.lft.to/lastmile_qr_scan", "ios": "https://dc.lft.to/lastmile_qr_scan"}, "fusion_lon": 0.0, "lat": 38.9178165, "bike_id": "e09dc5428904c2115c10a75bd4952d59", "type": "electric_bike", "is_reserved": 0, "lon": -77.0425745}, {"fusion_lat": 0.0, "name": "be12db1134ff566cdfaf9bd466878173", "is_disabled": 0, "rental_uris": {"android": "https://dc.lft.to/lastmile_qr_scan", "ios": "https://dc.lft.to/lastmile_qr_scan"}, "fusion_lon": 0.0, "lat": 38.8982475, "bike_id": "be12db1134ff566cdfaf9bd466878173", "type": "electric_scooter", "is_reserved": 0, "lon": -77.03356083333334}, {"fusion_lat": 0.0, "name": "5c289945d503077a1a151ce9e5a6b486", "is_disabled": 0, "rental_uris": {"android": "https://dc.lft.to/lastmile_qr_scan", "ios": "https://dc.lft.to/lastmile_qr_scan"}, "fusion_lon": 0.0, "lat": 38.915913833333335, "bike_id": "5c289945d503077a1a151ce9e5a6b486", "type": "electric_scooter", "is_reserved": 0, "lon": -76.98390016666667}, {"fusion_lat": 0.0, "name": "2e005afbffe05f8514753b42185ba05d", "is_disabled": 0, "rental_uris": {"android": "https://dc.lft.to/lastmile_qr_scan", "ios": "https://dc.lft.to/lastmile_qr_scan"}, "fusion_lon": 0.0, "lat": 38.956265333333334, "bike_id": "2e005afbffe05f8514753b42185ba05d", "type": "electric_scooter", "is_reserved": 0, "lon": -77.02835433333334}, {"fusion_lat": 0.0, "name": "23a37a329f91f16b3122c1446339dfae", "is_disabled": 0, "rental_uris": {"android": "https://dc.lft.to/lastmile_qr_scan", "ios": "https://dc.lft.to/lastmile_qr_scan"}, "fusion_lon": 0.0, "lat": 38.84353216666667, "bike_id": "23a37a329f91f16b3122c1446339dfae", "type": "electric_bike", "is_reserved": 0, "lon": -76.978206}, {"fusion_lat": 0.0, "name": "63a8a08659072267abe956d2f735e675", "is_disabled": 0, "rental_uris": {"android": "https://dc.lft.to/lastmile_qr_scan", "ios": "https://dc.lft.to/lastmile_qr_scan"}, "fusion_lon": 0.0, "lat": 38.9034175, "bike_id": "63a8a08659072267abe956d2f735e675", "type": "electric_scooter", "is_reserved": 0, "lon": -77.01764}, {"fusion_lat": 0.0, "name": "0dec4665ec2dd651796cc7ffaee1ad90", "is_disabled": 0, "rental_uris": {"android": "https://dc.lft.to/lastmile_qr_scan", "ios": "https://dc.lft.to/lastmile_qr_scan"}, "fusion_lon": 0.0, "lat": 38.8793985, "bike_id": "0dec4665ec2dd651796cc7ffaee1ad90", "type": "electric_scooter", "is_reserved": 0, "lon": -77.00629233333333}, {"fusion_lat": 0.0, "name": "10918e929e310169eb6109b1c91da846", "is_disabled": 0, "rental_uris": {"android": "https://dc.lft.to/lastmile_qr_scan", "ios": "https://dc.lft.to/lastmile_qr_scan"}, "fusion_lon": 0.0, "lat": 38.92528033333333, "bike_id": "10918e929e310169eb6109b1c91da846", "type": "electric_scooter", "is_reserved": 0, "lon": -77.04114983333334}, {"fusion_lat": 0.0, "name": "a3baa7193f3862956c71545087f1719b", "is_disabled": 0, "rental_uris": {"android": "https://dc.lft.to/lastmile_qr_scan", "ios": "https://dc.lft.to/lastmile_qr_scan"}, "fusion_lon": 0.0, "lat": 38.90470233333333, "bike_id": "a3baa7193f3862956c71545087f1719b", "type": "electric_scooter", "is_reserved": 0, "lon": -77.048729}, {"fusion_lat": 0.0, "name": "d0c2dc38043871a54e6a5ac50de140d8", "is_disabled": 0, "rental_uris": {"android": "https://dc.lft.to/lastmile_qr_scan", "ios": "https://dc.lft.to/lastmile_qr_scan"}, "fusion_lon": 0.0, "lat": 38.92335933333333, "bike_id": "d0c2dc38043871a54e6a5ac50de140d8", "type": "electric_scooter", "is_reserved": 0, "lon": -77.0190695}, {"fusion_lat": 0.0, "name": "21885ba5267ddda5bbb95f14c7f03dfe", "is_disabled": 0, "rental_uris": {"android": "https://dc.lft.to/lastmile_qr_scan", "ios": "https://dc.lft.to/lastmile_qr_scan"}, "fusion_lon": 0.0, "lat": 38.914409666666664, "bike_id": "21885ba5267ddda5bbb95f14c7f03dfe", "type": "electric_scooter", "is_reserved": 0, "lon": -77.03648233333334}, {"fusion_lat": 0.0, "name": "a117e43b451b677be214e96b5618d92d", "is_disabled": 0, "rental_uris": {"android": "https://dc.lft.to/lastmile_qr_scan", "ios": "https://dc.lft.to/lastmile_qr_scan"}, "fusion_lon": 0.0, "lat": 38.9031205, "bike_id": "a117e43b451b677be214e96b5618d92d", "type": "electric_scooter", "is_reserved": 0, "lon": -76.97803266666666}, {"fusion_lat": 0.0, "name": "6ef8959523d8c42bb5b1e6074ba14293", "is_disabled": 0, "rental_uris": {"android": "https://dc.lft.to/lastmile_qr_scan", "ios": "https://dc.lft.to/lastmile_qr_scan"}, "fusion_lon": 0.0, "lat": 38.912738, "bike_id": "6ef8959523d8c42bb5b1e6074ba14293", "type": "electric_scooter", "is_reserved": 0, "lon": -77.03659233333333}, {"fusion_lat": 0.0, "name": "819f514850f35447ffd1bac429d122a8", "is_disabled": 0, "rental_uris": {"android": "https://dc.lft.to/lastmile_qr_scan", "ios": "https://dc.lft.to/lastmile_qr_scan"}, "fusion_lon": 0.0, "lat": 38.912181, "bike_id": "819f514850f35447ffd1bac429d122a8", "type": "electric_scooter", "is_reserved": 0, "lon": -77.0319805}, {"fusion_lat": 0.0, "name": "4593d4ffcd8cd1e2659699e24ecfd43d", "is_disabled": 0, "rental_uris": {"android": "https://dc.lft.to/lastmile_qr_scan", "ios": "https://dc.lft.to/lastmile_qr_scan"}, "fusion_lon": 0.0, "lat": 38.916250166666664, "bike_id": "4593d4ffcd8cd1e2659699e24ecfd43d", "type": "electric_scooter", "is_reserved": 0, "lon": -77.03189116666667}, {"fusion_lat": 0.0, "name": "80b2371ded5983b8cb5e329e2c3aed47", "is_disabled": 0, "rental_uris": {"android": "https://dc.lft.to/lastmile_qr_scan", "ios": "https://dc.lft.to/lastmile_qr_scan"}, "fusion_lon": 0.0, "lat": 38.92231266666667, "bike_id": "80b2371ded5983b8cb5e329e2c3aed47", "type": "electric_scooter", "is_reserved": 0, "lon": -77.04257183333333}, {"fusion_lat": 0.0, "name": "02374fb71b9e9635ede7f9ebcc1d1d98", "is_disabled": 0, "rental_uris": {"android": "https://dc.lft.to/lastmile_qr_scan", "ios": "https://dc.lft.to/lastmile_qr_scan"}, "fusion_lon": 0.0, "lat": 38.920626666666664, "bike_id": "02374fb71b9e9635ede7f9ebcc1d1d98", "type": "electric_scooter", "is_reserved": 0, "lon": -77.04248316666667}, {"fusion_lat": 0.0, "name": "c8552b95f0bcb68e8e0b592822c5fac4", "is_disabled": 0, "rental_uris": {"android": "https://dc.lft.to/lastmile_qr_scan", "ios": "https://dc.lft.to/lastmile_qr_scan"}, "fusion_lon": 0.0, "lat": 38.9170585, "bike_id": "c8552b95f0bcb68e8e0b592822c5fac4", "type": "electric_scooter", "is_reserved": 0, "lon": -77.02427966666667}, {"fusion_lat": 0.0, "name": "c7176ffef44bea3f3eef09bf11663a9f", "is_disabled": 0, "rental_uris": {"android": "https://dc.lft.to/lastmile_qr_scan", "ios": "https://dc.lft.to/lastmile_qr_scan"}, "fusion_lon": 0.0, "lat": 38.9177215, "bike_id": "c7176ffef44bea3f3eef09bf11663a9f", "type": "electric_scooter", "is_reserved": 0, "lon": -77.04554783333333}, {"fusion_lat": 0.0, "name": "e554c8e2bd2d77e6a62c258785cc1785", "is_disabled": 0, "rental_uris": {"android": "https://dc.lft.to/lastmile_qr_scan", "ios": "https://dc.lft.to/lastmile_qr_scan"}, "fusion_lon": 0.0, "lat": 38.87558216666667, "bike_id": "e554c8e2bd2d77e6a62c258785cc1785", "type": "electric_scooter", "is_reserved": 0, "lon": -77.00581933333333}, {"fusion_lat": 0.0, "name": "a1c4c21e6b6ece359697ddaad5d942ef", "is_disabled": 0, "rental_uris": {"android": "https://dc.lft.to/lastmile_qr_scan", "ios": "https://dc.lft.to/lastmile_qr_scan"}, "fusion_lon": 0.0, "lat": 38.95058133333333, "bike_id": "a1c4c21e6b6ece359697ddaad5d942ef", "type": "electric_scooter", "is_reserved": 0, "lon": -77.080257}, {"fusion_lat": 0.0, "name": "553fd2e5b24e541d25cc673990a91a7b", "is_disabled": 0, "rental_uris": {"android": "https://dc.lft.to/lastmile_qr_scan", "ios": "https://dc.lft.to/lastmile_qr_scan"}, "fusion_lon": 0.0, "lat": 38.909806333333336, "bike_id": "553fd2e5b24e541d25cc673990a91a7b", "type": "electric_scooter", "is_reserved": 0, "lon": -77.03434516666667}, {"fusion_lat": 0.0, "name": "95ad47d81e2d7f6368f57dce1cedd81d", "is_disabled": 0, "rental_uris": {"android": "https://dc.lft.to/lastmile_qr_scan", "ios": "https://dc.lft.to/lastmile_qr_scan"}, "fusion_lon": 0.0, "lat": 38.901519666666665, "bike_id": "95ad47d81e2d7f6368f57dce1cedd81d", "type": "electric_scooter", "is_reserved": 0, "lon": -76.9306775}, {"fusion_lat": 0.0, "name": "e4d9b8e663e3e5a2755fdcd7b2dd51d7", "is_disabled": 0, "rental_uris": {"android": "https://dc.lft.to/lastmile_qr_scan", "ios": "https://dc.lft.to/lastmile_qr_scan"}, "fusion_lon": 0.0, "lat": 38.906846333333334, "bike_id": "e4d9b8e663e3e5a2755fdcd7b2dd51d7", "type": "electric_bike", "is_reserved": 0, "lon": -76.94494733333333}, {"fusion_lat": 0.0, "name": "62b2e0cc4821f83edee2ed2ca5de2ac5", "is_disabled": 0, "rental_uris": {"android": "https://dc.lft.to/lastmile_qr_scan", "ios": "https://dc.lft.to/lastmile_qr_scan"}, "fusion_lon": 0.0, "lat": 38.9382855, "bike_id": "62b2e0cc4821f83edee2ed2ca5de2ac5", "type": "electric_scooter", "is_reserved": 0, "lon": -77.030471}, {"fusion_lat": 0.0, "name": "5f92a4cf26e13041fb6b3219cb1d9179", "is_disabled": 0, "rental_uris": {"android": "https://dc.lft.to/lastmile_qr_scan", "ios": "https://dc.lft.to/lastmile_qr_scan"}, "fusion_lon": 0.0, "lat": 38.902045, "bike_id": "5f92a4cf26e13041fb6b3219cb1d9179", "type": "electric_scooter", "is_reserved": 0, "lon": -77.023743}, {"fusion_lat": 0.0, "name": "5a726358577795515735d45958efb141", "is_disabled": 0, "rental_uris": {"android": "https://dc.lft.to/lastmile_qr_scan", "ios": "https://dc.lft.to/lastmile_qr_scan"}, "fusion_lon": 0.0, "lat": 38.92719233333333, "bike_id": "5a726358577795515735d45958efb141", "type": "electric_scooter", "is_reserved": 0, "lon": -77.10460516666667}, {"fusion_lat": 0.0, "name": "18367b077a8d77fe76c6080094a8d5d6", "is_disabled": 0, "rental_uris": {"android": "https://dc.lft.to/lastmile_qr_scan", "ios": "https://dc.lft.to/lastmile_qr_scan"}, "fusion_lon": 0.0, "lat": 38.87156, "bike_id": "18367b077a8d77fe76c6080094a8d5d6", "type": "electric_bike", "is_reserved": 0, "lon": -77.0118965}, {"fusion_lat": 0.0, "name": "bac801eaf2d18038bb072e2b6ac10aea", "is_disabled": 0, "rental_uris": {"android": "https://dc.lft.to/lastmile_qr_scan", "ios": "https://dc.lft.to/lastmile_qr_scan"}, "fusion_lon": 0.0, "lat": 38.923002833333335, "bike_id": "bac801eaf2d18038bb072e2b6ac10aea", "type": "electric_scooter", "is_reserved": 0, "lon": -77.04136466666667}, {"fusion_lat": 0.0, "name": "41c9d087a75bc31326967529b66e02a7", "is_disabled": 0, "rental_uris": {"android": "https://dc.lft.to/lastmile_qr_scan", "ios": "https://dc.lft.to/lastmile_qr_scan"}, "fusion_lon": 0.0, "lat": 38.87564733333333, "bike_id": "41c9d087a75bc31326967529b66e02a7", "type": "electric_scooter", "is_reserved": 0, "lon": -77.0058285}, {"fusion_lat": 0.0, "name": "4dd65bf79589594e6ab470c8229f095d", "is_disabled": 0, "rental_uris": {"android": "https://dc.lft.to/lastmile_qr_scan", "ios": "https://dc.lft.to/lastmile_qr_scan"}, "fusion_lon": 0.0, "lat": 38.9084495, "bike_id": "4dd65bf79589594e6ab470c8229f095d", "type": "electric_scooter", "is_reserved": 0, "lon": -76.99758933333334}, {"fusion_lat": 0.0, "name": "e5b4f770ecfe2a2532147e87dbeb4af4", "is_disabled": 0, "rental_uris": {"android": "https://dc.lft.to/lastmile_qr_scan", "ios": "https://dc.lft.to/lastmile_qr_scan"}, "fusion_lon": 0.0, "lat": 38.91731016666667, "bike_id": "e5b4f770ecfe2a2532147e87dbeb4af4", "type": "electric_scooter", "is_reserved": 0, "lon": -77.02294883333333}, {"fusion_lat": 0.0, "name": "32bda3a72db9a42d7dd1ae2f7f9bc4b7", "is_disabled": 0, "rental_uris": {"android": "https://dc.lft.to/lastmile_qr_scan", "ios": "https://dc.lft.to/lastmile_qr_scan"}, "fusion_lon": 0.0, "lat": 38.89887316666667, "bike_id": "32bda3a72db9a42d7dd1ae2f7f9bc4b7", "type": "electric_scooter", "is_reserved": 0, "lon": -77.03932466666667}, {"fusion_lat": 0.0, "name": "ece92c4136bb553eadab08b1b52190c8", "is_disabled": 0, "rental_uris": {"android": "https://dc.lft.to/lastmile_qr_scan", "ios": "https://dc.lft.to/lastmile_qr_scan"}, "fusion_lon": 0.0, "lat": 38.938502666666665, "bike_id": "ece92c4136bb553eadab08b1b52190c8", "type": "electric_scooter", "is_reserved": 0, "lon": -77.0248275}, {"fusion_lat": 0.0, "name": "ab6829a9d943b08fcca4234a5eca4f6a", "is_disabled": 0, "rental_uris": {"android": "https://dc.lft.to/lastmile_qr_scan", "ios": "https://dc.lft.to/lastmile_qr_scan"}, "fusion_lon": 0.0, "lat": 38.90034466666667, "bike_id": "ab6829a9d943b08fcca4234a5eca4f6a", "type": "electric_scooter", "is_reserved": 0, "lon": -76.99634733333333}, {"fusion_lat": 0.0, "name": "49c57fa63b2a6d0502bd2cd88d382dee", "is_disabled": 0, "rental_uris": {"android": "https://dc.lft.to/lastmile_qr_scan", "ios": "https://dc.lft.to/lastmile_qr_scan"}, "fusion_lon": 0.0, "lat": 38.909713333333336, "bike_id": "49c57fa63b2a6d0502bd2cd88d382dee", "type": "electric_scooter", "is_reserved": 0, "lon": -77.0320905}, {"fusion_lat": 0.0, "name": "e4bb925eab736817cb8a2d7561af6b5b", "is_disabled": 0, "rental_uris": {"android": "https://dc.lft.to/lastmile_qr_scan", "ios": "https://dc.lft.to/lastmile_qr_scan"}, "fusion_lon": 0.0, "lat": 38.90532983333333, "bike_id": "e4bb925eab736817cb8a2d7561af6b5b", "type": "electric_bike", "is_reserved": 0, "lon": -76.99804266666666}, {"fusion_lat": 0.0, "name": "6a9ff7e4298b194b793435cb5839c78a", "is_disabled": 0, "rental_uris": {"android": "https://dc.lft.to/lastmile_qr_scan", "ios": "https://dc.lft.to/lastmile_qr_scan"}, "fusion_lon": 0.0, "lat": 38.877495833333334, "bike_id": "6a9ff7e4298b194b793435cb5839c78a", "type": "electric_scooter", "is_reserved": 0, "lon": -77.00345633333333}, {"fusion_lat": 0.0, "name": "44b1ca375272b0bb94a79d9476ca1c1b", "is_disabled": 0, "rental_uris": {"android": "https://dc.lft.to/lastmile_qr_scan", "ios": "https://dc.lft.to/lastmile_qr_scan"}, "fusion_lon": 0.0, "lat": 38.9081055, "bike_id": "44b1ca375272b0bb94a79d9476ca1c1b", "type": "electric_scooter", "is_reserved": 0, "lon": -77.02935333333333}, {"fusion_lat": 0.0, "name": "bdc684869b3fa0b84f8bea83c6972c4c", "is_disabled": 0, "rental_uris": {"android": "https://dc.lft.to/lastmile_qr_scan", "ios": "https://dc.lft.to/lastmile_qr_scan"}, "fusion_lon": 0.0, "lat": 38.90933316666667, "bike_id": "bdc684869b3fa0b84f8bea83c6972c4c", "type": "electric_scooter", "is_reserved": 0, "lon": -77.0281845}, {"fusion_lat": 0.0, "name": "7bc5b939be814d6e1da229a996cd345d", "is_disabled": 0, "rental_uris": {"android": "https://dc.lft.to/lastmile_qr_scan", "ios": "https://dc.lft.to/lastmile_qr_scan"}, "fusion_lon": 0.0, "lat": 38.9034585, "bike_id": "7bc5b939be814d6e1da229a996cd345d", "type": "electric_scooter", "is_reserved": 0, "lon": -77.04505283333333}, {"fusion_lat": 0.0, "name": "9e0f7386c05c0a35ac65d96db4b5fb46", "is_disabled": 0, "rental_uris": {"android": "https://dc.lft.to/lastmile_qr_scan", "ios": "https://dc.lft.to/lastmile_qr_scan"}, "fusion_lon": 0.0, "lat": 38.912532, "bike_id": "9e0f7386c05c0a35ac65d96db4b5fb46", "type": "electric_scooter", "is_reserved": 0, "lon": -77.02816833333333}, {"fusion_lat": 0.0, "name": "b37a592de38eeb11344951033eacf554", "is_disabled": 0, "rental_uris": {"android": "https://dc.lft.to/lastmile_qr_scan", "ios": "https://dc.lft.to/lastmile_qr_scan"}, "fusion_lon": 0.0, "lat": 38.9231955, "bike_id": "b37a592de38eeb11344951033eacf554", "type": "electric_scooter", "is_reserved": 0, "lon": -77.04024483333333}, {"fusion_lat": 0.0, "name": "ec94f6b70ebf74ae55c0065a90744fd6", "is_disabled": 0, "rental_uris": {"android": "https://dc.lft.to/lastmile_qr_scan", "ios": "https://dc.lft.to/lastmile_qr_scan"}, "fusion_lon": 0.0, "lat": 38.895518833333334, "bike_id": "ec94f6b70ebf74ae55c0065a90744fd6", "type": "electric_scooter", "is_reserved": 0, "lon": -76.94873783333334}, {"fusion_lat": 0.0, "name": "64322fd2c225c1fcb5c00d713ed29337", "is_disabled": 0, "rental_uris": {"android": "https://dc.lft.to/lastmile_qr_scan", "ios": "https://dc.lft.to/lastmile_qr_scan"}, "fusion_lon": 0.0, "lat": 38.9167495, "bike_id": "64322fd2c225c1fcb5c00d713ed29337", "type": "electric_scooter", "is_reserved": 0, "lon": -77.02381683333333}, {"fusion_lat": 0.0, "name": "67488780ac0de745a4a471158e35d4da", "is_disabled": 0, "rental_uris": {"android": "https://dc.lft.to/lastmile_qr_scan", "ios": "https://dc.lft.to/lastmile_qr_scan"}, "fusion_lon": 0.0, "lat": 38.91483933333333, "bike_id": "67488780ac0de745a4a471158e35d4da", "type": "electric_scooter", "is_reserved": 0, "lon": -77.04610766666667}, {"fusion_lat": 0.0, "name": "da22c4f57ac1aa15ac8cfecdcf2e117f", "is_disabled": 0, "rental_uris": {"android": "https://dc.lft.to/lastmile_qr_scan", "ios": "https://dc.lft.to/lastmile_qr_scan"}, "fusion_lon": 0.0, "lat": 38.924695, "bike_id": "da22c4f57ac1aa15ac8cfecdcf2e117f", "type": "electric_scooter", "is_reserved": 0, "lon": -77.03559733333333}, {"fusion_lat": 0.0, "name": "9c2c0694dec8be45a55b7f9a3353ae5a", "is_disabled": 0, "rental_uris": {"android": "https://dc.lft.to/lastmile_qr_scan", "ios": "https://dc.lft.to/lastmile_qr_scan"}, "fusion_lon": 0.0, "lat": 38.874701, "bike_id": "9c2c0694dec8be45a55b7f9a3353ae5a", "type": "electric_scooter", "is_reserved": 0, "lon": -77.00468233333334}, {"fusion_lat": 0.0, "name": "1c6a0b37aa1c1d387a88b57bd47020d0", "is_disabled": 0, "rental_uris": {"android": "https://dc.lft.to/lastmile_qr_scan", "ios": "https://dc.lft.to/lastmile_qr_scan"}, "fusion_lon": 0.0, "lat": 38.96985133333333, "bike_id": "1c6a0b37aa1c1d387a88b57bd47020d0", "type": "electric_scooter", "is_reserved": 0, "lon": -77.01161383333333}, {"fusion_lat": 0.0, "name": "406980401eae1bc924605ac0426cf8a7", "is_disabled": 0, "rental_uris": {"android": "https://dc.lft.to/lastmile_qr_scan", "ios": "https://dc.lft.to/lastmile_qr_scan"}, "fusion_lon": 0.0, "lat": 38.90079516666667, "bike_id": "406980401eae1bc924605ac0426cf8a7", "type": "electric_scooter", "is_reserved": 0, "lon": -77.0219375}, {"fusion_lat": 0.0, "name": "d1a34aed4b6a30edd5d38375b1f8e977", "is_disabled": 0, "rental_uris": {"android": "https://dc.lft.to/lastmile_qr_scan", "ios": "https://dc.lft.to/lastmile_qr_scan"}, "fusion_lon": 0.0, "lat": 38.89738116666667, "bike_id": "d1a34aed4b6a30edd5d38375b1f8e977", "type": "electric_scooter", "is_reserved": 0, "lon": -76.94721533333333}, {"fusion_lat": 0.0, "name": "8a63fb81c568f06c4d57999e633ade96", "is_disabled": 0, "rental_uris": {"android": "https://dc.lft.to/lastmile_qr_scan", "ios": "https://dc.lft.to/lastmile_qr_scan"}, "fusion_lon": 0.0, "lat": 38.90027633333333, "bike_id": "8a63fb81c568f06c4d57999e633ade96", "type": "electric_scooter", "is_reserved": 0, "lon": -77.002254}, {"fusion_lat": 0.0, "name": "31046e69fadfe6ceff39cc51a97fd180", "is_disabled": 0, "rental_uris": {"android": "https://dc.lft.to/lastmile_qr_scan", "ios": "https://dc.lft.to/lastmile_qr_scan"}, "fusion_lon": 0.0, "lat": 38.896686833333334, "bike_id": "31046e69fadfe6ceff39cc51a97fd180", "type": "electric_scooter", "is_reserved": 0, "lon": -77.05049933333333}, {"fusion_lat": 0.0, "name": "c3577968896126d561200a5deb7871af", "is_disabled": 0, "rental_uris": {"android": "https://dc.lft.to/lastmile_qr_scan", "ios": "https://dc.lft.to/lastmile_qr_scan"}, "fusion_lon": 0.0, "lat": 38.877436333333335, "bike_id": "c3577968896126d561200a5deb7871af", "type": "electric_scooter", "is_reserved": 0, "lon": -77.0026615}, {"fusion_lat": 0.0, "name": "89ddaa6de610e9838f10820c5e3261e1", "is_disabled": 0, "rental_uris": {"android": "https://dc.lft.to/lastmile_qr_scan", "ios": "https://dc.lft.to/lastmile_qr_scan"}, "fusion_lon": 0.0, "lat": 38.91677033333333, "bike_id": "89ddaa6de610e9838f10820c5e3261e1", "type": "electric_scooter", "is_reserved": 0, "lon": -77.01568033333334}, {"fusion_lat": 0.0, "name": "ee3227dda7225f53332505559efb9776", "is_disabled": 0, "rental_uris": {"android": "https://dc.lft.to/lastmile_qr_scan", "ios": "https://dc.lft.to/lastmile_qr_scan"}, "fusion_lon": 0.0, "lat": 38.87311583333333, "bike_id": "ee3227dda7225f53332505559efb9776", "type": "electric_scooter", "is_reserved": 0, "lon": -77.00132033333334}, {"fusion_lat": 0.0, "name": "9d8ece5cf25f96a9340f3edf1e25e248", "is_disabled": 0, "rental_uris": {"android": "https://dc.lft.to/lastmile_qr_scan", "ios": "https://dc.lft.to/lastmile_qr_scan"}, "fusion_lon": 0.0, "lat": 38.9166925, "bike_id": "9d8ece5cf25f96a9340f3edf1e25e248", "type": "electric_bike", "is_reserved": 0, "lon": -77.03851083333333}, {"fusion_lat": 0.0, "name": "84777cb6d258793cfc882de3ff0e631b", "is_disabled": 0, "rental_uris": {"android": "https://dc.lft.to/lastmile_qr_scan", "ios": "https://dc.lft.to/lastmile_qr_scan"}, "fusion_lon": 0.0, "lat": 38.917860166666664, "bike_id": "84777cb6d258793cfc882de3ff0e631b", "type": "electric_scooter", "is_reserved": 0, "lon": -77.03204233333334}, {"fusion_lat": 0.0, "name": "61380e2a509c264d57b47ce04c49ee23", "is_disabled": 0, "rental_uris": {"android": "https://dc.lft.to/lastmile_qr_scan", "ios": "https://dc.lft.to/lastmile_qr_scan"}, "fusion_lon": 0.0, "lat": 38.887284666666666, "bike_id": "61380e2a509c264d57b47ce04c49ee23", "type": "electric_scooter", "is_reserved": 0, "lon": -77.01343916666667}, {"fusion_lat": 0.0, "name": "5a20d46b8c3d9b97b4e13fcf0153f1f8", "is_disabled": 0, "rental_uris": {"android": "https://dc.lft.to/lastmile_qr_scan", "ios": "https://dc.lft.to/lastmile_qr_scan"}, "fusion_lon": 0.0, "lat": 38.92486816666667, "bike_id": "5a20d46b8c3d9b97b4e13fcf0153f1f8", "type": "electric_scooter", "is_reserved": 0, "lon": -77.027155}, {"fusion_lat": 0.0, "name": "073fcf527ba962e0902b84bd8e7e33a7", "is_disabled": 0, "rental_uris": {"android": "https://dc.lft.to/lastmile_qr_scan", "ios": "https://dc.lft.to/lastmile_qr_scan"}, "fusion_lon": 0.0, "lat": 38.9275375, "bike_id": "073fcf527ba962e0902b84bd8e7e33a7", "type": "electric_scooter", "is_reserved": 0, "lon": -77.03275066666667}, {"fusion_lat": 0.0, "name": "2ccfcb32bcf91df3c80b1c738d562af3", "is_disabled": 0, "rental_uris": {"android": "https://dc.lft.to/lastmile_qr_scan", "ios": "https://dc.lft.to/lastmile_qr_scan"}, "fusion_lon": 0.0, "lat": 38.941855833333335, "bike_id": "2ccfcb32bcf91df3c80b1c738d562af3", "type": "electric_scooter", "is_reserved": 0, "lon": -77.02494416666667}, {"fusion_lat": 0.0, "name": "4132d3bffc7bda926e32ded4e2d028d0", "is_disabled": 0, "rental_uris": {"android": "https://dc.lft.to/lastmile_qr_scan", "ios": "https://dc.lft.to/lastmile_qr_scan"}, "fusion_lon": 0.0, "lat": 38.933396333333334, "bike_id": "4132d3bffc7bda926e32ded4e2d028d0", "type": "electric_scooter", "is_reserved": 0, "lon": -77.06201433333334}, {"fusion_lat": 0.0, "name": "fb942c590799b2ee9086c0780a0c530f", "is_disabled": 0, "rental_uris": {"android": "https://dc.lft.to/lastmile_qr_scan", "ios": "https://dc.lft.to/lastmile_qr_scan"}, "fusion_lon": 0.0, "lat": 38.8921315, "bike_id": "fb942c590799b2ee9086c0780a0c530f", "type": "electric_scooter", "is_reserved": 0, "lon": -77.0264865}, {"fusion_lat": 0.0, "name": "15f17b54c6e60243bcec0ae2131309ef", "is_disabled": 0, "rental_uris": {"android": "https://dc.lft.to/lastmile_qr_scan", "ios": "https://dc.lft.to/lastmile_qr_scan"}, "fusion_lon": 0.0, "lat": 38.9340795, "bike_id": "15f17b54c6e60243bcec0ae2131309ef", "type": "electric_scooter", "is_reserved": 0, "lon": -77.02204316666666}, {"fusion_lat": 0.0, "name": "6b4a6bd19c6185831df52221c018c32c", "is_disabled": 0, "rental_uris": {"android": "https://dc.lft.to/lastmile_qr_scan", "ios": "https://dc.lft.to/lastmile_qr_scan"}, "fusion_lon": 0.0, "lat": 38.921120333333334, "bike_id": "6b4a6bd19c6185831df52221c018c32c", "type": "electric_scooter", "is_reserved": 0, "lon": -77.03173016666666}, {"fusion_lat": 0.0, "name": "a7703b0e8bfc443968df1ab9175baa40", "is_disabled": 0, "rental_uris": {"android": "https://dc.lft.to/lastmile_qr_scan", "ios": "https://dc.lft.to/lastmile_qr_scan"}, "fusion_lon": 0.0, "lat": 38.90116833333333, "bike_id": "a7703b0e8bfc443968df1ab9175baa40", "type": "electric_scooter", "is_reserved": 0, "lon": -77.03386733333333}, {"fusion_lat": 0.0, "name": "372878bb876b07ebb8458565d10f47c5", "is_disabled": 0, "rental_uris": {"android": "https://dc.lft.to/lastmile_qr_scan", "ios": "https://dc.lft.to/lastmile_qr_scan"}, "fusion_lon": 0.0, "lat": 38.902164166666665, "bike_id": "372878bb876b07ebb8458565d10f47c5", "type": "electric_scooter", "is_reserved": 0, "lon": -77.03262133333334}, {"fusion_lat": 0.0, "name": "cc365f2de10050add63c2785c032293f", "is_disabled": 0, "rental_uris": {"android": "https://dc.lft.to/lastmile_qr_scan", "ios": "https://dc.lft.to/lastmile_qr_scan"}, "fusion_lon": 0.0, "lat": 38.922636833333335, "bike_id": "cc365f2de10050add63c2785c032293f", "type": "electric_bike", "is_reserved": 0, "lon": -76.986492}, {"fusion_lat": 0.0, "name": "3a48999afb8a51db83bc9276f1b05184", "is_disabled": 0, "rental_uris": {"android": "https://dc.lft.to/lastmile_qr_scan", "ios": "https://dc.lft.to/lastmile_qr_scan"}, "fusion_lon": 0.0, "lat": 38.90546283333333, "bike_id": "3a48999afb8a51db83bc9276f1b05184", "type": "electric_scooter", "is_reserved": 0, "lon": -77.04681383333333}, {"fusion_lat": 0.0, "name": "e0dc1181d2a9d83432d41628692a71c3", "is_disabled": 0, "rental_uris": {"android": "https://dc.lft.to/lastmile_qr_scan", "ios": "https://dc.lft.to/lastmile_qr_scan"}, "fusion_lon": 0.0, "lat": 38.90889983333334, "bike_id": "e0dc1181d2a9d83432d41628692a71c3", "type": "electric_scooter", "is_reserved": 0, "lon": -77.04401083333333}, {"fusion_lat": 0.0, "name": "b90059232c9dc776ef9527d804ed3f6f", "is_disabled": 0, "rental_uris": {"android": "https://dc.lft.to/lastmile_qr_scan", "ios": "https://dc.lft.to/lastmile_qr_scan"}, "fusion_lon": 0.0, "lat": 38.90009833333333, "bike_id": "b90059232c9dc776ef9527d804ed3f6f", "type": "electric_scooter", "is_reserved": 0, "lon": -76.99318566666666}, {"fusion_lat": 0.0, "name": "5f794636a219e419e2897fa76d406b2a", "is_disabled": 0, "rental_uris": {"android": "https://dc.lft.to/lastmile_qr_scan", "ios": "https://dc.lft.to/lastmile_qr_scan"}, "fusion_lon": 0.0, "lat": 38.897723, "bike_id": "5f794636a219e419e2897fa76d406b2a", "type": "electric_scooter", "is_reserved": 0, "lon": -77.02735166666666}, {"fusion_lat": 0.0, "name": "152b5e65e071f705621af471c9c0a53b", "is_disabled": 0, "rental_uris": {"android": "https://dc.lft.to/lastmile_qr_scan", "ios": "https://dc.lft.to/lastmile_qr_scan"}, "fusion_lon": 0.0, "lat": 38.916320666666664, "bike_id": "152b5e65e071f705621af471c9c0a53b", "type": "electric_scooter", "is_reserved": 0, "lon": -77.05073733333333}, {"fusion_lat": 0.0, "name": "9521308e2371bffc361cead9f24a7631", "is_disabled": 0, "rental_uris": {"android": "https://dc.lft.to/lastmile_qr_scan", "ios": "https://dc.lft.to/lastmile_qr_scan"}, "fusion_lon": 0.0, "lat": 38.95422683333334, "bike_id": "9521308e2371bffc361cead9f24a7631", "type": "electric_scooter", "is_reserved": 0, "lon": -77.02764166666667}, {"fusion_lat": 0.0, "name": "89978119371d18a0cb44ee9969f442b3", "is_disabled": 0, "rental_uris": {"android": "https://dc.lft.to/lastmile_qr_scan", "ios": "https://dc.lft.to/lastmile_qr_scan"}, "fusion_lon": 0.0, "lat": 38.93182, "bike_id": "89978119371d18a0cb44ee9969f442b3", "type": "electric_scooter", "is_reserved": 0, "lon": -77.0330105}, {"fusion_lat": 0.0, "name": "7effa4e3a9770e18300347f1455e107f", "is_disabled": 0, "rental_uris": {"android": "https://dc.lft.to/lastmile_qr_scan", "ios": "https://dc.lft.to/lastmile_qr_scan"}, "fusion_lon": 0.0, "lat": 38.893525333333336, "bike_id": "7effa4e3a9770e18300347f1455e107f", "type": "electric_scooter", "is_reserved": 0, "lon": -76.986556}, {"fusion_lat": 0.0, "name": "f79987e114f0267521bfd018c5079523", "is_disabled": 0, "rental_uris": {"android": "https://dc.lft.to/lastmile_qr_scan", "ios": "https://dc.lft.to/lastmile_qr_scan"}, "fusion_lon": 0.0, "lat": 38.918639166666665, "bike_id": "f79987e114f0267521bfd018c5079523", "type": "electric_scooter", "is_reserved": 0, "lon": -77.02315216666666}, {"fusion_lat": 0.0, "name": "764cb2194aecc9d460ad8e29eda38b51", "is_disabled": 0, "rental_uris": {"android": "https://dc.lft.to/lastmile_qr_scan", "ios": "https://dc.lft.to/lastmile_qr_scan"}, "fusion_lon": 0.0, "lat": 38.90001566666667, "bike_id": "764cb2194aecc9d460ad8e29eda38b51", "type": "electric_scooter", "is_reserved": 0, "lon": -76.99835583333333}, {"fusion_lat": 0.0, "name": "479f2c7c8ee82f1998490f2174ea3dd5", "is_disabled": 0, "rental_uris": {"android": "https://dc.lft.to/lastmile_qr_scan", "ios": "https://dc.lft.to/lastmile_qr_scan"}, "fusion_lon": 0.0, "lat": 38.898503833333336, "bike_id": "479f2c7c8ee82f1998490f2174ea3dd5", "type": "electric_scooter", "is_reserved": 0, "lon": -76.94255233333334}, {"fusion_lat": 0.0, "name": "f82231cea76fbec536848bf1b897d828", "is_disabled": 0, "rental_uris": {"android": "https://dc.lft.to/lastmile_qr_scan", "ios": "https://dc.lft.to/lastmile_qr_scan"}, "fusion_lon": 0.0, "lat": 38.92287916666667, "bike_id": "f82231cea76fbec536848bf1b897d828", "type": "electric_scooter", "is_reserved": 0, "lon": -77.0296565}, {"fusion_lat": 0.0, "name": "1f42bc77334c787334c2882658a7be5b", "is_disabled": 0, "rental_uris": {"android": "https://dc.lft.to/lastmile_qr_scan", "ios": "https://dc.lft.to/lastmile_qr_scan"}, "fusion_lon": 0.0, "lat": 38.897186833333336, "bike_id": "1f42bc77334c787334c2882658a7be5b", "type": "electric_scooter", "is_reserved": 0, "lon": -77.00794433333333}, {"fusion_lat": 0.0, "name": "81e1b7f6562de271c352356f470d2707", "is_disabled": 0, "rental_uris": {"android": "https://dc.lft.to/lastmile_qr_scan", "ios": "https://dc.lft.to/lastmile_qr_scan"}, "fusion_lon": 0.0, "lat": 38.9000455, "bike_id": "81e1b7f6562de271c352356f470d2707", "type": "electric_scooter", "is_reserved": 0, "lon": -77.02716616666666}, {"fusion_lat": 0.0, "name": "90a7f8497fbcb0b203a09463f73d23fd", "is_disabled": 0, "rental_uris": {"android": "https://dc.lft.to/lastmile_qr_scan", "ios": "https://dc.lft.to/lastmile_qr_scan"}, "fusion_lon": 0.0, "lat": 38.90144983333333, "bike_id": "90a7f8497fbcb0b203a09463f73d23fd", "type": "electric_scooter", "is_reserved": 0, "lon": -77.0260405}, {"fusion_lat": 0.0, "name": "4ed78b972927d3f093044594b516937a", "is_disabled": 0, "rental_uris": {"android": "https://dc.lft.to/lastmile_qr_scan", "ios": "https://dc.lft.to/lastmile_qr_scan"}, "fusion_lon": 0.0, "lat": 38.892201166666666, "bike_id": "4ed78b972927d3f093044594b516937a", "type": "electric_scooter", "is_reserved": 0, "lon": -77.023105}, {"fusion_lat": 0.0, "name": "0a8d3a658a8a3959f294d00fbe896706", "is_disabled": 0, "rental_uris": {"android": "https://dc.lft.to/lastmile_qr_scan", "ios": "https://dc.lft.to/lastmile_qr_scan"}, "fusion_lon": 0.0, "lat": 38.903415, "bike_id": "0a8d3a658a8a3959f294d00fbe896706", "type": "electric_scooter", "is_reserved": 0, "lon": -77.01783216666666}, {"fusion_lat": 0.0, "name": "364366f0132aa59afd96468031e56443", "is_disabled": 0, "rental_uris": {"android": "https://dc.lft.to/lastmile_qr_scan", "ios": "https://dc.lft.to/lastmile_qr_scan"}, "fusion_lon": 0.0, "lat": 38.926122166666666, "bike_id": "364366f0132aa59afd96468031e56443", "type": "electric_scooter", "is_reserved": 0, "lon": -77.07568783333333}, {"fusion_lat": 0.0, "name": "2797f6753c80f45c8690b9793b303eb8", "is_disabled": 0, "rental_uris": {"android": "https://dc.lft.to/lastmile_qr_scan", "ios": "https://dc.lft.to/lastmile_qr_scan"}, "fusion_lon": 0.0, "lat": 38.91403916666667, "bike_id": "2797f6753c80f45c8690b9793b303eb8", "type": "electric_scooter", "is_reserved": 0, "lon": -77.01558883333334}, {"fusion_lat": 0.0, "name": "3630181d3273f9e7395fc2d86509c2df", "is_disabled": 0, "rental_uris": {"android": "https://dc.lft.to/lastmile_qr_scan", "ios": "https://dc.lft.to/lastmile_qr_scan"}, "fusion_lon": 0.0, "lat": 38.91813066666667, "bike_id": "3630181d3273f9e7395fc2d86509c2df", "type": "electric_scooter", "is_reserved": 0, "lon": -77.03255433333334}, {"fusion_lat": 0.0, "name": "8b5507a4a23d37d15cc23650c4f8af44", "is_disabled": 0, "rental_uris": {"android": "https://dc.lft.to/lastmile_qr_scan", "ios": "https://dc.lft.to/lastmile_qr_scan"}, "fusion_lon": 0.0, "lat": 38.90368516666667, "bike_id": "8b5507a4a23d37d15cc23650c4f8af44", "type": "electric_scooter", "is_reserved": 0, "lon": -77.04026133333333}, {"fusion_lat": 0.0, "name": "a3adbb062d01fe8a48db7e0e64db5c41", "is_disabled": 0, "rental_uris": {"android": "https://dc.lft.to/lastmile_qr_scan", "ios": "https://dc.lft.to/lastmile_qr_scan"}, "fusion_lon": 0.0, "lat": 38.915992833333334, "bike_id": "a3adbb062d01fe8a48db7e0e64db5c41", "type": "electric_scooter", "is_reserved": 0, "lon": -77.04556366666667}, {"fusion_lat": 0.0, "name": "5f08c6e753799b6f3a74fe96075ffe2e", "is_disabled": 0, "rental_uris": {"android": "https://dc.lft.to/lastmile_qr_scan", "ios": "https://dc.lft.to/lastmile_qr_scan"}, "fusion_lon": 0.0, "lat": 38.9126375, "bike_id": "5f08c6e753799b6f3a74fe96075ffe2e", "type": "electric_scooter", "is_reserved": 0, "lon": -77.03294983333333}, {"fusion_lat": 0.0, "name": "b3e17aed794a984a7d49a08d982762a3", "is_disabled": 0, "rental_uris": {"android": "https://dc.lft.to/lastmile_qr_scan", "ios": "https://dc.lft.to/lastmile_qr_scan"}, "fusion_lon": 0.0, "lat": 38.89665816666667, "bike_id": "b3e17aed794a984a7d49a08d982762a3", "type": "electric_scooter", "is_reserved": 0, "lon": -77.01167933333333}, {"fusion_lat": 0.0, "name": "f165c6362ace97c13c366516dece8ade", "is_disabled": 0, "rental_uris": {"android": "https://dc.lft.to/lastmile_qr_scan", "ios": "https://dc.lft.to/lastmile_qr_scan"}, "fusion_lon": 0.0, "lat": 38.901104333333336, "bike_id": "f165c6362ace97c13c366516dece8ade", "type": "electric_scooter", "is_reserved": 0, "lon": -76.9742275}, {"fusion_lat": 0.0, "name": "f9c9781cb0fcda2ca523593a75e5e094", "is_disabled": 0, "rental_uris": {"android": "https://dc.lft.to/lastmile_qr_scan", "ios": "https://dc.lft.to/lastmile_qr_scan"}, "fusion_lon": 0.0, "lat": 38.905532, "bike_id": "f9c9781cb0fcda2ca523593a75e5e094", "type": "electric_scooter", "is_reserved": 0, "lon": -77.04181166666666}, {"fusion_lat": 0.0, "name": "ca7d82f859dfc6d1cf732e985d61d8e0", "is_disabled": 0, "rental_uris": {"android": "https://dc.lft.to/lastmile_qr_scan", "ios": "https://dc.lft.to/lastmile_qr_scan"}, "fusion_lon": 0.0, "lat": 38.898283666666664, "bike_id": "ca7d82f859dfc6d1cf732e985d61d8e0", "type": "electric_scooter", "is_reserved": 0, "lon": -77.04649966666666}, {"fusion_lat": 0.0, "name": "65f13174c86ea4ea1066b041767f194f", "is_disabled": 0, "rental_uris": {"android": "https://dc.lft.to/lastmile_qr_scan", "ios": "https://dc.lft.to/lastmile_qr_scan"}, "fusion_lon": 0.0, "lat": 38.910564666666666, "bike_id": "65f13174c86ea4ea1066b041767f194f", "type": "electric_scooter", "is_reserved": 0, "lon": -77.04375216666666}, {"fusion_lat": 0.0, "name": "23abb54ad19f759d34df8f3f568fc9a5", "is_disabled": 0, "rental_uris": {"android": "https://dc.lft.to/lastmile_qr_scan", "ios": "https://dc.lft.to/lastmile_qr_scan"}, "fusion_lon": 0.0, "lat": 38.92300566666667, "bike_id": "23abb54ad19f759d34df8f3f568fc9a5", "type": "electric_scooter", "is_reserved": 0, "lon": -77.02325716666667}, {"fusion_lat": 0.0, "name": "9815501c672b3fa0571e624a89a240f4", "is_disabled": 0, "rental_uris": {"android": "https://dc.lft.to/lastmile_qr_scan", "ios": "https://dc.lft.to/lastmile_qr_scan"}, "fusion_lon": 0.0, "lat": 38.92179466666666, "bike_id": "9815501c672b3fa0571e624a89a240f4", "type": "electric_scooter", "is_reserved": 0, "lon": -77.03975183333333}, {"fusion_lat": 0.0, "name": "106ad9a826aaa52d573e6bbaa7817e40", "is_disabled": 0, "rental_uris": {"android": "https://dc.lft.to/lastmile_qr_scan", "ios": "https://dc.lft.to/lastmile_qr_scan"}, "fusion_lon": 0.0, "lat": 38.900156333333335, "bike_id": "106ad9a826aaa52d573e6bbaa7817e40", "type": "electric_scooter", "is_reserved": 0, "lon": -77.04473866666666}, {"fusion_lat": 0.0, "name": "4a17bad57d0adc7adaea30c9cc1b6872", "is_disabled": 0, "rental_uris": {"android": "https://dc.lft.to/lastmile_qr_scan", "ios": "https://dc.lft.to/lastmile_qr_scan"}, "fusion_lon": 0.0, "lat": 38.900300333333334, "bike_id": "4a17bad57d0adc7adaea30c9cc1b6872", "type": "electric_scooter", "is_reserved": 0, "lon": -77.00230533333334}, {"fusion_lat": 0.0, "name": "5e3f6610a59ba8d78ac2b8d5300a3143", "is_disabled": 0, "rental_uris": {"android": "https://dc.lft.to/lastmile_qr_scan", "ios": "https://dc.lft.to/lastmile_qr_scan"}, "fusion_lon": 0.0, "lat": 38.924095666666666, "bike_id": "5e3f6610a59ba8d78ac2b8d5300a3143", "type": "electric_scooter", "is_reserved": 0, "lon": -77.02691533333333}, {"fusion_lat": 0.0, "name": "c9c29b29549760b12eaca6c50c4d2464", "is_disabled": 0, "rental_uris": {"android": "https://dc.lft.to/lastmile_qr_scan", "ios": "https://dc.lft.to/lastmile_qr_scan"}, "fusion_lon": 0.0, "lat": 38.92132183333333, "bike_id": "c9c29b29549760b12eaca6c50c4d2464", "type": "electric_scooter", "is_reserved": 0, "lon": -77.0254575}, {"fusion_lat": 0.0, "name": "d255bb7674f49e9f6251bf38e7ede76b", "is_disabled": 0, "rental_uris": {"android": "https://dc.lft.to/lastmile_qr_scan", "ios": "https://dc.lft.to/lastmile_qr_scan"}, "fusion_lon": 0.0, "lat": 38.914612166666664, "bike_id": "d255bb7674f49e9f6251bf38e7ede76b", "type": "electric_scooter", "is_reserved": 0, "lon": -77.0021535}, {"fusion_lat": 0.0, "name": "b64e767aaa857801b25f4b29ebf78eab", "is_disabled": 0, "rental_uris": {"android": "https://dc.lft.to/lastmile_qr_scan", "ios": "https://dc.lft.to/lastmile_qr_scan"}, "fusion_lon": 0.0, "lat": 38.95027266666666, "bike_id": "b64e767aaa857801b25f4b29ebf78eab", "type": "electric_scooter", "is_reserved": 0, "lon": -77.0800775}, {"fusion_lat": 0.0, "name": "aadbec829e5bd8ae51244edce3c8b8dc", "is_disabled": 0, "rental_uris": {"android": "https://dc.lft.to/lastmile_qr_scan", "ios": "https://dc.lft.to/lastmile_qr_scan"}, "fusion_lon": 0.0, "lat": 38.903615333333335, "bike_id": "aadbec829e5bd8ae51244edce3c8b8dc", "type": "electric_scooter", "is_reserved": 0, "lon": -77.00982016666667}, {"fusion_lat": 0.0, "name": "4af7b477a66d0bdb8e89b70feb0a1d04", "is_disabled": 0, "rental_uris": {"android": "https://dc.lft.to/lastmile_qr_scan", "ios": "https://dc.lft.to/lastmile_qr_scan"}, "fusion_lon": 0.0, "lat": 38.883671166666666, "bike_id": "4af7b477a66d0bdb8e89b70feb0a1d04", "type": "electric_scooter", "is_reserved": 0, "lon": -76.99518666666667}, {"fusion_lat": 0.0, "name": "2b12476a09436d18541763fa2d334a8b", "is_disabled": 0, "rental_uris": {"android": "https://dc.lft.to/lastmile_qr_scan", "ios": "https://dc.lft.to/lastmile_qr_scan"}, "fusion_lon": 0.0, "lat": 38.89222083333333, "bike_id": "2b12476a09436d18541763fa2d334a8b", "type": "electric_scooter", "is_reserved": 0, "lon": -77.02660383333334}, {"fusion_lat": 0.0, "name": "b3ccea65376df5b87ae0d7f67920b227", "is_disabled": 0, "rental_uris": {"android": "https://dc.lft.to/lastmile_qr_scan", "ios": "https://dc.lft.to/lastmile_qr_scan"}, "fusion_lon": 0.0, "lat": 38.91713816666667, "bike_id": "b3ccea65376df5b87ae0d7f67920b227", "type": "electric_scooter", "is_reserved": 0, "lon": -77.02296783333334}, {"fusion_lat": 0.0, "name": "385ba9d87ca7795359351afc3a4dcd76", "is_disabled": 0, "rental_uris": {"android": "https://dc.lft.to/lastmile_qr_scan", "ios": "https://dc.lft.to/lastmile_qr_scan"}, "fusion_lon": 0.0, "lat": 38.941819333333335, "bike_id": "385ba9d87ca7795359351afc3a4dcd76", "type": "electric_scooter", "is_reserved": 0, "lon": -77.02615633333333}, {"fusion_lat": 0.0, "name": "38194df4d0669a3b3b2a8507d9af853d", "is_disabled": 0, "rental_uris": {"android": "https://dc.lft.to/lastmile_qr_scan", "ios": "https://dc.lft.to/lastmile_qr_scan"}, "fusion_lon": 0.0, "lat": 38.928505, "bike_id": "38194df4d0669a3b3b2a8507d9af853d", "type": "electric_scooter", "is_reserved": 0, "lon": -77.0331195}, {"fusion_lat": 0.0, "name": "6cf9ddb56b06aca3ff1f30e55e88e143", "is_disabled": 0, "rental_uris": {"android": "https://dc.lft.to/lastmile_qr_scan", "ios": "https://dc.lft.to/lastmile_qr_scan"}, "fusion_lon": 0.0, "lat": 38.914410333333336, "bike_id": "6cf9ddb56b06aca3ff1f30e55e88e143", "type": "electric_scooter", "is_reserved": 0, "lon": -77.0220535}, {"fusion_lat": 0.0, "name": "6141f182db5dc2a73cd919635702b942", "is_disabled": 0, "rental_uris": {"android": "https://dc.lft.to/lastmile_qr_scan", "ios": "https://dc.lft.to/lastmile_qr_scan"}, "fusion_lon": 0.0, "lat": 38.90552983333333, "bike_id": "6141f182db5dc2a73cd919635702b942", "type": "electric_scooter", "is_reserved": 0, "lon": -76.994774}, {"fusion_lat": 0.0, "name": "90ae7427712c284dac9442e4b841e58b", "is_disabled": 0, "rental_uris": {"android": "https://dc.lft.to/lastmile_qr_scan", "ios": "https://dc.lft.to/lastmile_qr_scan"}, "fusion_lon": 0.0, "lat": 38.917924666666664, "bike_id": "90ae7427712c284dac9442e4b841e58b", "type": "electric_scooter", "is_reserved": 0, "lon": -77.03453033333334}, {"fusion_lat": 0.0, "name": "de494de2d7b4adb9affe727e5d293df0", "is_disabled": 0, "rental_uris": {"android": "https://dc.lft.to/lastmile_qr_scan", "ios": "https://dc.lft.to/lastmile_qr_scan"}, "fusion_lon": 0.0, "lat": 38.92225216666667, "bike_id": "de494de2d7b4adb9affe727e5d293df0", "type": "electric_scooter", "is_reserved": 0, "lon": -77.02976566666666}, {"fusion_lat": 0.0, "name": "81417621fd33c208b412652a6f9a4393", "is_disabled": 0, "rental_uris": {"android": "https://dc.lft.to/lastmile_qr_scan", "ios": "https://dc.lft.to/lastmile_qr_scan"}, "fusion_lon": 0.0, "lat": 38.916817333333334, "bike_id": "81417621fd33c208b412652a6f9a4393", "type": "electric_scooter", "is_reserved": 0, "lon": -77.02292216666666}, {"fusion_lat": 0.0, "name": "a5764808cb140f737263aaf4726a4166", "is_disabled": 0, "rental_uris": {"android": "https://dc.lft.to/lastmile_qr_scan", "ios": "https://dc.lft.to/lastmile_qr_scan"}, "fusion_lon": 0.0, "lat": 38.88733116666667, "bike_id": "a5764808cb140f737263aaf4726a4166", "type": "electric_scooter", "is_reserved": 0, "lon": -77.03184033333334}, {"fusion_lat": 0.0, "name": "ba3e40247503a9be58e80acc74a145f7", "is_disabled": 0, "rental_uris": {"android": "https://dc.lft.to/lastmile_qr_scan", "ios": "https://dc.lft.to/lastmile_qr_scan"}, "fusion_lon": 0.0, "lat": 38.914109333333336, "bike_id": "ba3e40247503a9be58e80acc74a145f7", "type": "electric_scooter", "is_reserved": 0, "lon": -77.01076366666666}, {"fusion_lat": 0.0, "name": "6f479ce7e99318ac3ef961e58a437bea", "is_disabled": 0, "rental_uris": {"android": "https://dc.lft.to/lastmile_qr_scan", "ios": "https://dc.lft.to/lastmile_qr_scan"}, "fusion_lon": 0.0, "lat": 38.92146, "bike_id": "6f479ce7e99318ac3ef961e58a437bea", "type": "electric_scooter", "is_reserved": 0, "lon": -77.03360633333334}, {"fusion_lat": 0.0, "name": "9f87b9885b1b85a901f1877faa4d4673", "is_disabled": 0, "rental_uris": {"android": "https://dc.lft.to/lastmile_qr_scan", "ios": "https://dc.lft.to/lastmile_qr_scan"}, "fusion_lon": 0.0, "lat": 38.863875166666666, "bike_id": "9f87b9885b1b85a901f1877faa4d4673", "type": "electric_bike", "is_reserved": 0, "lon": -76.99000483333333}, {"fusion_lat": 0.0, "name": "440863bd41bf2f8adc870bad5e023c48", "is_disabled": 0, "rental_uris": {"android": "https://dc.lft.to/lastmile_qr_scan", "ios": "https://dc.lft.to/lastmile_qr_scan"}, "fusion_lon": 0.0, "lat": 38.920334833333335, "bike_id": "440863bd41bf2f8adc870bad5e023c48", "type": "electric_scooter", "is_reserved": 0, "lon": -77.017579}, {"fusion_lat": 0.0, "name": "dbb51fc19ba067d094ee73b9f982d528", "is_disabled": 0, "rental_uris": {"android": "https://dc.lft.to/lastmile_qr_scan", "ios": "https://dc.lft.to/lastmile_qr_scan"}, "fusion_lon": 0.0, "lat": 38.9155225, "bike_id": "dbb51fc19ba067d094ee73b9f982d528", "type": "electric_scooter", "is_reserved": 0, "lon": -77.003659}, {"fusion_lat": 0.0, "name": "32029636a2497af839b935a990b8f970", "is_disabled": 0, "rental_uris": {"android": "https://dc.lft.to/lastmile_qr_scan", "ios": "https://dc.lft.to/lastmile_qr_scan"}, "fusion_lon": 0.0, "lat": 38.899614666666665, "bike_id": "32029636a2497af839b935a990b8f970", "type": "electric_scooter", "is_reserved": 0, "lon": -77.01606616666666}, {"fusion_lat": 0.0, "name": "36c2c65cc4cf26eb16a41a54005cd329", "is_disabled": 0, "rental_uris": {"android": "https://dc.lft.to/lastmile_qr_scan", "ios": "https://dc.lft.to/lastmile_qr_scan"}, "fusion_lon": 0.0, "lat": 38.92381783333333, "bike_id": "36c2c65cc4cf26eb16a41a54005cd329", "type": "electric_scooter", "is_reserved": 0, "lon": -77.0411095}, {"fusion_lat": 0.0, "name": "25be27d651b589925af8930fa383f49f", "is_disabled": 0, "rental_uris": {"android": "https://dc.lft.to/lastmile_qr_scan", "ios": "https://dc.lft.to/lastmile_qr_scan"}, "fusion_lon": 0.0, "lat": 38.8872545, "bike_id": "25be27d651b589925af8930fa383f49f", "type": "electric_scooter", "is_reserved": 0, "lon": -77.017679}, {"fusion_lat": 0.0, "name": "bdfe4ade92b069883d908d527bdf9282", "is_disabled": 0, "rental_uris": {"android": "https://dc.lft.to/lastmile_qr_scan", "ios": "https://dc.lft.to/lastmile_qr_scan"}, "fusion_lon": 0.0, "lat": 38.909523, "bike_id": "bdfe4ade92b069883d908d527bdf9282", "type": "electric_scooter", "is_reserved": 0, "lon": -77.03948866666667}, {"fusion_lat": 0.0, "name": "7517f40754e4495a1ed65eefb0a2f326", "is_disabled": 0, "rental_uris": {"android": "https://dc.lft.to/lastmile_qr_scan", "ios": "https://dc.lft.to/lastmile_qr_scan"}, "fusion_lon": 0.0, "lat": 38.919976, "bike_id": "7517f40754e4495a1ed65eefb0a2f326", "type": "electric_scooter", "is_reserved": 0, "lon": -77.032869}, {"fusion_lat": 0.0, "name": "12faf9ebe4a785b791db16c40d3a9051", "is_disabled": 0, "rental_uris": {"android": "https://dc.lft.to/lastmile_qr_scan", "ios": "https://dc.lft.to/lastmile_qr_scan"}, "fusion_lon": 0.0, "lat": 38.83829016666667, "bike_id": "12faf9ebe4a785b791db16c40d3a9051", "type": "electric_bike", "is_reserved": 0, "lon": -76.9968565}, {"fusion_lat": 0.0, "name": "387a6283e0d3e3123e3bdf057a84b05b", "is_disabled": 0, "rental_uris": {"android": "https://dc.lft.to/lastmile_qr_scan", "ios": "https://dc.lft.to/lastmile_qr_scan"}, "fusion_lon": 0.0, "lat": 38.9144265, "bike_id": "387a6283e0d3e3123e3bdf057a84b05b", "type": "electric_scooter", "is_reserved": 0, "lon": -77.0220265}, {"fusion_lat": 0.0, "name": "6701e6a4c5a0b92a7b6eadea6fac7e31", "is_disabled": 0, "rental_uris": {"android": "https://dc.lft.to/lastmile_qr_scan", "ios": "https://dc.lft.to/lastmile_qr_scan"}, "fusion_lon": 0.0, "lat": 38.928659333333336, "bike_id": "6701e6a4c5a0b92a7b6eadea6fac7e31", "type": "electric_scooter", "is_reserved": 0, "lon": -77.03298683333334}, {"fusion_lat": 0.0, "name": "75f1d2a765ed1f4eb9d044f563fc9ea4", "is_disabled": 0, "rental_uris": {"android": "https://dc.lft.to/lastmile_qr_scan", "ios": "https://dc.lft.to/lastmile_qr_scan"}, "fusion_lon": 0.0, "lat": 38.96215683333333, "bike_id": "75f1d2a765ed1f4eb9d044f563fc9ea4", "type": "electric_bike", "is_reserved": 0, "lon": -77.02630633333334}, {"fusion_lat": 0.0, "name": "9b40c2cc1ba380bfe97f74aa111bf479", "is_disabled": 0, "rental_uris": {"android": "https://dc.lft.to/lastmile_qr_scan", "ios": "https://dc.lft.to/lastmile_qr_scan"}, "fusion_lon": 0.0, "lat": 38.880174333333336, "bike_id": "9b40c2cc1ba380bfe97f74aa111bf479", "type": "electric_scooter", "is_reserved": 0, "lon": -76.9807475}, {"fusion_lat": 0.0, "name": "1e0eea45616c4f4e662f79b61ca4b301", "is_disabled": 0, "rental_uris": {"android": "https://dc.lft.to/lastmile_qr_scan", "ios": "https://dc.lft.to/lastmile_qr_scan"}, "fusion_lon": 0.0, "lat": 38.911953833333335, "bike_id": "1e0eea45616c4f4e662f79b61ca4b301", "type": "electric_scooter", "is_reserved": 0, "lon": -77.04179666666667}, {"fusion_lat": 0.0, "name": "52dc6c6f62bf6d1fd79b47ccec10042e", "is_disabled": 0, "rental_uris": {"android": "https://dc.lft.to/lastmile_qr_scan", "ios": "https://dc.lft.to/lastmile_qr_scan"}, "fusion_lon": 0.0, "lat": 38.9111925, "bike_id": "52dc6c6f62bf6d1fd79b47ccec10042e", "type": "electric_scooter", "is_reserved": 0, "lon": -77.0437675}, {"fusion_lat": 0.0, "name": "c5448bda87845ada84df17297312f35e", "is_disabled": 0, "rental_uris": {"android": "https://dc.lft.to/lastmile_qr_scan", "ios": "https://dc.lft.to/lastmile_qr_scan"}, "fusion_lon": 0.0, "lat": 38.89236433333333, "bike_id": "c5448bda87845ada84df17297312f35e", "type": "electric_scooter", "is_reserved": 0, "lon": -77.02381683333333}, {"fusion_lat": 0.0, "name": "cd7b7b0c53f37c984a74f4397e0cddc1", "is_disabled": 0, "rental_uris": {"android": "https://dc.lft.to/lastmile_qr_scan", "ios": "https://dc.lft.to/lastmile_qr_scan"}, "fusion_lon": 0.0, "lat": 38.91630983333334, "bike_id": "cd7b7b0c53f37c984a74f4397e0cddc1", "type": "electric_scooter", "is_reserved": 0, "lon": -77.02971266666667}, {"fusion_lat": 0.0, "name": "5987a91351218172fdf45e593e074438", "is_disabled": 0, "rental_uris": {"android": "https://dc.lft.to/lastmile_qr_scan", "ios": "https://dc.lft.to/lastmile_qr_scan"}, "fusion_lon": 0.0, "lat": 38.912594, "bike_id": "5987a91351218172fdf45e593e074438", "type": "electric_scooter", "is_reserved": 0, "lon": -77.03156833333334}, {"fusion_lat": 0.0, "name": "8241ca62764dc2d556f2d76ed3f8257c", "is_disabled": 0, "rental_uris": {"android": "https://dc.lft.to/lastmile_qr_scan", "ios": "https://dc.lft.to/lastmile_qr_scan"}, "fusion_lon": 0.0, "lat": 38.906307166666664, "bike_id": "8241ca62764dc2d556f2d76ed3f8257c", "type": "electric_scooter", "is_reserved": 0, "lon": -77.02606283333333}, {"fusion_lat": 0.0, "name": "41b44be73833a296c0ad945ac865f2fe", "is_disabled": 0, "rental_uris": {"android": "https://dc.lft.to/lastmile_qr_scan", "ios": "https://dc.lft.to/lastmile_qr_scan"}, "fusion_lon": 0.0, "lat": 38.929012166666666, "bike_id": "41b44be73833a296c0ad945ac865f2fe", "type": "electric_scooter", "is_reserved": 0, "lon": -77.02166116666666}, {"fusion_lat": 0.0, "name": "a7f53499e344f51e922fee9256f69a59", "is_disabled": 0, "rental_uris": {"android": "https://dc.lft.to/lastmile_qr_scan", "ios": "https://dc.lft.to/lastmile_qr_scan"}, "fusion_lon": 0.0, "lat": 38.91748483333333, "bike_id": "a7f53499e344f51e922fee9256f69a59", "type": "electric_scooter", "is_reserved": 0, "lon": -77.06938266666667}, {"fusion_lat": 0.0, "name": "6be53419ab1745d1893ee3a283220648", "is_disabled": 0, "rental_uris": {"android": "https://dc.lft.to/lastmile_qr_scan", "ios": "https://dc.lft.to/lastmile_qr_scan"}, "fusion_lon": 0.0, "lat": 38.99779133333333, "bike_id": "6be53419ab1745d1893ee3a283220648", "type": "electric_bike", "is_reserved": 0, "lon": -77.0471715}, {"fusion_lat": 0.0, "name": "d1682a2ff6f1d5d1683a5408f925863f", "is_disabled": 0, "rental_uris": {"android": "https://dc.lft.to/lastmile_qr_scan", "ios": "https://dc.lft.to/lastmile_qr_scan"}, "fusion_lon": 0.0, "lat": 38.903678666666664, "bike_id": "d1682a2ff6f1d5d1683a5408f925863f", "type": "electric_scooter", "is_reserved": 0, "lon": -77.04827883333333}, {"fusion_lat": 0.0, "name": "8206e7b792417e0d1dbc53c6da2ac67d", "is_disabled": 0, "rental_uris": {"android": "https://dc.lft.to/lastmile_qr_scan", "ios": "https://dc.lft.to/lastmile_qr_scan"}, "fusion_lon": 0.0, "lat": 38.90015916666667, "bike_id": "8206e7b792417e0d1dbc53c6da2ac67d", "type": "electric_scooter", "is_reserved": 0, "lon": -76.98807583333334}, {"fusion_lat": 0.0, "name": "2ed252473e3a9f7db2ad322cfb4f45e0", "is_disabled": 0, "rental_uris": {"android": "https://dc.lft.to/lastmile_qr_scan", "ios": "https://dc.lft.to/lastmile_qr_scan"}, "fusion_lon": 0.0, "lat": 38.93686733333333, "bike_id": "2ed252473e3a9f7db2ad322cfb4f45e0", "type": "electric_scooter", "is_reserved": 0, "lon": -77.03636533333334}, {"fusion_lat": 0.0, "name": "64e9c575def5439804e61a06c06abb97", "is_disabled": 0, "rental_uris": {"android": "https://dc.lft.to/lastmile_qr_scan", "ios": "https://dc.lft.to/lastmile_qr_scan"}, "fusion_lon": 0.0, "lat": 38.93238266666667, "bike_id": "64e9c575def5439804e61a06c06abb97", "type": "electric_scooter", "is_reserved": 0, "lon": -77.03265}, {"fusion_lat": 0.0, "name": "ae973e0d5c35afb35f7b9af246fe6b18", "is_disabled": 0, "rental_uris": {"android": "https://dc.lft.to/lastmile_qr_scan", "ios": "https://dc.lft.to/lastmile_qr_scan"}, "fusion_lon": 0.0, "lat": 38.900322333333335, "bike_id": "ae973e0d5c35afb35f7b9af246fe6b18", "type": "electric_scooter", "is_reserved": 0, "lon": -76.99637066666666}, {"fusion_lat": 0.0, "name": "631b8baee9b8326ffb829775c750414f", "is_disabled": 0, "rental_uris": {"android": "https://dc.lft.to/lastmile_qr_scan", "ios": "https://dc.lft.to/lastmile_qr_scan"}, "fusion_lon": 0.0, "lat": 38.902219333333335, "bike_id": "631b8baee9b8326ffb829775c750414f", "type": "electric_scooter", "is_reserved": 0, "lon": -77.01784116666667}, {"fusion_lat": 0.0, "name": "bf6ee38866a1371a8fa0476595a8083c", "is_disabled": 0, "rental_uris": {"android": "https://dc.lft.to/lastmile_qr_scan", "ios": "https://dc.lft.to/lastmile_qr_scan"}, "fusion_lon": 0.0, "lat": 38.900788666666664, "bike_id": "bf6ee38866a1371a8fa0476595a8083c", "type": "electric_scooter", "is_reserved": 0, "lon": -77.047501}, {"fusion_lat": 0.0, "name": "1c101e48ae5a649f087a3bd873555a77", "is_disabled": 0, "rental_uris": {"android": "https://dc.lft.to/lastmile_qr_scan", "ios": "https://dc.lft.to/lastmile_qr_scan"}, "fusion_lon": 0.0, "lat": 38.89628966666667, "bike_id": "1c101e48ae5a649f087a3bd873555a77", "type": "electric_scooter", "is_reserved": 0, "lon": -77.03105483333333}, {"fusion_lat": 0.0, "name": "fa5c19a84038a91b6bb51a59d6b3a45c", "is_disabled": 0, "rental_uris": {"android": "https://dc.lft.to/lastmile_qr_scan", "ios": "https://dc.lft.to/lastmile_qr_scan"}, "fusion_lon": 0.0, "lat": 38.91957083333333, "bike_id": "fa5c19a84038a91b6bb51a59d6b3a45c", "type": "electric_scooter", "is_reserved": 0, "lon": -77.01794316666667}, {"fusion_lat": 0.0, "name": "e8270abbfed0c259ba895b95fe67d75a", "is_disabled": 0, "rental_uris": {"android": "https://dc.lft.to/lastmile_qr_scan", "ios": "https://dc.lft.to/lastmile_qr_scan"}, "fusion_lon": 0.0, "lat": 38.92565233333333, "bike_id": "e8270abbfed0c259ba895b95fe67d75a", "type": "electric_scooter", "is_reserved": 0, "lon": -77.05264616666666}, {"fusion_lat": 0.0, "name": "bb4aaea37f31535ac312703a84183dfc", "is_disabled": 0, "rental_uris": {"android": "https://dc.lft.to/lastmile_qr_scan", "ios": "https://dc.lft.to/lastmile_qr_scan"}, "fusion_lon": 0.0, "lat": 38.919140666666664, "bike_id": "bb4aaea37f31535ac312703a84183dfc", "type": "electric_scooter", "is_reserved": 0, "lon": -77.03060933333333}, {"fusion_lat": 0.0, "name": "64e907c03aa56cc401bb2b6ae0318057", "is_disabled": 0, "rental_uris": {"android": "https://dc.lft.to/lastmile_qr_scan", "ios": "https://dc.lft.to/lastmile_qr_scan"}, "fusion_lon": 0.0, "lat": 38.90953566666666, "bike_id": "64e907c03aa56cc401bb2b6ae0318057", "type": "electric_scooter", "is_reserved": 0, "lon": -76.98541366666667}, {"fusion_lat": 0.0, "name": "0dc98a80388e45d0cf9fafd9fb8e19ff", "is_disabled": 0, "rental_uris": {"android": "https://dc.lft.to/lastmile_qr_scan", "ios": "https://dc.lft.to/lastmile_qr_scan"}, "fusion_lon": 0.0, "lat": 38.920363333333334, "bike_id": "0dc98a80388e45d0cf9fafd9fb8e19ff", "type": "electric_scooter", "is_reserved": 0, "lon": -77.07151683333333}, {"fusion_lat": 0.0, "name": "f2498bdc40d6dddf355b91bb3841589d", "is_disabled": 0, "rental_uris": {"android": "https://dc.lft.to/lastmile_qr_scan", "ios": "https://dc.lft.to/lastmile_qr_scan"}, "fusion_lon": 0.0, "lat": 38.88738133333333, "bike_id": "f2498bdc40d6dddf355b91bb3841589d", "type": "electric_scooter", "is_reserved": 0, "lon": -77.0034935}, {"fusion_lat": 0.0, "name": "b0afcc53c6b01ee3dfde765818f7b6c9", "is_disabled": 0, "rental_uris": {"android": "https://dc.lft.to/lastmile_qr_scan", "ios": "https://dc.lft.to/lastmile_qr_scan"}, "fusion_lon": 0.0, "lat": 38.90026233333333, "bike_id": "b0afcc53c6b01ee3dfde765818f7b6c9", "type": "electric_scooter", "is_reserved": 0, "lon": -77.01222416666667}, {"fusion_lat": 0.0, "name": "61ad6bffb4c79512516507435186ffeb", "is_disabled": 0, "rental_uris": {"android": "https://dc.lft.to/lastmile_qr_scan", "ios": "https://dc.lft.to/lastmile_qr_scan"}, "fusion_lon": 0.0, "lat": 38.90302766666667, "bike_id": "61ad6bffb4c79512516507435186ffeb", "type": "electric_scooter", "is_reserved": 0, "lon": -77.011894}, {"fusion_lat": 0.0, "name": "987810081b6d52419a3f0ebb026cbce2", "is_disabled": 0, "rental_uris": {"android": "https://dc.lft.to/lastmile_qr_scan", "ios": "https://dc.lft.to/lastmile_qr_scan"}, "fusion_lon": 0.0, "lat": 38.900047666666666, "bike_id": "987810081b6d52419a3f0ebb026cbce2", "type": "electric_scooter", "is_reserved": 0, "lon": -77.02405133333333}, {"fusion_lat": 0.0, "name": "926c3f8dc234510e64578f328716f31c", "is_disabled": 0, "rental_uris": {"android": "https://dc.lft.to/lastmile_qr_scan", "ios": "https://dc.lft.to/lastmile_qr_scan"}, "fusion_lon": 0.0, "lat": 38.88727883333333, "bike_id": "926c3f8dc234510e64578f328716f31c", "type": "electric_scooter", "is_reserved": 0, "lon": -76.98357783333333}, {"fusion_lat": 0.0, "name": "d472575a37216648db8c5966aca45453", "is_disabled": 0, "rental_uris": {"android": "https://dc.lft.to/lastmile_qr_scan", "ios": "https://dc.lft.to/lastmile_qr_scan"}, "fusion_lon": 0.0, "lat": 38.885365666666665, "bike_id": "d472575a37216648db8c5966aca45453", "type": "electric_scooter", "is_reserved": 0, "lon": -77.02018866666667}, {"fusion_lat": 0.0, "name": "c1c8ddc65b4465effe6ceb38c5382d91", "is_disabled": 0, "rental_uris": {"android": "https://dc.lft.to/lastmile_qr_scan", "ios": "https://dc.lft.to/lastmile_qr_scan"}, "fusion_lon": 0.0, "lat": 38.93770416666667, "bike_id": "c1c8ddc65b4465effe6ceb38c5382d91", "type": "electric_bike", "is_reserved": 0, "lon": -77.01883233333334}, {"fusion_lat": 0.0, "name": "90a345c80a6e0ec33977efc38e81a45a", "is_disabled": 0, "rental_uris": {"android": "https://dc.lft.to/lastmile_qr_scan", "ios": "https://dc.lft.to/lastmile_qr_scan"}, "fusion_lon": 0.0, "lat": 38.90210316666667, "bike_id": "90a345c80a6e0ec33977efc38e81a45a", "type": "electric_scooter", "is_reserved": 0, "lon": -77.04589}, {"fusion_lat": 0.0, "name": "fc550312d6b2fdc2fff1242f571a05e6", "is_disabled": 0, "rental_uris": {"android": "https://dc.lft.to/lastmile_qr_scan", "ios": "https://dc.lft.to/lastmile_qr_scan"}, "fusion_lon": 0.0, "lat": 38.93603266666667, "bike_id": "fc550312d6b2fdc2fff1242f571a05e6", "type": "electric_scooter", "is_reserved": 0, "lon": -77.03765466666667}, {"fusion_lat": 0.0, "name": "d53bed443d2ccfe0b7c87fbb678a8af0", "is_disabled": 0, "rental_uris": {"android": "https://dc.lft.to/lastmile_qr_scan", "ios": "https://dc.lft.to/lastmile_qr_scan"}, "fusion_lon": 0.0, "lat": 38.90551766666667, "bike_id": "d53bed443d2ccfe0b7c87fbb678a8af0", "type": "electric_scooter", "is_reserved": 0, "lon": -77.06281566666667}, {"fusion_lat": 0.0, "name": "9c8cb40e331e4dd580a65d9b2e669a5a", "is_disabled": 0, "rental_uris": {"android": "https://dc.lft.to/lastmile_qr_scan", "ios": "https://dc.lft.to/lastmile_qr_scan"}, "fusion_lon": 0.0, "lat": 38.855215333333334, "bike_id": "9c8cb40e331e4dd580a65d9b2e669a5a", "type": "electric_bike", "is_reserved": 0, "lon": -76.98444716666667}, {"fusion_lat": 0.0, "name": "1d7502dfa665b959ca01be5f546e3e72", "is_disabled": 0, "rental_uris": {"android": "https://dc.lft.to/lastmile_qr_scan", "ios": "https://dc.lft.to/lastmile_qr_scan"}, "fusion_lon": 0.0, "lat": 38.872128833333335, "bike_id": "1d7502dfa665b959ca01be5f546e3e72", "type": "electric_scooter", "is_reserved": 0, "lon": -77.00576016666666}, {"fusion_lat": 0.0, "name": "5f91a85a7499875f418a5e517fe1024f", "is_disabled": 0, "rental_uris": {"android": "https://dc.lft.to/lastmile_qr_scan", "ios": "https://dc.lft.to/lastmile_qr_scan"}, "fusion_lon": 0.0, "lat": 38.919231, "bike_id": "5f91a85a7499875f418a5e517fe1024f", "type": "electric_scooter", "is_reserved": 0, "lon": -77.02664466666667}, {"fusion_lat": 0.0, "name": "18a6cfa9d4bf509316b1120b13ab522a", "is_disabled": 0, "rental_uris": {"android": "https://dc.lft.to/lastmile_qr_scan", "ios": "https://dc.lft.to/lastmile_qr_scan"}, "fusion_lon": 0.0, "lat": 38.90719033333333, "bike_id": "18a6cfa9d4bf509316b1120b13ab522a", "type": "electric_scooter", "is_reserved": 0, "lon": -77.04330883333333}, {"fusion_lat": 0.0, "name": "86d71ffd66dd26c96e2f3b59ae20aa27", "is_disabled": 0, "rental_uris": {"android": "https://dc.lft.to/lastmile_qr_scan", "ios": "https://dc.lft.to/lastmile_qr_scan"}, "fusion_lon": 0.0, "lat": 38.8837485, "bike_id": "86d71ffd66dd26c96e2f3b59ae20aa27", "type": "electric_scooter", "is_reserved": 0, "lon": -77.01367883333333}, {"fusion_lat": 0.0, "name": "5821478895b98c72e394bbd7c6b6ca10", "is_disabled": 0, "rental_uris": {"android": "https://dc.lft.to/lastmile_qr_scan", "ios": "https://dc.lft.to/lastmile_qr_scan"}, "fusion_lon": 0.0, "lat": 38.883971, "bike_id": "5821478895b98c72e394bbd7c6b6ca10", "type": "electric_scooter", "is_reserved": 0, "lon": -76.93044383333333}, {"fusion_lat": 0.0, "name": "fc9033f35bd97fba9a1b6a83b6f049fb", "is_disabled": 0, "rental_uris": {"android": "https://dc.lft.to/lastmile_qr_scan", "ios": "https://dc.lft.to/lastmile_qr_scan"}, "fusion_lon": 0.0, "lat": 38.915638333333334, "bike_id": "fc9033f35bd97fba9a1b6a83b6f049fb", "type": "electric_scooter", "is_reserved": 0, "lon": -77.03168116666667}, {"fusion_lat": 0.0, "name": "937c6e668178cc28d8a82f9a2d3e2453", "is_disabled": 0, "rental_uris": {"android": "https://dc.lft.to/lastmile_qr_scan", "ios": "https://dc.lft.to/lastmile_qr_scan"}, "fusion_lon": 0.0, "lat": 38.922922, "bike_id": "937c6e668178cc28d8a82f9a2d3e2453", "type": "electric_scooter", "is_reserved": 0, "lon": -77.04214583333334}, {"fusion_lat": 0.0, "name": "ac1b7e5dcf95192f3cef707b16b0c636", "is_disabled": 0, "rental_uris": {"android": "https://dc.lft.to/lastmile_qr_scan", "ios": "https://dc.lft.to/lastmile_qr_scan"}, "fusion_lon": 0.0, "lat": 38.90051883333334, "bike_id": "ac1b7e5dcf95192f3cef707b16b0c636", "type": "electric_scooter", "is_reserved": 0, "lon": -77.016233}, {"fusion_lat": 0.0, "name": "15759bbbdb5390d89f18a97f7c9ede29", "is_disabled": 0, "rental_uris": {"android": "https://dc.lft.to/lastmile_qr_scan", "ios": "https://dc.lft.to/lastmile_qr_scan"}, "fusion_lon": 0.0, "lat": 38.9177825, "bike_id": "15759bbbdb5390d89f18a97f7c9ede29", "type": "electric_scooter", "is_reserved": 0, "lon": -77.02414316666666}, {"fusion_lat": 0.0, "name": "6d605ebfd9f5b10e1d4b7d99ec3caf6e", "is_disabled": 0, "rental_uris": {"android": "https://dc.lft.to/lastmile_qr_scan", "ios": "https://dc.lft.to/lastmile_qr_scan"}, "fusion_lon": 0.0, "lat": 38.924777, "bike_id": "6d605ebfd9f5b10e1d4b7d99ec3caf6e", "type": "electric_scooter", "is_reserved": 0, "lon": -77.03530766666667}, {"fusion_lat": 0.0, "name": "f3351e43035bd2f0eeffe3cdb3b9d49f", "is_disabled": 0, "rental_uris": {"android": "https://dc.lft.to/lastmile_qr_scan", "ios": "https://dc.lft.to/lastmile_qr_scan"}, "fusion_lon": 0.0, "lat": 38.901415666666665, "bike_id": "f3351e43035bd2f0eeffe3cdb3b9d49f", "type": "electric_scooter", "is_reserved": 0, "lon": -77.0448645}, {"fusion_lat": 0.0, "name": "1b926e9ae8ac8b5cc98a9a54789d5c55", "is_disabled": 0, "rental_uris": {"android": "https://dc.lft.to/lastmile_qr_scan", "ios": "https://dc.lft.to/lastmile_qr_scan"}, "fusion_lon": 0.0, "lat": 38.99386833333333, "bike_id": "1b926e9ae8ac8b5cc98a9a54789d5c55", "type": "electric_bike", "is_reserved": 0, "lon": -76.928827}, {"fusion_lat": 0.0, "name": "9aa7185379a1d91e207e17a14166bc9a", "is_disabled": 0, "rental_uris": {"android": "https://dc.lft.to/lastmile_qr_scan", "ios": "https://dc.lft.to/lastmile_qr_scan"}, "fusion_lon": 0.0, "lat": 38.91677266666667, "bike_id": "9aa7185379a1d91e207e17a14166bc9a", "type": "electric_scooter", "is_reserved": 0, "lon": -77.02719816666666}, {"fusion_lat": 0.0, "name": "c1625d4ba852c49c754f19aab7fcdba9", "is_disabled": 0, "rental_uris": {"android": "https://dc.lft.to/lastmile_qr_scan", "ios": "https://dc.lft.to/lastmile_qr_scan"}, "fusion_lon": 0.0, "lat": 38.927991666666664, "bike_id": "c1625d4ba852c49c754f19aab7fcdba9", "type": "electric_scooter", "is_reserved": 0, "lon": -77.022965}, {"fusion_lat": 0.0, "name": "b28bf9dd30f1146d72f915d340680a3c", "is_disabled": 0, "rental_uris": {"android": "https://dc.lft.to/lastmile_qr_scan", "ios": "https://dc.lft.to/lastmile_qr_scan"}, "fusion_lon": 0.0, "lat": 38.91992666666667, "bike_id": "b28bf9dd30f1146d72f915d340680a3c", "type": "electric_scooter", "is_reserved": 0, "lon": -77.021771}, {"fusion_lat": 0.0, "name": "2711cd70eea8e30282c1df81a6dee5e7", "is_disabled": 0, "rental_uris": {"android": "https://dc.lft.to/lastmile_qr_scan", "ios": "https://dc.lft.to/lastmile_qr_scan"}, "fusion_lon": 0.0, "lat": 38.916489, "bike_id": "2711cd70eea8e30282c1df81a6dee5e7", "type": "electric_scooter", "is_reserved": 0, "lon": -77.02278683333333}, {"fusion_lat": 0.0, "name": "e59cfb7a0900b6cd2a5f427a0f4f23e3", "is_disabled": 0, "rental_uris": {"android": "https://dc.lft.to/lastmile_qr_scan", "ios": "https://dc.lft.to/lastmile_qr_scan"}, "fusion_lon": 0.0, "lat": 38.98816333333333, "bike_id": "e59cfb7a0900b6cd2a5f427a0f4f23e3", "type": "electric_bike", "is_reserved": 0, "lon": -77.02656383333333}, {"fusion_lat": 0.0, "name": "e3c35b1e5a345da93a20c60b507b3ba8", "is_disabled": 0, "rental_uris": {"android": "https://dc.lft.to/lastmile_qr_scan", "ios": "https://dc.lft.to/lastmile_qr_scan"}, "fusion_lon": 0.0, "lat": 38.922399666666664, "bike_id": "e3c35b1e5a345da93a20c60b507b3ba8", "type": "electric_scooter", "is_reserved": 0, "lon": -77.03662116666666}, {"fusion_lat": 0.0, "name": "509de4a0a0225e33eb55d66cb4a07e04", "is_disabled": 0, "rental_uris": {"android": "https://dc.lft.to/lastmile_qr_scan", "ios": "https://dc.lft.to/lastmile_qr_scan"}, "fusion_lon": 0.0, "lat": 38.949174, "bike_id": "509de4a0a0225e33eb55d66cb4a07e04", "type": "electric_bike", "is_reserved": 0, "lon": -77.00795033333333}, {"fusion_lat": 0.0, "name": "17935577518956caa441ff1d16afb46f", "is_disabled": 0, "rental_uris": {"android": "https://dc.lft.to/lastmile_qr_scan", "ios": "https://dc.lft.to/lastmile_qr_scan"}, "fusion_lon": 0.0, "lat": 38.89844516666667, "bike_id": "17935577518956caa441ff1d16afb46f", "type": "electric_scooter", "is_reserved": 0, "lon": -77.0297035}, {"fusion_lat": 0.0, "name": "371634aceb0f153004c823ffc185f1ef", "is_disabled": 0, "rental_uris": {"android": "https://dc.lft.to/lastmile_qr_scan", "ios": "https://dc.lft.to/lastmile_qr_scan"}, "fusion_lon": 0.0, "lat": 38.88457616666667, "bike_id": "371634aceb0f153004c823ffc185f1ef", "type": "electric_bike", "is_reserved": 0, "lon": -76.95221416666666}, {"fusion_lat": 0.0, "name": "18eb105360d5b1ad57cd42c1e61d3e98", "is_disabled": 0, "rental_uris": {"android": "https://dc.lft.to/lastmile_qr_scan", "ios": "https://dc.lft.to/lastmile_qr_scan"}, "fusion_lon": 0.0, "lat": 38.906175, "bike_id": "18eb105360d5b1ad57cd42c1e61d3e98", "type": "electric_scooter", "is_reserved": 0, "lon": -77.01491566666667}, {"fusion_lat": 0.0, "name": "f9fb7ae5547e9cd85987596bf82a6144", "is_disabled": 0, "rental_uris": {"android": "https://dc.lft.to/lastmile_qr_scan", "ios": "https://dc.lft.to/lastmile_qr_scan"}, "fusion_lon": 0.0, "lat": 38.8790985, "bike_id": "f9fb7ae5547e9cd85987596bf82a6144", "type": "electric_scooter", "is_reserved": 0, "lon": -77.00573833333333}, {"fusion_lat": 0.0, "name": "35d6c67f84b62987d049e6c8b0ca613e", "is_disabled": 0, "rental_uris": {"android": "https://dc.lft.to/lastmile_qr_scan", "ios": "https://dc.lft.to/lastmile_qr_scan"}, "fusion_lon": 0.0, "lat": 38.8876915, "bike_id": "35d6c67f84b62987d049e6c8b0ca613e", "type": "electric_scooter", "is_reserved": 0, "lon": -77.02948416666666}, {"fusion_lat": 0.0, "name": "5940be934f9568357011b07b78fb6967", "is_disabled": 0, "rental_uris": {"android": "https://dc.lft.to/lastmile_qr_scan", "ios": "https://dc.lft.to/lastmile_qr_scan"}, "fusion_lon": 0.0, "lat": 38.9181, "bike_id": "5940be934f9568357011b07b78fb6967", "type": "electric_scooter", "is_reserved": 0, "lon": -77.03438433333334}, {"fusion_lat": 0.0, "name": "f09a2cb096a754f791b75c429be7d7cd", "is_disabled": 0, "rental_uris": {"android": "https://dc.lft.to/lastmile_qr_scan", "ios": "https://dc.lft.to/lastmile_qr_scan"}, "fusion_lon": 0.0, "lat": 38.9196205, "bike_id": "f09a2cb096a754f791b75c429be7d7cd", "type": "electric_scooter", "is_reserved": 0, "lon": -77.02355416666667}, {"fusion_lat": 0.0, "name": "6bfb149269428ba1f1b2d06c8c0ef6b2", "is_disabled": 0, "rental_uris": {"android": "https://dc.lft.to/lastmile_qr_scan", "ios": "https://dc.lft.to/lastmile_qr_scan"}, "fusion_lon": 0.0, "lat": 38.932775166666666, "bike_id": "6bfb149269428ba1f1b2d06c8c0ef6b2", "type": "electric_scooter", "is_reserved": 0, "lon": -77.02872183333334}, {"fusion_lat": 0.0, "name": "7ceb36eb6a392add376b853888120016", "is_disabled": 0, "rental_uris": {"android": "https://dc.lft.to/lastmile_qr_scan", "ios": "https://dc.lft.to/lastmile_qr_scan"}, "fusion_lon": 0.0, "lat": 38.9004935, "bike_id": "7ceb36eb6a392add376b853888120016", "type": "electric_scooter", "is_reserved": 0, "lon": -77.04915633333333}, {"fusion_lat": 0.0, "name": "e92e37353b3376344b80517985c22166", "is_disabled": 0, "rental_uris": {"android": "https://dc.lft.to/lastmile_qr_scan", "ios": "https://dc.lft.to/lastmile_qr_scan"},