{"data": {"bikes": [{"rental_uris": {"ios": "https://dc.lft.to/lastmile_qr_scan", "android": "https://dc.lft.to/lastmile_qr_scan"}, "type": "electric_scooter", "name": "a83758a3948d06dc739105dc63104538", "is_reserved": 0, "lon": -77.048034, "is_disabled": 0, "fusion_lat": 0.0, "lat": 38.911162, "bike_id": "a83758a3948d06dc739105dc63104538", "fusion_lon": 0.0}, {"rental_uris": {"ios": "https://dc.lft.to/lastmile_qr_scan", "android": "https://dc.lft.to/lastmile_qr_scan"}, "type": "electric_scooter", "name": "e0572834862b3abb48565bdb7d69c92d", "is_reserved": 0, "lon": -77.04744333333333, "is_disabled": 0, "fusion_lat": 0.0, "lat": 38.905284333333334, "bike_id": "e0572834862b3abb48565bdb7d69c92d", "fusion_lon": 0.0}, {"rental_uris": {"ios": "https://dc.lft.to/lastmile_qr_scan", "android": "https://dc.lft.to/lastmile_qr_scan"}, "type": "electric_scooter", "name": "902824f327af963b1eccdaddd037058e", "is_reserved": 0, "lon": -77.02228966666667, "is_disabled": 0, "fusion_lat": 0.0, "lat": 38.89360083333333, "bike_id": "902824f327af963b1eccdaddd037058e", "fusion_lon": 0.0}, {"rental_uris": {"ios": "https://dc.lft.to/lastmile_qr_scan", "android": "https://dc.lft.to/lastmile_qr_scan"}, "type": "electric_scooter", "name": "bee3dc1533fd35f178b7ff73236d89b2", "is_reserved": 0, "lon": -77.02094183333334, "is_disabled": 0, "fusion_lat": 0.0, "lat": 38.930181833333336, "bike_id": "bee3dc1533fd35f178b7ff73236d89b2", "fusion_lon": 0.0}, {"rental_uris": {"ios": "https://dc.lft.to/lastmile_qr_scan", "android": "https://dc.lft.to/lastmile_qr_scan"}, "type": "electric_scooter", "name": "a9d7a30ef9ee4c3317a5cbd613ebe120", "is_reserved": 0, "lon": -77.01316183333333, "is_disabled": 0, "fusion_lat": 0.0, "lat": 38.907020833333334, "bike_id": "a9d7a30ef9ee4c3317a5cbd613ebe120", "fusion_lon": 0.0}, {"rental_uris": {"ios": "https://dc.lft.to/lastmile_qr_scan", "android": "https://dc.lft.to/lastmile_qr_scan"}, "type": "electric_scooter", "name": "144a6026b2dae7d28b259fed9e3a9bf3", "is_reserved": 0, "lon": -77.041879, "is_disabled": 0, "fusion_lat": 0.0, "lat": 38.92055583333333, "bike_id": "144a6026b2dae7d28b259fed9e3a9bf3", "fusion_lon": 0.0}, {"rental_uris": {"ios": "https://dc.lft.to/lastmile_qr_scan", "android": "https://dc.lft.to/lastmile_qr_scan"}, "type": "electric_scooter", "name": "eeb36cd5d4d43885fb3477e7968e1982", "is_reserved": 0, "lon": -77.02479366666667, "is_disabled": 0, "fusion_lat": 0.0, "lat": 38.91821083333333, "bike_id": "eeb36cd5d4d43885fb3477e7968e1982", "fusion_lon": 0.0}, {"rental_uris": {"ios": "https://dc.lft.to/lastmile_qr_scan", "android": "https://dc.lft.to/lastmile_qr_scan"}, "type": "electric_scooter", "name": "c3aafcdd65d3bfe793195d80d34ce89c", "is_reserved": 0, "lon": -77.06116683333333, "is_disabled": 0, "fusion_lat": 0.0, "lat": 38.90506366666666, "bike_id": "c3aafcdd65d3bfe793195d80d34ce89c", "fusion_lon": 0.0}, {"rental_uris": {"ios": "https://dc.lft.to/lastmile_qr_scan", "android": "https://dc.lft.to/lastmile_qr_scan"}, "type": "electric_scooter", "name": "87fdefaa587086efd5d6dc182bbeb0c7", "is_reserved": 0, "lon": -77.02957916666666, "is_disabled": 0, "fusion_lat": 0.0, "lat": 38.90503183333333, "bike_id": "87fdefaa587086efd5d6dc182bbeb0c7", "fusion_lon": 0.0}, {"rental_uris": {"ios": "https://dc.lft.to/lastmile_qr_scan", "android": "https://dc.lft.to/lastmile_qr_scan"}, "type": "electric_scooter", "name": "8e122200ce9870fe9c7b388c0f7b7c2f", "is_reserved": 0, "lon": -77.0487845, "is_disabled": 0, "fusion_lat": 0.0, "lat": 38.900714, "bike_id": "8e122200ce9870fe9c7b388c0f7b7c2f", "fusion_lon": 0.0}, {"rental_uris": {"ios": "https://dc.lft.to/lastmile_qr_scan", "android": "https://dc.lft.to/lastmile_qr_scan"}, "type": "electric_scooter", "name": "a29706a64699ef182ed3f3fd10704ea5", "is_reserved": 0, "lon": -76.99628816666667, "is_disabled": 0, "fusion_lat": 0.0, "lat": 38.8918535, "bike_id": "a29706a64699ef182ed3f3fd10704ea5", "fusion_lon": 0.0}, {"rental_uris": {"ios": "https://dc.lft.to/lastmile_qr_scan", "android": "https://dc.lft.to/lastmile_qr_scan"}, "type": "electric_scooter", "name": "dc3a138690beec41a882682d1877c2b8", "is_reserved": 0, "lon": -77.022883, "is_disabled": 0, "fusion_lat": 0.0, "lat": 38.907511, "bike_id": "dc3a138690beec41a882682d1877c2b8", "fusion_lon": 0.0}, {"rental_uris": {"ios": "https://dc.lft.to/lastmile_qr_scan", "android": "https://dc.lft.to/lastmile_qr_scan"}, "type": "electric_scooter", "name": "47e24e322547c786b5916fec1dc03945", "is_reserved": 0, "lon": -77.037135, "is_disabled": 0, "fusion_lat": 0.0, "lat": 38.92661866666667, "bike_id": "47e24e322547c786b5916fec1dc03945", "fusion_lon": 0.0}, {"rental_uris": {"ios": "https://dc.lft.to/lastmile_qr_scan", "android": "https://dc.lft.to/lastmile_qr_scan"}, "type": "electric_scooter", "name": "3720f954f40d73573b95a97ad262403f", "is_reserved": 0, "lon": -77.05322383333333, "is_disabled": 0, "fusion_lat": 0.0, "lat": 38.90270866666667, "bike_id": "3720f954f40d73573b95a97ad262403f", "fusion_lon": 0.0}, {"rental_uris": {"ios": "https://dc.lft.to/lastmile_qr_scan", "android": "https://dc.lft.to/lastmile_qr_scan"}, "type": "electric_bike", "name": "e8e02c74bd480337e531fbd990668807", "is_reserved": 0, "lon": -77.09625116666666, "is_disabled": 0, "fusion_lat": 0.0, "lat": 38.952461666666665, "bike_id": "e8e02c74bd480337e531fbd990668807", "fusion_lon": 0.0}, {"rental_uris": {"ios": "https://dc.lft.to/lastmile_qr_scan", "android": "https://dc.lft.to/lastmile_qr_scan"}, "type": "electric_bike", "name": "7f79aee82f728046d0ca049491f90582", "is_reserved": 0, "lon": -77.1274125, "is_disabled": 0, "fusion_lat": 0.0, "lat": 38.89571983333333, "bike_id": "7f79aee82f728046d0ca049491f90582", "fusion_lon": 0.0}, {"rental_uris": {"ios": "https://dc.lft.to/lastmile_qr_scan", "android": "https://dc.lft.to/lastmile_qr_scan"}, "type": "electric_scooter", "name": "96b9e45d87e47fb035f0de4bce2d0770", "is_reserved": 0, "lon": -77.00997916666667, "is_disabled": 0, "fusion_lat": 0.0, "lat": 38.911292, "bike_id": "96b9e45d87e47fb035f0de4bce2d0770", "fusion_lon": 0.0}, {"rental_uris": {"ios": "https://dc.lft.to/lastmile_qr_scan", "android": "https://dc.lft.to/lastmile_qr_scan"}, "type": "electric_scooter", "name": "e8f29158d81771a7709abb82ce6227b2", "is_reserved": 0, "lon": -77.0334285, "is_disabled": 0, "fusion_lat": 0.0, "lat": 38.892272166666665, "bike_id": "e8f29158d81771a7709abb82ce6227b2", "fusion_lon": 0.0}, {"rental_uris": {"ios": "https://dc.lft.to/lastmile_qr_scan", "android": "https://dc.lft.to/lastmile_qr_scan"}, "type": "electric_bike", "name": "c1fa3e0c97c134af790cfb5dcdfbfee3", "is_reserved": 0, "lon": -77.04427716666666, "is_disabled": 0, "fusion_lat": 0.0, "lat": 39.015688833333336, "bike_id": "c1fa3e0c97c134af790cfb5dcdfbfee3", "fusion_lon": 0.0}, {"rental_uris": {"ios": "https://dc.lft.to/lastmile_qr_scan", "android": "https://dc.lft.to/lastmile_qr_scan"}, "type": "electric_scooter", "name": "dace4a79f4b5fbdc66b3b5fa8fddf8e3", "is_reserved": 0, "lon": -77.026929, "is_disabled": 0, "fusion_lat": 0.0, "lat": 38.94983666666667, "bike_id": "dace4a79f4b5fbdc66b3b5fa8fddf8e3", "fusion_lon": 0.0}, {"rental_uris": {"ios": "https://dc.lft.to/lastmile_qr_scan", "android": "https://dc.lft.to/lastmile_qr_scan"}, "type": "electric_scooter", "name": "909f0e5ab7d5d4d9734b0093cd685d5d", "is_reserved": 0, "lon": -76.99527666666667, "is_disabled": 0, "fusion_lat": 0.0, "lat": 38.9207315, "bike_id": "909f0e5ab7d5d4d9734b0093cd685d5d", "fusion_lon": 0.0}, {"rental_uris": {"ios": "https://dc.lft.to/lastmile_qr_scan", "android": "https://dc.lft.to/lastmile_qr_scan"}, "type": "electric_scooter", "name": "5ba73d7e243342cd02db930aba5edbcd", "is_reserved": 0, "lon": -77.02478033333334, "is_disabled": 0, "fusion_lat": 0.0, "lat": 38.918192, "bike_id": "5ba73d7e243342cd02db930aba5edbcd", "fusion_lon": 0.0}, {"rental_uris": {"ios": "https://dc.lft.to/lastmile_qr_scan", "android": "https://dc.lft.to/lastmile_qr_scan"}, "type": "electric_scooter", "name": "847c2898ad4116d971bbce4b473a587d", "is_reserved": 0, "lon": -77.04407466666666, "is_disabled": 0, "fusion_lat": 0.0, "lat": 38.901234, "bike_id": "847c2898ad4116d971bbce4b473a587d", "fusion_lon": 0.0}, {"rental_uris": {"ios": "https://dc.lft.to/lastmile_qr_scan", "android": "https://dc.lft.to/lastmile_qr_scan"}, "type": "electric_scooter", "name": "1da89ec2d1a32767f399ecafe0772cb4", "is_reserved": 0, "lon": -77.01365616666666, "is_disabled": 0, "fusion_lat": 0.0, "lat": 38.91933233333334, "bike_id": "1da89ec2d1a32767f399ecafe0772cb4", "fusion_lon": 0.0}, {"rental_uris": {"ios": "https://dc.lft.to/lastmile_qr_scan", "android": "https://dc.lft.to/lastmile_qr_scan"}, "type": "electric_scooter", "name": "647209803db3b80f5c10a9b2521f1e9b", "is_reserved": 0, "lon": -77.02633083333333, "is_disabled": 0, "fusion_lat": 0.0, "lat": 38.89618133333333, "bike_id": "647209803db3b80f5c10a9b2521f1e9b", "fusion_lon": 0.0}, {"rental_uris": {"ios": "https://dc.lft.to/lastmile_qr_scan", "android": "https://dc.lft.to/lastmile_qr_scan"}, "type": "electric_scooter", "name": "373570634b61c223ad5b2ee3a9a098ac", "is_reserved": 0, "lon": -77.03246816666666, "is_disabled": 0, "fusion_lat": 0.0, "lat": 38.89807533333333, "bike_id": "373570634b61c223ad5b2ee3a9a098ac", "fusion_lon": 0.0}, {"rental_uris": {"ios": "https://dc.lft.to/lastmile_qr_scan", "android": "https://dc.lft.to/lastmile_qr_scan"}, "type": "electric_scooter", "name": "2222da1b1b285b93d0ac141caad3b43c", "is_reserved": 0, "lon": -77.032058, "is_disabled": 0, "fusion_lat": 0.0, "lat": 38.9011555, "bike_id": "2222da1b1b285b93d0ac141caad3b43c", "fusion_lon": 0.0}, {"rental_uris": {"ios": "https://dc.lft.to/lastmile_qr_scan", "android": "https://dc.lft.to/lastmile_qr_scan"}, "type": "electric_scooter", "name": "83cadc49e34b0e94c26f4520e242c654", "is_reserved": 0, "lon": -77.067512, "is_disabled": 0, "fusion_lat": 0.0, "lat": 38.905123333333336, "bike_id": "83cadc49e34b0e94c26f4520e242c654", "fusion_lon": 0.0}, {"rental_uris": {"ios": "https://dc.lft.to/lastmile_qr_scan", "android": "https://dc.lft.to/lastmile_qr_scan"}, "type": "electric_scooter", "name": "7c7daaa7ba125e4b4bb1bfbf29d60ac0", "is_reserved": 0, "lon": -77.00109366666666, "is_disabled": 0, "fusion_lat": 0.0, "lat": 38.87507766666667, "bike_id": "7c7daaa7ba125e4b4bb1bfbf29d60ac0", "fusion_lon": 0.0}, {"rental_uris": {"ios": "https://dc.lft.to/lastmile_qr_scan", "android": "https://dc.lft.to/lastmile_qr_scan"}, "type": "electric_scooter", "name": "1d5870b97426a4584c25f2ef13649d9c", "is_reserved": 0, "lon": -77.03958433333334, "is_disabled": 0, "fusion_lat": 0.0, "lat": 38.89243, "bike_id": "1d5870b97426a4584c25f2ef13649d9c", "fusion_lon": 0.0}, {"rental_uris": {"ios": "https://dc.lft.to/lastmile_qr_scan", "android": "https://dc.lft.to/lastmile_qr_scan"}, "type": "electric_scooter", "name": "2f3f85fb68caf0e4067d1973c544cd8f", "is_reserved": 0, "lon": -77.05228666666666, "is_disabled": 0, "fusion_lat": 0.0, "lat": 38.92438383333333, "bike_id": "2f3f85fb68caf0e4067d1973c544cd8f", "fusion_lon": 0.0}, {"rental_uris": {"ios": "https://dc.lft.to/lastmile_qr_scan", "android": "https://dc.lft.to/lastmile_qr_scan"}, "type": "electric_scooter", "name": "4e7a04cb467777b9c72a38df5a19f6c0", "is_reserved": 0, "lon": -77.02410733333333, "is_disabled": 0, "fusion_lat": 0.0, "lat": 38.90973, "bike_id": "4e7a04cb467777b9c72a38df5a19f6c0", "fusion_lon": 0.0}, {"rental_uris": {"ios": "https://dc.lft.to/lastmile_qr_scan", "android": "https://dc.lft.to/lastmile_qr_scan"}, "type": "electric_scooter", "name": "d2aeaa7fefa13dbbb055542025e6ff41", "is_reserved": 0, "lon": -76.970545, "is_disabled": 0, "fusion_lat": 0.0, "lat": 38.8732315, "bike_id": "d2aeaa7fefa13dbbb055542025e6ff41", "fusion_lon": 0.0}, {"rental_uris": {"ios": "https://dc.lft.to/lastmile_qr_scan", "android": "https://dc.lft.to/lastmile_qr_scan"}, "type": "electric_scooter", "name": "d2095156a8cbe5188f4330a1e739e1d2", "is_reserved": 0, "lon": -77.0290555, "is_disabled": 0, "fusion_lat": 0.0, "lat": 38.940440833333334, "bike_id": "d2095156a8cbe5188f4330a1e739e1d2", "fusion_lon": 0.0}, {"rental_uris": {"ios": "https://dc.lft.to/lastmile_qr_scan", "android": "https://dc.lft.to/lastmile_qr_scan"}, "type": "electric_scooter", "name": "5bd521d378f72bea5551e2320d8a42ba", "is_reserved": 0, "lon": -77.00221983333333, "is_disabled": 0, "fusion_lat": 0.0, "lat": 38.900439666666664, "bike_id": "5bd521d378f72bea5551e2320d8a42ba", "fusion_lon": 0.0}, {"rental_uris": {"ios": "https://dc.lft.to/lastmile_qr_scan", "android": "https://dc.lft.to/lastmile_qr_scan"}, "type": "electric_scooter", "name": "fb0be7827a995f13199148e6587addbd", "is_reserved": 0, "lon": -77.03848516666666, "is_disabled": 0, "fusion_lat": 0.0, "lat": 38.90394383333334, "bike_id": "fb0be7827a995f13199148e6587addbd", "fusion_lon": 0.0}, {"rental_uris": {"ios": "https://dc.lft.to/lastmile_qr_scan", "android": "https://dc.lft.to/lastmile_qr_scan"}, "type": "electric_scooter", "name": "ebf82cb4ce8f39e12fd1212e4c3e86f9", "is_reserved": 0, "lon": -77.02695283333334, "is_disabled": 0, "fusion_lat": 0.0, "lat": 38.9084835, "bike_id": "ebf82cb4ce8f39e12fd1212e4c3e86f9", "fusion_lon": 0.0}, {"rental_uris": {"ios": "https://dc.lft.to/lastmile_qr_scan", "android": "https://dc.lft.to/lastmile_qr_scan"}, "type": "electric_scooter", "name": "83cd0d4730a57f7e3faa0ec456fb353c", "is_reserved": 0, "lon": -76.986023, "is_disabled": 0, "fusion_lat": 0.0, "lat": 38.878423, "bike_id": "83cd0d4730a57f7e3faa0ec456fb353c", "fusion_lon": 0.0}, {"rental_uris": {"ios": "https://dc.lft.to/lastmile_qr_scan", "android": "https://dc.lft.to/lastmile_qr_scan"}, "type": "electric_bike", "name": "d689c865d0472a3cd7efe5b7b3f52567", "is_reserved": 0, "lon": -77.066992, "is_disabled": 0, "fusion_lat": 0.0, "lat": 38.8317555, "bike_id": "d689c865d0472a3cd7efe5b7b3f52567", "fusion_lon": 0.0}, {"rental_uris": {"ios": "https://dc.lft.to/lastmile_qr_scan", "android": "https://dc.lft.to/lastmile_qr_scan"}, "type": "electric_scooter", "name": "42b1380af5e327229d709260b25c4b6a", "is_reserved": 0, "lon": -77.02887383333334, "is_disabled": 0, "fusion_lat": 0.0, "lat": 38.917203666666666, "bike_id": "42b1380af5e327229d709260b25c4b6a", "fusion_lon": 0.0}, {"rental_uris": {"ios": "https://dc.lft.to/lastmile_qr_scan", "android": "https://dc.lft.to/lastmile_qr_scan"}, "type": "electric_scooter", "name": "c6cbcd424e22dd6236344a01c702ac64", "is_reserved": 0, "lon": -77.01909633333334, "is_disabled": 0, "fusion_lat": 0.0, "lat": 38.89806016666667, "bike_id": "c6cbcd424e22dd6236344a01c702ac64", "fusion_lon": 0.0}, {"rental_uris": {"ios": "https://dc.lft.to/lastmile_qr_scan", "android": "https://dc.lft.to/lastmile_qr_scan"}, "type": "electric_scooter", "name": "6251e7db8a089e012e248e233ad8374a", "is_reserved": 0, "lon": -77.0717005, "is_disabled": 0, "fusion_lat": 0.0, "lat": 38.8996225, "bike_id": "6251e7db8a089e012e248e233ad8374a", "fusion_lon": 0.0}, {"rental_uris": {"ios": "https://dc.lft.to/lastmile_qr_scan", "android": "https://dc.lft.to/lastmile_qr_scan"}, "type": "electric_scooter", "name": "322a4471723fc7d54fdc9e94750d7ecc", "is_reserved": 0, "lon": -77.02628833333333, "is_disabled": 0, "fusion_lat": 0.0, "lat": 38.892255, "bike_id": "322a4471723fc7d54fdc9e94750d7ecc", "fusion_lon": 0.0}, {"rental_uris": {"ios": "https://dc.lft.to/lastmile_qr_scan", "android": "https://dc.lft.to/lastmile_qr_scan"}, "type": "electric_scooter", "name": "98def3f99c2a7eb331a9374a36883042", "is_reserved": 0, "lon": -77.0386435, "is_disabled": 0, "fusion_lat": 0.0, "lat": 38.912647166666666, "bike_id": "98def3f99c2a7eb331a9374a36883042", "fusion_lon": 0.0}, {"rental_uris": {"ios": "https://dc.lft.to/lastmile_qr_scan", "android": "https://dc.lft.to/lastmile_qr_scan"}, "type": "electric_scooter", "name": "31ceba9d963f0eda84495b8323d04e3b", "is_reserved": 0, "lon": -77.01771383333333, "is_disabled": 0, "fusion_lat": 0.0, "lat": 38.8873015, "bike_id": "31ceba9d963f0eda84495b8323d04e3b", "fusion_lon": 0.0}, {"rental_uris": {"ios": "https://dc.lft.to/lastmile_qr_scan", "android": "https://dc.lft.to/lastmile_qr_scan"}, "type": "electric_scooter", "name": "a537e780bb8eb683950efea250b792b4", "is_reserved": 0, "lon": -77.02650716666666, "is_disabled": 0, "fusion_lat": 0.0, "lat": 38.881138666666665, "bike_id": "a537e780bb8eb683950efea250b792b4", "fusion_lon": 0.0}, {"rental_uris": {"ios": "https://dc.lft.to/lastmile_qr_scan", "android": "https://dc.lft.to/lastmile_qr_scan"}, "type": "electric_scooter", "name": "c280258010134e1ee84203d7390c58b9", "is_reserved": 0, "lon": -77.01214266666666, "is_disabled": 0, "fusion_lat": 0.0, "lat": 38.9017485, "bike_id": "c280258010134e1ee84203d7390c58b9", "fusion_lon": 0.0}, {"rental_uris": {"ios": "https://dc.lft.to/lastmile_qr_scan", "android": "https://dc.lft.to/lastmile_qr_scan"}, "type": "electric_scooter", "name": "ba681c916bdd34495ddaacb553f4bb2a", "is_reserved": 0, "lon": -77.00120183333334, "is_disabled": 0, "fusion_lat": 0.0, "lat": 38.878093, "bike_id": "ba681c916bdd34495ddaacb553f4bb2a", "fusion_lon": 0.0}, {"rental_uris": {"ios": "https://dc.lft.to/lastmile_qr_scan", "android": "https://dc.lft.to/lastmile_qr_scan"}, "type": "electric_scooter", "name": "b26a0408cb73b9055f2ab2533a8107e3", "is_reserved": 0, "lon": -76.983258, "is_disabled": 0, "fusion_lat": 0.0, "lat": 38.87839866666667, "bike_id": "b26a0408cb73b9055f2ab2533a8107e3", "fusion_lon": 0.0}, {"rental_uris": {"ios": "https://dc.lft.to/lastmile_qr_scan", "android": "https://dc.lft.to/lastmile_qr_scan"}, "type": "electric_scooter", "name": "b5ccc820a99d2ee0359e70beeb7ab210", "is_reserved": 0, "lon": -77.04672633333334, "is_disabled": 0, "fusion_lat": 0.0, "lat": 38.92137566666667, "bike_id": "b5ccc820a99d2ee0359e70beeb7ab210", "fusion_lon": 0.0}, {"rental_uris": {"ios": "https://dc.lft.to/lastmile_qr_scan", "android": "https://dc.lft.to/lastmile_qr_scan"}, "type": "electric_scooter", "name": "9e5a847ed32ea85181fb45079ebffc95", "is_reserved": 0, "lon": -76.97360233333333, "is_disabled": 0, "fusion_lat": 0.0, "lat": 38.85010916666667, "bike_id": "9e5a847ed32ea85181fb45079ebffc95", "fusion_lon": 0.0}, {"rental_uris": {"ios": "https://dc.lft.to/lastmile_qr_scan", "android": "https://dc.lft.to/lastmile_qr_scan"}, "type": "electric_scooter", "name": "0f7e785d045f4d7c5fd56b3f508bf232", "is_reserved": 0, "lon": -76.98701833333334, "is_disabled": 0, "fusion_lat": 0.0, "lat": 38.859683833333335, "bike_id": "0f7e785d045f4d7c5fd56b3f508bf232", "fusion_lon": 0.0}, {"rental_uris": {"ios": "https://dc.lft.to/lastmile_qr_scan", "android": "https://dc.lft.to/lastmile_qr_scan"}, "type": "electric_scooter", "name": "abb725bd6d1026032727f496cc1fa9b7", "is_reserved": 0, "lon": -77.027171, "is_disabled": 0, "fusion_lat": 0.0, "lat": 38.90956283333333, "bike_id": "abb725bd6d1026032727f496cc1fa9b7", "fusion_lon": 0.0}, {"rental_uris": {"ios": "https://dc.lft.to/lastmile_qr_scan", "android": "https://dc.lft.to/lastmile_qr_scan"}, "type": "electric_scooter", "name": "a23435eb548248e64180da343f7efa4a", "is_reserved": 0, "lon": -77.0079645, "is_disabled": 0, "fusion_lat": 0.0, "lat": 38.89723816666667, "bike_id": "a23435eb548248e64180da343f7efa4a", "fusion_lon": 0.0}, {"rental_uris": {"ios": "https://dc.lft.to/lastmile_qr_scan", "android": "https://dc.lft.to/lastmile_qr_scan"}, "type": "electric_scooter", "name": "78f4093bdd3f8964be28944fef853f02", "is_reserved": 0, "lon": -76.94666416666666, "is_disabled": 0, "fusion_lat": 0.0, "lat": 38.8987185, "bike_id": "78f4093bdd3f8964be28944fef853f02", "fusion_lon": 0.0}, {"rental_uris": {"ios": "https://dc.lft.to/lastmile_qr_scan", "android": "https://dc.lft.to/lastmile_qr_scan"}, "type": "electric_scooter", "name": "b74a9c627e434d358adb59bb06be0b78", "is_reserved": 0, "lon": -77.04142116666667, "is_disabled": 0, "fusion_lat": 0.0, "lat": 38.93048, "bike_id": "b74a9c627e434d358adb59bb06be0b78", "fusion_lon": 0.0}, {"rental_uris": {"ios": "https://dc.lft.to/lastmile_qr_scan", "android": "https://dc.lft.to/lastmile_qr_scan"}, "type": "electric_scooter", "name": "2d8c237819989acdccc627270429349b", "is_reserved": 0, "lon": -77.006034, "is_disabled": 0, "fusion_lat": 0.0, "lat": 38.906896, "bike_id": "2d8c237819989acdccc627270429349b", "fusion_lon": 0.0}, {"rental_uris": {"ios": "https://dc.lft.to/lastmile_qr_scan", "android": "https://dc.lft.to/lastmile_qr_scan"}, "type": "electric_scooter", "name": "ff202a4b9c2a1e453bc2e64de99e25e9", "is_reserved": 0, "lon": -76.9961225, "is_disabled": 0, "fusion_lat": 0.0, "lat": 38.909189, "bike_id": "ff202a4b9c2a1e453bc2e64de99e25e9", "fusion_lon": 0.0}, {"rental_uris": {"ios": "https://dc.lft.to/lastmile_qr_scan", "android": "https://dc.lft.to/lastmile_qr_scan"}, "type": "electric_scooter", "name": "4daa0667d026f27a30bec125699965ec", "is_reserved": 0, "lon": -76.97149233333333, "is_disabled": 0, "fusion_lat": 0.0, "lat": 38.916247166666665, "bike_id": "4daa0667d026f27a30bec125699965ec", "fusion_lon": 0.0}, {"rental_uris": {"ios": "https://dc.lft.to/lastmile_qr_scan", "android": "https://dc.lft.to/lastmile_qr_scan"}, "type": "electric_scooter", "name": "2cec712ef4cc36d4eb28556efa1fc897", "is_reserved": 0, "lon": -77.014414, "is_disabled": 0, "fusion_lat": 0.0, "lat": 38.90969883333333, "bike_id": "2cec712ef4cc36d4eb28556efa1fc897", "fusion_lon": 0.0}, {"rental_uris": {"ios": "https://dc.lft.to/lastmile_qr_scan", "android": "https://dc.lft.to/lastmile_qr_scan"}, "type": "electric_scooter", "name": "667a0b91ee4e40f193c9ab45c5c7a2cc", "is_reserved": 0, "lon": -77.04204533333333, "is_disabled": 0, "fusion_lat": 0.0, "lat": 38.9074305, "bike_id": "667a0b91ee4e40f193c9ab45c5c7a2cc", "fusion_lon": 0.0}, {"rental_uris": {"ios": "https://dc.lft.to/lastmile_qr_scan", "android": "https://dc.lft.to/lastmile_qr_scan"}, "type": "electric_scooter", "name": "8c4144a987482d0a284f2da569647c3e", "is_reserved": 0, "lon": -77.01102283333333, "is_disabled": 0, "fusion_lat": 0.0, "lat": 38.895413, "bike_id": "8c4144a987482d0a284f2da569647c3e", "fusion_lon": 0.0}, {"rental_uris": {"ios": "https://dc.lft.to/lastmile_qr_scan", "android": "https://dc.lft.to/lastmile_qr_scan"}, "type": "electric_scooter", "name": "7128bea8a2ceb9eab180944f36920edb", "is_reserved": 0, "lon": -77.01263183333333, "is_disabled": 0, "fusion_lat": 0.0, "lat": 38.89726683333333, "bike_id": "7128bea8a2ceb9eab180944f36920edb", "fusion_lon": 0.0}, {"rental_uris": {"ios": "https://dc.lft.to/lastmile_qr_scan", "android": "https://dc.lft.to/lastmile_qr_scan"}, "type": "electric_scooter", "name": "a535472dd30c2811ca571dd898247808", "is_reserved": 0, "lon": -77.03661633333333, "is_disabled": 0, "fusion_lat": 0.0, "lat": 38.91321816666667, "bike_id": "a535472dd30c2811ca571dd898247808", "fusion_lon": 0.0}, {"rental_uris": {"ios": "https://dc.lft.to/lastmile_qr_scan", "android": "https://dc.lft.to/lastmile_qr_scan"}, "type": "electric_scooter", "name": "cef681901e0eda01edd3283dc1e006e8", "is_reserved": 0, "lon": -77.03768816666667, "is_disabled": 0, "fusion_lat": 0.0, "lat": 38.923351333333336, "bike_id": "cef681901e0eda01edd3283dc1e006e8", "fusion_lon": 0.0}, {"rental_uris": {"ios": "https://dc.lft.to/lastmile_qr_scan", "android": "https://dc.lft.to/lastmile_qr_scan"}, "type": "electric_scooter", "name": "b369e1fa48f2e01913072e289c55afa6", "is_reserved": 0, "lon": -77.029769, "is_disabled": 0, "fusion_lat": 0.0, "lat": 38.9225275, "bike_id": "b369e1fa48f2e01913072e289c55afa6", "fusion_lon": 0.0}, {"rental_uris": {"ios": "https://dc.lft.to/lastmile_qr_scan", "android": "https://dc.lft.to/lastmile_qr_scan"}, "type": "electric_scooter", "name": "98ca9e12bdda140c10aca586def2d4ed", "is_reserved": 0, "lon": -77.05378583333334, "is_disabled": 0, "fusion_lat": 0.0, "lat": 38.9234275, "bike_id": "98ca9e12bdda140c10aca586def2d4ed", "fusion_lon": 0.0}, {"rental_uris": {"ios": "https://dc.lft.to/lastmile_qr_scan", "android": "https://dc.lft.to/lastmile_qr_scan"}, "type": "electric_scooter", "name": "ed50b8f4373f0b583b5b270057944660", "is_reserved": 0, "lon": -77.02310483333333, "is_disabled": 0, "fusion_lat": 0.0, "lat": 38.9179245, "bike_id": "ed50b8f4373f0b583b5b270057944660", "fusion_lon": 0.0}, {"rental_uris": {"ios": "https://dc.lft.to/lastmile_qr_scan", "android": "https://dc.lft.to/lastmile_qr_scan"}, "type": "electric_scooter", "name": "646cd6dd47c42b56bbdf7cb208c41690", "is_reserved": 0, "lon": -77.0432385, "is_disabled": 0, "fusion_lat": 0.0, "lat": 38.897419, "bike_id": "646cd6dd47c42b56bbdf7cb208c41690", "fusion_lon": 0.0}, {"rental_uris": {"ios": "https://dc.lft.to/lastmile_qr_scan", "android": "https://dc.lft.to/lastmile_qr_scan"}, "type": "electric_scooter", "name": "26b421d598660771bec7f0d5ab562669", "is_reserved": 0, "lon": -77.02973516666667, "is_disabled": 0, "fusion_lat": 0.0, "lat": 38.90717983333333, "bike_id": "26b421d598660771bec7f0d5ab562669", "fusion_lon": 0.0}, {"rental_uris": {"ios": "https://dc.lft.to/lastmile_qr_scan", "android": "https://dc.lft.to/lastmile_qr_scan"}, "type": "electric_scooter", "name": "22ba41926c980e93f69a18bc05d9ef61", "is_reserved": 0, "lon": -77.0363965, "is_disabled": 0, "fusion_lat": 0.0, "lat": 38.92818033333333, "bike_id": "22ba41926c980e93f69a18bc05d9ef61", "fusion_lon": 0.0}, {"rental_uris": {"ios": "https://dc.lft.to/lastmile_qr_scan", "android": "https://dc.lft.to/lastmile_qr_scan"}, "type": "electric_scooter", "name": "9f46342653ef6bd6d70b43c66146d6e5", "is_reserved": 0, "lon": -77.03374866666667, "is_disabled": 0, "fusion_lat": 0.0, "lat": 38.89979816666666, "bike_id": "9f46342653ef6bd6d70b43c66146d6e5", "fusion_lon": 0.0}, {"rental_uris": {"ios": "https://dc.lft.to/lastmile_qr_scan", "android": "https://dc.lft.to/lastmile_qr_scan"}, "type": "electric_scooter", "name": "b26c0f3a5a96a9a5ee86cc058737fb58", "is_reserved": 0, "lon": -76.98573716666667, "is_disabled": 0, "fusion_lat": 0.0, "lat": 38.85452766666667, "bike_id": "b26c0f3a5a96a9a5ee86cc058737fb58", "fusion_lon": 0.0}, {"rental_uris": {"ios": "https://dc.lft.to/lastmile_qr_scan", "android": "https://dc.lft.to/lastmile_qr_scan"}, "type": "electric_scooter", "name": "cdb28e2276c837d84af18ddecbd1ddc7", "is_reserved": 0, "lon": -77.00045116666666, "is_disabled": 0, "fusion_lat": 0.0, "lat": 38.919037333333335, "bike_id": "cdb28e2276c837d84af18ddecbd1ddc7", "fusion_lon": 0.0}, {"rental_uris": {"ios": "https://dc.lft.to/lastmile_qr_scan", "android": "https://dc.lft.to/lastmile_qr_scan"}, "type": "electric_scooter", "name": "0dec65200988619d8a54b5edd05f4454", "is_reserved": 0, "lon": -76.98350983333333, "is_disabled": 0, "fusion_lat": 0.0, "lat": 38.8878, "bike_id": "0dec65200988619d8a54b5edd05f4454", "fusion_lon": 0.0}, {"rental_uris": {"ios": "https://dc.lft.to/lastmile_qr_scan", "android": "https://dc.lft.to/lastmile_qr_scan"}, "type": "electric_scooter", "name": "974ba3b51d2b9121009207e18d1c8e03", "is_reserved": 0, "lon": -77.038299, "is_disabled": 0, "fusion_lat": 0.0, "lat": 38.911199333333336, "bike_id": "974ba3b51d2b9121009207e18d1c8e03", "fusion_lon": 0.0}, {"rental_uris": {"ios": "https://dc.lft.to/lastmile_qr_scan", "android": "https://dc.lft.to/lastmile_qr_scan"}, "type": "electric_scooter", "name": "49308bed671d15001d3ef11aa4ec1962", "is_reserved": 0, "lon": -77.02399183333333, "is_disabled": 0, "fusion_lat": 0.0, "lat": 38.917151833333335, "bike_id": "49308bed671d15001d3ef11aa4ec1962", "fusion_lon": 0.0}, {"rental_uris": {"ios": "https://dc.lft.to/lastmile_qr_scan", "android": "https://dc.lft.to/lastmile_qr_scan"}, "type": "electric_scooter", "name": "87398e19cc429de402a3ebcb939aad91", "is_reserved": 0, "lon": -77.03071333333334, "is_disabled": 0, "fusion_lat": 0.0, "lat": 38.93876733333333, "bike_id": "87398e19cc429de402a3ebcb939aad91", "fusion_lon": 0.0}, {"rental_uris": {"ios": "https://dc.lft.to/lastmile_qr_scan", "android": "https://dc.lft.to/lastmile_qr_scan"}, "type": "electric_scooter", "name": "8d7e63ee189205d354ab97d563d00de5", "is_reserved": 0, "lon": -77.022416, "is_disabled": 0, "fusion_lat": 0.0, "lat": 38.90869583333333, "bike_id": "8d7e63ee189205d354ab97d563d00de5", "fusion_lon": 0.0}, {"rental_uris": {"ios": "https://dc.lft.to/lastmile_qr_scan", "android": "https://dc.lft.to/lastmile_qr_scan"}, "type": "electric_scooter", "name": "a935caa6a4c236d7ecca550921fe6439", "is_reserved": 0, "lon": -77.02804683333333, "is_disabled": 0, "fusion_lat": 0.0, "lat": 38.934677, "bike_id": "a935caa6a4c236d7ecca550921fe6439", "fusion_lon": 0.0}, {"rental_uris": {"ios": "https://dc.lft.to/lastmile_qr_scan", "android": "https://dc.lft.to/lastmile_qr_scan"}, "type": "electric_scooter", "name": "9de09424611d2c2d5e420ea0c9e01be0", "is_reserved": 0, "lon": -77.04317633333334, "is_disabled": 0, "fusion_lat": 0.0, "lat": 38.922205166666664, "bike_id": "9de09424611d2c2d5e420ea0c9e01be0", "fusion_lon": 0.0}, {"rental_uris": {"ios": "https://dc.lft.to/lastmile_qr_scan", "android": "https://dc.lft.to/lastmile_qr_scan"}, "type": "electric_scooter", "name": "27529cfab3f56dfc04ea7ba7cd9e468c", "is_reserved": 0, "lon": -77.041251, "is_disabled": 0, "fusion_lat": 0.0, "lat": 38.93106383333333, "bike_id": "27529cfab3f56dfc04ea7ba7cd9e468c", "fusion_lon": 0.0}, {"rental_uris": {"ios": "https://dc.lft.to/lastmile_qr_scan", "android": "https://dc.lft.to/lastmile_qr_scan"}, "type": "electric_scooter", "name": "192bd765ffb0088c312caf00c0160046", "is_reserved": 0, "lon": -77.04679233333333, "is_disabled": 0, "fusion_lat": 0.0, "lat": 38.892383833333334, "bike_id": "192bd765ffb0088c312caf00c0160046", "fusion_lon": 0.0}, {"rental_uris": {"ios": "https://dc.lft.to/lastmile_qr_scan", "android": "https://dc.lft.to/lastmile_qr_scan"}, "type": "electric_scooter", "name": "86546364240096d1aa5d0ed983a592d4", "is_reserved": 0, "lon": -77.0467875, "is_disabled": 0, "fusion_lat": 0.0, "lat": 38.892360333333336, "bike_id": "86546364240096d1aa5d0ed983a592d4", "fusion_lon": 0.0}, {"rental_uris": {"ios": "https://dc.lft.to/lastmile_qr_scan", "android": "https://dc.lft.to/lastmile_qr_scan"}, "type": "electric_scooter", "name": "acb38cffde805dda7293bec775a3356f", "is_reserved": 0, "lon": -76.98495516666667, "is_disabled": 0, "fusion_lat": 0.0, "lat": 38.92012166666667, "bike_id": "acb38cffde805dda7293bec775a3356f", "fusion_lon": 0.0}, {"rental_uris": {"ios": "https://dc.lft.to/lastmile_qr_scan", "android": "https://dc.lft.to/lastmile_qr_scan"}, "type": "electric_scooter", "name": "d2ad14fc10cf9ad25e0fdac62f877ce5", "is_reserved": 0, "lon": -77.04028016666666, "is_disabled": 0, "fusion_lat": 0.0, "lat": 38.922580833333335, "bike_id": "d2ad14fc10cf9ad25e0fdac62f877ce5", "fusion_lon": 0.0}, {"rental_uris": {"ios": "https://dc.lft.to/lastmile_qr_scan", "android": "https://dc.lft.to/lastmile_qr_scan"}, "type": "electric_scooter", "name": "db0b70b1f263c1266373ef8acbb7d6f1", "is_reserved": 0, "lon": -77.02177266666666, "is_disabled": 0, "fusion_lat": 0.0, "lat": 38.8948945, "bike_id": "db0b70b1f263c1266373ef8acbb7d6f1", "fusion_lon": 0.0}, {"rental_uris": {"ios": "https://dc.lft.to/lastmile_qr_scan", "android": "https://dc.lft.to/lastmile_qr_scan"}, "type": "electric_scooter", "name": "61389b6a829666052ec23555cbd52311", "is_reserved": 0, "lon": -77.03045233333333, "is_disabled": 0, "fusion_lat": 0.0, "lat": 38.884355166666666, "bike_id": "61389b6a829666052ec23555cbd52311", "fusion_lon": 0.0}, {"rental_uris": {"ios": "https://dc.lft.to/lastmile_qr_scan", "android": "https://dc.lft.to/lastmile_qr_scan"}, "type": "electric_scooter", "name": "1ea4132380c168513926b443e93a61a6", "is_reserved": 0, "lon": -77.02057733333334, "is_disabled": 0, "fusion_lat": 0.0, "lat": 38.924125833333335, "bike_id": "1ea4132380c168513926b443e93a61a6", "fusion_lon": 0.0}, {"rental_uris": {"ios": "https://dc.lft.to/lastmile_qr_scan", "android": "https://dc.lft.to/lastmile_qr_scan"}, "type": "electric_scooter", "name": "c63503b98306937f861f9678adcfb7d6", "is_reserved": 0, "lon": -77.0158915, "is_disabled": 0, "fusion_lat": 0.0, "lat": 38.87227566666667, "bike_id": "c63503b98306937f861f9678adcfb7d6", "fusion_lon": 0.0}, {"rental_uris": {"ios": "https://dc.lft.to/lastmile_qr_scan", "android": "https://dc.lft.to/lastmile_qr_scan"}, "type": "electric_scooter", "name": "f3aaabe70d59e5a2607f7e6fcab9dc5e", "is_reserved": 0, "lon": -77.03953716666666, "is_disabled": 0, "fusion_lat": 0.0, "lat": 38.8925145, "bike_id": "f3aaabe70d59e5a2607f7e6fcab9dc5e", "fusion_lon": 0.0}, {"rental_uris": {"ios": "https://dc.lft.to/lastmile_qr_scan", "android": "https://dc.lft.to/lastmile_qr_scan"}, "type": "electric_scooter", "name": "2689b02fba5759eaccd52299c21bec1d", "is_reserved": 0, "lon": -77.07598, "is_disabled": 0, "fusion_lat": 0.0, "lat": 38.937602, "bike_id": "2689b02fba5759eaccd52299c21bec1d", "fusion_lon": 0.0}, {"rental_uris": {"ios": "https://dc.lft.to/lastmile_qr_scan", "android": "https://dc.lft.to/lastmile_qr_scan"}, "type": "electric_scooter", "name": "8a10ccf3b6b2c7e18dfc06d07bbafe63", "is_reserved": 0, "lon": -76.92949666666667, "is_disabled": 0, "fusion_lat": 0.0, "lat": 38.903403, "bike_id": "8a10ccf3b6b2c7e18dfc06d07bbafe63", "fusion_lon": 0.0}, {"rental_uris": {"ios": "https://dc.lft.to/lastmile_qr_scan", "android": "https://dc.lft.to/lastmile_qr_scan"}, "type": "electric_scooter", "name": "29709761bab49d7b30a329908b8cfd77", "is_reserved": 0, "lon": -77.03067766666666, "is_disabled": 0, "fusion_lat": 0.0, "lat": 38.922555833333334, "bike_id": "29709761bab49d7b30a329908b8cfd77", "fusion_lon": 0.0}, {"rental_uris": {"ios": "https://dc.lft.to/lastmile_qr_scan", "android": "https://dc.lft.to/lastmile_qr_scan"}, "type": "electric_scooter", "name": "cb35e876b7d66c123af1ac0bb4c681de", "is_reserved": 0, "lon": -77.02314266666667, "is_disabled": 0, "fusion_lat": 0.0, "lat": 38.91788, "bike_id": "cb35e876b7d66c123af1ac0bb4c681de", "fusion_lon": 0.0}, {"rental_uris": {"ios": "https://dc.lft.to/lastmile_qr_scan", "android": "https://dc.lft.to/lastmile_qr_scan"}, "type": "electric_scooter", "name": "b76f0d631c90e6fdf53aff43f41fb8d0", "is_reserved": 0, "lon": -77.04802766666667, "is_disabled": 0, "fusion_lat": 0.0, "lat": 38.89227966666667, "bike_id": "b76f0d631c90e6fdf53aff43f41fb8d0", "fusion_lon": 0.0}, {"rental_uris": {"ios": "https://dc.lft.to/lastmile_qr_scan", "android": "https://dc.lft.to/lastmile_qr_scan"}, "type": "electric_scooter", "name": "1ecb3188a7d9cd3fff4c24bd3211d9eb", "is_reserved": 0, "lon": -76.993986, "is_disabled": 0, "fusion_lat": 0.0, "lat": 38.923115, "bike_id": "1ecb3188a7d9cd3fff4c24bd3211d9eb", "fusion_lon": 0.0}, {"rental_uris": {"ios": "https://dc.lft.to/lastmile_qr_scan", "android": "https://dc.lft.to/lastmile_qr_scan"}, "type": "electric_scooter", "name": "975ba924e03e493394d80ed800e496a0", "is_reserved": 0, "lon": -77.0374615, "is_disabled": 0, "fusion_lat": 0.0, "lat": 38.92916316666667, "bike_id": "975ba924e03e493394d80ed800e496a0", "fusion_lon": 0.0}, {"rental_uris": {"ios": "https://dc.lft.to/lastmile_qr_scan", "android": "https://dc.lft.to/lastmile_qr_scan"}, "type": "electric_scooter", "name": "4f1b5681358f0290f156030ff1f1f1e2", "is_reserved": 0, "lon": -76.98557066666666, "is_disabled": 0, "fusion_lat": 0.0, "lat": 38.889956833333336, "bike_id": "4f1b5681358f0290f156030ff1f1f1e2", "fusion_lon": 0.0}, {"rental_uris": {"ios": "https://dc.lft.to/lastmile_qr_scan", "android": "https://dc.lft.to/lastmile_qr_scan"}, "type": "electric_scooter", "name": "3ebe99ad68a7acefd593ebb75b9bcca4", "is_reserved": 0, "lon": -77.03503333333333, "is_disabled": 0, "fusion_lat": 0.0, "lat": 38.92864433333333, "bike_id": "3ebe99ad68a7acefd593ebb75b9bcca4", "fusion_lon": 0.0}, {"rental_uris": {"ios": "https://dc.lft.to/lastmile_qr_scan", "android": "https://dc.lft.to/lastmile_qr_scan"}, "type": "electric_scooter", "name": "a692ac97d59962b05a87a01aa99d4f07", "is_reserved": 0, "lon": -77.02388733333333, "is_disabled": 0, "fusion_lat": 0.0, "lat": 38.906442, "bike_id": "a692ac97d59962b05a87a01aa99d4f07", "fusion_lon": 0.0}, {"rental_uris": {"ios": "https://dc.lft.to/lastmile_qr_scan", "android": "https://dc.lft.to/lastmile_qr_scan"}, "type": "electric_scooter", "name": "1cbc7499ef1bcca179b519b04fe020f5", "is_reserved": 0, "lon": -77.04097583333333, "is_disabled": 0, "fusion_lat": 0.0, "lat": 38.92400083333333, "bike_id": "1cbc7499ef1bcca179b519b04fe020f5", "fusion_lon": 0.0}, {"rental_uris": {"ios": "https://dc.lft.to/lastmile_qr_scan", "android": "https://dc.lft.to/lastmile_qr_scan"}, "type": "electric_scooter", "name": "f952e6d51c672af1acc1e451b1558a17", "is_reserved": 0, "lon": -77.07357016666667, "is_disabled": 0, "fusion_lat": 0.0, "lat": 38.91104833333333, "bike_id": "f952e6d51c672af1acc1e451b1558a17", "fusion_lon": 0.0}, {"rental_uris": {"ios": "https://dc.lft.to/lastmile_qr_scan", "android": "https://dc.lft.to/lastmile_qr_scan"}, "type": "electric_scooter", "name": "603cf7fb385cf3155aa31a90804d5240", "is_reserved": 0, "lon": -77.039097, "is_disabled": 0, "fusion_lat": 0.0, "lat": 38.90821016666666, "bike_id": "603cf7fb385cf3155aa31a90804d5240", "fusion_lon": 0.0}, {"rental_uris": {"ios": "https://dc.lft.to/lastmile_qr_scan", "android": "https://dc.lft.to/lastmile_qr_scan"}, "type": "electric_scooter", "name": "e3b5d1b82f0dfb733ea66b9e640968e4", "is_reserved": 0, "lon": -76.98450333333334, "is_disabled": 0, "fusion_lat": 0.0, "lat": 38.914673, "bike_id": "e3b5d1b82f0dfb733ea66b9e640968e4", "fusion_lon": 0.0}, {"rental_uris": {"ios": "https://dc.lft.to/lastmile_qr_scan", "android": "https://dc.lft.to/lastmile_qr_scan"}, "type": "electric_scooter", "name": "12ece0775b7701fd82c972cb20888228", "is_reserved": 0, "lon": -77.00500916666667, "is_disabled": 0, "fusion_lat": 0.0, "lat": 38.90579433333333, "bike_id": "12ece0775b7701fd82c972cb20888228", "fusion_lon": 0.0}, {"rental_uris": {"ios": "https://dc.lft.to/lastmile_qr_scan", "android": "https://dc.lft.to/lastmile_qr_scan"}, "type": "electric_scooter", "name": "86360e021a0d7d0d21ba26754baa2547", "is_reserved": 0, "lon": -77.02444733333333, "is_disabled": 0, "fusion_lat": 0.0, "lat": 38.93777633333333, "bike_id": "86360e021a0d7d0d21ba26754baa2547", "fusion_lon": 0.0}, {"rental_uris": {"ios": "https://dc.lft.to/lastmile_qr_scan", "android": "https://dc.lft.to/lastmile_qr_scan"}, "type": "electric_scooter", "name": "31f463487991f5992bd465f118857a00", "is_reserved": 0, "lon": -77.05329966666666, "is_disabled": 0, "fusion_lat": 0.0, "lat": 38.90732416666667, "bike_id": "31f463487991f5992bd465f118857a00", "fusion_lon": 0.0}, {"rental_uris": {"ios": "https://dc.lft.to/lastmile_qr_scan", "android": "https://dc.lft.to/lastmile_qr_scan"}, "type": "electric_scooter", "name": "d4a01a2b268a7545e4a2c1acd87911cc", "is_reserved": 0, "lon": -76.9472065, "is_disabled": 0, "fusion_lat": 0.0, "lat": 38.890851833333336, "bike_id": "d4a01a2b268a7545e4a2c1acd87911cc", "fusion_lon": 0.0}, {"rental_uris": {"ios": "https://dc.lft.to/lastmile_qr_scan", "android": "https://dc.lft.to/lastmile_qr_scan"}, "type": "electric_scooter", "name": "bfbffd50b8dd57df7d3d3fbacaef3f14", "is_reserved": 0, "lon": -77.0386345, "is_disabled": 0, "fusion_lat": 0.0, "lat": 38.911162833333336, "bike_id": "bfbffd50b8dd57df7d3d3fbacaef3f14", "fusion_lon": 0.0}, {"rental_uris": {"ios": "https://dc.lft.to/lastmile_qr_scan", "android": "https://dc.lft.to/lastmile_qr_scan"}, "type": "electric_scooter", "name": "65e2210803e8f8181710e71c9d704021", "is_reserved": 0, "lon": -77.02792183333334, "is_disabled": 0, "fusion_lat": 0.0, "lat": 38.927830166666666, "bike_id": "65e2210803e8f8181710e71c9d704021", "fusion_lon": 0.0}, {"rental_uris": {"ios": "https://dc.lft.to/lastmile_qr_scan", "android": "https://dc.lft.to/lastmile_qr_scan"}, "type": "electric_scooter", "name": "c2ed0011f279eb1f2c45f1370882fd79", "is_reserved": 0, "lon": -77.0335315, "is_disabled": 0, "fusion_lat": 0.0, "lat": 38.892435166666665, "bike_id": "c2ed0011f279eb1f2c45f1370882fd79", "fusion_lon": 0.0}, {"rental_uris": {"ios": "https://dc.lft.to/lastmile_qr_scan", "android": "https://dc.lft.to/lastmile_qr_scan"}, "type": "electric_scooter", "name": "73ad4e709df1b2c65cae6334c59ffd26", "is_reserved": 0, "lon": -77.03135183333333, "is_disabled": 0, "fusion_lat": 0.0, "lat": 38.918191666666665, "bike_id": "73ad4e709df1b2c65cae6334c59ffd26", "fusion_lon": 0.0}, {"rental_uris": {"ios": "https://dc.lft.to/lastmile_qr_scan", "android": "https://dc.lft.to/lastmile_qr_scan"}, "type": "electric_scooter", "name": "e53f3a6b566f7d807869be0807cb819d", "is_reserved": 0, "lon": -77.04553233333333, "is_disabled": 0, "fusion_lat": 0.0, "lat": 38.909764, "bike_id": "e53f3a6b566f7d807869be0807cb819d", "fusion_lon": 0.0}, {"rental_uris": {"ios": "https://dc.lft.to/lastmile_qr_scan", "android": "https://dc.lft.to/lastmile_qr_scan"}, "type": "electric_scooter", "name": "df0527e3dba27fa488265d5bbd851418", "is_reserved": 0, "lon": -77.04367733333333, "is_disabled": 0, "fusion_lat": 0.0, "lat": 38.911239, "bike_id": "df0527e3dba27fa488265d5bbd851418", "fusion_lon": 0.0}, {"rental_uris": {"ios": "https://dc.lft.to/lastmile_qr_scan", "android": "https://dc.lft.to/lastmile_qr_scan"}, "type": "electric_scooter", "name": "2fe421e1fc17e09b3dc55e1a6885db57", "is_reserved": 0, "lon": -77.0321015, "is_disabled": 0, "fusion_lat": 0.0, "lat": 38.91542166666667, "bike_id": "2fe421e1fc17e09b3dc55e1a6885db57", "fusion_lon": 0.0}, {"rental_uris": {"ios": "https://dc.lft.to/lastmile_qr_scan", "android": "https://dc.lft.to/lastmile_qr_scan"}, "type": "electric_bike", "name": "50e4fa8d22541b176bb4f6a67869d8dc", "is_reserved": 0, "lon": -76.95745266666667, "is_disabled": 0, "fusion_lat": 0.0, "lat": 38.8886325, "bike_id": "50e4fa8d22541b176bb4f6a67869d8dc", "fusion_lon": 0.0}, {"rental_uris": {"ios": "https://dc.lft.to/lastmile_qr_scan", "android": "https://dc.lft.to/lastmile_qr_scan"}, "type": "electric_scooter", "name": "03fe12f54ea08ffdd380d1063c52c21e", "is_reserved": 0, "lon": -77.0395665, "is_disabled": 0, "fusion_lat": 0.0, "lat": 38.89252483333333, "bike_id": "03fe12f54ea08ffdd380d1063c52c21e", "fusion_lon": 0.0}, {"rental_uris": {"ios": "https://dc.lft.to/lastmile_qr_scan", "android": "https://dc.lft.to/lastmile_qr_scan"}, "type": "electric_scooter", "name": "1f668b6fab9adafb3987a38531806dfb", "is_reserved": 0, "lon": -77.06779166666666, "is_disabled": 0, "fusion_lat": 0.0, "lat": 38.908810833333334, "bike_id": "1f668b6fab9adafb3987a38531806dfb", "fusion_lon": 0.0}, {"rental_uris": {"ios": "https://dc.lft.to/lastmile_qr_scan", "android": "https://dc.lft.to/lastmile_qr_scan"}, "type": "electric_scooter", "name": "d4106b5792613bac2414a60be95fd4ec", "is_reserved": 0, "lon": -77.02988566666667, "is_disabled": 0, "fusion_lat": 0.0, "lat": 38.92383233333334, "bike_id": "d4106b5792613bac2414a60be95fd4ec", "fusion_lon": 0.0}, {"rental_uris": {"ios": "https://dc.lft.to/lastmile_qr_scan", "android": "https://dc.lft.to/lastmile_qr_scan"}, "type": "electric_scooter", "name": "d3e92e3235a1b8ad6cb9ffaacc08bb84", "is_reserved": 0, "lon": -77.03749833333333, "is_disabled": 0, "fusion_lat": 0.0, "lat": 38.93211, "bike_id": "d3e92e3235a1b8ad6cb9ffaacc08bb84", "fusion_lon": 0.0}, {"rental_uris": {"ios": "https://dc.lft.to/lastmile_qr_scan", "android": "https://dc.lft.to/lastmile_qr_scan"}, "type": "electric_scooter", "name": "01326dc9b205852e6fb67958f02b6f54", "is_reserved": 0, "lon": -77.04197416666666, "is_disabled": 0, "fusion_lat": 0.0, "lat": 38.9037255, "bike_id": "01326dc9b205852e6fb67958f02b6f54", "fusion_lon": 0.0}, {"rental_uris": {"ios": "https://dc.lft.to/lastmile_qr_scan", "android": "https://dc.lft.to/lastmile_qr_scan"}, "type": "electric_scooter", "name": "df07f46620ef3f0d87d9f3218e23a7cc", "is_reserved": 0, "lon": -76.92896466666667, "is_disabled": 0, "fusion_lat": 0.0, "lat": 38.879486, "bike_id": "df07f46620ef3f0d87d9f3218e23a7cc", "fusion_lon": 0.0}, {"rental_uris": {"ios": "https://dc.lft.to/lastmile_qr_scan", "android": "https://dc.lft.to/lastmile_qr_scan"}, "type": "electric_scooter", "name": "67d071103ce54c8158da00d93acb7deb", "is_reserved": 0, "lon": -77.0098025, "is_disabled": 0, "fusion_lat": 0.0, "lat": 38.90572233333333, "bike_id": "67d071103ce54c8158da00d93acb7deb", "fusion_lon": 0.0}, {"rental_uris": {"ios": "https://dc.lft.to/lastmile_qr_scan", "android": "https://dc.lft.to/lastmile_qr_scan"}, "type": "electric_scooter", "name": "da505468eb1ca2fa13ece6b1a9637d8a", "is_reserved": 0, "lon": -77.03175833333333, "is_disabled": 0, "fusion_lat": 0.0, "lat": 38.919284, "bike_id": "da505468eb1ca2fa13ece6b1a9637d8a", "fusion_lon": 0.0}, {"rental_uris": {"ios": "https://dc.lft.to/lastmile_qr_scan", "android": "https://dc.lft.to/lastmile_qr_scan"}, "type": "electric_scooter", "name": "77412e68e5fbf728204f7626d5812064", "is_reserved": 0, "lon": -77.0247545, "is_disabled": 0, "fusion_lat": 0.0, "lat": 38.918153833333335, "bike_id": "77412e68e5fbf728204f7626d5812064", "fusion_lon": 0.0}, {"rental_uris": {"ios": "https://dc.lft.to/lastmile_qr_scan", "android": "https://dc.lft.to/lastmile_qr_scan"}, "type": "electric_scooter", "name": "edd0fe3f2c4cfd098d1b28206103243d", "is_reserved": 0, "lon": -77.036578, "is_disabled": 0, "fusion_lat": 0.0, "lat": 38.9350385, "bike_id": "edd0fe3f2c4cfd098d1b28206103243d", "fusion_lon": 0.0}, {"rental_uris": {"ios": "https://dc.lft.to/lastmile_qr_scan", "android": "https://dc.lft.to/lastmile_qr_scan"}, "type": "electric_scooter", "name": "06feaa086c585b7261cee4bb72bc38e3", "is_reserved": 0, "lon": -77.030727, "is_disabled": 0, "fusion_lat": 0.0, "lat": 38.93457466666667, "bike_id": "06feaa086c585b7261cee4bb72bc38e3", "fusion_lon": 0.0}, {"rental_uris": {"ios": "https://dc.lft.to/lastmile_qr_scan", "android": "https://dc.lft.to/lastmile_qr_scan"}, "type": "electric_scooter", "name": "04bc4d449978af8d8535d7757b39a874", "is_reserved": 0, "lon": -77.008846, "is_disabled": 0, "fusion_lat": 0.0, "lat": 38.9171705, "bike_id": "04bc4d449978af8d8535d7757b39a874", "fusion_lon": 0.0}, {"rental_uris": {"ios": "https://dc.lft.to/lastmile_qr_scan", "android": "https://dc.lft.to/lastmile_qr_scan"}, "type": "electric_scooter", "name": "64636cd681bdc744abe2e83c8672df4f", "is_reserved": 0, "lon": -77.04485933333333, "is_disabled": 0, "fusion_lat": 0.0, "lat": 38.90018366666666, "bike_id": "64636cd681bdc744abe2e83c8672df4f", "fusion_lon": 0.0}, {"rental_uris": {"ios": "https://dc.lft.to/lastmile_qr_scan", "android": "https://dc.lft.to/lastmile_qr_scan"}, "type": "electric_scooter", "name": "3f5fe1cb9dc9a8ed320adb815232da10", "is_reserved": 0, "lon": -77.03201766666666, "is_disabled": 0, "fusion_lat": 0.0, "lat": 38.908301333333334, "bike_id": "3f5fe1cb9dc9a8ed320adb815232da10", "fusion_lon": 0.0}, {"rental_uris": {"ios": "https://dc.lft.to/lastmile_qr_scan", "android": "https://dc.lft.to/lastmile_qr_scan"}, "type": "electric_scooter", "name": "e29bbbba068cbe7d162f886aadbd20f0", "is_reserved": 0, "lon": -77.0642165, "is_disabled": 0, "fusion_lat": 0.0, "lat": 38.91407266666667, "bike_id": "e29bbbba068cbe7d162f886aadbd20f0", "fusion_lon": 0.0}, {"rental_uris": {"ios": "https://dc.lft.to/lastmile_qr_scan", "android": "https://dc.lft.to/lastmile_qr_scan"}, "type": "electric_scooter", "name": "74d9e7934aedeea4bf73ae50ad6da7d9", "is_reserved": 0, "lon": -77.00558133333334, "is_disabled": 0, "fusion_lat": 0.0, "lat": 38.87473466666667, "bike_id": "74d9e7934aedeea4bf73ae50ad6da7d9", "fusion_lon": 0.0}, {"rental_uris": {"ios": "https://dc.lft.to/lastmile_qr_scan", "android": "https://dc.lft.to/lastmile_qr_scan"}, "type": "electric_scooter", "name": "7e588d81f089085910f864d48359f10b", "is_reserved": 0, "lon": -77.02335666666667, "is_disabled": 0, "fusion_lat": 0.0, "lat": 38.9223515, "bike_id": "7e588d81f089085910f864d48359f10b", "fusion_lon": 0.0}, {"rental_uris": {"ios": "https://dc.lft.to/lastmile_qr_scan", "android": "https://dc.lft.to/lastmile_qr_scan"}, "type": "electric_scooter", "name": "4c94527d3bbfe8ee0b16f883932e3e4d", "is_reserved": 0, "lon": -77.0060075, "is_disabled": 0, "fusion_lat": 0.0, "lat": 38.90566783333333, "bike_id": "4c94527d3bbfe8ee0b16f883932e3e4d", "fusion_lon": 0.0}, {"rental_uris": {"ios": "https://dc.lft.to/lastmile_qr_scan", "android": "https://dc.lft.to/lastmile_qr_scan"}, "type": "electric_scooter", "name": "9ad3beb0a93672c5eec9ab6dfaf4fc54", "is_reserved": 0, "lon": -77.03388833333334, "is_disabled": 0, "fusion_lat": 0.0, "lat": 38.902717333333335, "bike_id": "9ad3beb0a93672c5eec9ab6dfaf4fc54", "fusion_lon": 0.0}, {"rental_uris": {"ios": "https://dc.lft.to/lastmile_qr_scan", "android": "https://dc.lft.to/lastmile_qr_scan"}, "type": "electric_scooter", "name": "650b91757b73cd9af0358cf2c7203e3a", "is_reserved": 0, "lon": -77.0247365, "is_disabled": 0, "fusion_lat": 0.0, "lat": 38.90255716666667, "bike_id": "650b91757b73cd9af0358cf2c7203e3a", "fusion_lon": 0.0}, {"rental_uris": {"ios": "https://dc.lft.to/lastmile_qr_scan", "android": "https://dc.lft.to/lastmile_qr_scan"}, "type": "electric_scooter", "name": "fc468e05e51e4a5d2eed23962f8a5f80", "is_reserved": 0, "lon": -77.0389135, "is_disabled": 0, "fusion_lat": 0.0, "lat": 38.903678166666666, "bike_id": "fc468e05e51e4a5d2eed23962f8a5f80", "fusion_lon": 0.0}, {"rental_uris": {"ios": "https://dc.lft.to/lastmile_qr_scan", "android": "https://dc.lft.to/lastmile_qr_scan"}, "type": "electric_scooter", "name": "e9ffa6ac19a730debafdc76b6d505ee2", "is_reserved": 0, "lon": -77.05323966666667, "is_disabled": 0, "fusion_lat": 0.0, "lat": 38.906440833333335, "bike_id": "e9ffa6ac19a730debafdc76b6d505ee2", "fusion_lon": 0.0}, {"rental_uris": {"ios": "https://dc.lft.to/lastmile_qr_scan", "android": "https://dc.lft.to/lastmile_qr_scan"}, "type": "electric_scooter", "name": "979728460d8ec1a9aa0f48ca8ab46a35", "is_reserved": 0, "lon": -77.0299705, "is_disabled": 0, "fusion_lat": 0.0, "lat": 38.9170955, "bike_id": "979728460d8ec1a9aa0f48ca8ab46a35", "fusion_lon": 0.0}, {"rental_uris": {"ios": "https://dc.lft.to/lastmile_qr_scan", "android": "https://dc.lft.to/lastmile_qr_scan"}, "type": "electric_scooter", "name": "6eb8e6fa9d335033020a70a0ea462eb8", "is_reserved": 0, "lon": -77.02106833333333, "is_disabled": 0, "fusion_lat": 0.0, "lat": 38.9667785, "bike_id": "6eb8e6fa9d335033020a70a0ea462eb8", "fusion_lon": 0.0}, {"rental_uris": {"ios": "https://dc.lft.to/lastmile_qr_scan", "android": "https://dc.lft.to/lastmile_qr_scan"}, "type": "electric_scooter", "name": "53c7b8c16d7b7e78bcdeb817219af95b", "is_reserved": 0, "lon": -76.99031083333334, "is_disabled": 0, "fusion_lat": 0.0, "lat": 38.88888683333333, "bike_id": "53c7b8c16d7b7e78bcdeb817219af95b", "fusion_lon": 0.0}, {"rental_uris": {"ios": "https://dc.lft.to/lastmile_qr_scan", "android": "https://dc.lft.to/lastmile_qr_scan"}, "type": "electric_scooter", "name": "099bc0199b2961456f25825b04c27d6d", "is_reserved": 0, "lon": -77.00750583333334, "is_disabled": 0, "fusion_lat": 0.0, "lat": 38.91122933333333, "bike_id": "099bc0199b2961456f25825b04c27d6d", "fusion_lon": 0.0}, {"rental_uris": {"ios": "https://dc.lft.to/lastmile_qr_scan", "android": "https://dc.lft.to/lastmile_qr_scan"}, "type": "electric_bike", "name": "2b6193e7fabc82709f3abd238628119f", "is_reserved": 0, "lon": -76.99370083333334, "is_disabled": 0, "fusion_lat": 0.0, "lat": 38.927338166666665, "bike_id": "2b6193e7fabc82709f3abd238628119f", "fusion_lon": 0.0}, {"rental_uris": {"ios": "https://dc.lft.to/lastmile_qr_scan", "android": "https://dc.lft.to/lastmile_qr_scan"}, "type": "electric_bike", "name": "816c3821504b9cbb30bbf3a3987a41fb", "is_reserved": 0, "lon": -77.01921316666666, "is_disabled": 0, "fusion_lat": 0.0, "lat": 38.9766635, "bike_id": "816c3821504b9cbb30bbf3a3987a41fb", "fusion_lon": 0.0}, {"rental_uris": {"ios": "https://dc.lft.to/lastmile_qr_scan", "android": "https://dc.lft.to/lastmile_qr_scan"}, "type": "electric_scooter", "name": "ece95c253d6986aed4a5fcd2afe2018b", "is_reserved": 0, "lon": -76.98545966666667, "is_disabled": 0, "fusion_lat": 0.0, "lat": 38.91459433333333, "bike_id": "ece95c253d6986aed4a5fcd2afe2018b", "fusion_lon": 0.0}, {"rental_uris": {"ios": "https://dc.lft.to/lastmile_qr_scan", "android": "https://dc.lft.to/lastmile_qr_scan"}, "type": "electric_bike", "name": "f94197dda7876ab53ab44b1c32f6036e", "is_reserved": 0, "lon": -77.02069433333334, "is_disabled": 0, "fusion_lat": 0.0, "lat": 38.964465833333335, "bike_id": "f94197dda7876ab53ab44b1c32f6036e", "fusion_lon": 0.0}, {"rental_uris": {"ios": "https://dc.lft.to/lastmile_qr_scan", "android": "https://dc.lft.to/lastmile_qr_scan"}, "type": "electric_scooter", "name": "a2c5a75b7721e3a1a0d1d450cfeea0d9", "is_reserved": 0, "lon": -77.02409066666667, "is_disabled": 0, "fusion_lat": 0.0, "lat": 38.917232166666665, "bike_id": "a2c5a75b7721e3a1a0d1d450cfeea0d9", "fusion_lon": 0.0}, {"rental_uris": {"ios": "https://dc.lft.to/lastmile_qr_scan", "android": "https://dc.lft.to/lastmile_qr_scan"}, "type": "electric_scooter", "name": "62a17f40451d251db2bd0973a9a0ab07", "is_reserved": 0, "lon": -77.0362265, "is_disabled": 0, "fusion_lat": 0.0, "lat": 38.94290383333333, "bike_id": "62a17f40451d251db2bd0973a9a0ab07", "fusion_lon": 0.0}, {"rental_uris": {"ios": "https://dc.lft.to/lastmile_qr_scan", "android": "https://dc.lft.to/lastmile_qr_scan"}, "type": "electric_scooter", "name": "a06122cbfcf39c2b91756eb41a077bcf", "is_reserved": 0, "lon": -76.98693183333333, "is_disabled": 0, "fusion_lat": 0.0, "lat": 38.907047666666664, "bike_id": "a06122cbfcf39c2b91756eb41a077bcf", "fusion_lon": 0.0}, {"rental_uris": {"ios": "https://dc.lft.to/lastmile_qr_scan", "android": "https://dc.lft.to/lastmile_qr_scan"}, "type": "electric_scooter", "name": "d15b909f5b64242ea667f2bce1575d48", "is_reserved": 0, "lon": -77.02634983333333, "is_disabled": 0, "fusion_lat": 0.0, "lat": 38.896141166666666, "bike_id": "d15b909f5b64242ea667f2bce1575d48", "fusion_lon": 0.0}, {"rental_uris": {"ios": "https://dc.lft.to/lastmile_qr_scan", "android": "https://dc.lft.to/lastmile_qr_scan"}, "type": "electric_scooter", "name": "d2e6793f7035bade32c97761ea606018", "is_reserved": 0, "lon": -77.02299266666667, "is_disabled": 0, "fusion_lat": 0.0, "lat": 38.9179, "bike_id": "d2e6793f7035bade32c97761ea606018", "fusion_lon": 0.0}, {"rental_uris": {"ios": "https://dc.lft.to/lastmile_qr_scan", "android": "https://dc.lft.to/lastmile_qr_scan"}, "type": "electric_scooter", "name": "4354aef0f4a404bd5a4590303f7de6fd", "is_reserved": 0, "lon": -76.991589, "is_disabled": 0, "fusion_lat": 0.0, "lat": 38.900414166666664, "bike_id": "4354aef0f4a404bd5a4590303f7de6fd", "fusion_lon": 0.0}, {"rental_uris": {"ios": "https://dc.lft.to/lastmile_qr_scan", "android": "https://dc.lft.to/lastmile_qr_scan"}, "type": "electric_scooter", "name": "6eff07c641fbd083ca043a7a900b7bbd", "is_reserved": 0, "lon": -77.01758783333334, "is_disabled": 0, "fusion_lat": 0.0, "lat": 38.90271383333334, "bike_id": "6eff07c641fbd083ca043a7a900b7bbd", "fusion_lon": 0.0}, {"rental_uris": {"ios": "https://dc.lft.to/lastmile_qr_scan", "android": "https://dc.lft.to/lastmile_qr_scan"}, "type": "electric_scooter", "name": "798c74ef97beede01366524298c5d32b", "is_reserved": 0, "lon": -77.001847, "is_disabled": 0, "fusion_lat": 0.0, "lat": 38.90028083333333, "bike_id": "798c74ef97beede01366524298c5d32b", "fusion_lon": 0.0}, {"rental_uris": {"ios": "https://dc.lft.to/lastmile_qr_scan", "android": "https://dc.lft.to/lastmile_qr_scan"}, "type": "electric_scooter", "name": "0e01c6721a4a7ebeaa46a6cac830f002", "is_reserved": 0, "lon": -77.00351216666667, "is_disabled": 0, "fusion_lat": 0.0, "lat": 38.9086505, "bike_id": "0e01c6721a4a7ebeaa46a6cac830f002", "fusion_lon": 0.0}, {"rental_uris": {"ios": "https://dc.lft.to/lastmile_qr_scan", "android": "https://dc.lft.to/lastmile_qr_scan"}, "type": "electric_bike", "name": "6d6055bfcedf45802c71751f32d3bb54", "is_reserved": 0, "lon": -76.9877175, "is_disabled": 0, "fusion_lat": 0.0, "lat": 38.8577325, "bike_id": "6d6055bfcedf45802c71751f32d3bb54", "fusion_lon": 0.0}, {"rental_uris": {"ios": "https://dc.lft.to/lastmile_qr_scan", "android": "https://dc.lft.to/lastmile_qr_scan"}, "type": "electric_scooter", "name": "31401f0d75e35eda8cce50bd26d5af00", "is_reserved": 0, "lon": -77.033485, "is_disabled": 0, "fusion_lat": 0.0, "lat": 38.92248283333333, "bike_id": "31401f0d75e35eda8cce50bd26d5af00", "fusion_lon": 0.0}, {"rental_uris": {"ios": "https://dc.lft.to/lastmile_qr_scan", "android": "https://dc.lft.to/lastmile_qr_scan"}, "type": "electric_scooter", "name": "2d37abe2944ee8ebc0ca5ac9e0364bd4", "is_reserved": 0, "lon": -77.04606333333334, "is_disabled": 0, "fusion_lat": 0.0, "lat": 38.909688333333335, "bike_id": "2d37abe2944ee8ebc0ca5ac9e0364bd4", "fusion_lon": 0.0}, {"rental_uris": {"ios": "https://dc.lft.to/lastmile_qr_scan", "android": "https://dc.lft.to/lastmile_qr_scan"}, "type": "electric_scooter", "name": "d5b282a2679ceb88e625ef11f842f2ae", "is_reserved": 0, "lon": -77.03450766666667, "is_disabled": 0, "fusion_lat": 0.0, "lat": 38.90100983333333, "bike_id": "d5b282a2679ceb88e625ef11f842f2ae", "fusion_lon": 0.0}, {"rental_uris": {"ios": "https://dc.lft.to/lastmile_qr_scan", "android": "https://dc.lft.to/lastmile_qr_scan"}, "type": "electric_scooter", "name": "bc5f95dc7077f28af0d52c497da40da7", "is_reserved": 0, "lon": -77.02995116666666, "is_disabled": 0, "fusion_lat": 0.0, "lat": 38.917091166666665, "bike_id": "bc5f95dc7077f28af0d52c497da40da7", "fusion_lon": 0.0}, {"rental_uris": {"ios": "https://dc.lft.to/lastmile_qr_scan", "android": "https://dc.lft.to/lastmile_qr_scan"}, "type": "electric_scooter", "name": "d61acfd39ccae563fd246f42031b5bcb", "is_reserved": 0, "lon": -77.02402883333333, "is_disabled": 0, "fusion_lat": 0.0, "lat": 38.89900266666667, "bike_id": "d61acfd39ccae563fd246f42031b5bcb", "fusion_lon": 0.0}, {"rental_uris": {"ios": "https://dc.lft.to/lastmile_qr_scan", "android": "https://dc.lft.to/lastmile_qr_scan"}, "type": "electric_scooter", "name": "2e820672ed108595c07dab1a770b4f58", "is_reserved": 0, "lon": -77.01762716666667, "is_disabled": 0, "fusion_lat": 0.0, "lat": 38.88334316666667, "bike_id": "2e820672ed108595c07dab1a770b4f58", "fusion_lon": 0.0}, {"rental_uris": {"ios": "https://dc.lft.to/lastmile_qr_scan", "android": "https://dc.lft.to/lastmile_qr_scan"}, "type": "electric_scooter", "name": "88fc6beb81a707432477138fa6c888e3", "is_reserved": 0, "lon": -76.98836183333333, "is_disabled": 0, "fusion_lat": 0.0, "lat": 38.89488716666666, "bike_id": "88fc6beb81a707432477138fa6c888e3", "fusion_lon": 0.0}, {"rental_uris": {"ios": "https://dc.lft.to/lastmile_qr_scan", "android": "https://dc.lft.to/lastmile_qr_scan"}, "type": "electric_bike", "name": "19567dec42b40b9d912d26e7416237f0", "is_reserved": 0, "lon": -76.990182, "is_disabled": 0, "fusion_lat": 0.0, "lat": 38.954831666666664, "bike_id": "19567dec42b40b9d912d26e7416237f0", "fusion_lon": 0.0}, {"rental_uris": {"ios": "https://dc.lft.to/lastmile_qr_scan", "android": "https://dc.lft.to/lastmile_qr_scan"}, "type": "electric_scooter", "name": "bd9ea414862c09983d7c9940685838fd", "is_reserved": 0, "lon": -77.04507266666667, "is_disabled": 0, "fusion_lat": 0.0, "lat": 38.89228633333333, "bike_id": "bd9ea414862c09983d7c9940685838fd", "fusion_lon": 0.0}, {"rental_uris": {"ios": "https://dc.lft.to/lastmile_qr_scan", "android": "https://dc.lft.to/lastmile_qr_scan"}, "type": "electric_scooter", "name": "f5e1bb68980ce63c6af068b85afd2f1b", "is_reserved": 0, "lon": -77.044812, "is_disabled": 0, "fusion_lat": 0.0, "lat": 38.89337783333333, "bike_id": "f5e1bb68980ce63c6af068b85afd2f1b", "fusion_lon": 0.0}, {"rental_uris": {"ios": "https://dc.lft.to/lastmile_qr_scan", "android": "https://dc.lft.to/lastmile_qr_scan"}, "type": "electric_scooter", "name": "7e6a9b36605b92e74cf4cae747e6a0c6", "is_reserved": 0, "lon": -77.03526866666667, "is_disabled": 0, "fusion_lat": 0.0, "lat": 38.904733666666665, "bike_id": "7e6a9b36605b92e74cf4cae747e6a0c6", "fusion_lon": 0.0}, {"rental_uris": {"ios": "https://dc.lft.to/lastmile_qr_scan", "android": "https://dc.lft.to/lastmile_qr_scan"}, "type": "electric_scooter", "name": "67bb97f01b35a39cc6747346bb9ea5f7", "is_reserved": 0, "lon": -77.01079233333333, "is_disabled": 0, "fusion_lat": 0.0, "lat": 38.903398333333335, "bike_id": "67bb97f01b35a39cc6747346bb9ea5f7", "fusion_lon": 0.0}, {"rental_uris": {"ios": "https://dc.lft.to/lastmile_qr_scan", "android": "https://dc.lft.to/lastmile_qr_scan"}, "type": "electric_scooter", "name": "a4464bd64e05ee3a4dfed12690a4a2ea", "is_reserved": 0, "lon": -77.0560185, "is_disabled": 0, "fusion_lat": 0.0, "lat": 38.9370045, "bike_id": "a4464bd64e05ee3a4dfed12690a4a2ea", "fusion_lon": 0.0}, {"rental_uris": {"ios": "https://dc.lft.to/lastmile_qr_scan", "android": "https://dc.lft.to/lastmile_qr_scan"}, "type": "electric_scooter", "name": "7148bf3b718759d889b20b49f465340f", "is_reserved": 0, "lon": -77.036651, "is_disabled": 0, "fusion_lat": 0.0, "lat": 38.91767266666667, "bike_id": "7148bf3b718759d889b20b49f465340f", "fusion_lon": 0.0}, {"rental_uris": {"ios": "https://dc.lft.to/lastmile_qr_scan", "android": "https://dc.lft.to/lastmile_qr_scan"}, "type": "electric_scooter", "name": "453c75c2e459025011755fe1321f6e7e", "is_reserved": 0, "lon": -77.00754933333333, "is_disabled": 0, "fusion_lat": 0.0, "lat": 38.92681233333333, "bike_id": "453c75c2e459025011755fe1321f6e7e", "fusion_lon": 0.0}, {"rental_uris": {"ios": "https://dc.lft.to/lastmile_qr_scan", "android": "https://dc.lft.to/lastmile_qr_scan"}, "type": "electric_scooter", "name": "abf71e0035dbc9b223090a93c148cc29", "is_reserved": 0, "lon": -76.994226, "is_disabled": 0, "fusion_lat": 0.0, "lat": 38.921111, "bike_id": "abf71e0035dbc9b223090a93c148cc29", "fusion_lon": 0.0}, {"rental_uris": {"ios": "https://dc.lft.to/lastmile_qr_scan", "android": "https://dc.lft.to/lastmile_qr_scan"}, "type": "electric_scooter", "name": "d48b0ad455d624a02dc5318866dbade3", "is_reserved": 0, "lon": -77.00735716666667, "is_disabled": 0, "fusion_lat": 0.0, "lat": 38.8766715, "bike_id": "d48b0ad455d624a02dc5318866dbade3", "fusion_lon": 0.0}, {"rental_uris": {"ios": "https://dc.lft.to/lastmile_qr_scan", "android": "https://dc.lft.to/lastmile_qr_scan"}, "type": "electric_scooter", "name": "9f8027ce3914475535c3b15f450dfd27", "is_reserved": 0, "lon": -77.03822533333333, "is_disabled": 0, "fusion_lat": 0.0, "lat": 38.91085116666667, "bike_id": "9f8027ce3914475535c3b15f450dfd27", "fusion_lon": 0.0}, {"rental_uris": {"ios": "https://dc.lft.to/lastmile_qr_scan", "android": "https://dc.lft.to/lastmile_qr_scan"}, "type": "electric_scooter", "name": "33a94e17e1d4cffe304d1a23cd53a335", "is_reserved": 0, "lon": -77.050265, "is_disabled": 0, "fusion_lat": 0.0, "lat": 38.92365683333333, "bike_id": "33a94e17e1d4cffe304d1a23cd53a335", "fusion_lon": 0.0}, {"rental_uris": {"ios": "https://dc.lft.to/lastmile_qr_scan", "android": "https://dc.lft.to/lastmile_qr_scan"}, "type": "electric_scooter", "name": "f439d2eefd74f8a908ce0a637dcfa5b7", "is_reserved": 0, "lon": -77.033318, "is_disabled": 0, "fusion_lat": 0.0, "lat": 38.92884866666667, "bike_id": "f439d2eefd74f8a908ce0a637dcfa5b7", "fusion_lon": 0.0}, {"rental_uris": {"ios": "https://dc.lft.to/lastmile_qr_scan", "android": "https://dc.lft.to/lastmile_qr_scan"}, "type": "electric_scooter", "name": "a71411a93a8b19290c79d2849cf5a5a4", "is_reserved": 0, "lon": -77.02415183333333, "is_disabled": 0, "fusion_lat": 0.0, "lat": 38.90969533333333, "bike_id": "a71411a93a8b19290c79d2849cf5a5a4", "fusion_lon": 0.0}, {"rental_uris": {"ios": "https://dc.lft.to/lastmile_qr_scan", "android": "https://dc.lft.to/lastmile_qr_scan"}, "type": "electric_scooter", "name": "da34c136c72203494936f05951bb48d0", "is_reserved": 0, "lon": -77.01764666666666, "is_disabled": 0, "fusion_lat": 0.0, "lat": 38.88334183333333, "bike_id": "da34c136c72203494936f05951bb48d0", "fusion_lon": 0.0}, {"rental_uris": {"ios": "https://dc.lft.to/lastmile_qr_scan", "android": "https://dc.lft.to/lastmile_qr_scan"}, "type": "electric_scooter", "name": "9c4fe50bd0ec865b87a11c119835ba62", "is_reserved": 0, "lon": -77.029549, "is_disabled": 0, "fusion_lat": 0.0, "lat": 38.90705616666666, "bike_id": "9c4fe50bd0ec865b87a11c119835ba62", "fusion_lon": 0.0}, {"rental_uris": {"ios": "https://dc.lft.to/lastmile_qr_scan", "android": "https://dc.lft.to/lastmile_qr_scan"}, "type": "electric_scooter", "name": "da1d3f8b4961499fe4a2726b5dd6542d", "is_reserved": 0, "lon": -77.02103666666666, "is_disabled": 0, "fusion_lat": 0.0, "lat": 38.9232785, "bike_id": "da1d3f8b4961499fe4a2726b5dd6542d", "fusion_lon": 0.0}, {"rental_uris": {"ios": "https://dc.lft.to/lastmile_qr_scan", "android": "https://dc.lft.to/lastmile_qr_scan"}, "type": "electric_scooter", "name": "e9b1dcdf33e7ae575fe7bdf273ad017c", "is_reserved": 0, "lon": -77.04569866666667, "is_disabled": 0, "fusion_lat": 0.0, "lat": 38.91409266666667, "bike_id": "e9b1dcdf33e7ae575fe7bdf273ad017c", "fusion_lon": 0.0}, {"rental_uris": {"ios": "https://dc.lft.to/lastmile_qr_scan", "android": "https://dc.lft.to/lastmile_qr_scan"}, "type": "electric_scooter", "name": "78db5c1ac998aa31ddff5764f3945f70", "is_reserved": 0, "lon": -77.0071345, "is_disabled": 0, "fusion_lat": 0.0, "lat": 38.88493316666667, "bike_id": "78db5c1ac998aa31ddff5764f3945f70", "fusion_lon": 0.0}, {"rental_uris": {"ios": "https://dc.lft.to/lastmile_qr_scan", "android": "https://dc.lft.to/lastmile_qr_scan"}, "type": "electric_scooter", "name": "fc1000442f85aaf4ca18b8db6c970cd5", "is_reserved": 0, "lon": -77.05134416666667, "is_disabled": 0, "fusion_lat": 0.0, "lat": 38.89787166666667, "bike_id": "fc1000442f85aaf4ca18b8db6c970cd5", "fusion_lon": 0.0}, {"rental_uris": {"ios": "https://dc.lft.to/lastmile_qr_scan", "android": "https://dc.lft.to/lastmile_qr_scan"}, "type": "electric_bike", "name": "259146de88b71186f88365eab9db5bad", "is_reserved": 0, "lon": -77.00674916666667, "is_disabled": 0, "fusion_lat": 0.0, "lat": 38.94514933333333, "bike_id": "259146de88b71186f88365eab9db5bad", "fusion_lon": 0.0}, {"rental_uris": {"ios": "https://dc.lft.to/lastmile_qr_scan", "android": "https://dc.lft.to/lastmile_qr_scan"}, "type": "electric_scooter", "name": "2b3e9c218cf58c6470c0111bf60c9f4c", "is_reserved": 0, "lon": -77.03210733333333, "is_disabled": 0, "fusion_lat": 0.0, "lat": 38.907934833333336, "bike_id": "2b3e9c218cf58c6470c0111bf60c9f4c", "fusion_lon": 0.0}, {"rental_uris": {"ios": "https://dc.lft.to/lastmile_qr_scan", "android": "https://dc.lft.to/lastmile_qr_scan"}, "type": "electric_scooter", "name": "2cf83cc986862be628ff5266b30bc978", "is_reserved": 0, "lon": -77.03851216666666, "is_disabled": 0, "fusion_lat": 0.0, "lat": 38.911806, "bike_id": "2cf83cc986862be628ff5266b30bc978", "fusion_lon": 0.0}, {"rental_uris": {"ios": "https://dc.lft.to/lastmile_qr_scan", "android": "https://dc.lft.to/lastmile_qr_scan"}, "type": "electric_scooter", "name": "4555ed3cbd9f85d209385885d185de16", "is_reserved": 0, "lon": -77.00699983333334, "is_disabled": 0, "fusion_lat": 0.0, "lat": 38.90570266666667, "bike_id": "4555ed3cbd9f85d209385885d185de16", "fusion_lon": 0.0}, {"rental_uris": {"ios": "https://dc.lft.to/lastmile_qr_scan", "android": "https://dc.lft.to/lastmile_qr_scan"}, "type": "electric_scooter", "name": "d38031448837fdf93023c2f463d916c1", "is_reserved": 0, "lon": -77.033019, "is_disabled": 0, "fusion_lat": 0.0, "lat": 38.899139, "bike_id": "d38031448837fdf93023c2f463d916c1", "fusion_lon": 0.0}, {"rental_uris": {"ios": "https://dc.lft.to/lastmile_qr_scan", "android": "https://dc.lft.to/lastmile_qr_scan"}, "type": "electric_scooter", "name": "e635cbcba039746ee79157c51a2a7141", "is_reserved": 0, "lon": -77.01220933333333, "is_disabled": 0, "fusion_lat": 0.0, "lat": 38.87675933333333, "bike_id": "e635cbcba039746ee79157c51a2a7141", "fusion_lon": 0.0}, {"rental_uris": {"ios": "https://dc.lft.to/lastmile_qr_scan", "android": "https://dc.lft.to/lastmile_qr_scan"}, "type": "electric_scooter", "name": "ed7065d0becd7885214c87e133890ace", "is_reserved": 0, "lon": -77.0660905, "is_disabled": 0, "fusion_lat": 0.0, "lat": 38.9052415, "bike_id": "ed7065d0becd7885214c87e133890ace", "fusion_lon": 0.0}, {"rental_uris": {"ios": "https://dc.lft.to/lastmile_qr_scan", "android": "https://dc.lft.to/lastmile_qr_scan"}, "type": "electric_scooter", "name": "2c9e05514b68e02acdb8b53151c391d8", "is_reserved": 0, "lon": -76.94387216666667, "is_disabled": 0, "fusion_lat": 0.0, "lat": 38.89123083333333, "bike_id": "2c9e05514b68e02acdb8b53151c391d8", "fusion_lon": 0.0}, {"rental_uris": {"ios": "https://dc.lft.to/lastmile_qr_scan", "android": "https://dc.lft.to/lastmile_qr_scan"}, "type": "electric_scooter", "name": "18ad05ce56ea92c10fb59fd649cdbc9f", "is_reserved": 0, "lon": -77.06848633333334, "is_disabled": 0, "fusion_lat": 0.0, "lat": 38.90392033333333, "bike_id": "18ad05ce56ea92c10fb59fd649cdbc9f", "fusion_lon": 0.0}, {"rental_uris": {"ios": "https://dc.lft.to/lastmile_qr_scan", "android": "https://dc.lft.to/lastmile_qr_scan"}, "type": "electric_scooter", "name": "77cc63a821efd8a2518a0b44f5e0f9c2", "is_reserved": 0, "lon": -77.0440555, "is_disabled": 0, "fusion_lat": 0.0, "lat": 38.92956616666667, "bike_id": "77cc63a821efd8a2518a0b44f5e0f9c2", "fusion_lon": 0.0}, {"rental_uris": {"ios": "https://dc.lft.to/lastmile_qr_scan", "android": "https://dc.lft.to/lastmile_qr_scan"}, "type": "electric_scooter", "name": "6c500bf222c488898767c28802e70a94", "is_reserved": 0, "lon": -77.053221, "is_disabled": 0, "fusion_lat": 0.0, "lat": 38.9027015, "bike_id": "6c500bf222c488898767c28802e70a94", "fusion_lon": 0.0}, {"rental_uris": {"ios": "https://dc.lft.to/lastmile_qr_scan", "android": "https://dc.lft.to/lastmile_qr_scan"}, "type": "electric_scooter", "name": "2b7099f64cf371bbf4bfd55d320d477c", "is_reserved": 0, "lon": -76.96568533333334, "is_disabled": 0, "fusion_lat": 0.0, "lat": 38.876108333333335, "bike_id": "2b7099f64cf371bbf4bfd55d320d477c", "fusion_lon": 0.0}, {"rental_uris": {"ios": "https://dc.lft.to/lastmile_qr_scan", "android": "https://dc.lft.to/lastmile_qr_scan"}, "type": "electric_bike", "name": "34f409b871a2d18dc43de3fcfe2418cd", "is_reserved": 0, "lon": -77.07015916666667, "is_disabled": 0, "fusion_lat": 0.0, "lat": 38.841109833333334, "bike_id": "34f409b871a2d18dc43de3fcfe2418cd", "fusion_lon": 0.0}, {"rental_uris": {"ios": "https://dc.lft.to/lastmile_qr_scan", "android": "https://dc.lft.to/lastmile_qr_scan"}, "type": "electric_scooter", "name": "3354a2f49ad38cd50e92b29a285adf35", "is_reserved": 0, "lon": -77.02405366666666, "is_disabled": 0, "fusion_lat": 0.0, "lat": 38.90966433333333, "bike_id": "3354a2f49ad38cd50e92b29a285adf35", "fusion_lon": 0.0}, {"rental_uris": {"ios": "https://dc.lft.to/lastmile_qr_scan", "android": "https://dc.lft.to/lastmile_qr_scan"}, "type": "electric_scooter", "name": "78f0ded5406862773dfd8098d8b25e66", "is_reserved": 0, "lon": -77.04356566666667, "is_disabled": 0, "fusion_lat": 0.0, "lat": 38.897341833333336, "bike_id": "78f0ded5406862773dfd8098d8b25e66", "fusion_lon": 0.0}, {"rental_uris": {"ios": "https://dc.lft.to/lastmile_qr_scan", "android": "https://dc.lft.to/lastmile_qr_scan"}, "type": "electric_scooter", "name": "b4870fbf3c12d51e3f950a2d5169cac4", "is_reserved": 0, "lon": -77.0345495, "is_disabled": 0, "fusion_lat": 0.0, "lat": 38.907457, "bike_id": "b4870fbf3c12d51e3f950a2d5169cac4", "fusion_lon": 0.0}, {"rental_uris": {"ios": "https://dc.lft.to/lastmile_qr_scan", "android": "https://dc.lft.to/lastmile_qr_scan"}, "type": "electric_scooter", "name": "eda8b5340b304851f167e21f0b192833", "is_reserved": 0, "lon": -77.0385945, "is_disabled": 0, "fusion_lat": 0.0, "lat": 38.91288016666667, "bike_id": "eda8b5340b304851f167e21f0b192833", "fusion_lon": 0.0}, {"rental_uris": {"ios": "https://dc.lft.to/lastmile_qr_scan", "android": "https://dc.lft.to/lastmile_qr_scan"}, "type": "electric_scooter", "name": "2a70584f35771bf0d72c20f40b590fed", "is_reserved": 0, "lon": -77.04019783333334, "is_disabled": 0, "fusion_lat": 0.0, "lat": 38.92169766666667, "bike_id": "2a70584f35771bf0d72c20f40b590fed", "fusion_lon": 0.0}, {"rental_uris": {"ios": "https://dc.lft.to/lastmile_qr_scan", "android": "https://dc.lft.to/lastmile_qr_scan"}, "type": "electric_scooter", "name": "f7d83c7116b8cb743eec8d2df056fab0", "is_reserved": 0, "lon": -77.04086533333333, "is_disabled": 0, "fusion_lat": 0.0, "lat": 38.9479255, "bike_id": "f7d83c7116b8cb743eec8d2df056fab0", "fusion_lon": 0.0}, {"rental_uris": {"ios": "https://dc.lft.to/lastmile_qr_scan", "android": "https://dc.lft.to/lastmile_qr_scan"}, "type": "electric_scooter", "name": "9c79865410ebf0765fe7f03b5f042004", "is_reserved": 0, "lon": -77.04221166666666, "is_disabled": 0, "fusion_lat": 0.0, "lat": 38.91122933333333, "bike_id": "9c79865410ebf0765fe7f03b5f042004", "fusion_lon": 0.0}, {"rental_uris": {"ios": "https://dc.lft.to/lastmile_qr_scan", "android": "https://dc.lft.to/lastmile_qr_scan"}, "type": "electric_scooter", "name": "82de32bbaa54d07ec1c5e634069c2628", "is_reserved": 0, "lon": -77.03458716666667, "is_disabled": 0, "fusion_lat": 0.0, "lat": 38.901055, "bike_id": "82de32bbaa54d07ec1c5e634069c2628", "fusion_lon": 0.0}, {"rental_uris": {"ios": "https://dc.lft.to/lastmile_qr_scan", "android": "https://dc.lft.to/lastmile_qr_scan"}, "type": "electric_bike", "name": "5703b3ac1bdb5188f58a22c120c03476", "is_reserved": 0, "lon": -76.980211, "is_disabled": 0, "fusion_lat": 0.0, "lat": 38.853177, "bike_id": "5703b3ac1bdb5188f58a22c120c03476", "fusion_lon": 0.0}, {"rental_uris": {"ios": "https://dc.lft.to/lastmile_qr_scan", "android": "https://dc.lft.to/lastmile_qr_scan"}, "type": "electric_scooter", "name": "eb92d1a31c9b000951c80c4920cd9154", "is_reserved": 0, "lon": -77.00746266666667, "is_disabled": 0, "fusion_lat": 0.0, "lat": 38.9110995, "bike_id": "eb92d1a31c9b000951c80c4920cd9154", "fusion_lon": 0.0}, {"rental_uris": {"ios": "https://dc.lft.to/lastmile_qr_scan", "android": "https://dc.lft.to/lastmile_qr_scan"}, "type": "electric_scooter", "name": "c7654ce65c97a8d98aa72e7a585ff0ad", "is_reserved": 0, "lon": -77.03667283333333, "is_disabled": 0, "fusion_lat": 0.0, "lat": 38.904314666666664, "bike_id": "c7654ce65c97a8d98aa72e7a585ff0ad", "fusion_lon": 0.0}, {"rental_uris": {"ios": "https://dc.lft.to/lastmile_qr_scan", "android": "https://dc.lft.to/lastmile_qr_scan"}, "type": "electric_scooter", "name": "b7fae1feae0f75a892d78bd8c386f312", "is_reserved": 0, "lon": -77.05189683333333, "is_disabled": 0, "fusion_lat": 0.0, "lat": 38.90269416666667, "bike_id": "b7fae1feae0f75a892d78bd8c386f312", "fusion_lon": 0.0}, {"rental_uris": {"ios": "https://dc.lft.to/lastmile_qr_scan", "android": "https://dc.lft.to/lastmile_qr_scan"}, "type": "electric_scooter", "name": "e772a2c3ebad8c8bce69a7f2a663ba22", "is_reserved": 0, "lon": -77.0388585, "is_disabled": 0, "fusion_lat": 0.0, "lat": 38.90371833333333, "bike_id": "e772a2c3ebad8c8bce69a7f2a663ba22", "fusion_lon": 0.0}, {"rental_uris": {"ios": "https://dc.lft.to/lastmile_qr_scan", "android": "https://dc.lft.to/lastmile_qr_scan"}, "type": "electric_scooter", "name": "aef238dd34c4a1787e8398c7aff2d92a", "is_reserved": 0, "lon": -77.01962333333333, "is_disabled": 0, "fusion_lat": 0.0, "lat": 38.923289833333335, "bike_id": "aef238dd34c4a1787e8398c7aff2d92a", "fusion_lon": 0.0}, {"rental_uris": {"ios": "https://dc.lft.to/lastmile_qr_scan", "android": "https://dc.lft.to/lastmile_qr_scan"}, "type": "electric_scooter", "name": "aaa53a122091c7968bf7f0a602a8aa60", "is_reserved": 0, "lon": -77.01916433333334, "is_disabled": 0, "fusion_lat": 0.0, "lat": 38.89733116666667, "bike_id": "aaa53a122091c7968bf7f0a602a8aa60", "fusion_lon": 0.0}, {"rental_uris": {"ios": "https://dc.lft.to/lastmile_qr_scan", "android": "https://dc.lft.to/lastmile_qr_scan"}, "type": "electric_scooter", "name": "d739d49fb67a07411e83e43d44a8348b", "is_reserved": 0, "lon": -77.03939416666667, "is_disabled": 0, "fusion_lat": 0.0, "lat": 38.914195166666666, "bike_id": "d739d49fb67a07411e83e43d44a8348b", "fusion_lon": 0.0}, {"rental_uris": {"ios": "https://dc.lft.to/lastmile_qr_scan", "android": "https://dc.lft.to/lastmile_qr_scan"}, "type": "electric_scooter", "name": "3a0359091a448f51807052930f467566", "is_reserved": 0, "lon": -76.965466, "is_disabled": 0, "fusion_lat": 0.0, "lat": 38.87889716666667, "bike_id": "3a0359091a448f51807052930f467566", "fusion_lon": 0.0}, {"rental_uris": {"ios": "https://dc.lft.to/lastmile_qr_scan", "android": "https://dc.lft.to/lastmile_qr_scan"}, "type": "electric_scooter", "name": "ddb15f2b8adb244356c5ce7c212c0ea6", "is_reserved": 0, "lon": -77.02280166666667, "is_disabled": 0, "fusion_lat": 0.0, "lat": 38.9096735, "bike_id": "ddb15f2b8adb244356c5ce7c212c0ea6", "fusion_lon": 0.0}, {"rental_uris": {"ios": "https://dc.lft.to/lastmile_qr_scan", "android": "https://dc.lft.to/lastmile_qr_scan"}, "type": "electric_scooter", "name": "fd731c565ea7f998a4a7eb08d7519d87", "is_reserved": 0, "lon": -77.03289516666666, "is_disabled": 0, "fusion_lat": 0.0, "lat": 38.909672666666665, "bike_id": "fd731c565ea7f998a4a7eb08d7519d87", "fusion_lon": 0.0}, {"rental_uris": {"ios": "https://dc.lft.to/lastmile_qr_scan", "android": "https://dc.lft.to/lastmile_qr_scan"}, "type": "electric_bike", "name": "5faf9dc4e6d3546683eae7872403468d", "is_reserved": 0, "lon": -77.08365366666666, "is_disabled": 0, "fusion_lat": 0.0, "lat": 38.854201, "bike_id": "5faf9dc4e6d3546683eae7872403468d", "fusion_lon": 0.0}, {"rental_uris": {"ios": "https://dc.lft.to/lastmile_qr_scan", "android": "https://dc.lft.to/lastmile_qr_scan"}, "type": "electric_scooter", "name": "05f80f9ff098c42dab0fd9e8909fcbfe", "is_reserved": 0, "lon": -77.02711516666666, "is_disabled": 0, "fusion_lat": 0.0, "lat": 38.91529333333333, "bike_id": "05f80f9ff098c42dab0fd9e8909fcbfe", "fusion_lon": 0.0}, {"rental_uris": {"ios": "https://dc.lft.to/lastmile_qr_scan", "android": "https://dc.lft.to/lastmile_qr_scan"}, "type": "electric_scooter", "name": "c258a732cd9d0131b26649c365fce27f", "is_reserved": 0, "lon": -76.99741233333333, "is_disabled": 0, "fusion_lat": 0.0, "lat": 38.92039833333333, "bike_id": "c258a732cd9d0131b26649c365fce27f", "fusion_lon": 0.0}, {"rental_uris": {"ios": "https://dc.lft.to/lastmile_qr_scan", "android": "https://dc.lft.to/lastmile_qr_scan"}, "type": "electric_scooter", "name": "094ff92e93e4f37cedfe2465cb38535a", "is_reserved": 0, "lon": -77.026933, "is_disabled": 0, "fusion_lat": 0.0, "lat": 38.908476, "bike_id": "094ff92e93e4f37cedfe2465cb38535a", "fusion_lon": 0.0}, {"rental_uris": {"ios": "https://dc.lft.to/lastmile_qr_scan", "android": "https://dc.lft.to/lastmile_qr_scan"}, "type": "electric_scooter", "name": "91e540084e9c2b20bb8eb8e88e064de1", "is_reserved": 0, "lon": -77.00513266666667, "is_disabled": 0, "fusion_lat": 0.0, "lat": 38.8794565, "bike_id": "91e540084e9c2b20bb8eb8e88e064de1", "fusion_lon": 0.0}, {"rental_uris": {"ios": "https://dc.lft.to/lastmile_qr_scan", "android": "https://dc.lft.to/lastmile_qr_scan"}, "type": "electric_scooter", "name": "b3b81d701fbd12ba7cf41f6dc3f9c31c", "is_reserved": 0, "lon": -77.02176616666667, "is_disabled": 0, "fusion_lat": 0.0, "lat": 38.91564666666667, "bike_id": "b3b81d701fbd12ba7cf41f6dc3f9c31c", "fusion_lon": 0.0}, {"rental_uris": {"ios": "https://dc.lft.to/lastmile_qr_scan", "android": "https://dc.lft.to/lastmile_qr_scan"}, "type": "electric_scooter", "name": "5c47de6072989c347869390e4d72fd3b", "is_reserved": 0, "lon": -77.0268865, "is_disabled": 0, "fusion_lat": 0.0, "lat": 38.9024305, "bike_id": "5c47de6072989c347869390e4d72fd3b", "fusion_lon": 0.0}, {"rental_uris": {"ios": "https://dc.lft.to/lastmile_qr_scan", "android": "https://dc.lft.to/lastmile_qr_scan"}, "type": "electric_scooter", "name": "89e9e7b20cc1c6e9f33157f6f238c972", "is_reserved": 0, "lon": -77.04690316666667, "is_disabled": 0, "fusion_lat": 0.0, "lat": 38.892256, "bike_id": "89e9e7b20cc1c6e9f33157f6f238c972", "fusion_lon": 0.0}, {"rental_uris": {"ios": "https://dc.lft.to/lastmile_qr_scan", "android": "https://dc.lft.to/lastmile_qr_scan"}, "type": "electric_scooter", "name": "2d49350db3b2fa9340285146cead44cb", "is_reserved": 0, "lon": -77.03971616666666, "is_disabled": 0, "fusion_lat": 0.0, "lat": 38.9014705, "bike_id": "2d49350db3b2fa9340285146cead44cb", "fusion_lon": 0.0}, {"rental_uris": {"ios": "https://dc.lft.to/lastmile_qr_scan", "android": "https://dc.lft.to/lastmile_qr_scan"}, "type": "electric_bike", "name": "4e1355775b6de853e9f38534e6cb63ec", "is_reserved": 0, "lon": -76.98061083333333, "is_disabled": 0, "fusion_lat": 0.0, "lat": 38.972555166666666, "bike_id": "4e1355775b6de853e9f38534e6cb63ec", "fusion_lon": 0.0}, {"rental_uris": {"ios": "https://dc.lft.to/lastmile_qr_scan", "android": "https://dc.lft.to/lastmile_qr_scan"}, "type": "electric_scooter", "name": "9d853dd4cf9cf106400121657a9dd6e0", "is_reserved": 0, "lon": -77.02413233333333, "is_disabled": 0, "fusion_lat": 0.0, "lat": 38.945185, "bike_id": "9d853dd4cf9cf106400121657a9dd6e0", "fusion_lon": 0.0}, {"rental_uris": {"ios": "https://dc.lft.to/lastmile_qr_scan", "android": "https://dc.lft.to/lastmile_qr_scan"}, "type": "electric_scooter", "name": "bb15d9276eb66e3e5c233eebc96bcc2e", "is_reserved": 0, "lon": -77.01762633333334, "is_disabled": 0, "fusion_lat": 0.0, "lat": 38.8802015, "bike_id": "bb15d9276eb66e3e5c233eebc96bcc2e", "fusion_lon": 0.0}, {"rental_uris": {"ios": "https://dc.lft.to/lastmile_qr_scan", "android": "https://dc.lft.to/lastmile_qr_scan"}, "type": "electric_scooter", "name": "25e88de3f1d62e34b224ebb82d176991", "is_reserved": 0, "lon": -77.03374766666667, "is_disabled": 0, "fusion_lat": 0.0, "lat": 38.909826, "bike_id": "25e88de3f1d62e34b224ebb82d176991", "fusion_lon": 0.0}, {"rental_uris": {"ios": "https://dc.lft.to/lastmile_qr_scan", "android": "https://dc.lft.to/lastmile_qr_scan"}, "type": "electric_scooter", "name": "57237d942720c4a11f1fa4622da572b0", "is_reserved": 0, "lon": -77.0284625, "is_disabled": 0, "fusion_lat": 0.0, "lat": 38.892266, "bike_id": "57237d942720c4a11f1fa4622da572b0", "fusion_lon": 0.0}, {"rental_uris": {"ios": "https://dc.lft.to/lastmile_qr_scan", "android": "https://dc.lft.to/lastmile_qr_scan"}, "type": "electric_scooter", "name": "74bf69f8900f137c163264524114e8d5", "is_reserved": 0, "lon": -77.026986, "is_disabled": 0, "fusion_lat": 0.0, "lat": 38.92405, "bike_id": "74bf69f8900f137c163264524114e8d5", "fusion_lon": 0.0}, {"rental_uris": {"ios": "https://dc.lft.to/lastmile_qr_scan", "android": "https://dc.lft.to/lastmile_qr_scan"}, "type": "electric_bike", "name": "ad7fd867b5df8468d276c863ef5fe898", "is_reserved": 0, "lon": -76.88973966666667, "is_disabled": 0, "fusion_lat": 0.0, "lat": 39.00780733333333, "bike_id": "ad7fd867b5df8468d276c863ef5fe898", "fusion_lon": 0.0}, {"rental_uris": {"ios": "https://dc.lft.to/lastmile_qr_scan", "android": "https://dc.lft.to/lastmile_qr_scan"}, "type": "electric_scooter", "name": "07e41051b9c7b2526b5f86a6961dbc7b", "is_reserved": 0, "lon": -77.04744, "is_disabled": 0, "fusion_lat": 0.0, "lat": 38.912652333333334, "bike_id": "07e41051b9c7b2526b5f86a6961dbc7b", "fusion_lon": 0.0}, {"rental_uris": {"ios": "https://dc.lft.to/lastmile_qr_scan", "android": "https://dc.lft.to/lastmile_qr_scan"}, "type": "electric_scooter", "name": "6b3119841ce1ef42a503933c5df9f094", "is_reserved": 0, "lon": -77.03472916666666, "is_disabled": 0, "fusion_lat": 0.0, "lat": 38.9303425, "bike_id": "6b3119841ce1ef42a503933c5df9f094", "fusion_lon": 0.0}, {"rental_uris": {"ios": "https://dc.lft.to/lastmile_qr_scan", "android": "https://dc.lft.to/lastmile_qr_scan"}, "type": "electric_scooter", "name": "0207dee8d806c2459e880161d8ca81b1", "is_reserved": 0, "lon": -77.03208283333333, "is_disabled": 0, "fusion_lat": 0.0, "lat": 38.907751, "bike_id": "0207dee8d806c2459e880161d8ca81b1", "fusion_lon": 0.0}, {"rental_uris": {"ios": "https://dc.lft.to/lastmile_qr_scan", "android": "https://dc.lft.to/lastmile_qr_scan"}, "type": "electric_scooter", "name": "61ccdbaa932baeaa7915ecd4cdab7391", "is_reserved": 0, "lon": -76.98403983333333, "is_disabled": 0, "fusion_lat": 0.0, "lat": 38.925172, "bike_id": "61ccdbaa932baeaa7915ecd4cdab7391", "fusion_lon": 0.0}, {"rental_uris": {"ios": "https://dc.lft.to/lastmile_qr_scan", "android": "https://dc.lft.to/lastmile_qr_scan"}, "type": "electric_scooter", "name": "cbb958a003b12b65a8e7a28af2ff36d2", "is_reserved": 0, "lon": -77.03957983333333, "is_disabled": 0, "fusion_lat": 0.0, "lat": 38.892523, "bike_id": "cbb958a003b12b65a8e7a28af2ff36d2", "fusion_lon": 0.0}, {"rental_uris": {"ios": "https://dc.lft.to/lastmile_qr_scan", "android": "https://dc.lft.to/lastmile_qr_scan"}, "type": "electric_scooter", "name": "99e324bfe58aeebbdfc5f78bf8c5e141", "is_reserved": 0, "lon": -77.02055383333334, "is_disabled": 0, "fusion_lat": 0.0, "lat": 38.922510333333335, "bike_id": "99e324bfe58aeebbdfc5f78bf8c5e141", "fusion_lon": 0.0}, {"rental_uris": {"ios": "https://dc.lft.to/lastmile_qr_scan", "android": "https://dc.lft.to/lastmile_qr_scan"}, "type": "electric_scooter", "name": "6a7397e9107d36ae112220ed91bc7867", "is_reserved": 0, "lon": -77.00867816666667, "is_disabled": 0, "fusion_lat": 0.0, "lat": 38.912662, "bike_id": "6a7397e9107d36ae112220ed91bc7867", "fusion_lon": 0.0}, {"rental_uris": {"ios": "https://dc.lft.to/lastmile_qr_scan", "android": "https://dc.lft.to/lastmile_qr_scan"}, "type": "electric_scooter", "name": "6a53ba4efdadb879db4decbc26f3cacf", "is_reserved": 0, "lon": -76.99405083333333, "is_disabled": 0, "fusion_lat": 0.0, "lat": 38.877868, "bike_id": "6a53ba4efdadb879db4decbc26f3cacf", "fusion_lon": 0.0}, {"rental_uris": {"ios": "https://dc.lft.to/lastmile_qr_scan", "android": "https://dc.lft.to/lastmile_qr_scan"}, "type": "electric_scooter", "name": "df5d7abf86e43f70fb4edeb7308830c1", "is_reserved": 0, "lon": -77.02310133333333, "is_disabled": 0, "fusion_lat": 0.0, "lat": 38.91746966666667, "bike_id": "df5d7abf86e43f70fb4edeb7308830c1", "fusion_lon": 0.0}, {"rental_uris": {"ios": "https://dc.lft.to/lastmile_qr_scan", "android": "https://dc.lft.to/lastmile_qr_scan"}, "type": "electric_scooter", "name": "ac06105e88f6b08d6cc553d5589ee2d8", "is_reserved": 0, "lon": -76.98608766666666, "is_disabled": 0, "fusion_lat": 0.0, "lat": 38.87846733333333, "bike_id": "ac06105e88f6b08d6cc553d5589ee2d8", "fusion_lon": 0.0}, {"rental_uris": {"ios": "https://dc.lft.to/lastmile_qr_scan", "android": "https://dc.lft.to/lastmile_qr_scan"}, "type": "electric_scooter", "name": "b7c9d8045407fd8b0f421f90c970f15e", "is_reserved": 0, "lon": -77.03125983333334, "is_disabled": 0, "fusion_lat": 0.0, "lat": 38.918187, "bike_id": "b7c9d8045407fd8b0f421f90c970f15e", "fusion_lon": 0.0}, {"rental_uris": {"ios": "https://dc.lft.to/lastmile_qr_scan", "android": "https://dc.lft.to/lastmile_qr_scan"}, "type": "electric_scooter", "name": "e05f94550a20609a183b2f636d4b1bb7", "is_reserved": 0, "lon": -77.01944533333334, "is_disabled": 0, "fusion_lat": 0.0, "lat": 38.876786333333335, "bike_id": "e05f94550a20609a183b2f636d4b1bb7", "fusion_lon": 0.0}, {"rental_uris": {"ios": "https://dc.lft.to/lastmile_qr_scan", "android": "https://dc.lft.to/lastmile_qr_scan"}, "type": "electric_scooter", "name": "a8092880b9109e838a52c895d1fc83f9", "is_reserved": 0, "lon": -77.04350116666667, "is_disabled": 0, "fusion_lat": 0.0, "lat": 38.897065, "bike_id": "a8092880b9109e838a52c895d1fc83f9", "fusion_lon": 0.0}, {"rental_uris": {"ios": "https://dc.lft.to/lastmile_qr_scan", "android": "https://dc.lft.to/lastmile_qr_scan"}, "type": "electric_scooter", "name": "6fc1d037155d933dddb98ecaf7e0db2d", "is_reserved": 0, "lon": -77.03448866666666, "is_disabled": 0, "fusion_lat": 0.0, "lat": 38.919243333333334, "bike_id": "6fc1d037155d933dddb98ecaf7e0db2d", "fusion_lon": 0.0}, {"rental_uris": {"ios": "https://dc.lft.to/lastmile_qr_scan", "android": "https://dc.lft.to/lastmile_qr_scan"}, "type": "electric_scooter", "name": "93bd20914fdfb7d4be6f222e445001cb", "is_reserved": 0, "lon": -77.03221283333333, "is_disabled": 0, "fusion_lat": 0.0, "lat": 38.887134833333334, "bike_id": "93bd20914fdfb7d4be6f222e445001cb", "fusion_lon": 0.0}, {"rental_uris": {"ios": "https://dc.lft.to/lastmile_qr_scan", "android": "https://dc.lft.to/lastmile_qr_scan"}, "type": "electric_scooter", "name": "d39ff6a7ce8024579cf961eb111d2594", "is_reserved": 0, "lon": -77.0366625, "is_disabled": 0, "fusion_lat": 0.0, "lat": 38.91393866666667, "bike_id": "d39ff6a7ce8024579cf961eb111d2594", "fusion_lon": 0.0}, {"rental_uris": {"ios": "https://dc.lft.to/lastmile_qr_scan", "android": "https://dc.lft.to/lastmile_qr_scan"}, "type": "electric_bike", "name": "319a1a4ff72d6a525a24374168940cf4", "is_reserved": 0, "lon": -76.968902, "is_disabled": 0, "fusion_lat": 0.0, "lat": 38.86988183333333, "bike_id": "319a1a4ff72d6a525a24374168940cf4", "fusion_lon": 0.0}, {"rental_uris": {"ios": "https://dc.lft.to/lastmile_qr_scan", "android": "https://dc.lft.to/lastmile_qr_scan"}, "type": "electric_scooter", "name": "47e696adf341f0b54942e87889ed4077", "is_reserved": 0, "lon": -77.0389195, "is_disabled": 0, "fusion_lat": 0.0, "lat": 38.903644, "bike_id": "47e696adf341f0b54942e87889ed4077", "fusion_lon": 0.0}, {"rental_uris": {"ios": "https://dc.lft.to/lastmile_qr_scan", "android": "https://dc.lft.to/lastmile_qr_scan"}, "type": "electric_bike", "name": "14bcdfc429f50324a1b5704c42513e5e", "is_reserved": 0, "lon": -77.05911533333334, "is_disabled": 0, "fusion_lat": 0.0, "lat": 38.9054395, "bike_id": "14bcdfc429f50324a1b5704c42513e5e", "fusion_lon": 0.0}, {"rental_uris": {"ios": "https://dc.lft.to/lastmile_qr_scan", "android": "https://dc.lft.to/lastmile_qr_scan"}, "type": "electric_scooter", "name": "097dedc4a18da3ba79464c9037ab7367", "is_reserved": 0, "lon": -77.0480475, "is_disabled": 0, "fusion_lat": 0.0, "lat": 38.90973316666667, "bike_id": "097dedc4a18da3ba79464c9037ab7367", "fusion_lon": 0.0}, {"rental_uris": {"ios": "https://dc.lft.to/lastmile_qr_scan", "android": "https://dc.lft.to/lastmile_qr_scan"}, "type": "electric_scooter", "name": "68c12aa3f4dd7c124d9b6159f2040ddb", "is_reserved": 0, "lon": -77.04257016666666, "is_disabled": 0, "fusion_lat": 0.0, "lat": 38.90962433333333, "bike_id": "68c12aa3f4dd7c124d9b6159f2040ddb", "fusion_lon": 0.0}, {"rental_uris": {"ios": "https://dc.lft.to/lastmile_qr_scan", "android": "https://dc.lft.to/lastmile_qr_scan"}, "type": "electric_scooter", "name": "3d1dc7656af3329e97a832c608f178df", "is_reserved": 0, "lon": -77.0153035, "is_disabled": 0, "fusion_lat": 0.0, "lat": 38.917666833333335, "bike_id": "3d1dc7656af3329e97a832c608f178df", "fusion_lon": 0.0}, {"rental_uris": {"ios": "https://dc.lft.to/lastmile_qr_scan", "android": "https://dc.lft.to/lastmile_qr_scan"}, "type": "electric_scooter", "name": "05709499cc658ff476e813ae4da8d960", "is_reserved": 0, "lon": -76.98558066666666, "is_disabled": 0, "fusion_lat": 0.0, "lat": 38.86001183333333, "bike_id": "05709499cc658ff476e813ae4da8d960", "fusion_lon": 0.0}, {"rental_uris": {"ios": "https://dc.lft.to/lastmile_qr_scan", "android": "https://dc.lft.to/lastmile_qr_scan"}, "type": "electric_scooter", "name": "2a5da67ca95935e045025a6027a0a29b", "is_reserved": 0, "lon": -77.064038, "is_disabled": 0, "fusion_lat": 0.0, "lat": 38.90863233333334, "bike_id": "2a5da67ca95935e045025a6027a0a29b", "fusion_lon": 0.0}, {"rental_uris": {"ios": "https://dc.lft.to/lastmile_qr_scan", "android": "https://dc.lft.to/lastmile_qr_scan"}, "type": "electric_scooter", "name": "966faa33b0cef193b61c121152fa1fa1", "is_reserved": 0, "lon": -77.0328435, "is_disabled": 0, "fusion_lat": 0.0, "lat": 38.938825333333334, "bike_id": "966faa33b0cef193b61c121152fa1fa1", "fusion_lon": 0.0}, {"rental_uris": {"ios": "https://dc.lft.to/lastmile_qr_scan", "android": "https://dc.lft.to/lastmile_qr_scan"}, "type": "electric_scooter", "name": "f9a9c9986680d0049b383e092f7d5ee6", "is_reserved": 0, "lon": -77.0092865, "is_disabled": 0, "fusion_lat": 0.0, "lat": 38.91259266666667, "bike_id": "f9a9c9986680d0049b383e092f7d5ee6", "fusion_lon": 0.0}, {"rental_uris": {"ios": "https://dc.lft.to/lastmile_qr_scan", "android": "https://dc.lft.to/lastmile_qr_scan"}, "type": "electric_scooter", "name": "9a14f9067d0c40b0eb49bd939dd8346a", "is_reserved": 0, "lon": -77.00394933333334, "is_disabled": 0, "fusion_lat": 0.0, "lat": 38.87464416666667, "bike_id": "9a14f9067d0c40b0eb49bd939dd8346a", "fusion_lon": 0.0}, {"rental_uris": {"ios": "https://dc.lft.to/lastmile_qr_scan", "android": "https://dc.lft.to/lastmile_qr_scan"}, "type": "electric_bike", "name": "61dd8d604bcdaa6e5b253e1e0adb414e", "is_reserved": 0, "lon": -77.039061, "is_disabled": 0, "fusion_lat": 0.0, "lat": 38.923352333333334, "bike_id": "61dd8d604bcdaa6e5b253e1e0adb414e", "fusion_lon": 0.0}, {"rental_uris": {"ios": "https://dc.lft.to/lastmile_qr_scan", "android": "https://dc.lft.to/lastmile_qr_scan"}, "type": "electric_scooter", "name": "78457ffafd4df6ba21ef808edeec8e49", "is_reserved": 0, "lon": -77.01903033333333, "is_disabled": 0, "fusion_lat": 0.0, "lat": 38.92341366666667, "bike_id": "78457ffafd4df6ba21ef808edeec8e49", "fusion_lon": 0.0}, {"rental_uris": {"ios": "https://dc.lft.to/lastmile_qr_scan", "android": "https://dc.lft.to/lastmile_qr_scan"}, "type": "electric_bike", "name": "5c11e8a6506908f8fc8609a6d390f750", "is_reserved": 0, "lon": -76.97534783333333, "is_disabled": 0, "fusion_lat": 0.0, "lat": 38.9033315, "bike_id": "5c11e8a6506908f8fc8609a6d390f750", "fusion_lon": 0.0}, {"rental_uris": {"ios": "https://dc.lft.to/lastmile_qr_scan", "android": "https://dc.lft.to/lastmile_qr_scan"}, "type": "electric_scooter", "name": "ffbb76ffa014a7da87f7c02cc9dc30b0", "is_reserved": 0, "lon": -77.017667, "is_disabled": 0, "fusion_lat": 0.0, "lat": 38.8772515, "bike_id": "ffbb76ffa014a7da87f7c02cc9dc30b0", "fusion_lon": 0.0}, {"rental_uris": {"ios": "https://dc.lft.to/lastmile_qr_scan", "android": "https://dc.lft.to/lastmile_qr_scan"}, "type": "electric_scooter", "name": "1c6c1c40f983ed335b0a1ce10eb90e53", "is_reserved": 0, "lon": -77.03538383333333, "is_disabled": 0, "fusion_lat": 0.0, "lat": 38.923495333333335, "bike_id": "1c6c1c40f983ed335b0a1ce10eb90e53", "fusion_lon": 0.0}, {"rental_uris": {"ios": "https://dc.lft.to/lastmile_qr_scan", "android": "https://dc.lft.to/lastmile_qr_scan"}, "type": "electric_scooter", "name": "5c75ecff4036e70f791e2f5e07b8b594", "is_reserved": 0, "lon": -77.00567583333333, "is_disabled": 0, "fusion_lat": 0.0, "lat": 38.87464883333333, "bike_id": "5c75ecff4036e70f791e2f5e07b8b594", "fusion_lon": 0.0}, {"rental_uris": {"ios": "https://dc.lft.to/lastmile_qr_scan", "android": "https://dc.lft.to/lastmile_qr_scan"}, "type": "electric_scooter", "name": "c81fe5d03568562624b4dd7266ace23b", "is_reserved": 0, "lon": -76.98506616666667, "is_disabled": 0, "fusion_lat": 0.0, "lat": 38.906961, "bike_id": "c81fe5d03568562624b4dd7266ace23b", "fusion_lon": 0.0}, {"rental_uris": {"ios": "https://dc.lft.to/lastmile_qr_scan", "android": "https://dc.lft.to/lastmile_qr_scan"}, "type": "electric_scooter", "name": "5b5bd6d02958660e4f103e8a3213d9f9", "is_reserved": 0, "lon": -77.04225916666667, "is_disabled": 0, "fusion_lat": 0.0, "lat": 38.921729166666665, "bike_id": "5b5bd6d02958660e4f103e8a3213d9f9", "fusion_lon": 0.0}, {"rental_uris": {"ios": "https://dc.lft.to/lastmile_qr_scan", "android": "https://dc.lft.to/lastmile_qr_scan"}, "type": "electric_scooter", "name": "fda296e29a99ef5848f17fc4ea704603", "is_reserved": 0, "lon": -77.01777633333333, "is_disabled": 0, "fusion_lat": 0.0, "lat": 38.921227, "bike_id": "fda296e29a99ef5848f17fc4ea704603", "fusion_lon": 0.0}, {"rental_uris": {"ios": "https://dc.lft.to/lastmile_qr_scan", "android": "https://dc.lft.to/lastmile_qr_scan"}, "type": "electric_scooter", "name": "c29199661769b65565283780ce8d8a69", "is_reserved": 0, "lon": -76.95698966666667, "is_disabled": 0, "fusion_lat": 0.0, "lat": 38.892135333333336, "bike_id": "c29199661769b65565283780ce8d8a69", "fusion_lon": 0.0}, {"rental_uris": {"ios": "https://dc.lft.to/lastmile_qr_scan", "android": "https://dc.lft.to/lastmile_qr_scan"}, "type": "electric_scooter", "name": "912c778c597883490614787a9b1b1311", "is_reserved": 0, "lon": -77.03860616666667, "is_disabled": 0, "fusion_lat": 0.0, "lat": 38.917157833333334, "bike_id": "912c778c597883490614787a9b1b1311", "fusion_lon": 0.0}, {"rental_uris": {"ios": "https://dc.lft.to/lastmile_qr_scan", "android": "https://dc.lft.to/lastmile_qr_scan"}, "type": "electric_scooter", "name": "f23342780033876345e2233cd99272d2", "is_reserved": 0, "lon": -76.99035833333333, "is_disabled": 0, "fusion_lat": 0.0, "lat": 38.88874583333333, "bike_id": "f23342780033876345e2233cd99272d2", "fusion_lon": 0.0}, {"rental_uris": {"ios": "https://dc.lft.to/lastmile_qr_scan", "android": "https://dc.lft.to/lastmile_qr_scan"}, "type": "electric_scooter", "name": "9d9e52c1b26cf66b28a73bc3bf371afc", "is_reserved": 0, "lon": -77.04352316666666, "is_disabled": 0, "fusion_lat": 0.0, "lat": 38.9013475, "bike_id": "9d9e52c1b26cf66b28a73bc3bf371afc", "fusion_lon": 0.0}, {"rental_uris": {"ios": "https://dc.lft.to/lastmile_qr_scan", "android": "https://dc.lft.to/lastmile_qr_scan"}, "type": "electric_scooter", "name": "c23f471518f696afc1c94b8fdd1beb64", "is_reserved": 0, "lon": -77.01155616666667, "is_disabled": 0, "fusion_lat": 0.0, "lat": 38.9145535, "bike_id": "c23f471518f696afc1c94b8fdd1beb64", "fusion_lon": 0.0}, {"rental_uris": {"ios": "https://dc.lft.to/lastmile_qr_scan", "android": "https://dc.lft.to/lastmile_qr_scan"}, "type": "electric_scooter", "name": "b5bc8f4cd21727024a7976f14a8517c1", "is_reserved": 0, "lon": -77.02490533333334, "is_disabled": 0, "fusion_lat": 0.0, "lat": 38.919721, "bike_id": "b5bc8f4cd21727024a7976f14a8517c1", "fusion_lon": 0.0}, {"rental_uris": {"ios": "https://dc.lft.to/lastmile_qr_scan", "android": "https://dc.lft.to/lastmile_qr_scan"}, "type": "electric_bike", "name": "3567f28442070ce843bfe2ab8abd95c3", "is_reserved": 0, "lon": -77.05094583333333, "is_disabled": 0, "fusion_lat": 0.0, "lat": 38.813377333333335, "bike_id": "3567f28442070ce843bfe2ab8abd95c3", "fusion_lon": 0.0}, {"rental_uris": {"ios": "https://dc.lft.to/lastmile_qr_scan", "android": "https://dc.lft.to/lastmile_qr_scan"}, "type": "electric_scooter", "name": "d50dbc16a0abf3f0054fc8625eb7ac0d", "is_reserved": 0, "lon": -77.04776833333334, "is_disabled": 0, "fusion_lat": 0.0, "lat": 38.90866583333333, "bike_id": "d50dbc16a0abf3f0054fc8625eb7ac0d", "fusion_lon": 0.0}, {"rental_uris": {"ios": "https://dc.lft.to/lastmile_qr_scan", "android": "https://dc.lft.to/lastmile_qr_scan"}, "type": "electric_bike", "name": "67cd38d25d18239cc35d5c28fff6e6c2", "is_reserved": 0, "lon": -76.97334916666667, "is_disabled": 0, "fusion_lat": 0.0, "lat": 38.86526216666667, "bike_id": "67cd38d25d18239cc35d5c28fff6e6c2", "fusion_lon": 0.0}, {"rental_uris": {"ios": "https://dc.lft.to/lastmile_qr_scan", "android": "https://dc.lft.to/lastmile_qr_scan"}, "type": "electric_scooter", "name": "d64e0a622d136bb1101f9a4f73d6a8b3", "is_reserved": 0, "lon": -77.01491966666667, "is_disabled": 0, "fusion_lat": 0.0, "lat": 38.8874545, "bike_id": "d64e0a622d136bb1101f9a4f73d6a8b3", "fusion_lon": 0.0}, {"rental_uris": {"ios": "https://dc.lft.to/lastmile_qr_scan", "android": "https://dc.lft.to/lastmile_qr_scan"}, "type": "electric_scooter", "name": "da50b6266e235d19af5c1efadc4601ef", "is_reserved": 0, "lon": -76.988604, "is_disabled": 0, "fusion_lat": 0.0, "lat": 38.930828, "bike_id": "da50b6266e235d19af5c1efadc4601ef", "fusion_lon": 0.0}, {"rental_uris": {"ios": "https://dc.lft.to/lastmile_qr_scan", "android": "https://dc.lft.to/lastmile_qr_scan"}, "type": "electric_scooter", "name": "ae578fb4538325e07cdfa305bd3928d2", "is_reserved": 0, "lon": -77.00220683333333, "is_disabled": 0, "fusion_lat": 0.0, "lat": 38.89463516666667, "bike_id": "ae578fb4538325e07cdfa305bd3928d2", "fusion_lon": 0.0}, {"rental_uris": {"ios": "https://dc.lft.to/lastmile_qr_scan", "android": "https://dc.lft.to/lastmile_qr_scan"}, "type": "electric_scooter", "name": "0d06f6fd6edc9b8927ad7bdc33c57a47", "is_reserved": 0, "lon": -76.99685933333333, "is_disabled": 0, "fusion_lat": 0.0, "lat": 38.92720283333333, "bike_id": "0d06f6fd6edc9b8927ad7bdc33c57a47", "fusion_lon": 0.0}, {"rental_uris": {"ios": "https://dc.lft.to/lastmile_qr_scan", "android": "https://dc.lft.to/lastmile_qr_scan"}, "type": "electric_scooter", "name": "08ef8cf1af0d1cf457e85fcb397543fa", "is_reserved": 0, "lon": -77.04362733333333, "is_disabled": 0, "fusion_lat": 0.0, "lat": 38.9215245, "bike_id": "08ef8cf1af0d1cf457e85fcb397543fa", "fusion_lon": 0.0}, {"rental_uris": {"ios": "https://dc.lft.to/lastmile_qr_scan", "android": "https://dc.lft.to/lastmile_qr_scan"},