{"data": {"bikes": [{"lat": 38.895366333333335, "fusion_lat": 0.0, "type": "electric_scooter", "bike_id": "8907e6e40cb9ad3f5baf73c8d1449de7", "rental_uris": {"ios": "https://dc.lft.to/lastmile_qr_scan", "android": "https://dc.lft.to/lastmile_qr_scan"}, "fusion_lon": 0.0, "lon": -77.04645566666666, "name": "8907e6e40cb9ad3f5baf73c8d1449de7", "is_reserved": 0, "is_disabled": 0}, {"lat": 38.90374833333333, "fusion_lat": 0.0, "type": "electric_scooter", "bike_id": "8efcde5bd1c613f074186bc28d6f71f8", "rental_uris": {"ios": "https://dc.lft.to/lastmile_qr_scan", "android": "https://dc.lft.to/lastmile_qr_scan"}, "fusion_lon": 0.0, "lon": -77.03881233333334, "name": "8efcde5bd1c613f074186bc28d6f71f8", "is_reserved": 0, "is_disabled": 0}, {"lat": 38.927403166666664, "fusion_lat": 0.0, "type": "electric_scooter", "bike_id": "166f5189d70c595846e840d7474c56f4", "rental_uris": {"ios": "https://dc.lft.to/lastmile_qr_scan", "android": "https://dc.lft.to/lastmile_qr_scan"}, "fusion_lon": 0.0, "lon": -76.99556216666667, "name": "166f5189d70c595846e840d7474c56f4", "is_reserved": 0, "is_disabled": 0}, {"lat": 38.91023466666667, "fusion_lat": 0.0, "type": "electric_scooter", "bike_id": "e457bb1158ea32794a9714e9c7086688", "rental_uris": {"ios": "https://dc.lft.to/lastmile_qr_scan", "android": "https://dc.lft.to/lastmile_qr_scan"}, "fusion_lon": 0.0, "lon": -77.02934033333334, "name": "e457bb1158ea32794a9714e9c7086688", "is_reserved": 0, "is_disabled": 0}, {"lat": 38.90164716666666, "fusion_lat": 0.0, "type": "electric_scooter", "bike_id": "0540f03cab2979fbdf25b2f04ceab7a5", "rental_uris": {"ios": "https://dc.lft.to/lastmile_qr_scan", "android": "https://dc.lft.to/lastmile_qr_scan"}, "fusion_lon": 0.0, "lon": -77.01596033333334, "name": "0540f03cab2979fbdf25b2f04ceab7a5", "is_reserved": 0, "is_disabled": 0}, {"lat": 38.90525816666667, "fusion_lat": 0.0, "type": "electric_scooter", "bike_id": "a91c744a8e916a2719a6b96b80e83b81", "rental_uris": {"ios": "https://dc.lft.to/lastmile_qr_scan", "android": "https://dc.lft.to/lastmile_qr_scan"}, "fusion_lon": 0.0, "lon": -77.04848066666666, "name": "a91c744a8e916a2719a6b96b80e83b81", "is_reserved": 0, "is_disabled": 0}, {"lat": 38.91089516666667, "fusion_lat": 0.0, "type": "electric_scooter", "bike_id": "7f60aab85738207a644b45287fd4e85b", "rental_uris": {"ios": "https://dc.lft.to/lastmile_qr_scan", "android": "https://dc.lft.to/lastmile_qr_scan"}, "fusion_lon": 0.0, "lon": -77.04473266666666, "name": "7f60aab85738207a644b45287fd4e85b", "is_reserved": 0, "is_disabled": 0}, {"lat": 38.92329816666667, "fusion_lat": 0.0, "type": "electric_scooter", "bike_id": "5ef1eddbbe1454572fe8812b3ea4fe0a", "rental_uris": {"ios": "https://dc.lft.to/lastmile_qr_scan", "android": "https://dc.lft.to/lastmile_qr_scan"}, "fusion_lon": 0.0, "lon": -77.01912916666667, "name": "5ef1eddbbe1454572fe8812b3ea4fe0a", "is_reserved": 0, "is_disabled": 0}, {"lat": 38.87101833333333, "fusion_lat": 0.0, "type": "electric_scooter", "bike_id": "48b83ab07dc1c43611cc4a6c642465f6", "rental_uris": {"ios": "https://dc.lft.to/lastmile_qr_scan", "android": "https://dc.lft.to/lastmile_qr_scan"}, "fusion_lon": 0.0, "lon": -76.94198266666666, "name": "48b83ab07dc1c43611cc4a6c642465f6", "is_reserved": 0, "is_disabled": 0}, {"lat": 38.90660533333333, "fusion_lat": 0.0, "type": "electric_scooter", "bike_id": "472475484867214d321ec0b644626f81", "rental_uris": {"ios": "https://dc.lft.to/lastmile_qr_scan", "android": "https://dc.lft.to/lastmile_qr_scan"}, "fusion_lon": 0.0, "lon": -77.03798616666667, "name": "472475484867214d321ec0b644626f81", "is_reserved": 0, "is_disabled": 0}, {"lat": 38.83969416666667, "fusion_lat": 0.0, "type": "electric_bike", "bike_id": "8fcbd617bd28c51e8836431987eee4cf", "rental_uris": {"ios": "https://dc.lft.to/lastmile_qr_scan", "android": "https://dc.lft.to/lastmile_qr_scan"}, "fusion_lon": 0.0, "lon": -76.97734683333333, "name": "8fcbd617bd28c51e8836431987eee4cf", "is_reserved": 0, "is_disabled": 0}, {"lat": 38.89250583333333, "fusion_lat": 0.0, "type": "electric_scooter", "bike_id": "eea2ed89832b5d29e1a8e87ad7bb6e49", "rental_uris": {"ios": "https://dc.lft.to/lastmile_qr_scan", "android": "https://dc.lft.to/lastmile_qr_scan"}, "fusion_lon": 0.0, "lon": -76.98839783333334, "name": "eea2ed89832b5d29e1a8e87ad7bb6e49", "is_reserved": 0, "is_disabled": 0}, {"lat": 38.91797283333333, "fusion_lat": 0.0, "type": "electric_scooter", "bike_id": "15313c9281c2c03df732db8d270d9533", "rental_uris": {"ios": "https://dc.lft.to/lastmile_qr_scan", "android": "https://dc.lft.to/lastmile_qr_scan"}, "fusion_lon": 0.0, "lon": -77.040115, "name": "15313c9281c2c03df732db8d270d9533", "is_reserved": 0, "is_disabled": 0}, {"lat": 39.0048125, "fusion_lat": 0.0, "type": "electric_bike", "bike_id": "d6f217ed762bec626d03733fdb6e9e12", "rental_uris": {"ios": "https://dc.lft.to/lastmile_qr_scan", "android": "https://dc.lft.to/lastmile_qr_scan"}, "fusion_lon": 0.0, "lon": -77.021822, "name": "d6f217ed762bec626d03733fdb6e9e12", "is_reserved": 0, "is_disabled": 0}, {"lat": 38.90199633333334, "fusion_lat": 0.0, "type": "electric_scooter", "bike_id": "1b4189e11481ecec740e24a538b5c97d", "rental_uris": {"ios": "https://dc.lft.to/lastmile_qr_scan", "android": "https://dc.lft.to/lastmile_qr_scan"}, "fusion_lon": 0.0, "lon": -77.0237135, "name": "1b4189e11481ecec740e24a538b5c97d", "is_reserved": 0, "is_disabled": 0}, {"lat": 38.90743283333333, "fusion_lat": 0.0, "type": "electric_scooter", "bike_id": "536787a1ba42f70663b0debdb6ee693f", "rental_uris": {"ios": "https://dc.lft.to/lastmile_qr_scan", "android": "https://dc.lft.to/lastmile_qr_scan"}, "fusion_lon": 0.0, "lon": -77.00312666666666, "name": "536787a1ba42f70663b0debdb6ee693f", "is_reserved": 0, "is_disabled": 0}, {"lat": 38.92038866666667, "fusion_lat": 0.0, "type": "electric_bike", "bike_id": "fbdc02d5a745644bf8c99a475d698b63", "rental_uris": {"ios": "https://dc.lft.to/lastmile_qr_scan", "android": "https://dc.lft.to/lastmile_qr_scan"}, "fusion_lon": 0.0, "lon": -76.97954066666667, "name": "fbdc02d5a745644bf8c99a475d698b63", "is_reserved": 0, "is_disabled": 0}, {"lat": 38.9073, "fusion_lat": 0.0, "type": "electric_scooter", "bike_id": "64f7da5cc45b90171032416c6579014f", "rental_uris": {"ios": "https://dc.lft.to/lastmile_qr_scan", "android": "https://dc.lft.to/lastmile_qr_scan"}, "fusion_lon": 0.0, "lon": -77.04297583333333, "name": "64f7da5cc45b90171032416c6579014f", "is_reserved": 0, "is_disabled": 0}, {"lat": 38.908384166666664, "fusion_lat": 0.0, "type": "electric_scooter", "bike_id": "947c0deb5e2673d6c365d2dbb4bf3f7c", "rental_uris": {"ios": "https://dc.lft.to/lastmile_qr_scan", "android": "https://dc.lft.to/lastmile_qr_scan"}, "fusion_lon": 0.0, "lon": -77.06379316666667, "name": "947c0deb5e2673d6c365d2dbb4bf3f7c", "is_reserved": 0, "is_disabled": 0}, {"lat": 38.9735405, "fusion_lat": 0.0, "type": "electric_scooter", "bike_id": "fe067096e3e95932588e0a5f06c9ee5c", "rental_uris": {"ios": "https://dc.lft.to/lastmile_qr_scan", "android": "https://dc.lft.to/lastmile_qr_scan"}, "fusion_lon": 0.0, "lon": -77.02783633333334, "name": "fe067096e3e95932588e0a5f06c9ee5c", "is_reserved": 0, "is_disabled": 0}, {"lat": 38.944296, "fusion_lat": 0.0, "type": "electric_scooter", "bike_id": "3ca5a8fc307a9d835b3239f84841d01c", "rental_uris": {"ios": "https://dc.lft.to/lastmile_qr_scan", "android": "https://dc.lft.to/lastmile_qr_scan"}, "fusion_lon": 0.0, "lon": -77.06319066666667, "name": "3ca5a8fc307a9d835b3239f84841d01c", "is_reserved": 0, "is_disabled": 0}, {"lat": 38.8870615, "fusion_lat": 0.0, "type": "electric_scooter", "bike_id": "801b0352e71c98963f5fbe576557cbab", "rental_uris": {"ios": "https://dc.lft.to/lastmile_qr_scan", "android": "https://dc.lft.to/lastmile_qr_scan"}, "fusion_lon": 0.0, "lon": -77.013609, "name": "801b0352e71c98963f5fbe576557cbab", "is_reserved": 0, "is_disabled": 0}, {"lat": 38.945038833333335, "fusion_lat": 0.0, "type": "electric_scooter", "bike_id": "48947edd4c8109bfef1b0c68839d4c81", "rental_uris": {"ios": "https://dc.lft.to/lastmile_qr_scan", "android": "https://dc.lft.to/lastmile_qr_scan"}, "fusion_lon": 0.0, "lon": -77.03828316666667, "name": "48947edd4c8109bfef1b0c68839d4c81", "is_reserved": 0, "is_disabled": 0}, {"lat": 38.928857, "fusion_lat": 0.0, "type": "electric_scooter", "bike_id": "010d1ec9c2e2956b566fae5a1eed27dc", "rental_uris": {"ios": "https://dc.lft.to/lastmile_qr_scan", "android": "https://dc.lft.to/lastmile_qr_scan"}, "fusion_lon": 0.0, "lon": -77.03261016666667, "name": "010d1ec9c2e2956b566fae5a1eed27dc", "is_reserved": 0, "is_disabled": 0}, {"lat": 38.902651166666665, "fusion_lat": 0.0, "type": "electric_scooter", "bike_id": "9879381d12a81537681d860781348974", "rental_uris": {"ios": "https://dc.lft.to/lastmile_qr_scan", "android": "https://dc.lft.to/lastmile_qr_scan"}, "fusion_lon": 0.0, "lon": -77.043342, "name": "9879381d12a81537681d860781348974", "is_reserved": 0, "is_disabled": 0}, {"lat": 38.904288666666666, "fusion_lat": 0.0, "type": "electric_scooter", "bike_id": "1d91d9e4c1eba152e5068fd4e59dfb9a", "rental_uris": {"ios": "https://dc.lft.to/lastmile_qr_scan", "android": "https://dc.lft.to/lastmile_qr_scan"}, "fusion_lon": 0.0, "lon": -77.04660383333334, "name": "1d91d9e4c1eba152e5068fd4e59dfb9a", "is_reserved": 0, "is_disabled": 0}, {"lat": 38.901131166666666, "fusion_lat": 0.0, "type": "electric_scooter", "bike_id": "7dd78afb5c540b33dc9d7a27fcfc8faf", "rental_uris": {"ios": "https://dc.lft.to/lastmile_qr_scan", "android": "https://dc.lft.to/lastmile_qr_scan"}, "fusion_lon": 0.0, "lon": -77.02710833333333, "name": "7dd78afb5c540b33dc9d7a27fcfc8faf", "is_reserved": 0, "is_disabled": 0}, {"lat": 38.92463166666667, "fusion_lat": 0.0, "type": "electric_scooter", "bike_id": "70b61c082e49f2cbe7652505658d4eac", "rental_uris": {"ios": "https://dc.lft.to/lastmile_qr_scan", "android": "https://dc.lft.to/lastmile_qr_scan"}, "fusion_lon": 0.0, "lon": -77.0215265, "name": "70b61c082e49f2cbe7652505658d4eac", "is_reserved": 0, "is_disabled": 0}, {"lat": 38.91818983333334, "fusion_lat": 0.0, "type": "electric_scooter", "bike_id": "e735ec4526a539c38ae2941838f03038", "rental_uris": {"ios": "https://dc.lft.to/lastmile_qr_scan", "android": "https://dc.lft.to/lastmile_qr_scan"}, "fusion_lon": 0.0, "lon": -77.0345615, "name": "e735ec4526a539c38ae2941838f03038", "is_reserved": 0, "is_disabled": 0}, {"lat": 38.926575666666665, "fusion_lat": 0.0, "type": "electric_scooter", "bike_id": "3fd297a04ea00d03c9f71760cd7c2aaa", "rental_uris": {"ios": "https://dc.lft.to/lastmile_qr_scan", "android": "https://dc.lft.to/lastmile_qr_scan"}, "fusion_lon": 0.0, "lon": -77.024227, "name": "3fd297a04ea00d03c9f71760cd7c2aaa", "is_reserved": 0, "is_disabled": 0}, {"lat": 38.87648866666667, "fusion_lat": 0.0, "type": "electric_scooter", "bike_id": "d7c84fffca454ef83bae1c9def98363a", "rental_uris": {"ios": "https://dc.lft.to/lastmile_qr_scan", "android": "https://dc.lft.to/lastmile_qr_scan"}, "fusion_lon": 0.0, "lon": -77.014768, "name": "d7c84fffca454ef83bae1c9def98363a", "is_reserved": 0, "is_disabled": 0}, {"lat": 38.874699166666666, "fusion_lat": 0.0, "type": "electric_scooter", "bike_id": "e8d3f55b296ff49a1ca0718cf966db0e", "rental_uris": {"ios": "https://dc.lft.to/lastmile_qr_scan", "android": "https://dc.lft.to/lastmile_qr_scan"}, "fusion_lon": 0.0, "lon": -77.00472166666667, "name": "e8d3f55b296ff49a1ca0718cf966db0e", "is_reserved": 0, "is_disabled": 0}, {"lat": 38.88994366666667, "fusion_lat": 0.0, "type": "electric_scooter", "bike_id": "d04383796d474e5457219bd5d0623ced", "rental_uris": {"ios": "https://dc.lft.to/lastmile_qr_scan", "android": "https://dc.lft.to/lastmile_qr_scan"}, "fusion_lon": 0.0, "lon": -76.983625, "name": "d04383796d474e5457219bd5d0623ced", "is_reserved": 0, "is_disabled": 0}, {"lat": 38.902334833333335, "fusion_lat": 0.0, "type": "electric_scooter", "bike_id": "cc0bc15688ad6fbbdcc5c3f9fe22b87d", "rental_uris": {"ios": "https://dc.lft.to/lastmile_qr_scan", "android": "https://dc.lft.to/lastmile_qr_scan"}, "fusion_lon": 0.0, "lon": -77.03469516666667, "name": "cc0bc15688ad6fbbdcc5c3f9fe22b87d", "is_reserved": 0, "is_disabled": 0}, {"lat": 38.9120215, "fusion_lat": 0.0, "type": "electric_scooter", "bike_id": "bae556d68276e67a79719b0641e10262", "rental_uris": {"ios": "https://dc.lft.to/lastmile_qr_scan", "android": "https://dc.lft.to/lastmile_qr_scan"}, "fusion_lon": 0.0, "lon": -77.07308716666667, "name": "bae556d68276e67a79719b0641e10262", "is_reserved": 0, "is_disabled": 0}, {"lat": 38.914086166666664, "fusion_lat": 0.0, "type": "electric_scooter", "bike_id": "6216cc70357ae021dca9b099b12e8d16", "rental_uris": {"ios": "https://dc.lft.to/lastmile_qr_scan", "android": "https://dc.lft.to/lastmile_qr_scan"}, "fusion_lon": 0.0, "lon": -77.032246, "name": "6216cc70357ae021dca9b099b12e8d16", "is_reserved": 0, "is_disabled": 0}, {"lat": 38.924282, "fusion_lat": 0.0, "type": "electric_scooter", "bike_id": "d6e5af3830b0a3b8b7feb3532194f222", "rental_uris": {"ios": "https://dc.lft.to/lastmile_qr_scan", "android": "https://dc.lft.to/lastmile_qr_scan"}, "fusion_lon": 0.0, "lon": -77.0517325, "name": "d6e5af3830b0a3b8b7feb3532194f222", "is_reserved": 0, "is_disabled": 0}, {"lat": 38.90020533333333, "fusion_lat": 0.0, "type": "electric_scooter", "bike_id": "36cbbed577e804c513ac37bdbe7df632", "rental_uris": {"ios": "https://dc.lft.to/lastmile_qr_scan", "android": "https://dc.lft.to/lastmile_qr_scan"}, "fusion_lon": 0.0, "lon": -77.01181266666667, "name": "36cbbed577e804c513ac37bdbe7df632", "is_reserved": 0, "is_disabled": 0}, {"lat": 38.903609833333334, "fusion_lat": 0.0, "type": "electric_scooter", "bike_id": "edfcefbfc68b371d241046da9a59ecb0", "rental_uris": {"ios": "https://dc.lft.to/lastmile_qr_scan", "android": "https://dc.lft.to/lastmile_qr_scan"}, "fusion_lon": 0.0, "lon": -77.03546883333334, "name": "edfcefbfc68b371d241046da9a59ecb0", "is_reserved": 0, "is_disabled": 0}, {"lat": 38.836124, "fusion_lat": 0.0, "type": "electric_bike", "bike_id": "8c8f16d7f304af920556d4a931e0e005", "rental_uris": {"ios": "https://dc.lft.to/lastmile_qr_scan", "android": "https://dc.lft.to/lastmile_qr_scan"}, "fusion_lon": 0.0, "lon": -77.0037995, "name": "8c8f16d7f304af920556d4a931e0e005", "is_reserved": 0, "is_disabled": 0}, {"lat": 38.8952395, "fusion_lat": 0.0, "type": "electric_scooter", "bike_id": "6ccaa676c37bf55cb2e1eb32f8025136", "rental_uris": {"ios": "https://dc.lft.to/lastmile_qr_scan", "android": "https://dc.lft.to/lastmile_qr_scan"}, "fusion_lon": 0.0, "lon": -77.02822116666667, "name": "6ccaa676c37bf55cb2e1eb32f8025136", "is_reserved": 0, "is_disabled": 0}, {"lat": 38.909526166666666, "fusion_lat": 0.0, "type": "electric_scooter", "bike_id": "8fc8d5135ccdc345737455fe82983ddb", "rental_uris": {"ios": "https://dc.lft.to/lastmile_qr_scan", "android": "https://dc.lft.to/lastmile_qr_scan"}, "fusion_lon": 0.0, "lon": -77.0268515, "name": "8fc8d5135ccdc345737455fe82983ddb", "is_reserved": 0, "is_disabled": 0}, {"lat": 38.92666783333333, "fusion_lat": 0.0, "type": "electric_scooter", "bike_id": "c75469c43b03a334bb0ae6a97ce1d266", "rental_uris": {"ios": "https://dc.lft.to/lastmile_qr_scan", "android": "https://dc.lft.to/lastmile_qr_scan"}, "fusion_lon": 0.0, "lon": -77.0257645, "name": "c75469c43b03a334bb0ae6a97ce1d266", "is_reserved": 0, "is_disabled": 0}, {"lat": 38.87396566666666, "fusion_lat": 0.0, "type": "electric_scooter", "bike_id": "29f531ca5ccbf0a3fb173be428059872", "rental_uris": {"ios": "https://dc.lft.to/lastmile_qr_scan", "android": "https://dc.lft.to/lastmile_qr_scan"}, "fusion_lon": 0.0, "lon": -77.0144835, "name": "29f531ca5ccbf0a3fb173be428059872", "is_reserved": 0, "is_disabled": 0}, {"lat": 38.90796233333333, "fusion_lat": 0.0, "type": "electric_scooter", "bike_id": "759a2e3d94422e23d7240703fb70f71d", "rental_uris": {"ios": "https://dc.lft.to/lastmile_qr_scan", "android": "https://dc.lft.to/lastmile_qr_scan"}, "fusion_lon": 0.0, "lon": -77.06345916666666, "name": "759a2e3d94422e23d7240703fb70f71d", "is_reserved": 0, "is_disabled": 0}, {"lat": 38.8983285, "fusion_lat": 0.0, "type": "electric_scooter", "bike_id": "b0f4152adbc372efdb70203bc0b80e34", "rental_uris": {"ios": "https://dc.lft.to/lastmile_qr_scan", "android": "https://dc.lft.to/lastmile_qr_scan"}, "fusion_lon": 0.0, "lon": -76.94632666666666, "name": "b0f4152adbc372efdb70203bc0b80e34", "is_reserved": 0, "is_disabled": 0}, {"lat": 38.906363166666665, "fusion_lat": 0.0, "type": "electric_scooter", "bike_id": "ea2a77050e14fd7f4819f526b9b2f171", "rental_uris": {"ios": "https://dc.lft.to/lastmile_qr_scan", "android": "https://dc.lft.to/lastmile_qr_scan"}, "fusion_lon": 0.0, "lon": -77.03880116666667, "name": "ea2a77050e14fd7f4819f526b9b2f171", "is_reserved": 0, "is_disabled": 0}, {"lat": 38.924553333333336, "fusion_lat": 0.0, "type": "electric_scooter", "bike_id": "9ef1dde989f31d7bcbd927db61e37dd7", "rental_uris": {"ios": "https://dc.lft.to/lastmile_qr_scan", "android": "https://dc.lft.to/lastmile_qr_scan"}, "fusion_lon": 0.0, "lon": -77.020206, "name": "9ef1dde989f31d7bcbd927db61e37dd7", "is_reserved": 0, "is_disabled": 0}, {"lat": 38.900649, "fusion_lat": 0.0, "type": "electric_scooter", "bike_id": "b442775420c45e791f3dbc29a1625e07", "rental_uris": {"ios": "https://dc.lft.to/lastmile_qr_scan", "android": "https://dc.lft.to/lastmile_qr_scan"}, "fusion_lon": 0.0, "lon": -77.0543165, "name": "b442775420c45e791f3dbc29a1625e07", "is_reserved": 0, "is_disabled": 0}, {"lat": 38.905514, "fusion_lat": 0.0, "type": "electric_scooter", "bike_id": "9bb3c5e73c41798d86ced157cbe86bf2", "rental_uris": {"ios": "https://dc.lft.to/lastmile_qr_scan", "android": "https://dc.lft.to/lastmile_qr_scan"}, "fusion_lon": 0.0, "lon": -76.994651, "name": "9bb3c5e73c41798d86ced157cbe86bf2", "is_reserved": 0, "is_disabled": 0}, {"lat": 38.9149445, "fusion_lat": 0.0, "type": "electric_scooter", "bike_id": "32ea827306a7fbd26658408b63547fbe", "rental_uris": {"ios": "https://dc.lft.to/lastmile_qr_scan", "android": "https://dc.lft.to/lastmile_qr_scan"}, "fusion_lon": 0.0, "lon": -77.01854416666667, "name": "32ea827306a7fbd26658408b63547fbe", "is_reserved": 0, "is_disabled": 0}, {"lat": 38.9147465, "fusion_lat": 0.0, "type": "electric_scooter", "bike_id": "faef2715b56e1c29474ed9a36b5fa4d3", "rental_uris": {"ios": "https://dc.lft.to/lastmile_qr_scan", "android": "https://dc.lft.to/lastmile_qr_scan"}, "fusion_lon": 0.0, "lon": -77.0245755, "name": "faef2715b56e1c29474ed9a36b5fa4d3", "is_reserved": 0, "is_disabled": 0}, {"lat": 38.892207, "fusion_lat": 0.0, "type": "electric_scooter", "bike_id": "ea50765ce5030db2b535a7807fd0804c", "rental_uris": {"ios": "https://dc.lft.to/lastmile_qr_scan", "android": "https://dc.lft.to/lastmile_qr_scan"}, "fusion_lon": 0.0, "lon": -77.0265535, "name": "ea50765ce5030db2b535a7807fd0804c", "is_reserved": 0, "is_disabled": 0}, {"lat": 38.8793205, "fusion_lat": 0.0, "type": "electric_scooter", "bike_id": "fa8efeb385001937badc9d06fda9c454", "rental_uris": {"ios": "https://dc.lft.to/lastmile_qr_scan", "android": "https://dc.lft.to/lastmile_qr_scan"}, "fusion_lon": 0.0, "lon": -77.004031, "name": "fa8efeb385001937badc9d06fda9c454", "is_reserved": 0, "is_disabled": 0}, {"lat": 38.883876, "fusion_lat": 0.0, "type": "electric_scooter", "bike_id": "66559850a94760d98e72a478d4e4d421", "rental_uris": {"ios": "https://dc.lft.to/lastmile_qr_scan", "android": "https://dc.lft.to/lastmile_qr_scan"}, "fusion_lon": 0.0, "lon": -76.99553466666667, "name": "66559850a94760d98e72a478d4e4d421", "is_reserved": 0, "is_disabled": 0}, {"lat": 38.920919166666664, "fusion_lat": 0.0, "type": "electric_scooter", "bike_id": "e1a5d5bc24d5dc23298f873cec1e09b4", "rental_uris": {"ios": "https://dc.lft.to/lastmile_qr_scan", "android": "https://dc.lft.to/lastmile_qr_scan"}, "fusion_lon": 0.0, "lon": -77.07553416666667, "name": "e1a5d5bc24d5dc23298f873cec1e09b4", "is_reserved": 0, "is_disabled": 0}, {"lat": 38.91917466666666, "fusion_lat": 0.0, "type": "electric_scooter", "bike_id": "96fd56ded1b4a8d4c28981352923ebc6", "rental_uris": {"ios": "https://dc.lft.to/lastmile_qr_scan", "android": "https://dc.lft.to/lastmile_qr_scan"}, "fusion_lon": 0.0, "lon": -77.01195166666666, "name": "96fd56ded1b4a8d4c28981352923ebc6", "is_reserved": 0, "is_disabled": 0}, {"lat": 38.902257, "fusion_lat": 0.0, "type": "electric_scooter", "bike_id": "376a9afaef0fd05112e41ad4333916be", "rental_uris": {"ios": "https://dc.lft.to/lastmile_qr_scan", "android": "https://dc.lft.to/lastmile_qr_scan"}, "fusion_lon": 0.0, "lon": -76.94197733333333, "name": "376a9afaef0fd05112e41ad4333916be", "is_reserved": 0, "is_disabled": 0}, {"lat": 38.920309333333336, "fusion_lat": 0.0, "type": "electric_scooter", "bike_id": "362f4d725c4cfa84d6bf0d341805f184", "rental_uris": {"ios": "https://dc.lft.to/lastmile_qr_scan", "android": "https://dc.lft.to/lastmile_qr_scan"}, "fusion_lon": 0.0, "lon": -77.03855916666667, "name": "362f4d725c4cfa84d6bf0d341805f184", "is_reserved": 0, "is_disabled": 0}, {"lat": 38.92497733333333, "fusion_lat": 0.0, "type": "electric_scooter", "bike_id": "f603ccb296180f88c4d944e89427a48b", "rental_uris": {"ios": "https://dc.lft.to/lastmile_qr_scan", "android": "https://dc.lft.to/lastmile_qr_scan"}, "fusion_lon": 0.0, "lon": -77.02448316666667, "name": "f603ccb296180f88c4d944e89427a48b", "is_reserved": 0, "is_disabled": 0}, {"lat": 38.903880666666666, "fusion_lat": 0.0, "type": "electric_scooter", "bike_id": "7bc93395417f10236490aa09e9ed7132", "rental_uris": {"ios": "https://dc.lft.to/lastmile_qr_scan", "android": "https://dc.lft.to/lastmile_qr_scan"}, "fusion_lon": 0.0, "lon": -77.03432, "name": "7bc93395417f10236490aa09e9ed7132", "is_reserved": 0, "is_disabled": 0}, {"lat": 38.89816616666667, "fusion_lat": 0.0, "type": "electric_scooter", "bike_id": "e908ebdd5b25e343d9d9147cb34e168f", "rental_uris": {"ios": "https://dc.lft.to/lastmile_qr_scan", "android": "https://dc.lft.to/lastmile_qr_scan"}, "fusion_lon": 0.0, "lon": -77.03163166666667, "name": "e908ebdd5b25e343d9d9147cb34e168f", "is_reserved": 0, "is_disabled": 0}, {"lat": 38.90643983333333, "fusion_lat": 0.0, "type": "electric_scooter", "bike_id": "1c28ac9c377898d7cee31bae33bb9ca2", "rental_uris": {"ios": "https://dc.lft.to/lastmile_qr_scan", "android": "https://dc.lft.to/lastmile_qr_scan"}, "fusion_lon": 0.0, "lon": -77.03902883333333, "name": "1c28ac9c377898d7cee31bae33bb9ca2", "is_reserved": 0, "is_disabled": 0}, {"lat": 38.88136266666667, "fusion_lat": 0.0, "type": "electric_bike", "bike_id": "e88b7ef7f49efab0180a8999402a89bd", "rental_uris": {"ios": "https://dc.lft.to/lastmile_qr_scan", "android": "https://dc.lft.to/lastmile_qr_scan"}, "fusion_lon": 0.0, "lon": -76.99549266666666, "name": "e88b7ef7f49efab0180a8999402a89bd", "is_reserved": 0, "is_disabled": 0}, {"lat": 38.928758, "fusion_lat": 0.0, "type": "electric_scooter", "bike_id": "7f74128a809178b853a5f259138a3e40", "rental_uris": {"ios": "https://dc.lft.to/lastmile_qr_scan", "android": "https://dc.lft.to/lastmile_qr_scan"}, "fusion_lon": 0.0, "lon": -77.032683, "name": "7f74128a809178b853a5f259138a3e40", "is_reserved": 0, "is_disabled": 0}, {"lat": 38.875491, "fusion_lat": 0.0, "type": "electric_scooter", "bike_id": "404e28c0c24ad479228156ffd0735df2", "rental_uris": {"ios": "https://dc.lft.to/lastmile_qr_scan", "android": "https://dc.lft.to/lastmile_qr_scan"}, "fusion_lon": 0.0, "lon": -77.005366, "name": "404e28c0c24ad479228156ffd0735df2", "is_reserved": 0, "is_disabled": 0}, {"lat": 38.9343025, "fusion_lat": 0.0, "type": "electric_scooter", "bike_id": "2602e2145a22c0f90899ab800160bbf3", "rental_uris": {"ios": "https://dc.lft.to/lastmile_qr_scan", "android": "https://dc.lft.to/lastmile_qr_scan"}, "fusion_lon": 0.0, "lon": -77.040024, "name": "2602e2145a22c0f90899ab800160bbf3", "is_reserved": 0, "is_disabled": 0}, {"lat": 38.909484, "fusion_lat": 0.0, "type": "electric_scooter", "bike_id": "4fb00edc45091c80255af49a85e5b93e", "rental_uris": {"ios": "https://dc.lft.to/lastmile_qr_scan", "android": "https://dc.lft.to/lastmile_qr_scan"}, "fusion_lon": 0.0, "lon": -77.02301083333333, "name": "4fb00edc45091c80255af49a85e5b93e", "is_reserved": 0, "is_disabled": 0}, {"lat": 38.9050735, "fusion_lat": 0.0, "type": "electric_scooter", "bike_id": "79ac4212b2575f0f67e01bc262cc2a2b", "rental_uris": {"ios": "https://dc.lft.to/lastmile_qr_scan", "android": "https://dc.lft.to/lastmile_qr_scan"}, "fusion_lon": 0.0, "lon": -77.060136, "name": "79ac4212b2575f0f67e01bc262cc2a2b", "is_reserved": 0, "is_disabled": 0}, {"lat": 38.9899075, "fusion_lat": 0.0, "type": "electric_bike", "bike_id": "e53a5520f1b2458239f90868f8ba0424", "rental_uris": {"ios": "https://dc.lft.to/lastmile_qr_scan", "android": "https://dc.lft.to/lastmile_qr_scan"}, "fusion_lon": 0.0, "lon": -77.096563, "name": "e53a5520f1b2458239f90868f8ba0424", "is_reserved": 0, "is_disabled": 0}, {"lat": 38.88333183333334, "fusion_lat": 0.0, "type": "electric_scooter", "bike_id": "2cd7185b629fcd117afaddc97fcbb5d9", "rental_uris": {"ios": "https://dc.lft.to/lastmile_qr_scan", "android": "https://dc.lft.to/lastmile_qr_scan"}, "fusion_lon": 0.0, "lon": -77.01140383333333, "name": "2cd7185b629fcd117afaddc97fcbb5d9", "is_reserved": 0, "is_disabled": 0}, {"lat": 38.925004, "fusion_lat": 0.0, "type": "electric_scooter", "bike_id": "6c59fdc0c6bf0335add7f1153dabd713", "rental_uris": {"ios": "https://dc.lft.to/lastmile_qr_scan", "android": "https://dc.lft.to/lastmile_qr_scan"}, "fusion_lon": 0.0, "lon": -77.0391315, "name": "6c59fdc0c6bf0335add7f1153dabd713", "is_reserved": 0, "is_disabled": 0}, {"lat": 38.899490166666666, "fusion_lat": 0.0, "type": "electric_scooter", "bike_id": "b079e38c1bfa96c8fec58fb8f9aa549c", "rental_uris": {"ios": "https://dc.lft.to/lastmile_qr_scan", "android": "https://dc.lft.to/lastmile_qr_scan"}, "fusion_lon": 0.0, "lon": -77.02005283333334, "name": "b079e38c1bfa96c8fec58fb8f9aa549c", "is_reserved": 0, "is_disabled": 0}, {"lat": 38.895670833333334, "fusion_lat": 0.0, "type": "electric_bike", "bike_id": "2fcdd829845abc36e8b95fb2e2b92f33", "rental_uris": {"ios": "https://dc.lft.to/lastmile_qr_scan", "android": "https://dc.lft.to/lastmile_qr_scan"}, "fusion_lon": 0.0, "lon": -77.12735616666667, "name": "2fcdd829845abc36e8b95fb2e2b92f33", "is_reserved": 0, "is_disabled": 0}, {"lat": 39.0141875, "fusion_lat": 0.0, "type": "electric_bike", "bike_id": "51d0f9e91e29a15c189c60f5f810947b", "rental_uris": {"ios": "https://dc.lft.to/lastmile_qr_scan", "android": "https://dc.lft.to/lastmile_qr_scan"}, "fusion_lon": 0.0, "lon": -77.04496033333334, "name": "51d0f9e91e29a15c189c60f5f810947b", "is_reserved": 0, "is_disabled": 0}, {"lat": 38.87378616666667, "fusion_lat": 0.0, "type": "electric_scooter", "bike_id": "92ea02898278c233def3316e3f730f77", "rental_uris": {"ios": "https://dc.lft.to/lastmile_qr_scan", "android": "https://dc.lft.to/lastmile_qr_scan"}, "fusion_lon": 0.0, "lon": -77.00166983333334, "name": "92ea02898278c233def3316e3f730f77", "is_reserved": 0, "is_disabled": 0}, {"lat": 38.910590666666664, "fusion_lat": 0.0, "type": "electric_scooter", "bike_id": "d2e78b01d3813f1e89fd6b9b63ef16e6", "rental_uris": {"ios": "https://dc.lft.to/lastmile_qr_scan", "android": "https://dc.lft.to/lastmile_qr_scan"}, "fusion_lon": 0.0, "lon": -77.0308905, "name": "d2e78b01d3813f1e89fd6b9b63ef16e6", "is_reserved": 0, "is_disabled": 0}, {"lat": 38.90557183333333, "fusion_lat": 0.0, "type": "electric_scooter", "bike_id": "bed03f9e0abd58902f2a3d41f5d10058", "rental_uris": {"ios": "https://dc.lft.to/lastmile_qr_scan", "android": "https://dc.lft.to/lastmile_qr_scan"}, "fusion_lon": 0.0, "lon": -77.00803633333334, "name": "bed03f9e0abd58902f2a3d41f5d10058", "is_reserved": 0, "is_disabled": 0}, {"lat": 38.920922833333336, "fusion_lat": 0.0, "type": "electric_scooter", "bike_id": "9fe32412ed51e2758e5381122aff87ae", "rental_uris": {"ios": "https://dc.lft.to/lastmile_qr_scan", "android": "https://dc.lft.to/lastmile_qr_scan"}, "fusion_lon": 0.0, "lon": -77.025113, "name": "9fe32412ed51e2758e5381122aff87ae", "is_reserved": 0, "is_disabled": 0}, {"lat": 38.892216, "fusion_lat": 0.0, "type": "electric_scooter", "bike_id": "bf87d7d51b7206d92f765e5db90bcbd2", "rental_uris": {"ios": "https://dc.lft.to/lastmile_qr_scan", "android": "https://dc.lft.to/lastmile_qr_scan"}, "fusion_lon": 0.0, "lon": -77.0277755, "name": "bf87d7d51b7206d92f765e5db90bcbd2", "is_reserved": 0, "is_disabled": 0}, {"lat": 38.916004, "fusion_lat": 0.0, "type": "electric_scooter", "bike_id": "17699357c4b8d6928816a79b8242d943", "rental_uris": {"ios": "https://dc.lft.to/lastmile_qr_scan", "android": "https://dc.lft.to/lastmile_qr_scan"}, "fusion_lon": 0.0, "lon": -77.01446883333334, "name": "17699357c4b8d6928816a79b8242d943", "is_reserved": 0, "is_disabled": 0}, {"lat": 38.8765995, "fusion_lat": 0.0, "type": "electric_scooter", "bike_id": "92077cac9ca47f2021f148162f95887b", "rental_uris": {"ios": "https://dc.lft.to/lastmile_qr_scan", "android": "https://dc.lft.to/lastmile_qr_scan"}, "fusion_lon": 0.0, "lon": -77.00332083333333, "name": "92077cac9ca47f2021f148162f95887b", "is_reserved": 0, "is_disabled": 0}, {"lat": 38.91691816666667, "fusion_lat": 0.0, "type": "electric_scooter", "bike_id": "f62ddfc18d5515b15381a4d3dcc0630f", "rental_uris": {"ios": "https://dc.lft.to/lastmile_qr_scan", "android": "https://dc.lft.to/lastmile_qr_scan"}, "fusion_lon": 0.0, "lon": -77.036332, "name": "f62ddfc18d5515b15381a4d3dcc0630f", "is_reserved": 0, "is_disabled": 0}, {"lat": 38.90015433333333, "fusion_lat": 0.0, "type": "electric_scooter", "bike_id": "235c3ce3dce0054cc18aa739340fc42e", "rental_uris": {"ios": "https://dc.lft.to/lastmile_qr_scan", "android": "https://dc.lft.to/lastmile_qr_scan"}, "fusion_lon": 0.0, "lon": -77.03314716666667, "name": "235c3ce3dce0054cc18aa739340fc42e", "is_reserved": 0, "is_disabled": 0}, {"lat": 38.921625166666665, "fusion_lat": 0.0, "type": "electric_scooter", "bike_id": "21632547c132b40df0848c1d6b31b269", "rental_uris": {"ios": "https://dc.lft.to/lastmile_qr_scan", "android": "https://dc.lft.to/lastmile_qr_scan"}, "fusion_lon": 0.0, "lon": -77.02400316666666, "name": "21632547c132b40df0848c1d6b31b269", "is_reserved": 0, "is_disabled": 0}, {"lat": 38.8980405, "fusion_lat": 0.0, "type": "electric_scooter", "bike_id": "d86d2beeae4ae608e98977a2de314e5e", "rental_uris": {"ios": "https://dc.lft.to/lastmile_qr_scan", "android": "https://dc.lft.to/lastmile_qr_scan"}, "fusion_lon": 0.0, "lon": -77.021795, "name": "d86d2beeae4ae608e98977a2de314e5e", "is_reserved": 0, "is_disabled": 0}, {"lat": 38.905822, "fusion_lat": 0.0, "type": "electric_scooter", "bike_id": "936ab95510fd9c9c84dad89652a722b1", "rental_uris": {"ios": "https://dc.lft.to/lastmile_qr_scan", "android": "https://dc.lft.to/lastmile_qr_scan"}, "fusion_lon": 0.0, "lon": -76.993017, "name": "936ab95510fd9c9c84dad89652a722b1", "is_reserved": 0, "is_disabled": 0}, {"lat": 38.99691583333333, "fusion_lat": 0.0, "type": "electric_bike", "bike_id": "3a08eb71b3511b23a6f7a2b3d77c677f", "rental_uris": {"ios": "https://dc.lft.to/lastmile_qr_scan", "android": "https://dc.lft.to/lastmile_qr_scan"}, "fusion_lon": 0.0, "lon": -77.02567466666666, "name": "3a08eb71b3511b23a6f7a2b3d77c677f", "is_reserved": 0, "is_disabled": 0}, {"lat": 38.90767483333333, "fusion_lat": 0.0, "type": "electric_scooter", "bike_id": "8de58b63c0833680a2119c2081a7a867", "rental_uris": {"ios": "https://dc.lft.to/lastmile_qr_scan", "android": "https://dc.lft.to/lastmile_qr_scan"}, "fusion_lon": 0.0, "lon": -77.03584483333333, "name": "8de58b63c0833680a2119c2081a7a867", "is_reserved": 0, "is_disabled": 0}, {"lat": 38.908781833333336, "fusion_lat": 0.0, "type": "electric_scooter", "bike_id": "7afad89e76628e07a94fa240195da895", "rental_uris": {"ios": "https://dc.lft.to/lastmile_qr_scan", "android": "https://dc.lft.to/lastmile_qr_scan"}, "fusion_lon": 0.0, "lon": -77.032369, "name": "7afad89e76628e07a94fa240195da895", "is_reserved": 0, "is_disabled": 0}, {"lat": 38.876606, "fusion_lat": 0.0, "type": "electric_scooter", "bike_id": "5b860b5ff3b52b591b0d256b401737f9", "rental_uris": {"ios": "https://dc.lft.to/lastmile_qr_scan", "android": "https://dc.lft.to/lastmile_qr_scan"}, "fusion_lon": 0.0, "lon": -76.9979415, "name": "5b860b5ff3b52b591b0d256b401737f9", "is_reserved": 0, "is_disabled": 0}, {"lat": 38.961810666666665, "fusion_lat": 0.0, "type": "electric_scooter", "bike_id": "6e33c27c7a76de2144ae1a05de2bf45f", "rental_uris": {"ios": "https://dc.lft.to/lastmile_qr_scan", "android": "https://dc.lft.to/lastmile_qr_scan"}, "fusion_lon": 0.0, "lon": -77.01436133333333, "name": "6e33c27c7a76de2144ae1a05de2bf45f", "is_reserved": 0, "is_disabled": 0}, {"lat": 38.89270883333333, "fusion_lat": 0.0, "type": "electric_scooter", "bike_id": "8792c21d276e0d3f6a90d802c555d23f", "rental_uris": {"ios": "https://dc.lft.to/lastmile_qr_scan", "android": "https://dc.lft.to/lastmile_qr_scan"}, "fusion_lon": 0.0, "lon": -77.00370366666667, "name": "8792c21d276e0d3f6a90d802c555d23f", "is_reserved": 0, "is_disabled": 0}, {"lat": 38.809827166666665, "fusion_lat": 0.0, "type": "electric_bike", "bike_id": "8c20fb58495d3e9581948bf38605dd24", "rental_uris": {"ios": "https://dc.lft.to/lastmile_qr_scan", "android": "https://dc.lft.to/lastmile_qr_scan"}, "fusion_lon": 0.0, "lon": -77.07656666666666, "name": "8c20fb58495d3e9581948bf38605dd24", "is_reserved": 0, "is_disabled": 0}, {"lat": 38.89188433333333, "fusion_lat": 0.0, "type": "electric_scooter", "bike_id": "a926b10f910a0785f0441fce4d867a69", "rental_uris": {"ios": "https://dc.lft.to/lastmile_qr_scan", "android": "https://dc.lft.to/lastmile_qr_scan"}, "fusion_lon": 0.0, "lon": -77.00335566666666, "name": "a926b10f910a0785f0441fce4d867a69", "is_reserved": 0, "is_disabled": 0}, {"lat": 38.91663283333333, "fusion_lat": 0.0, "type": "electric_scooter", "bike_id": "b9645f7aaa871e651ad71174f393968a", "rental_uris": {"ios": "https://dc.lft.to/lastmile_qr_scan", "android": "https://dc.lft.to/lastmile_qr_scan"}, "fusion_lon": 0.0, "lon": -77.02462583333333, "name": "b9645f7aaa871e651ad71174f393968a", "is_reserved": 0, "is_disabled": 0}, {"lat": 38.92408016666667, "fusion_lat": 0.0, "type": "electric_scooter", "bike_id": "9a58d818fa445f18787df3f8188bd0a7", "rental_uris": {"ios": "https://dc.lft.to/lastmile_qr_scan", "android": "https://dc.lft.to/lastmile_qr_scan"}, "fusion_lon": 0.0, "lon": -77.02008633333334, "name": "9a58d818fa445f18787df3f8188bd0a7", "is_reserved": 0, "is_disabled": 0}, {"lat": 38.921583, "fusion_lat": 0.0, "type": "electric_scooter", "bike_id": "fbcc92d5a10d4efe2dd03bb93f732f11", "rental_uris": {"ios": "https://dc.lft.to/lastmile_qr_scan", "android": "https://dc.lft.to/lastmile_qr_scan"}, "fusion_lon": 0.0, "lon": -77.03402616666666, "name": "fbcc92d5a10d4efe2dd03bb93f732f11", "is_reserved": 0, "is_disabled": 0}, {"lat": 38.89229016666667, "fusion_lat": 0.0, "type": "electric_scooter", "bike_id": "6eedba09629afb4bd2733d99367167d6", "rental_uris": {"ios": "https://dc.lft.to/lastmile_qr_scan", "android": "https://dc.lft.to/lastmile_qr_scan"}, "fusion_lon": 0.0, "lon": -77.02205833333333, "name": "6eedba09629afb4bd2733d99367167d6", "is_reserved": 0, "is_disabled": 0}, {"lat": 38.892272166666665, "fusion_lat": 0.0, "type": "electric_scooter", "bike_id": "3af9015071f4a658252931af244fb227", "rental_uris": {"ios": "https://dc.lft.to/lastmile_qr_scan", "android": "https://dc.lft.to/lastmile_qr_scan"}, "fusion_lon": 0.0, "lon": -77.04894766666666, "name": "3af9015071f4a658252931af244fb227", "is_reserved": 0, "is_disabled": 0}, {"lat": 38.895816833333335, "fusion_lat": 0.0, "type": "electric_scooter", "bike_id": "7bad1e31d5104f12dc296f88da6376fa", "rental_uris": {"ios": "https://dc.lft.to/lastmile_qr_scan", "android": "https://dc.lft.to/lastmile_qr_scan"}, "fusion_lon": 0.0, "lon": -76.98314866666666, "name": "7bad1e31d5104f12dc296f88da6376fa", "is_reserved": 0, "is_disabled": 0}, {"lat": 38.94970433333334, "fusion_lat": 0.0, "type": "electric_scooter", "bike_id": "31ce292ce7c51f59386759393640948e", "rental_uris": {"ios": "https://dc.lft.to/lastmile_qr_scan", "android": "https://dc.lft.to/lastmile_qr_scan"}, "fusion_lon": 0.0, "lon": -77.06651633333334, "name": "31ce292ce7c51f59386759393640948e", "is_reserved": 0, "is_disabled": 0}, {"lat": 38.926616333333335, "fusion_lat": 0.0, "type": "electric_scooter", "bike_id": "5cc42f219174e0e683dea40636442865", "rental_uris": {"ios": "https://dc.lft.to/lastmile_qr_scan", "android": "https://dc.lft.to/lastmile_qr_scan"}, "fusion_lon": 0.0, "lon": -77.03720216666666, "name": "5cc42f219174e0e683dea40636442865", "is_reserved": 0, "is_disabled": 0}, {"lat": 38.90673666666667, "fusion_lat": 0.0, "type": "electric_scooter", "bike_id": "d2a256512238a002c05e0fb01669ac0a", "rental_uris": {"ios": "https://dc.lft.to/lastmile_qr_scan", "android": "https://dc.lft.to/lastmile_qr_scan"}, "fusion_lon": 0.0, "lon": -77.02700466666667, "name": "d2a256512238a002c05e0fb01669ac0a", "is_reserved": 0, "is_disabled": 0}, {"lat": 38.913851, "fusion_lat": 0.0, "type": "electric_scooter", "bike_id": "2ef9594296adb6e8c1ba46317fbfc578", "rental_uris": {"ios": "https://dc.lft.to/lastmile_qr_scan", "android": "https://dc.lft.to/lastmile_qr_scan"}, "fusion_lon": 0.0, "lon": -77.02202016666666, "name": "2ef9594296adb6e8c1ba46317fbfc578", "is_reserved": 0, "is_disabled": 0}, {"lat": 38.902896, "fusion_lat": 0.0, "type": "electric_scooter", "bike_id": "f839a458c4b2da5a39e8a746ae498449", "rental_uris": {"ios": "https://dc.lft.to/lastmile_qr_scan", "android": "https://dc.lft.to/lastmile_qr_scan"}, "fusion_lon": 0.0, "lon": -77.040778, "name": "f839a458c4b2da5a39e8a746ae498449", "is_reserved": 0, "is_disabled": 0}, {"lat": 38.91026633333333, "fusion_lat": 0.0, "type": "electric_scooter", "bike_id": "22aa15cbff045e947970d24fcad7bdb1", "rental_uris": {"ios": "https://dc.lft.to/lastmile_qr_scan", "android": "https://dc.lft.to/lastmile_qr_scan"}, "fusion_lon": 0.0, "lon": -77.029287, "name": "22aa15cbff045e947970d24fcad7bdb1", "is_reserved": 0, "is_disabled": 0}, {"lat": 38.89887983333333, "fusion_lat": 0.0, "type": "electric_scooter", "bike_id": "c4ea376921ebb562d6a94752ee5e3157", "rental_uris": {"ios": "https://dc.lft.to/lastmile_qr_scan", "android": "https://dc.lft.to/lastmile_qr_scan"}, "fusion_lon": 0.0, "lon": -77.01206166666667, "name": "c4ea376921ebb562d6a94752ee5e3157", "is_reserved": 0, "is_disabled": 0}, {"lat": 38.89745633333333, "fusion_lat": 0.0, "type": "electric_scooter", "bike_id": "684392ddaeda43cb4936f1461ab3c11c", "rental_uris": {"ios": "https://dc.lft.to/lastmile_qr_scan", "android": "https://dc.lft.to/lastmile_qr_scan"}, "fusion_lon": 0.0, "lon": -77.01359833333333, "name": "684392ddaeda43cb4936f1461ab3c11c", "is_reserved": 0, "is_disabled": 0}, {"lat": 38.91341033333333, "fusion_lat": 0.0, "type": "electric_scooter", "bike_id": "3bacf12b30d62f997e1e2558ff4b2bdf", "rental_uris": {"ios": "https://dc.lft.to/lastmile_qr_scan", "android": "https://dc.lft.to/lastmile_qr_scan"}, "fusion_lon": 0.0, "lon": -77.04554733333333, "name": "3bacf12b30d62f997e1e2558ff4b2bdf", "is_reserved": 0, "is_disabled": 0}, {"lat": 38.89229266666667, "fusion_lat": 0.0, "type": "electric_scooter", "bike_id": "8ed866d35eef7c9ca358d3b150a197e4", "rental_uris": {"ios": "https://dc.lft.to/lastmile_qr_scan", "android": "https://dc.lft.to/lastmile_qr_scan"}, "fusion_lon": 0.0, "lon": -77.04894216666666, "name": "8ed866d35eef7c9ca358d3b150a197e4", "is_reserved": 0, "is_disabled": 0}, {"lat": 38.892246666666665, "fusion_lat": 0.0, "type": "electric_scooter", "bike_id": "15c68906c0035169e2772a91d5928107", "rental_uris": {"ios": "https://dc.lft.to/lastmile_qr_scan", "android": "https://dc.lft.to/lastmile_qr_scan"}, "fusion_lon": 0.0, "lon": -77.0235365, "name": "15c68906c0035169e2772a91d5928107", "is_reserved": 0, "is_disabled": 0}, {"lat": 38.93394583333333, "fusion_lat": 0.0, "type": "electric_scooter", "bike_id": "ee1634024ba4c9944309fee09014ca2d", "rental_uris": {"ios": "https://dc.lft.to/lastmile_qr_scan", "android": "https://dc.lft.to/lastmile_qr_scan"}, "fusion_lon": 0.0, "lon": -77.057431, "name": "ee1634024ba4c9944309fee09014ca2d", "is_reserved": 0, "is_disabled": 0}, {"lat": 38.9217135, "fusion_lat": 0.0, "type": "electric_scooter", "bike_id": "96dc61b79d0b96b6a576697d94a22828", "rental_uris": {"ios": "https://dc.lft.to/lastmile_qr_scan", "android": "https://dc.lft.to/lastmile_qr_scan"}, "fusion_lon": 0.0, "lon": -77.04227416666667, "name": "96dc61b79d0b96b6a576697d94a22828", "is_reserved": 0, "is_disabled": 0}, {"lat": 38.862653, "fusion_lat": 0.0, "type": "electric_scooter", "bike_id": "4f42f9254f1b8c0c9478ccc804cf80e7", "rental_uris": {"ios": "https://dc.lft.to/lastmile_qr_scan", "android": "https://dc.lft.to/lastmile_qr_scan"}, "fusion_lon": 0.0, "lon": -76.99532366666666, "name": "4f42f9254f1b8c0c9478ccc804cf80e7", "is_reserved": 0, "is_disabled": 0}, {"lat": 38.901312, "fusion_lat": 0.0, "type": "electric_scooter", "bike_id": "21bd3420703fd307d9ad0db306109f76", "rental_uris": {"ios": "https://dc.lft.to/lastmile_qr_scan", "android": "https://dc.lft.to/lastmile_qr_scan"}, "fusion_lon": 0.0, "lon": -77.02791083333334, "name": "21bd3420703fd307d9ad0db306109f76", "is_reserved": 0, "is_disabled": 0}, {"lat": 38.909145, "fusion_lat": 0.0, "type": "electric_scooter", "bike_id": "38af26e66a1e5ed1bdfb24d0ed4230a9", "rental_uris": {"ios": "https://dc.lft.to/lastmile_qr_scan", "android": "https://dc.lft.to/lastmile_qr_scan"}, "fusion_lon": 0.0, "lon": -77.02305883333334, "name": "38af26e66a1e5ed1bdfb24d0ed4230a9", "is_reserved": 0, "is_disabled": 0}, {"lat": 38.9170485, "fusion_lat": 0.0, "type": "electric_scooter", "bike_id": "a5cf5a7810e8284a0223ed537b70bc0a", "rental_uris": {"ios": "https://dc.lft.to/lastmile_qr_scan", "android": "https://dc.lft.to/lastmile_qr_scan"}, "fusion_lon": 0.0, "lon": -77.028769, "name": "a5cf5a7810e8284a0223ed537b70bc0a", "is_reserved": 0, "is_disabled": 0}, {"lat": 38.90206583333333, "fusion_lat": 0.0, "type": "electric_scooter", "bike_id": "691981a19b4cd46ace4081cf82c3ed1f", "rental_uris": {"ios": "https://dc.lft.to/lastmile_qr_scan", "android": "https://dc.lft.to/lastmile_qr_scan"}, "fusion_lon": 0.0, "lon": -77.0487925, "name": "691981a19b4cd46ace4081cf82c3ed1f", "is_reserved": 0, "is_disabled": 0}, {"lat": 38.915710833333335, "fusion_lat": 0.0, "type": "electric_scooter", "bike_id": "2420f9bebc9da1e094e23c88dc9514ca", "rental_uris": {"ios": "https://dc.lft.to/lastmile_qr_scan", "android": "https://dc.lft.to/lastmile_qr_scan"}, "fusion_lon": 0.0, "lon": -77.02176666666666, "name": "2420f9bebc9da1e094e23c88dc9514ca", "is_reserved": 0, "is_disabled": 0}, {"lat": 38.9661035, "fusion_lat": 0.0, "type": "electric_scooter", "bike_id": "29efafb295ff0bb612892561bbea6a8b", "rental_uris": {"ios": "https://dc.lft.to/lastmile_qr_scan", "android": "https://dc.lft.to/lastmile_qr_scan"}, "fusion_lon": 0.0, "lon": -77.02746883333333, "name": "29efafb295ff0bb612892561bbea6a8b", "is_reserved": 0, "is_disabled": 0}, {"lat": 38.903737166666666, "fusion_lat": 0.0, "type": "electric_scooter", "bike_id": "3be7df42b2815a6f3d466927ce6f9ccb", "rental_uris": {"ios": "https://dc.lft.to/lastmile_qr_scan", "android": "https://dc.lft.to/lastmile_qr_scan"}, "fusion_lon": 0.0, "lon": -77.04504016666667, "name": "3be7df42b2815a6f3d466927ce6f9ccb", "is_reserved": 0, "is_disabled": 0}, {"lat": 38.8958335, "fusion_lat": 0.0, "type": "electric_scooter", "bike_id": "f38b3086eb0a8a4957e793566a8a090a", "rental_uris": {"ios": "https://dc.lft.to/lastmile_qr_scan", "android": "https://dc.lft.to/lastmile_qr_scan"}, "fusion_lon": 0.0, "lon": -76.98323, "name": "f38b3086eb0a8a4957e793566a8a090a", "is_reserved": 0, "is_disabled": 0}, {"lat": 38.890488833333336, "fusion_lat": 0.0, "type": "electric_scooter", "bike_id": "835c1db1051688818f9a45a83c9122c0", "rental_uris": {"ios": "https://dc.lft.to/lastmile_qr_scan", "android": "https://dc.lft.to/lastmile_qr_scan"}, "fusion_lon": 0.0, "lon": -76.937541, "name": "835c1db1051688818f9a45a83c9122c0", "is_reserved": 0, "is_disabled": 0}, {"lat": 38.87617633333333, "fusion_lat": 0.0, "type": "electric_scooter", "bike_id": "01e8f213231449d1491a4c4497a9478b", "rental_uris": {"ios": "https://dc.lft.to/lastmile_qr_scan", "android": "https://dc.lft.to/lastmile_qr_scan"}, "fusion_lon": 0.0, "lon": -76.96543966666667, "name": "01e8f213231449d1491a4c4497a9478b", "is_reserved": 0, "is_disabled": 0}, {"lat": 38.9279745, "fusion_lat": 0.0, "type": "electric_scooter", "bike_id": "136800da2d523dba0472c8f8c1a89563", "rental_uris": {"ios": "https://dc.lft.to/lastmile_qr_scan", "android": "https://dc.lft.to/lastmile_qr_scan"}, "fusion_lon": 0.0, "lon": -77.02125466666666, "name": "136800da2d523dba0472c8f8c1a89563", "is_reserved": 0, "is_disabled": 0}, {"lat": 38.916979166666664, "fusion_lat": 0.0, "type": "electric_scooter", "bike_id": "fba7856eddd52f24312bf5ee721fa879", "rental_uris": {"ios": "https://dc.lft.to/lastmile_qr_scan", "android": "https://dc.lft.to/lastmile_qr_scan"}, "fusion_lon": 0.0, "lon": -77.03347133333334, "name": "fba7856eddd52f24312bf5ee721fa879", "is_reserved": 0, "is_disabled": 0}, {"lat": 38.924265, "fusion_lat": 0.0, "type": "electric_scooter", "bike_id": "60f8201ff920f919c9ddc7cde471d9ce", "rental_uris": {"ios": "https://dc.lft.to/lastmile_qr_scan", "android": "https://dc.lft.to/lastmile_qr_scan"}, "fusion_lon": 0.0, "lon": -77.05180666666666, "name": "60f8201ff920f919c9ddc7cde471d9ce", "is_reserved": 0, "is_disabled": 0}, {"lat": 38.901516666666666, "fusion_lat": 0.0, "type": "electric_scooter", "bike_id": "0326535ef3ad94a284b07f44ef53bab1", "rental_uris": {"ios": "https://dc.lft.to/lastmile_qr_scan", "android": "https://dc.lft.to/lastmile_qr_scan"}, "fusion_lon": 0.0, "lon": -76.9306515, "name": "0326535ef3ad94a284b07f44ef53bab1", "is_reserved": 0, "is_disabled": 0}, {"lat": 38.88505216666667, "fusion_lat": 0.0, "type": "electric_scooter", "bike_id": "dacb33e63af8f03da58590c17252584b", "rental_uris": {"ios": "https://dc.lft.to/lastmile_qr_scan", "android": "https://dc.lft.to/lastmile_qr_scan"}, "fusion_lon": 0.0, "lon": -77.00563633333333, "name": "dacb33e63af8f03da58590c17252584b", "is_reserved": 0, "is_disabled": 0}, {"lat": 38.95059766666667, "fusion_lat": 0.0, "type": "electric_scooter", "bike_id": "d3c453e590b684206af6bd60cf6cb43f", "rental_uris": {"ios": "https://dc.lft.to/lastmile_qr_scan", "android": "https://dc.lft.to/lastmile_qr_scan"}, "fusion_lon": 0.0, "lon": -77.08023833333333, "name": "d3c453e590b684206af6bd60cf6cb43f", "is_reserved": 0, "is_disabled": 0}, {"lat": 38.902824333333335, "fusion_lat": 0.0, "type": "electric_scooter", "bike_id": "f68a84ee14ef438790f455066cb63253", "rental_uris": {"ios": "https://dc.lft.to/lastmile_qr_scan", "android": "https://dc.lft.to/lastmile_qr_scan"}, "fusion_lon": 0.0, "lon": -77.03361583333333, "name": "f68a84ee14ef438790f455066cb63253", "is_reserved": 0, "is_disabled": 0}, {"lat": 38.927113, "fusion_lat": 0.0, "type": "electric_scooter", "bike_id": "f8cc25de0f358cfd71572567e0f13249", "rental_uris": {"ios": "https://dc.lft.to/lastmile_qr_scan", "android": "https://dc.lft.to/lastmile_qr_scan"}, "fusion_lon": 0.0, "lon": -77.02083533333334, "name": "f8cc25de0f358cfd71572567e0f13249", "is_reserved": 0, "is_disabled": 0}, {"lat": 38.92231833333334, "fusion_lat": 0.0, "type": "electric_scooter", "bike_id": "1d64d50f1835ce83de323f4e5400503b", "rental_uris": {"ios": "https://dc.lft.to/lastmile_qr_scan", "android": "https://dc.lft.to/lastmile_qr_scan"}, "fusion_lon": 0.0, "lon": -77.0282475, "name": "1d64d50f1835ce83de323f4e5400503b", "is_reserved": 0, "is_disabled": 0}, {"lat": 38.90032933333333, "fusion_lat": 0.0, "type": "electric_scooter", "bike_id": "ef3df5ddd3b3ebb99bef5d15ea1704b5", "rental_uris": {"ios": "https://dc.lft.to/lastmile_qr_scan", "android": "https://dc.lft.to/lastmile_qr_scan"}, "fusion_lon": 0.0, "lon": -77.02388766666667, "name": "ef3df5ddd3b3ebb99bef5d15ea1704b5", "is_reserved": 0, "is_disabled": 0}, {"lat": 38.913954833333335, "fusion_lat": 0.0, "type": "electric_scooter", "bike_id": "eee5324792d61a46dfc2392c5bdebe92", "rental_uris": {"ios": "https://dc.lft.to/lastmile_qr_scan", "android": "https://dc.lft.to/lastmile_qr_scan"}, "fusion_lon": 0.0, "lon": -77.01653333333333, "name": "eee5324792d61a46dfc2392c5bdebe92", "is_reserved": 0, "is_disabled": 0}, {"lat": 38.91605083333334, "fusion_lat": 0.0, "type": "electric_scooter", "bike_id": "a61d21b4405f671c1ed8583ebd36262c", "rental_uris": {"ios": "https://dc.lft.to/lastmile_qr_scan", "android": "https://dc.lft.to/lastmile_qr_scan"}, "fusion_lon": 0.0, "lon": -77.03946366666666, "name": "a61d21b4405f671c1ed8583ebd36262c", "is_reserved": 0, "is_disabled": 0}, {"lat": 38.922653833333335, "fusion_lat": 0.0, "type": "electric_scooter", "bike_id": "bd4ee9716c528781cd2d556950d7aabf", "rental_uris": {"ios": "https://dc.lft.to/lastmile_qr_scan", "android": "https://dc.lft.to/lastmile_qr_scan"}, "fusion_lon": 0.0, "lon": -77.0367285, "name": "bd4ee9716c528781cd2d556950d7aabf", "is_reserved": 0, "is_disabled": 0}, {"lat": 38.895779, "fusion_lat": 0.0, "type": "electric_scooter", "bike_id": "37751cb5ba9398f3abe563f8dd085735", "rental_uris": {"ios": "https://dc.lft.to/lastmile_qr_scan", "android": "https://dc.lft.to/lastmile_qr_scan"}, "fusion_lon": 0.0, "lon": -76.9831755, "name": "37751cb5ba9398f3abe563f8dd085735", "is_reserved": 0, "is_disabled": 0}, {"lat": 38.93714683333334, "fusion_lat": 0.0, "type": "electric_scooter", "bike_id": "c9120d2ecc7e527321bc9aa817326941", "rental_uris": {"ios": "https://dc.lft.to/lastmile_qr_scan", "android": "https://dc.lft.to/lastmile_qr_scan"}, "fusion_lon": 0.0, "lon": -77.03516266666666, "name": "c9120d2ecc7e527321bc9aa817326941", "is_reserved": 0, "is_disabled": 0}, {"lat": 38.90577783333333, "fusion_lat": 0.0, "type": "electric_scooter", "bike_id": "b7d8b3ed1098534769a25283cd123b4f", "rental_uris": {"ios": "https://dc.lft.to/lastmile_qr_scan", "android": "https://dc.lft.to/lastmile_qr_scan"}, "fusion_lon": 0.0, "lon": -77.0384255, "name": "b7d8b3ed1098534769a25283cd123b4f", "is_reserved": 0, "is_disabled": 0}, {"lat": 38.9169545, "fusion_lat": 0.0, "type": "electric_scooter", "bike_id": "08e33342586a110f0ca2803568181775", "rental_uris": {"ios": "https://dc.lft.to/lastmile_qr_scan", "android": "https://dc.lft.to/lastmile_qr_scan"}, "fusion_lon": 0.0, "lon": -77.03336716666666, "name": "08e33342586a110f0ca2803568181775", "is_reserved": 0, "is_disabled": 0}, {"lat": 38.92557983333333, "fusion_lat": 0.0, "type": "electric_scooter", "bike_id": "3c85d1b77c8b81309cc35a4225a24b91", "rental_uris": {"ios": "https://dc.lft.to/lastmile_qr_scan", "android": "https://dc.lft.to/lastmile_qr_scan"}, "fusion_lon": 0.0, "lon": -77.0526025, "name": "3c85d1b77c8b81309cc35a4225a24b91", "is_reserved": 0, "is_disabled": 0}, {"lat": 38.9246315, "fusion_lat": 0.0, "type": "electric_scooter", "bike_id": "d27663ad281b3d7d72129aef69a49c86", "rental_uris": {"ios": "https://dc.lft.to/lastmile_qr_scan", "android": "https://dc.lft.to/lastmile_qr_scan"}, "fusion_lon": 0.0, "lon": -77.02154133333333, "name": "d27663ad281b3d7d72129aef69a49c86", "is_reserved": 0, "is_disabled": 0}, {"lat": 38.8838815, "fusion_lat": 0.0, "type": "electric_scooter", "bike_id": "b15abe30c3ab81559c414672e7ff9a4e", "rental_uris": {"ios": "https://dc.lft.to/lastmile_qr_scan", "android": "https://dc.lft.to/lastmile_qr_scan"}, "fusion_lon": 0.0, "lon": -76.98560516666667, "name": "b15abe30c3ab81559c414672e7ff9a4e", "is_reserved": 0, "is_disabled": 0}, {"lat": 38.914352, "fusion_lat": 0.0, "type": "electric_scooter", "bike_id": "e7c7b121de8139e03e1e40a4463f61d4", "rental_uris": {"ios": "https://dc.lft.to/lastmile_qr_scan", "android": "https://dc.lft.to/lastmile_qr_scan"}, "fusion_lon": 0.0, "lon": -77.01706766666666, "name": "e7c7b121de8139e03e1e40a4463f61d4", "is_reserved": 0, "is_disabled": 0}, {"lat": 38.922862333333335, "fusion_lat": 0.0, "type": "electric_scooter", "bike_id": "9e10e8b4bbdbbb0d8dab8e1fa26d4893", "rental_uris": {"ios": "https://dc.lft.to/lastmile_qr_scan", "android": "https://dc.lft.to/lastmile_qr_scan"}, "fusion_lon": 0.0, "lon": -77.03656316666667, "name": "9e10e8b4bbdbbb0d8dab8e1fa26d4893", "is_reserved": 0, "is_disabled": 0}, {"lat": 38.91626616666667, "fusion_lat": 0.0, "type": "electric_scooter", "bike_id": "595a0b16555be4530c1cbff41c071d92", "rental_uris": {"ios": "https://dc.lft.to/lastmile_qr_scan", "android": "https://dc.lft.to/lastmile_qr_scan"}, "fusion_lon": 0.0, "lon": -77.04010766666667, "name": "595a0b16555be4530c1cbff41c071d92", "is_reserved": 0, "is_disabled": 0}, {"lat": 38.909731666666666, "fusion_lat": 0.0, "type": "electric_scooter", "bike_id": "3eb9629480b335fa57808b2dd3e8c7c3", "rental_uris": {"ios": "https://dc.lft.to/lastmile_qr_scan", "android": "https://dc.lft.to/lastmile_qr_scan"}, "fusion_lon": 0.0, "lon": -77.04436166666666, "name": "3eb9629480b335fa57808b2dd3e8c7c3", "is_reserved": 0, "is_disabled": 0}, {"lat": 38.90724266666667, "fusion_lat": 0.0, "type": "electric_scooter", "bike_id": "57a2a09daf8aacb28e50aa2393e8c64a", "rental_uris": {"ios": "https://dc.lft.to/lastmile_qr_scan", "android": "https://dc.lft.to/lastmile_qr_scan"}, "fusion_lon": 0.0, "lon": -77.04343116666666, "name": "57a2a09daf8aacb28e50aa2393e8c64a", "is_reserved": 0, "is_disabled": 0}, {"lat": 38.901468, "fusion_lat": 0.0, "type": "electric_scooter", "bike_id": "502c1d9b88c2bc0f1e9b327812247abc", "rental_uris": {"ios": "https://dc.lft.to/lastmile_qr_scan", "android": "https://dc.lft.to/lastmile_qr_scan"}, "fusion_lon": 0.0, "lon": -77.04682933333333, "name": "502c1d9b88c2bc0f1e9b327812247abc", "is_reserved": 0, "is_disabled": 0}, {"lat": 38.908100833333336, "fusion_lat": 0.0, "type": "electric_scooter", "bike_id": "33ee54e397435f4f83eb4907b26b0930", "rental_uris": {"ios": "https://dc.lft.to/lastmile_qr_scan", "android": "https://dc.lft.to/lastmile_qr_scan"}, "fusion_lon": 0.0, "lon": -77.04174316666666, "name": "33ee54e397435f4f83eb4907b26b0930", "is_reserved": 0, "is_disabled": 0}, {"lat": 38.92133783333333, "fusion_lat": 0.0, "type": "electric_scooter", "bike_id": "e4e05669bc5efb20895b0771c347af57", "rental_uris": {"ios": "https://dc.lft.to/lastmile_qr_scan", "android": "https://dc.lft.to/lastmile_qr_scan"}, "fusion_lon": 0.0, "lon": -77.04579983333333, "name": "e4e05669bc5efb20895b0771c347af57", "is_reserved": 0, "is_disabled": 0}, {"lat": 38.90441833333333, "fusion_lat": 0.0, "type": "electric_scooter", "bike_id": "36e8d41bbaf16858e58fb86741a84953", "rental_uris": {"ios": "https://dc.lft.to/lastmile_qr_scan", "android": "https://dc.lft.to/lastmile_qr_scan"}, "fusion_lon": 0.0, "lon": -77.03205733333333, "name": "36e8d41bbaf16858e58fb86741a84953", "is_reserved": 0, "is_disabled": 0}, {"lat": 38.8801865, "fusion_lat": 0.0, "type": "electric_scooter", "bike_id": "ab81d7344d1fe1e5f9279e0d207b5535", "rental_uris": {"ios": "https://dc.lft.to/lastmile_qr_scan", "android": "https://dc.lft.to/lastmile_qr_scan"}, "fusion_lon": 0.0, "lon": -77.02473033333334, "name": "ab81d7344d1fe1e5f9279e0d207b5535", "is_reserved": 0, "is_disabled": 0}, {"lat": 38.894382, "fusion_lat": 0.0, "type": "electric_scooter", "bike_id": "f91d694da71f7d43aeb5c79ed5590a41", "rental_uris": {"ios": "https://dc.lft.to/lastmile_qr_scan", "android": "https://dc.lft.to/lastmile_qr_scan"}, "fusion_lon": 0.0, "lon": -76.94985633333333, "name": "f91d694da71f7d43aeb5c79ed5590a41", "is_reserved": 0, "is_disabled": 0}, {"lat": 38.90757766666667, "fusion_lat": 0.0, "type": "electric_scooter", "bike_id": "6a804d9be51ece266e65d716ce2d7490", "rental_uris": {"ios": "https://dc.lft.to/lastmile_qr_scan", "android": "https://dc.lft.to/lastmile_qr_scan"}, "fusion_lon": 0.0, "lon": -77.03580566666666, "name": "6a804d9be51ece266e65d716ce2d7490", "is_reserved": 0, "is_disabled": 0}, {"lat": 38.90137566666667, "fusion_lat": 0.0, "type": "electric_scooter", "bike_id": "4bf59244a4e11ec948e62ecb8d9f1254", "rental_uris": {"ios": "https://dc.lft.to/lastmile_qr_scan", "android": "https://dc.lft.to/lastmile_qr_scan"}, "fusion_lon": 0.0, "lon": -77.04484866666667, "name": "4bf59244a4e11ec948e62ecb8d9f1254", "is_reserved": 0, "is_disabled": 0}, {"lat": 38.900057333333336, "fusion_lat": 0.0, "type": "electric_scooter", "bike_id": "9d95359d3397dabd8837172ff6f3c800", "rental_uris": {"ios": "https://dc.lft.to/lastmile_qr_scan", "android": "https://dc.lft.to/lastmile_qr_scan"}, "fusion_lon": 0.0, "lon": -77.04131933333333, "name": "9d95359d3397dabd8837172ff6f3c800", "is_reserved": 0, "is_disabled": 0}, {"lat": 38.924200666666664, "fusion_lat": 0.0, "type": "electric_scooter", "bike_id": "2f2b16bb7c47eea95b969e74b558dbae", "rental_uris": {"ios": "https://dc.lft.to/lastmile_qr_scan", "android": "https://dc.lft.to/lastmile_qr_scan"}, "fusion_lon": 0.0, "lon": -77.01945516666666, "name": "2f2b16bb7c47eea95b969e74b558dbae", "is_reserved": 0, "is_disabled": 0}, {"lat": 38.9279725, "fusion_lat": 0.0, "type": "electric_scooter", "bike_id": "38668c74b73e52a457418a6e6e0ba86b", "rental_uris": {"ios": "https://dc.lft.to/lastmile_qr_scan", "android": "https://dc.lft.to/lastmile_qr_scan"}, "fusion_lon": 0.0, "lon": -77.0220615, "name": "38668c74b73e52a457418a6e6e0ba86b", "is_reserved": 0, "is_disabled": 0}, {"lat": 38.90084083333333, "fusion_lat": 0.0, "type": "electric_scooter", "bike_id": "88ce17f75da5ed4862e9875a11b50ebb", "rental_uris": {"ios": "https://dc.lft.to/lastmile_qr_scan", "android": "https://dc.lft.to/lastmile_qr_scan"}, "fusion_lon": 0.0, "lon": -77.044796, "name": "88ce17f75da5ed4862e9875a11b50ebb", "is_reserved": 0, "is_disabled": 0}, {"lat": 38.90772116666667, "fusion_lat": 0.0, "type": "electric_bike", "bike_id": "178a7284d7135f02ac9639edad507d45", "rental_uris": {"ios": "https://dc.lft.to/lastmile_qr_scan", "android": "https://dc.lft.to/lastmile_qr_scan"}, "fusion_lon": 0.0, "lon": -77.02436483333334, "name": "178a7284d7135f02ac9639edad507d45", "is_reserved": 0, "is_disabled": 0}, {"lat": 38.910031333333336, "fusion_lat": 0.0, "type": "electric_scooter", "bike_id": "89b510c6ce9dc9209b61605d88dd7f9b", "rental_uris": {"ios": "https://dc.lft.to/lastmile_qr_scan", "android": "https://dc.lft.to/lastmile_qr_scan"}, "fusion_lon": 0.0, "lon": -77.03206, "name": "89b510c6ce9dc9209b61605d88dd7f9b", "is_reserved": 0, "is_disabled": 0}, {"lat": 38.90645883333333, "fusion_lat": 0.0, "type": "electric_scooter", "bike_id": "28266c920e7b98883d36284db49e2295", "rental_uris": {"ios": "https://dc.lft.to/lastmile_qr_scan", "android": "https://dc.lft.to/lastmile_qr_scan"}, "fusion_lon": 0.0, "lon": -77.0385835, "name": "28266c920e7b98883d36284db49e2295", "is_reserved": 0, "is_disabled": 0}, {"lat": 38.918622, "fusion_lat": 0.0, "type": "electric_scooter", "bike_id": "0cf54c8a8222d2de6d8ab4b9950b9e8f", "rental_uris": {"ios": "https://dc.lft.to/lastmile_qr_scan", "android": "https://dc.lft.to/lastmile_qr_scan"}, "fusion_lon": 0.0, "lon": -77.03215916666667, "name": "0cf54c8a8222d2de6d8ab4b9950b9e8f", "is_reserved": 0, "is_disabled": 0}, {"lat": 38.883994, "fusion_lat": 0.0, "type": "electric_scooter", "bike_id": "832259d6eedd4d1f88b5f88c6e5ce6ce", "rental_uris": {"ios": "https://dc.lft.to/lastmile_qr_scan", "android": "https://dc.lft.to/lastmile_qr_scan"}, "fusion_lon": 0.0, "lon": -77.02623, "name": "832259d6eedd4d1f88b5f88c6e5ce6ce", "is_reserved": 0, "is_disabled": 0}, {"lat": 38.917025833333334, "fusion_lat": 0.0, "type": "electric_scooter", "bike_id": "7838a813e597450af6196180fe821c8e", "rental_uris": {"ios": "https://dc.lft.to/lastmile_qr_scan", "android": "https://dc.lft.to/lastmile_qr_scan"}, "fusion_lon": 0.0, "lon": -77.03576266666667, "name": "7838a813e597450af6196180fe821c8e", "is_reserved": 0, "is_disabled": 0}, {"lat": 38.922352, "fusion_lat": 0.0, "type": "electric_scooter", "bike_id": "037e8ae8fbf0bc4748944ab35d8321b4", "rental_uris": {"ios": "https://dc.lft.to/lastmile_qr_scan", "android": "https://dc.lft.to/lastmile_qr_scan"}, "fusion_lon": 0.0, "lon": -77.03515533333334, "name": "037e8ae8fbf0bc4748944ab35d8321b4", "is_reserved": 0, "is_disabled": 0}, {"lat": 38.832475333333335, "fusion_lat": 0.0, "type": "electric_bike", "bike_id": "cbe20f8ac1519ba819e49894ce865dd5", "rental_uris": {"ios": "https://dc.lft.to/lastmile_qr_scan", "android": "https://dc.lft.to/lastmile_qr_scan"}, "fusion_lon": 0.0, "lon": -77.00722216666666, "name": "cbe20f8ac1519ba819e49894ce865dd5", "is_reserved": 0, "is_disabled": 0}, {"lat": 38.90809133333333, "fusion_lat": 0.0, "type": "electric_scooter", "bike_id": "1118c1f1d5df296588d9642acce48347", "rental_uris": {"ios": "https://dc.lft.to/lastmile_qr_scan", "android": "https://dc.lft.to/lastmile_qr_scan"}, "fusion_lon": 0.0, "lon": -77.03448166666666, "name": "1118c1f1d5df296588d9642acce48347", "is_reserved": 0, "is_disabled": 0}, {"lat": 38.922804, "fusion_lat": 0.0, "type": "electric_scooter", "bike_id": "37db2c44ed4d48e25e1c70ae2ba4ce8a", "rental_uris": {"ios": "https://dc.lft.to/lastmile_qr_scan", "android": "https://dc.lft.to/lastmile_qr_scan"}, "fusion_lon": 0.0, "lon": -77.03656516666666, "name": "37db2c44ed4d48e25e1c70ae2ba4ce8a", "is_reserved": 0, "is_disabled": 0}, {"lat": 38.91343916666667, "fusion_lat": 0.0, "type": "electric_scooter", "bike_id": "a578e975b53ffff61cd14f5286e377f5", "rental_uris": {"ios": "https://dc.lft.to/lastmile_qr_scan", "android": "https://dc.lft.to/lastmile_qr_scan"}, "fusion_lon": 0.0, "lon": -77.02390583333333, "name": "a578e975b53ffff61cd14f5286e377f5", "is_reserved": 0, "is_disabled": 0}, {"lat": 38.94732916666667, "fusion_lat": 0.0, "type": "electric_scooter", "bike_id": "715283ac48e0420d9a71ad0977dbf271", "rental_uris": {"ios": "https://dc.lft.to/lastmile_qr_scan", "android": "https://dc.lft.to/lastmile_qr_scan"}, "fusion_lon": 0.0, "lon": -77.016082, "name": "715283ac48e0420d9a71ad0977dbf271", "is_reserved": 0, "is_disabled": 0}, {"lat": 38.917341, "fusion_lat": 0.0, "type": "electric_scooter", "bike_id": "4097d0da52acb84089f67465086dc121", "rental_uris": {"ios": "https://dc.lft.to/lastmile_qr_scan", "android": "https://dc.lft.to/lastmile_qr_scan"}, "fusion_lon": 0.0, "lon": -77.03610466666666, "name": "4097d0da52acb84089f67465086dc121", "is_reserved": 0, "is_disabled": 0}, {"lat": 38.906791166666665, "fusion_lat": 0.0, "type": "electric_scooter", "bike_id": "a43f57524447e31afd20b6374a0af2e6", "rental_uris": {"ios": "https://dc.lft.to/lastmile_qr_scan", "android": "https://dc.lft.to/lastmile_qr_scan"}, "fusion_lon": 0.0, "lon": -77.03803166666667, "name": "a43f57524447e31afd20b6374a0af2e6", "is_reserved": 0, "is_disabled": 0}, {"lat": 38.911492333333335, "fusion_lat": 0.0, "type": "electric_scooter", "bike_id": "cde50a157bbe5b8934809f9bc6bc7751", "rental_uris": {"ios": "https://dc.lft.to/lastmile_qr_scan", "android": "https://dc.lft.to/lastmile_qr_scan"}, "fusion_lon": 0.0, "lon": -77.03459933333333, "name": "cde50a157bbe5b8934809f9bc6bc7751", "is_reserved": 0, "is_disabled": 0}, {"lat": 38.899118333333334, "fusion_lat": 0.0, "type": "electric_scooter", "bike_id": "3261bb6f46d9a56e2824383de9d8cf13", "rental_uris": {"ios": "https://dc.lft.to/lastmile_qr_scan", "android": "https://dc.lft.to/lastmile_qr_scan"}, "fusion_lon": 0.0, "lon": -76.945444, "name": "3261bb6f46d9a56e2824383de9d8cf13", "is_reserved": 0, "is_disabled": 0}, {"lat": 38.9025895, "fusion_lat": 0.0, "type": "electric_scooter", "bike_id": "115427eef767e7677f060bd86dfe5410", "rental_uris": {"ios": "https://dc.lft.to/lastmile_qr_scan", "android": "https://dc.lft.to/lastmile_qr_scan"}, "fusion_lon": 0.0, "lon": -77.02665333333333, "name": "115427eef767e7677f060bd86dfe5410", "is_reserved": 0, "is_disabled": 0}, {"lat": 38.90612383333333, "fusion_lat": 0.0, "type": "electric_scooter", "bike_id": "9a373f9a0df63e017585a58421468585", "rental_uris": {"ios": "https://dc.lft.to/lastmile_qr_scan", "android": "https://dc.lft.to/lastmile_qr_scan"}, "fusion_lon": 0.0, "lon": -77.04342616666666, "name": "9a373f9a0df63e017585a58421468585", "is_reserved": 0, "is_disabled": 0}, {"lat": 38.9574045, "fusion_lat": 0.0, "type": "electric_scooter", "bike_id": "46ce5697efffe1ccc84fc843c95e1071", "rental_uris": {"ios": "https://dc.lft.to/lastmile_qr_scan", "android": "https://dc.lft.to/lastmile_qr_scan"}, "fusion_lon": 0.0, "lon": -77.00211183333333, "name": "46ce5697efffe1ccc84fc843c95e1071", "is_reserved": 0, "is_disabled": 0}, {"lat": 38.907373166666666, "fusion_lat": 0.0, "type": "electric_scooter", "bike_id": "e6aea5be66e3df93df9d034b65388d9e", "rental_uris": {"ios": "https://dc.lft.to/lastmile_qr_scan", "android": "https://dc.lft.to/lastmile_qr_scan"}, "fusion_lon": 0.0, "lon": -77.00343283333333, "name": "e6aea5be66e3df93df9d034b65388d9e", "is_reserved": 0, "is_disabled": 0}, {"lat": 38.8743825, "fusion_lat": 0.0, "type": "electric_scooter", "bike_id": "18f9c7229018bb7a515001661f5ed65a", "rental_uris": {"ios": "https://dc.lft.to/lastmile_qr_scan", "android": "https://dc.lft.to/lastmile_qr_scan"}, "fusion_lon": 0.0, "lon": -77.00057183333334, "name": "18f9c7229018bb7a515001661f5ed65a", "is_reserved": 0, "is_disabled": 0}, {"lat": 38.918167, "fusion_lat": 0.0, "type": "electric_scooter", "bike_id": "1b7f4dfdee2efd4ab22ccd4979c6fa66", "rental_uris": {"ios": "https://dc.lft.to/lastmile_qr_scan", "android": "https://dc.lft.to/lastmile_qr_scan"}, "fusion_lon": 0.0, "lon": -77.02554583333334, "name": "1b7f4dfdee2efd4ab22ccd4979c6fa66", "is_reserved": 0, "is_disabled": 0}, {"lat": 38.9061285, "fusion_lat": 0.0, "type": "electric_scooter", "bike_id": "3d3f80c93bab41b8c8c831353357e219", "rental_uris": {"ios": "https://dc.lft.to/lastmile_qr_scan", "android": "https://dc.lft.to/lastmile_qr_scan"}, "fusion_lon": 0.0, "lon": -77.04351516666667, "name": "3d3f80c93bab41b8c8c831353357e219", "is_reserved": 0, "is_disabled": 0}, {"lat": 38.9333435, "fusion_lat": 0.0, "type": "electric_scooter", "bike_id": "50e77a056fe1e8ac646b98b566a2d45d", "rental_uris": {"ios": "https://dc.lft.to/lastmile_qr_scan", "android": "https://dc.lft.to/lastmile_qr_scan"}, "fusion_lon": 0.0, "lon": -77.02906616666667, "name": "50e77a056fe1e8ac646b98b566a2d45d", "is_reserved": 0, "is_disabled": 0}, {"lat": 38.90323816666667, "fusion_lat": 0.0, "type": "electric_scooter", "bike_id": "b54aaf3b8a3d9d949cead35b2bf03e25", "rental_uris": {"ios": "https://dc.lft.to/lastmile_qr_scan", "android": "https://dc.lft.to/lastmile_qr_scan"}, "fusion_lon": 0.0, "lon": -77.03853266666667, "name": "b54aaf3b8a3d9d949cead35b2bf03e25", "is_reserved": 0, "is_disabled": 0}, {"lat": 38.9272125, "fusion_lat": 0.0, "type": "electric_scooter", "bike_id": "f327825f16a92e7e9b47096f3c6d278f", "rental_uris": {"ios": "https://dc.lft.to/lastmile_qr_scan", "android": "https://dc.lft.to/lastmile_qr_scan"}, "fusion_lon": 0.0, "lon": -77.02095233333333, "name": "f327825f16a92e7e9b47096f3c6d278f", "is_reserved": 0, "is_disabled": 0}, {"lat": 38.925021666666666, "fusion_lat": 0.0, "type": "electric_scooter", "bike_id": "2cffd00a6574f74dbb3287881665d184", "rental_uris": {"ios": "https://dc.lft.to/lastmile_qr_scan", "android": "https://dc.lft.to/lastmile_qr_scan"}, "fusion_lon": 0.0, "lon": -77.03913633333333, "name": "2cffd00a6574f74dbb3287881665d184", "is_reserved": 0, "is_disabled": 0}, {"lat": 38.922557, "fusion_lat": 0.0, "type": "electric_scooter", "bike_id": "3f6f993eaa650d765decc8c867a0d146", "rental_uris": {"ios": "https://dc.lft.to/lastmile_qr_scan", "android": "https://dc.lft.to/lastmile_qr_scan"}, "fusion_lon": 0.0, "lon": -77.02434883333333, "name": "3f6f993eaa650d765decc8c867a0d146", "is_reserved": 0, "is_disabled": 0}, {"lat": 38.912605166666665, "fusion_lat": 0.0, "type": "electric_scooter", "bike_id": "380e850b804ad3d12871c3446a6815ec", "rental_uris": {"ios": "https://dc.lft.to/lastmile_qr_scan", "android": "https://dc.lft.to/lastmile_qr_scan"}, "fusion_lon": 0.0, "lon": -77.0114725, "name": "380e850b804ad3d12871c3446a6815ec", "is_reserved": 0, "is_disabled": 0}, {"lat": 38.961303, "fusion_lat": 0.0, "type": "electric_bike", "bike_id": "91b955d9923de8db1e61d49a06a1e116", "rental_uris": {"ios": "https://dc.lft.to/lastmile_qr_scan", "android": "https://dc.lft.to/lastmile_qr_scan"}, "fusion_lon": 0.0, "lon": -77.032703, "name": "91b955d9923de8db1e61d49a06a1e116", "is_reserved": 0, "is_disabled": 0}, {"lat": 38.895781166666666, "fusion_lat": 0.0, "type": "electric_scooter", "bike_id": "227a4127fc1a34ee7e07bf91b9ce383c", "rental_uris": {"ios": "https://dc.lft.to/lastmile_qr_scan", "android": "https://dc.lft.to/lastmile_qr_scan"}, "fusion_lon": 0.0, "lon": -77.021684, "name": "227a4127fc1a34ee7e07bf91b9ce383c", "is_reserved": 0, "is_disabled": 0}, {"lat": 38.952056166666665, "fusion_lat": 0.0, "type": "electric_scooter", "bike_id": "2b030f19a2343b2ba9d6722237f7cdaf", "rental_uris": {"ios": "https://dc.lft.to/lastmile_qr_scan", "android": "https://dc.lft.to/lastmile_qr_scan"}, "fusion_lon": 0.0, "lon": -77.027306, "name": "2b030f19a2343b2ba9d6722237f7cdaf", "is_reserved": 0, "is_disabled": 0}, {"lat": 38.916998166666666, "fusion_lat": 0.0, "type": "electric_scooter", "bike_id": "e3de44047c00d62ffbbd6a58403e98da", "rental_uris": {"ios": "https://dc.lft.to/lastmile_qr_scan", "android": "https://dc.lft.to/lastmile_qr_scan"}, "fusion_lon": 0.0, "lon": -77.02483266666667, "name": "e3de44047c00d62ffbbd6a58403e98da", "is_reserved": 0, "is_disabled": 0}, {"lat": 38.9103935, "fusion_lat": 0.0, "type": "electric_scooter", "bike_id": "52871dcec71f6c0da27f28f61561b167", "rental_uris": {"ios": "https://dc.lft.to/lastmile_qr_scan", "android": "https://dc.lft.to/lastmile_qr_scan"}, "fusion_lon": 0.0, "lon": -77.0319995, "name": "52871dcec71f6c0da27f28f61561b167", "is_reserved": 0, "is_disabled": 0}, {"lat": 38.892252, "fusion_lat": 0.0, "type": "electric_scooter", "bike_id": "62dd098f26eb38350b919600299b093d", "rental_uris": {"ios": "https://dc.lft.to/lastmile_qr_scan", "android": "https://dc.lft.to/lastmile_qr_scan"}, "fusion_lon": 0.0, "lon": -77.032208, "name": "62dd098f26eb38350b919600299b093d", "is_reserved": 0, "is_disabled": 0}, {"lat": 38.90363716666667, "fusion_lat": 0.0, "type": "electric_scooter", "bike_id": "091773d9e0620071594c608f9d3112d0", "rental_uris": {"ios": "https://dc.lft.to/lastmile_qr_scan", "android": "https://dc.lft.to/lastmile_qr_scan"}, "fusion_lon": 0.0, "lon": -77.02198216666666, "name": "091773d9e0620071594c608f9d3112d0", "is_reserved": 0, "is_disabled": 0}, {"lat": 38.90116533333333, "fusion_lat": 0.0, "type": "electric_scooter", "bike_id": "7d011711f44314f6a70e8e89d4a6cf3b", "rental_uris": {"ios": "https://dc.lft.to/lastmile_qr_scan", "android": "https://dc.lft.to/lastmile_qr_scan"}, "fusion_lon": 0.0, "lon": -77.0348135, "name": "7d011711f44314f6a70e8e89d4a6cf3b", "is_reserved": 0, "is_disabled": 0}, {"lat": 38.92514666666667, "fusion_lat": 0.0, "type": "electric_scooter", "bike_id": "4b9d22b651228cac2718b083d5c9d7f3", "rental_uris": {"ios": "https://dc.lft.to/lastmile_qr_scan", "android": "https://dc.lft.to/lastmile_qr_scan"}, "fusion_lon": 0.0, "lon": -77.02359866666667, "name": "4b9d22b651228cac2718b083d5c9d7f3", "is_reserved": 0, "is_disabled": 0}, {"lat": 38.9161425, "fusion_lat": 0.0, "type": "electric_scooter", "bike_id": "c4526ada36d06ca3995533ca1a069e37", "rental_uris": {"ios": "https://dc.lft.to/lastmile_qr_scan", "android": "https://dc.lft.to/lastmile_qr_scan"}, "fusion_lon": 0.0, "lon": -77.0217935, "name": "c4526ada36d06ca3995533ca1a069e37", "is_reserved": 0, "is_disabled": 0}, {"lat": 38.9356005, "fusion_lat": 0.0, "type": "electric_scooter", "bike_id": "adbd30a3b437594a7aaf275d017693c3", "rental_uris": {"ios": "https://dc.lft.to/lastmile_qr_scan", "android": "https://dc.lft.to/lastmile_qr_scan"}, "fusion_lon": 0.0, "lon": -77.0877805, "name": "adbd30a3b437594a7aaf275d017693c3", "is_reserved": 0, "is_disabled": 0}, {"lat": 38.92493416666667, "fusion_lat": 0.0, "type": "electric_scooter", "bike_id": "300b93675b4fa6e4ff0f79dddc81348f", "rental_uris": {"ios": "https://dc.lft.to/lastmile_qr_scan", "android": "https://dc.lft.to/lastmile_qr_scan"}, "fusion_lon": 0.0, "lon": -77.0258635, "name": "300b93675b4fa6e4ff0f79dddc81348f", "is_reserved": 0, "is_disabled": 0}, {"lat": 38.92969466666667, "fusion_lat": 0.0, "type": "electric_scooter", "bike_id": "5cbf569d98a672c3c3ba7700b8d89dcf", "rental_uris": {"ios": "https://dc.lft.to/lastmile_qr_scan", "android": "https://dc.lft.to/lastmile_qr_scan"}, "fusion_lon": 0.0, "lon": -77.02793766666667, "name": "5cbf569d98a672c3c3ba7700b8d89dcf", "is_reserved": 0, "is_disabled": 0}, {"lat": 38.90270433333333, "fusion_lat": 0.0, "type": "electric_scooter", "bike_id": "ab31b713bba675bb9f192ce606ee8353", "rental_uris": {"ios": "https://dc.lft.to/lastmile_qr_scan", "android": "https://dc.lft.to/lastmile_qr_scan"}, "fusion_lon": 0.0, "lon": -77.059928, "name": "ab31b713bba675bb9f192ce606ee8353", "is_reserved": 0, "is_disabled": 0}, {"lat": 38.961440333333336, "fusion_lat": 0.0, "type": "electric_scooter", "bike_id": "cc0c2404796c44f6f6467ed9b1a8009c", "rental_uris": {"ios": "https://dc.lft.to/lastmile_qr_scan", "android": "https://dc.lft.to/lastmile_qr_scan"}, "fusion_lon": 0.0, "lon": -77.0278415, "name": "cc0c2404796c44f6f6467ed9b1a8009c", "is_reserved": 0, "is_disabled": 0}, {"lat": 38.89245, "fusion_lat": 0.0, "type": "electric_scooter", "bike_id": "7eca44e4a17b3868a51f5d8dcee773a0", "rental_uris": {"ios": "https://dc.lft.to/lastmile_qr_scan", "android": "https://dc.lft.to/lastmile_qr_scan"}, "fusion_lon": 0.0, "lon": -77.031784, "name": "7eca44e4a17b3868a51f5d8dcee773a0", "is_reserved": 0, "is_disabled": 0}, {"lat": 38.89738066666666, "fusion_lat": 0.0, "type": "electric_scooter", "bike_id": "e7fc4df2c792d9b4f5eee786c1f356da", "rental_uris": {"ios": "https://dc.lft.to/lastmile_qr_scan", "android": "https://dc.lft.to/lastmile_qr_scan"}, "fusion_lon": 0.0, "lon": -77.04926, "name": "e7fc4df2c792d9b4f5eee786c1f356da", "is_reserved": 0, "is_disabled": 0}, {"lat": 38.907027166666666, "fusion_lat": 0.0, "type": "electric_scooter", "bike_id": "f95d613061aea115c29ca4f823e4f525", "rental_uris": {"ios": "https://dc.lft.to/lastmile_qr_scan", "android": "https://dc.lft.to/lastmile_qr_scan"}, "fusion_lon": 0.0, "lon": -76.98691483333333, "name": "f95d613061aea115c29ca4f823e4f525", "is_reserved": 0, "is_disabled": 0}, {"lat": 38.92511283333333, "fusion_lat": 0.0, "type": "electric_scooter", "bike_id": "cd2abc1da3aa93a69a2ddd3bd83ae83b", "rental_uris": {"ios": "https://dc.lft.to/lastmile_qr_scan", "android": "https://dc.lft.to/lastmile_qr_scan"}, "fusion_lon": 0.0, "lon": -77.022811, "name": "cd2abc1da3aa93a69a2ddd3bd83ae83b", "is_reserved": 0, "is_disabled": 0}, {"lat": 38.910963333333335, "fusion_lat": 0.0, "type": "electric_scooter", "bike_id": "3c9ef12b035d54dff994aabfd43e9a19", "rental_uris": {"ios": "https://dc.lft.to/lastmile_qr_scan", "android": "https://dc.lft.to/lastmile_qr_scan"}, "fusion_lon": 0.0, "lon": -77.03186283333334, "name": "3c9ef12b035d54dff994aabfd43e9a19", "is_reserved": 0, "is_disabled": 0}, {"lat": 38.91117216666667, "fusion_lat": 0.0, "type": "electric_scooter", "bike_id": "760af6c391c60a233b7f03364eb1829a", "rental_uris": {"ios": "https://dc.lft.to/lastmile_qr_scan", "android": "https://dc.lft.to/lastmile_qr_scan"}, "fusion_lon": 0.0, "lon": -77.04464016666667, "name": "760af6c391c60a233b7f03364eb1829a", "is_reserved": 0, "is_disabled": 0}, {"lat": 38.9233255, "fusion_lat": 0.0, "type": "electric_scooter", "bike_id": "43fe9b4b524c127528f7e095015d9db9", "rental_uris": {"ios": "https://dc.lft.to/lastmile_qr_scan", "android": "https://dc.lft.to/lastmile_qr_scan"}, "fusion_lon": 0.0, "lon": -77.05679783333333, "name": "43fe9b4b524c127528f7e095015d9db9", "is_reserved": 0, "is_disabled": 0}, {"lat": 38.919973666666664, "fusion_lat": 0.0, "type": "electric_scooter", "bike_id": "0496be5ceda8423ab1daa9e182122169", "rental_uris": {"ios": "https://dc.lft.to/lastmile_qr_scan", "android": "https://dc.lft.to/lastmile_qr_scan"}, "fusion_lon": 0.0, "lon": -77.03225266666666, "name": "0496be5ceda8423ab1daa9e182122169", "is_reserved": 0, "is_disabled": 0}, {"lat": 38.924670666666664, "fusion_lat": 0.0, "type": "electric_scooter", "bike_id": "c39eabb9c7994681dda358ef32839cd0", "rental_uris": {"ios": "https://dc.lft.to/lastmile_qr_scan", "android": "https://dc.lft.to/lastmile_qr_scan"}, "fusion_lon": 0.0, "lon": -77.0224, "name": "c39eabb9c7994681dda358ef32839cd0", "is_reserved": 0, "is_disabled": 0}, {"lat": 38.922916666666666, "fusion_lat": 0.0, "type": "electric_scooter", "bike_id": "b75b1a853d35de3a4d877c1c979d4a7b", "rental_uris": {"ios": "https://dc.lft.to/lastmile_qr_scan", "android": "https://dc.lft.to/lastmile_qr_scan"}, "fusion_lon": 0.0, "lon": -77.03198783333333, "name": "b75b1a853d35de3a4d877c1c979d4a7b", "is_reserved": 0, "is_disabled": 0}, {"lat": 38.93289166666667, "fusion_lat": 0.0, "type": "electric_scooter", "bike_id": "fa9ea7b6e92b548a41c20c5a1ce29e15", "rental_uris": {"ios": "https://dc.lft.to/lastmile_qr_scan", "android": "https://dc.lft.to/lastmile_qr_scan"}, "fusion_lon": 0.0, "lon": -77.028314, "name": "fa9ea7b6e92b548a41c20c5a1ce29e15", "is_reserved": 0, "is_disabled": 0}, {"lat": 38.90674583333333, "fusion_lat": 0.0, "type": "electric_scooter", "bike_id": "72d2bd8a8d43183300bca439a85b6f62", "rental_uris": {"ios": "https://dc.lft.to/lastmile_qr_scan", "android": "https://dc.lft.to/lastmile_qr_scan"}, "fusion_lon": 0.0, "lon": -77.0375555, "name": "72d2bd8a8d43183300bca439a85b6f62", "is_reserved": 0, "is_disabled": 0}, {"lat": 38.84341633333333, "fusion_lat": 0.0, "type": "electric_scooter", "bike_id": "ca9607d271ce781a15665f36a41934bf", "rental_uris": {"ios": "https://dc.lft.to/lastmile_qr_scan", "android": "https://dc.lft.to/lastmile_qr_scan"}, "fusion_lon": 0.0, "lon": -76.99908816666667, "name": "ca9607d271ce781a15665f36a41934bf", "is_reserved": 0, "is_disabled": 0}, {"lat": 38.88348833333333, "fusion_lat": 0.0, "type": "electric_scooter", "bike_id": "d7a6ee8bdd37f5ba24f4d935ccdef541", "rental_uris": {"ios": "https://dc.lft.to/lastmile_qr_scan", "android": "https://dc.lft.to/lastmile_qr_scan"}, "fusion_lon": 0.0, "lon": -76.93501316666666, "name": "d7a6ee8bdd37f5ba24f4d935ccdef541", "is_reserved": 0, "is_disabled": 0}, {"lat": 38.899210833333335, "fusion_lat": 0.0, "type": "electric_scooter", "bike_id": "a837dae41da8c93069ae6ad779081aa9", "rental_uris": {"ios": "https://dc.lft.to/lastmile_qr_scan", "android": "https://dc.lft.to/lastmile_qr_scan"}, "fusion_lon": 0.0, "lon": -77.0337105, "name": "a837dae41da8c93069ae6ad779081aa9", "is_reserved": 0, "is_disabled": 0}, {"lat": 38.906071, "fusion_lat": 0.0, "type": "electric_scooter", "bike_id": "522a562e42c2a713d6df441afec0b531", "rental_uris": {"ios": "https://dc.lft.to/lastmile_qr_scan", "android": "https://dc.lft.to/lastmile_qr_scan"}, "fusion_lon": 0.0, "lon": -77.03976833333333, "name": "522a562e42c2a713d6df441afec0b531", "is_reserved": 0, "is_disabled": 0}, {"lat": 38.897511, "fusion_lat": 0.0, "type": "electric_scooter", "bike_id": "623a32b39166b736a6467f552e37caaa", "rental_uris": {"ios": "https://dc.lft.to/lastmile_qr_scan", "android": "https://dc.lft.to/lastmile_qr_scan"}, "fusion_lon": 0.0, "lon": -77.0334395, "name": "623a32b39166b736a6467f552e37caaa", "is_reserved": 0, "is_disabled": 0}, {"lat": 38.904111666666665, "fusion_lat": 0.0, "type": "electric_scooter", "bike_id": "a8a616f9b87407b298f7b25e62e0c423", "rental_uris": {"ios": "https://dc.lft.to/lastmile_qr_scan", "android": "https://dc.lft.to/lastmile_qr_scan"}, "fusion_lon": 0.0, "lon": -76.97328383333334, "name": "a8a616f9b87407b298f7b25e62e0c423", "is_reserved": 0, "is_disabled": 0}, {"lat": 38.909457, "fusion_lat": 0.0, "type": "electric_scooter", "bike_id": "276663255f5dc751ee8579df2e487554", "rental_uris": {"ios": "https://dc.lft.to/lastmile_qr_scan", "android": "https://dc.lft.to/lastmile_qr_scan"}, "fusion_lon": 0.0, "lon": -77.0304745, "name": "276663255f5dc751ee8579df2e487554", "is_reserved": 0, "is_disabled": 0}, {"lat": 38.88730283333334, "fusion_lat": 0.0, "type": "electric_scooter", "bike_id": "b6197b6bb40ac9d68405669defb94b4f", "rental_uris": {"ios": "https://dc.lft.to/lastmile_qr_scan", "android": "https://dc.lft.to/lastmile_qr_scan"}, "fusion_lon": 0.0, "lon": -76.9835225, "name": "b6197b6bb40ac9d68405669defb94b4f", "is_reserved": 0, "is_disabled": 0}, {"lat": 38.875113166666665, "fusion_lat": 0.0, "type": "electric_scooter", "bike_id": "6a671bd2c86fdf1ebbaded8686d6f18e", "rental_uris": {"ios": "https://dc.lft.to/lastmile_qr_scan", "android": "https://dc.lft.to/lastmile_qr_scan"}, "fusion_lon": 0.0, "lon": -77.0005285, "name": "6a671bd2c86fdf1ebbaded8686d6f18e", "is_reserved": 0, "is_disabled": 0}, {"lat": 38.88414933333333, "fusion_lat": 0.0, "type": "electric_scooter", "bike_id": "1555d95c0f9f1430fe458cb675e0de05", "rental_uris": {"ios": "https://dc.lft.to/lastmile_qr_scan", "android": "https://dc.lft.to/lastmile_qr_scan"}, "fusion_lon": 0.0, "lon": -76.94201733333334, "name": "1555d95c0f9f1430fe458cb675e0de05", "is_reserved": 0, "is_disabled": 0}, {"lat": 38.9065315, "fusion_lat": 0.0, "type": "electric_scooter", "bike_id": "eebe3d5861f5b4d97d3be2c4e0b90ed1", "rental_uris": {"ios": "https://dc.lft.to/lastmile_qr_scan", "android": "https://dc.lft.to/lastmile_qr_scan"}, "fusion_lon": 0.0, "lon": -77.00208533333333, "name": "eebe3d5861f5b4d97d3be2c4e0b90ed1", "is_reserved": 0, "is_disabled": 0}, {"lat": 38.92602683333333, "fusion_lat": 0.0, "type": "electric_scooter", "bike_id": "155d744c5b55ee47c5b48064f6d31aad", "rental_uris": {"ios": "https://dc.lft.to/lastmile_qr_scan", "android": "https://dc.lft.to/lastmile_qr_scan"}, "fusion_lon": 0.0, "lon": -77.0215425, "name": "155d744c5b55ee47c5b48064f6d31aad", "is_reserved": 0, "is_disabled": 0}, {"lat": 38.89692133333333, "fusion_lat": 0.0, "type": "electric_scooter", "bike_id": "8957bc01f8bc93c5505ab78805daf7e8", "rental_uris": {"ios": "https://dc.lft.to/lastmile_qr_scan", "android": "https://dc.lft.to/lastmile_qr_scan"}, "fusion_lon": 0.0, "lon": -77.04346583333333, "name": "8957bc01f8bc93c5505ab78805daf7e8", "is_reserved": 0, "is_disabled": 0}, {"lat": 38.906479833333336, "fusion_lat": 0.0, "type": "electric_scooter", "bike_id": "b84ce02c73db64cb6e947a56c263e1ef", "rental_uris": {"ios": "https://dc.lft.to/lastmile_qr_scan", "android": "https://dc.lft.to/lastmile_qr_scan"}, "fusion_lon": 0.0, "lon": -77.03857166666667, "name": "b84ce02c73db64cb6e947a56c263e1ef", "is_reserved": 0, "is_disabled": 0}, {"lat": 38.918620833333335, "fusion_lat": 0.0, "type": "electric_scooter", "bike_id": "d3d2a0c192eaf3652ca2c98bcbe5349c", "rental_uris": {"ios": "https://dc.lft.to/lastmile_qr_scan", "android": "https://dc.lft.to/lastmile_qr_scan"}, "fusion_lon": 0.0, "lon": -77.04457833333333, "name": "d3d2a0c192eaf3652ca2c98bcbe5349c", "is_reserved": 0, "is_disabled": 0}, {"lat": 38.92347766666666, "fusion_lat": 0.0, "type": "electric_scooter", "bike_id": "595163b5417c4c236ffd7ba1cea8cb37", "rental_uris": {"ios": "https://dc.lft.to/lastmile_qr_scan", "android": "https://dc.lft.to/lastmile_qr_scan"}, "fusion_lon": 0.0, "lon": -77.0516545, "name": "595163b5417c4c236ffd7ba1cea8cb37", "is_reserved": 0, "is_disabled": 0}, {"lat": 38.92239333333333, "fusion_lat": 0.0, "type": "electric_scooter", "bike_id": "8685cd26c87a230286c7f5bdd9249c84", "rental_uris": {"ios": "https://dc.lft.to/lastmile_qr_scan", "android": "https://dc.lft.to/lastmile_qr_scan"}, "fusion_lon": 0.0, "lon": -77.0730755, "name": "8685cd26c87a230286c7f5bdd9249c84", "is_reserved": 0, "is_disabled": 0}, {"lat": 38.932872833333334, "fusion_lat": 0.0, "type": "electric_scooter", "bike_id": "da550f7615c819719ca664c33ceeb8e5", "rental_uris": {"ios": "https://dc.lft.to/lastmile_qr_scan", "android": "https://dc.lft.to/lastmile_qr_scan"}, "fusion_lon": 0.0, "lon": -77.0254425, "name": "da550f7615c819719ca664c33ceeb8e5", "is_reserved": 0, "is_disabled": 0}, {"lat": 38.891976, "fusion_lat": 0.0, "type": "electric_scooter", "bike_id": "799619ec483e5bd2fdfa218ad7ae4da4", "rental_uris": {"ios": "https://dc.lft.to/lastmile_qr_scan", "android": "https://dc.lft.to/lastmile_qr_scan"}, "fusion_lon": 0.0, "lon": -76.99387233333333, "name": "799619ec483e5bd2fdfa218ad7ae4da4", "is_reserved": 0, "is_disabled": 0}, {"lat": 38.930613, "fusion_lat": 0.0, "type": "electric_scooter", "bike_id": "08cd8dac1104fc083fb1cfdc1273afdd", "rental_uris": {"ios": "https://dc.lft.to/lastmile_qr_scan", "android": "https://dc.lft.to/lastmile_qr_scan"}, "fusion_lon": 0.0, "lon": -77.03214816666667, "name": "08cd8dac1104fc083fb1cfdc1273afdd", "is_reserved": 0, "is_disabled": 0}, {"lat": 38.900150833333335, "fusion_lat": 0.0, "type": "electric_scooter", "bike_id": "87995f8b770c919a5adcb74d40a20734", "rental_uris": {"ios": "https://dc.lft.to/lastmile_qr_scan", "android": "https://dc.lft.to/lastmile_qr_scan"}, "fusion_lon": 0.0, "lon": -77.01257366666667, "name": "87995f8b770c919a5adcb74d40a20734", "is_reserved": 0, "is_disabled": 0}, {"lat": 38.876491666666666, "fusion_lat": 0.0, "type": "electric_scooter", "bike_id": "345229ae3c468fff03ba1788bdeb6972", "rental_uris": {"ios": "https://dc.lft.to/lastmile_qr_scan", "android": "https://dc.lft.to/lastmile_qr_scan"}, "fusion_lon": 0.0, "lon": -77.00111533333333, "name": "345229ae3c468fff03ba1788bdeb6972", "is_reserved": 0, "is_disabled": 0}, {"lat": 38.913311666666665, "fusion_lat": 0.0, "type": "electric_scooter", "bike_id": "9b3d98a6016cfda230dc0cd780615325", "rental_uris": {"ios": "https://dc.lft.to/lastmile_qr_scan", "android": "https://dc.lft.to/lastmile_qr_scan"}, "fusion_lon": 0.0, "lon": -77.04859533333334, "name": "9b3d98a6016cfda230dc0cd780615325", "is_reserved": 0, "is_disabled": 0}, {"lat": 38.899199833333334, "fusion_lat": 0.0, "type": "electric_scooter", "bike_id": "13d4c243177fd69de776dfeb1e9932c3", "rental_uris": {"ios": "https://dc.lft.to/lastmile_qr_scan", "android": "https://dc.lft.to/lastmile_qr_scan"}, "fusion_lon": 0.0, "lon": -77.003557, "name": "13d4c243177fd69de776dfeb1e9932c3", "is_reserved": 0, "is_disabled": 0}, {"lat": 38.91338583333334, "fusion_lat": 0.0, "type": "electric_scooter", "bike_id": "91d2bc27c6113e176c479f8af09288b5", "rental_uris": {"ios": "https://dc.lft.to/lastmile_qr_scan", "android": "https://dc.lft.to/lastmile_qr_scan"}, "fusion_lon": 0.0, "lon": -77.016203, "name": "91d2bc27c6113e176c479f8af09288b5", "is_reserved": 0, "is_disabled": 0}, {"lat": 38.8994935, "fusion_lat": 0.0, "type": "electric_scooter", "bike_id": "17c39fd41ae700d30ac3d8b5073eafab", "rental_uris": {"ios": "https://dc.lft.to/lastmile_qr_scan", "android": "https://dc.lft.to/lastmile_qr_scan"}, "fusion_lon": 0.0, "lon": -77.028051, "name": "17c39fd41ae700d30ac3d8b5073eafab", "is_reserved": 0, "is_disabled": 0}, {"lat": 38.92747883333333, "fusion_lat": 0.0, "type": "electric_bike", "bike_id": "5ed00d5e21b26e09d301e834db1f48a6", "rental_uris": {"ios": "https://dc.lft.to/lastmile_qr_scan", "android": "https://dc.lft.to/lastmile_qr_scan"}, "fusion_lon": 0.0, "lon": -77.03637366666666, "name": "5ed00d5e21b26e09d301e834db1f48a6", "is_reserved": 0, "is_disabled": 0}, {"lat": 38.892287333333336, "fusion_lat": 0.0, "type": "electric_scooter", "bike_id": "1794462f464d8d6fb120ac82d5572226", "rental_uris": {"ios": "https://dc.lft.to/lastmile_qr_scan", "android": "https://dc.lft.to/lastmile_qr_scan"}, "fusion_lon": 0.0, "lon": -77.04194733333334, "name": "1794462f464d8d6fb120ac82d5572226", "is_reserved": 0, "is_disabled": 0}, {"lat": 38.917798166666664, "fusion_lat": 0.0, "type": "electric_scooter", "bike_id": "37f491e34779adcdaf8a235952154b29", "rental_uris": {"ios": "https://dc.lft.to/lastmile_qr_scan", "android": "https://dc.lft.to/lastmile_qr_scan"}, "fusion_lon": 0.0, "lon": -77.04056, "name": "37f491e34779adcdaf8a235952154b29", "is_reserved": 0, "is_disabled": 0}, {"lat": 38.8986125, "fusion_lat": 0.0, "type": "electric_scooter", "bike_id": "b8f325062d4cf9b49a0386199fe3820e", "rental_uris": {"ios": "https://dc.lft.to/lastmile_qr_scan", "android": "https://dc.lft.to/lastmile_qr_scan"}, "fusion_lon": 0.0, "lon": -77.03338166666667, "name": "b8f325062d4cf9b49a0386199fe3820e", "is_reserved": 0, "is_disabled": 0}, {"lat": 39.01073216666666, "fusion_lat": 0.0, "type": "electric_bike", "bike_id": "06b0dba93547426f939a8f3d2a7e8c55", "rental_uris": {"ios": "https://dc.lft.to/lastmile_qr_scan", "android": "https://dc.lft.to/lastmile_qr_scan"}, "fusion_lon": 0.0, "lon": -76.91053183333334, "name": "06b0dba93547426f939a8f3d2a7e8c55", "is_reserved": 0, "is_disabled": 0}, {"lat": 38.91812066666667, "fusion_lat": 0.0, "type": "electric_scooter", "bike_id": "f9c55ea54c0dd4858dfd3b6835f8d261", "rental_uris": {"ios": "https://dc.lft.to/lastmile_qr_scan", "android": "https://dc.lft.to/lastmile_qr_scan"}, "fusion_lon": 0.0, "lon": -77.02681266666667, "name": "f9c55ea54c0dd4858dfd3b6835f8d261", "is_reserved": 0, "is_disabled": 0}, {"lat": 38.9187675, "fusion_lat": 0.0, "type": "electric_bike", "bike_id": "25dbbcf7b75ccdec2988f133a2364acc", "rental_uris": {"ios": "https://dc.lft.to/lastmile_qr_scan", "android": "https://dc.lft.to/lastmile_qr_scan"}, "fusion_lon": 0.0, "lon": -76.9643405, "name": "25dbbcf7b75ccdec2988f133a2364acc", "is_reserved": 0, "is_disabled": 0}, {"lat": 38.90598583333333, "fusion_lat": 0.0, "type": "electric_scooter", "bike_id": "9dc317b0a355e7a0ebfa184759cce86a", "rental_uris": {"ios": "https://dc.lft.to/lastmile_qr_scan", "android": "https://dc.lft.to/lastmile_qr_scan"}, "fusion_lon": 0.0, "lon": -77.0412385, "name": "9dc317b0a355e7a0ebfa184759cce86a", "is_reserved": 0, "is_disabled": 0}, {"lat": 38.89754383333333, "fusion_lat": 0.0, "type": "electric_scooter", "bike_id": "bd95a003172885c57b2917a7578707b6", "rental_uris": {"ios": "https://dc.lft.to/lastmile_qr_scan", "android": "https://dc.lft.to/lastmile_qr_scan"}, "fusion_lon": 0.0, "lon": -77.02087583333333, "name": "bd95a003172885c57b2917a7578707b6", "is_reserved": 0, "is_disabled": 0}, {"lat": 38.90861916666667, "fusion_lat": 0.0, "type": "electric_scooter", "bike_id": "b5519067cf8640415f36e56ca1508568", "rental_uris": {"ios": "https://dc.lft.to/lastmile_qr_scan", "android": "https://dc.lft.to/lastmile_qr_scan"}, "fusion_lon": 0.0, "lon": -77.0639295, "name": "b5519067cf8640415f36e56ca1508568", "is_reserved": 0, "is_disabled": 0}, {"lat": 38.9193335, "fusion_lat": 0.0, "type": "electric_scooter", "bike_id": "04a4b6ecb6b079c0cf9056a97a903489", "rental_uris": {"ios": "https://dc.lft.to/lastmile_qr_scan", "android": "https://dc.lft.to/lastmile_qr_scan"}, "fusion_lon": 0.0, "lon": -77.03415866666667, "name": "04a4b6ecb6b079c0cf9056a97a903489", "is_reserved": 0, "is_disabled": 0}, {"lat": 38.88770016666667, "fusion_lat": 0.0, "type": "electric_scooter", "bike_id": "281c83a2d4849ac25deae25bab15d4aa", "rental_uris": {"ios": "https://dc.lft.to/lastmile_qr_scan", "android": "https://dc.lft.to/lastmile_qr_scan"}, "fusion_lon": 0.0, "lon": -77.022354, "name": "281c83a2d4849ac25deae25bab15d4aa", "is_reserved": 0, "is_disabled": 0}, {"lat": 38.95085516666666, "fusion_lat": 0.0, "type": "electric_scooter", "bike_id": "5e1e76956d03c1666c6ab78260647727", "rental_uris": {"ios": "https://dc.lft.to/lastmile_qr_scan", "android": "https://dc.lft.to/lastmile_qr_scan"}, "fusion_lon": 0.0, "lon": -77.03156033333333, "name": "5e1e76956d03c1666c6ab78260647727", "is_reserved": 0, "is_disabled": 0}, {"lat": 38.92033133333334, "fusion_lat": 0.0, "type": "electric_scooter", "bike_id": "1d89d6cc17fecacb755af01a3f2e93fd", "rental_uris": {"ios": "https://dc.lft.to/lastmile_qr_scan", "android": "https://dc.lft.to/lastmile_qr_scan"}, "fusion_lon": 0.0, "lon": -77.07137883333333, "name": "1d89d6cc17fecacb755af01a3f2e93fd", "is_reserved": 0, "is_disabled": 0}, {"lat": 38.892215666666665, "fusion_lat": 0.0, "type": "electric_scooter", "bike_id": "24b34d5d3d57e47a46daaa755b402417", "rental_uris": {"ios": "https://dc.lft.to/lastmile_qr_scan", "android": "https://dc.lft.to/lastmile_qr_scan"}, "fusion_lon": 0.0, "lon": -77.026242, "name": "24b34d5d3d57e47a46daaa755b402417", "is_reserved": 0, "is_disabled": 0}, {"lat": 38.92501566666667, "fusion_lat": 0.0, "type": "electric_scooter", "bike_id": "602d0e56e4f4962251f9a18a13990318", "rental_uris": {"ios": "https://dc.lft.to/lastmile_qr_scan", "android": "https://dc.lft.to/lastmile_qr_scan"}, "fusion_lon": 0.0, "lon": -77.024016, "name": "602d0e56e4f4962251f9a18a13990318", "is_reserved": 0, "is_disabled": 0}, {"lat": 38.9225475, "fusion_lat": 0.0, "type": "electric_scooter", "bike_id": "373194e746c35e9fbc0ba69b5963eb97", "rental_uris": {"ios": "https://dc.lft.to/lastmile_qr_scan", "android": "https://dc.lft.to/lastmile_qr_scan"}, "fusion_lon": 0.0, "lon": -77.01909483333333, "name": "373194e746c35e9fbc0ba69b5963eb97", "is_reserved": 0, "is_disabled": 0}, {"lat": 38.91961166666667, "fusion_lat": 0.0, "type": "electric_scooter", "bike_id": "53977ca13069a2aad8448f74e5b22e6f", "rental_uris": {"ios": "https://dc.lft.to/lastmile_qr_scan", "android": "https://dc.lft.to/lastmile_qr_scan"}, "fusion_lon": 0.0, "lon": -77.01817633333333, "name": "53977ca13069a2aad8448f74e5b22e6f", "is_reserved": 0, "is_disabled": 0}, {"lat": 38.91127133333333, "fusion_lat": 0.0, "type": "electric_scooter", "bike_id": "59b557e9ba783edba86e2fc431792fb6", "rental_uris": {"ios": "https://dc.lft.to/lastmile_qr_scan", "android": "https://dc.lft.to/lastmile_qr_scan"}, "fusion_lon": 0.0, "lon": -77.02193166666666, "name": "59b557e9ba783edba86e2fc431792fb6", "is_reserved": 0, "is_disabled": 0}, {"lat": 38.896101333333334, "fusion_lat": 0.0, "type": "electric_scooter", "bike_id": "8a37e8b6f34be16a96f5d6d594ed840a", "rental_uris": {"ios": "https://dc.lft.to/lastmile_qr_scan", "android": "https://dc.lft.to/lastmile_qr_scan"}, "fusion_lon": 0.0, "lon": -77.002127, "name": "8a37e8b6f34be16a96f5d6d594ed840a", "is_reserved": 0, "is_disabled": 0}, {"lat": 38.905251166666666, "fusion_lat": 0.0, "type": "electric_scooter", "bike_id": "92aa69b0f4224a321539d75cb94f5a82", "rental_uris": {"ios": "https://dc.lft.to/lastmile_qr_scan", "android": "https://dc.lft.to/lastmile_qr_scan"}, "fusion_lon": 0.0, "lon": -77.041609, "name": "92aa69b0f4224a321539d75cb94f5a82", "is_reserved": 0, "is_disabled": 0}, {"lat": 38.8722515, "fusion_lat": 0.0, "type": "electric_scooter", "bike_id": "2305f48798fac66deb3fcc01b3224f81", "rental_uris": {"ios": "https://dc.lft.to/lastmile_qr_scan", "android": "https://dc.lft.to/lastmile_qr_scan"}, "fusion_lon": 0.0, "lon": -77.01219816666666, "name": "2305f48798fac66deb3fcc01b3224f81", "is_reserved": 0, "is_disabled": 0}, {"lat": 38.87705916666667, "fusion_lat": 0.0, "type": "electric_scooter", "bike_id": "65a1c95a37a21a3d67254e3c827f5f56", "rental_uris": {"ios": "https://dc.lft.to/lastmile_qr_scan", "android": "https://dc.lft.to/lastmile_qr_scan"}, "fusion_lon": 0.0, "lon": -76.99686983333334, "name": "65a1c95a37a21a3d67254e3c827f5f56", "is_reserved": 0, "is_disabled": 0}, {"lat": 38.90391733333333, "fusion_lat": 0.0, "type": "electric_scooter", "bike_id": "690023d689bfe44f02aeeed51484fc1e", "rental_uris": {"ios": "https://dc.lft.to/lastmile_qr_scan", "android": "https://dc.lft.to/lastmile_qr_scan"}, "fusion_lon": 0.0, "lon": -77.06797366666666, "name": "690023d689bfe44f02aeeed51484fc1e", "is_reserved": 0, "is_disabled": 0}, {"lat": 38.916406, "fusion_lat": 0.0, "type": "electric_scooter", "bike_id": "ebd463839a0279584056205635b8d367", "rental_uris": {"ios": "https://dc.lft.to/lastmile_qr_scan", "android": "https://dc.lft.to/lastmile_qr_scan"}, "fusion_lon": 0.0, "lon": -77.02256283333334, "name": "ebd463839a0279584056205635b8d367", "is_reserved": 0, "is_disabled": 0}, {"lat": 38.89545666666667, "fusion_lat": 0.0, "type": "electric_scooter", "bike_id": "9ed721ee298107663f21e692c43545eb", "rental_uris": {"ios": "https://dc.lft.to/lastmile_qr_scan", "android": "https://dc.lft.to/lastmile_qr_scan"}, "fusion_lon": 0.0, "lon": -76.9833875, "name": "9ed721ee298107663f21e692c43545eb", "is_reserved": 0, "is_disabled": 0}, {"lat": 38.900188666666665, "fusion_lat": 0.0, "type": "electric_scooter", "bike_id": "35a5e003f0d68e44660256153fc7ea12", "rental_uris": {"ios": "https://dc.lft.to/lastmile_qr_scan", "android": "https://dc.lft.to/lastmile_qr_scan"}, "fusion_lon": 0.0, "lon": -76.99867583333334, "name": "35a5e003f0d68e44660256153fc7ea12", "is_reserved": 0, "is_disabled": 0}, {"lat": 38.915663333333335, "fusion_lat": 0.0, "type": "electric_scooter", "bike_id": "89512685f7df2f9c87525553d9f4ba0c", "rental_uris": {"ios": "https://dc.lft.to/lastmile_qr_scan", "android": "https://dc.lft.to/lastmile_qr_scan"}, "fusion_lon": 0.0, "lon": -77.02003733333333, "name": "89512685f7df2f9c87525553d9f4ba0c", "is_reserved": 0, "is_disabled": 0}, {"lat": 38.92674233333334, "fusion_lat": 0.0, "type": "electric_scooter", "bike_id": "ada7fba2b960310c1676af9e4400012b", "rental_uris": {"ios": "https://dc.lft.to/lastmile_qr_scan", "android": "https://dc.lft.to/lastmile_qr_scan"}, "fusion_lon": 0.0, "lon": -77.02291333333334, "name": "ada7fba2b960310c1676af9e4400012b", "is_reserved": 0, "is_disabled": 0}, {"lat": 38.9056855, "fusion_lat": 0.0, "type": "electric_scooter", "bike_id": "593bbfff4d25a6558a668642a886c950", "rental_uris": {"ios": "https://dc.lft.to/lastmile_qr_scan", "android": "https://dc.lft.to/lastmile_qr_scan"}, "fusion_lon": 0.0, "lon": -77.00598966666666, "name": "593bbfff4d25a6558a668642a886c950", "is_reserved": 0, "is_disabled": 0}, {"lat": 38.8877155, "fusion_lat": 0.0, "type": "electric_scooter", "bike_id": "26e0f73d2160f812dd390d3d27601723", "rental_uris": {"ios": "https://dc.lft.to/lastmile_qr_scan", "android": "https://dc.lft.to/lastmile_qr_scan"}, "fusion_lon": 0.0, "lon": -77.00184266666666, "name": "26e0f73d2160f812dd390d3d27601723", "is_reserved": 0, "is_disabled": 0}, {"lat": 38.892083166666666, "fusion_lat": 0.0, "type": "electric_scooter", "bike_id": "351d520880cf6577dacaa1150f70529b", "rental_uris": {"ios": "https://dc.lft.to/lastmile_qr_scan", "android": "https://dc.lft.to/lastmile_qr_scan"}, "fusion_lon": 0.0, "lon": -77.00287816666666, "name": "351d520880cf6577dacaa1150f70529b", "is_reserved": 0, "is_disabled": 0}, {"lat": 38.910495166666664, "fusion_lat": 0.0, "type": "electric_scooter", "bike_id": "49070eec243b031fc383aa2957268ac3", "rental_uris": {"ios": "https://dc.lft.to/lastmile_qr_scan", "android": "https://dc.lft.to/lastmile_qr_scan"}, "fusion_lon": 0.0, "lon": -77.04346066666666, "name": "49070eec243b031fc383aa2957268ac3", "is_reserved": 0, "is_disabled": 0}, {"lat": 38.92321166666667, "fusion_lat": 0.0, "type": "electric_scooter", "bike_id": "3e5acbf11c068a4f4051ccb50b0bb98f", "rental_uris": {"ios": "https://dc.lft.to/lastmile_qr_scan", "android": "https://dc.lft.to/lastmile_qr_scan"}, "fusion_lon": 0.0, "lon": -77.0304695, "name": "3e5acbf11c068a4f4051ccb50b0bb98f", "is_reserved": 0, "is_disabled": 0}, {"lat": 38.910202166666664, "fusion_lat": 0.0, "type": "electric_scooter", "bike_id": "c52233d30417adfd74689a1de608a8d1", "rental_uris": {"ios": "https://dc.lft.to/lastmile_qr_scan", "android": "https://dc.lft.to/lastmile_qr_scan"}, "fusion_lon": 0.0, "lon": -77.01656616666666, "name": "c52233d30417adfd74689a1de608a8d1", "is_reserved": 0, "is_disabled": 0}, {"lat": 38.89830116666667, "fusion_lat": 0.0, "type": "electric_scooter", "bike_id": "823ed9dc4b111b9257d3f265a1e3235e", "rental_uris": {"ios": "https://dc.lft.to/lastmile_qr_scan", "android": "https://dc.lft.to/lastmile_qr_scan"}, "fusion_lon": 0.0, "lon": -77.03151416666667, "name": "823ed9dc4b111b9257d3f265a1e3235e", "is_reserved": 0, "is_disabled": 0}, {"lat": 38.92460616666666, "fusion_lat": 0.0, "type": "electric_scooter", "bike_id": "ec44287af0dc51300b10e460de718556", "rental_uris": {"ios": "https://dc.lft.to/lastmile_qr_scan", "android": "https://dc.lft.to/lastmile_qr_scan"}, "fusion_lon": 0.0, "lon": -77.04026983333333, "name": "ec44287af0dc51300b10e460de718556", "is_reserved": 0, "is_disabled": 0}, {"lat": 38.92403, "fusion_lat": 0.0, "type": "electric_scooter", "bike_id": "63a711dedb45d782f2ac6f60bc492b96", "rental_uris": {"ios": "https://dc.lft.to/lastmile_qr_scan", "android": "https://dc.lft.to/lastmile_qr_scan"}, "fusion_lon": 0.0, "lon": -77.0213245, "name": "63a711dedb45d782f2ac6f60bc492b96", "is_reserved": 0, "is_disabled": 0},