{"data": {"bikes": [{"rental_uris": {"android": "https://dc.lft.to/lastmile_qr_scan", "ios": "https://dc.lft.to/lastmile_qr_scan"}, "type": "electric_scooter", "lon": -77.01200666666666, "name": "d1f37ef43ee25df41b44fa4cfbc3848b", "bike_id": "d1f37ef43ee25df41b44fa4cfbc3848b", "fusion_lat": 0.0, "is_reserved": 0, "lat": 38.87093333333333, "fusion_lon": 0.0, "is_disabled": 0}, {"rental_uris": {"android": "https://dc.lft.to/lastmile_qr_scan", "ios": "https://dc.lft.to/lastmile_qr_scan"}, "type": "electric_scooter", "lon": -77.00639633333333, "name": "338a1b3d3383f6a4d0489f06deaef88b", "bike_id": "338a1b3d3383f6a4d0489f06deaef88b", "fusion_lat": 0.0, "is_reserved": 0, "lat": 38.8833875, "fusion_lon": 0.0, "is_disabled": 0}, {"rental_uris": {"android": "https://dc.lft.to/lastmile_qr_scan", "ios": "https://dc.lft.to/lastmile_qr_scan"}, "type": "electric_scooter", "lon": -77.03183883333334, "name": "b7198abe6b6477f0663db25bb38b348a", "bike_id": "b7198abe6b6477f0663db25bb38b348a", "fusion_lat": 0.0, "is_reserved": 0, "lat": 38.92976783333334, "fusion_lon": 0.0, "is_disabled": 0}, {"rental_uris": {"android": "https://dc.lft.to/lastmile_qr_scan", "ios": "https://dc.lft.to/lastmile_qr_scan"}, "type": "electric_scooter", "lon": -77.02051866666666, "name": "49bb104a8f403a08f318fc3b916e1353", "bike_id": "49bb104a8f403a08f318fc3b916e1353", "fusion_lat": 0.0, "is_reserved": 0, "lat": 38.89984783333333, "fusion_lon": 0.0, "is_disabled": 0}, {"rental_uris": {"android": "https://dc.lft.to/lastmile_qr_scan", "ios": "https://dc.lft.to/lastmile_qr_scan"}, "type": "electric_scooter", "lon": -77.03443566666667, "name": "34f9a2d9bffab3381267e40139839e1f", "bike_id": "34f9a2d9bffab3381267e40139839e1f", "fusion_lat": 0.0, "is_reserved": 0, "lat": 38.918288833333335, "fusion_lon": 0.0, "is_disabled": 0}, {"rental_uris": {"android": "https://dc.lft.to/lastmile_qr_scan", "ios": "https://dc.lft.to/lastmile_qr_scan"}, "type": "electric_scooter", "lon": -77.03390133333333, "name": "f45355a867eddfe3a1459a1a1f3501ee", "bike_id": "f45355a867eddfe3a1459a1a1f3501ee", "fusion_lat": 0.0, "is_reserved": 0, "lat": 38.919269666666665, "fusion_lon": 0.0, "is_disabled": 0}, {"rental_uris": {"android": "https://dc.lft.to/lastmile_qr_scan", "ios": "https://dc.lft.to/lastmile_qr_scan"}, "type": "electric_scooter", "lon": -77.01117433333333, "name": "8d2c5a563afd594af33d3e17bc7456c6", "bike_id": "8d2c5a563afd594af33d3e17bc7456c6", "fusion_lat": 0.0, "is_reserved": 0, "lat": 38.920319166666665, "fusion_lon": 0.0, "is_disabled": 0}, {"rental_uris": {"android": "https://dc.lft.to/lastmile_qr_scan", "ios": "https://dc.lft.to/lastmile_qr_scan"}, "type": "electric_scooter", "lon": -77.02091516666667, "name": "d450a244aba1813271643875276e9d40", "bike_id": "d450a244aba1813271643875276e9d40", "fusion_lat": 0.0, "is_reserved": 0, "lat": 38.9291455, "fusion_lon": 0.0, "is_disabled": 0}, {"rental_uris": {"android": "https://dc.lft.to/lastmile_qr_scan", "ios": "https://dc.lft.to/lastmile_qr_scan"}, "type": "electric_scooter", "lon": -77.02107533333333, "name": "b9e3eae0e70057c0a3b92f64cdef5ecb", "bike_id": "b9e3eae0e70057c0a3b92f64cdef5ecb", "fusion_lat": 0.0, "is_reserved": 0, "lat": 38.940976, "fusion_lon": 0.0, "is_disabled": 0}, {"rental_uris": {"android": "https://dc.lft.to/lastmile_qr_scan", "ios": "https://dc.lft.to/lastmile_qr_scan"}, "type": "electric_scooter", "lon": -77.06516283333333, "name": "d6ac0164dea0247c4af3d9e0a3ba3c8f", "bike_id": "d6ac0164dea0247c4af3d9e0a3ba3c8f", "fusion_lat": 0.0, "is_reserved": 0, "lat": 38.905197666666666, "fusion_lon": 0.0, "is_disabled": 0}, {"rental_uris": {"android": "https://dc.lft.to/lastmile_qr_scan", "ios": "https://dc.lft.to/lastmile_qr_scan"}, "type": "electric_bike", "lon": -77.01455866666667, "name": "f05b8a2241237ca8d9a08caf3eb1aa04", "bike_id": "f05b8a2241237ca8d9a08caf3eb1aa04", "fusion_lat": 0.0, "is_reserved": 0, "lat": 38.86797333333333, "fusion_lon": 0.0, "is_disabled": 0}, {"rental_uris": {"android": "https://dc.lft.to/lastmile_qr_scan", "ios": "https://dc.lft.to/lastmile_qr_scan"}, "type": "electric_scooter", "lon": -77.026936, "name": "769a65e5dfcbe49af910ccd5148f71b6", "bike_id": "769a65e5dfcbe49af910ccd5148f71b6", "fusion_lat": 0.0, "is_reserved": 0, "lat": 38.9084415, "fusion_lon": 0.0, "is_disabled": 0}, {"rental_uris": {"android": "https://dc.lft.to/lastmile_qr_scan", "ios": "https://dc.lft.to/lastmile_qr_scan"}, "type": "electric_scooter", "lon": -77.040468, "name": "98b8568e7be94f2cc9a3aed5b34e7f70", "bike_id": "98b8568e7be94f2cc9a3aed5b34e7f70", "fusion_lat": 0.0, "is_reserved": 0, "lat": 38.9058905, "fusion_lon": 0.0, "is_disabled": 0}, {"rental_uris": {"android": "https://dc.lft.to/lastmile_qr_scan", "ios": "https://dc.lft.to/lastmile_qr_scan"}, "type": "electric_scooter", "lon": -76.99944983333333, "name": "b6a75ca41530ec00b982f8bae055bcf9", "bike_id": "b6a75ca41530ec00b982f8bae055bcf9", "fusion_lat": 0.0, "is_reserved": 0, "lat": 38.84290566666667, "fusion_lon": 0.0, "is_disabled": 0}, {"rental_uris": {"android": "https://dc.lft.to/lastmile_qr_scan", "ios": "https://dc.lft.to/lastmile_qr_scan"}, "type": "electric_scooter", "lon": -77.01840083333333, "name": "5cfda86c7dc71f963179c62212a56b79", "bike_id": "5cfda86c7dc71f963179c62212a56b79", "fusion_lat": 0.0, "is_reserved": 0, "lat": 38.876959666666664, "fusion_lon": 0.0, "is_disabled": 0}, {"rental_uris": {"android": "https://dc.lft.to/lastmile_qr_scan", "ios": "https://dc.lft.to/lastmile_qr_scan"}, "type": "electric_scooter", "lon": -77.0274825, "name": "3d71fe1397fa42f34f6c8cebd9e8a993", "bike_id": "3d71fe1397fa42f34f6c8cebd9e8a993", "fusion_lat": 0.0, "is_reserved": 0, "lat": 38.95608983333333, "fusion_lon": 0.0, "is_disabled": 0}, {"rental_uris": {"android": "https://dc.lft.to/lastmile_qr_scan", "ios": "https://dc.lft.to/lastmile_qr_scan"}, "type": "electric_scooter", "lon": -76.98684216666666, "name": "7b317b2d8d3bdba459b6ae0e56272d94", "bike_id": "7b317b2d8d3bdba459b6ae0e56272d94", "fusion_lat": 0.0, "is_reserved": 0, "lat": 38.88216033333333, "fusion_lon": 0.0, "is_disabled": 0}, {"rental_uris": {"android": "https://dc.lft.to/lastmile_qr_scan", "ios": "https://dc.lft.to/lastmile_qr_scan"}, "type": "electric_scooter", "lon": -77.04819033333334, "name": "d997e9a2c12cc787eb518d51ad5aa61d", "bike_id": "d997e9a2c12cc787eb518d51ad5aa61d", "fusion_lat": 0.0, "is_reserved": 0, "lat": 38.91489516666667, "fusion_lon": 0.0, "is_disabled": 0}, {"rental_uris": {"android": "https://dc.lft.to/lastmile_qr_scan", "ios": "https://dc.lft.to/lastmile_qr_scan"}, "type": "electric_bike", "lon": -76.99515666666667, "name": "25754586889f56b94797b603d1d5245a", "bike_id": "25754586889f56b94797b603d1d5245a", "fusion_lat": 0.0, "is_reserved": 0, "lat": 38.9393215, "fusion_lon": 0.0, "is_disabled": 0}, {"rental_uris": {"android": "https://dc.lft.to/lastmile_qr_scan", "ios": "https://dc.lft.to/lastmile_qr_scan"}, "type": "electric_scooter", "lon": -77.032822, "name": "bb554ee8966c390161e20a3ecc0575c9", "bike_id": "bb554ee8966c390161e20a3ecc0575c9", "fusion_lat": 0.0, "is_reserved": 0, "lat": 38.939858666666666, "fusion_lon": 0.0, "is_disabled": 0}, {"rental_uris": {"android": "https://dc.lft.to/lastmile_qr_scan", "ios": "https://dc.lft.to/lastmile_qr_scan"}, "type": "electric_scooter", "lon": -76.990055, "name": "dee3bb9695cadbcc0a909c2c7a167380", "bike_id": "dee3bb9695cadbcc0a909c2c7a167380", "fusion_lat": 0.0, "is_reserved": 0, "lat": 38.90395433333333, "fusion_lon": 0.0, "is_disabled": 0}, {"rental_uris": {"android": "https://dc.lft.to/lastmile_qr_scan", "ios": "https://dc.lft.to/lastmile_qr_scan"}, "type": "electric_scooter", "lon": -76.994893, "name": "82370121f109abed8d4ab04455af35e8", "bike_id": "82370121f109abed8d4ab04455af35e8", "fusion_lat": 0.0, "is_reserved": 0, "lat": 38.862449, "fusion_lon": 0.0, "is_disabled": 0}, {"rental_uris": {"android": "https://dc.lft.to/lastmile_qr_scan", "ios": "https://dc.lft.to/lastmile_qr_scan"}, "type": "electric_scooter", "lon": -77.00676116666666, "name": "03f74f4a5d2a4ce400eec9ddb72f51a1", "bike_id": "03f74f4a5d2a4ce400eec9ddb72f51a1", "fusion_lat": 0.0, "is_reserved": 0, "lat": 38.949873333333336, "fusion_lon": 0.0, "is_disabled": 0}, {"rental_uris": {"android": "https://dc.lft.to/lastmile_qr_scan", "ios": "https://dc.lft.to/lastmile_qr_scan"}, "type": "electric_scooter", "lon": -77.02961116666667, "name": "5f678f68e71fcbb0b8947fefdc9b3ff3", "bike_id": "5f678f68e71fcbb0b8947fefdc9b3ff3", "fusion_lat": 0.0, "is_reserved": 0, "lat": 38.92147416666667, "fusion_lon": 0.0, "is_disabled": 0}, {"rental_uris": {"android": "https://dc.lft.to/lastmile_qr_scan", "ios": "https://dc.lft.to/lastmile_qr_scan"}, "type": "electric_scooter", "lon": -77.03274216666667, "name": "a48e439dc9701d8a123755112484de79", "bike_id": "a48e439dc9701d8a123755112484de79", "fusion_lat": 0.0, "is_reserved": 0, "lat": 38.9104045, "fusion_lon": 0.0, "is_disabled": 0}, {"rental_uris": {"android": "https://dc.lft.to/lastmile_qr_scan", "ios": "https://dc.lft.to/lastmile_qr_scan"}, "type": "electric_scooter", "lon": -77.023733, "name": "9b43f01cec267aaa86093ed4a995d34e", "bike_id": "9b43f01cec267aaa86093ed4a995d34e", "fusion_lat": 0.0, "is_reserved": 0, "lat": 38.89222316666667, "fusion_lon": 0.0, "is_disabled": 0}, {"rental_uris": {"android": "https://dc.lft.to/lastmile_qr_scan", "ios": "https://dc.lft.to/lastmile_qr_scan"}, "type": "electric_scooter", "lon": -77.04897466666667, "name": "cbcd37d68ec4c662d8a9de99c471bdb2", "bike_id": "cbcd37d68ec4c662d8a9de99c471bdb2", "fusion_lat": 0.0, "is_reserved": 0, "lat": 38.892541333333334, "fusion_lon": 0.0, "is_disabled": 0}, {"rental_uris": {"android": "https://dc.lft.to/lastmile_qr_scan", "ios": "https://dc.lft.to/lastmile_qr_scan"}, "type": "electric_scooter", "lon": -76.99581766666667, "name": "bb64334ee30afad063890826e870c0eb", "bike_id": "bb64334ee30afad063890826e870c0eb", "fusion_lat": 0.0, "is_reserved": 0, "lat": 38.920666833333335, "fusion_lon": 0.0, "is_disabled": 0}, {"rental_uris": {"android": "https://dc.lft.to/lastmile_qr_scan", "ios": "https://dc.lft.to/lastmile_qr_scan"}, "type": "electric_scooter", "lon": -77.0080735, "name": "41ce97634df50c3057c41ed68d6d5772", "bike_id": "41ce97634df50c3057c41ed68d6d5772", "fusion_lat": 0.0, "is_reserved": 0, "lat": 38.87645033333333, "fusion_lon": 0.0, "is_disabled": 0}, {"rental_uris": {"android": "https://dc.lft.to/lastmile_qr_scan", "ios": "https://dc.lft.to/lastmile_qr_scan"}, "type": "electric_scooter", "lon": -77.018184, "name": "19c284b75c724612ae612dee20c4c543", "bike_id": "19c284b75c724612ae612dee20c4c543", "fusion_lat": 0.0, "is_reserved": 0, "lat": 38.908063166666665, "fusion_lon": 0.0, "is_disabled": 0}, {"rental_uris": {"android": "https://dc.lft.to/lastmile_qr_scan", "ios": "https://dc.lft.to/lastmile_qr_scan"}, "type": "electric_bike", "lon": -77.01208316666667, "name": "e4197ef63c39db6e08c12629e8413615", "bike_id": "e4197ef63c39db6e08c12629e8413615", "fusion_lat": 0.0, "is_reserved": 0, "lat": 38.87088683333333, "fusion_lon": 0.0, "is_disabled": 0}, {"rental_uris": {"android": "https://dc.lft.to/lastmile_qr_scan", "ios": "https://dc.lft.to/lastmile_qr_scan"}, "type": "electric_scooter", "lon": -77.04335783333333, "name": "d275bde2f2353b8ad66d6639f0b4bd08", "bike_id": "d275bde2f2353b8ad66d6639f0b4bd08", "fusion_lat": 0.0, "is_reserved": 0, "lat": 38.90341816666667, "fusion_lon": 0.0, "is_disabled": 0}, {"rental_uris": {"android": "https://dc.lft.to/lastmile_qr_scan", "ios": "https://dc.lft.to/lastmile_qr_scan"}, "type": "electric_scooter", "lon": -76.96502116666667, "name": "49e6893070f50ae3d433c11cd55b915d", "bike_id": "49e6893070f50ae3d433c11cd55b915d", "fusion_lat": 0.0, "is_reserved": 0, "lat": 38.8764705, "fusion_lon": 0.0, "is_disabled": 0}, {"rental_uris": {"android": "https://dc.lft.to/lastmile_qr_scan", "ios": "https://dc.lft.to/lastmile_qr_scan"}, "type": "electric_scooter", "lon": -77.0350055, "name": "01bdc4a6ae31e78d232513f8845956d0", "bike_id": "01bdc4a6ae31e78d232513f8845956d0", "fusion_lat": 0.0, "is_reserved": 0, "lat": 38.9187595, "fusion_lon": 0.0, "is_disabled": 0}, {"rental_uris": {"android": "https://dc.lft.to/lastmile_qr_scan", "ios": "https://dc.lft.to/lastmile_qr_scan"}, "type": "electric_scooter", "lon": -77.043845, "name": "b437b65efbc9349d8e953724ce403a61", "bike_id": "b437b65efbc9349d8e953724ce403a61", "fusion_lat": 0.0, "is_reserved": 0, "lat": 38.92279816666667, "fusion_lon": 0.0, "is_disabled": 0}, {"rental_uris": {"android": "https://dc.lft.to/lastmile_qr_scan", "ios": "https://dc.lft.to/lastmile_qr_scan"}, "type": "electric_scooter", "lon": -76.9830815, "name": "415d48a0ef7f5e5f7ee7146bf57fd004", "bike_id": "415d48a0ef7f5e5f7ee7146bf57fd004", "fusion_lat": 0.0, "is_reserved": 0, "lat": 38.868891833333336, "fusion_lon": 0.0, "is_disabled": 0}, {"rental_uris": {"android": "https://dc.lft.to/lastmile_qr_scan", "ios": "https://dc.lft.to/lastmile_qr_scan"}, "type": "electric_scooter", "lon": -77.04322583333334, "name": "1a8349d9e1cdcf351ce99e25e9a11029", "bike_id": "1a8349d9e1cdcf351ce99e25e9a11029", "fusion_lat": 0.0, "is_reserved": 0, "lat": 38.90388566666667, "fusion_lon": 0.0, "is_disabled": 0}, {"rental_uris": {"android": "https://dc.lft.to/lastmile_qr_scan", "ios": "https://dc.lft.to/lastmile_qr_scan"}, "type": "electric_scooter", "lon": -77.04133266666666, "name": "1f29dbcb22d0a70728e8e9e2958d9505", "bike_id": "1f29dbcb22d0a70728e8e9e2958d9505", "fusion_lat": 0.0, "is_reserved": 0, "lat": 38.90630083333333, "fusion_lon": 0.0, "is_disabled": 0}, {"rental_uris": {"android": "https://dc.lft.to/lastmile_qr_scan", "ios": "https://dc.lft.to/lastmile_qr_scan"}, "type": "electric_bike", "lon": -77.10908083333334, "name": "7d17e3023ee49c03a12f8acc93460a5f", "bike_id": "7d17e3023ee49c03a12f8acc93460a5f", "fusion_lat": 0.0, "is_reserved": 0, "lat": 39.05206116666667, "fusion_lon": 0.0, "is_disabled": 0}, {"rental_uris": {"android": "https://dc.lft.to/lastmile_qr_scan", "ios": "https://dc.lft.to/lastmile_qr_scan"}, "type": "electric_scooter", "lon": -76.990325, "name": "d7286ca332562e8fe172fd8dd6caa099", "bike_id": "d7286ca332562e8fe172fd8dd6caa099", "fusion_lat": 0.0, "is_reserved": 0, "lat": 38.85868966666666, "fusion_lon": 0.0, "is_disabled": 0}, {"rental_uris": {"android": "https://dc.lft.to/lastmile_qr_scan", "ios": "https://dc.lft.to/lastmile_qr_scan"}, "type": "electric_scooter", "lon": -77.032658, "name": "0804a914dfd487954d765f621695df11", "bike_id": "0804a914dfd487954d765f621695df11", "fusion_lat": 0.0, "is_reserved": 0, "lat": 38.93666366666667, "fusion_lon": 0.0, "is_disabled": 0}, {"rental_uris": {"android": "https://dc.lft.to/lastmile_qr_scan", "ios": "https://dc.lft.to/lastmile_qr_scan"}, "type": "electric_scooter", "lon": -77.002221, "name": "8c3551f4374ea885cd46fd52a28fd259", "bike_id": "8c3551f4374ea885cd46fd52a28fd259", "fusion_lat": 0.0, "is_reserved": 0, "lat": 38.90846716666667, "fusion_lon": 0.0, "is_disabled": 0}, {"rental_uris": {"android": "https://dc.lft.to/lastmile_qr_scan", "ios": "https://dc.lft.to/lastmile_qr_scan"}, "type": "electric_scooter", "lon": -76.94812866666666, "name": "235e20ef1274bf29762d7b1182b0fef6", "bike_id": "235e20ef1274bf29762d7b1182b0fef6", "fusion_lat": 0.0, "is_reserved": 0, "lat": 38.893468166666665, "fusion_lon": 0.0, "is_disabled": 0}, {"rental_uris": {"android": "https://dc.lft.to/lastmile_qr_scan", "ios": "https://dc.lft.to/lastmile_qr_scan"}, "type": "electric_scooter", "lon": -76.93428, "name": "05ced45e32ebf458e211e246e9123650", "bike_id": "05ced45e32ebf458e211e246e9123650", "fusion_lat": 0.0, "is_reserved": 0, "lat": 38.899659166666666, "fusion_lon": 0.0, "is_disabled": 0}, {"rental_uris": {"android": "https://dc.lft.to/lastmile_qr_scan", "ios": "https://dc.lft.to/lastmile_qr_scan"}, "type": "electric_bike", "lon": -76.9789955, "name": "397cfc51d3421a1ba12fee26dac09e5b", "bike_id": "397cfc51d3421a1ba12fee26dac09e5b", "fusion_lat": 0.0, "is_reserved": 0, "lat": 38.888385, "fusion_lon": 0.0, "is_disabled": 0}, {"rental_uris": {"android": "https://dc.lft.to/lastmile_qr_scan", "ios": "https://dc.lft.to/lastmile_qr_scan"}, "type": "electric_scooter", "lon": -77.01764966666667, "name": "1903cc9929279f42f3d2ae43983bfedd", "bike_id": "1903cc9929279f42f3d2ae43983bfedd", "fusion_lat": 0.0, "is_reserved": 0, "lat": 38.872967, "fusion_lon": 0.0, "is_disabled": 0}, {"rental_uris": {"android": "https://dc.lft.to/lastmile_qr_scan", "ios": "https://dc.lft.to/lastmile_qr_scan"}, "type": "electric_scooter", "lon": -76.99002333333334, "name": "7b07e24e4f829124e79dbc0ea08ecb06", "bike_id": "7b07e24e4f829124e79dbc0ea08ecb06", "fusion_lat": 0.0, "is_reserved": 0, "lat": 38.865068, "fusion_lon": 0.0, "is_disabled": 0}, {"rental_uris": {"android": "https://dc.lft.to/lastmile_qr_scan", "ios": "https://dc.lft.to/lastmile_qr_scan"}, "type": "electric_scooter", "lon": -77.01132166666666, "name": "ecfe859eb08619bb792c28086f4434bd", "bike_id": "ecfe859eb08619bb792c28086f4434bd", "fusion_lat": 0.0, "is_reserved": 0, "lat": 38.907299, "fusion_lon": 0.0, "is_disabled": 0}, {"rental_uris": {"android": "https://dc.lft.to/lastmile_qr_scan", "ios": "https://dc.lft.to/lastmile_qr_scan"}, "type": "electric_scooter", "lon": -77.05143916666667, "name": "a96fca1c8f5f0bbac5fa1a4b65039dee", "bike_id": "a96fca1c8f5f0bbac5fa1a4b65039dee", "fusion_lat": 0.0, "is_reserved": 0, "lat": 38.908021833333336, "fusion_lon": 0.0, "is_disabled": 0}, {"rental_uris": {"android": "https://dc.lft.to/lastmile_qr_scan", "ios": "https://dc.lft.to/lastmile_qr_scan"}, "type": "electric_scooter", "lon": -77.052925, "name": "3a24218eb0c371def7be3079661cf1c4", "bike_id": "3a24218eb0c371def7be3079661cf1c4", "fusion_lat": 0.0, "is_reserved": 0, "lat": 38.92786133333333, "fusion_lon": 0.0, "is_disabled": 0}, {"rental_uris": {"android": "https://dc.lft.to/lastmile_qr_scan", "ios": "https://dc.lft.to/lastmile_qr_scan"}, "type": "electric_scooter", "lon": -77.03892016666667, "name": "a2797354a8ca768c500c35a78d8a0291", "bike_id": "a2797354a8ca768c500c35a78d8a0291", "fusion_lat": 0.0, "is_reserved": 0, "lat": 38.922347333333335, "fusion_lon": 0.0, "is_disabled": 0}, {"rental_uris": {"android": "https://dc.lft.to/lastmile_qr_scan", "ios": "https://dc.lft.to/lastmile_qr_scan"}, "type": "electric_scooter", "lon": -77.0285715, "name": "5b8a28017e7b56fb55e033894fc4d964", "bike_id": "5b8a28017e7b56fb55e033894fc4d964", "fusion_lat": 0.0, "is_reserved": 0, "lat": 38.92236, "fusion_lon": 0.0, "is_disabled": 0}, {"rental_uris": {"android": "https://dc.lft.to/lastmile_qr_scan", "ios": "https://dc.lft.to/lastmile_qr_scan"}, "type": "electric_scooter", "lon": -76.987252, "name": "05a8b74729f33f33057a365e3e31374f", "bike_id": "05a8b74729f33f33057a365e3e31374f", "fusion_lat": 0.0, "is_reserved": 0, "lat": 38.867209333333335, "fusion_lon": 0.0, "is_disabled": 0}, {"rental_uris": {"android": "https://dc.lft.to/lastmile_qr_scan", "ios": "https://dc.lft.to/lastmile_qr_scan"}, "type": "electric_scooter", "lon": -77.064457, "name": "2aac7c34ed46246f5befc2d15d275ded", "bike_id": "2aac7c34ed46246f5befc2d15d275ded", "fusion_lat": 0.0, "is_reserved": 0, "lat": 38.909874333333335, "fusion_lon": 0.0, "is_disabled": 0}, {"rental_uris": {"android": "https://dc.lft.to/lastmile_qr_scan", "ios": "https://dc.lft.to/lastmile_qr_scan"}, "type": "electric_scooter", "lon": -77.04867833333333, "name": "ebfa49b5c238edfc7fe986d97d819a4e", "bike_id": "ebfa49b5c238edfc7fe986d97d819a4e", "fusion_lat": 0.0, "is_reserved": 0, "lat": 38.903747833333334, "fusion_lon": 0.0, "is_disabled": 0}, {"rental_uris": {"android": "https://dc.lft.to/lastmile_qr_scan", "ios": "https://dc.lft.to/lastmile_qr_scan"}, "type": "electric_scooter", "lon": -77.01998916666666, "name": "e65855904c66c4ca162639522f82d26b", "bike_id": "e65855904c66c4ca162639522f82d26b", "fusion_lat": 0.0, "is_reserved": 0, "lat": 38.90259616666667, "fusion_lon": 0.0, "is_disabled": 0}, {"rental_uris": {"android": "https://dc.lft.to/lastmile_qr_scan", "ios": "https://dc.lft.to/lastmile_qr_scan"}, "type": "electric_scooter", "lon": -77.02758183333333, "name": "60c25c7540d3950a7baf865d01585b99", "bike_id": "60c25c7540d3950a7baf865d01585b99", "fusion_lat": 0.0, "is_reserved": 0, "lat": 38.95398866666667, "fusion_lon": 0.0, "is_disabled": 0}, {"rental_uris": {"android": "https://dc.lft.to/lastmile_qr_scan", "ios": "https://dc.lft.to/lastmile_qr_scan"}, "type": "electric_scooter", "lon": -77.02346233333333, "name": "016b188c101b0953c5fad33a6d3a9acb", "bike_id": "016b188c101b0953c5fad33a6d3a9acb", "fusion_lat": 0.0, "is_reserved": 0, "lat": 38.922669166666665, "fusion_lon": 0.0, "is_disabled": 0}, {"rental_uris": {"android": "https://dc.lft.to/lastmile_qr_scan", "ios": "https://dc.lft.to/lastmile_qr_scan"}, "type": "electric_scooter", "lon": -76.99095383333334, "name": "2a595c731353933a1bafd2759217c657", "bike_id": "2a595c731353933a1bafd2759217c657", "fusion_lat": 0.0, "is_reserved": 0, "lat": 38.86356166666667, "fusion_lon": 0.0, "is_disabled": 0}, {"rental_uris": {"android": "https://dc.lft.to/lastmile_qr_scan", "ios": "https://dc.lft.to/lastmile_qr_scan"}, "type": "electric_scooter", "lon": -77.02300116666666, "name": "c172a44e60e921ba2c9f016847979f9f", "bike_id": "c172a44e60e921ba2c9f016847979f9f", "fusion_lat": 0.0, "is_reserved": 0, "lat": 38.916055, "fusion_lon": 0.0, "is_disabled": 0}, {"rental_uris": {"android": "https://dc.lft.to/lastmile_qr_scan", "ios": "https://dc.lft.to/lastmile_qr_scan"}, "type": "electric_scooter", "lon": -77.01690866666667, "name": "671a0d4f4a5e49a2408b2687bf6ae51b", "bike_id": "671a0d4f4a5e49a2408b2687bf6ae51b", "fusion_lat": 0.0, "is_reserved": 0, "lat": 38.91102766666667, "fusion_lon": 0.0, "is_disabled": 0}, {"rental_uris": {"android": "https://dc.lft.to/lastmile_qr_scan", "ios": "https://dc.lft.to/lastmile_qr_scan"}, "type": "electric_scooter", "lon": -77.0100355, "name": "c187e507200796ce05a0d578b29a85fd", "bike_id": "c187e507200796ce05a0d578b29a85fd", "fusion_lat": 0.0, "is_reserved": 0, "lat": 38.906484166666665, "fusion_lon": 0.0, "is_disabled": 0}, {"rental_uris": {"android": "https://dc.lft.to/lastmile_qr_scan", "ios": "https://dc.lft.to/lastmile_qr_scan"}, "type": "electric_scooter", "lon": -77.02032983333334, "name": "a7af8e54dcec9b1fd893a6d4ae8b451d", "bike_id": "a7af8e54dcec9b1fd893a6d4ae8b451d", "fusion_lat": 0.0, "is_reserved": 0, "lat": 38.89974183333333, "fusion_lon": 0.0, "is_disabled": 0}, {"rental_uris": {"android": "https://dc.lft.to/lastmile_qr_scan", "ios": "https://dc.lft.to/lastmile_qr_scan"}, "type": "electric_bike", "lon": -76.9520085, "name": "30e7ccac384d09098830db29bb8755b4", "bike_id": "30e7ccac384d09098830db29bb8755b4", "fusion_lat": 0.0, "is_reserved": 0, "lat": 38.936716, "fusion_lon": 0.0, "is_disabled": 0}, {"rental_uris": {"android": "https://dc.lft.to/lastmile_qr_scan", "ios": "https://dc.lft.to/lastmile_qr_scan"}, "type": "electric_scooter", "lon": -77.02723083333333, "name": "c2c8bfb655168261d08f8e0862da3601", "bike_id": "c2c8bfb655168261d08f8e0862da3601", "fusion_lat": 0.0, "is_reserved": 0, "lat": 38.93978466666667, "fusion_lon": 0.0, "is_disabled": 0}, {"rental_uris": {"android": "https://dc.lft.to/lastmile_qr_scan", "ios": "https://dc.lft.to/lastmile_qr_scan"}, "type": "electric_bike", "lon": -76.9815905, "name": "5efdef1d23e27114086dd5e5aa313f8f", "bike_id": "5efdef1d23e27114086dd5e5aa313f8f", "fusion_lat": 0.0, "is_reserved": 0, "lat": 38.8849865, "fusion_lon": 0.0, "is_disabled": 0}, {"rental_uris": {"android": "https://dc.lft.to/lastmile_qr_scan", "ios": "https://dc.lft.to/lastmile_qr_scan"}, "type": "electric_scooter", "lon": -77.02978566666667, "name": "0e0ce2e4d0a79f28266ca6316b50ec29", "bike_id": "0e0ce2e4d0a79f28266ca6316b50ec29", "fusion_lat": 0.0, "is_reserved": 0, "lat": 38.940675, "fusion_lon": 0.0, "is_disabled": 0}, {"rental_uris": {"android": "https://dc.lft.to/lastmile_qr_scan", "ios": "https://dc.lft.to/lastmile_qr_scan"}, "type": "electric_scooter", "lon": -77.037849, "name": "e086384321a5a50eaecfc89a0d36ddb3", "bike_id": "e086384321a5a50eaecfc89a0d36ddb3", "fusion_lat": 0.0, "is_reserved": 0, "lat": 38.90570316666667, "fusion_lon": 0.0, "is_disabled": 0}, {"rental_uris": {"android": "https://dc.lft.to/lastmile_qr_scan", "ios": "https://dc.lft.to/lastmile_qr_scan"}, "type": "electric_bike", "lon": -77.3609295, "name": "1d6459f282188d55a55bc0c0cefc3852", "bike_id": "1d6459f282188d55a55bc0c0cefc3852", "fusion_lat": 0.0, "is_reserved": 0, "lat": 38.93960466666667, "fusion_lon": 0.0, "is_disabled": 0}, {"rental_uris": {"android": "https://dc.lft.to/lastmile_qr_scan", "ios": "https://dc.lft.to/lastmile_qr_scan"}, "type": "electric_scooter", "lon": -77.0217075, "name": "5ad9913eb9b2508589f68b773b470f1b", "bike_id": "5ad9913eb9b2508589f68b773b470f1b", "fusion_lat": 0.0, "is_reserved": 0, "lat": 38.9429555, "fusion_lon": 0.0, "is_disabled": 0}, {"rental_uris": {"android": "https://dc.lft.to/lastmile_qr_scan", "ios": "https://dc.lft.to/lastmile_qr_scan"}, "type": "electric_scooter", "lon": -76.99012183333333, "name": "cf19bf0feacdd303f48ae3254f8d2ff2", "bike_id": "cf19bf0feacdd303f48ae3254f8d2ff2", "fusion_lat": 0.0, "is_reserved": 0, "lat": 38.88620616666667, "fusion_lon": 0.0, "is_disabled": 0}, {"rental_uris": {"android": "https://dc.lft.to/lastmile_qr_scan", "ios": "https://dc.lft.to/lastmile_qr_scan"}, "type": "electric_scooter", "lon": -77.0405095, "name": "bfbea57305e445e9765323d8e0e81494", "bike_id": "bfbea57305e445e9765323d8e0e81494", "fusion_lat": 0.0, "is_reserved": 0, "lat": 38.89999733333333, "fusion_lon": 0.0, "is_disabled": 0}, {"rental_uris": {"android": "https://dc.lft.to/lastmile_qr_scan", "ios": "https://dc.lft.to/lastmile_qr_scan"}, "type": "electric_scooter", "lon": -77.014166, "name": "e557e2d7d1df63383d43001097e6d02d", "bike_id": "e557e2d7d1df63383d43001097e6d02d", "fusion_lat": 0.0, "is_reserved": 0, "lat": 38.878949166666665, "fusion_lon": 0.0, "is_disabled": 0}, {"rental_uris": {"android": "https://dc.lft.to/lastmile_qr_scan", "ios": "https://dc.lft.to/lastmile_qr_scan"}, "type": "electric_scooter", "lon": -77.02363483333333, "name": "1570d5e5af02ae1d4f603a45b8dfc62d", "bike_id": "1570d5e5af02ae1d4f603a45b8dfc62d", "fusion_lat": 0.0, "is_reserved": 0, "lat": 38.90729016666667, "fusion_lon": 0.0, "is_disabled": 0}, {"rental_uris": {"android": "https://dc.lft.to/lastmile_qr_scan", "ios": "https://dc.lft.to/lastmile_qr_scan"}, "type": "electric_scooter", "lon": -77.03580616666666, "name": "3965338a0112f31cefe763267ae816c0", "bike_id": "3965338a0112f31cefe763267ae816c0", "fusion_lat": 0.0, "is_reserved": 0, "lat": 38.93473016666667, "fusion_lon": 0.0, "is_disabled": 0}, {"rental_uris": {"android": "https://dc.lft.to/lastmile_qr_scan", "ios": "https://dc.lft.to/lastmile_qr_scan"}, "type": "electric_scooter", "lon": -77.03833766666666, "name": "c964b557c3518185c860b864e7711937", "bike_id": "c964b557c3518185c860b864e7711937", "fusion_lat": 0.0, "is_reserved": 0, "lat": 38.9217515, "fusion_lon": 0.0, "is_disabled": 0}, {"rental_uris": {"android": "https://dc.lft.to/lastmile_qr_scan", "ios": "https://dc.lft.to/lastmile_qr_scan"}, "type": "electric_scooter", "lon": -77.03293433333333, "name": "bc67b10b1cfb4a7a6f1cd1a5534d192f", "bike_id": "bc67b10b1cfb4a7a6f1cd1a5534d192f", "fusion_lat": 0.0, "is_reserved": 0, "lat": 38.922133333333335, "fusion_lon": 0.0, "is_disabled": 0}, {"rental_uris": {"android": "https://dc.lft.to/lastmile_qr_scan", "ios": "https://dc.lft.to/lastmile_qr_scan"}, "type": "electric_scooter", "lon": -77.03443516666667, "name": "ae0f96d7b669cccf6616b31c1ae9893a", "bike_id": "ae0f96d7b669cccf6616b31c1ae9893a", "fusion_lat": 0.0, "is_reserved": 0, "lat": 38.9343365, "fusion_lon": 0.0, "is_disabled": 0}, {"rental_uris": {"android": "https://dc.lft.to/lastmile_qr_scan", "ios": "https://dc.lft.to/lastmile_qr_scan"}, "type": "electric_scooter", "lon": -77.04155366666667, "name": "340c3fc82a4e7c3d2791f34743f77ce4", "bike_id": "340c3fc82a4e7c3d2791f34743f77ce4", "fusion_lat": 0.0, "is_reserved": 0, "lat": 38.91617933333333, "fusion_lon": 0.0, "is_disabled": 0}, {"rental_uris": {"android": "https://dc.lft.to/lastmile_qr_scan", "ios": "https://dc.lft.to/lastmile_qr_scan"}, "type": "electric_scooter", "lon": -77.02116533333333, "name": "8e4f0fca6fb703e1fdc4f22d5a2b192f", "bike_id": "8e4f0fca6fb703e1fdc4f22d5a2b192f", "fusion_lat": 0.0, "is_reserved": 0, "lat": 38.91738566666667, "fusion_lon": 0.0, "is_disabled": 0}, {"rental_uris": {"android": "https://dc.lft.to/lastmile_qr_scan", "ios": "https://dc.lft.to/lastmile_qr_scan"}, "type": "electric_scooter", "lon": -77.03471516666667, "name": "32fbb2ec8ae231415b84572cd4e21341", "bike_id": "32fbb2ec8ae231415b84572cd4e21341", "fusion_lat": 0.0, "is_reserved": 0, "lat": 38.9215765, "fusion_lon": 0.0, "is_disabled": 0}, {"rental_uris": {"android": "https://dc.lft.to/lastmile_qr_scan", "ios": "https://dc.lft.to/lastmile_qr_scan"}, "type": "electric_scooter", "lon": -77.001235, "name": "3227d8e2ff873db78c06e7bc35e7afbb", "bike_id": "3227d8e2ff873db78c06e7bc35e7afbb", "fusion_lat": 0.0, "is_reserved": 0, "lat": 38.877972, "fusion_lon": 0.0, "is_disabled": 0}, {"rental_uris": {"android": "https://dc.lft.to/lastmile_qr_scan", "ios": "https://dc.lft.to/lastmile_qr_scan"}, "type": "electric_scooter", "lon": -76.96435833333334, "name": "69b9c8d17ba9e8a900859735018b4919", "bike_id": "69b9c8d17ba9e8a900859735018b4919", "fusion_lat": 0.0, "is_reserved": 0, "lat": 38.93448183333334, "fusion_lon": 0.0, "is_disabled": 0}, {"rental_uris": {"android": "https://dc.lft.to/lastmile_qr_scan", "ios": "https://dc.lft.to/lastmile_qr_scan"}, "type": "electric_scooter", "lon": -77.0192495, "name": "1087a7cfd6c1296bde30595cc70ef636", "bike_id": "1087a7cfd6c1296bde30595cc70ef636", "fusion_lat": 0.0, "is_reserved": 0, "lat": 38.93573716666667, "fusion_lon": 0.0, "is_disabled": 0}, {"rental_uris": {"android": "https://dc.lft.to/lastmile_qr_scan", "ios": "https://dc.lft.to/lastmile_qr_scan"}, "type": "electric_scooter", "lon": -77.02531283333333, "name": "5fb5ba01d02d305f061f86797823ecab", "bike_id": "5fb5ba01d02d305f061f86797823ecab", "fusion_lat": 0.0, "is_reserved": 0, "lat": 38.902012, "fusion_lon": 0.0, "is_disabled": 0}, {"rental_uris": {"android": "https://dc.lft.to/lastmile_qr_scan", "ios": "https://dc.lft.to/lastmile_qr_scan"}, "type": "electric_scooter", "lon": -77.00558583333333, "name": "05ccd4f7b3085a29e72e9a50695c35f0", "bike_id": "05ccd4f7b3085a29e72e9a50695c35f0", "fusion_lat": 0.0, "is_reserved": 0, "lat": 38.87862833333333, "fusion_lon": 0.0, "is_disabled": 0}, {"rental_uris": {"android": "https://dc.lft.to/lastmile_qr_scan", "ios": "https://dc.lft.to/lastmile_qr_scan"}, "type": "electric_scooter", "lon": -77.03415433333333, "name": "01d3c1a3f594ef77f09e980f6965ea0f", "bike_id": "01d3c1a3f594ef77f09e980f6965ea0f", "fusion_lat": 0.0, "is_reserved": 0, "lat": 38.9353635, "fusion_lon": 0.0, "is_disabled": 0}, {"rental_uris": {"android": "https://dc.lft.to/lastmile_qr_scan", "ios": "https://dc.lft.to/lastmile_qr_scan"}, "type": "electric_scooter", "lon": -77.03437916666667, "name": "9ea05c1bdf2582b57bf7fe7841f42c21", "bike_id": "9ea05c1bdf2582b57bf7fe7841f42c21", "fusion_lat": 0.0, "is_reserved": 0, "lat": 38.918047666666666, "fusion_lon": 0.0, "is_disabled": 0}, {"rental_uris": {"android": "https://dc.lft.to/lastmile_qr_scan", "ios": "https://dc.lft.to/lastmile_qr_scan"}, "type": "electric_scooter", "lon": -77.02696033333334, "name": "9238d918e7d1655d12fa789fe2230b66", "bike_id": "9238d918e7d1655d12fa789fe2230b66", "fusion_lat": 0.0, "is_reserved": 0, "lat": 38.9182315, "fusion_lon": 0.0, "is_disabled": 0}, {"rental_uris": {"android": "https://dc.lft.to/lastmile_qr_scan", "ios": "https://dc.lft.to/lastmile_qr_scan"}, "type": "electric_scooter", "lon": -77.04460533333334, "name": "1a644ce32beb16b08ff915c7cd5406fd", "bike_id": "1a644ce32beb16b08ff915c7cd5406fd", "fusion_lat": 0.0, "is_reserved": 0, "lat": 38.918843333333335, "fusion_lon": 0.0, "is_disabled": 0}, {"rental_uris": {"android": "https://dc.lft.to/lastmile_qr_scan", "ios": "https://dc.lft.to/lastmile_qr_scan"}, "type": "electric_scooter", "lon": -77.0455915, "name": "f50c47bf474fc14c9be930a221f20482", "bike_id": "f50c47bf474fc14c9be930a221f20482", "fusion_lat": 0.0, "is_reserved": 0, "lat": 38.919458, "fusion_lon": 0.0, "is_disabled": 0}, {"rental_uris": {"android": "https://dc.lft.to/lastmile_qr_scan", "ios": "https://dc.lft.to/lastmile_qr_scan"}, "type": "electric_scooter", "lon": -77.03470333333334, "name": "7589f026a626f53fb4fbe3e3125d8abc", "bike_id": "7589f026a626f53fb4fbe3e3125d8abc", "fusion_lat": 0.0, "is_reserved": 0, "lat": 38.903172166666664, "fusion_lon": 0.0, "is_disabled": 0}, {"rental_uris": {"android": "https://dc.lft.to/lastmile_qr_scan", "ios": "https://dc.lft.to/lastmile_qr_scan"}, "type": "electric_scooter", "lon": -77.02342733333333, "name": "7b93343e11750400d6da4310436a7393", "bike_id": "7b93343e11750400d6da4310436a7393", "fusion_lat": 0.0, "is_reserved": 0, "lat": 38.962066166666666, "fusion_lon": 0.0, "is_disabled": 0}, {"rental_uris": {"android": "https://dc.lft.to/lastmile_qr_scan", "ios": "https://dc.lft.to/lastmile_qr_scan"}, "type": "electric_scooter", "lon": -76.9948195, "name": "9b455b934e448192b28a54889c91bfee", "bike_id": "9b455b934e448192b28a54889c91bfee", "fusion_lat": 0.0, "is_reserved": 0, "lat": 38.877366333333335, "fusion_lon": 0.0, "is_disabled": 0}, {"rental_uris": {"android": "https://dc.lft.to/lastmile_qr_scan", "ios": "https://dc.lft.to/lastmile_qr_scan"}, "type": "electric_scooter", "lon": -76.98989083333333, "name": "53cfe7aeea0dd767f6ed558fcb3f6780", "bike_id": "53cfe7aeea0dd767f6ed558fcb3f6780", "fusion_lat": 0.0, "is_reserved": 0, "lat": 38.864423333333335, "fusion_lon": 0.0, "is_disabled": 0}, {"rental_uris": {"android": "https://dc.lft.to/lastmile_qr_scan", "ios": "https://dc.lft.to/lastmile_qr_scan"}, "type": "electric_scooter", "lon": -76.94633933333333, "name": "8b39a3b0525d22556b7d324a49caa6f9", "bike_id": "8b39a3b0525d22556b7d324a49caa6f9", "fusion_lat": 0.0, "is_reserved": 0, "lat": 38.898446666666665, "fusion_lon": 0.0, "is_disabled": 0}, {"rental_uris": {"android": "https://dc.lft.to/lastmile_qr_scan", "ios": "https://dc.lft.to/lastmile_qr_scan"}, "type": "electric_bike", "lon": -77.10989816666667, "name": "0e0d3befc48460e2e4995121d6d42c25", "bike_id": "0e0d3befc48460e2e4995121d6d42c25", "fusion_lat": 0.0, "is_reserved": 0, "lat": 38.87051533333333, "fusion_lon": 0.0, "is_disabled": 0}, {"rental_uris": {"android": "https://dc.lft.to/lastmile_qr_scan", "ios": "https://dc.lft.to/lastmile_qr_scan"}, "type": "electric_scooter", "lon": -77.02352833333333, "name": "e6bcda0a04aeb54360c860f78b88b125", "bike_id": "e6bcda0a04aeb54360c860f78b88b125", "fusion_lat": 0.0, "is_reserved": 0, "lat": 38.8922245, "fusion_lon": 0.0, "is_disabled": 0}, {"rental_uris": {"android": "https://dc.lft.to/lastmile_qr_scan", "ios": "https://dc.lft.to/lastmile_qr_scan"}, "type": "electric_scooter", "lon": -77.0216465, "name": "253a94b29c2f3a48bd47570f810ad01a", "bike_id": "253a94b29c2f3a48bd47570f810ad01a", "fusion_lat": 0.0, "is_reserved": 0, "lat": 38.885017833333336, "fusion_lon": 0.0, "is_disabled": 0}, {"rental_uris": {"android": "https://dc.lft.to/lastmile_qr_scan", "ios": "https://dc.lft.to/lastmile_qr_scan"}, "type": "electric_scooter", "lon": -77.0416695, "name": "c48c43349eabe680d1ced3c78016c29f", "bike_id": "c48c43349eabe680d1ced3c78016c29f", "fusion_lat": 0.0, "is_reserved": 0, "lat": 38.91349783333333, "fusion_lon": 0.0, "is_disabled": 0}, {"rental_uris": {"android": "https://dc.lft.to/lastmile_qr_scan", "ios": "https://dc.lft.to/lastmile_qr_scan"}, "type": "electric_scooter", "lon": -76.99060883333334, "name": "718331e12d7b6b0c6e4519b324dc2870", "bike_id": "718331e12d7b6b0c6e4519b324dc2870", "fusion_lat": 0.0, "is_reserved": 0, "lat": 38.92945016666667, "fusion_lon": 0.0, "is_disabled": 0}, {"rental_uris": {"android": "https://dc.lft.to/lastmile_qr_scan", "ios": "https://dc.lft.to/lastmile_qr_scan"}, "type": "electric_scooter", "lon": -77.03851133333333, "name": "60ff2bc84ab53bf96004a2afc9c2a0bf", "bike_id": "60ff2bc84ab53bf96004a2afc9c2a0bf", "fusion_lat": 0.0, "is_reserved": 0, "lat": 38.9155, "fusion_lon": 0.0, "is_disabled": 0}, {"rental_uris": {"android": "https://dc.lft.to/lastmile_qr_scan", "ios": "https://dc.lft.to/lastmile_qr_scan"}, "type": "electric_scooter", "lon": -77.029763, "name": "26d6259a26a12e0ed78c548f1b8ca046", "bike_id": "26d6259a26a12e0ed78c548f1b8ca046", "fusion_lat": 0.0, "is_reserved": 0, "lat": 38.906539, "fusion_lon": 0.0, "is_disabled": 0}, {"rental_uris": {"android": "https://dc.lft.to/lastmile_qr_scan", "ios": "https://dc.lft.to/lastmile_qr_scan"}, "type": "electric_scooter", "lon": -77.0073705, "name": "c967f9d6b37092ac26ae411a41c46b66", "bike_id": "c967f9d6b37092ac26ae411a41c46b66", "fusion_lat": 0.0, "is_reserved": 0, "lat": 38.9552265, "fusion_lon": 0.0, "is_disabled": 0}, {"rental_uris": {"android": "https://dc.lft.to/lastmile_qr_scan", "ios": "https://dc.lft.to/lastmile_qr_scan"}, "type": "electric_scooter", "lon": -77.06774166666666, "name": "88e47da4ef6f9e410b5422b2c7d83ee3", "bike_id": "88e47da4ef6f9e410b5422b2c7d83ee3", "fusion_lat": 0.0, "is_reserved": 0, "lat": 38.952146166666665, "fusion_lon": 0.0, "is_disabled": 0}, {"rental_uris": {"android": "https://dc.lft.to/lastmile_qr_scan", "ios": "https://dc.lft.to/lastmile_qr_scan"}, "type": "electric_scooter", "lon": -77.020026, "name": "c8f4cae7769ac3c6c69e9763b8616f3c", "bike_id": "c8f4cae7769ac3c6c69e9763b8616f3c", "fusion_lat": 0.0, "is_reserved": 0, "lat": 38.92417716666667, "fusion_lon": 0.0, "is_disabled": 0}, {"rental_uris": {"android": "https://dc.lft.to/lastmile_qr_scan", "ios": "https://dc.lft.to/lastmile_qr_scan"}, "type": "electric_scooter", "lon": -77.03270916666666, "name": "904e83eb783f25e6e43173d19fb4368a", "bike_id": "904e83eb783f25e6e43173d19fb4368a", "fusion_lat": 0.0, "is_reserved": 0, "lat": 38.919136, "fusion_lon": 0.0, "is_disabled": 0}, {"rental_uris": {"android": "https://dc.lft.to/lastmile_qr_scan", "ios": "https://dc.lft.to/lastmile_qr_scan"}, "type": "electric_scooter", "lon": -77.02497216666667, "name": "2cff04096288e47405e0dc1639496e8b", "bike_id": "2cff04096288e47405e0dc1639496e8b", "fusion_lat": 0.0, "is_reserved": 0, "lat": 38.94199166666667, "fusion_lon": 0.0, "is_disabled": 0}, {"rental_uris": {"android": "https://dc.lft.to/lastmile_qr_scan", "ios": "https://dc.lft.to/lastmile_qr_scan"}, "type": "electric_scooter", "lon": -77.00957383333333, "name": "e9c5afc21a823c5c457538055a5ebb45", "bike_id": "e9c5afc21a823c5c457538055a5ebb45", "fusion_lat": 0.0, "is_reserved": 0, "lat": 38.881321166666666, "fusion_lon": 0.0, "is_disabled": 0}, {"rental_uris": {"android": "https://dc.lft.to/lastmile_qr_scan", "ios": "https://dc.lft.to/lastmile_qr_scan"}, "type": "electric_scooter", "lon": -77.03445233333333, "name": "6d4860747be075915343ce8919bf9ee1", "bike_id": "6d4860747be075915343ce8919bf9ee1", "fusion_lat": 0.0, "is_reserved": 0, "lat": 38.90579183333333, "fusion_lon": 0.0, "is_disabled": 0}, {"rental_uris": {"android": "https://dc.lft.to/lastmile_qr_scan", "ios": "https://dc.lft.to/lastmile_qr_scan"}, "type": "electric_scooter", "lon": -77.03659983333333, "name": "dbb8b541aff3ec301a63ebf1df3daa40", "bike_id": "dbb8b541aff3ec301a63ebf1df3daa40", "fusion_lat": 0.0, "is_reserved": 0, "lat": 38.922467, "fusion_lon": 0.0, "is_disabled": 0}, {"rental_uris": {"android": "https://dc.lft.to/lastmile_qr_scan", "ios": "https://dc.lft.to/lastmile_qr_scan"}, "type": "electric_scooter", "lon": -77.03021966666667, "name": "f7ad959dd9d02997ecd1b6a02cd9ec7c", "bike_id": "f7ad959dd9d02997ecd1b6a02cd9ec7c", "fusion_lat": 0.0, "is_reserved": 0, "lat": 38.9238305, "fusion_lon": 0.0, "is_disabled": 0}, {"rental_uris": {"android": "https://dc.lft.to/lastmile_qr_scan", "ios": "https://dc.lft.to/lastmile_qr_scan"}, "type": "electric_scooter", "lon": -77.04994, "name": "8e66adbf37c354321e35811264530d29", "bike_id": "8e66adbf37c354321e35811264530d29", "fusion_lat": 0.0, "is_reserved": 0, "lat": 38.9054405, "fusion_lon": 0.0, "is_disabled": 0}, {"rental_uris": {"android": "https://dc.lft.to/lastmile_qr_scan", "ios": "https://dc.lft.to/lastmile_qr_scan"}, "type": "electric_scooter", "lon": -77.0259325, "name": "8715d1aad5d891f2bb3644f7cd7d6b21", "bike_id": "8715d1aad5d891f2bb3644f7cd7d6b21", "fusion_lat": 0.0, "is_reserved": 0, "lat": 38.90496066666667, "fusion_lon": 0.0, "is_disabled": 0}, {"rental_uris": {"android": "https://dc.lft.to/lastmile_qr_scan", "ios": "https://dc.lft.to/lastmile_qr_scan"}, "type": "electric_scooter", "lon": -77.02825466666667, "name": "bd39548e62736b43fb588e1ae1386a95", "bike_id": "bd39548e62736b43fb588e1ae1386a95", "fusion_lat": 0.0, "is_reserved": 0, "lat": 38.93284516666667, "fusion_lon": 0.0, "is_disabled": 0}, {"rental_uris": {"android": "https://dc.lft.to/lastmile_qr_scan", "ios": "https://dc.lft.to/lastmile_qr_scan"}, "type": "electric_scooter", "lon": -77.03042166666667, "name": "0ae3f583257262f58a7005058ec453ab", "bike_id": "0ae3f583257262f58a7005058ec453ab", "fusion_lat": 0.0, "is_reserved": 0, "lat": 38.90972083333333, "fusion_lon": 0.0, "is_disabled": 0}, {"rental_uris": {"android": "https://dc.lft.to/lastmile_qr_scan", "ios": "https://dc.lft.to/lastmile_qr_scan"}, "type": "electric_scooter", "lon": -77.05599133333334, "name": "3aeba8f1da02236ddc7b05464846098c", "bike_id": "3aeba8f1da02236ddc7b05464846098c", "fusion_lat": 0.0, "is_reserved": 0, "lat": 38.93699133333333, "fusion_lon": 0.0, "is_disabled": 0}, {"rental_uris": {"android": "https://dc.lft.to/lastmile_qr_scan", "ios": "https://dc.lft.to/lastmile_qr_scan"}, "type": "electric_scooter", "lon": -77.04742633333333, "name": "23fc14b15faca01deed34213097fd35a", "bike_id": "23fc14b15faca01deed34213097fd35a", "fusion_lat": 0.0, "is_reserved": 0, "lat": 38.905204833333336, "fusion_lon": 0.0, "is_disabled": 0}, {"rental_uris": {"android": "https://dc.lft.to/lastmile_qr_scan", "ios": "https://dc.lft.to/lastmile_qr_scan"}, "type": "electric_scooter", "lon": -77.0216915, "name": "8cd3e449e6c2685171b46d40eaf8776d", "bike_id": "8cd3e449e6c2685171b46d40eaf8776d", "fusion_lat": 0.0, "is_reserved": 0, "lat": 38.88746783333333, "fusion_lon": 0.0, "is_disabled": 0}, {"rental_uris": {"android": "https://dc.lft.to/lastmile_qr_scan", "ios": "https://dc.lft.to/lastmile_qr_scan"}, "type": "electric_bike", "lon": -76.90533116666667, "name": "3eeb72b98f70762668d9ef2b7e5753ea", "bike_id": "3eeb72b98f70762668d9ef2b7e5753ea", "fusion_lat": 0.0, "is_reserved": 0, "lat": 38.89735133333333, "fusion_lon": 0.0, "is_disabled": 0}, {"rental_uris": {"android": "https://dc.lft.to/lastmile_qr_scan", "ios": "https://dc.lft.to/lastmile_qr_scan"}, "type": "electric_scooter", "lon": -77.0406045, "name": "8548da289d800008f0470ef53a3fe1b3", "bike_id": "8548da289d800008f0470ef53a3fe1b3", "fusion_lat": 0.0, "is_reserved": 0, "lat": 38.9264825, "fusion_lon": 0.0, "is_disabled": 0}, {"rental_uris": {"android": "https://dc.lft.to/lastmile_qr_scan", "ios": "https://dc.lft.to/lastmile_qr_scan"}, "type": "electric_scooter", "lon": -77.008354, "name": "5d44267303ef96fce9f797379d98199c", "bike_id": "5d44267303ef96fce9f797379d98199c", "fusion_lat": 0.0, "is_reserved": 0, "lat": 38.91555183333333, "fusion_lon": 0.0, "is_disabled": 0}, {"rental_uris": {"android": "https://dc.lft.to/lastmile_qr_scan", "ios": "https://dc.lft.to/lastmile_qr_scan"}, "type": "electric_scooter", "lon": -77.03091016666667, "name": "4aac143f1df82a9e05f22d74db0beb17", "bike_id": "4aac143f1df82a9e05f22d74db0beb17", "fusion_lat": 0.0, "is_reserved": 0, "lat": 38.932399833333335, "fusion_lon": 0.0, "is_disabled": 0}, {"rental_uris": {"android": "https://dc.lft.to/lastmile_qr_scan", "ios": "https://dc.lft.to/lastmile_qr_scan"}, "type": "electric_scooter", "lon": -77.03268633333333, "name": "b5e5b96c867c1d31166be25e36fa7b70", "bike_id": "b5e5b96c867c1d31166be25e36fa7b70", "fusion_lat": 0.0, "is_reserved": 0, "lat": 38.9025395, "fusion_lon": 0.0, "is_disabled": 0}, {"rental_uris": {"android": "https://dc.lft.to/lastmile_qr_scan", "ios": "https://dc.lft.to/lastmile_qr_scan"}, "type": "electric_scooter", "lon": -76.99458433333334, "name": "06fd88d2a3feb0b8c71119bfc0ba27bf", "bike_id": "06fd88d2a3feb0b8c71119bfc0ba27bf", "fusion_lat": 0.0, "is_reserved": 0, "lat": 38.86222633333333, "fusion_lon": 0.0, "is_disabled": 0}, {"rental_uris": {"android": "https://dc.lft.to/lastmile_qr_scan", "ios": "https://dc.lft.to/lastmile_qr_scan"}, "type": "electric_scooter", "lon": -77.10175333333333, "name": "f7b3eddf163e13fc96a4599c61fb16d6", "bike_id": "f7b3eddf163e13fc96a4599c61fb16d6", "fusion_lat": 0.0, "is_reserved": 0, "lat": 38.925417333333336, "fusion_lon": 0.0, "is_disabled": 0}, {"rental_uris": {"android": "https://dc.lft.to/lastmile_qr_scan", "ios": "https://dc.lft.to/lastmile_qr_scan"}, "type": "electric_bike", "lon": -76.91593, "name": "dab0c763b6ff43d3deac5f94e430c11e", "bike_id": "dab0c763b6ff43d3deac5f94e430c11e", "fusion_lat": 0.0, "is_reserved": 0, "lat": 38.880088, "fusion_lon": 0.0, "is_disabled": 0}, {"rental_uris": {"android": "https://dc.lft.to/lastmile_qr_scan", "ios": "https://dc.lft.to/lastmile_qr_scan"}, "type": "electric_bike", "lon": -76.97819966666667, "name": "54ebc6c91b3baf212892962000b0ad25", "bike_id": "54ebc6c91b3baf212892962000b0ad25", "fusion_lat": 0.0, "is_reserved": 0, "lat": 38.84612583333333, "fusion_lon": 0.0, "is_disabled": 0}, {"rental_uris": {"android": "https://dc.lft.to/lastmile_qr_scan", "ios": "https://dc.lft.to/lastmile_qr_scan"}, "type": "electric_scooter", "lon": -77.0653065, "name": "43af13db3a1c7b82c338b95c77d0e310", "bike_id": "43af13db3a1c7b82c338b95c77d0e310", "fusion_lat": 0.0, "is_reserved": 0, "lat": 38.93475183333334, "fusion_lon": 0.0, "is_disabled": 0}, {"rental_uris": {"android": "https://dc.lft.to/lastmile_qr_scan", "ios": "https://dc.lft.to/lastmile_qr_scan"}, "type": "electric_scooter", "lon": -77.0320715, "name": "2a1c251288845193f288e5ff3c24dad0", "bike_id": "2a1c251288845193f288e5ff3c24dad0", "fusion_lat": 0.0, "is_reserved": 0, "lat": 38.929739833333336, "fusion_lon": 0.0, "is_disabled": 0}, {"rental_uris": {"android": "https://dc.lft.to/lastmile_qr_scan", "ios": "https://dc.lft.to/lastmile_qr_scan"}, "type": "electric_scooter", "lon": -76.9870985, "name": "847ff30bd02fbb8dac352ed87904d333", "bike_id": "847ff30bd02fbb8dac352ed87904d333", "fusion_lat": 0.0, "is_reserved": 0, "lat": 38.899202333333335, "fusion_lon": 0.0, "is_disabled": 0}, {"rental_uris": {"android": "https://dc.lft.to/lastmile_qr_scan", "ios": "https://dc.lft.to/lastmile_qr_scan"}, "type": "electric_bike", "lon": -76.90816333333333, "name": "81689b32462062a0e93244c0c1d7773d", "bike_id": "81689b32462062a0e93244c0c1d7773d", "fusion_lat": 0.0, "is_reserved": 0, "lat": 38.994552666666664, "fusion_lon": 0.0, "is_disabled": 0}, {"rental_uris": {"android": "https://dc.lft.to/lastmile_qr_scan", "ios": "https://dc.lft.to/lastmile_qr_scan"}, "type": "electric_scooter", "lon": -77.01990983333333, "name": "5a26cf98188aa817378e9a57c0ecabd6", "bike_id": "5a26cf98188aa817378e9a57c0ecabd6", "fusion_lat": 0.0, "is_reserved": 0, "lat": 38.9015675, "fusion_lon": 0.0, "is_disabled": 0}, {"rental_uris": {"android": "https://dc.lft.to/lastmile_qr_scan", "ios": "https://dc.lft.to/lastmile_qr_scan"}, "type": "electric_scooter", "lon": -77.02709616666667, "name": "0e0699166d55ebcc8fcf9a6390ea8357", "bike_id": "0e0699166d55ebcc8fcf9a6390ea8357", "fusion_lat": 0.0, "is_reserved": 0, "lat": 38.907511, "fusion_lon": 0.0, "is_disabled": 0}, {"rental_uris": {"android": "https://dc.lft.to/lastmile_qr_scan", "ios": "https://dc.lft.to/lastmile_qr_scan"}, "type": "electric_scooter", "lon": -77.06237683333333, "name": "37224def72ad42524efc3cf4427f1514", "bike_id": "37224def72ad42524efc3cf4427f1514", "fusion_lat": 0.0, "is_reserved": 0, "lat": 38.90529166666666, "fusion_lon": 0.0, "is_disabled": 0}, {"rental_uris": {"android": "https://dc.lft.to/lastmile_qr_scan", "ios": "https://dc.lft.to/lastmile_qr_scan"}, "type": "electric_scooter", "lon": -77.03181766666667, "name": "ab2ecf6f8944d704a1134135cc7bd514", "bike_id": "ab2ecf6f8944d704a1134135cc7bd514", "fusion_lat": 0.0, "is_reserved": 0, "lat": 38.91126366666667, "fusion_lon": 0.0, "is_disabled": 0}, {"rental_uris": {"android": "https://dc.lft.to/lastmile_qr_scan", "ios": "https://dc.lft.to/lastmile_qr_scan"}, "type": "electric_scooter", "lon": -77.0058385, "name": "aafdf083a6eeeab2b26df6301d8d5d31", "bike_id": "aafdf083a6eeeab2b26df6301d8d5d31", "fusion_lat": 0.0, "is_reserved": 0, "lat": 38.87652383333333, "fusion_lon": 0.0, "is_disabled": 0}, {"rental_uris": {"android": "https://dc.lft.to/lastmile_qr_scan", "ios": "https://dc.lft.to/lastmile_qr_scan"}, "type": "electric_scooter", "lon": -77.03439733333333, "name": "cef9942ba45824585f726eb94222f3d2", "bike_id": "cef9942ba45824585f726eb94222f3d2", "fusion_lat": 0.0, "is_reserved": 0, "lat": 38.92871233333334, "fusion_lon": 0.0, "is_disabled": 0}, {"rental_uris": {"android": "https://dc.lft.to/lastmile_qr_scan", "ios": "https://dc.lft.to/lastmile_qr_scan"}, "type": "electric_scooter", "lon": -77.03804783333334, "name": "f2966f737678670e86937b915f38babe", "bike_id": "f2966f737678670e86937b915f38babe", "fusion_lat": 0.0, "is_reserved": 0, "lat": 38.92186816666667, "fusion_lon": 0.0, "is_disabled": 0}, {"rental_uris": {"android": "https://dc.lft.to/lastmile_qr_scan", "ios": "https://dc.lft.to/lastmile_qr_scan"}, "type": "electric_scooter", "lon": -76.99484583333333, "name": "0fce5383496a4749eb4f10b07bfb1fad", "bike_id": "0fce5383496a4749eb4f10b07bfb1fad", "fusion_lat": 0.0, "is_reserved": 0, "lat": 38.900927833333334, "fusion_lon": 0.0, "is_disabled": 0}, {"rental_uris": {"android": "https://dc.lft.to/lastmile_qr_scan", "ios": "https://dc.lft.to/lastmile_qr_scan"}, "type": "electric_scooter", "lon": -76.99381483333333, "name": "9b9dd4490ec53f91de86db51bc557437", "bike_id": "9b9dd4490ec53f91de86db51bc557437", "fusion_lat": 0.0, "is_reserved": 0, "lat": 38.88696683333333, "fusion_lon": 0.0, "is_disabled": 0}, {"rental_uris": {"android": "https://dc.lft.to/lastmile_qr_scan", "ios": "https://dc.lft.to/lastmile_qr_scan"}, "type": "electric_bike", "lon": -77.13232083333334, "name": "bdf97e98b43fa449bfd5f073664ae605", "bike_id": "bdf97e98b43fa449bfd5f073664ae605", "fusion_lat": 0.0, "is_reserved": 0, "lat": 38.869758166666664, "fusion_lon": 0.0, "is_disabled": 0}, {"rental_uris": {"android": "https://dc.lft.to/lastmile_qr_scan", "ios": "https://dc.lft.to/lastmile_qr_scan"}, "type": "electric_scooter", "lon": -77.04005833333333, "name": "0ec60504117f99b0bd80499dece478dd", "bike_id": "0ec60504117f99b0bd80499dece478dd", "fusion_lat": 0.0, "is_reserved": 0, "lat": 38.9027135, "fusion_lon": 0.0, "is_disabled": 0}, {"rental_uris": {"android": "https://dc.lft.to/lastmile_qr_scan", "ios": "https://dc.lft.to/lastmile_qr_scan"}, "type": "electric_scooter", "lon": -77.06820416666666, "name": "88e95a3f855f6f884a66ae2e1be2762d", "bike_id": "88e95a3f855f6f884a66ae2e1be2762d", "fusion_lat": 0.0, "is_reserved": 0, "lat": 38.91645833333333, "fusion_lon": 0.0, "is_disabled": 0}, {"rental_uris": {"android": "https://dc.lft.to/lastmile_qr_scan", "ios": "https://dc.lft.to/lastmile_qr_scan"}, "type": "electric_scooter", "lon": -77.05789016666667, "name": "50fac3562993e7615451ae3687302e45", "bike_id": "50fac3562993e7615451ae3687302e45", "fusion_lat": 0.0, "is_reserved": 0, "lat": 38.90357266666667, "fusion_lon": 0.0, "is_disabled": 0}, {"rental_uris": {"android": "https://dc.lft.to/lastmile_qr_scan", "ios": "https://dc.lft.to/lastmile_qr_scan"}, "type": "electric_scooter", "lon": -77.02613683333334, "name": "72cf94be73788a7bb3c0c5cf22a688fb", "bike_id": "72cf94be73788a7bb3c0c5cf22a688fb", "fusion_lat": 0.0, "is_reserved": 0, "lat": 38.90018033333333, "fusion_lon": 0.0, "is_disabled": 0}, {"rental_uris": {"android": "https://dc.lft.to/lastmile_qr_scan", "ios": "https://dc.lft.to/lastmile_qr_scan"}, "type": "electric_scooter", "lon": -77.02095533333333, "name": "a88f58abd90a0bc346811579ee8726fc", "bike_id": "a88f58abd90a0bc346811579ee8726fc", "fusion_lat": 0.0, "is_reserved": 0, "lat": 38.91106116666667, "fusion_lon": 0.0, "is_disabled": 0}, {"rental_uris": {"android": "https://dc.lft.to/lastmile_qr_scan", "ios": "https://dc.lft.to/lastmile_qr_scan"}, "type": "electric_scooter", "lon": -77.02169533333333, "name": "ec6caa534eb3fec618fc7938ab6e9a00", "bike_id": "ec6caa534eb3fec618fc7938ab6e9a00", "fusion_lat": 0.0, "is_reserved": 0, "lat": 38.942935, "fusion_lon": 0.0, "is_disabled": 0}, {"rental_uris": {"android": "https://dc.lft.to/lastmile_qr_scan", "ios": "https://dc.lft.to/lastmile_qr_scan"}, "type": "electric_scooter", "lon": -77.07190316666667, "name": "67334ef68afc2e0d121a6b07c433b325", "bike_id": "67334ef68afc2e0d121a6b07c433b325", "fusion_lat": 0.0, "is_reserved": 0, "lat": 38.921022666666666, "fusion_lon": 0.0, "is_disabled": 0}, {"rental_uris": {"android": "https://dc.lft.to/lastmile_qr_scan", "ios": "https://dc.lft.to/lastmile_qr_scan"}, "type": "electric_scooter", "lon": -77.036522, "name": "7113eb376bb8ca5d2b5584461e07c029", "bike_id": "7113eb376bb8ca5d2b5584461e07c029", "fusion_lat": 0.0, "is_reserved": 0, "lat": 38.91312383333333, "fusion_lon": 0.0, "is_disabled": 0}, {"rental_uris": {"android": "https://dc.lft.to/lastmile_qr_scan", "ios": "https://dc.lft.to/lastmile_qr_scan"}, "type": "electric_scooter", "lon": -76.97328183333333, "name": "600e78becae49e4967123d28bab03144", "bike_id": "600e78becae49e4967123d28bab03144", "fusion_lat": 0.0, "is_reserved": 0, "lat": 38.904809166666666, "fusion_lon": 0.0, "is_disabled": 0}, {"rental_uris": {"android": "https://dc.lft.to/lastmile_qr_scan", "ios": "https://dc.lft.to/lastmile_qr_scan"}, "type": "electric_scooter", "lon": -76.98683783333334, "name": "5f27f26537c61c15df74e7e03744d7f6", "bike_id": "5f27f26537c61c15df74e7e03744d7f6", "fusion_lat": 0.0, "is_reserved": 0, "lat": 38.90494066666667, "fusion_lon": 0.0, "is_disabled": 0}, {"rental_uris": {"android": "https://dc.lft.to/lastmile_qr_scan", "ios": "https://dc.lft.to/lastmile_qr_scan"}, "type": "electric_scooter", "lon": -77.027195, "name": "54c3bfa6f6482ad467e420b5c8912e2f", "bike_id": "54c3bfa6f6482ad467e420b5c8912e2f", "fusion_lat": 0.0, "is_reserved": 0, "lat": 38.9048225, "fusion_lon": 0.0, "is_disabled": 0}, {"rental_uris": {"android": "https://dc.lft.to/lastmile_qr_scan", "ios": "https://dc.lft.to/lastmile_qr_scan"}, "type": "electric_scooter", "lon": -77.04992483333334, "name": "44dbfc7fc93727d9d7f0f07be3eb335c", "bike_id": "44dbfc7fc93727d9d7f0f07be3eb335c", "fusion_lat": 0.0, "is_reserved": 0, "lat": 38.905220666666665, "fusion_lon": 0.0, "is_disabled": 0}, {"rental_uris": {"android": "https://dc.lft.to/lastmile_qr_scan", "ios": "https://dc.lft.to/lastmile_qr_scan"}, "type": "electric_scooter", "lon": -77.02270116666666, "name": "9e0a5116e11bf320ab2bdd6ef5f35e91", "bike_id": "9e0a5116e11bf320ab2bdd6ef5f35e91", "fusion_lat": 0.0, "is_reserved": 0, "lat": 38.88738, "fusion_lon": 0.0, "is_disabled": 0}, {"rental_uris": {"android": "https://dc.lft.to/lastmile_qr_scan", "ios": "https://dc.lft.to/lastmile_qr_scan"}, "type": "electric_scooter", "lon": -76.99947516666667, "name": "c08da732462cf2f6d10ddb2f57369272", "bike_id": "c08da732462cf2f6d10ddb2f57369272", "fusion_lat": 0.0, "is_reserved": 0, "lat": 38.9085855, "fusion_lon": 0.0, "is_disabled": 0}, {"rental_uris": {"android": "https://dc.lft.to/lastmile_qr_scan", "ios": "https://dc.lft.to/lastmile_qr_scan"}, "type": "electric_scooter", "lon": -77.09957783333333, "name": "9e4f076b1c957d3f2331fc1b59cf7dcf", "bike_id": "9e4f076b1c957d3f2331fc1b59cf7dcf", "fusion_lat": 0.0, "is_reserved": 0, "lat": 38.92246983333333, "fusion_lon": 0.0, "is_disabled": 0}, {"rental_uris": {"android": "https://dc.lft.to/lastmile_qr_scan", "ios": "https://dc.lft.to/lastmile_qr_scan"}, "type": "electric_scooter", "lon": -77.0345835, "name": "33382a73fb919782ea4325596e02a664", "bike_id": "33382a73fb919782ea4325596e02a664", "fusion_lat": 0.0, "is_reserved": 0, "lat": 38.93544716666667, "fusion_lon": 0.0, "is_disabled": 0}, {"rental_uris": {"android": "https://dc.lft.to/lastmile_qr_scan", "ios": "https://dc.lft.to/lastmile_qr_scan"}, "type": "electric_scooter", "lon": -77.02414183333333, "name": "9d7466d4647b004d0441be3d02d6b821", "bike_id": "9d7466d4647b004d0441be3d02d6b821", "fusion_lat": 0.0, "is_reserved": 0, "lat": 38.921529166666666, "fusion_lon": 0.0, "is_disabled": 0}, {"rental_uris": {"android": "https://dc.lft.to/lastmile_qr_scan", "ios": "https://dc.lft.to/lastmile_qr_scan"}, "type": "electric_bike", "lon": -77.0013825, "name": "62bd59c525850ec3756098900e5276e5", "bike_id": "62bd59c525850ec3756098900e5276e5", "fusion_lat": 0.0, "is_reserved": 0, "lat": 38.92555616666667, "fusion_lon": 0.0, "is_disabled": 0}, {"rental_uris": {"android": "https://dc.lft.to/lastmile_qr_scan", "ios": "https://dc.lft.to/lastmile_qr_scan"}, "type": "electric_scooter", "lon": -77.01540766666666, "name": "0d0e3fc4ff9d713f540c35e3b524eee4", "bike_id": "0d0e3fc4ff9d713f540c35e3b524eee4", "fusion_lat": 0.0, "is_reserved": 0, "lat": 38.87938783333333, "fusion_lon": 0.0, "is_disabled": 0}, {"rental_uris": {"android": "https://dc.lft.to/lastmile_qr_scan", "ios": "https://dc.lft.to/lastmile_qr_scan"}, "type": "electric_scooter", "lon": -77.04322933333333, "name": "c55bc902d58e6719b69978c00c73fa19", "bike_id": "c55bc902d58e6719b69978c00c73fa19", "fusion_lat": 0.0, "is_reserved": 0, "lat": 38.904867, "fusion_lon": 0.0, "is_disabled": 0}, {"rental_uris": {"android": "https://dc.lft.to/lastmile_qr_scan", "ios": "https://dc.lft.to/lastmile_qr_scan"}, "type": "electric_scooter", "lon": -77.03353133333333, "name": "fa008a13d4657e0a7ee781ad35068ecc", "bike_id": "fa008a13d4657e0a7ee781ad35068ecc", "fusion_lat": 0.0, "is_reserved": 0, "lat": 38.9244395, "fusion_lon": 0.0, "is_disabled": 0}, {"rental_uris": {"android": "https://dc.lft.to/lastmile_qr_scan", "ios": "https://dc.lft.to/lastmile_qr_scan"}, "type": "electric_scooter", "lon": -77.01766316666667, "name": "c30f29f76e5ba773794b85e0a599861c", "bike_id": "c30f29f76e5ba773794b85e0a599861c", "fusion_lat": 0.0, "is_reserved": 0, "lat": 38.873543833333336, "fusion_lon": 0.0, "is_disabled": 0}, {"rental_uris": {"android": "https://dc.lft.to/lastmile_qr_scan", "ios": "https://dc.lft.to/lastmile_qr_scan"}, "type": "electric_bike", "lon": -76.96174083333334, "name": "2a3248431064a40ce8784137e10d61cd", "bike_id": "2a3248431064a40ce8784137e10d61cd", "fusion_lat": 0.0, "is_reserved": 0, "lat": 38.91863333333333, "fusion_lon": 0.0, "is_disabled": 0}, {"rental_uris": {"android": "https://dc.lft.to/lastmile_qr_scan", "ios": "https://dc.lft.to/lastmile_qr_scan"}, "type": "electric_scooter", "lon": -77.03442166666666, "name": "39cb8070db617aafb90b27ed828aeab5", "bike_id": "39cb8070db617aafb90b27ed828aeab5", "fusion_lat": 0.0, "is_reserved": 0, "lat": 38.905755666666664, "fusion_lon": 0.0, "is_disabled": 0}, {"rental_uris": {"android": "https://dc.lft.to/lastmile_qr_scan", "ios": "https://dc.lft.to/lastmile_qr_scan"}, "type": "electric_scooter", "lon": -77.02321666666667, "name": "9d2054780cfe4d578bdcee8af3200474", "bike_id": "9d2054780cfe4d578bdcee8af3200474", "fusion_lat": 0.0, "is_reserved": 0, "lat": 38.91843133333333, "fusion_lon": 0.0, "is_disabled": 0}, {"rental_uris": {"android": "https://dc.lft.to/lastmile_qr_scan", "ios": "https://dc.lft.to/lastmile_qr_scan"}, "type": "electric_scooter", "lon": -77.078274, "name": "28752deaf2497c12253a966d26af26c8", "bike_id": "28752deaf2497c12253a966d26af26c8", "fusion_lat": 0.0, "is_reserved": 0, "lat": 38.9267255, "fusion_lon": 0.0, "is_disabled": 0}, {"rental_uris": {"android": "https://dc.lft.to/lastmile_qr_scan", "ios": "https://dc.lft.to/lastmile_qr_scan"}, "type": "electric_scooter", "lon": -77.04341916666667, "name": "b461c67c8b963d5320b2c39a464e21d3", "bike_id": "b461c67c8b963d5320b2c39a464e21d3", "fusion_lat": 0.0, "is_reserved": 0, "lat": 38.93130933333333, "fusion_lon": 0.0, "is_disabled": 0}, {"rental_uris": {"android": "https://dc.lft.to/lastmile_qr_scan", "ios": "https://dc.lft.to/lastmile_qr_scan"}, "type": "electric_scooter", "lon": -76.99138566666667, "name": "462870995cea4b2c0a17372bf04867b2", "bike_id": "462870995cea4b2c0a17372bf04867b2", "fusion_lat": 0.0, "is_reserved": 0, "lat": 38.8973305, "fusion_lon": 0.0, "is_disabled": 0}, {"rental_uris": {"android": "https://dc.lft.to/lastmile_qr_scan", "ios": "https://dc.lft.to/lastmile_qr_scan"}, "type": "electric_scooter", "lon": -76.9984245, "name": "bb61bb17a0234730891a39a3b0ebb40d", "bike_id": "bb61bb17a0234730891a39a3b0ebb40d", "fusion_lat": 0.0, "is_reserved": 0, "lat": 38.95374016666667, "fusion_lon": 0.0, "is_disabled": 0}, {"rental_uris": {"android": "https://dc.lft.to/lastmile_qr_scan", "ios": "https://dc.lft.to/lastmile_qr_scan"}, "type": "electric_scooter", "lon": -77.06820366666666, "name": "e566b3abfcb0235364133f035ef40d08", "bike_id": "e566b3abfcb0235364133f035ef40d08", "fusion_lat": 0.0, "is_reserved": 0, "lat": 38.95202316666666, "fusion_lon": 0.0, "is_disabled": 0}, {"rental_uris": {"android": "https://dc.lft.to/lastmile_qr_scan", "ios": "https://dc.lft.to/lastmile_qr_scan"}, "type": "electric_scooter", "lon": -77.04380166666667, "name": "eeab335e0654c6555c579ae6fa69974a", "bike_id": "eeab335e0654c6555c579ae6fa69974a", "fusion_lat": 0.0, "is_reserved": 0, "lat": 38.92069516666667, "fusion_lon": 0.0, "is_disabled": 0}, {"rental_uris": {"android": "https://dc.lft.to/lastmile_qr_scan", "ios": "https://dc.lft.to/lastmile_qr_scan"}, "type": "electric_scooter", "lon": -77.01189183333334, "name": "4f4ee1cfa675018092cd1aefc8e7a0d9", "bike_id": "4f4ee1cfa675018092cd1aefc8e7a0d9", "fusion_lat": 0.0, "is_reserved": 0, "lat": 38.896693, "fusion_lon": 0.0, "is_disabled": 0}, {"rental_uris": {"android": "https://dc.lft.to/lastmile_qr_scan", "ios": "https://dc.lft.to/lastmile_qr_scan"}, "type": "electric_scooter", "lon": -77.02353733333334, "name": "05e534f07f8ba0cbbd2ddd15c52eda89", "bike_id": "05e534f07f8ba0cbbd2ddd15c52eda89", "fusion_lat": 0.0, "is_reserved": 0, "lat": 38.925073, "fusion_lon": 0.0, "is_disabled": 0}, {"rental_uris": {"android": "https://dc.lft.to/lastmile_qr_scan", "ios": "https://dc.lft.to/lastmile_qr_scan"}, "type": "electric_scooter", "lon": -76.99399716666667, "name": "b5b1a69e975476d024815aa18bab7e89", "bike_id": "b5b1a69e975476d024815aa18bab7e89", "fusion_lat": 0.0, "is_reserved": 0, "lat": 38.88603666666667, "fusion_lon": 0.0, "is_disabled": 0}, {"rental_uris": {"android": "https://dc.lft.to/lastmile_qr_scan", "ios": "https://dc.lft.to/lastmile_qr_scan"}, "type": "electric_scooter", "lon": -77.02414316666666, "name": "24e51531760b501053b25249ead91feb", "bike_id": "24e51531760b501053b25249ead91feb", "fusion_lat": 0.0, "is_reserved": 0, "lat": 38.892200333333335, "fusion_lon": 0.0, "is_disabled": 0}, {"rental_uris": {"android": "https://dc.lft.to/lastmile_qr_scan", "ios": "https://dc.lft.to/lastmile_qr_scan"}, "type": "electric_bike", "lon": -77.17800366666667, "name": "56bc0469151a8b98784fdf28e8e3c603", "bike_id": "56bc0469151a8b98784fdf28e8e3c603", "fusion_lat": 0.0, "is_reserved": 0, "lat": 39.088442, "fusion_lon": 0.0, "is_disabled": 0}, {"rental_uris": {"android": "https://dc.lft.to/lastmile_qr_scan", "ios": "https://dc.lft.to/lastmile_qr_scan"}, "type": "electric_scooter", "lon": -77.02030466666666, "name": "0e80cfd7b82fa6d759fd370efb6df892", "bike_id": "0e80cfd7b82fa6d759fd370efb6df892", "fusion_lat": 0.0, "is_reserved": 0, "lat": 38.89270066666667, "fusion_lon": 0.0, "is_disabled": 0}, {"rental_uris": {"android": "https://dc.lft.to/lastmile_qr_scan", "ios": "https://dc.lft.to/lastmile_qr_scan"}, "type": "electric_scooter", "lon": -76.9703695, "name": "3bdb6974bef24334af78f6c00defc92f", "bike_id": "3bdb6974bef24334af78f6c00defc92f", "fusion_lat": 0.0, "is_reserved": 0, "lat": 38.86781383333334, "fusion_lon": 0.0, "is_disabled": 0}, {"rental_uris": {"android": "https://dc.lft.to/lastmile_qr_scan", "ios": "https://dc.lft.to/lastmile_qr_scan"}, "type": "electric_scooter", "lon": -77.06530283333333, "name": "1b31e564790852c6258e0bdf25a70cfe", "bike_id": "1b31e564790852c6258e0bdf25a70cfe", "fusion_lat": 0.0, "is_reserved": 0, "lat": 38.95072433333333, "fusion_lon": 0.0, "is_disabled": 0}, {"rental_uris": {"android": "https://dc.lft.to/lastmile_qr_scan", "ios": "https://dc.lft.to/lastmile_qr_scan"}, "type": "electric_scooter", "lon": -77.0499795, "name": "27f02080261829677a3159b633dca81a", "bike_id": "27f02080261829677a3159b633dca81a", "fusion_lat": 0.0, "is_reserved": 0, "lat": 38.892322666666665, "fusion_lon": 0.0, "is_disabled": 0}, {"rental_uris": {"android": "https://dc.lft.to/lastmile_qr_scan", "ios": "https://dc.lft.to/lastmile_qr_scan"}, "type": "electric_scooter", "lon": -77.02360816666666, "name": "b6a28c9e2166c636dd2970a0927e995e", "bike_id": "b6a28c9e2166c636dd2970a0927e995e", "fusion_lat": 0.0, "is_reserved": 0, "lat": 38.907265333333335, "fusion_lon": 0.0, "is_disabled": 0}, {"rental_uris": {"android": "https://dc.lft.to/lastmile_qr_scan", "ios": "https://dc.lft.to/lastmile_qr_scan"}, "type": "electric_scooter", "lon": -77.03396416666666, "name": "3582acebbfbd8e5a8ab74d7c959d5557", "bike_id": "3582acebbfbd8e5a8ab74d7c959d5557", "fusion_lat": 0.0, "is_reserved": 0, "lat": 38.92342166666667, "fusion_lon": 0.0, "is_disabled": 0}, {"rental_uris": {"android": "https://dc.lft.to/lastmile_qr_scan", "ios": "https://dc.lft.to/lastmile_qr_scan"}, "type": "electric_scooter", "lon": -76.98701416666667, "name": "3ab29fa33eb6b782956a9d78b85c774c", "bike_id": "3ab29fa33eb6b782956a9d78b85c774c", "fusion_lat": 0.0, "is_reserved": 0, "lat": 38.9020625, "fusion_lon": 0.0, "is_disabled": 0}, {"rental_uris": {"android": "https://dc.lft.to/lastmile_qr_scan", "ios": "https://dc.lft.to/lastmile_qr_scan"}, "type": "electric_scooter", "lon": -77.02542066666666, "name": "b7df2f8cf181a136e83b2910bfaaee8e", "bike_id": "b7df2f8cf181a136e83b2910bfaaee8e", "fusion_lat": 0.0, "is_reserved": 0, "lat": 38.920939833333335, "fusion_lon": 0.0, "is_disabled": 0}, {"rental_uris": {"android": "https://dc.lft.to/lastmile_qr_scan", "ios": "https://dc.lft.to/lastmile_qr_scan"}, "type": "electric_scooter", "lon": -77.03834966666666, "name": "144eaa348c6f8897f2a7f43e2d1da815", "bike_id": "144eaa348c6f8897f2a7f43e2d1da815", "fusion_lat": 0.0, "is_reserved": 0, "lat": 38.91293733333333, "fusion_lon": 0.0, "is_disabled": 0}, {"rental_uris": {"android": "https://dc.lft.to/lastmile_qr_scan", "ios": "https://dc.lft.to/lastmile_qr_scan"}, "type": "electric_bike", "lon": -77.026267, "name": "00ff9a10b5be05838af0fc8451e4e664", "bike_id": "00ff9a10b5be05838af0fc8451e4e664", "fusion_lat": 0.0, "is_reserved": 0, "lat": 38.96229316666667, "fusion_lon": 0.0, "is_disabled": 0}, {"rental_uris": {"android": "https://dc.lft.to/lastmile_qr_scan", "ios": "https://dc.lft.to/lastmile_qr_scan"}, "type": "electric_scooter", "lon": -76.98748483333334, "name": "8b561298d8cb8e5cf768a789fed98daa", "bike_id": "8b561298d8cb8e5cf768a789fed98daa", "fusion_lat": 0.0, "is_reserved": 0, "lat": 38.844541666666665, "fusion_lon": 0.0, "is_disabled": 0}, {"rental_uris": {"android": "https://dc.lft.to/lastmile_qr_scan", "ios": "https://dc.lft.to/lastmile_qr_scan"}, "type": "electric_scooter", "lon": -76.98889433333333, "name": "5e43c9136e02d5711cb08321bf5de20d", "bike_id": "5e43c9136e02d5711cb08321bf5de20d", "fusion_lat": 0.0, "is_reserved": 0, "lat": 38.866806833333335, "fusion_lon": 0.0, "is_disabled": 0}, {"rental_uris": {"android": "https://dc.lft.to/lastmile_qr_scan", "ios": "https://dc.lft.to/lastmile_qr_scan"}, "type": "electric_bike", "lon": -77.08543266666666, "name": "46bc10f545fd34fe43957749ed0fe555", "bike_id": "46bc10f545fd34fe43957749ed0fe555", "fusion_lat": 0.0, "is_reserved": 0, "lat": 38.85620016666667, "fusion_lon": 0.0, "is_disabled": 0}, {"rental_uris": {"android": "https://dc.lft.to/lastmile_qr_scan", "ios": "https://dc.lft.to/lastmile_qr_scan"}, "type": "electric_scooter", "lon": -77.03817066666667, "name": "68cc3be99ca90b5cff339ab4110f03c8", "bike_id": "68cc3be99ca90b5cff339ab4110f03c8", "fusion_lat": 0.0, "is_reserved": 0, "lat": 38.914147166666666, "fusion_lon": 0.0, "is_disabled": 0}, {"rental_uris": {"android": "https://dc.lft.to/lastmile_qr_scan", "ios": "https://dc.lft.to/lastmile_qr_scan"}, "type": "electric_scooter", "lon": -77.040199, "name": "8e8aec9734cc166895fa3653cdc260c9", "bike_id": "8e8aec9734cc166895fa3653cdc260c9", "fusion_lat": 0.0, "is_reserved": 0, "lat": 38.925664833333336, "fusion_lon": 0.0, "is_disabled": 0}, {"rental_uris": {"android": "https://dc.lft.to/lastmile_qr_scan", "ios": "https://dc.lft.to/lastmile_qr_scan"}, "type": "electric_scooter", "lon": -77.0407555, "name": "0dfef58559acf70cdac3da5506229541", "bike_id": "0dfef58559acf70cdac3da5506229541", "fusion_lat": 0.0, "is_reserved": 0, "lat": 38.907250833333336, "fusion_lon": 0.0, "is_disabled": 0}, {"rental_uris": {"android": "https://dc.lft.to/lastmile_qr_scan", "ios": "https://dc.lft.to/lastmile_qr_scan"}, "type": "electric_scooter", "lon": -76.98729616666667, "name": "fe52e06a21a2c9a173cd76c6d74d2a09", "bike_id": "fe52e06a21a2c9a173cd76c6d74d2a09", "fusion_lat": 0.0, "is_reserved": 0, "lat": 38.8671195, "fusion_lon": 0.0, "is_disabled": 0}, {"rental_uris": {"android": "https://dc.lft.to/lastmile_qr_scan", "ios": "https://dc.lft.to/lastmile_qr_scan"}, "type": "electric_scooter", "lon": -77.02659816666667, "name": "b59ac3c21d4b365188c84bdafb0cf713", "bike_id": "b59ac3c21d4b365188c84bdafb0cf713", "fusion_lat": 0.0, "is_reserved": 0, "lat": 38.93097266666667, "fusion_lon": 0.0, "is_disabled": 0}, {"rental_uris": {"android": "https://dc.lft.to/lastmile_qr_scan", "ios": "https://dc.lft.to/lastmile_qr_scan"}, "type": "electric_scooter", "lon": -77.02899466666666, "name": "69b58d20ce2f414ab3551db0105934cc", "bike_id": "69b58d20ce2f414ab3551db0105934cc", "fusion_lat": 0.0, "is_reserved": 0, "lat": 38.958516833333334, "fusion_lon": 0.0, "is_disabled": 0}, {"rental_uris": {"android": "https://dc.lft.to/lastmile_qr_scan", "ios": "https://dc.lft.to/lastmile_qr_scan"}, "type": "electric_bike", "lon": -77.08818066666667, "name": "68e6011213e55d52eb283efb3c5fa4c9", "bike_id": "68e6011213e55d52eb283efb3c5fa4c9", "fusion_lat": 0.0, "is_reserved": 0, "lat": 38.909751166666666, "fusion_lon": 0.0, "is_disabled": 0}, {"rental_uris": {"android": "https://dc.lft.to/lastmile_qr_scan", "ios": "https://dc.lft.to/lastmile_qr_scan"}, "type": "electric_scooter", "lon": -77.02338783333333, "name": "6f35108a5c59a324383eb30d0ab58dc5", "bike_id": "6f35108a5c59a324383eb30d0ab58dc5", "fusion_lat": 0.0, "is_reserved": 0, "lat": 38.88482966666667, "fusion_lon": 0.0, "is_disabled": 0}, {"rental_uris": {"android": "https://dc.lft.to/lastmile_qr_scan", "ios": "https://dc.lft.to/lastmile_qr_scan"}, "type": "electric_scooter", "lon": -77.02566966666667, "name": "1eb4abf945813e5f321fd1cf34ea1b07", "bike_id": "1eb4abf945813e5f321fd1cf34ea1b07", "fusion_lat": 0.0, "is_reserved": 0, "lat": 38.885881499999996, "fusion_lon": 0.0, "is_disabled": 0}, {"rental_uris": {"android": "https://dc.lft.to/lastmile_qr_scan", "ios": "https://dc.lft.to/lastmile_qr_scan"}, "type": "electric_bike", "lon": -76.975605, "name": "6cb8bf3c6982a2b5d0d39178fd9dc616", "bike_id": "6cb8bf3c6982a2b5d0d39178fd9dc616", "fusion_lat": 0.0, "is_reserved": 0, "lat": 38.90320216666667, "fusion_lon": 0.0, "is_disabled": 0}, {"rental_uris": {"android": "https://dc.lft.to/lastmile_qr_scan", "ios": "https://dc.lft.to/lastmile_qr_scan"}, "type": "electric_scooter", "lon": -76.94155983333333, "name": "e2da142b73fb49c7291057e7a4ab5673", "bike_id": "e2da142b73fb49c7291057e7a4ab5673", "fusion_lat": 0.0, "is_reserved": 0, "lat": 38.883644833333335, "fusion_lon": 0.0, "is_disabled": 0}, {"rental_uris": {"android": "https://dc.lft.to/lastmile_qr_scan", "ios": "https://dc.lft.to/lastmile_qr_scan"}, "type": "electric_scooter", "lon": -77.040134, "name": "1fbbe48e5d4f61110bfbaae1dd79eea0", "bike_id": "1fbbe48e5d4f61110bfbaae1dd79eea0", "fusion_lat": 0.0, "is_reserved": 0, "lat": 38.922081166666665, "fusion_lon": 0.0, "is_disabled": 0}, {"rental_uris": {"android": "https://dc.lft.to/lastmile_qr_scan", "ios": "https://dc.lft.to/lastmile_qr_scan"}, "type": "electric_scooter", "lon": -77.022005, "name": "6b28c6fb7c9002b8e4f5c20e161d4bc0", "bike_id": "6b28c6fb7c9002b8e4f5c20e161d4bc0", "fusion_lat": 0.0, "is_reserved": 0, "lat": 38.911389, "fusion_lon": 0.0, "is_disabled": 0}, {"rental_uris": {"android": "https://dc.lft.to/lastmile_qr_scan", "ios": "https://dc.lft.to/lastmile_qr_scan"}, "type": "electric_scooter", "lon": -77.0528105, "name": "fd256349dbc4f2451f674f28df808d87", "bike_id": "fd256349dbc4f2451f674f28df808d87", "fusion_lat": 0.0, "is_reserved": 0, "lat": 38.9225915, "fusion_lon": 0.0, "is_disabled": 0}, {"rental_uris": {"android": "https://dc.lft.to/lastmile_qr_scan", "ios": "https://dc.lft.to/lastmile_qr_scan"}, "type": "electric_scooter", "lon": -77.02799566666667, "name": "0a3f77f33bf21e28ec5f6a7fa1f3e98b", "bike_id": "0a3f77f33bf21e28ec5f6a7fa1f3e98b", "fusion_lat": 0.0, "is_reserved": 0, "lat": 38.8924235, "fusion_lon": 0.0, "is_disabled": 0}, {"rental_uris": {"android": "https://dc.lft.to/lastmile_qr_scan", "ios": "https://dc.lft.to/lastmile_qr_scan"}, "type": "electric_scooter", "lon": -77.03648733333333, "name": "eb55120ac131af3ad288d98624e7c84e", "bike_id": "eb55120ac131af3ad288d98624e7c84e", "fusion_lat": 0.0, "is_reserved": 0, "lat": 38.90681416666666, "fusion_lon": 0.0, "is_disabled": 0}, {"rental_uris": {"android": "https://dc.lft.to/lastmile_qr_scan", "ios": "https://dc.lft.to/lastmile_qr_scan"}, "type": "electric_scooter", "lon": -77.0026975, "name": "df87c77c4c97c7f08d07a5b09f7f3dd9", "bike_id": "df87c77c4c97c7f08d07a5b09f7f3dd9", "fusion_lat": 0.0, "is_reserved": 0, "lat": 38.90379016666667, "fusion_lon": 0.0, "is_disabled": 0}, {"rental_uris": {"android": "https://dc.lft.to/lastmile_qr_scan", "ios": "https://dc.lft.to/lastmile_qr_scan"}, "type": "electric_scooter", "lon": -77.005424, "name": "13c873d09eb4757ec68aca8cf88ed58b", "bike_id": "13c873d09eb4757ec68aca8cf88ed58b", "fusion_lat": 0.0, "is_reserved": 0, "lat": 38.8746035, "fusion_lon": 0.0, "is_disabled": 0}, {"rental_uris": {"android": "https://dc.lft.to/lastmile_qr_scan", "ios": "https://dc.lft.to/lastmile_qr_scan"}, "type": "electric_scooter", "lon": -76.98085833333333, "name": "9799bf9bccbe7f188b8a203c04c72ea6", "bike_id": "9799bf9bccbe7f188b8a203c04c72ea6", "fusion_lat": 0.0, "is_reserved": 0, "lat": 38.85068966666667, "fusion_lon": 0.0, "is_disabled": 0}, {"rental_uris": {"android": "https://dc.lft.to/lastmile_qr_scan", "ios": "https://dc.lft.to/lastmile_qr_scan"}, "type": "electric_scooter", "lon": -77.02724683333334, "name": "511d9b243ebb84bd6a39346e77dfda06", "bike_id": "511d9b243ebb84bd6a39346e77dfda06", "fusion_lat": 0.0, "is_reserved": 0, "lat": 38.951303, "fusion_lon": 0.0, "is_disabled": 0}, {"rental_uris": {"android": "https://dc.lft.to/lastmile_qr_scan", "ios": "https://dc.lft.to/lastmile_qr_scan"}, "type": "electric_scooter", "lon": -77.043587, "name": "23709e5b7aecc38c4e5fddf4dfb4e29c", "bike_id": "23709e5b7aecc38c4e5fddf4dfb4e29c", "fusion_lat": 0.0, "is_reserved": 0, "lat": 38.8923795, "fusion_lon": 0.0, "is_disabled": 0}, {"rental_uris": {"android": "https://dc.lft.to/lastmile_qr_scan", "ios": "https://dc.lft.to/lastmile_qr_scan"}, "type": "electric_bike", "lon": -77.07987583333333, "name": "e22af3b0d5966105583826aaaa3b8c17", "bike_id": "e22af3b0d5966105583826aaaa3b8c17", "fusion_lat": 0.0, "is_reserved": 0, "lat": 38.922525666666665, "fusion_lon": 0.0, "is_disabled": 0}, {"rental_uris": {"android": "https://dc.lft.to/lastmile_qr_scan", "ios": "https://dc.lft.to/lastmile_qr_scan"}, "type": "electric_scooter", "lon": -77.01627833333333, "name": "270d7d76ad0750e56d6d47d6b6660f2b", "bike_id": "270d7d76ad0750e56d6d47d6b6660f2b", "fusion_lat": 0.0, "is_reserved": 0, "lat": 38.903338833333336, "fusion_lon": 0.0, "is_disabled": 0}, {"rental_uris": {"android": "https://dc.lft.to/lastmile_qr_scan", "ios": "https://dc.lft.to/lastmile_qr_scan"}, "type": "electric_scooter", "lon": -77.02182433333333, "name": "1e3f11d85fda3fae8224d5253392f102", "bike_id": "1e3f11d85fda3fae8224d5253392f102", "fusion_lat": 0.0, "is_reserved": 0, "lat": 38.920131, "fusion_lon": 0.0, "is_disabled": 0}, {"rental_uris": {"android": "https://dc.lft.to/lastmile_qr_scan", "ios": "https://dc.lft.to/lastmile_qr_scan"}, "type": "electric_scooter", "lon": -77.02358083333333, "name": "706ff44389c165245624c65451b3fe56", "bike_id": "706ff44389c165245624c65451b3fe56", "fusion_lat": 0.0, "is_reserved": 0, "lat": 38.919531166666665, "fusion_lon": 0.0, "is_disabled": 0}, {"rental_uris": {"android": "https://dc.lft.to/lastmile_qr_scan", "ios": "https://dc.lft.to/lastmile_qr_scan"}, "type": "electric_scooter", "lon": -77.02312416666666, "name": "df36d27cf93413abcaa5a7a256351380", "bike_id": "df36d27cf93413abcaa5a7a256351380", "fusion_lat": 0.0, "is_reserved": 0, "lat": 38.916123166666665, "fusion_lon": 0.0, "is_disabled": 0}, {"rental_uris": {"android": "https://dc.lft.to/lastmile_qr_scan", "ios": "https://dc.lft.to/lastmile_qr_scan"}, "type": "electric_scooter", "lon": -77.03399316666666, "name": "fecafc5798490f7721f83d7c97c5f43c", "bike_id": "fecafc5798490f7721f83d7c97c5f43c", "fusion_lat": 0.0, "is_reserved": 0, "lat": 38.91923283333333, "fusion_lon": 0.0, "is_disabled": 0}, {"rental_uris": {"android": "https://dc.lft.to/lastmile_qr_scan", "ios": "https://dc.lft.to/lastmile_qr_scan"}, "type": "electric_scooter", "lon": -77.01246133333333, "name": "24466fd3abcc04e30a3be9b09b2c6b73", "bike_id": "24466fd3abcc04e30a3be9b09b2c6b73", "fusion_lat": 0.0, "is_reserved": 0, "lat": 38.908660833333336, "fusion_lon": 0.0, "is_disabled": 0}, {"rental_uris": {"android": "https://dc.lft.to/lastmile_qr_scan", "ios": "https://dc.lft.to/lastmile_qr_scan"}, "type": "electric_scooter", "lon": -77.0134085, "name": "ef93b1ec86279c468e71815af21c14f4", "bike_id": "ef93b1ec86279c468e71815af21c14f4", "fusion_lat": 0.0, "is_reserved": 0, "lat": 38.919147833333334, "fusion_lon": 0.0, "is_disabled": 0}, {"rental_uris": {"android": "https://dc.lft.to/lastmile_qr_scan", "ios": "https://dc.lft.to/lastmile_qr_scan"}, "type": "electric_scooter", "lon": -77.012746, "name": "9bc045bd8218650ec2bf4c26e8422076", "bike_id": "9bc045bd8218650ec2bf4c26e8422076", "fusion_lat": 0.0, "is_reserved": 0, "lat": 38.91566566666667, "fusion_lon": 0.0, "is_disabled": 0}, {"rental_uris": {"android": "https://dc.lft.to/lastmile_qr_scan", "ios": "https://dc.lft.to/lastmile_qr_scan"}, "type": "electric_scooter", "lon": -76.9652125, "name": "d37edec2b4ebb7110f90c4566fc97e12", "bike_id": "d37edec2b4ebb7110f90c4566fc97e12", "fusion_lat": 0.0, "is_reserved": 0, "lat": 38.874802333333335, "fusion_lon": 0.0, "is_disabled": 0}, {"rental_uris": {"android": "https://dc.lft.to/lastmile_qr_scan", "ios": "https://dc.lft.to/lastmile_qr_scan"}, "type": "electric_scooter", "lon": -76.9747615, "name": "dd3c9664646ed4d6b9a7afa2e10099c3", "bike_id": "dd3c9664646ed4d6b9a7afa2e10099c3", "fusion_lat": 0.0, "is_reserved": 0, "lat": 38.90352583333333, "fusion_lon": 0.0, "is_disabled": 0}, {"rental_uris": {"android": "https://dc.lft.to/lastmile_qr_scan", "ios": "https://dc.lft.to/lastmile_qr_scan"}, "type": "electric_scooter", "lon": -77.02704533333333, "name": "7b69b227abf54ea0cad2277dc9e142fb", "bike_id": "7b69b227abf54ea0cad2277dc9e142fb", "fusion_lat": 0.0, "is_reserved": 0, "lat": 38.9500455, "fusion_lon": 0.0, "is_disabled": 0}, {"rental_uris": {"android": "https://dc.lft.to/lastmile_qr_scan", "ios": "https://dc.lft.to/lastmile_qr_scan"}, "type": "electric_scooter", "lon": -77.02315183333333, "name": "e9ce741fa40b2315906cdbfe703d162e", "bike_id": "e9ce741fa40b2315906cdbfe703d162e", "fusion_lat": 0.0, "is_reserved": 0, "lat": 38.9171845, "fusion_lon": 0.0, "is_disabled": 0}, {"rental_uris": {"android": "https://dc.lft.to/lastmile_qr_scan", "ios": "https://dc.lft.to/lastmile_qr_scan"}, "type": "electric_scooter", "lon": -77.07297183333333, "name": "924e5e24cb6d8c73aaec4bf133ca343d", "bike_id": "924e5e24cb6d8c73aaec4bf133ca343d", "fusion_lat": 0.0, "is_reserved": 0, "lat": 38.93061016666667, "fusion_lon": 0.0, "is_disabled": 0}, {"rental_uris": {"android": "https://dc.lft.to/lastmile_qr_scan", "ios": "https://dc.lft.to/lastmile_qr_scan"}, "type": "electric_scooter", "lon": -77.04506116666667, "name": "887d04b72e4a52215a4ee924ccd78869", "bike_id": "887d04b72e4a52215a4ee924ccd78869", "fusion_lat": 0.0, "is_reserved": 0, "lat": 38.89223283333333, "fusion_lon": 0.0, "is_disabled": 0}, {"rental_uris": {"android": "https://dc.lft.to/lastmile_qr_scan", "ios": "https://dc.lft.to/lastmile_qr_scan"}, "type": "electric_bike", "lon": -76.99563116666667, "name": "25c623a18aa4645982c0ba2d15947153", "bike_id": "25c623a18aa4645982c0ba2d15947153", "fusion_lat": 0.0, "is_reserved": 0, "lat": 39.00781966666667, "fusion_lon": 0.0, "is_disabled": 0}, {"rental_uris": {"android": "https://dc.lft.to/lastmile_qr_scan", "ios": "https://dc.lft.to/lastmile_qr_scan"}, "type": "electric_scooter", "lon": -77.07155383333334, "name": "9c0cd12d8faa7e53c610fead41f8b50f", "bike_id": "9c0cd12d8faa7e53c610fead41f8b50f", "fusion_lat": 0.0, "is_reserved": 0, "lat": 38.95841016666667, "fusion_lon": 0.0, "is_disabled": 0}, {"rental_uris": {"android": "https://dc.lft.to/lastmile_qr_scan", "ios": "https://dc.lft.to/lastmile_qr_scan"}, "type": "electric_bike", "lon": -77.09557916666667, "name": "4b025383917b4e1ec59741152f3d2a8f", "bike_id": "4b025383917b4e1ec59741152f3d2a8f", "fusion_lat": 0.0, "is_reserved": 0, "lat": 38.917053333333335, "fusion_lon": 0.0, "is_disabled": 0}, {"rental_uris": {"android": "https://dc.lft.to/lastmile_qr_scan", "ios": "https://dc.lft.to/lastmile_qr_scan"}, "type": "electric_scooter", "lon": -77.001597, "name": "b85c1c27e9eb39e5de7475c65dd9d320", "bike_id": "b85c1c27e9eb39e5de7475c65dd9d320", "fusion_lat": 0.0, "is_reserved": 0, "lat": 38.905161166666666, "fusion_lon": 0.0, "is_disabled": 0}, {"rental_uris": {"android": "https://dc.lft.to/lastmile_qr_scan", "ios": "https://dc.lft.to/lastmile_qr_scan"}, "type": "electric_scooter", "lon": -76.98713, "name": "a43356effec95fb204f063a6718c0a95", "bike_id": "a43356effec95fb204f063a6718c0a95", "fusion_lat": 0.0, "is_reserved": 0, "lat": 38.866993666666666, "fusion_lon": 0.0, "is_disabled": 0}, {"rental_uris": {"android": "https://dc.lft.to/lastmile_qr_scan", "ios": "https://dc.lft.to/lastmile_qr_scan"}, "type": "electric_scooter", "lon": -77.039882, "name": "8edb498805964fb8aa8af88ea9d22a61", "bike_id": "8edb498805964fb8aa8af88ea9d22a61", "fusion_lat": 0.0, "is_reserved": 0, "lat": 38.9011135, "fusion_lon": 0.0, "is_disabled": 0}, {"rental_uris": {"android": "https://dc.lft.to/lastmile_qr_scan", "ios": "https://dc.lft.to/lastmile_qr_scan"}, "type": "electric_scooter", "lon": -77.018019, "name": "618a7676300980055592101ce5fb2b2a", "bike_id": "618a7676300980055592101ce5fb2b2a", "fusion_lat": 0.0, "is_reserved": 0, "lat": 38.9217195, "fusion_lon": 0.0, "is_disabled": 0}, {"rental_uris": {"android": "https://dc.lft.to/lastmile_qr_scan", "ios": "https://dc.lft.to/lastmile_qr_scan"}, "type": "electric_scooter", "lon": -77.04347266666667, "name": "0ad8f7872a8912e0b20819d5d9ce2f26", "bike_id": "0ad8f7872a8912e0b20819d5d9ce2f26", "fusion_lat": 0.0, "is_reserved": 0, "lat": 38.90530416666667, "fusion_lon": 0.0, "is_disabled": 0}, {"rental_uris": {"android": "https://dc.lft.to/lastmile_qr_scan", "ios": "https://dc.lft.to/lastmile_qr_scan"}, "type": "electric_scooter", "lon": -77.00880633333334, "name": "5a862ecc6f990421cd64fc369dc004cc", "bike_id": "5a862ecc6f990421cd64fc369dc004cc", "fusion_lat": 0.0, "is_reserved": 0, "lat": 38.8731415, "fusion_lon": 0.0, "is_disabled": 0}, {"rental_uris": {"android": "https://dc.lft.to/lastmile_qr_scan", "ios": "https://dc.lft.to/lastmile_qr_scan"}, "type": "electric_bike", "lon": -77.12501533333334, "name": "50ad404da1784da7771bd7dc9ad37a1f", "bike_id": "50ad404da1784da7771bd7dc9ad37a1f", "fusion_lat": 0.0, "is_reserved": 0, "lat": 39.02423066666667, "fusion_lon": 0.0, "is_disabled": 0}, {"rental_uris": {"android": "https://dc.lft.to/lastmile_qr_scan", "ios": "https://dc.lft.to/lastmile_qr_scan"}, "type": "electric_scooter", "lon": -76.99259066666667, "name": "624561944a956677fbda324fa0e09aad", "bike_id": "624561944a956677fbda324fa0e09aad", "fusion_lat": 0.0, "is_reserved": 0, "lat": 38.892899666666665, "fusion_lon": 0.0, "is_disabled": 0}, {"rental_uris": {"android": "https://dc.lft.to/lastmile_qr_scan", "ios": "https://dc.lft.to/lastmile_qr_scan"}, "type": "electric_scooter", "lon": -77.023958, "name": "f2f6793c897f4e93576e056aa7cd9d0e", "bike_id": "f2f6793c897f4e93576e056aa7cd9d0e", "fusion_lat": 0.0, "is_reserved": 0, "lat": 38.907114666666665, "fusion_lon": 0.0, "is_disabled": 0}, {"rental_uris": {"android": "https://dc.lft.to/lastmile_qr_scan", "ios": "https://dc.lft.to/lastmile_qr_scan"}, "type": "electric_scooter", "lon": -77.046529, "name": "071d144f823ca1b40da9298f7a474ed5", "bike_id": "071d144f823ca1b40da9298f7a474ed5", "fusion_lat": 0.0, "is_reserved": 0, "lat": 38.8930005, "fusion_lon": 0.0, "is_disabled": 0}, {"rental_uris": {"android": "https://dc.lft.to/lastmile_qr_scan", "ios": "https://dc.lft.to/lastmile_qr_scan"}, "type": "electric_bike", "lon": -77.05037233333333, "name": "8245c1ef76dce64f50ca948e1d40194d", "bike_id": "8245c1ef76dce64f50ca948e1d40194d", "fusion_lat": 0.0, "is_reserved": 0, "lat": 38.911201, "fusion_lon": 0.0, "is_disabled": 0}, {"rental_uris": {"android": "https://dc.lft.to/lastmile_qr_scan", "ios": "https://dc.lft.to/lastmile_qr_scan"}, "type": "electric_scooter", "lon": -77.02358266666667, "name": "660c192f92429738c48a2ae3e1c18b91", "bike_id": "660c192f92429738c48a2ae3e1c18b91", "fusion_lat": 0.0, "is_reserved": 0, "lat": 38.917752166666666, "fusion_lon": 0.0, "is_disabled": 0}, {"rental_uris": {"android": "https://dc.lft.to/lastmile_qr_scan", "ios": "https://dc.lft.to/lastmile_qr_scan"}, "type": "electric_scooter", "lon": -76.96918316666667, "name": "659a36556513e2d4c0ae40f60464b664", "bike_id": "659a36556513e2d4c0ae40f60464b664", "fusion_lat": 0.0, "is_reserved": 0, "lat": 38.85528816666667, "fusion_lon": 0.0, "is_disabled": 0}, {"rental_uris": {"android": "https://dc.lft.to/lastmile_qr_scan", "ios": "https://dc.lft.to/lastmile_qr_scan"}, "type": "electric_scooter", "lon": -77.044068, "name": "2082073537c2b12bdfa20c7c9317ed57", "bike_id": "2082073537c2b12bdfa20c7c9317ed57", "fusion_lat": 0.0, "is_reserved": 0, "lat": 38.87425733333333, "fusion_lon": 0.0, "is_disabled": 0}, {"rental_uris": {"android": "https://dc.lft.to/lastmile_qr_scan", "ios": "https://dc.lft.to/lastmile_qr_scan"}, "type": "electric_scooter", "lon": -77.04047433333334, "name": "5b21a03c665456643464b4ca7569141d", "bike_id": "5b21a03c665456643464b4ca7569141d", "fusion_lat": 0.0, "is_reserved": 0, "lat": 38.9287625, "fusion_lon": 0.0, "is_disabled": 0}, {"rental_uris": {"android": "https://dc.lft.to/lastmile_qr_scan", "ios": "https://dc.lft.to/lastmile_qr_scan"}, "type": "electric_scooter", "lon": -77.032632, "name": "0b8e22623477a155c4216ed16cb968eb", "bike_id": "0b8e22623477a155c4216ed16cb968eb", "fusion_lat": 0.0, "is_reserved": 0, "lat": 38.942583166666665, "fusion_lon": 0.0, "is_disabled": 0}, {"rental_uris": {"android": "https://dc.lft.to/lastmile_qr_scan", "ios": "https://dc.lft.to/lastmile_qr_scan"}, "type": "electric_bike", "lon": -77.09159083333333, "name": "98cfe6ed7fcdd8ddcc4de770629f80d1", "bike_id": "98cfe6ed7fcdd8ddcc4de770629f80d1", "fusion_lat": 0.0, "is_reserved": 0, "lat": 38.967619666666664, "fusion_lon": 0.0, "is_disabled": 0}, {"rental_uris": {"android": "https://dc.lft.to/lastmile_qr_scan", "ios": "https://dc.lft.to/lastmile_qr_scan"}, "type": "electric_scooter", "lon": -77.02280666666667, "name": "f98750203cb33bebe53e5ef1339381fa", "bike_id": "f98750203cb33bebe53e5ef1339381fa", "fusion_lat": 0.0, "is_reserved": 0, "lat": 38.917396, "fusion_lon": 0.0, "is_disabled": 0}, {"rental_uris": {"android": "https://dc.lft.to/lastmile_qr_scan", "ios": "https://dc.lft.to/lastmile_qr_scan"}, "type": "electric_scooter", "lon": -77.03262683333334, "name": "4339cf4bf42e63e4d0235b159a448fe5", "bike_id": "4339cf4bf42e63e4d0235b159a448fe5", "fusion_lat": 0.0, "is_reserved": 0, "lat": 38.93256933333333, "fusion_lon": 0.0, "is_disabled": 0}, {"rental_uris": {"android": "https://dc.lft.to/lastmile_qr_scan", "ios": "https://dc.lft.to/lastmile_qr_scan"}, "type": "electric_bike", "lon": -77.01445983333333, "name": "33d7e46b26cd286d577cbf085765ad77", "bike_id": "33d7e46b26cd286d577cbf085765ad77", "fusion_lat": 0.0, "is_reserved": 0, "lat": 38.87679883333333, "fusion_lon": 0.0, "is_disabled": 0}, {"rental_uris": {"android": "https://dc.lft.to/lastmile_qr_scan", "ios": "https://dc.lft.to/lastmile_qr_scan"}, "type": "electric_scooter", "lon": -77.03208416666666, "name": "abfc3ac927f6e8cbf32d130150b0b922", "bike_id": "abfc3ac927f6e8cbf32d130150b0b922", "fusion_lat": 0.0, "is_reserved": 0, "lat": 38.918640833333335, "fusion_lon": 0.0, "is_disabled": 0}, {"rental_uris": {"android": "https://dc.lft.to/lastmile_qr_scan", "ios": "https://dc.lft.to/lastmile_qr_scan"}, "type": "electric_scooter", "lon": -77.031232, "name": "3bc2df816f47b17cfde9ba5706a02bac", "bike_id": "3bc2df816f47b17cfde9ba5706a02bac", "fusion_lat": 0.0, "is_reserved": 0, "lat": 38.9737745, "fusion_lon": 0.0, "is_disabled": 0}, {"rental_uris": {"android": "https://dc.lft.to/lastmile_qr_scan", "ios": "https://dc.lft.to/lastmile_qr_scan"}, "type": "electric_scooter", "lon": -77.02481083333333, "name": "452319192797fd768702a84e42b8818f", "bike_id": "452319192797fd768702a84e42b8818f", "fusion_lat": 0.0, "is_reserved": 0, "lat": 38.93883533333333, "fusion_lon": 0.0, "is_disabled": 0}, {"rental_uris": {"android": "https://dc.lft.to/lastmile_qr_scan", "ios": "https://dc.lft.to/lastmile_qr_scan"}, "type": "electric_scooter", "lon": -77.005227, "name": "d7019696aaf182c615dabd062959c5d9", "bike_id": "d7019696aaf182c615dabd062959c5d9", "fusion_lat": 0.0, "is_reserved": 0, "lat": 38.91698216666666, "fusion_lon": 0.0, "is_disabled": 0}, {"rental_uris": {"android": "https://dc.lft.to/lastmile_qr_scan", "ios": "https://dc.lft.to/lastmile_qr_scan"}, "type": "electric_bike", "lon": -76.97615466666667, "name": "3de4a9330927da9d4e25ca38d3392457", "bike_id": "3de4a9330927da9d4e25ca38d3392457", "fusion_lat": 0.0, "is_reserved": 0, "lat": 38.895810833333336, "fusion_lon": 0.0, "is_disabled": 0}, {"rental_uris": {"android": "https://dc.lft.to/lastmile_qr_scan", "ios": "https://dc.lft.to/lastmile_qr_scan"}, "type": "electric_scooter", "lon": -77.02944333333333, "name": "55153521ffbe154a0f93f5bd07ced304", "bike_id": "55153521ffbe154a0f93f5bd07ced304", "fusion_lat": 0.0, "is_reserved": 0, "lat": 38.89534883333334, "fusion_lon": 0.0, "is_disabled": 0}, {"rental_uris": {"android": "https://dc.lft.to/lastmile_qr_scan", "ios": "https://dc.lft.to/lastmile_qr_scan"}, "type": "electric_scooter", "lon": -77.01763983333333, "name": "6a3b847e837cb9d426e9ab31acd43494", "bike_id": "6a3b847e837cb9d426e9ab31acd43494", "fusion_lat": 0.0, "is_reserved": 0, "lat": 38.921073666666665, "fusion_lon": 0.0, "is_disabled": 0}, {"rental_uris": {"android": "https://dc.lft.to/lastmile_qr_scan", "ios": "https://dc.lft.to/lastmile_qr_scan"}, "type": "electric_scooter", "lon": -77.0066805, "name": "3b682b4d002588982c09a6a2233b9e1e", "bike_id": "3b682b4d002588982c09a6a2233b9e1e", "fusion_lat": 0.0, "is_reserved": 0, "lat": 38.89984066666667, "fusion_lon": 0.0, "is_disabled": 0}, {"rental_uris": {"android": "https://dc.lft.to/lastmile_qr_scan", "ios": "https://dc.lft.to/lastmile_qr_scan"}, "type": "electric_scooter", "lon": -77.02500066666667, "name": "95b2f7233f9ddb796c884c69eb96d2b2", "bike_id": "95b2f7233f9ddb796c884c69eb96d2b2", "fusion_lat": 0.0, "is_reserved": 0, "lat": 38.9041405, "fusion_lon": 0.0, "is_disabled": 0}, {"rental_uris": {"android": "https://dc.lft.to/lastmile_qr_scan", "ios": "https://dc.lft.to/lastmile_qr_scan"}, "type": "electric_scooter", "lon": -77.01587166666667, "name": "4511f7dfe1cc96ea21c766b4fa7b6c7b", "bike_id": "4511f7dfe1cc96ea21c766b4fa7b6c7b", "fusion_lat": 0.0, "is_reserved": 0, "lat": 38.92846766666667, "fusion_lon": 0.0, "is_disabled": 0}, {"rental_uris": {"android": "https://dc.lft.to/lastmile_qr_scan", "ios": "https://dc.lft.to/lastmile_qr_scan"}, "type": "electric_scooter", "lon": -77.034964, "name": "b269e8b338503751440bbf8cf2ba40e7", "bike_id": "b269e8b338503751440bbf8cf2ba40e7", "fusion_lat": 0.0, "is_reserved": 0, "lat": 38.937416, "fusion_lon": 0.0, "is_disabled": 0}, {"rental_uris": {"android": "https://dc.lft.to/lastmile_qr_scan", "ios": "https://dc.lft.to/lastmile_qr_scan"}, "type": "electric_scooter", "lon": -77.01059866666667, "name": "cf73a032cda41c7c02c6faa5f63c59b9", "bike_id": "cf73a032cda41c7c02c6faa5f63c59b9", "fusion_lat": 0.0, "is_reserved": 0, "lat": 38.872502, "fusion_lon": 0.0, "is_disabled": 0}, {"rental_uris": {"android": "https://dc.lft.to/lastmile_qr_scan", "ios": "https://dc.lft.to/lastmile_qr_scan"}, "type": "electric_scooter", "lon": -77.04635383333333, "name": "ad33a2760bf7f65b10b518bb5c25f81c", "bike_id": "ad33a2760bf7f65b10b518bb5c25f81c", "fusion_lat": 0.0, "is_reserved": 0, "lat": 38.89734333333333, "fusion_lon": 0.0, "is_disabled": 0}, {"rental_uris": {"android": "https://dc.lft.to/lastmile_qr_scan", "ios": "https://dc.lft.to/lastmile_qr_scan"}, "type": "electric_scooter", "lon": -77.02383333333333, "name": "c07ad038a49dabf7c4b9e12eb44b1638", "bike_id": "c07ad038a49dabf7c4b9e12eb44b1638", "fusion_lat": 0.0, "is_reserved": 0, "lat": 38.8922895, "fusion_lon": 0.0, "is_disabled": 0}, {"rental_uris": {"android": "https://dc.lft.to/lastmile_qr_scan", "ios": "https://dc.lft.to/lastmile_qr_scan"}, "type": "electric_scooter", "lon": -77.02397183333333, "name": "8843ed56f9249d88ff8af410e6b67df2", "bike_id": "8843ed56f9249d88ff8af410e6b67df2", "fusion_lat": 0.0, "is_reserved": 0, "lat": 38.916812666666665, "fusion_lon": 0.0, "is_disabled": 0}, {"rental_uris": {"android": "https://dc.lft.to/lastmile_qr_scan", "ios": "https://dc.lft.to/lastmile_qr_scan"}, "type": "electric_scooter", "lon": -77.04498233333334, "name": "3cf7e752a3e7d3a9f32e4ec9de02ea21", "bike_id": "3cf7e752a3e7d3a9f32e4ec9de02ea21", "fusion_lat": 0.0, "is_reserved": 0, "lat": 38.90707233333333, "fusion_lon": 0.0, "is_disabled": 0}, {"rental_uris": {"android": "https://dc.lft.to/lastmile_qr_scan", "ios": "https://dc.lft.to/lastmile_qr_scan"}, "type": "electric_scooter", "lon": -76.989222, "name": "81acd6d634d39e1e6800d7a3779ced13", "bike_id": "81acd6d634d39e1e6800d7a3779ced13", "fusion_lat": 0.0, "is_reserved": 0, "lat": 38.8820355, "fusion_lon": 0.0, "is_disabled": 0}, {"rental_uris": {"android": "https://dc.lft.to/lastmile_qr_scan", "ios": "https://dc.lft.to/lastmile_qr_scan"}, "type": "electric_scooter", "lon": -77.04489266666667, "name": "199008084c62b36c4a5dd4161fad2c8e", "bike_id": "199008084c62b36c4a5dd4161fad2c8e", "fusion_lat": 0.0, "is_reserved": 0, "lat": 38.919473833333335, "fusion_lon": 0.0, "is_disabled": 0}, {"rental_uris": {"android": "https://dc.lft.to/lastmile_qr_scan", "ios": "https://dc.lft.to/lastmile_qr_scan"}, "type": "electric_scooter", "lon": -77.02676616666666, "name": "d87d9e90883545315dbe8aba08c9290d", "bike_id": "d87d9e90883545315dbe8aba08c9290d", "fusion_lat": 0.0, "is_reserved": 0, "lat": 38.90959733333333, "fusion_lon": 0.0, "is_disabled": 0}, {"rental_uris": {"android": "https://dc.lft.to/lastmile_qr_scan", "ios": "https://dc.lft.to/lastmile_qr_scan"}, "type": "electric_bike", "lon": -77.028761, "name": "7f3fa50708f5ca49651f5e7750fba81a", "bike_id": "7f3fa50708f5ca49651f5e7750fba81a", "fusion_lat": 0.0, "is_reserved": 0, "lat": 38.979464666666665, "fusion_lon": 0.0, "is_disabled": 0}, {"rental_uris": {"android": "https://dc.lft.to/lastmile_qr_scan", "ios": "https://dc.lft.to/lastmile_qr_scan"}, "type": "electric_scooter", "lon": -77.03231133333334, "name": "42628d469c74b13b06289cb9d60a01e0", "bike_id": "42628d469c74b13b06289cb9d60a01e0", "fusion_lat": 0.0, "is_reserved": 0, "lat": 38.915986833333335, "fusion_lon": 0.0, "is_disabled": 0}, {"rental_uris": {"android": "https://dc.lft.to/lastmile_qr_scan", "ios": "https://dc.lft.to/lastmile_qr_scan"}, "type": "electric_scooter", "lon": -77.04606166666667, "name": "63cca233e930d150eaec1c3152ebc3cd", "bike_id": "63cca233e930d150eaec1c3152ebc3cd", "fusion_lat": 0.0, "is_reserved": 0, "lat": 38.906784333333334, "fusion_lon": 0.0, "is_disabled": 0}, {"rental_uris": {"android": "https://dc.lft.to/lastmile_qr_scan", "ios": "https://dc.lft.to/lastmile_qr_scan"}, "type": "electric_scooter", "lon": -77.0241635, "name": "52f63bc6363f0c1b2df39fdf0dea302c", "bike_id": "52f63bc6363f0c1b2df39fdf0dea302c", "fusion_lat": 0.0, "is_reserved": 0, "lat": 38.957360333333334, "fusion_lon": 0.0, "is_disabled": 0}, {"rental_uris": {"android": "https://dc.lft.to/lastmile_qr_scan", "ios": "https://dc.lft.to/lastmile_qr_scan"}, "type": "electric_scooter", "lon": -76.94823733333334, "name": "1294406e6cc0afd79bf6605c6e0147ef", "bike_id": "1294406e6cc0afd79bf6605c6e0147ef", "fusion_lat": 0.0, "is_reserved": 0, "lat": 38.885161333333336, "fusion_lon": 0.0, "is_disabled": 0}, {"rental_uris": {"android": "https://dc.lft.to/lastmile_qr_scan", "ios": "https://dc.lft.to/lastmile_qr_scan"}, "type": "electric_scooter", "lon": -77.0384245, "name": "9c1d71b8ba18f40e7896f796806966fa", "bike_id": "9c1d71b8ba18f40e7896f796806966fa", "fusion_lat": 0.0, "is_reserved": 0, "lat": 38.91212216666667, "fusion_lon": 0.0, "is_disabled": 0}, {"rental_uris": {"android": "https://dc.lft.to/lastmile_qr_scan", "ios": "https://dc.lft.to/lastmile_qr_scan"}, "type": "electric_scooter", "lon": -77.01946333333333, "name": "ddbafade66745bbea1b445d36865fdd6", "bike_id": "ddbafade66745bbea1b445d36865fdd6", "fusion_lat": 0.0, "is_reserved": 0, "lat": 38.92258866666667, "fusion_lon": 0.0, "is_disabled": 0}, {"rental_uris": {"android": "https://dc.lft.to/lastmile_qr_scan", "ios": "https://dc.lft.to/lastmile_qr_scan"}, "type": "electric_scooter", "lon": -77.0626545, "name": "46c0cceca32bbbeb03e4fab22bfc54ae", "bike_id": "46c0cceca32bbbeb03e4fab22bfc54ae", "fusion_lat": 0.0, "is_reserved": 0, "lat": 38.906238, "fusion_lon": 0.0, "is_disabled": 0}, {"rental_uris": {"android": "https://dc.lft.to/lastmile_qr_scan", "ios": "https://dc.lft.to/lastmile_qr_scan"}, "type": "electric_scooter", "lon": -77.04157533333333, "name": "b9c9970ffc61d4aeb7970fdc863f2092", "bike_id": "b9c9970ffc61d4aeb7970fdc863f2092", "fusion_lat": 0.0, "is_reserved": 0, "lat": 38.89267483333333, "fusion_lon": 0.0, "is_disabled": 0}, {"rental_uris": {"android": "https://dc.lft.to/lastmile_qr_scan", "ios": "https://dc.lft.to/lastmile_qr_scan"}, "type": "electric_scooter", "lon": -77.0220415, "name": "fe6f8eec866168bd64fbf92dc9342882", "bike_id": "fe6f8eec866168bd64fbf92dc9342882", "fusion_lat": 0.0, "is_reserved": 0, "lat": 38.895057333333334, "fusion_lon": 0.0, "is_disabled": 0}, {"rental_uris": {"android": "https://dc.lft.to/lastmile_qr_scan", "ios": "https://dc.lft.to/lastmile_qr_scan"}, "type": "electric_scooter", "lon": -76.98596616666667, "name": "49d1d8e291a4e0afa97a9efd848b0eea", "bike_id": "49d1d8e291a4e0afa97a9efd848b0eea", "fusion_lat": 0.0, "is_reserved": 0, "lat": 38.90015266666666, "fusion_lon": 0.0, "is_disabled": 0}, {"rental_uris": {"android": "https://dc.lft.to/lastmile_qr_scan", "ios": "https://dc.lft.to/lastmile_qr_scan"}, "type": "electric_scooter", "lon": -76.99820516666666, "name": "271c5ce573fc9e19f3b71087dcd1dda5", "bike_id": "271c5ce573fc9e19f3b71087dcd1dda5", "fusion_lat": 0.0, "is_reserved": 0, "lat": 38.9000845, "fusion_lon": 0.0, "is_disabled": 0}, {"rental_uris": {"android": "https://dc.lft.to/lastmile_qr_scan", "ios": "https://dc.lft.to/lastmile_qr_scan"}, "type": "electric_scooter", "lon": -76.94119666666667, "name": "3c091ff50e58bd6caf86d0b9ba3f4d06", "bike_id": "3c091ff50e58bd6caf86d0b9ba3f4d06", "fusion_lat": 0.0, "is_reserved": 0, "lat": 38.907888666666665, "fusion_lon": 0.0, "is_disabled": 0},