{"data": {"bikes": [{"is_disabled": 0, "fusion_lon": 0.0, "fusion_lat": 0.0, "lat": 38.91462716666667, "type": "electric_scooter", "lon": -76.98447683333333, "bike_id": "5e8aba965bcbf2b6be9a78d2ed8d45a1", "rental_uris": {"android": "https://dc.lft.to/lastmile_qr_scan", "ios": "https://dc.lft.to/lastmile_qr_scan"}, "name": "5e8aba965bcbf2b6be9a78d2ed8d45a1", "is_reserved": 0}, {"is_disabled": 0, "fusion_lon": 0.0, "fusion_lat": 0.0, "lat": 38.925729833333335, "type": "electric_scooter", "lon": -77.0805875, "bike_id": "e7d3069dde5f84a15bcad79addc53630", "rental_uris": {"android": "https://dc.lft.to/lastmile_qr_scan", "ios": "https://dc.lft.to/lastmile_qr_scan"}, "name": "e7d3069dde5f84a15bcad79addc53630", "is_reserved": 0}, {"is_disabled": 0, "fusion_lon": 0.0, "fusion_lat": 0.0, "lat": 38.921098, "type": "electric_scooter", "lon": -77.01758416666667, "bike_id": "af08a7e41f4607cd2b942e86b9a925d4", "rental_uris": {"android": "https://dc.lft.to/lastmile_qr_scan", "ios": "https://dc.lft.to/lastmile_qr_scan"}, "name": "af08a7e41f4607cd2b942e86b9a925d4", "is_reserved": 0}, {"is_disabled": 0, "fusion_lon": 0.0, "fusion_lat": 0.0, "lat": 38.87755416666667, "type": "electric_bike", "lon": -76.97994616666666, "bike_id": "2d59432312756574b997d19123ba2a39", "rental_uris": {"android": "https://dc.lft.to/lastmile_qr_scan", "ios": "https://dc.lft.to/lastmile_qr_scan"}, "name": "2d59432312756574b997d19123ba2a39", "is_reserved": 0}, {"is_disabled": 0, "fusion_lon": 0.0, "fusion_lat": 0.0, "lat": 38.89526583333333, "type": "electric_scooter", "lon": -77.0484825, "bike_id": "4bc49c2205e2e3016b0ba133f102c370", "rental_uris": {"android": "https://dc.lft.to/lastmile_qr_scan", "ios": "https://dc.lft.to/lastmile_qr_scan"}, "name": "4bc49c2205e2e3016b0ba133f102c370", "is_reserved": 0}, {"is_disabled": 0, "fusion_lon": 0.0, "fusion_lat": 0.0, "lat": 38.9395755, "type": "electric_bike", "lon": -77.36092283333333, "bike_id": "789febbaeca523f21c387ac8a32e6033", "rental_uris": {"android": "https://dc.lft.to/lastmile_qr_scan", "ios": "https://dc.lft.to/lastmile_qr_scan"}, "name": "789febbaeca523f21c387ac8a32e6033", "is_reserved": 0}, {"is_disabled": 0, "fusion_lon": 0.0, "fusion_lat": 0.0, "lat": 38.929661, "type": "electric_scooter", "lon": -77.02792283333334, "bike_id": "3b82caec57211a9460dd3f347c560b0c", "rental_uris": {"android": "https://dc.lft.to/lastmile_qr_scan", "ios": "https://dc.lft.to/lastmile_qr_scan"}, "name": "3b82caec57211a9460dd3f347c560b0c", "is_reserved": 0}, {"is_disabled": 0, "fusion_lon": 0.0, "fusion_lat": 0.0, "lat": 38.90945683333333, "type": "electric_scooter", "lon": -77.04870266666667, "bike_id": "ef0d598c1ed27f0d31653705367d2983", "rental_uris": {"android": "https://dc.lft.to/lastmile_qr_scan", "ios": "https://dc.lft.to/lastmile_qr_scan"}, "name": "ef0d598c1ed27f0d31653705367d2983", "is_reserved": 0}, {"is_disabled": 0, "fusion_lon": 0.0, "fusion_lat": 0.0, "lat": 38.89948283333333, "type": "electric_scooter", "lon": -77.03918166666666, "bike_id": "a7aaa81f76f809b71e7e8ae06533d273", "rental_uris": {"android": "https://dc.lft.to/lastmile_qr_scan", "ios": "https://dc.lft.to/lastmile_qr_scan"}, "name": "a7aaa81f76f809b71e7e8ae06533d273", "is_reserved": 0}, {"is_disabled": 0, "fusion_lon": 0.0, "fusion_lat": 0.0, "lat": 38.924581, "type": "electric_scooter", "lon": -77.0786355, "bike_id": "c6a17203eeca1dc138ec7a89d951cbba", "rental_uris": {"android": "https://dc.lft.to/lastmile_qr_scan", "ios": "https://dc.lft.to/lastmile_qr_scan"}, "name": "c6a17203eeca1dc138ec7a89d951cbba", "is_reserved": 0}, {"is_disabled": 0, "fusion_lon": 0.0, "fusion_lat": 0.0, "lat": 38.930472, "type": "electric_scooter", "lon": -77.03229716666667, "bike_id": "dfbb849b2f1fb5379185aeb36bcef6d0", "rental_uris": {"android": "https://dc.lft.to/lastmile_qr_scan", "ios": "https://dc.lft.to/lastmile_qr_scan"}, "name": "dfbb849b2f1fb5379185aeb36bcef6d0", "is_reserved": 0}, {"is_disabled": 0, "fusion_lon": 0.0, "fusion_lat": 0.0, "lat": 38.8857525, "type": "electric_scooter", "lon": -76.919077, "bike_id": "111396847511b7ab786c2db183f59c04", "rental_uris": {"android": "https://dc.lft.to/lastmile_qr_scan", "ios": "https://dc.lft.to/lastmile_qr_scan"}, "name": "111396847511b7ab786c2db183f59c04", "is_reserved": 0}, {"is_disabled": 0, "fusion_lon": 0.0, "fusion_lat": 0.0, "lat": 38.89844033333333, "type": "electric_scooter", "lon": -77.0292635, "bike_id": "1ca3f6a47598246ad25c1624f03c3740", "rental_uris": {"android": "https://dc.lft.to/lastmile_qr_scan", "ios": "https://dc.lft.to/lastmile_qr_scan"}, "name": "1ca3f6a47598246ad25c1624f03c3740", "is_reserved": 0}, {"is_disabled": 0, "fusion_lon": 0.0, "fusion_lat": 0.0, "lat": 38.93670083333333, "type": "electric_bike", "lon": -76.952078, "bike_id": "0a920842da842283225db50b1c98f327", "rental_uris": {"android": "https://dc.lft.to/lastmile_qr_scan", "ios": "https://dc.lft.to/lastmile_qr_scan"}, "name": "0a920842da842283225db50b1c98f327", "is_reserved": 0}, {"is_disabled": 0, "fusion_lon": 0.0, "fusion_lat": 0.0, "lat": 38.956062333333335, "type": "electric_scooter", "lon": -77.027903, "bike_id": "89d817d42bd5a90f311ba6f890eb9f7b", "rental_uris": {"android": "https://dc.lft.to/lastmile_qr_scan", "ios": "https://dc.lft.to/lastmile_qr_scan"}, "name": "89d817d42bd5a90f311ba6f890eb9f7b", "is_reserved": 0}, {"is_disabled": 0, "fusion_lon": 0.0, "fusion_lat": 0.0, "lat": 38.9386535, "type": "electric_scooter", "lon": -77.02654533333333, "bike_id": "b43dad7432cbc73246dfe73330867904", "rental_uris": {"android": "https://dc.lft.to/lastmile_qr_scan", "ios": "https://dc.lft.to/lastmile_qr_scan"}, "name": "b43dad7432cbc73246dfe73330867904", "is_reserved": 0}, {"is_disabled": 0, "fusion_lon": 0.0, "fusion_lat": 0.0, "lat": 38.88738983333333, "type": "electric_scooter", "lon": -77.01533666666667, "bike_id": "753027194eaae635da4f73914bc27ddf", "rental_uris": {"android": "https://dc.lft.to/lastmile_qr_scan", "ios": "https://dc.lft.to/lastmile_qr_scan"}, "name": "753027194eaae635da4f73914bc27ddf", "is_reserved": 0}, {"is_disabled": 0, "fusion_lon": 0.0, "fusion_lat": 0.0, "lat": 39.0387885, "type": "electric_bike", "lon": -77.10910166666666, "bike_id": "6a8eac5bcb710bd1048cc18c48d7cb13", "rental_uris": {"android": "https://dc.lft.to/lastmile_qr_scan", "ios": "https://dc.lft.to/lastmile_qr_scan"}, "name": "6a8eac5bcb710bd1048cc18c48d7cb13", "is_reserved": 0}, {"is_disabled": 0, "fusion_lon": 0.0, "fusion_lat": 0.0, "lat": 38.95322433333333, "type": "electric_scooter", "lon": -77.06853316666667, "bike_id": "eaf31b1a1af651f6a1a9c0bcc709931c", "rental_uris": {"android": "https://dc.lft.to/lastmile_qr_scan", "ios": "https://dc.lft.to/lastmile_qr_scan"}, "name": "eaf31b1a1af651f6a1a9c0bcc709931c", "is_reserved": 0}, {"is_disabled": 0, "fusion_lon": 0.0, "fusion_lat": 0.0, "lat": 38.92217983333333, "type": "electric_scooter", "lon": -77.043347, "bike_id": "e0f927aef728c8bf376bb8299d86a0c1", "rental_uris": {"android": "https://dc.lft.to/lastmile_qr_scan", "ios": "https://dc.lft.to/lastmile_qr_scan"}, "name": "e0f927aef728c8bf376bb8299d86a0c1", "is_reserved": 0}, {"is_disabled": 0, "fusion_lon": 0.0, "fusion_lat": 0.0, "lat": 38.8921235, "type": "electric_bike", "lon": -76.98557583333333, "bike_id": "c653e64dcaf82a8a2a28873b23b15a3d", "rental_uris": {"android": "https://dc.lft.to/lastmile_qr_scan", "ios": "https://dc.lft.to/lastmile_qr_scan"}, "name": "c653e64dcaf82a8a2a28873b23b15a3d", "is_reserved": 0}, {"is_disabled": 0, "fusion_lon": 0.0, "fusion_lat": 0.0, "lat": 38.936417666666664, "type": "electric_bike", "lon": -76.95455966666667, "bike_id": "844a3657f05981def4ca41b10ebae02c", "rental_uris": {"android": "https://dc.lft.to/lastmile_qr_scan", "ios": "https://dc.lft.to/lastmile_qr_scan"}, "name": "844a3657f05981def4ca41b10ebae02c", "is_reserved": 0}, {"is_disabled": 0, "fusion_lon": 0.0, "fusion_lat": 0.0, "lat": 38.904552, "type": "electric_scooter", "lon": -77.0344695, "bike_id": "64ac0f3b7b172e928534264c9817fd11", "rental_uris": {"android": "https://dc.lft.to/lastmile_qr_scan", "ios": "https://dc.lft.to/lastmile_qr_scan"}, "name": "64ac0f3b7b172e928534264c9817fd11", "is_reserved": 0}, {"is_disabled": 0, "fusion_lon": 0.0, "fusion_lat": 0.0, "lat": 38.9140995, "type": "electric_scooter", "lon": -77.04497016666667, "bike_id": "2d519a4472e827390121f5b7f49392bc", "rental_uris": {"android": "https://dc.lft.to/lastmile_qr_scan", "ios": "https://dc.lft.to/lastmile_qr_scan"}, "name": "2d519a4472e827390121f5b7f49392bc", "is_reserved": 0}, {"is_disabled": 0, "fusion_lon": 0.0, "fusion_lat": 0.0, "lat": 38.923554, "type": "electric_scooter", "lon": -77.03228483333334, "bike_id": "b1a5f052e04cd3eaf0db54ef255a160d", "rental_uris": {"android": "https://dc.lft.to/lastmile_qr_scan", "ios": "https://dc.lft.to/lastmile_qr_scan"}, "name": "b1a5f052e04cd3eaf0db54ef255a160d", "is_reserved": 0}, {"is_disabled": 0, "fusion_lon": 0.0, "fusion_lat": 0.0, "lat": 38.90475133333333, "type": "electric_scooter", "lon": -77.03583266666666, "bike_id": "179a45a2e92f741ceab51f4a97db2b74", "rental_uris": {"android": "https://dc.lft.to/lastmile_qr_scan", "ios": "https://dc.lft.to/lastmile_qr_scan"}, "name": "179a45a2e92f741ceab51f4a97db2b74", "is_reserved": 0}, {"is_disabled": 0, "fusion_lon": 0.0, "fusion_lat": 0.0, "lat": 38.94577133333333, "type": "electric_bike", "lon": -76.987765, "bike_id": "754e4e3bf58fe7f1e31c7bfc7439ee02", "rental_uris": {"android": "https://dc.lft.to/lastmile_qr_scan", "ios": "https://dc.lft.to/lastmile_qr_scan"}, "name": "754e4e3bf58fe7f1e31c7bfc7439ee02", "is_reserved": 0}, {"is_disabled": 0, "fusion_lon": 0.0, "fusion_lat": 0.0, "lat": 38.90420683333333, "type": "electric_scooter", "lon": -77.02881, "bike_id": "162f6d01b0e4bce754371a135c9363d9", "rental_uris": {"android": "https://dc.lft.to/lastmile_qr_scan", "ios": "https://dc.lft.to/lastmile_qr_scan"}, "name": "162f6d01b0e4bce754371a135c9363d9", "is_reserved": 0}, {"is_disabled": 0, "fusion_lon": 0.0, "fusion_lat": 0.0, "lat": 38.930788666666665, "type": "electric_scooter", "lon": -77.03105883333333, "bike_id": "7b9c12773a69c364f71d1fc2b2dc6251", "rental_uris": {"android": "https://dc.lft.to/lastmile_qr_scan", "ios": "https://dc.lft.to/lastmile_qr_scan"}, "name": "7b9c12773a69c364f71d1fc2b2dc6251", "is_reserved": 0}, {"is_disabled": 0, "fusion_lon": 0.0, "fusion_lat": 0.0, "lat": 38.947543, "type": "electric_scooter", "lon": -77.01804133333333, "bike_id": "449df822c94cfadd12cb4cabba689c39", "rental_uris": {"android": "https://dc.lft.to/lastmile_qr_scan", "ios": "https://dc.lft.to/lastmile_qr_scan"}, "name": "449df822c94cfadd12cb4cabba689c39", "is_reserved": 0}, {"is_disabled": 0, "fusion_lon": 0.0, "fusion_lat": 0.0, "lat": 38.910439833333335, "type": "electric_scooter", "lon": -77.06451733333333, "bike_id": "dd6f690b3f4102ebf34f8ba1a39e6481", "rental_uris": {"android": "https://dc.lft.to/lastmile_qr_scan", "ios": "https://dc.lft.to/lastmile_qr_scan"}, "name": "dd6f690b3f4102ebf34f8ba1a39e6481", "is_reserved": 0}, {"is_disabled": 0, "fusion_lon": 0.0, "fusion_lat": 0.0, "lat": 38.90798066666667, "type": "electric_scooter", "lon": -77.0013935, "bike_id": "245513f836e3c584ba07e8de4b1db86e", "rental_uris": {"android": "https://dc.lft.to/lastmile_qr_scan", "ios": "https://dc.lft.to/lastmile_qr_scan"}, "name": "245513f836e3c584ba07e8de4b1db86e", "is_reserved": 0}, {"is_disabled": 0, "fusion_lon": 0.0, "fusion_lat": 0.0, "lat": 38.874015, "type": "electric_scooter", "lon": -77.00194516666667, "bike_id": "396efdad7e5a04804b16c1d5710077c4", "rental_uris": {"android": "https://dc.lft.to/lastmile_qr_scan", "ios": "https://dc.lft.to/lastmile_qr_scan"}, "name": "396efdad7e5a04804b16c1d5710077c4", "is_reserved": 0}, {"is_disabled": 0, "fusion_lon": 0.0, "fusion_lat": 0.0, "lat": 38.901414, "type": "electric_scooter", "lon": -77.04164883333333, "bike_id": "7f7bf0f494a5baf1213a5f5d6456c7f0", "rental_uris": {"android": "https://dc.lft.to/lastmile_qr_scan", "ios": "https://dc.lft.to/lastmile_qr_scan"}, "name": "7f7bf0f494a5baf1213a5f5d6456c7f0", "is_reserved": 0}, {"is_disabled": 0, "fusion_lon": 0.0, "fusion_lat": 0.0, "lat": 38.898314166666665, "type": "electric_scooter", "lon": -77.03372866666666, "bike_id": "cabed31a01515e4ec0b368530a330dc0", "rental_uris": {"android": "https://dc.lft.to/lastmile_qr_scan", "ios": "https://dc.lft.to/lastmile_qr_scan"}, "name": "cabed31a01515e4ec0b368530a330dc0", "is_reserved": 0}, {"is_disabled": 0, "fusion_lon": 0.0, "fusion_lat": 0.0, "lat": 38.88737533333333, "type": "electric_scooter", "lon": -77.03211583333334, "bike_id": "a66413ada6b3c5a9beee1d008e53a947", "rental_uris": {"android": "https://dc.lft.to/lastmile_qr_scan", "ios": "https://dc.lft.to/lastmile_qr_scan"}, "name": "a66413ada6b3c5a9beee1d008e53a947", "is_reserved": 0}, {"is_disabled": 0, "fusion_lon": 0.0, "fusion_lat": 0.0, "lat": 38.831202, "type": "electric_bike", "lon": -77.04322383333333, "bike_id": "8308aacd8705f47fdadd4c351bd1525c", "rental_uris": {"android": "https://dc.lft.to/lastmile_qr_scan", "ios": "https://dc.lft.to/lastmile_qr_scan"}, "name": "8308aacd8705f47fdadd4c351bd1525c", "is_reserved": 0}, {"is_disabled": 0, "fusion_lon": 0.0, "fusion_lat": 0.0, "lat": 38.89986183333333, "type": "electric_scooter", "lon": -77.0217755, "bike_id": "08404afdc3a4432669f5d8177dac681c", "rental_uris": {"android": "https://dc.lft.to/lastmile_qr_scan", "ios": "https://dc.lft.to/lastmile_qr_scan"}, "name": "08404afdc3a4432669f5d8177dac681c", "is_reserved": 0}, {"is_disabled": 0, "fusion_lon": 0.0, "fusion_lat": 0.0, "lat": 38.827271333333336, "type": "electric_bike", "lon": -77.0086655, "bike_id": "e961124a15794acada66c7bba23d0500", "rental_uris": {"android": "https://dc.lft.to/lastmile_qr_scan", "ios": "https://dc.lft.to/lastmile_qr_scan"}, "name": "e961124a15794acada66c7bba23d0500", "is_reserved": 0}, {"is_disabled": 0, "fusion_lon": 0.0, "fusion_lat": 0.0, "lat": 38.919669, "type": "electric_scooter", "lon": -77.041697, "bike_id": "7b5930a6b70a0e68319bf7837e670b51", "rental_uris": {"android": "https://dc.lft.to/lastmile_qr_scan", "ios": "https://dc.lft.to/lastmile_qr_scan"}, "name": "7b5930a6b70a0e68319bf7837e670b51", "is_reserved": 0}, {"is_disabled": 0, "fusion_lon": 0.0, "fusion_lat": 0.0, "lat": 38.902665166666665, "type": "electric_scooter", "lon": -77.0196715, "bike_id": "d57509152c1c6f50b815e507e8509c2c", "rental_uris": {"android": "https://dc.lft.to/lastmile_qr_scan", "ios": "https://dc.lft.to/lastmile_qr_scan"}, "name": "d57509152c1c6f50b815e507e8509c2c", "is_reserved": 0}, {"is_disabled": 0, "fusion_lon": 0.0, "fusion_lat": 0.0, "lat": 38.90146633333333, "type": "electric_scooter", "lon": -77.04161516666667, "bike_id": "c9e01f6fa871fb0b8da353b1957e27fd", "rental_uris": {"android": "https://dc.lft.to/lastmile_qr_scan", "ios": "https://dc.lft.to/lastmile_qr_scan"}, "name": "c9e01f6fa871fb0b8da353b1957e27fd", "is_reserved": 0}, {"is_disabled": 0, "fusion_lon": 0.0, "fusion_lat": 0.0, "lat": 38.90577966666667, "type": "electric_scooter", "lon": -77.03368433333333, "bike_id": "bd31c6af19033f8a11b8d2ed637716b6", "rental_uris": {"android": "https://dc.lft.to/lastmile_qr_scan", "ios": "https://dc.lft.to/lastmile_qr_scan"}, "name": "bd31c6af19033f8a11b8d2ed637716b6", "is_reserved": 0}, {"is_disabled": 0, "fusion_lon": 0.0, "fusion_lat": 0.0, "lat": 38.888608166666664, "type": "electric_scooter", "lon": -76.97734766666667, "bike_id": "20997a65099d355ade02e5c0704e85c6", "rental_uris": {"android": "https://dc.lft.to/lastmile_qr_scan", "ios": "https://dc.lft.to/lastmile_qr_scan"}, "name": "20997a65099d355ade02e5c0704e85c6", "is_reserved": 0}, {"is_disabled": 0, "fusion_lon": 0.0, "fusion_lat": 0.0, "lat": 38.89500966666667, "type": "electric_scooter", "lon": -77.0219765, "bike_id": "87e9bf7e8d73f20dcbb6689d4f9d6223", "rental_uris": {"android": "https://dc.lft.to/lastmile_qr_scan", "ios": "https://dc.lft.to/lastmile_qr_scan"}, "name": "87e9bf7e8d73f20dcbb6689d4f9d6223", "is_reserved": 0}, {"is_disabled": 0, "fusion_lon": 0.0, "fusion_lat": 0.0, "lat": 38.941966666666666, "type": "electric_scooter", "lon": -77.0241285, "bike_id": "a18339fc5b60386f4d4288fe960ba20a", "rental_uris": {"android": "https://dc.lft.to/lastmile_qr_scan", "ios": "https://dc.lft.to/lastmile_qr_scan"}, "name": "a18339fc5b60386f4d4288fe960ba20a", "is_reserved": 0}, {"is_disabled": 0, "fusion_lon": 0.0, "fusion_lat": 0.0, "lat": 38.921103, "type": "electric_scooter", "lon": -77.03912366666667, "bike_id": "1e3d3bfc124d50e3fbfe261f6dcd324f", "rental_uris": {"android": "https://dc.lft.to/lastmile_qr_scan", "ios": "https://dc.lft.to/lastmile_qr_scan"}, "name": "1e3d3bfc124d50e3fbfe261f6dcd324f", "is_reserved": 0}, {"is_disabled": 0, "fusion_lon": 0.0, "fusion_lat": 0.0, "lat": 38.90627216666667, "type": "electric_scooter", "lon": -77.0342525, "bike_id": "6fab6fd5dec344ac168d8b0c37024034", "rental_uris": {"android": "https://dc.lft.to/lastmile_qr_scan", "ios": "https://dc.lft.to/lastmile_qr_scan"}, "name": "6fab6fd5dec344ac168d8b0c37024034", "is_reserved": 0}, {"is_disabled": 0, "fusion_lon": 0.0, "fusion_lat": 0.0, "lat": 38.892166, "type": "electric_scooter", "lon": -77.0264435, "bike_id": "3f8afd63fec3ba4359b8615a4760e8fb", "rental_uris": {"android": "https://dc.lft.to/lastmile_qr_scan", "ios": "https://dc.lft.to/lastmile_qr_scan"}, "name": "3f8afd63fec3ba4359b8615a4760e8fb", "is_reserved": 0}, {"is_disabled": 0, "fusion_lon": 0.0, "fusion_lat": 0.0, "lat": 38.9151405, "type": "electric_scooter", "lon": -77.01977733333334, "bike_id": "c985f019b5f57974dbd8e8de2851cb73", "rental_uris": {"android": "https://dc.lft.to/lastmile_qr_scan", "ios": "https://dc.lft.to/lastmile_qr_scan"}, "name": "c985f019b5f57974dbd8e8de2851cb73", "is_reserved": 0}, {"is_disabled": 0, "fusion_lon": 0.0, "fusion_lat": 0.0, "lat": 38.90537783333333, "type": "electric_scooter", "lon": -77.006953, "bike_id": "fad7d03f8fa4c6992481930c4e617136", "rental_uris": {"android": "https://dc.lft.to/lastmile_qr_scan", "ios": "https://dc.lft.to/lastmile_qr_scan"}, "name": "fad7d03f8fa4c6992481930c4e617136", "is_reserved": 0}, {"is_disabled": 0, "fusion_lon": 0.0, "fusion_lat": 0.0, "lat": 38.88600266666667, "type": "electric_bike", "lon": -77.00078283333333, "bike_id": "834f88f150c87f1a8e8c338ea2e7f14e", "rental_uris": {"android": "https://dc.lft.to/lastmile_qr_scan", "ios": "https://dc.lft.to/lastmile_qr_scan"}, "name": "834f88f150c87f1a8e8c338ea2e7f14e", "is_reserved": 0}, {"is_disabled": 0, "fusion_lon": 0.0, "fusion_lat": 0.0, "lat": 38.894948, "type": "electric_scooter", "lon": -77.0220205, "bike_id": "d083642dc375bd334f99ed86a9468289", "rental_uris": {"android": "https://dc.lft.to/lastmile_qr_scan", "ios": "https://dc.lft.to/lastmile_qr_scan"}, "name": "d083642dc375bd334f99ed86a9468289", "is_reserved": 0}, {"is_disabled": 0, "fusion_lon": 0.0, "fusion_lat": 0.0, "lat": 38.90533216666667, "type": "electric_scooter", "lon": -76.98789633333334, "bike_id": "2e8c276a1016db6687c5eb5b3d04f1a3", "rental_uris": {"android": "https://dc.lft.to/lastmile_qr_scan", "ios": "https://dc.lft.to/lastmile_qr_scan"}, "name": "2e8c276a1016db6687c5eb5b3d04f1a3", "is_reserved": 0}, {"is_disabled": 0, "fusion_lon": 0.0, "fusion_lat": 0.0, "lat": 38.910384666666666, "type": "electric_scooter", "lon": -77.04048416666667, "bike_id": "fb97e8bb27c25a70baca22637179d3b4", "rental_uris": {"android": "https://dc.lft.to/lastmile_qr_scan", "ios": "https://dc.lft.to/lastmile_qr_scan"}, "name": "fb97e8bb27c25a70baca22637179d3b4", "is_reserved": 0}, {"is_disabled": 0, "fusion_lon": 0.0, "fusion_lat": 0.0, "lat": 38.898748499999996, "type": "electric_scooter", "lon": -76.93186433333334, "bike_id": "972f002be35f3dd0c24422b050e829b2", "rental_uris": {"android": "https://dc.lft.to/lastmile_qr_scan", "ios": "https://dc.lft.to/lastmile_qr_scan"}, "name": "972f002be35f3dd0c24422b050e829b2", "is_reserved": 0}, {"is_disabled": 0, "fusion_lon": 0.0, "fusion_lat": 0.0, "lat": 38.905014333333334, "type": "electric_scooter", "lon": -76.98844983333333, "bike_id": "005b6429ba31931ab9690d03819f33ab", "rental_uris": {"android": "https://dc.lft.to/lastmile_qr_scan", "ios": "https://dc.lft.to/lastmile_qr_scan"}, "name": "005b6429ba31931ab9690d03819f33ab", "is_reserved": 0}, {"is_disabled": 0, "fusion_lon": 0.0, "fusion_lat": 0.0, "lat": 38.88761616666667, "type": "electric_scooter", "lon": -76.95675216666666, "bike_id": "5dc9355d20daf502beece21bb28aa954", "rental_uris": {"android": "https://dc.lft.to/lastmile_qr_scan", "ios": "https://dc.lft.to/lastmile_qr_scan"}, "name": "5dc9355d20daf502beece21bb28aa954", "is_reserved": 0}, {"is_disabled": 0, "fusion_lon": 0.0, "fusion_lat": 0.0, "lat": 38.89829866666667, "type": "electric_scooter", "lon": -77.03165933333334, "bike_id": "aaf523fc6f3a9491f878fc2b4381d4ff", "rental_uris": {"android": "https://dc.lft.to/lastmile_qr_scan", "ios": "https://dc.lft.to/lastmile_qr_scan"}, "name": "aaf523fc6f3a9491f878fc2b4381d4ff", "is_reserved": 0}, {"is_disabled": 0, "fusion_lon": 0.0, "fusion_lat": 0.0, "lat": 38.9261755, "type": "electric_scooter", "lon": -77.05702083333334, "bike_id": "878b0d27a0b9f53642e764ff79a41ca0", "rental_uris": {"android": "https://dc.lft.to/lastmile_qr_scan", "ios": "https://dc.lft.to/lastmile_qr_scan"}, "name": "878b0d27a0b9f53642e764ff79a41ca0", "is_reserved": 0}, {"is_disabled": 0, "fusion_lon": 0.0, "fusion_lat": 0.0, "lat": 38.936037666666664, "type": "electric_scooter", "lon": -77.05860783333334, "bike_id": "ab5e3f773611c2fc5509dd5a336df812", "rental_uris": {"android": "https://dc.lft.to/lastmile_qr_scan", "ios": "https://dc.lft.to/lastmile_qr_scan"}, "name": "ab5e3f773611c2fc5509dd5a336df812", "is_reserved": 0}, {"is_disabled": 0, "fusion_lon": 0.0, "fusion_lat": 0.0, "lat": 38.919334, "type": "electric_scooter", "lon": -77.08130733333333, "bike_id": "92b09e97c6f8509124b41c79c65d093a", "rental_uris": {"android": "https://dc.lft.to/lastmile_qr_scan", "ios": "https://dc.lft.to/lastmile_qr_scan"}, "name": "92b09e97c6f8509124b41c79c65d093a", "is_reserved": 0}, {"is_disabled": 0, "fusion_lon": 0.0, "fusion_lat": 0.0, "lat": 38.999329333333336, "type": "electric_bike", "lon": -77.00119966666666, "bike_id": "dda4de2edfafebd2745aef6aa665ea3f", "rental_uris": {"android": "https://dc.lft.to/lastmile_qr_scan", "ios": "https://dc.lft.to/lastmile_qr_scan"}, "name": "dda4de2edfafebd2745aef6aa665ea3f", "is_reserved": 0}, {"is_disabled": 0, "fusion_lon": 0.0, "fusion_lat": 0.0, "lat": 38.89900983333333, "type": "electric_scooter", "lon": -76.93360966666667, "bike_id": "cfdc133bb5487a9882fd97b72b5e5e47", "rental_uris": {"android": "https://dc.lft.to/lastmile_qr_scan", "ios": "https://dc.lft.to/lastmile_qr_scan"}, "name": "cfdc133bb5487a9882fd97b72b5e5e47", "is_reserved": 0}, {"is_disabled": 0, "fusion_lon": 0.0, "fusion_lat": 0.0, "lat": 39.095893, "type": "electric_bike", "lon": -77.14778883333334, "bike_id": "b7d2839726489ed68016612c6491b732", "rental_uris": {"android": "https://dc.lft.to/lastmile_qr_scan", "ios": "https://dc.lft.to/lastmile_qr_scan"}, "name": "b7d2839726489ed68016612c6491b732", "is_reserved": 0}, {"is_disabled": 0, "fusion_lon": 0.0, "fusion_lat": 0.0, "lat": 38.912277833333334, "type": "electric_scooter", "lon": -77.04781616666666, "bike_id": "d8ab51f67ec38af8807a9227959b40dc", "rental_uris": {"android": "https://dc.lft.to/lastmile_qr_scan", "ios": "https://dc.lft.to/lastmile_qr_scan"}, "name": "d8ab51f67ec38af8807a9227959b40dc", "is_reserved": 0}, {"is_disabled": 0, "fusion_lon": 0.0, "fusion_lat": 0.0, "lat": 38.860342, "type": "electric_scooter", "lon": -76.9967925, "bike_id": "426e2172fc2fb59b83b04371211d6a8a", "rental_uris": {"android": "https://dc.lft.to/lastmile_qr_scan", "ios": "https://dc.lft.to/lastmile_qr_scan"}, "name": "426e2172fc2fb59b83b04371211d6a8a", "is_reserved": 0}, {"is_disabled": 0, "fusion_lon": 0.0, "fusion_lat": 0.0, "lat": 38.8950115, "type": "electric_scooter", "lon": -76.948801, "bike_id": "55d943aebf4c6997dc11e577b473ae1e", "rental_uris": {"android": "https://dc.lft.to/lastmile_qr_scan", "ios": "https://dc.lft.to/lastmile_qr_scan"}, "name": "55d943aebf4c6997dc11e577b473ae1e", "is_reserved": 0}, {"is_disabled": 0, "fusion_lon": 0.0, "fusion_lat": 0.0, "lat": 38.900032833333334, "type": "electric_scooter", "lon": -77.03211033333334, "bike_id": "e295fdd331f15bdb1081055f0b434b8d", "rental_uris": {"android": "https://dc.lft.to/lastmile_qr_scan", "ios": "https://dc.lft.to/lastmile_qr_scan"}, "name": "e295fdd331f15bdb1081055f0b434b8d", "is_reserved": 0}, {"is_disabled": 0, "fusion_lon": 0.0, "fusion_lat": 0.0, "lat": 38.855249, "type": "electric_bike", "lon": -77.107095, "bike_id": "475acfe69627829eea34843ffbed241c", "rental_uris": {"android": "https://dc.lft.to/lastmile_qr_scan", "ios": "https://dc.lft.to/lastmile_qr_scan"}, "name": "475acfe69627829eea34843ffbed241c", "is_reserved": 0}, {"is_disabled": 0, "fusion_lon": 0.0, "fusion_lat": 0.0, "lat": 38.918543166666666, "type": "electric_bike", "lon": -76.9608795, "bike_id": "675bcf3a60d88baab97140d2fcc54377", "rental_uris": {"android": "https://dc.lft.to/lastmile_qr_scan", "ios": "https://dc.lft.to/lastmile_qr_scan"}, "name": "675bcf3a60d88baab97140d2fcc54377", "is_reserved": 0}, {"is_disabled": 0, "fusion_lon": 0.0, "fusion_lat": 0.0, "lat": 38.8750135, "type": "electric_scooter", "lon": -77.00116, "bike_id": "f7cfc643a6d7e956bc483d1352293694", "rental_uris": {"android": "https://dc.lft.to/lastmile_qr_scan", "ios": "https://dc.lft.to/lastmile_qr_scan"}, "name": "f7cfc643a6d7e956bc483d1352293694", "is_reserved": 0}, {"is_disabled": 0, "fusion_lon": 0.0, "fusion_lat": 0.0, "lat": 38.86845016666667, "type": "electric_bike", "lon": -77.09738766666666, "bike_id": "8ca2cb6735aeeb03bcab8d9782ac804f", "rental_uris": {"android": "https://dc.lft.to/lastmile_qr_scan", "ios": "https://dc.lft.to/lastmile_qr_scan"}, "name": "8ca2cb6735aeeb03bcab8d9782ac804f", "is_reserved": 0}, {"is_disabled": 0, "fusion_lon": 0.0, "fusion_lat": 0.0, "lat": 38.96306116666667, "type": "electric_bike", "lon": -77.05761683333333, "bike_id": "9a0ea5e709d157321fa2d23204c063e7", "rental_uris": {"android": "https://dc.lft.to/lastmile_qr_scan", "ios": "https://dc.lft.to/lastmile_qr_scan"}, "name": "9a0ea5e709d157321fa2d23204c063e7", "is_reserved": 0}, {"is_disabled": 0, "fusion_lon": 0.0, "fusion_lat": 0.0, "lat": 38.892256333333336, "type": "electric_scooter", "lon": -77.031933, "bike_id": "24f46192b5ac3f60d47127eb17c733b2", "rental_uris": {"android": "https://dc.lft.to/lastmile_qr_scan", "ios": "https://dc.lft.to/lastmile_qr_scan"}, "name": "24f46192b5ac3f60d47127eb17c733b2", "is_reserved": 0}, {"is_disabled": 0, "fusion_lon": 0.0, "fusion_lat": 0.0, "lat": 38.8691105, "type": "electric_scooter", "lon": -77.0137415, "bike_id": "f342da6b0ea60cbeb410bc14c9a01c30", "rental_uris": {"android": "https://dc.lft.to/lastmile_qr_scan", "ios": "https://dc.lft.to/lastmile_qr_scan"}, "name": "f342da6b0ea60cbeb410bc14c9a01c30", "is_reserved": 0}, {"is_disabled": 0, "fusion_lon": 0.0, "fusion_lat": 0.0, "lat": 38.90119333333333, "type": "electric_scooter", "lon": -77.03045666666667, "bike_id": "1b62315c49ac06d543e240c05c70d13a", "rental_uris": {"android": "https://dc.lft.to/lastmile_qr_scan", "ios": "https://dc.lft.to/lastmile_qr_scan"}, "name": "1b62315c49ac06d543e240c05c70d13a", "is_reserved": 0}, {"is_disabled": 0, "fusion_lon": 0.0, "fusion_lat": 0.0, "lat": 38.92247483333333, "type": "electric_scooter", "lon": -77.03075733333333, "bike_id": "7a8b8bc9a2103f459e1270dd7e889206", "rental_uris": {"android": "https://dc.lft.to/lastmile_qr_scan", "ios": "https://dc.lft.to/lastmile_qr_scan"}, "name": "7a8b8bc9a2103f459e1270dd7e889206", "is_reserved": 0}, {"is_disabled": 0, "fusion_lon": 0.0, "fusion_lat": 0.0, "lat": 38.88248016666667, "type": "electric_scooter", "lon": -77.00346833333333, "bike_id": "530a60372edb264adc96021f1eec94e4", "rental_uris": {"android": "https://dc.lft.to/lastmile_qr_scan", "ios": "https://dc.lft.to/lastmile_qr_scan"}, "name": "530a60372edb264adc96021f1eec94e4", "is_reserved": 0}, {"is_disabled": 0, "fusion_lon": 0.0, "fusion_lat": 0.0, "lat": 38.94547266666667, "type": "electric_scooter", "lon": -77.0424125, "bike_id": "45eb871bf25df2b0ebae841ed303fd12", "rental_uris": {"android": "https://dc.lft.to/lastmile_qr_scan", "ios": "https://dc.lft.to/lastmile_qr_scan"}, "name": "45eb871bf25df2b0ebae841ed303fd12", "is_reserved": 0}, {"is_disabled": 0, "fusion_lon": 0.0, "fusion_lat": 0.0, "lat": 38.833464166666666, "type": "electric_bike", "lon": -76.96553933333334, "bike_id": "1f65383e17d4d252fdb0bf36342f4222", "rental_uris": {"android": "https://dc.lft.to/lastmile_qr_scan", "ios": "https://dc.lft.to/lastmile_qr_scan"}, "name": "1f65383e17d4d252fdb0bf36342f4222", "is_reserved": 0}, {"is_disabled": 0, "fusion_lon": 0.0, "fusion_lat": 0.0, "lat": 38.95059116666667, "type": "electric_bike", "lon": -76.9673605, "bike_id": "73136f2d44a50764ac78c5365a3c0dc3", "rental_uris": {"android": "https://dc.lft.to/lastmile_qr_scan", "ios": "https://dc.lft.to/lastmile_qr_scan"}, "name": "73136f2d44a50764ac78c5365a3c0dc3", "is_reserved": 0}, {"is_disabled": 0, "fusion_lon": 0.0, "fusion_lat": 0.0, "lat": 38.904759, "type": "electric_scooter", "lon": -77.03814766666666, "bike_id": "a929ceb09971642ee5f10a19fa851d41", "rental_uris": {"android": "https://dc.lft.to/lastmile_qr_scan", "ios": "https://dc.lft.to/lastmile_qr_scan"}, "name": "a929ceb09971642ee5f10a19fa851d41", "is_reserved": 0}, {"is_disabled": 0, "fusion_lon": 0.0, "fusion_lat": 0.0, "lat": 38.885284166666665, "type": "electric_scooter", "lon": -76.998002, "bike_id": "8701eacd928416ca35f7f91b621abb01", "rental_uris": {"android": "https://dc.lft.to/lastmile_qr_scan", "ios": "https://dc.lft.to/lastmile_qr_scan"}, "name": "8701eacd928416ca35f7f91b621abb01", "is_reserved": 0}, {"is_disabled": 0, "fusion_lon": 0.0, "fusion_lat": 0.0, "lat": 38.8972885, "type": "electric_scooter", "lon": -77.024963, "bike_id": "87016701c39d7a41830660c37d93953e", "rental_uris": {"android": "https://dc.lft.to/lastmile_qr_scan", "ios": "https://dc.lft.to/lastmile_qr_scan"}, "name": "87016701c39d7a41830660c37d93953e", "is_reserved": 0}, {"is_disabled": 0, "fusion_lon": 0.0, "fusion_lat": 0.0, "lat": 38.89877083333333, "type": "electric_scooter", "lon": -76.93182333333333, "bike_id": "340e94dc7d804b36c52a949c1e374902", "rental_uris": {"android": "https://dc.lft.to/lastmile_qr_scan", "ios": "https://dc.lft.to/lastmile_qr_scan"}, "name": "340e94dc7d804b36c52a949c1e374902", "is_reserved": 0}, {"is_disabled": 0, "fusion_lon": 0.0, "fusion_lat": 0.0, "lat": 38.90961266666667, "type": "electric_scooter", "lon": -77.0477095, "bike_id": "241aaa10ee6f250b211efdca7c4732b9", "rental_uris": {"android": "https://dc.lft.to/lastmile_qr_scan", "ios": "https://dc.lft.to/lastmile_qr_scan"}, "name": "241aaa10ee6f250b211efdca7c4732b9", "is_reserved": 0}, {"is_disabled": 0, "fusion_lon": 0.0, "fusion_lat": 0.0, "lat": 38.906986833333335, "type": "electric_scooter", "lon": -77.06321966666667, "bike_id": "73627228989e440a1f8365fac6f6d6f3", "rental_uris": {"android": "https://dc.lft.to/lastmile_qr_scan", "ios": "https://dc.lft.to/lastmile_qr_scan"}, "name": "73627228989e440a1f8365fac6f6d6f3", "is_reserved": 0}, {"is_disabled": 0, "fusion_lon": 0.0, "fusion_lat": 0.0, "lat": 38.92327216666666, "type": "electric_scooter", "lon": -77.03613916666667, "bike_id": "d01ef2e049c1a1567eb891907f75a00d", "rental_uris": {"android": "https://dc.lft.to/lastmile_qr_scan", "ios": "https://dc.lft.to/lastmile_qr_scan"}, "name": "d01ef2e049c1a1567eb891907f75a00d", "is_reserved": 0}, {"is_disabled": 0, "fusion_lon": 0.0, "fusion_lat": 0.0, "lat": 38.925362166666666, "type": "electric_scooter", "lon": -77.03239016666667, "bike_id": "dc1e88e953d6c745d4e958aac9c58e1d", "rental_uris": {"android": "https://dc.lft.to/lastmile_qr_scan", "ios": "https://dc.lft.to/lastmile_qr_scan"}, "name": "dc1e88e953d6c745d4e958aac9c58e1d", "is_reserved": 0}, {"is_disabled": 0, "fusion_lon": 0.0, "fusion_lat": 0.0, "lat": 38.902816333333334, "type": "electric_scooter", "lon": -77.02430616666666, "bike_id": "ddf7113339ab78a76159c5cb2c2e5c46", "rental_uris": {"android": "https://dc.lft.to/lastmile_qr_scan", "ios": "https://dc.lft.to/lastmile_qr_scan"}, "name": "ddf7113339ab78a76159c5cb2c2e5c46", "is_reserved": 0}, {"is_disabled": 0, "fusion_lon": 0.0, "fusion_lat": 0.0, "lat": 38.893085166666665, "type": "electric_scooter", "lon": -77.02205566666666, "bike_id": "7dfd41b53242367a66a762e781fb3d9b", "rental_uris": {"android": "https://dc.lft.to/lastmile_qr_scan", "ios": "https://dc.lft.to/lastmile_qr_scan"}, "name": "7dfd41b53242367a66a762e781fb3d9b", "is_reserved": 0}, {"is_disabled": 0, "fusion_lon": 0.0, "fusion_lat": 0.0, "lat": 38.85875866666667, "type": "electric_scooter", "lon": -76.9903295, "bike_id": "aeb4d7c8429312fa6b3cf6e2fa824268", "rental_uris": {"android": "https://dc.lft.to/lastmile_qr_scan", "ios": "https://dc.lft.to/lastmile_qr_scan"}, "name": "aeb4d7c8429312fa6b3cf6e2fa824268", "is_reserved": 0}, {"is_disabled": 0, "fusion_lon": 0.0, "fusion_lat": 0.0, "lat": 38.915585, "type": "electric_scooter", "lon": -77.012019, "bike_id": "5bfecb385652fbc006bae6846aae33f8", "rental_uris": {"android": "https://dc.lft.to/lastmile_qr_scan", "ios": "https://dc.lft.to/lastmile_qr_scan"}, "name": "5bfecb385652fbc006bae6846aae33f8", "is_reserved": 0}, {"is_disabled": 0, "fusion_lon": 0.0, "fusion_lat": 0.0, "lat": 38.893698, "type": "electric_scooter", "lon": -76.9781395, "bike_id": "0c7351b7f1e32f3afa2ad4ff2c7a6b13", "rental_uris": {"android": "https://dc.lft.to/lastmile_qr_scan", "ios": "https://dc.lft.to/lastmile_qr_scan"}, "name": "0c7351b7f1e32f3afa2ad4ff2c7a6b13", "is_reserved": 0}, {"is_disabled": 0, "fusion_lon": 0.0, "fusion_lat": 0.0, "lat": 38.97825233333333, "type": "electric_bike", "lon": -76.92884316666667, "bike_id": "9a0bab6f9db4e64f4351e74d2b4e9110", "rental_uris": {"android": "https://dc.lft.to/lastmile_qr_scan", "ios": "https://dc.lft.to/lastmile_qr_scan"}, "name": "9a0bab6f9db4e64f4351e74d2b4e9110", "is_reserved": 0}, {"is_disabled": 0, "fusion_lon": 0.0, "fusion_lat": 0.0, "lat": 38.92014, "type": "electric_scooter", "lon": -77.03188433333334, "bike_id": "f232883ee0f09f6f4d82552b47bb2271", "rental_uris": {"android": "https://dc.lft.to/lastmile_qr_scan", "ios": "https://dc.lft.to/lastmile_qr_scan"}, "name": "f232883ee0f09f6f4d82552b47bb2271", "is_reserved": 0}, {"is_disabled": 0, "fusion_lon": 0.0, "fusion_lat": 0.0, "lat": 38.91537366666667, "type": "electric_scooter", "lon": -77.03208933333333, "bike_id": "e7719ebedfef950593c011012458f1b3", "rental_uris": {"android": "https://dc.lft.to/lastmile_qr_scan", "ios": "https://dc.lft.to/lastmile_qr_scan"}, "name": "e7719ebedfef950593c011012458f1b3", "is_reserved": 0}, {"is_disabled": 0, "fusion_lon": 0.0, "fusion_lat": 0.0, "lat": 38.89032733333333, "type": "electric_scooter", "lon": -76.937586, "bike_id": "1da37c842d25c3c87999004ec0b16297", "rental_uris": {"android": "https://dc.lft.to/lastmile_qr_scan", "ios": "https://dc.lft.to/lastmile_qr_scan"}, "name": "1da37c842d25c3c87999004ec0b16297", "is_reserved": 0}, {"is_disabled": 0, "fusion_lon": 0.0, "fusion_lat": 0.0, "lat": 38.98823383333333, "type": "electric_bike", "lon": -76.98756233333333, "bike_id": "eea8da29e81c6cf5ec5ead630960cf49", "rental_uris": {"android": "https://dc.lft.to/lastmile_qr_scan", "ios": "https://dc.lft.to/lastmile_qr_scan"}, "name": "eea8da29e81c6cf5ec5ead630960cf49", "is_reserved": 0}, {"is_disabled": 0, "fusion_lon": 0.0, "fusion_lat": 0.0, "lat": 38.952115666666664, "type": "electric_scooter", "lon": -77.0363145, "bike_id": "23f55a073e59dbddca2187f46817695a", "rental_uris": {"android": "https://dc.lft.to/lastmile_qr_scan", "ios": "https://dc.lft.to/lastmile_qr_scan"}, "name": "23f55a073e59dbddca2187f46817695a", "is_reserved": 0}, {"is_disabled": 0, "fusion_lon": 0.0, "fusion_lat": 0.0, "lat": 38.920315333333335, "type": "electric_scooter", "lon": -77.02583283333334, "bike_id": "282eab378dd310bc602b43899345c74a", "rental_uris": {"android": "https://dc.lft.to/lastmile_qr_scan", "ios": "https://dc.lft.to/lastmile_qr_scan"}, "name": "282eab378dd310bc602b43899345c74a", "is_reserved": 0}, {"is_disabled": 0, "fusion_lon": 0.0, "fusion_lat": 0.0, "lat": 38.89599716666667, "type": "electric_scooter", "lon": -77.02159466666667, "bike_id": "0852faec19dea0ab0c1ca43af7525466", "rental_uris": {"android": "https://dc.lft.to/lastmile_qr_scan", "ios": "https://dc.lft.to/lastmile_qr_scan"}, "name": "0852faec19dea0ab0c1ca43af7525466", "is_reserved": 0}, {"is_disabled": 0, "fusion_lon": 0.0, "fusion_lat": 0.0, "lat": 38.895260666666665, "type": "electric_scooter", "lon": -77.028369, "bike_id": "c4997940c44ba92e2813d2a87cae4c5d", "rental_uris": {"android": "https://dc.lft.to/lastmile_qr_scan", "ios": "https://dc.lft.to/lastmile_qr_scan"}, "name": "c4997940c44ba92e2813d2a87cae4c5d", "is_reserved": 0}, {"is_disabled": 0, "fusion_lon": 0.0, "fusion_lat": 0.0, "lat": 38.887216333333335, "type": "electric_scooter", "lon": -76.99632516666667, "bike_id": "9b1133b3c80041fd7937bd6e55f01b78", "rental_uris": {"android": "https://dc.lft.to/lastmile_qr_scan", "ios": "https://dc.lft.to/lastmile_qr_scan"}, "name": "9b1133b3c80041fd7937bd6e55f01b78", "is_reserved": 0}, {"is_disabled": 0, "fusion_lon": 0.0, "fusion_lat": 0.0, "lat": 38.885084666666664, "type": "electric_scooter", "lon": -76.99840916666666, "bike_id": "995b733efbe371d9928181cf597d6b55", "rental_uris": {"android": "https://dc.lft.to/lastmile_qr_scan", "ios": "https://dc.lft.to/lastmile_qr_scan"}, "name": "995b733efbe371d9928181cf597d6b55", "is_reserved": 0}, {"is_disabled": 0, "fusion_lon": 0.0, "fusion_lat": 0.0, "lat": 38.8935685, "type": "electric_scooter", "lon": -76.93989716666667, "bike_id": "c87fc4cc8ccf277889941a59946c64d6", "rental_uris": {"android": "https://dc.lft.to/lastmile_qr_scan", "ios": "https://dc.lft.to/lastmile_qr_scan"}, "name": "c87fc4cc8ccf277889941a59946c64d6", "is_reserved": 0}, {"is_disabled": 0, "fusion_lon": 0.0, "fusion_lat": 0.0, "lat": 38.9508825, "type": "electric_bike", "lon": -76.96557533333333, "bike_id": "1aa2267f5e72c03877a83bee98520940", "rental_uris": {"android": "https://dc.lft.to/lastmile_qr_scan", "ios": "https://dc.lft.to/lastmile_qr_scan"}, "name": "1aa2267f5e72c03877a83bee98520940", "is_reserved": 0}, {"is_disabled": 0, "fusion_lon": 0.0, "fusion_lat": 0.0, "lat": 38.903864, "type": "electric_scooter", "lon": -77.03435933333333, "bike_id": "5ad41cf78686aa0d7151b0c105723ae7", "rental_uris": {"android": "https://dc.lft.to/lastmile_qr_scan", "ios": "https://dc.lft.to/lastmile_qr_scan"}, "name": "5ad41cf78686aa0d7151b0c105723ae7", "is_reserved": 0}, {"is_disabled": 0, "fusion_lon": 0.0, "fusion_lat": 0.0, "lat": 38.908033833333334, "type": "electric_scooter", "lon": -77.04089683333333, "bike_id": "122c75eae6541e644fe65015bc2966c9", "rental_uris": {"android": "https://dc.lft.to/lastmile_qr_scan", "ios": "https://dc.lft.to/lastmile_qr_scan"}, "name": "122c75eae6541e644fe65015bc2966c9", "is_reserved": 0}, {"is_disabled": 0, "fusion_lon": 0.0, "fusion_lat": 0.0, "lat": 38.9031395, "type": "electric_scooter", "lon": -76.9825835, "bike_id": "50dd6d1c672f41556406142e843688aa", "rental_uris": {"android": "https://dc.lft.to/lastmile_qr_scan", "ios": "https://dc.lft.to/lastmile_qr_scan"}, "name": "50dd6d1c672f41556406142e843688aa", "is_reserved": 0}, {"is_disabled": 0, "fusion_lon": 0.0, "fusion_lat": 0.0, "lat": 38.912547833333335, "type": "electric_scooter", "lon": -77.00930266666667, "bike_id": "9c43906c2c2fbbe461ab9b60d68cecac", "rental_uris": {"android": "https://dc.lft.to/lastmile_qr_scan", "ios": "https://dc.lft.to/lastmile_qr_scan"}, "name": "9c43906c2c2fbbe461ab9b60d68cecac", "is_reserved": 0}, {"is_disabled": 0, "fusion_lon": 0.0, "fusion_lat": 0.0, "lat": 38.922322, "type": "electric_scooter", "lon": -77.04336733333334, "bike_id": "548c07834c15ebfdcc376b923ee1b486", "rental_uris": {"android": "https://dc.lft.to/lastmile_qr_scan", "ios": "https://dc.lft.to/lastmile_qr_scan"}, "name": "548c07834c15ebfdcc376b923ee1b486", "is_reserved": 0}, {"is_disabled": 0, "fusion_lon": 0.0, "fusion_lat": 0.0, "lat": 38.9163095, "type": "electric_scooter", "lon": -77.02292116666666, "bike_id": "18cb9af1a0514a4b9844c306fa9152ad", "rental_uris": {"android": "https://dc.lft.to/lastmile_qr_scan", "ios": "https://dc.lft.to/lastmile_qr_scan"}, "name": "18cb9af1a0514a4b9844c306fa9152ad", "is_reserved": 0}, {"is_disabled": 0, "fusion_lon": 0.0, "fusion_lat": 0.0, "lat": 38.916983333333334, "type": "electric_bike", "lon": -77.09565033333334, "bike_id": "4e13e5716064f458c2560cd81194a1cf", "rental_uris": {"android": "https://dc.lft.to/lastmile_qr_scan", "ios": "https://dc.lft.to/lastmile_qr_scan"}, "name": "4e13e5716064f458c2560cd81194a1cf", "is_reserved": 0}, {"is_disabled": 0, "fusion_lon": 0.0, "fusion_lat": 0.0, "lat": 38.90247866666667, "type": "electric_scooter", "lon": -77.02024883333333, "bike_id": "5db52c0eb3d4d9bc043471c2822ca6d6", "rental_uris": {"android": "https://dc.lft.to/lastmile_qr_scan", "ios": "https://dc.lft.to/lastmile_qr_scan"}, "name": "5db52c0eb3d4d9bc043471c2822ca6d6", "is_reserved": 0}, {"is_disabled": 0, "fusion_lon": 0.0, "fusion_lat": 0.0, "lat": 39.05263466666667, "type": "electric_bike", "lon": -77.043883, "bike_id": "01bc267203bbeb2f9cb69d51c7e89bc3", "rental_uris": {"android": "https://dc.lft.to/lastmile_qr_scan", "ios": "https://dc.lft.to/lastmile_qr_scan"}, "name": "01bc267203bbeb2f9cb69d51c7e89bc3", "is_reserved": 0}, {"is_disabled": 0, "fusion_lon": 0.0, "fusion_lat": 0.0, "lat": 38.948920333333334, "type": "electric_bike", "lon": -76.96367033333334, "bike_id": "34455b72bf187713332c2486a1056734", "rental_uris": {"android": "https://dc.lft.to/lastmile_qr_scan", "ios": "https://dc.lft.to/lastmile_qr_scan"}, "name": "34455b72bf187713332c2486a1056734", "is_reserved": 0}, {"is_disabled": 0, "fusion_lon": 0.0, "fusion_lat": 0.0, "lat": 38.90957816666667, "type": "electric_scooter", "lon": -77.03950216666667, "bike_id": "79dff524cc7e5938c5a3ff89cc6e1bb5", "rental_uris": {"android": "https://dc.lft.to/lastmile_qr_scan", "ios": "https://dc.lft.to/lastmile_qr_scan"}, "name": "79dff524cc7e5938c5a3ff89cc6e1bb5", "is_reserved": 0}, {"is_disabled": 0, "fusion_lon": 0.0, "fusion_lat": 0.0, "lat": 38.928092166666666, "type": "electric_scooter", "lon": -77.02344666666667, "bike_id": "bdefe2bcb962df08737a8b6ba13d8388", "rental_uris": {"android": "https://dc.lft.to/lastmile_qr_scan", "ios": "https://dc.lft.to/lastmile_qr_scan"}, "name": "bdefe2bcb962df08737a8b6ba13d8388", "is_reserved": 0}, {"is_disabled": 0, "fusion_lon": 0.0, "fusion_lat": 0.0, "lat": 38.91699883333333, "type": "electric_scooter", "lon": -77.00112933333334, "bike_id": "7083a529b7925ca37ca2268a5d575af3", "rental_uris": {"android": "https://dc.lft.to/lastmile_qr_scan", "ios": "https://dc.lft.to/lastmile_qr_scan"}, "name": "7083a529b7925ca37ca2268a5d575af3", "is_reserved": 0}, {"is_disabled": 0, "fusion_lon": 0.0, "fusion_lat": 0.0, "lat": 38.911819333333334, "type": "electric_scooter", "lon": -77.04139866666667, "bike_id": "1e016d35196963f3b276beac3adbc364", "rental_uris": {"android": "https://dc.lft.to/lastmile_qr_scan", "ios": "https://dc.lft.to/lastmile_qr_scan"}, "name": "1e016d35196963f3b276beac3adbc364", "is_reserved": 0}, {"is_disabled": 0, "fusion_lon": 0.0, "fusion_lat": 0.0, "lat": 38.838104666666666, "type": "electric_scooter", "lon": -77.00436, "bike_id": "fe8e2eaa32efc0456ae72f6a3fe8850a", "rental_uris": {"android": "https://dc.lft.to/lastmile_qr_scan", "ios": "https://dc.lft.to/lastmile_qr_scan"}, "name": "fe8e2eaa32efc0456ae72f6a3fe8850a", "is_reserved": 0}, {"is_disabled": 0, "fusion_lon": 0.0, "fusion_lat": 0.0, "lat": 38.897149166666665, "type": "electric_scooter", "lon": -77.007964, "bike_id": "5f20ca21a9a26407b8b2f3085bb14dcf", "rental_uris": {"android": "https://dc.lft.to/lastmile_qr_scan", "ios": "https://dc.lft.to/lastmile_qr_scan"}, "name": "5f20ca21a9a26407b8b2f3085bb14dcf", "is_reserved": 0}, {"is_disabled": 0, "fusion_lon": 0.0, "fusion_lat": 0.0, "lat": 38.937200833333335, "type": "electric_scooter", "lon": -77.02391416666667, "bike_id": "33a58bdb5c87bce7f9e79a3d4448312f", "rental_uris": {"android": "https://dc.lft.to/lastmile_qr_scan", "ios": "https://dc.lft.to/lastmile_qr_scan"}, "name": "33a58bdb5c87bce7f9e79a3d4448312f", "is_reserved": 0}, {"is_disabled": 0, "fusion_lon": 0.0, "fusion_lat": 0.0, "lat": 38.89873466666667, "type": "electric_scooter", "lon": -76.9318235, "bike_id": "dcac89b70894e02043b01ebe64fbaf6a", "rental_uris": {"android": "https://dc.lft.to/lastmile_qr_scan", "ios": "https://dc.lft.to/lastmile_qr_scan"}, "name": "dcac89b70894e02043b01ebe64fbaf6a", "is_reserved": 0}, {"is_disabled": 0, "fusion_lon": 0.0, "fusion_lat": 0.0, "lat": 38.937053166666665, "type": "electric_scooter", "lon": -77.06102216666666, "bike_id": "f1a00d3ca678cd11be12d7adb13334bc", "rental_uris": {"android": "https://dc.lft.to/lastmile_qr_scan", "ios": "https://dc.lft.to/lastmile_qr_scan"}, "name": "f1a00d3ca678cd11be12d7adb13334bc", "is_reserved": 0}, {"is_disabled": 0, "fusion_lon": 0.0, "fusion_lat": 0.0, "lat": 38.928109, "type": "electric_scooter", "lon": -77.023485, "bike_id": "822731f8952ff5d018ea26910c30b0fd", "rental_uris": {"android": "https://dc.lft.to/lastmile_qr_scan", "ios": "https://dc.lft.to/lastmile_qr_scan"}, "name": "822731f8952ff5d018ea26910c30b0fd", "is_reserved": 0}, {"is_disabled": 0, "fusion_lon": 0.0, "fusion_lat": 0.0, "lat": 38.90684816666667, "type": "electric_scooter", "lon": -77.07538766666667, "bike_id": "9d863fb8e066c8f40a302ef690284500", "rental_uris": {"android": "https://dc.lft.to/lastmile_qr_scan", "ios": "https://dc.lft.to/lastmile_qr_scan"}, "name": "9d863fb8e066c8f40a302ef690284500", "is_reserved": 0}, {"is_disabled": 0, "fusion_lon": 0.0, "fusion_lat": 0.0, "lat": 38.900062, "type": "electric_scooter", "lon": -77.03962933333334, "bike_id": "d0aea44d3b41841f17246bd4c45fb3ae", "rental_uris": {"android": "https://dc.lft.to/lastmile_qr_scan", "ios": "https://dc.lft.to/lastmile_qr_scan"}, "name": "d0aea44d3b41841f17246bd4c45fb3ae", "is_reserved": 0}, {"is_disabled": 0, "fusion_lon": 0.0, "fusion_lat": 0.0, "lat": 38.915943666666664, "type": "electric_scooter", "lon": -77.0212845, "bike_id": "b0c215dfb0e013af55886e1c3c44043c", "rental_uris": {"android": "https://dc.lft.to/lastmile_qr_scan", "ios": "https://dc.lft.to/lastmile_qr_scan"}, "name": "b0c215dfb0e013af55886e1c3c44043c", "is_reserved": 0}, {"is_disabled": 0, "fusion_lon": 0.0, "fusion_lat": 0.0, "lat": 38.944726, "type": "electric_bike", "lon": -77.00648583333333, "bike_id": "2ba8f2e03e656e8251ae143620f5a691", "rental_uris": {"android": "https://dc.lft.to/lastmile_qr_scan", "ios": "https://dc.lft.to/lastmile_qr_scan"}, "name": "2ba8f2e03e656e8251ae143620f5a691", "is_reserved": 0}, {"is_disabled": 0, "fusion_lon": 0.0, "fusion_lat": 0.0, "lat": 38.90826966666667, "type": "electric_scooter", "lon": -77.04334266666666, "bike_id": "1c9abbc5d99f68e83d9a705aa03573c0", "rental_uris": {"android": "https://dc.lft.to/lastmile_qr_scan", "ios": "https://dc.lft.to/lastmile_qr_scan"}, "name": "1c9abbc5d99f68e83d9a705aa03573c0", "is_reserved": 0}, {"is_disabled": 0, "fusion_lon": 0.0, "fusion_lat": 0.0, "lat": 38.924768, "type": "electric_scooter", "lon": -77.0372605, "bike_id": "94f95953c3afe3527ccda1f3adc02575", "rental_uris": {"android": "https://dc.lft.to/lastmile_qr_scan", "ios": "https://dc.lft.to/lastmile_qr_scan"}, "name": "94f95953c3afe3527ccda1f3adc02575", "is_reserved": 0}, {"is_disabled": 0, "fusion_lon": 0.0, "fusion_lat": 0.0, "lat": 38.88682983333333, "type": "electric_scooter", "lon": -76.9547855, "bike_id": "7d87aa154d9ebd074366da4d24aa8cad", "rental_uris": {"android": "https://dc.lft.to/lastmile_qr_scan", "ios": "https://dc.lft.to/lastmile_qr_scan"}, "name": "7d87aa154d9ebd074366da4d24aa8cad", "is_reserved": 0}, {"is_disabled": 0, "fusion_lon": 0.0, "fusion_lat": 0.0, "lat": 38.9455475, "type": "electric_bike", "lon": -77.0512705, "bike_id": "f79875a3314013c7d778ed2b7f9c6992", "rental_uris": {"android": "https://dc.lft.to/lastmile_qr_scan", "ios": "https://dc.lft.to/lastmile_qr_scan"}, "name": "f79875a3314013c7d778ed2b7f9c6992", "is_reserved": 0}, {"is_disabled": 0, "fusion_lon": 0.0, "fusion_lat": 0.0, "lat": 38.90521016666667, "type": "electric_scooter", "lon": -77.050348, "bike_id": "6a354113bf05b04cee15a2db7cff4f06", "rental_uris": {"android": "https://dc.lft.to/lastmile_qr_scan", "ios": "https://dc.lft.to/lastmile_qr_scan"}, "name": "6a354113bf05b04cee15a2db7cff4f06", "is_reserved": 0}, {"is_disabled": 0, "fusion_lon": 0.0, "fusion_lat": 0.0, "lat": 38.900185666666665, "type": "electric_scooter", "lon": -77.0524355, "bike_id": "dbd6e393f69a4f0c2191f0cdc6bd186b", "rental_uris": {"android": "https://dc.lft.to/lastmile_qr_scan", "ios": "https://dc.lft.to/lastmile_qr_scan"}, "name": "dbd6e393f69a4f0c2191f0cdc6bd186b", "is_reserved": 0}, {"is_disabled": 0, "fusion_lon": 0.0, "fusion_lat": 0.0, "lat": 38.912183666666664, "type": "electric_scooter", "lon": -77.031833, "bike_id": "59fe6fcd668a0efbbf7561e9f57b6c71", "rental_uris": {"android": "https://dc.lft.to/lastmile_qr_scan", "ios": "https://dc.lft.to/lastmile_qr_scan"}, "name": "59fe6fcd668a0efbbf7561e9f57b6c71", "is_reserved": 0}, {"is_disabled": 0, "fusion_lon": 0.0, "fusion_lat": 0.0, "lat": 38.92265183333333, "type": "electric_scooter", "lon": -77.034029, "bike_id": "151548cc387f793cbcaf3a99231bae23", "rental_uris": {"android": "https://dc.lft.to/lastmile_qr_scan", "ios": "https://dc.lft.to/lastmile_qr_scan"}, "name": "151548cc387f793cbcaf3a99231bae23", "is_reserved": 0}, {"is_disabled": 0, "fusion_lon": 0.0, "fusion_lat": 0.0, "lat": 38.91951616666667, "type": "electric_scooter", "lon": -77.013928, "bike_id": "3e1cb418b900aa3149ac46c7496829ee", "rental_uris": {"android": "https://dc.lft.to/lastmile_qr_scan", "ios": "https://dc.lft.to/lastmile_qr_scan"}, "name": "3e1cb418b900aa3149ac46c7496829ee", "is_reserved": 0}, {"is_disabled": 0, "fusion_lon": 0.0, "fusion_lat": 0.0, "lat": 38.91702816666667, "type": "electric_scooter", "lon": -77.02884533333334, "bike_id": "ecc8fc8251045b9e7ef1716d576bbae9", "rental_uris": {"android": "https://dc.lft.to/lastmile_qr_scan", "ios": "https://dc.lft.to/lastmile_qr_scan"}, "name": "ecc8fc8251045b9e7ef1716d576bbae9", "is_reserved": 0}, {"is_disabled": 0, "fusion_lon": 0.0, "fusion_lat": 0.0, "lat": 38.93596566666667, "type": "electric_scooter", "lon": -77.056, "bike_id": "74345ef6a5ae714a1552f6c476afcaa2", "rental_uris": {"android": "https://dc.lft.to/lastmile_qr_scan", "ios": "https://dc.lft.to/lastmile_qr_scan"}, "name": "74345ef6a5ae714a1552f6c476afcaa2", "is_reserved": 0}, {"is_disabled": 0, "fusion_lon": 0.0, "fusion_lat": 0.0, "lat": 38.920314833333336, "type": "electric_scooter", "lon": -77.01906633333333, "bike_id": "8c3d0f083aecea61a5fb651d569edef3", "rental_uris": {"android": "https://dc.lft.to/lastmile_qr_scan", "ios": "https://dc.lft.to/lastmile_qr_scan"}, "name": "8c3d0f083aecea61a5fb651d569edef3", "is_reserved": 0}, {"is_disabled": 0, "fusion_lon": 0.0, "fusion_lat": 0.0, "lat": 38.934810666666664, "type": "electric_scooter", "lon": -77.0241295, "bike_id": "eca37d31c1b8acbc99eb6756b65dd54f", "rental_uris": {"android": "https://dc.lft.to/lastmile_qr_scan", "ios": "https://dc.lft.to/lastmile_qr_scan"}, "name": "eca37d31c1b8acbc99eb6756b65dd54f", "is_reserved": 0}, {"is_disabled": 0, "fusion_lon": 0.0, "fusion_lat": 0.0, "lat": 38.8874095, "type": "electric_scooter", "lon": -77.015331, "bike_id": "1e3280f6c5a79ab87133b5aa3abace1c", "rental_uris": {"android": "https://dc.lft.to/lastmile_qr_scan", "ios": "https://dc.lft.to/lastmile_qr_scan"}, "name": "1e3280f6c5a79ab87133b5aa3abace1c", "is_reserved": 0}, {"is_disabled": 0, "fusion_lon": 0.0, "fusion_lat": 0.0, "lat": 38.802956333333334, "type": "electric_bike", "lon": -77.0398495, "bike_id": "c95dc784d887ad3b10b30772fcc37c03", "rental_uris": {"android": "https://dc.lft.to/lastmile_qr_scan", "ios": "https://dc.lft.to/lastmile_qr_scan"}, "name": "c95dc784d887ad3b10b30772fcc37c03", "is_reserved": 0}, {"is_disabled": 0, "fusion_lon": 0.0, "fusion_lat": 0.0, "lat": 38.917913, "type": "electric_scooter", "lon": -77.034363, "bike_id": "b7ad934091170eb74a84460ba792fc6c", "rental_uris": {"android": "https://dc.lft.to/lastmile_qr_scan", "ios": "https://dc.lft.to/lastmile_qr_scan"}, "name": "b7ad934091170eb74a84460ba792fc6c", "is_reserved": 0}, {"is_disabled": 0, "fusion_lon": 0.0, "fusion_lat": 0.0, "lat": 38.89719683333333, "type": "electric_scooter", "lon": -77.0100875, "bike_id": "fd5f03fe6722a0332b9ed49ebceef83f", "rental_uris": {"android": "https://dc.lft.to/lastmile_qr_scan", "ios": "https://dc.lft.to/lastmile_qr_scan"}, "name": "fd5f03fe6722a0332b9ed49ebceef83f", "is_reserved": 0}, {"is_disabled": 0, "fusion_lon": 0.0, "fusion_lat": 0.0, "lat": 38.972592166666665, "type": "electric_bike", "lon": -76.991683, "bike_id": "918a7432f72e2b6ade41b50643ef8fad", "rental_uris": {"android": "https://dc.lft.to/lastmile_qr_scan", "ios": "https://dc.lft.to/lastmile_qr_scan"}, "name": "918a7432f72e2b6ade41b50643ef8fad", "is_reserved": 0}, {"is_disabled": 0, "fusion_lon": 0.0, "fusion_lat": 0.0, "lat": 38.93223233333333, "type": "electric_scooter", "lon": -76.99479966666667, "bike_id": "19addbc499e15d4594e8b7f1dabc2e0b", "rental_uris": {"android": "https://dc.lft.to/lastmile_qr_scan", "ios": "https://dc.lft.to/lastmile_qr_scan"}, "name": "19addbc499e15d4594e8b7f1dabc2e0b", "is_reserved": 0}, {"is_disabled": 0, "fusion_lon": 0.0, "fusion_lat": 0.0, "lat": 38.90396033333333, "type": "electric_scooter", "lon": -77.04056333333334, "bike_id": "2f6b1c5bb0071284f0a56c2d31554493", "rental_uris": {"android": "https://dc.lft.to/lastmile_qr_scan", "ios": "https://dc.lft.to/lastmile_qr_scan"}, "name": "2f6b1c5bb0071284f0a56c2d31554493", "is_reserved": 0}, {"is_disabled": 0, "fusion_lon": 0.0, "fusion_lat": 0.0, "lat": 38.90512283333333, "type": "electric_scooter", "lon": -77.0455485, "bike_id": "025f7e826f03b3b8871d8fc1c100cb37", "rental_uris": {"android": "https://dc.lft.to/lastmile_qr_scan", "ios": "https://dc.lft.to/lastmile_qr_scan"}, "name": "025f7e826f03b3b8871d8fc1c100cb37", "is_reserved": 0}, {"is_disabled": 0, "fusion_lon": 0.0, "fusion_lat": 0.0, "lat": 38.839330333333336, "type": "electric_bike", "lon": -77.07897866666667, "bike_id": "d4a01e52f4bcab7d05857e9216e93765", "rental_uris": {"android": "https://dc.lft.to/lastmile_qr_scan", "ios": "https://dc.lft.to/lastmile_qr_scan"}, "name": "d4a01e52f4bcab7d05857e9216e93765", "is_reserved": 0}, {"is_disabled": 0, "fusion_lon": 0.0, "fusion_lat": 0.0, "lat": 38.812727333333335, "type": "electric_bike", "lon": -77.06172666666667, "bike_id": "78ad2bcc045b78d4072d2f9f590a3937", "rental_uris": {"android": "https://dc.lft.to/lastmile_qr_scan", "ios": "https://dc.lft.to/lastmile_qr_scan"}, "name": "78ad2bcc045b78d4072d2f9f590a3937", "is_reserved": 0}, {"is_disabled": 0, "fusion_lon": 0.0, "fusion_lat": 0.0, "lat": 38.917593833333335, "type": "electric_scooter", "lon": -77.02813783333333, "bike_id": "9e550e646647940613a72d1c577e1b6e", "rental_uris": {"android": "https://dc.lft.to/lastmile_qr_scan", "ios": "https://dc.lft.to/lastmile_qr_scan"}, "name": "9e550e646647940613a72d1c577e1b6e", "is_reserved": 0}, {"is_disabled": 0, "fusion_lon": 0.0, "fusion_lat": 0.0, "lat": 38.934657333333334, "type": "electric_scooter", "lon": -77.0687405, "bike_id": "91fe98b9e49f5bfdf1d651b0bd29e111", "rental_uris": {"android": "https://dc.lft.to/lastmile_qr_scan", "ios": "https://dc.lft.to/lastmile_qr_scan"}, "name": "91fe98b9e49f5bfdf1d651b0bd29e111", "is_reserved": 0}, {"is_disabled": 0, "fusion_lon": 0.0, "fusion_lat": 0.0, "lat": 38.918011666666665, "type": "electric_scooter", "lon": -77.04033816666667, "bike_id": "6c170bab3c79a29d2a4e671399258797", "rental_uris": {"android": "https://dc.lft.to/lastmile_qr_scan", "ios": "https://dc.lft.to/lastmile_qr_scan"}, "name": "6c170bab3c79a29d2a4e671399258797", "is_reserved": 0}, {"is_disabled": 0, "fusion_lon": 0.0, "fusion_lat": 0.0, "lat": 38.93333166666667, "type": "electric_bike", "lon": -77.04213166666666, "bike_id": "0f627481a7eaeeeb0295d6ba1ab8391a", "rental_uris": {"android": "https://dc.lft.to/lastmile_qr_scan", "ios": "https://dc.lft.to/lastmile_qr_scan"}, "name": "0f627481a7eaeeeb0295d6ba1ab8391a", "is_reserved": 0}, {"is_disabled": 0, "fusion_lon": 0.0, "fusion_lat": 0.0, "lat": 38.92687816666667, "type": "electric_scooter", "lon": -77.03776383333333, "bike_id": "df849a0e7d384276513dae1363baefd8", "rental_uris": {"android": "https://dc.lft.to/lastmile_qr_scan", "ios": "https://dc.lft.to/lastmile_qr_scan"}, "name": "df849a0e7d384276513dae1363baefd8", "is_reserved": 0}, {"is_disabled": 0, "fusion_lon": 0.0, "fusion_lat": 0.0, "lat": 38.946192833333335, "type": "electric_scooter", "lon": -77.03624916666666, "bike_id": "7c9e6aa9da95258e68522fd648584eaf", "rental_uris": {"android": "https://dc.lft.to/lastmile_qr_scan", "ios": "https://dc.lft.to/lastmile_qr_scan"}, "name": "7c9e6aa9da95258e68522fd648584eaf", "is_reserved": 0}, {"is_disabled": 0, "fusion_lon": 0.0, "fusion_lat": 0.0, "lat": 38.90719966666666, "type": "electric_scooter", "lon": -77.01308366666666, "bike_id": "34e79a6c002e28cc1b27e25dce2433d1", "rental_uris": {"android": "https://dc.lft.to/lastmile_qr_scan", "ios": "https://dc.lft.to/lastmile_qr_scan"}, "name": "34e79a6c002e28cc1b27e25dce2433d1", "is_reserved": 0}, {"is_disabled": 0, "fusion_lon": 0.0, "fusion_lat": 0.0, "lat": 38.91267233333333, "type": "electric_scooter", "lon": -77.033668, "bike_id": "78e7986671e65c65381400c5181bc599", "rental_uris": {"android": "https://dc.lft.to/lastmile_qr_scan", "ios": "https://dc.lft.to/lastmile_qr_scan"}, "name": "78e7986671e65c65381400c5181bc599", "is_reserved": 0}, {"is_disabled": 0, "fusion_lon": 0.0, "fusion_lat": 0.0, "lat": 38.86910983333333, "type": "electric_scooter", "lon": -77.01372666666667, "bike_id": "0e28afd48337089a7919dd6bf612f56d", "rental_uris": {"android": "https://dc.lft.to/lastmile_qr_scan", "ios": "https://dc.lft.to/lastmile_qr_scan"}, "name": "0e28afd48337089a7919dd6bf612f56d", "is_reserved": 0}, {"is_disabled": 0, "fusion_lon": 0.0, "fusion_lat": 0.0, "lat": 38.920092, "type": "electric_scooter", "lon": -77.03139233333333, "bike_id": "a37e14b14224875794c4963502255017", "rental_uris": {"android": "https://dc.lft.to/lastmile_qr_scan", "ios": "https://dc.lft.to/lastmile_qr_scan"}, "name": "a37e14b14224875794c4963502255017", "is_reserved": 0}, {"is_disabled": 0, "fusion_lon": 0.0, "fusion_lat": 0.0, "lat": 38.92965733333333, "type": "electric_scooter", "lon": -77.04203133333333, "bike_id": "6cf2c78b1850a55573f9fb60145b8226", "rental_uris": {"android": "https://dc.lft.to/lastmile_qr_scan", "ios": "https://dc.lft.to/lastmile_qr_scan"}, "name": "6cf2c78b1850a55573f9fb60145b8226", "is_reserved": 0}, {"is_disabled": 0, "fusion_lon": 0.0, "fusion_lat": 0.0, "lat": 38.916571166666664, "type": "electric_scooter", "lon": -77.04375783333333, "bike_id": "fee9779d35604535e6fee4647de8de2d", "rental_uris": {"android": "https://dc.lft.to/lastmile_qr_scan", "ios": "https://dc.lft.to/lastmile_qr_scan"}, "name": "fee9779d35604535e6fee4647de8de2d", "is_reserved": 0}, {"is_disabled": 0, "fusion_lon": 0.0, "fusion_lat": 0.0, "lat": 38.918702333333336, "type": "electric_bike", "lon": -76.96125583333334, "bike_id": "e555e1658ff1ae48eab2fe200c19e956", "rental_uris": {"android": "https://dc.lft.to/lastmile_qr_scan", "ios": "https://dc.lft.to/lastmile_qr_scan"}, "name": "e555e1658ff1ae48eab2fe200c19e956", "is_reserved": 0}, {"is_disabled": 0, "fusion_lon": 0.0, "fusion_lat": 0.0, "lat": 38.91561866666667, "type": "electric_scooter", "lon": -77.03275933333333, "bike_id": "b834efbeabd77be6234bc9e14175d751", "rental_uris": {"android": "https://dc.lft.to/lastmile_qr_scan", "ios": "https://dc.lft.to/lastmile_qr_scan"}, "name": "b834efbeabd77be6234bc9e14175d751", "is_reserved": 0}, {"is_disabled": 0, "fusion_lon": 0.0, "fusion_lat": 0.0, "lat": 38.896134833333335, "type": "electric_scooter", "lon": -76.99639366666666, "bike_id": "005ee04bca522e48fad946eb064cc34f", "rental_uris": {"android": "https://dc.lft.to/lastmile_qr_scan", "ios": "https://dc.lft.to/lastmile_qr_scan"}, "name": "005ee04bca522e48fad946eb064cc34f", "is_reserved": 0}, {"is_disabled": 0, "fusion_lon": 0.0, "fusion_lat": 0.0, "lat": 38.912561, "type": "electric_scooter", "lon": -77.03269133333333, "bike_id": "ebd15c96c3d328466e299e65b5db314b", "rental_uris": {"android": "https://dc.lft.to/lastmile_qr_scan", "ios": "https://dc.lft.to/lastmile_qr_scan"}, "name": "ebd15c96c3d328466e299e65b5db314b", "is_reserved": 0}, {"is_disabled": 0, "fusion_lon": 0.0, "fusion_lat": 0.0, "lat": 38.93190233333333, "type": "electric_scooter", "lon": -77.028338, "bike_id": "8ec303740fb5972ca54b3aaa650a5e5f", "rental_uris": {"android": "https://dc.lft.to/lastmile_qr_scan", "ios": "https://dc.lft.to/lastmile_qr_scan"}, "name": "8ec303740fb5972ca54b3aaa650a5e5f", "is_reserved": 0}, {"is_disabled": 0, "fusion_lon": 0.0, "fusion_lat": 0.0, "lat": 38.901802333333336, "type": "electric_scooter", "lon": -76.9282675, "bike_id": "21c3598789ae671ff64dd90efe46f173", "rental_uris": {"android": "https://dc.lft.to/lastmile_qr_scan", "ios": "https://dc.lft.to/lastmile_qr_scan"}, "name": "21c3598789ae671ff64dd90efe46f173", "is_reserved": 0}, {"is_disabled": 0, "fusion_lon": 0.0, "fusion_lat": 0.0, "lat": 38.9108885, "type": "electric_scooter", "lon": -77.03852233333333, "bike_id": "c75a80cf22cbedc4609ee422a4912784", "rental_uris": {"android": "https://dc.lft.to/lastmile_qr_scan", "ios": "https://dc.lft.to/lastmile_qr_scan"}, "name": "c75a80cf22cbedc4609ee422a4912784", "is_reserved": 0}, {"is_disabled": 0, "fusion_lon": 0.0, "fusion_lat": 0.0, "lat": 38.947896, "type": "electric_scooter", "lon": -77.092768, "bike_id": "63fa6ab25268534affdd9c5322f06c18", "rental_uris": {"android": "https://dc.lft.to/lastmile_qr_scan", "ios": "https://dc.lft.to/lastmile_qr_scan"}, "name": "63fa6ab25268534affdd9c5322f06c18", "is_reserved": 0}, {"is_disabled": 0, "fusion_lon": 0.0, "fusion_lat": 0.0, "lat": 38.865723833333334, "type": "electric_scooter", "lon": -76.9904055, "bike_id": "eebc4e13d11b9428fefc167fe6bacfdd", "rental_uris": {"android": "https://dc.lft.to/lastmile_qr_scan", "ios": "https://dc.lft.to/lastmile_qr_scan"}, "name": "eebc4e13d11b9428fefc167fe6bacfdd", "is_reserved": 0}, {"is_disabled": 0, "fusion_lon": 0.0, "fusion_lat": 0.0, "lat": 38.90524833333333, "type": "electric_scooter", "lon": -77.02986316666667, "bike_id": "03a5be8cc5e7881cc81129018ec27c8e", "rental_uris": {"android": "https://dc.lft.to/lastmile_qr_scan", "ios": "https://dc.lft.to/lastmile_qr_scan"}, "name": "03a5be8cc5e7881cc81129018ec27c8e", "is_reserved": 0}, {"is_disabled": 0, "fusion_lon": 0.0, "fusion_lat": 0.0, "lat": 38.89988533333333, "type": "electric_scooter", "lon": -76.99734133333334, "bike_id": "0d109d16af09a3d7212e22bc2eff9b24", "rental_uris": {"android": "https://dc.lft.to/lastmile_qr_scan", "ios": "https://dc.lft.to/lastmile_qr_scan"}, "name": "0d109d16af09a3d7212e22bc2eff9b24", "is_reserved": 0}, {"is_disabled": 0, "fusion_lon": 0.0, "fusion_lat": 0.0, "lat": 38.87672633333333, "type": "electric_bike", "lon": -77.01437966666667, "bike_id": "7dcc406ad359c60106291e0448a9625d", "rental_uris": {"android": "https://dc.lft.to/lastmile_qr_scan", "ios": "https://dc.lft.to/lastmile_qr_scan"}, "name": "7dcc406ad359c60106291e0448a9625d", "is_reserved": 0}, {"is_disabled": 0, "fusion_lon": 0.0, "fusion_lat": 0.0, "lat": 39.058105833333336, "type": "electric_bike", "lon": -77.1262545, "bike_id": "2fb0c75f6dc1604a9743d68c067d6120", "rental_uris": {"android": "https://dc.lft.to/lastmile_qr_scan", "ios": "https://dc.lft.to/lastmile_qr_scan"}, "name": "2fb0c75f6dc1604a9743d68c067d6120", "is_reserved": 0}, {"is_disabled": 0, "fusion_lon": 0.0, "fusion_lat": 0.0, "lat": 38.941608, "type": "electric_bike", "lon": -77.00193783333333, "bike_id": "3cef2ce1a1d125ea41579d579965fb86", "rental_uris": {"android": "https://dc.lft.to/lastmile_qr_scan", "ios": "https://dc.lft.to/lastmile_qr_scan"}, "name": "3cef2ce1a1d125ea41579d579965fb86", "is_reserved": 0}, {"is_disabled": 0, "fusion_lon": 0.0, "fusion_lat": 0.0, "lat": 38.89849066666667, "type": "electric_scooter", "lon": -77.02908633333334, "bike_id": "f9869f1d002504a4c8ae8e4a791bd93a", "rental_uris": {"android": "https://dc.lft.to/lastmile_qr_scan", "ios": "https://dc.lft.to/lastmile_qr_scan"}, "name": "f9869f1d002504a4c8ae8e4a791bd93a", "is_reserved": 0}, {"is_disabled": 0, "fusion_lon": 0.0, "fusion_lat": 0.0, "lat": 38.92964333333333, "type": "electric_scooter", "lon": -77.005394, "bike_id": "07c10b13efc04802c4279eeead8dabe1", "rental_uris": {"android": "https://dc.lft.to/lastmile_qr_scan", "ios": "https://dc.lft.to/lastmile_qr_scan"}, "name": "07c10b13efc04802c4279eeead8dabe1", "is_reserved": 0}, {"is_disabled": 0, "fusion_lon": 0.0, "fusion_lat": 0.0, "lat": 38.9109435, "type": "electric_scooter", "lon": -77.03179083333333, "bike_id": "cba18dab0ec7557cf3b3d971f7e9eb97", "rental_uris": {"android": "https://dc.lft.to/lastmile_qr_scan", "ios": "https://dc.lft.to/lastmile_qr_scan"}, "name": "cba18dab0ec7557cf3b3d971f7e9eb97", "is_reserved": 0}, {"is_disabled": 0, "fusion_lon": 0.0, "fusion_lat": 0.0, "lat": 38.922944666666666, "type": "electric_scooter", "lon": -77.0401475, "bike_id": "5bce33dd00050e48d6b5dd6abb95e366", "rental_uris": {"android": "https://dc.lft.to/lastmile_qr_scan", "ios": "https://dc.lft.to/lastmile_qr_scan"}, "name": "5bce33dd00050e48d6b5dd6abb95e366", "is_reserved": 0}, {"is_disabled": 0, "fusion_lon": 0.0, "fusion_lat": 0.0, "lat": 38.92810866666667, "type": "electric_scooter", "lon": -77.023445, "bike_id": "fa59ffe80f20e33ff0b17a313ac8f3b4", "rental_uris": {"android": "https://dc.lft.to/lastmile_qr_scan", "ios": "https://dc.lft.to/lastmile_qr_scan"}, "name": "fa59ffe80f20e33ff0b17a313ac8f3b4", "is_reserved": 0}, {"is_disabled": 0, "fusion_lon": 0.0, "fusion_lat": 0.0, "lat": 38.90472466666667, "type": "electric_scooter", "lon": -77.04843266666667, "bike_id": "23215c2c0913c3bddc686d936cbd5745", "rental_uris": {"android": "https://dc.lft.to/lastmile_qr_scan", "ios": "https://dc.lft.to/lastmile_qr_scan"}, "name": "23215c2c0913c3bddc686d936cbd5745", "is_reserved": 0}, {"is_disabled": 0, "fusion_lon": 0.0, "fusion_lat": 0.0, "lat": 38.92703866666667, "type": "electric_scooter", "lon": -77.02327983333333, "bike_id": "8f5ee576433a8de92d89698f882f321d", "rental_uris": {"android": "https://dc.lft.to/lastmile_qr_scan", "ios": "https://dc.lft.to/lastmile_qr_scan"}, "name": "8f5ee576433a8de92d89698f882f321d", "is_reserved": 0}, {"is_disabled": 0, "fusion_lon": 0.0, "fusion_lat": 0.0, "lat": 38.91187033333333, "type": "electric_scooter", "lon": -77.031937, "bike_id": "a264906fa36bcd3178daa1ed02dc477b", "rental_uris": {"android": "https://dc.lft.to/lastmile_qr_scan", "ios": "https://dc.lft.to/lastmile_qr_scan"}, "name": "a264906fa36bcd3178daa1ed02dc477b", "is_reserved": 0}, {"is_disabled": 0, "fusion_lon": 0.0, "fusion_lat": 0.0, "lat": 38.86123033333333, "type": "electric_scooter", "lon": -76.98572783333333, "bike_id": "d0dfb43a7c8be0d48dfaf9d2ccd5bb7b", "rental_uris": {"android": "https://dc.lft.to/lastmile_qr_scan", "ios": "https://dc.lft.to/lastmile_qr_scan"}, "name": "d0dfb43a7c8be0d48dfaf9d2ccd5bb7b", "is_reserved": 0}, {"is_disabled": 0, "fusion_lon": 0.0, "fusion_lat": 0.0, "lat": 38.911881666666666, "type": "electric_scooter", "lon": -77.03834416666666, "bike_id": "39265644230465c8d2d39deab2829b8d", "rental_uris": {"android": "https://dc.lft.to/lastmile_qr_scan", "ios": "https://dc.lft.to/lastmile_qr_scan"}, "name": "39265644230465c8d2d39deab2829b8d", "is_reserved": 0}, {"is_disabled": 0, "fusion_lon": 0.0, "fusion_lat": 0.0, "lat": 38.92824566666667, "type": "electric_scooter", "lon": -77.01410066666666, "bike_id": "5ac536108157760d8cd7602ebd0acef8", "rental_uris": {"android": "https://dc.lft.to/lastmile_qr_scan", "ios": "https://dc.lft.to/lastmile_qr_scan"}, "name": "5ac536108157760d8cd7602ebd0acef8", "is_reserved": 0}, {"is_disabled": 0, "fusion_lon": 0.0, "fusion_lat": 0.0, "lat": 38.927294833333335, "type": "electric_scooter", "lon": -77.02245283333333, "bike_id": "212de117dbb1d12767c4cfd822d63494", "rental_uris": {"android": "https://dc.lft.to/lastmile_qr_scan", "ios": "https://dc.lft.to/lastmile_qr_scan"}, "name": "212de117dbb1d12767c4cfd822d63494", "is_reserved": 0}, {"is_disabled": 0, "fusion_lon": 0.0, "fusion_lat": 0.0, "lat": 38.900437, "type": "electric_scooter", "lon": -76.92270533333334, "bike_id": "539d42246410d050eb441a4fa05bad81", "rental_uris": {"android": "https://dc.lft.to/lastmile_qr_scan", "ios": "https://dc.lft.to/lastmile_qr_scan"}, "name": "539d42246410d050eb441a4fa05bad81", "is_reserved": 0}, {"is_disabled": 0, "fusion_lon": 0.0, "fusion_lat": 0.0, "lat": 38.900299, "type": "electric_scooter", "lon": -77.01203633333333, "bike_id": "648d86e885a475b6de3a9a448e00eb92", "rental_uris": {"android": "https://dc.lft.to/lastmile_qr_scan", "ios": "https://dc.lft.to/lastmile_qr_scan"}, "name": "648d86e885a475b6de3a9a448e00eb92", "is_reserved": 0}, {"is_disabled": 0, "fusion_lon": 0.0, "fusion_lat": 0.0, "lat": 38.89370383333333, "type": "electric_scooter", "lon": -76.94997933333333, "bike_id": "06b05a46a85b453c3a3dbd3370823553", "rental_uris": {"android": "https://dc.lft.to/lastmile_qr_scan", "ios": "https://dc.lft.to/lastmile_qr_scan"}, "name": "06b05a46a85b453c3a3dbd3370823553", "is_reserved": 0}, {"is_disabled": 0, "fusion_lon": 0.0, "fusion_lat": 0.0, "lat": 38.91187333333333, "type": "electric_scooter", "lon": -77.0350915, "bike_id": "66198393d9d99e7ee89e5755046d1276", "rental_uris": {"android": "https://dc.lft.to/lastmile_qr_scan", "ios": "https://dc.lft.to/lastmile_qr_scan"}, "name": "66198393d9d99e7ee89e5755046d1276", "is_reserved": 0}, {"is_disabled": 0, "fusion_lon": 0.0, "fusion_lat": 0.0, "lat": 38.936294333333336, "type": "electric_scooter", "lon": -77.02463366666667, "bike_id": "2a9fb231adc2a5b0ec9d741d2c16e066", "rental_uris": {"android": "https://dc.lft.to/lastmile_qr_scan", "ios": "https://dc.lft.to/lastmile_qr_scan"}, "name": "2a9fb231adc2a5b0ec9d741d2c16e066", "is_reserved": 0}, {"is_disabled": 0, "fusion_lon": 0.0, "fusion_lat": 0.0, "lat": 38.88751, "type": "electric_bike", "lon": -76.90090366666666, "bike_id": "d47e1c33058a8f5ae4cbf757dee23fc8", "rental_uris": {"android": "https://dc.lft.to/lastmile_qr_scan", "ios": "https://dc.lft.to/lastmile_qr_scan"}, "name": "d47e1c33058a8f5ae4cbf757dee23fc8", "is_reserved": 0}, {"is_disabled": 0, "fusion_lon": 0.0, "fusion_lat": 0.0, "lat": 38.9168215, "type": "electric_scooter", "lon": -77.04138966666666, "bike_id": "fced0f4a227948143b4c1a82b42c22d5", "rental_uris": {"android": "https://dc.lft.to/lastmile_qr_scan", "ios": "https://dc.lft.to/lastmile_qr_scan"}, "name": "fced0f4a227948143b4c1a82b42c22d5", "is_reserved": 0}, {"is_disabled": 0, "fusion_lon": 0.0, "fusion_lat": 0.0, "lat": 38.965601, "type": "electric_bike", "lon": -77.02294916666666, "bike_id": "e794eff3a7e907c3cebd1df473537d08", "rental_uris": {"android": "https://dc.lft.to/lastmile_qr_scan", "ios": "https://dc.lft.to/lastmile_qr_scan"}, "name": "e794eff3a7e907c3cebd1df473537d08", "is_reserved": 0}, {"is_disabled": 0, "fusion_lon": 0.0, "fusion_lat": 0.0, "lat": 38.898219166666664, "type": "electric_scooter", "lon": -77.0020865, "bike_id": "bf6135647acdb432b81af548a71c758f", "rental_uris": {"android": "https://dc.lft.to/lastmile_qr_scan", "ios": "https://dc.lft.to/lastmile_qr_scan"}, "name": "bf6135647acdb432b81af548a71c758f", "is_reserved": 0}, {"is_disabled": 0, "fusion_lon": 0.0, "fusion_lat": 0.0, "lat": 38.8987725, "type": "electric_scooter", "lon": -77.04142983333334, "bike_id": "c81d82a935c9c1ca25c4540467f52677", "rental_uris": {"android": "https://dc.lft.to/lastmile_qr_scan", "ios": "https://dc.lft.to/lastmile_qr_scan"}, "name": "c81d82a935c9c1ca25c4540467f52677", "is_reserved": 0}, {"is_disabled": 0, "fusion_lon": 0.0, "fusion_lat": 0.0, "lat": 38.900268, "type": "electric_scooter", "lon": -76.9986685, "bike_id": "62376ce622e1a0de3e26d77b237a6e86", "rental_uris": {"android": "https://dc.lft.to/lastmile_qr_scan", "ios": "https://dc.lft.to/lastmile_qr_scan"}, "name": "62376ce622e1a0de3e26d77b237a6e86", "is_reserved": 0}, {"is_disabled": 0, "fusion_lon": 0.0, "fusion_lat": 0.0, "lat": 39.00381466666666, "type": "electric_bike", "lon": -77.012852, "bike_id": "2a2c75b17d53dedfb5ee7d2a86639420", "rental_uris": {"android": "https://dc.lft.to/lastmile_qr_scan", "ios": "https://dc.lft.to/lastmile_qr_scan"}, "name": "2a2c75b17d53dedfb5ee7d2a86639420", "is_reserved": 0}, {"is_disabled": 0, "fusion_lon": 0.0, "fusion_lat": 0.0, "lat": 38.917061833333335, "type": "electric_scooter", "lon": -77.02615733333333, "bike_id": "ee9aaf454ab940c8feaf8a8b961e2929", "rental_uris": {"android": "https://dc.lft.to/lastmile_qr_scan", "ios": "https://dc.lft.to/lastmile_qr_scan"}, "name": "ee9aaf454ab940c8feaf8a8b961e2929", "is_reserved": 0}, {"is_disabled": 0, "fusion_lon": 0.0, "fusion_lat": 0.0, "lat": 38.902421833333335, "type": "electric_scooter", "lon": -77.03101883333333, "bike_id": "e9ed53cc914cbb031bb87279f44455d5", "rental_uris": {"android": "https://dc.lft.to/lastmile_qr_scan", "ios": "https://dc.lft.to/lastmile_qr_scan"}, "name": "e9ed53cc914cbb031bb87279f44455d5", "is_reserved": 0}, {"is_disabled": 0, "fusion_lon": 0.0, "fusion_lat": 0.0, "lat": 38.900842833333336, "type": "electric_bike", "lon": -77.02463016666667, "bike_id": "6eaea725d5ba1121a0cc5563ffc17248", "rental_uris": {"android": "https://dc.lft.to/lastmile_qr_scan", "ios": "https://dc.lft.to/lastmile_qr_scan"}, "name": "6eaea725d5ba1121a0cc5563ffc17248", "is_reserved": 0}, {"is_disabled": 0, "fusion_lon": 0.0, "fusion_lat": 0.0, "lat": 38.939237, "type": "electric_scooter", "lon": -77.02464616666667, "bike_id": "082251c66c2c0e00375eb59ac5aec108", "rental_uris": {"android": "https://dc.lft.to/lastmile_qr_scan", "ios": "https://dc.lft.to/lastmile_qr_scan"}, "name": "082251c66c2c0e00375eb59ac5aec108", "is_reserved": 0}, {"is_disabled": 0, "fusion_lon": 0.0, "fusion_lat": 0.0, "lat": 38.90144316666667, "type": "electric_scooter", "lon": -77.01502533333333, "bike_id": "488bcd62fb88e2f569a23435ad59bdc3", "rental_uris": {"android": "https://dc.lft.to/lastmile_qr_scan", "ios": "https://dc.lft.to/lastmile_qr_scan"}, "name": "488bcd62fb88e2f569a23435ad59bdc3", "is_reserved": 0}, {"is_disabled": 0, "fusion_lon": 0.0, "fusion_lat": 0.0, "lat": 38.8767145, "type": "electric_scooter", "lon": -76.93192283333333, "bike_id": "09f6a9732cfc20f61f7d2b468e4ad8dd", "rental_uris": {"android": "https://dc.lft.to/lastmile_qr_scan", "ios": "https://dc.lft.to/lastmile_qr_scan"}, "name": "09f6a9732cfc20f61f7d2b468e4ad8dd", "is_reserved": 0}, {"is_disabled": 0, "fusion_lon": 0.0, "fusion_lat": 0.0, "lat": 38.878273, "type": "electric_scooter", "lon": -76.96318133333334, "bike_id": "f4767068df88cd09c818a4c8712084d8", "rental_uris": {"android": "https://dc.lft.to/lastmile_qr_scan", "ios": "https://dc.lft.to/lastmile_qr_scan"}, "name": "f4767068df88cd09c818a4c8712084d8", "is_reserved": 0}, {"is_disabled": 0, "fusion_lon": 0.0, "fusion_lat": 0.0, "lat": 38.894879833333334, "type": "electric_scooter", "lon": -77.02205166666667, "bike_id": "0b96ded091bde15a076eb668324e7ec9", "rental_uris": {"android": "https://dc.lft.to/lastmile_qr_scan", "ios": "https://dc.lft.to/lastmile_qr_scan"}, "name": "0b96ded091bde15a076eb668324e7ec9", "is_reserved": 0}, {"is_disabled": 0, "fusion_lon": 0.0, "fusion_lat": 0.0, "lat": 38.949997833333335, "type": "electric_bike", "lon": -77.3530775, "bike_id": "4a5d8e294b3994ac751117f8a36778b4", "rental_uris": {"android": "https://dc.lft.to/lastmile_qr_scan", "ios": "https://dc.lft.to/lastmile_qr_scan"}, "name": "4a5d8e294b3994ac751117f8a36778b4", "is_reserved": 0}, {"is_disabled": 0, "fusion_lon": 0.0, "fusion_lat": 0.0, "lat": 38.8972975, "type": "electric_scooter", "lon": -77.04823633333334, "bike_id": "572d21f0fec984e545872fca82aa3a7b", "rental_uris": {"android": "https://dc.lft.to/lastmile_qr_scan", "ios": "https://dc.lft.to/lastmile_qr_scan"}, "name": "572d21f0fec984e545872fca82aa3a7b", "is_reserved": 0}, {"is_disabled": 0, "fusion_lon": 0.0, "fusion_lat": 0.0, "lat": 38.875205, "type": "electric_scooter", "lon": -77.00065783333334, "bike_id": "4f43d69395289386593be247a6d09705", "rental_uris": {"android": "https://dc.lft.to/lastmile_qr_scan", "ios": "https://dc.lft.to/lastmile_qr_scan"}, "name": "4f43d69395289386593be247a6d09705", "is_reserved": 0}, {"is_disabled": 0, "fusion_lon": 0.0, "fusion_lat": 0.0, "lat": 38.915158166666664, "type": "electric_scooter", "lon": -77.01982433333333, "bike_id": "f8b693e0af96590958668e71428b5e8e", "rental_uris": {"android": "https://dc.lft.to/lastmile_qr_scan", "ios": "https://dc.lft.to/lastmile_qr_scan"}, "name": "f8b693e0af96590958668e71428b5e8e", "is_reserved": 0}, {"is_disabled": 0, "fusion_lon": 0.0, "fusion_lat": 0.0, "lat": 38.931199, "type": "electric_scooter", "lon": -77.078414, "bike_id": "569c6aed628b4ebf32bc46faa1773278", "rental_uris": {"android": "https://dc.lft.to/lastmile_qr_scan", "ios": "https://dc.lft.to/lastmile_qr_scan"}, "name": "569c6aed628b4ebf32bc46faa1773278", "is_reserved": 0}, {"is_disabled": 0, "fusion_lon": 0.0, "fusion_lat": 0.0, "lat": 38.913823666666666, "type": "electric_scooter", "lon": -77.0170515, "bike_id": "cd4ffe8aed88f12a44da095196837827", "rental_uris": {"android": "https://dc.lft.to/lastmile_qr_scan", "ios": "https://dc.lft.to/lastmile_qr_scan"}, "name": "cd4ffe8aed88f12a44da095196837827", "is_reserved": 0}, {"is_disabled": 0, "fusion_lon": 0.0, "fusion_lat": 0.0, "lat": 38.8999585, "type": "electric_scooter", "lon": -77.033171, "bike_id": "04ff7595632cb08be7de27f785aa6571", "rental_uris": {"android": "https://dc.lft.to/lastmile_qr_scan", "ios": "https://dc.lft.to/lastmile_qr_scan"}, "name": "04ff7595632cb08be7de27f785aa6571", "is_reserved": 0}, {"is_disabled": 0, "fusion_lon": 0.0, "fusion_lat": 0.0, "lat": 38.94511416666667, "type": "electric_bike", "lon": -77.00669916666666, "bike_id": "ecfb3839a56eba732ac189238411ca55", "rental_uris": {"android": "https://dc.lft.to/lastmile_qr_scan", "ios": "https://dc.lft.to/lastmile_qr_scan"}, "name": "ecfb3839a56eba732ac189238411ca55", "is_reserved": 0}, {"is_disabled": 0, "fusion_lon": 0.0, "fusion_lat": 0.0, "lat": 38.91085783333333, "type": "electric_scooter", "lon": -77.02169883333333, "bike_id": "b1f2356358b84e05bd2c3252672f2190", "rental_uris": {"android": "https://dc.lft.to/lastmile_qr_scan", "ios": "https://dc.lft.to/lastmile_qr_scan"}, "name": "b1f2356358b84e05bd2c3252672f2190", "is_reserved": 0}, {"is_disabled": 0, "fusion_lon": 0.0, "fusion_lat": 0.0, "lat": 38.903786833333335, "type": "electric_bike", "lon": -76.9955095, "bike_id": "ce26ad4f32b3f5f582cc52c62a4a23da", "rental_uris": {"android": "https://dc.lft.to/lastmile_qr_scan", "ios": "https://dc.lft.to/lastmile_qr_scan"}, "name": "ce26ad4f32b3f5f582cc52c62a4a23da", "is_reserved": 0}, {"is_disabled": 0, "fusion_lon": 0.0, "fusion_lat": 0.0, "lat": 38.89601016666667, "type": "electric_scooter", "lon": -77.009158, "bike_id": "2aed635100d3270e414466c22c53d610", "rental_uris": {"android": "https://dc.lft.to/lastmile_qr_scan", "ios": "https://dc.lft.to/lastmile_qr_scan"}, "name": "2aed635100d3270e414466c22c53d610", "is_reserved": 0}, {"is_disabled": 0, "fusion_lon": 0.0, "fusion_lat": 0.0, "lat": 38.900111833333334, "type": "electric_scooter", "lon": -77.03310866666666, "bike_id": "9bbe56966cc130b15dc1987e169e3d1d", "rental_uris": {"android": "https://dc.lft.to/lastmile_qr_scan", "ios": "https://dc.lft.to/lastmile_qr_scan"}, "name": "9bbe56966cc130b15dc1987e169e3d1d", "is_reserved": 0}, {"is_disabled": 0, "fusion_lon": 0.0, "fusion_lat": 0.0, "lat": 38.908859666666665, "type": "electric_scooter", "lon": -77.04586383333333, "bike_id": "d07e40289e8bc23c6b667f96ce538ad1", "rental_uris": {"android": "https://dc.lft.to/lastmile_qr_scan", "ios": "https://dc.lft.to/lastmile_qr_scan"}, "name": "d07e40289e8bc23c6b667f96ce538ad1", "is_reserved": 0}, {"is_disabled": 0, "fusion_lon": 0.0, "fusion_lat": 0.0, "lat": 38.92330333333334, "type": "electric_scooter", "lon": -77.04187683333333, "bike_id": "002b48483f589eb85a459e538e8dab42", "rental_uris": {"android": "https://dc.lft.to/lastmile_qr_scan", "ios": "https://dc.lft.to/lastmile_qr_scan"}, "name": "002b48483f589eb85a459e538e8dab42", "is_reserved": 0}, {"is_disabled": 0, "fusion_lon": 0.0, "fusion_lat": 0.0, "lat": 38.904918, "type": "electric_scooter", "lon": -77.05133, "bike_id": "6683fc3ba1050ca7bd9f9051d386b119", "rental_uris": {"android": "https://dc.lft.to/lastmile_qr_scan", "ios": "https://dc.lft.to/lastmile_qr_scan"}, "name": "6683fc3ba1050ca7bd9f9051d386b119", "is_reserved": 0}, {"is_disabled": 0, "fusion_lon": 0.0, "fusion_lat": 0.0, "lat": 38.91936183333333, "type": "electric_bike", "lon": -76.97504216666667, "bike_id": "7657a9ed827f3525c94afbffcdcd81e4", "rental_uris": {"android": "https://dc.lft.to/lastmile_qr_scan", "ios": "https://dc.lft.to/lastmile_qr_scan"}, "name": "7657a9ed827f3525c94afbffcdcd81e4", "is_reserved": 0}, {"is_disabled": 0, "fusion_lon": 0.0, "fusion_lat": 0.0, "lat": 38.91097766666667, "type": "electric_scooter", "lon": -77.029715, "bike_id": "17b4b75b941d067d94fc95565b80c943", "rental_uris": {"android": "https://dc.lft.to/lastmile_qr_scan", "ios": "https://dc.lft.to/lastmile_qr_scan"}, "name": "17b4b75b941d067d94fc95565b80c943", "is_reserved": 0}, {"is_disabled": 0, "fusion_lon": 0.0, "fusion_lat": 0.0, "lat": 38.902351333333336, "type": "electric_scooter", "lon": -77.059964, "bike_id": "86952a94b1add00c8546f5cde4c52966", "rental_uris": {"android": "https://dc.lft.to/lastmile_qr_scan", "ios": "https://dc.lft.to/lastmile_qr_scan"}, "name": "86952a94b1add00c8546f5cde4c52966", "is_reserved": 0}, {"is_disabled": 0, "fusion_lon": 0.0, "fusion_lat": 0.0, "lat": 38.81024983333333, "type": "electric_bike", "lon": -77.08435683333333, "bike_id": "0b3f00c4cfede80de5cc9c102ea86536", "rental_uris": {"android": "https://dc.lft.to/lastmile_qr_scan", "ios": "https://dc.lft.to/lastmile_qr_scan"}, "name": "0b3f00c4cfede80de5cc9c102ea86536", "is_reserved": 0}, {"is_disabled": 0, "fusion_lon": 0.0, "fusion_lat": 0.0, "lat": 38.90458183333333, "type": "electric_scooter", "lon": -77.03177666666667, "bike_id": "fa67602a664049c39caef4e1badfbf8e", "rental_uris": {"android": "https://dc.lft.to/lastmile_qr_scan", "ios": "https://dc.lft.to/lastmile_qr_scan"}, "name": "fa67602a664049c39caef4e1badfbf8e", "is_reserved": 0}, {"is_disabled": 0, "fusion_lon": 0.0, "fusion_lat": 0.0, "lat": 38.94298283333333, "type": "electric_scooter", "lon": -77.02766066666666, "bike_id": "056c8f32930e29329f3437570a9f6288", "rental_uris": {"android": "https://dc.lft.to/lastmile_qr_scan", "ios": "https://dc.lft.to/lastmile_qr_scan"}, "name": "056c8f32930e29329f3437570a9f6288", "is_reserved": 0}, {"is_disabled": 0, "fusion_lon": 0.0, "fusion_lat": 0.0, "lat": 38.934116333333336, "type": "electric_bike", "lon": -77.02505066666667, "bike_id": "638ea42d2c9fe18bc453aabf9e6cc3d4", "rental_uris": {"android": "https://dc.lft.to/lastmile_qr_scan", "ios": "https://dc.lft.to/lastmile_qr_scan"}, "name": "638ea42d2c9fe18bc453aabf9e6cc3d4", "is_reserved": 0}, {"is_disabled": 0, "fusion_lon": 0.0, "fusion_lat": 0.0, "lat": 38.934169833333335, "type": "electric_scooter", "lon": -77.0244915, "bike_id": "058c662a42a4450f85195910e0180808", "rental_uris": {"android": "https://dc.lft.to/lastmile_qr_scan", "ios": "https://dc.lft.to/lastmile_qr_scan"}, "name": "058c662a42a4450f85195910e0180808", "is_reserved": 0}, {"is_disabled": 0, "fusion_lon": 0.0, "fusion_lat": 0.0, "lat": 38.86733866666667, "type": "electric_scooter", "lon": -76.97943266666667, "bike_id": "a4f22df9c9b9c9b55f2018a0b34975c4", "rental_uris": {"android": "https://dc.lft.to/lastmile_qr_scan", "ios": "https://dc.lft.to/lastmile_qr_scan"}, "name": "a4f22df9c9b9c9b55f2018a0b34975c4", "is_reserved": 0}, {"is_disabled": 0, "fusion_lon": 0.0, "fusion_lat": 0.0, "lat": 38.92319783333333, "type": "electric_scooter", "lon": -77.04619733333334, "bike_id": "69a2aa162c765aa92e68f24784d8caa2", "rental_uris": {"android": "https://dc.lft.to/lastmile_qr_scan", "ios": "https://dc.lft.to/lastmile_qr_scan"}, "name": "69a2aa162c765aa92e68f24784d8caa2", "is_reserved": 0}, {"is_disabled": 0, "fusion_lon": 0.0, "fusion_lat": 0.0, "lat": 38.88532516666667, "type": "electric_scooter", "lon": -76.92703966666667, "bike_id": "637abe4013ceef587acffe2e2c98dea8", "rental_uris": {"android": "https://dc.lft.to/lastmile_qr_scan", "ios": "https://dc.lft.to/lastmile_qr_scan"}, "name": "637abe4013ceef587acffe2e2c98dea8", "is_reserved": 0}, {"is_disabled": 0, "fusion_lon": 0.0, "fusion_lat": 0.0, "lat": 38.8779395, "type": "electric_scooter", "lon": -77.013635, "bike_id": "47f6a36dd2754f96b729a2de6e3b7cdf", "rental_uris": {"android": "https://dc.lft.to/lastmile_qr_scan", "ios": "https://dc.lft.to/lastmile_qr_scan"}, "name": "47f6a36dd2754f96b729a2de6e3b7cdf", "is_reserved": 0}, {"is_disabled": 0, "fusion_lon": 0.0, "fusion_lat": 0.0, "lat": 38.92435116666667, "type": "electric_scooter", "lon": -77.03530133333334, "bike_id": "91875422b926652328ab6f8b004017f2", "rental_uris": {"android": "https://dc.lft.to/lastmile_qr_scan", "ios": "https://dc.lft.to/lastmile_qr_scan"}, "name": "91875422b926652328ab6f8b004017f2", "is_reserved": 0}, {"is_disabled": 0, "fusion_lon": 0.0, "fusion_lat": 0.0, "lat": 38.921453666666665, "type": "electric_scooter", "lon": -77.02958333333333, "bike_id": "79d127798be31b279c332f2f19088c4d", "rental_uris": {"android": "https://dc.lft.to/lastmile_qr_scan", "ios": "https://dc.lft.to/lastmile_qr_scan"}, "name": "79d127798be31b279c332f2f19088c4d", "is_reserved": 0}, {"is_disabled": 0, "fusion_lon": 0.0, "fusion_lat": 0.0, "lat": 38.933383166666665, "type": "electric_scooter", "lon": -77.0413315, "bike_id": "0b7c9584d19760777cca161a6a428b71", "rental_uris": {"android": "https://dc.lft.to/lastmile_qr_scan", "ios": "https://dc.lft.to/lastmile_qr_scan"}, "name": "0b7c9584d19760777cca161a6a428b71", "is_reserved": 0}, {"is_disabled": 0, "fusion_lon": 0.0, "fusion_lat": 0.0, "lat": 38.92116033333333, "type": "electric_scooter", "lon": -77.0218165, "bike_id": "73107c651418622b001f68e549b3f76c", "rental_uris": {"android": "https://dc.lft.to/lastmile_qr_scan", "ios": "https://dc.lft.to/lastmile_qr_scan"}, "name": "73107c651418622b001f68e549b3f76c", "is_reserved": 0}, {"is_disabled": 0, "fusion_lon": 0.0, "fusion_lat": 0.0, "lat": 38.921207, "type": "electric_scooter", "lon": -77.036626, "bike_id": "298938af6b4bae8fb66923e90ee370b8", "rental_uris": {"android": "https://dc.lft.to/lastmile_qr_scan", "ios": "https://dc.lft.to/lastmile_qr_scan"}, "name": "298938af6b4bae8fb66923e90ee370b8", "is_reserved": 0}, {"is_disabled": 0, "fusion_lon": 0.0, "fusion_lat": 0.0, "lat": 38.89526016666667, "type": "electric_scooter", "lon": -77.03349733333333, "bike_id": "57b150616cbf00b41915a04531ddb249", "rental_uris": {"android": "https://dc.lft.to/lastmile_qr_scan", "ios": "https://dc.lft.to/lastmile_qr_scan"}, "name": "57b150616cbf00b41915a04531ddb249", "is_reserved": 0}, {"is_disabled": 0, "fusion_lon": 0.0, "fusion_lat": 0.0, "lat": 38.8960105, "type": "electric_scooter", "lon": -77.009219, "bike_id": "8b8935bfb9fc647e1df029b4dc479356", "rental_uris": {"android": "https://dc.lft.to/lastmile_qr_scan", "ios": "https://dc.lft.to/lastmile_qr_scan"}, "name": "8b8935bfb9fc647e1df029b4dc479356", "is_reserved": 0}, {"is_disabled": 0, "fusion_lon": 0.0, "fusion_lat": 0.0, "lat": 38.89234233333333, "type": "electric_bike", "lon": -76.952197, "bike_id": "a9415532a927ef1a8799646ddfcc9cf0", "rental_uris": {"android": "https://dc.lft.to/lastmile_qr_scan", "ios": "https://dc.lft.to/lastmile_qr_scan"}, "name": "a9415532a927ef1a8799646ddfcc9cf0", "is_reserved": 0}, {"is_disabled": 0, "fusion_lon": 0.0, "fusion_lat": 0.0, "lat": 38.9141865, "type": "electric_scooter", "lon": -77.0323005, "bike_id": "ad25e8c0a289e22ba3ca053b9764be70", "rental_uris": {"android": "https://dc.lft.to/lastmile_qr_scan", "ios": "https://dc.lft.to/lastmile_qr_scan"}, "name": "ad25e8c0a289e22ba3ca053b9764be70", "is_reserved": 0}, {"is_disabled": 0, "fusion_lon": 0.0, "fusion_lat": 0.0, "lat": 38.91915933333333, "type": "electric_scooter", "lon": -77.02412033333333, "bike_id": "8b70e123faf72f3c11ca4deb084e4da3", "rental_uris": {"android": "https://dc.lft.to/lastmile_qr_scan", "ios": "https://dc.lft.to/lastmile_qr_scan"}, "name": "8b70e123faf72f3c11ca4deb084e4da3", "is_reserved": 0}, {"is_disabled": 0, "fusion_lon": 0.0, "fusion_lat": 0.0, "lat": 38.925926833333335, "type": "electric_bike", "lon": -76.88904016666666, "bike_id": "73aef4405c1ead072d58bdc98eb0971b", "rental_uris": {"android": "https://dc.lft.to/lastmile_qr_scan", "ios": "https://dc.lft.to/lastmile_qr_scan"}, "name": "73aef4405c1ead072d58bdc98eb0971b", "is_reserved": 0}, {"is_disabled": 0, "fusion_lon": 0.0, "fusion_lat": 0.0, "lat": 38.95413283333333, "type": "electric_scooter", "lon": -77.02845533333333, "bike_id": "d296558a52c12f4999ea90e57cf9df81", "rental_uris": {"android": "https://dc.lft.to/lastmile_qr_scan", "ios": "https://dc.lft.to/lastmile_qr_scan"}, "name": "d296558a52c12f4999ea90e57cf9df81", "is_reserved": 0}, {"is_disabled": 0, "fusion_lon": 0.0, "fusion_lat": 0.0, "lat": 38.9767695, "type": "electric_bike", "lon": -76.97169466666666, "bike_id": "706b5cc2d99121c3745661729e7b2e74", "rental_uris": {"android": "https://dc.lft.to/lastmile_qr_scan", "ios": "https://dc.lft.to/lastmile_qr_scan"}, "name": "706b5cc2d99121c3745661729e7b2e74", "is_reserved": 0}, {"is_disabled": 0, "fusion_lon": 0.0, "fusion_lat": 0.0, "lat": 38.906539333333335, "type": "electric_scooter", "lon": -77.04873033333334, "bike_id": "5b427108dfe3057d05e9cc965ffb3df3", "rental_uris": {"android": "https://dc.lft.to/lastmile_qr_scan", "ios": "https://dc.lft.to/lastmile_qr_scan"}, "name": "5b427108dfe3057d05e9cc965ffb3df3", "is_reserved": 0}, {"is_disabled": 0, "fusion_lon": 0.0, "fusion_lat": 0.0, "lat": 38.913146833333336, "type": "electric_scooter", "lon": -77.03242133333333, "bike_id": "67fa5397116c714131efe9091ed6834d", "rental_uris": {"android": "https://dc.lft.to/lastmile_qr_scan", "ios": "https://dc.lft.to/lastmile_qr_scan"}, "name": "67fa5397116c714131efe9091ed6834d", "is_reserved": 0}, {"is_disabled": 0, "fusion_lon": 0.0, "fusion_lat": 0.0, "lat": 39.088400166666666, "type": "electric_bike", "lon": -77.17803766666667, "bike_id": "c5b1be5d211b953e5a98163f90c0f566", "rental_uris": {"android": "https://dc.lft.to/lastmile_qr_scan", "ios": "https://dc.lft.to/lastmile_qr_scan"}, "name": "c5b1be5d211b953e5a98163f90c0f566", "is_reserved": 0}, {"is_disabled": 0, "fusion_lon": 0.0, "fusion_lat": 0.0, "lat": 38.914772166666665, "type": "electric_scooter", "lon": -77.03460216666667, "bike_id": "30e2e7e74818fb0f73a497ab772a396b", "rental_uris": {"android": "https://dc.lft.to/lastmile_qr_scan", "ios": "https://dc.lft.to/lastmile_qr_scan"}, "name": "30e2e7e74818fb0f73a497ab772a396b", "is_reserved": 0}, {"is_disabled": 0, "fusion_lon": 0.0, "fusion_lat": 0.0, "lat": 38.892064833333336, "type": "electric_scooter", "lon": -76.988089, "bike_id": "62afee876f7e5f2a15d2af6261cfa00d", "rental_uris": {"android": "https://dc.lft.to/lastmile_qr_scan", "ios": "https://dc.lft.to/lastmile_qr_scan"}, "name": "62afee876f7e5f2a15d2af6261cfa00d", "is_reserved": 0}, {"is_disabled": 0, "fusion_lon": 0.0, "fusion_lat": 0.0, "lat": 38.922785833333336, "type": "electric_scooter", "lon": -77.0297845, "bike_id": "f3dc12e5f03686dea42b00777be8d63d", "rental_uris": {"android": "https://dc.lft.to/lastmile_qr_scan", "ios": "https://dc.lft.to/lastmile_qr_scan"}, "name": "f3dc12e5f03686dea42b00777be8d63d", "is_reserved": 0}, {"is_disabled": 0, "fusion_lon": 0.0, "fusion_lat": 0.0, "lat": 38.923640666666664, "type": "electric_scooter", "lon": -77.02804533333334, "bike_id": "1b4fc65ebd858d82803d3f6cd3e0421d", "rental_uris": {"android": "https://dc.lft.to/lastmile_qr_scan", "ios": "https://dc.lft.to/lastmile_qr_scan"}, "name": "1b4fc65ebd858d82803d3f6cd3e0421d", "is_reserved": 0}, {"is_disabled": 0, "fusion_lon": 0.0, "fusion_lat": 0.0, "lat": 38.9004755, "type": "electric_scooter", "lon": -77.04328216666667, "bike_id": "de35710f7450b17afc5d7936ef538efb", "rental_uris": {"android": "https://dc.lft.to/lastmile_qr_scan", "ios": "https://dc.lft.to/lastmile_qr_scan"}, "name": "de35710f7450b17afc5d7936ef538efb", "is_reserved": 0}, {"is_disabled": 0, "fusion_lon": 0.0, "fusion_lat": 0.0, "lat": 38.88436183333334, "type": "electric_scooter", "lon": -76.95418883333333, "bike_id": "1e1cba26ea6f46ac0d38bf14c835dfb4", "rental_uris": {"android": "https://dc.lft.to/lastmile_qr_scan", "ios": "https://dc.lft.to/lastmile_qr_scan"}, "name": "1e1cba26ea6f46ac0d38bf14c835dfb4", "is_reserved": 0}, {"is_disabled": 0, "fusion_lon": 0.0, "fusion_lat": 0.0, "lat": 38.91614533333333, "type": "electric_scooter", "lon": -77.0486535, "bike_id": "4e2993095d18742f457f24b2d309411a", "rental_uris": {"android": "https://dc.lft.to/lastmile_qr_scan", "ios": "https://dc.lft.to/lastmile_qr_scan"}, "name": "4e2993095d18742f457f24b2d309411a", "is_reserved": 0}, {"is_disabled": 0, "fusion_lon": 0.0, "fusion_lat": 0.0, "lat": 38.941785833333334, "type": "electric_scooter", "lon": -77.02387883333333, "bike_id": "9513510778771c60d4f45db9d4298a81", "rental_uris": {"android": "https://dc.lft.to/lastmile_qr_scan", "ios": "https://dc.lft.to/lastmile_qr_scan"}, "name": "9513510778771c60d4f45db9d4298a81", "is_reserved": 0}, {"is_disabled": 0, "fusion_lon": 0.0, "fusion_lat": 0.0, "lat": 38.89735983333333, "type": "electric_scooter", "lon": -77.007791, "bike_id": "dbccbbf2b37f76b52e1714670d29ef94", "rental_uris": {"android": "https://dc.lft.to/lastmile_qr_scan", "ios": "https://dc.lft.to/lastmile_qr_scan"}, "name": "dbccbbf2b37f76b52e1714670d29ef94", "is_reserved": 0}, {"is_disabled": 0, "fusion_lon": 0.0, "fusion_lat": 0.0, "lat": 38.897262166666664, "type": "electric_scooter", "lon": -77.04984616666667, "bike_id": "d0d1793a99d5b4a501a8ef559cbd7923", "rental_uris": {"android": "https://dc.lft.to/lastmile_qr_scan", "ios": "https://dc.lft.to/lastmile_qr_scan"}, "name": "d0d1793a99d5b4a501a8ef559cbd7923", "is_reserved": 0}, {"is_disabled": 0, "fusion_lon": 0.0, "fusion_lat": 0.0, "lat": 38.903763833333336, "type": "electric_scooter", "lon": -77.00886383333334, "bike_id": "7472c5d1b11d311515e6bc2d143e8f1b", "rental_uris": {"android": "https://dc.lft.to/lastmile_qr_scan", "ios": "https://dc.lft.to/lastmile_qr_scan"}, "name": "7472c5d1b11d311515e6bc2d143e8f1b", "is_reserved": 0}, {"is_disabled": 0, "fusion_lon": 0.0, "fusion_lat": 0.0, "lat": 38.89785966666667, "type": "electric_scooter", "lon": -77.03354483333334, "bike_id": "751766555d568b1c4d431384045635f1", "rental_uris": {"android": "https://dc.lft.to/lastmile_qr_scan", "ios": "https://dc.lft.to/lastmile_qr_scan"}, "name": "751766555d568b1c4d431384045635f1", "is_reserved": 0}, {"is_disabled": 0, "fusion_lon": 0.0, "fusion_lat": 0.0, "lat": 38.926053333333336, "type": "electric_scooter", "lon": -77.02420666666667, "bike_id": "d4713ff2b0e38f5f2c7a28e2c0a10f12", "rental_uris": {"android": "https://dc.lft.to/lastmile_qr_scan", "ios": "https://dc.lft.to/lastmile_qr_scan"}, "name": "d4713ff2b0e38f5f2c7a28e2c0a10f12", "is_reserved": 0}, {"is_disabled": 0, "fusion_lon": 0.0, "fusion_lat": 0.0, "lat": 38.833784666666666, "type": "electric_scooter", "lon": -76.99300916666667, "bike_id": "cbea37e062bf51f8c12778bc1c827e37", "rental_uris": {"android": "https://dc.lft.to/lastmile_qr_scan", "ios": "https://dc.lft.to/lastmile_qr_scan"}, "name": "cbea37e062bf51f8c12778bc1c827e37", "is_reserved": 0}, {"is_disabled": 0, "fusion_lon": 0.0, "fusion_lat": 0.0, "lat": 38.923324666666666, "type": "electric_scooter", "lon": -77.056852, "bike_id": "e0f93a8922e23101a22b0885af097998", "rental_uris": {"android": "https://dc.lft.to/lastmile_qr_scan", "ios": "https://dc.lft.to/lastmile_qr_scan"}, "name": "e0f93a8922e23101a22b0885af097998", "is_reserved": 0}, {"is_disabled": 0, "fusion_lon": 0.0, "fusion_lat": 0.0, "lat": 38.919161333333335, "type": "electric_scooter", "lon": -77.01749033333333, "bike_id": "ed0735882d6950e08373926b79a52337", "rental_uris": {"android": "https://dc.lft.to/lastmile_qr_scan", "ios": "https://dc.lft.to/lastmile_qr_scan"}, "name": "ed0735882d6950e08373926b79a52337", "is_reserved": 0}, {"is_disabled": 0, "fusion_lon": 0.0, "fusion_lat": 0.0, "lat": 38.9165755, "type": "electric_scooter", "lon": -77.03852633333334, "bike_id": "f2645ed2109dd226d01b10350478eaae", "rental_uris": {"android": "https://dc.lft.to/lastmile_qr_scan", "ios": "https://dc.lft.to/lastmile_qr_scan"}, "name": "f2645ed2109dd226d01b10350478eaae", "is_reserved": 0}, {"is_disabled": 0, "fusion_lon": 0.0, "fusion_lat": 0.0, "lat": 38.91312416666667, "type": "electric_scooter", "lon": -77.03840883333334, "bike_id": "73f5334f6fa379cdb63adb2e92a15a25", "rental_uris": {"android": "https://dc.lft.to/lastmile_qr_scan", "ios": "https://dc.lft.to/lastmile_qr_scan"}, "name": "73f5334f6fa379cdb63adb2e92a15a25", "is_reserved": 0}, {"is_disabled": 0, "fusion_lon": 0.0, "fusion_lat": 0.0, "lat": 38.9215015, "type": "electric_scooter", "lon": -77.03439566666667, "bike_id": "103378d951c0e1f8b67141dc639a529b", "rental_uris": {"android": "https://dc.lft.to/lastmile_qr_scan", "ios": "https://dc.lft.to/lastmile_qr_scan"}, "name": "103378d951c0e1f8b67141dc639a529b", "is_reserved": 0}, {"is_disabled": 0, "fusion_lon": 0.0, "fusion_lat": 0.0, "lat": 38.90146466666667, "type": "electric_scooter", "lon": -77.034492, "bike_id": "3ebea0ce075bd2370bfcccdc7e35ea43", "rental_uris": {"android": "https://dc.lft.to/lastmile_qr_scan", "ios": "https://dc.lft.to/lastmile_qr_scan"}, "name": "3ebea0ce075bd2370bfcccdc7e35ea43", "is_reserved": 0}, {"is_disabled": 0, "fusion_lon": 0.0, "fusion_lat": 0.0, "lat": 38.89833616666667, "type": "electric_scooter", "lon": -76.946341, "bike_id": "2074490204947a755c37a65b0e0e1dc8", "rental_uris": {"android": "https://dc.lft.to/lastmile_qr_scan", "ios": "https://dc.lft.to/lastmile_qr_scan"}, "name": "2074490204947a755c37a65b0e0e1dc8", "is_reserved": 0}, {"is_disabled": 0, "fusion_lon": 0.0, "fusion_lat": 0.0, "lat": 38.896025, "type": "electric_scooter", "lon": -77.00921433333333, "bike_id": "190932a24340f21f56f28300c29d9021", "rental_uris": {"android": "https://dc.lft.to/lastmile_qr_scan", "ios": "https://dc.lft.to/lastmile_qr_scan"}, "name": "190932a24340f21f56f28300c29d9021", "is_reserved": 0}, {"is_disabled": 0, "fusion_lon": 0.0, "fusion_lat": 0.0, "lat": 38.91918183333333, "type": "electric_scooter", "lon": -77.04174666666667, "bike_id": "200c6ec1e09bc1bf9940cb9afb583821", "rental_uris": {"android": "https://dc.lft.to/lastmile_qr_scan", "ios": "https://dc.lft.to/lastmile_qr_scan"}, "name": "200c6ec1e09bc1bf9940cb9afb583821", "is_reserved": 0}, {"is_disabled": 0, "fusion_lon": 0.0, "fusion_lat": 0.0, "lat": 38.925277666666666, "type": "electric_scooter", "lon": -77.04418533333333, "bike_id": "9914a7cf7c9035aa49ddef82554c756e", "rental_uris": {"android": "https://dc.lft.to/lastmile_qr_scan", "ios": "https://dc.lft.to/lastmile_qr_scan"}, "name": "9914a7cf7c9035aa49ddef82554c756e", "is_reserved": 0}, {"is_disabled": 0, "fusion_lon": 0.0, "fusion_lat": 0.0, "lat": 38.884771, "type": "electric_scooter", "lon": -76.92976316666666, "bike_id": "b5dd7fed4316fe6221c11f717756533a", "rental_uris": {"android": "https://dc.lft.to/lastmile_qr_scan", "ios": "https://dc.lft.to/lastmile_qr_scan"}, "name": "b5dd7fed4316fe6221c11f717756533a", "is_reserved": 0}, {"is_disabled": 0, "fusion_lon": 0.0, "fusion_lat": 0.0, "lat": 38.900240833333335, "type": "electric_scooter", "lon": -76.998595, "bike_id": "92112f40e76ecc9ca47005ecdf68470c", "rental_uris": {"android": "https://dc.lft.to/lastmile_qr_scan", "ios": "https://dc.lft.to/lastmile_qr_scan"}, "name": "92112f40e76ecc9ca47005ecdf68470c", "is_reserved": 0},