{"data": {"bikes": [{"lat": 38.90422066666667, "is_disabled": 0, "type": "electric_scooter", "lon": -76.99071233333333, "bike_id": "1f2892d74257336af0cf58e090f9fd47", "fusion_lat": 0.0, "name": "1f2892d74257336af0cf58e090f9fd47", "is_reserved": 0, "rental_uris": {"android": "https://dc.lft.to/lastmile_qr_scan", "ios": "https://dc.lft.to/lastmile_qr_scan"}, "fusion_lon": 0.0}, {"lat": 38.91975816666667, "is_disabled": 0, "type": "electric_scooter", "lon": -77.0001945, "bike_id": "007dc53edf41f32ab96971e130a10aff", "fusion_lat": 0.0, "name": "007dc53edf41f32ab96971e130a10aff", "is_reserved": 0, "rental_uris": {"android": "https://dc.lft.to/lastmile_qr_scan", "ios": "https://dc.lft.to/lastmile_qr_scan"}, "fusion_lon": 0.0}, {"lat": 38.909592333333336, "is_disabled": 0, "type": "electric_scooter", "lon": -77.01838616666667, "bike_id": "bc240f588dd4b95513fccf42cb908af5", "fusion_lat": 0.0, "name": "bc240f588dd4b95513fccf42cb908af5", "is_reserved": 0, "rental_uris": {"android": "https://dc.lft.to/lastmile_qr_scan", "ios": "https://dc.lft.to/lastmile_qr_scan"}, "fusion_lon": 0.0}, {"lat": 38.908531833333335, "is_disabled": 0, "type": "electric_scooter", "lon": -77.00626033333333, "bike_id": "1a43d40373a8a6c796e49ec086fa0db7", "fusion_lat": 0.0, "name": "1a43d40373a8a6c796e49ec086fa0db7", "is_reserved": 0, "rental_uris": {"android": "https://dc.lft.to/lastmile_qr_scan", "ios": "https://dc.lft.to/lastmile_qr_scan"}, "fusion_lon": 0.0}, {"lat": 38.90366516666667, "is_disabled": 0, "type": "electric_scooter", "lon": -77.06288116666667, "bike_id": "0f8993ddf579acece3278e400761f0c1", "fusion_lat": 0.0, "name": "0f8993ddf579acece3278e400761f0c1", "is_reserved": 0, "rental_uris": {"android": "https://dc.lft.to/lastmile_qr_scan", "ios": "https://dc.lft.to/lastmile_qr_scan"}, "fusion_lon": 0.0}, {"lat": 38.90140533333334, "is_disabled": 0, "type": "electric_scooter", "lon": -76.9805385, "bike_id": "59793c1cf7a93d0b7f868d616a83462d", "fusion_lat": 0.0, "name": "59793c1cf7a93d0b7f868d616a83462d", "is_reserved": 0, "rental_uris": {"android": "https://dc.lft.to/lastmile_qr_scan", "ios": "https://dc.lft.to/lastmile_qr_scan"}, "fusion_lon": 0.0}, {"lat": 38.93130683333333, "is_disabled": 0, "type": "electric_scooter", "lon": -77.03039566666666, "bike_id": "7e52ad579b3f933647a16b579c9db27d", "fusion_lat": 0.0, "name": "7e52ad579b3f933647a16b579c9db27d", "is_reserved": 0, "rental_uris": {"android": "https://dc.lft.to/lastmile_qr_scan", "ios": "https://dc.lft.to/lastmile_qr_scan"}, "fusion_lon": 0.0}, {"lat": 38.890072833333335, "is_disabled": 0, "type": "electric_scooter", "lon": -76.93744, "bike_id": "346f5cf51bbc4fa7474218476d1417a6", "fusion_lat": 0.0, "name": "346f5cf51bbc4fa7474218476d1417a6", "is_reserved": 0, "rental_uris": {"android": "https://dc.lft.to/lastmile_qr_scan", "ios": "https://dc.lft.to/lastmile_qr_scan"}, "fusion_lon": 0.0}, {"lat": 38.908571, "is_disabled": 0, "type": "electric_scooter", "lon": -76.99966133333334, "bike_id": "f8eaf63254cbecf31ee45e1554eefaa6", "fusion_lat": 0.0, "name": "f8eaf63254cbecf31ee45e1554eefaa6", "is_reserved": 0, "rental_uris": {"android": "https://dc.lft.to/lastmile_qr_scan", "ios": "https://dc.lft.to/lastmile_qr_scan"}, "fusion_lon": 0.0}, {"lat": 38.846089666666664, "is_disabled": 0, "type": "electric_bike", "lon": -76.96906133333333, "bike_id": "a5b49a18697cc174644cf48c64fb1af9", "fusion_lat": 0.0, "name": "a5b49a18697cc174644cf48c64fb1af9", "is_reserved": 0, "rental_uris": {"android": "https://dc.lft.to/lastmile_qr_scan", "ios": "https://dc.lft.to/lastmile_qr_scan"}, "fusion_lon": 0.0}, {"lat": 38.90406083333333, "is_disabled": 0, "type": "electric_scooter", "lon": -77.043313, "bike_id": "524150f3e24d2f973b8ff52e3e81dc60", "fusion_lat": 0.0, "name": "524150f3e24d2f973b8ff52e3e81dc60", "is_reserved": 0, "rental_uris": {"android": "https://dc.lft.to/lastmile_qr_scan", "ios": "https://dc.lft.to/lastmile_qr_scan"}, "fusion_lon": 0.0}, {"lat": 38.879830166666665, "is_disabled": 0, "type": "electric_scooter", "lon": -77.00589283333333, "bike_id": "67fdefe1bfb1bcd4449277bdc70bd205", "fusion_lat": 0.0, "name": "67fdefe1bfb1bcd4449277bdc70bd205", "is_reserved": 0, "rental_uris": {"android": "https://dc.lft.to/lastmile_qr_scan", "ios": "https://dc.lft.to/lastmile_qr_scan"}, "fusion_lon": 0.0}, {"lat": 38.916472, "is_disabled": 0, "type": "electric_scooter", "lon": -77.0227855, "bike_id": "a80f2db8292fd35c285c088620d19cc6", "fusion_lat": 0.0, "name": "a80f2db8292fd35c285c088620d19cc6", "is_reserved": 0, "rental_uris": {"android": "https://dc.lft.to/lastmile_qr_scan", "ios": "https://dc.lft.to/lastmile_qr_scan"}, "fusion_lon": 0.0}, {"lat": 38.86092816666667, "is_disabled": 0, "type": "electric_scooter", "lon": -76.983784, "bike_id": "7b93abcbffd16c2c3df2666c5f8d504c", "fusion_lat": 0.0, "name": "7b93abcbffd16c2c3df2666c5f8d504c", "is_reserved": 0, "rental_uris": {"android": "https://dc.lft.to/lastmile_qr_scan", "ios": "https://dc.lft.to/lastmile_qr_scan"}, "fusion_lon": 0.0}, {"lat": 38.978395, "is_disabled": 0, "type": "electric_bike", "lon": -77.02655733333333, "bike_id": "51f79e88ec1c327a58be0bcde9e2acb8", "fusion_lat": 0.0, "name": "51f79e88ec1c327a58be0bcde9e2acb8", "is_reserved": 0, "rental_uris": {"android": "https://dc.lft.to/lastmile_qr_scan", "ios": "https://dc.lft.to/lastmile_qr_scan"}, "fusion_lon": 0.0}, {"lat": 38.90015733333333, "is_disabled": 0, "type": "electric_scooter", "lon": -76.992173, "bike_id": "66453b9c79ed0a5b12c8cb2d68da8879", "fusion_lat": 0.0, "name": "66453b9c79ed0a5b12c8cb2d68da8879", "is_reserved": 0, "rental_uris": {"android": "https://dc.lft.to/lastmile_qr_scan", "ios": "https://dc.lft.to/lastmile_qr_scan"}, "fusion_lon": 0.0}, {"lat": 38.8637775, "is_disabled": 0, "type": "electric_scooter", "lon": -76.99248433333334, "bike_id": "5b4a9593f30eab5b156a1f181d725876", "fusion_lat": 0.0, "name": "5b4a9593f30eab5b156a1f181d725876", "is_reserved": 0, "rental_uris": {"android": "https://dc.lft.to/lastmile_qr_scan", "ios": "https://dc.lft.to/lastmile_qr_scan"}, "fusion_lon": 0.0}, {"lat": 38.9169565, "is_disabled": 0, "type": "electric_scooter", "lon": -77.03712333333333, "bike_id": "ecb0501146ab2bda62d3fa19556ad4d1", "fusion_lat": 0.0, "name": "ecb0501146ab2bda62d3fa19556ad4d1", "is_reserved": 0, "rental_uris": {"android": "https://dc.lft.to/lastmile_qr_scan", "ios": "https://dc.lft.to/lastmile_qr_scan"}, "fusion_lon": 0.0}, {"lat": 38.9041095, "is_disabled": 0, "type": "electric_scooter", "lon": -77.0293635, "bike_id": "883d7e13db8c44ff01884d1db4c33e90", "fusion_lat": 0.0, "name": "883d7e13db8c44ff01884d1db4c33e90", "is_reserved": 0, "rental_uris": {"android": "https://dc.lft.to/lastmile_qr_scan", "ios": "https://dc.lft.to/lastmile_qr_scan"}, "fusion_lon": 0.0}, {"lat": 38.924445666666664, "is_disabled": 0, "type": "electric_scooter", "lon": -77.02041316666667, "bike_id": "b3a9775f6e45987bcda578900090712e", "fusion_lat": 0.0, "name": "b3a9775f6e45987bcda578900090712e", "is_reserved": 0, "rental_uris": {"android": "https://dc.lft.to/lastmile_qr_scan", "ios": "https://dc.lft.to/lastmile_qr_scan"}, "fusion_lon": 0.0}, {"lat": 38.94305633333333, "is_disabled": 0, "type": "electric_scooter", "lon": -77.05925083333334, "bike_id": "37431d8ee734324a4a23136b16ec4e7e", "fusion_lat": 0.0, "name": "37431d8ee734324a4a23136b16ec4e7e", "is_reserved": 0, "rental_uris": {"android": "https://dc.lft.to/lastmile_qr_scan", "ios": "https://dc.lft.to/lastmile_qr_scan"}, "fusion_lon": 0.0}, {"lat": 38.8651255, "is_disabled": 0, "type": "electric_bike", "lon": -76.97344866666667, "bike_id": "9fc1048ec802a3d9b24e9019a38deed1", "fusion_lat": 0.0, "name": "9fc1048ec802a3d9b24e9019a38deed1", "is_reserved": 0, "rental_uris": {"android": "https://dc.lft.to/lastmile_qr_scan", "ios": "https://dc.lft.to/lastmile_qr_scan"}, "fusion_lon": 0.0}, {"lat": 38.855019, "is_disabled": 0, "type": "electric_bike", "lon": -77.12050083333334, "bike_id": "479dc6142620fa838e1133095f358976", "fusion_lat": 0.0, "name": "479dc6142620fa838e1133095f358976", "is_reserved": 0, "rental_uris": {"android": "https://dc.lft.to/lastmile_qr_scan", "ios": "https://dc.lft.to/lastmile_qr_scan"}, "fusion_lon": 0.0}, {"lat": 38.900221333333334, "is_disabled": 0, "type": "electric_scooter", "lon": -76.9987175, "bike_id": "f33eaac2f7f07319293068ca9e62aec4", "fusion_lat": 0.0, "name": "f33eaac2f7f07319293068ca9e62aec4", "is_reserved": 0, "rental_uris": {"android": "https://dc.lft.to/lastmile_qr_scan", "ios": "https://dc.lft.to/lastmile_qr_scan"}, "fusion_lon": 0.0}, {"lat": 38.913626666666666, "is_disabled": 0, "type": "electric_scooter", "lon": -77.03197266666666, "bike_id": "f46de4c05290f8d2f0f7b1e871c85440", "fusion_lat": 0.0, "name": "f46de4c05290f8d2f0f7b1e871c85440", "is_reserved": 0, "rental_uris": {"android": "https://dc.lft.to/lastmile_qr_scan", "ios": "https://dc.lft.to/lastmile_qr_scan"}, "fusion_lon": 0.0}, {"lat": 38.9237025, "is_disabled": 0, "type": "electric_scooter", "lon": -77.0402945, "bike_id": "3080b15f9d3e459508df6789e1ba87a0", "fusion_lat": 0.0, "name": "3080b15f9d3e459508df6789e1ba87a0", "is_reserved": 0, "rental_uris": {"android": "https://dc.lft.to/lastmile_qr_scan", "ios": "https://dc.lft.to/lastmile_qr_scan"}, "fusion_lon": 0.0}, {"lat": 38.909848, "is_disabled": 0, "type": "electric_scooter", "lon": -77.03401333333333, "bike_id": "610f057dad9b3f300bf7b5e0e79590a1", "fusion_lat": 0.0, "name": "610f057dad9b3f300bf7b5e0e79590a1", "is_reserved": 0, "rental_uris": {"android": "https://dc.lft.to/lastmile_qr_scan", "ios": "https://dc.lft.to/lastmile_qr_scan"}, "fusion_lon": 0.0}, {"lat": 38.917902166666664, "is_disabled": 0, "type": "electric_scooter", "lon": -77.0407825, "bike_id": "1211cf5d0bfd5f84b89f38bc27445fb5", "fusion_lat": 0.0, "name": "1211cf5d0bfd5f84b89f38bc27445fb5", "is_reserved": 0, "rental_uris": {"android": "https://dc.lft.to/lastmile_qr_scan", "ios": "https://dc.lft.to/lastmile_qr_scan"}, "fusion_lon": 0.0}, {"lat": 38.91561, "is_disabled": 0, "type": "electric_scooter", "lon": -77.04877033333334, "bike_id": "4a02e155e9bda1903dbeded31b013cb4", "fusion_lat": 0.0, "name": "4a02e155e9bda1903dbeded31b013cb4", "is_reserved": 0, "rental_uris": {"android": "https://dc.lft.to/lastmile_qr_scan", "ios": "https://dc.lft.to/lastmile_qr_scan"}, "fusion_lon": 0.0}, {"lat": 38.907234833333334, "is_disabled": 0, "type": "electric_scooter", "lon": -77.04758366666667, "bike_id": "716ef9ab5b2b72a024b6bd6daf837e4a", "fusion_lat": 0.0, "name": "716ef9ab5b2b72a024b6bd6daf837e4a", "is_reserved": 0, "rental_uris": {"android": "https://dc.lft.to/lastmile_qr_scan", "ios": "https://dc.lft.to/lastmile_qr_scan"}, "fusion_lon": 0.0}, {"lat": 38.908432833333336, "is_disabled": 0, "type": "electric_scooter", "lon": -77.02718983333334, "bike_id": "08e506eec866f2792caa287e1449a01a", "fusion_lat": 0.0, "name": "08e506eec866f2792caa287e1449a01a", "is_reserved": 0, "rental_uris": {"android": "https://dc.lft.to/lastmile_qr_scan", "ios": "https://dc.lft.to/lastmile_qr_scan"}, "fusion_lon": 0.0}, {"lat": 38.913352, "is_disabled": 0, "type": "electric_scooter", "lon": -77.03133816666667, "bike_id": "39714d2f413b1fb088c112d29fccfc37", "fusion_lat": 0.0, "name": "39714d2f413b1fb088c112d29fccfc37", "is_reserved": 0, "rental_uris": {"android": "https://dc.lft.to/lastmile_qr_scan", "ios": "https://dc.lft.to/lastmile_qr_scan"}, "fusion_lon": 0.0}, {"lat": 38.90127866666667, "is_disabled": 0, "type": "electric_scooter", "lon": -76.99754366666667, "bike_id": "c5081c59e330ab103ce17d56f3f775d6", "fusion_lat": 0.0, "name": "c5081c59e330ab103ce17d56f3f775d6", "is_reserved": 0, "rental_uris": {"android": "https://dc.lft.to/lastmile_qr_scan", "ios": "https://dc.lft.to/lastmile_qr_scan"}, "fusion_lon": 0.0}, {"lat": 38.88504283333333, "is_disabled": 0, "type": "electric_scooter", "lon": -77.015571, "bike_id": "765df2ac95872512d42924bf3128358d", "fusion_lat": 0.0, "name": "765df2ac95872512d42924bf3128358d", "is_reserved": 0, "rental_uris": {"android": "https://dc.lft.to/lastmile_qr_scan", "ios": "https://dc.lft.to/lastmile_qr_scan"}, "fusion_lon": 0.0}, {"lat": 38.890449833333335, "is_disabled": 0, "type": "electric_scooter", "lon": -76.9375335, "bike_id": "cea6a7cc17bbab254728c2bc9ca525ed", "fusion_lat": 0.0, "name": "cea6a7cc17bbab254728c2bc9ca525ed", "is_reserved": 0, "rental_uris": {"android": "https://dc.lft.to/lastmile_qr_scan", "ios": "https://dc.lft.to/lastmile_qr_scan"}, "fusion_lon": 0.0}, {"lat": 38.87316833333333, "is_disabled": 0, "type": "electric_bike", "lon": -76.99161966666667, "bike_id": "6c0b469a157d19532d3d33214293c11c", "fusion_lat": 0.0, "name": "6c0b469a157d19532d3d33214293c11c", "is_reserved": 0, "rental_uris": {"android": "https://dc.lft.to/lastmile_qr_scan", "ios": "https://dc.lft.to/lastmile_qr_scan"}, "fusion_lon": 0.0}, {"lat": 38.97089783333333, "is_disabled": 0, "type": "electric_bike", "lon": -77.06966283333334, "bike_id": "2cbc61ac427cb1d23caa77c2e8fce89b", "fusion_lat": 0.0, "name": "2cbc61ac427cb1d23caa77c2e8fce89b", "is_reserved": 0, "rental_uris": {"android": "https://dc.lft.to/lastmile_qr_scan", "ios": "https://dc.lft.to/lastmile_qr_scan"}, "fusion_lon": 0.0}, {"lat": 38.905675, "is_disabled": 0, "type": "electric_scooter", "lon": -77.03298333333333, "bike_id": "9476defd151cb26ca945c2f946783897", "fusion_lat": 0.0, "name": "9476defd151cb26ca945c2f946783897", "is_reserved": 0, "rental_uris": {"android": "https://dc.lft.to/lastmile_qr_scan", "ios": "https://dc.lft.to/lastmile_qr_scan"}, "fusion_lon": 0.0}, {"lat": 38.898402833333336, "is_disabled": 0, "type": "electric_scooter", "lon": -76.93107, "bike_id": "d68decd62236c438d62f5b7ae997e367", "fusion_lat": 0.0, "name": "d68decd62236c438d62f5b7ae997e367", "is_reserved": 0, "rental_uris": {"android": "https://dc.lft.to/lastmile_qr_scan", "ios": "https://dc.lft.to/lastmile_qr_scan"}, "fusion_lon": 0.0}, {"lat": 38.91708416666667, "is_disabled": 0, "type": "electric_scooter", "lon": -77.03871116666667, "bike_id": "a6a56fb903462d938286420b080d9d39", "fusion_lat": 0.0, "name": "a6a56fb903462d938286420b080d9d39", "is_reserved": 0, "rental_uris": {"android": "https://dc.lft.to/lastmile_qr_scan", "ios": "https://dc.lft.to/lastmile_qr_scan"}, "fusion_lon": 0.0}, {"lat": 38.91711866666667, "is_disabled": 0, "type": "electric_scooter", "lon": -77.03472216666667, "bike_id": "f5fe7f9d1ca3a7dd98aaafe20547c890", "fusion_lat": 0.0, "name": "f5fe7f9d1ca3a7dd98aaafe20547c890", "is_reserved": 0, "rental_uris": {"android": "https://dc.lft.to/lastmile_qr_scan", "ios": "https://dc.lft.to/lastmile_qr_scan"}, "fusion_lon": 0.0}, {"lat": 38.933533833333335, "is_disabled": 0, "type": "electric_scooter", "lon": -77.07379066666667, "bike_id": "03af84cc2780c8a9b63db6762a65c518", "fusion_lat": 0.0, "name": "03af84cc2780c8a9b63db6762a65c518", "is_reserved": 0, "rental_uris": {"android": "https://dc.lft.to/lastmile_qr_scan", "ios": "https://dc.lft.to/lastmile_qr_scan"}, "fusion_lon": 0.0}, {"lat": 38.96603783333333, "is_disabled": 0, "type": "electric_bike", "lon": -76.98333033333333, "bike_id": "598867003a53e27d67c127df44567f12", "fusion_lat": 0.0, "name": "598867003a53e27d67c127df44567f12", "is_reserved": 0, "rental_uris": {"android": "https://dc.lft.to/lastmile_qr_scan", "ios": "https://dc.lft.to/lastmile_qr_scan"}, "fusion_lon": 0.0}, {"lat": 38.8995755, "is_disabled": 0, "type": "electric_bike", "lon": -76.9855665, "bike_id": "5ac3e1fe856c0f82cded51b615d2952f", "fusion_lat": 0.0, "name": "5ac3e1fe856c0f82cded51b615d2952f", "is_reserved": 0, "rental_uris": {"android": "https://dc.lft.to/lastmile_qr_scan", "ios": "https://dc.lft.to/lastmile_qr_scan"}, "fusion_lon": 0.0}, {"lat": 38.89245283333333, "is_disabled": 0, "type": "electric_scooter", "lon": -77.04895483333334, "bike_id": "07f7c1b81ef7b096e77363e3e2d44135", "fusion_lat": 0.0, "name": "07f7c1b81ef7b096e77363e3e2d44135", "is_reserved": 0, "rental_uris": {"android": "https://dc.lft.to/lastmile_qr_scan", "ios": "https://dc.lft.to/lastmile_qr_scan"}, "fusion_lon": 0.0}, {"lat": 38.92321916666667, "is_disabled": 0, "type": "electric_scooter", "lon": -77.02968733333333, "bike_id": "80a1a3ef392cce9406a4c7115d7bec77", "fusion_lat": 0.0, "name": "80a1a3ef392cce9406a4c7115d7bec77", "is_reserved": 0, "rental_uris": {"android": "https://dc.lft.to/lastmile_qr_scan", "ios": "https://dc.lft.to/lastmile_qr_scan"}, "fusion_lon": 0.0}, {"lat": 38.920715, "is_disabled": 0, "type": "electric_scooter", "lon": -77.02498283333334, "bike_id": "5fa31e4ef88b89145070ce8a1ff583f7", "fusion_lat": 0.0, "name": "5fa31e4ef88b89145070ce8a1ff583f7", "is_reserved": 0, "rental_uris": {"android": "https://dc.lft.to/lastmile_qr_scan", "ios": "https://dc.lft.to/lastmile_qr_scan"}, "fusion_lon": 0.0}, {"lat": 38.93823883333334, "is_disabled": 0, "type": "electric_scooter", "lon": -77.06047683333334, "bike_id": "d18ee19074c978a2594ef3c186b54a44", "fusion_lat": 0.0, "name": "d18ee19074c978a2594ef3c186b54a44", "is_reserved": 0, "rental_uris": {"android": "https://dc.lft.to/lastmile_qr_scan", "ios": "https://dc.lft.to/lastmile_qr_scan"}, "fusion_lon": 0.0}, {"lat": 38.90391533333333, "is_disabled": 0, "type": "electric_scooter", "lon": -77.02810133333334, "bike_id": "aa31373560a36718f15bed1d353baa0f", "fusion_lat": 0.0, "name": "aa31373560a36718f15bed1d353baa0f", "is_reserved": 0, "rental_uris": {"android": "https://dc.lft.to/lastmile_qr_scan", "ios": "https://dc.lft.to/lastmile_qr_scan"}, "fusion_lon": 0.0}, {"lat": 38.915433166666666, "is_disabled": 0, "type": "electric_scooter", "lon": -77.022015, "bike_id": "2d672c70707dce23abdc9765bf3b00fc", "fusion_lat": 0.0, "name": "2d672c70707dce23abdc9765bf3b00fc", "is_reserved": 0, "rental_uris": {"android": "https://dc.lft.to/lastmile_qr_scan", "ios": "https://dc.lft.to/lastmile_qr_scan"}, "fusion_lon": 0.0}, {"lat": 38.87065833333333, "is_disabled": 0, "type": "electric_scooter", "lon": -77.008422, "bike_id": "6a2f114af279ffa26ded1dcc7e27fa92", "fusion_lat": 0.0, "name": "6a2f114af279ffa26ded1dcc7e27fa92", "is_reserved": 0, "rental_uris": {"android": "https://dc.lft.to/lastmile_qr_scan", "ios": "https://dc.lft.to/lastmile_qr_scan"}, "fusion_lon": 0.0}, {"lat": 38.901671666666665, "is_disabled": 0, "type": "electric_scooter", "lon": -77.04826333333334, "bike_id": "2726f5c6db27a3f03f3dcc1917a2a9c6", "fusion_lat": 0.0, "name": "2726f5c6db27a3f03f3dcc1917a2a9c6", "is_reserved": 0, "rental_uris": {"android": "https://dc.lft.to/lastmile_qr_scan", "ios": "https://dc.lft.to/lastmile_qr_scan"}, "fusion_lon": 0.0}, {"lat": 38.94180033333333, "is_disabled": 0, "type": "electric_scooter", "lon": -77.03656816666667, "bike_id": "cb50f0e0f1c84b2fb757d89784e724d6", "fusion_lat": 0.0, "name": "cb50f0e0f1c84b2fb757d89784e724d6", "is_reserved": 0, "rental_uris": {"android": "https://dc.lft.to/lastmile_qr_scan", "ios": "https://dc.lft.to/lastmile_qr_scan"}, "fusion_lon": 0.0}, {"lat": 38.8621295, "is_disabled": 0, "type": "electric_bike", "lon": -76.997831, "bike_id": "edb5f0aa78fef88b0956094edabeeffa", "fusion_lat": 0.0, "name": "edb5f0aa78fef88b0956094edabeeffa", "is_reserved": 0, "rental_uris": {"android": "https://dc.lft.to/lastmile_qr_scan", "ios": "https://dc.lft.to/lastmile_qr_scan"}, "fusion_lon": 0.0}, {"lat": 38.885053, "is_disabled": 0, "type": "electric_bike", "lon": -76.98086, "bike_id": "7a5c5ea94fbc92a9e0b25feff89d27c3", "fusion_lat": 0.0, "name": "7a5c5ea94fbc92a9e0b25feff89d27c3", "is_reserved": 0, "rental_uris": {"android": "https://dc.lft.to/lastmile_qr_scan", "ios": "https://dc.lft.to/lastmile_qr_scan"}, "fusion_lon": 0.0}, {"lat": 38.886598666666664, "is_disabled": 0, "type": "electric_scooter", "lon": -76.99632983333333, "bike_id": "ce092bfe6469b17a0d2fd436d589dbf4", "fusion_lat": 0.0, "name": "ce092bfe6469b17a0d2fd436d589dbf4", "is_reserved": 0, "rental_uris": {"android": "https://dc.lft.to/lastmile_qr_scan", "ios": "https://dc.lft.to/lastmile_qr_scan"}, "fusion_lon": 0.0}, {"lat": 38.9060615, "is_disabled": 0, "type": "electric_scooter", "lon": -77.03961666666666, "bike_id": "ce437c3c955ca3e9e634d04201466fce", "fusion_lat": 0.0, "name": "ce437c3c955ca3e9e634d04201466fce", "is_reserved": 0, "rental_uris": {"android": "https://dc.lft.to/lastmile_qr_scan", "ios": "https://dc.lft.to/lastmile_qr_scan"}, "fusion_lon": 0.0}, {"lat": 38.90608, "is_disabled": 0, "type": "electric_scooter", "lon": -77.05856383333334, "bike_id": "fe34d2a77807196530211055bc1cd32d", "fusion_lat": 0.0, "name": "fe34d2a77807196530211055bc1cd32d", "is_reserved": 0, "rental_uris": {"android": "https://dc.lft.to/lastmile_qr_scan", "ios": "https://dc.lft.to/lastmile_qr_scan"}, "fusion_lon": 0.0}, {"lat": 38.89737233333334, "is_disabled": 0, "type": "electric_scooter", "lon": -77.00945483333334, "bike_id": "973bf8db6d1730f2a1da8776fa1529cd", "fusion_lat": 0.0, "name": "973bf8db6d1730f2a1da8776fa1529cd", "is_reserved": 0, "rental_uris": {"android": "https://dc.lft.to/lastmile_qr_scan", "ios": "https://dc.lft.to/lastmile_qr_scan"}, "fusion_lon": 0.0}, {"lat": 38.9244415, "is_disabled": 0, "type": "electric_scooter", "lon": -77.04035733333333, "bike_id": "89ae5ad9cc56462eed4e9b9223b1119c", "fusion_lat": 0.0, "name": "89ae5ad9cc56462eed4e9b9223b1119c", "is_reserved": 0, "rental_uris": {"android": "https://dc.lft.to/lastmile_qr_scan", "ios": "https://dc.lft.to/lastmile_qr_scan"}, "fusion_lon": 0.0}, {"lat": 38.89272283333333, "is_disabled": 0, "type": "electric_scooter", "lon": -77.02020816666666, "bike_id": "57a7a802e0f6f3cc76ab879c1ee9d89d", "fusion_lat": 0.0, "name": "57a7a802e0f6f3cc76ab879c1ee9d89d", "is_reserved": 0, "rental_uris": {"android": "https://dc.lft.to/lastmile_qr_scan", "ios": "https://dc.lft.to/lastmile_qr_scan"}, "fusion_lon": 0.0}, {"lat": 38.927062, "is_disabled": 0, "type": "electric_scooter", "lon": -77.02097666666667, "bike_id": "273092605abba406c75602688084673d", "fusion_lat": 0.0, "name": "273092605abba406c75602688084673d", "is_reserved": 0, "rental_uris": {"android": "https://dc.lft.to/lastmile_qr_scan", "ios": "https://dc.lft.to/lastmile_qr_scan"}, "fusion_lon": 0.0}, {"lat": 38.90497216666667, "is_disabled": 0, "type": "electric_scooter", "lon": -77.001298, "bike_id": "a96d2d2af58b265c5edbeeb5eb44d8a9", "fusion_lat": 0.0, "name": "a96d2d2af58b265c5edbeeb5eb44d8a9", "is_reserved": 0, "rental_uris": {"android": "https://dc.lft.to/lastmile_qr_scan", "ios": "https://dc.lft.to/lastmile_qr_scan"}, "fusion_lon": 0.0}, {"lat": 38.91993166666666, "is_disabled": 0, "type": "electric_scooter", "lon": -77.0176155, "bike_id": "fb82659b6cdc0dcce24424fb6a03c2ee", "fusion_lat": 0.0, "name": "fb82659b6cdc0dcce24424fb6a03c2ee", "is_reserved": 0, "rental_uris": {"android": "https://dc.lft.to/lastmile_qr_scan", "ios": "https://dc.lft.to/lastmile_qr_scan"}, "fusion_lon": 0.0}, {"lat": 38.90342783333333, "is_disabled": 0, "type": "electric_scooter", "lon": -77.0657835, "bike_id": "ea781d7c84af8d19ee6e09ce5cfb063b", "fusion_lat": 0.0, "name": "ea781d7c84af8d19ee6e09ce5cfb063b", "is_reserved": 0, "rental_uris": {"android": "https://dc.lft.to/lastmile_qr_scan", "ios": "https://dc.lft.to/lastmile_qr_scan"}, "fusion_lon": 0.0}, {"lat": 38.9298225, "is_disabled": 0, "type": "electric_bike", "lon": -76.97506083333333, "bike_id": "dcd15309cb33e88e0c0e6776d489a6c5", "fusion_lat": 0.0, "name": "dcd15309cb33e88e0c0e6776d489a6c5", "is_reserved": 0, "rental_uris": {"android": "https://dc.lft.to/lastmile_qr_scan", "ios": "https://dc.lft.to/lastmile_qr_scan"}, "fusion_lon": 0.0}, {"lat": 38.903452333333334, "is_disabled": 0, "type": "electric_scooter", "lon": -77.00739016666667, "bike_id": "c3494e59663bcd85f6aa35f1279d5ad3", "fusion_lat": 0.0, "name": "c3494e59663bcd85f6aa35f1279d5ad3", "is_reserved": 0, "rental_uris": {"android": "https://dc.lft.to/lastmile_qr_scan", "ios": "https://dc.lft.to/lastmile_qr_scan"}, "fusion_lon": 0.0}, {"lat": 38.88766016666667, "is_disabled": 0, "type": "electric_scooter", "lon": -76.95599283333334, "bike_id": "d765943269d1e85ba5f95410285cf7bd", "fusion_lat": 0.0, "name": "d765943269d1e85ba5f95410285cf7bd", "is_reserved": 0, "rental_uris": {"android": "https://dc.lft.to/lastmile_qr_scan", "ios": "https://dc.lft.to/lastmile_qr_scan"}, "fusion_lon": 0.0}, {"lat": 38.9356905, "is_disabled": 0, "type": "electric_scooter", "lon": -77.08764816666667, "bike_id": "f02909879c49521a1d2ef9b973f0121f", "fusion_lat": 0.0, "name": "f02909879c49521a1d2ef9b973f0121f", "is_reserved": 0, "rental_uris": {"android": "https://dc.lft.to/lastmile_qr_scan", "ios": "https://dc.lft.to/lastmile_qr_scan"}, "fusion_lon": 0.0}, {"lat": 38.91313683333333, "is_disabled": 0, "type": "electric_scooter", "lon": -77.0321675, "bike_id": "0e84603ff0e603065d639490bc390542", "fusion_lat": 0.0, "name": "0e84603ff0e603065d639490bc390542", "is_reserved": 0, "rental_uris": {"android": "https://dc.lft.to/lastmile_qr_scan", "ios": "https://dc.lft.to/lastmile_qr_scan"}, "fusion_lon": 0.0}, {"lat": 38.916661, "is_disabled": 0, "type": "electric_scooter", "lon": -77.0239375, "bike_id": "2fccb4f3f65628f5f81ecb14af4e3b1f", "fusion_lat": 0.0, "name": "2fccb4f3f65628f5f81ecb14af4e3b1f", "is_reserved": 0, "rental_uris": {"android": "https://dc.lft.to/lastmile_qr_scan", "ios": "https://dc.lft.to/lastmile_qr_scan"}, "fusion_lon": 0.0}, {"lat": 38.89845783333333, "is_disabled": 0, "type": "electric_scooter", "lon": -77.03196283333334, "bike_id": "dcf54fba3523d66cd32f4de5a39f2e35", "fusion_lat": 0.0, "name": "dcf54fba3523d66cd32f4de5a39f2e35", "is_reserved": 0, "rental_uris": {"android": "https://dc.lft.to/lastmile_qr_scan", "ios": "https://dc.lft.to/lastmile_qr_scan"}, "fusion_lon": 0.0}, {"lat": 38.8057815, "is_disabled": 0, "type": "electric_bike", "lon": -77.06863283333334, "bike_id": "62999550dc103e7545005ff7fe6e177e", "fusion_lat": 0.0, "name": "62999550dc103e7545005ff7fe6e177e", "is_reserved": 0, "rental_uris": {"android": "https://dc.lft.to/lastmile_qr_scan", "ios": "https://dc.lft.to/lastmile_qr_scan"}, "fusion_lon": 0.0}, {"lat": 38.92134333333333, "is_disabled": 0, "type": "electric_scooter", "lon": -77.01832683333333, "bike_id": "4d426ec6a2a94c07b9c1c268de7f9077", "fusion_lat": 0.0, "name": "4d426ec6a2a94c07b9c1c268de7f9077", "is_reserved": 0, "rental_uris": {"android": "https://dc.lft.to/lastmile_qr_scan", "ios": "https://dc.lft.to/lastmile_qr_scan"}, "fusion_lon": 0.0}, {"lat": 38.9079845, "is_disabled": 0, "type": "electric_scooter", "lon": -77.036681, "bike_id": "cc19f33eef442ae4330865ef06038683", "fusion_lat": 0.0, "name": "cc19f33eef442ae4330865ef06038683", "is_reserved": 0, "rental_uris": {"android": "https://dc.lft.to/lastmile_qr_scan", "ios": "https://dc.lft.to/lastmile_qr_scan"}, "fusion_lon": 0.0}, {"lat": 38.964920166666666, "is_disabled": 0, "type": "electric_scooter", "lon": -77.0279225, "bike_id": "b5e0e35ccf32b5ffa705bd382c09a383", "fusion_lat": 0.0, "name": "b5e0e35ccf32b5ffa705bd382c09a383", "is_reserved": 0, "rental_uris": {"android": "https://dc.lft.to/lastmile_qr_scan", "ios": "https://dc.lft.to/lastmile_qr_scan"}, "fusion_lon": 0.0}, {"lat": 38.8801545, "is_disabled": 0, "type": "electric_scooter", "lon": -77.024777, "bike_id": "a55db563b092adccb37e2d840fb0693a", "fusion_lat": 0.0, "name": "a55db563b092adccb37e2d840fb0693a", "is_reserved": 0, "rental_uris": {"android": "https://dc.lft.to/lastmile_qr_scan", "ios": "https://dc.lft.to/lastmile_qr_scan"}, "fusion_lon": 0.0}, {"lat": 38.902439, "is_disabled": 0, "type": "electric_scooter", "lon": -77.01837133333333, "bike_id": "8845d9ab49930faf9a585cba563c9faf", "fusion_lat": 0.0, "name": "8845d9ab49930faf9a585cba563c9faf", "is_reserved": 0, "rental_uris": {"android": "https://dc.lft.to/lastmile_qr_scan", "ios": "https://dc.lft.to/lastmile_qr_scan"}, "fusion_lon": 0.0}, {"lat": 38.92031566666667, "is_disabled": 0, "type": "electric_scooter", "lon": -77.030499, "bike_id": "dfe89ec96102b7b39f46d3ab18cf79fb", "fusion_lat": 0.0, "name": "dfe89ec96102b7b39f46d3ab18cf79fb", "is_reserved": 0, "rental_uris": {"android": "https://dc.lft.to/lastmile_qr_scan", "ios": "https://dc.lft.to/lastmile_qr_scan"}, "fusion_lon": 0.0}, {"lat": 38.92830633333333, "is_disabled": 0, "type": "electric_scooter", "lon": -77.02192216666667, "bike_id": "2cd96d7d9d2e9cf5ce3d6ec9713d0c7c", "fusion_lat": 0.0, "name": "2cd96d7d9d2e9cf5ce3d6ec9713d0c7c", "is_reserved": 0, "rental_uris": {"android": "https://dc.lft.to/lastmile_qr_scan", "ios": "https://dc.lft.to/lastmile_qr_scan"}, "fusion_lon": 0.0}, {"lat": 38.91431633333333, "is_disabled": 0, "type": "electric_scooter", "lon": -77.031836, "bike_id": "e3c4f1e28a18416f0e64c175785fd4de", "fusion_lat": 0.0, "name": "e3c4f1e28a18416f0e64c175785fd4de", "is_reserved": 0, "rental_uris": {"android": "https://dc.lft.to/lastmile_qr_scan", "ios": "https://dc.lft.to/lastmile_qr_scan"}, "fusion_lon": 0.0}, {"lat": 38.822667833333334, "is_disabled": 0, "type": "electric_bike", "lon": -77.05814916666667, "bike_id": "48b1620a8e55e7e063e918168bc26d16", "fusion_lat": 0.0, "name": "48b1620a8e55e7e063e918168bc26d16", "is_reserved": 0, "rental_uris": {"android": "https://dc.lft.to/lastmile_qr_scan", "ios": "https://dc.lft.to/lastmile_qr_scan"}, "fusion_lon": 0.0}, {"lat": 38.985080333333336, "is_disabled": 0, "type": "electric_bike", "lon": -76.982099, "bike_id": "60325fc6fc35e9b87f624131b2386f23", "fusion_lat": 0.0, "name": "60325fc6fc35e9b87f624131b2386f23", "is_reserved": 0, "rental_uris": {"android": "https://dc.lft.to/lastmile_qr_scan", "ios": "https://dc.lft.to/lastmile_qr_scan"}, "fusion_lon": 0.0}, {"lat": 38.91090766666667, "is_disabled": 0, "type": "electric_scooter", "lon": -77.03846616666667, "bike_id": "0874fd98b32eaf1778424729575a12d1", "fusion_lat": 0.0, "name": "0874fd98b32eaf1778424729575a12d1", "is_reserved": 0, "rental_uris": {"android": "https://dc.lft.to/lastmile_qr_scan", "ios": "https://dc.lft.to/lastmile_qr_scan"}, "fusion_lon": 0.0}, {"lat": 38.92005233333333, "is_disabled": 0, "type": "electric_scooter", "lon": -77.03238416666667, "bike_id": "e870ed7a42f49dc81f7baa864254fcbf", "fusion_lat": 0.0, "name": "e870ed7a42f49dc81f7baa864254fcbf", "is_reserved": 0, "rental_uris": {"android": "https://dc.lft.to/lastmile_qr_scan", "ios": "https://dc.lft.to/lastmile_qr_scan"}, "fusion_lon": 0.0}, {"lat": 38.86988816666667, "is_disabled": 0, "type": "electric_bike", "lon": -76.95988166666666, "bike_id": "5725fddd112ee2d3e65adca3afc02b5d", "fusion_lat": 0.0, "name": "5725fddd112ee2d3e65adca3afc02b5d", "is_reserved": 0, "rental_uris": {"android": "https://dc.lft.to/lastmile_qr_scan", "ios": "https://dc.lft.to/lastmile_qr_scan"}, "fusion_lon": 0.0}, {"lat": 38.8963835, "is_disabled": 0, "type": "electric_scooter", "lon": -77.0321855, "bike_id": "90b199bd4f71be13cfdfbcc8a3795073", "fusion_lat": 0.0, "name": "90b199bd4f71be13cfdfbcc8a3795073", "is_reserved": 0, "rental_uris": {"android": "https://dc.lft.to/lastmile_qr_scan", "ios": "https://dc.lft.to/lastmile_qr_scan"}, "fusion_lon": 0.0}, {"lat": 38.8843205, "is_disabled": 0, "type": "electric_scooter", "lon": -76.95750633333333, "bike_id": "a468af5073066fd70ae8cd039958c710", "fusion_lat": 0.0, "name": "a468af5073066fd70ae8cd039958c710", "is_reserved": 0, "rental_uris": {"android": "https://dc.lft.to/lastmile_qr_scan", "ios": "https://dc.lft.to/lastmile_qr_scan"}, "fusion_lon": 0.0}, {"lat": 38.9261615, "is_disabled": 0, "type": "electric_scooter", "lon": -77.02166116666666, "bike_id": "47d14dd35fc292006c4a9e16a8f84dea", "fusion_lat": 0.0, "name": "47d14dd35fc292006c4a9e16a8f84dea", "is_reserved": 0, "rental_uris": {"android": "https://dc.lft.to/lastmile_qr_scan", "ios": "https://dc.lft.to/lastmile_qr_scan"}, "fusion_lon": 0.0}, {"lat": 38.88511533333333, "is_disabled": 0, "type": "electric_scooter", "lon": -77.00574766666666, "bike_id": "207465c656927acd167d43c105c2b966", "fusion_lat": 0.0, "name": "207465c656927acd167d43c105c2b966", "is_reserved": 0, "rental_uris": {"android": "https://dc.lft.to/lastmile_qr_scan", "ios": "https://dc.lft.to/lastmile_qr_scan"}, "fusion_lon": 0.0}, {"lat": 38.903991166666664, "is_disabled": 0, "type": "electric_scooter", "lon": -77.06762683333334, "bike_id": "4571ed48b1a7a43b4255f4d460a053fe", "fusion_lat": 0.0, "name": "4571ed48b1a7a43b4255f4d460a053fe", "is_reserved": 0, "rental_uris": {"android": "https://dc.lft.to/lastmile_qr_scan", "ios": "https://dc.lft.to/lastmile_qr_scan"}, "fusion_lon": 0.0}, {"lat": 38.855100166666666, "is_disabled": 0, "type": "electric_bike", "lon": -76.984281, "bike_id": "86d6391f384e8ac2dd7e95430928deb4", "fusion_lat": 0.0, "name": "86d6391f384e8ac2dd7e95430928deb4", "is_reserved": 0, "rental_uris": {"android": "https://dc.lft.to/lastmile_qr_scan", "ios": "https://dc.lft.to/lastmile_qr_scan"}, "fusion_lon": 0.0}, {"lat": 38.848159333333335, "is_disabled": 0, "type": "electric_bike", "lon": -77.07915566666667, "bike_id": "c6882470026bcd529743121f32e7ede7", "fusion_lat": 0.0, "name": "c6882470026bcd529743121f32e7ede7", "is_reserved": 0, "rental_uris": {"android": "https://dc.lft.to/lastmile_qr_scan", "ios": "https://dc.lft.to/lastmile_qr_scan"}, "fusion_lon": 0.0}, {"lat": 38.90796916666667, "is_disabled": 0, "type": "electric_scooter", "lon": -77.04338133333333, "bike_id": "430df3ba3b5cfd15c8db3ceb446ab642", "fusion_lat": 0.0, "name": "430df3ba3b5cfd15c8db3ceb446ab642", "is_reserved": 0, "rental_uris": {"android": "https://dc.lft.to/lastmile_qr_scan", "ios": "https://dc.lft.to/lastmile_qr_scan"}, "fusion_lon": 0.0}, {"lat": 38.897569833333336, "is_disabled": 0, "type": "electric_scooter", "lon": -76.94187783333334, "bike_id": "05decea54ca209de071bc67a85dfe904", "fusion_lat": 0.0, "name": "05decea54ca209de071bc67a85dfe904", "is_reserved": 0, "rental_uris": {"android": "https://dc.lft.to/lastmile_qr_scan", "ios": "https://dc.lft.to/lastmile_qr_scan"}, "fusion_lon": 0.0}, {"lat": 38.903659833333336, "is_disabled": 0, "type": "electric_scooter", "lon": -77.03902716666667, "bike_id": "09efe18ec9e9b5850916c588b3994cb9", "fusion_lat": 0.0, "name": "09efe18ec9e9b5850916c588b3994cb9", "is_reserved": 0, "rental_uris": {"android": "https://dc.lft.to/lastmile_qr_scan", "ios": "https://dc.lft.to/lastmile_qr_scan"}, "fusion_lon": 0.0}, {"lat": 38.902355, "is_disabled": 0, "type": "electric_scooter", "lon": -77.02691883333334, "bike_id": "7162c05f81cd89fa285b9e60d6f6fc87", "fusion_lat": 0.0, "name": "7162c05f81cd89fa285b9e60d6f6fc87", "is_reserved": 0, "rental_uris": {"android": "https://dc.lft.to/lastmile_qr_scan", "ios": "https://dc.lft.to/lastmile_qr_scan"}, "fusion_lon": 0.0}, {"lat": 38.91708783333333, "is_disabled": 0, "type": "electric_scooter", "lon": -77.00869666666667, "bike_id": "b339bc5cb0199198afe00d9e852e3d00", "fusion_lat": 0.0, "name": "b339bc5cb0199198afe00d9e852e3d00", "is_reserved": 0, "rental_uris": {"android": "https://dc.lft.to/lastmile_qr_scan", "ios": "https://dc.lft.to/lastmile_qr_scan"}, "fusion_lon": 0.0}, {"lat": 38.917034, "is_disabled": 0, "type": "electric_scooter", "lon": -77.04597316666667, "bike_id": "9761f1c3187c6916dbec8fd646db93dd", "fusion_lat": 0.0, "name": "9761f1c3187c6916dbec8fd646db93dd", "is_reserved": 0, "rental_uris": {"android": "https://dc.lft.to/lastmile_qr_scan", "ios": "https://dc.lft.to/lastmile_qr_scan"}, "fusion_lon": 0.0}, {"lat": 38.91564, "is_disabled": 0, "type": "electric_scooter", "lon": -77.03152366666667, "bike_id": "2f26416f77992da795a7d3212de86f72", "fusion_lat": 0.0, "name": "2f26416f77992da795a7d3212de86f72", "is_reserved": 0, "rental_uris": {"android": "https://dc.lft.to/lastmile_qr_scan", "ios": "https://dc.lft.to/lastmile_qr_scan"}, "fusion_lon": 0.0}, {"lat": 38.905194, "is_disabled": 0, "type": "electric_scooter", "lon": -77.068843, "bike_id": "1770ddc58db645b198124624ac05cfd0", "fusion_lat": 0.0, "name": "1770ddc58db645b198124624ac05cfd0", "is_reserved": 0, "rental_uris": {"android": "https://dc.lft.to/lastmile_qr_scan", "ios": "https://dc.lft.to/lastmile_qr_scan"}, "fusion_lon": 0.0}, {"lat": 38.841011333333334, "is_disabled": 0, "type": "electric_bike", "lon": -77.08942633333334, "bike_id": "982bcd79fd32a9387215a56aee54ab82", "fusion_lat": 0.0, "name": "982bcd79fd32a9387215a56aee54ab82", "is_reserved": 0, "rental_uris": {"android": "https://dc.lft.to/lastmile_qr_scan", "ios": "https://dc.lft.to/lastmile_qr_scan"}, "fusion_lon": 0.0}, {"lat": 38.87867033333333, "is_disabled": 0, "type": "electric_scooter", "lon": -77.01749, "bike_id": "55197f0cd08bb7d6e3af2810fb4a37df", "fusion_lat": 0.0, "name": "55197f0cd08bb7d6e3af2810fb4a37df", "is_reserved": 0, "rental_uris": {"android": "https://dc.lft.to/lastmile_qr_scan", "ios": "https://dc.lft.to/lastmile_qr_scan"}, "fusion_lon": 0.0}, {"lat": 38.922405166666664, "is_disabled": 0, "type": "electric_scooter", "lon": -77.0366495, "bike_id": "54f14422b998ebfb465494eadc933043", "fusion_lat": 0.0, "name": "54f14422b998ebfb465494eadc933043", "is_reserved": 0, "rental_uris": {"android": "https://dc.lft.to/lastmile_qr_scan", "ios": "https://dc.lft.to/lastmile_qr_scan"}, "fusion_lon": 0.0}, {"lat": 38.89221516666667, "is_disabled": 0, "type": "electric_scooter", "lon": -77.021644, "bike_id": "cfef934de8bfbacc39620f224ca33e5a", "fusion_lat": 0.0, "name": "cfef934de8bfbacc39620f224ca33e5a", "is_reserved": 0, "rental_uris": {"android": "https://dc.lft.to/lastmile_qr_scan", "ios": "https://dc.lft.to/lastmile_qr_scan"}, "fusion_lon": 0.0}, {"lat": 38.92294, "is_disabled": 0, "type": "electric_scooter", "lon": -77.022462, "bike_id": "9d62766ecba5a716352b5880a7c98669", "fusion_lat": 0.0, "name": "9d62766ecba5a716352b5880a7c98669", "is_reserved": 0, "rental_uris": {"android": "https://dc.lft.to/lastmile_qr_scan", "ios": "https://dc.lft.to/lastmile_qr_scan"}, "fusion_lon": 0.0}, {"lat": 38.9177975, "is_disabled": 0, "type": "electric_scooter", "lon": -77.01456183333333, "bike_id": "76dd59f9fcf8b369aa37a732ac42b9e5", "fusion_lat": 0.0, "name": "76dd59f9fcf8b369aa37a732ac42b9e5", "is_reserved": 0, "rental_uris": {"android": "https://dc.lft.to/lastmile_qr_scan", "ios": "https://dc.lft.to/lastmile_qr_scan"}, "fusion_lon": 0.0}, {"lat": 38.900211666666664, "is_disabled": 0, "type": "electric_scooter", "lon": -77.02884266666666, "bike_id": "6a10c668c5550536a17a53c64a9030f2", "fusion_lat": 0.0, "name": "6a10c668c5550536a17a53c64a9030f2", "is_reserved": 0, "rental_uris": {"android": "https://dc.lft.to/lastmile_qr_scan", "ios": "https://dc.lft.to/lastmile_qr_scan"}, "fusion_lon": 0.0}, {"lat": 38.912858166666666, "is_disabled": 0, "type": "electric_scooter", "lon": -77.04514283333333, "bike_id": "c90def4c990a76b35c80f6db9dd5e719", "fusion_lat": 0.0, "name": "c90def4c990a76b35c80f6db9dd5e719", "is_reserved": 0, "rental_uris": {"android": "https://dc.lft.to/lastmile_qr_scan", "ios": "https://dc.lft.to/lastmile_qr_scan"}, "fusion_lon": 0.0}, {"lat": 38.954962333333334, "is_disabled": 0, "type": "electric_scooter", "lon": -77.06565833333333, "bike_id": "09ffc326ab066c00c7aac60809dce0f6", "fusion_lat": 0.0, "name": "09ffc326ab066c00c7aac60809dce0f6", "is_reserved": 0, "rental_uris": {"android": "https://dc.lft.to/lastmile_qr_scan", "ios": "https://dc.lft.to/lastmile_qr_scan"}, "fusion_lon": 0.0}, {"lat": 38.911107333333334, "is_disabled": 0, "type": "electric_scooter", "lon": -77.02175733333333, "bike_id": "42b7d00388fdbd81574d8f5d72427430", "fusion_lat": 0.0, "name": "42b7d00388fdbd81574d8f5d72427430", "is_reserved": 0, "rental_uris": {"android": "https://dc.lft.to/lastmile_qr_scan", "ios": "https://dc.lft.to/lastmile_qr_scan"}, "fusion_lon": 0.0}, {"lat": 38.91717666666667, "is_disabled": 0, "type": "electric_scooter", "lon": -77.03861916666666, "bike_id": "66eb0b80ac629efb3298d0195994cebc", "fusion_lat": 0.0, "name": "66eb0b80ac629efb3298d0195994cebc", "is_reserved": 0, "rental_uris": {"android": "https://dc.lft.to/lastmile_qr_scan", "ios": "https://dc.lft.to/lastmile_qr_scan"}, "fusion_lon": 0.0}, {"lat": 38.917312, "is_disabled": 0, "type": "electric_scooter", "lon": -77.0218015, "bike_id": "4502f01d56c2043ee3518faa77bd9a22", "fusion_lat": 0.0, "name": "4502f01d56c2043ee3518faa77bd9a22", "is_reserved": 0, "rental_uris": {"android": "https://dc.lft.to/lastmile_qr_scan", "ios": "https://dc.lft.to/lastmile_qr_scan"}, "fusion_lon": 0.0}, {"lat": 38.93063733333334, "is_disabled": 0, "type": "electric_scooter", "lon": -77.028218, "bike_id": "d0570caa3f8d56d2bcb1b18d661e2d4c", "fusion_lat": 0.0, "name": "d0570caa3f8d56d2bcb1b18d661e2d4c", "is_reserved": 0, "rental_uris": {"android": "https://dc.lft.to/lastmile_qr_scan", "ios": "https://dc.lft.to/lastmile_qr_scan"}, "fusion_lon": 0.0}, {"lat": 38.904911166666665, "is_disabled": 0, "type": "electric_scooter", "lon": -77.057324, "bike_id": "a80c16d210e118a8bb3764ffb3f25980", "fusion_lat": 0.0, "name": "a80c16d210e118a8bb3764ffb3f25980", "is_reserved": 0, "rental_uris": {"android": "https://dc.lft.to/lastmile_qr_scan", "ios": "https://dc.lft.to/lastmile_qr_scan"}, "fusion_lon": 0.0}, {"lat": 38.918659, "is_disabled": 0, "type": "electric_scooter", "lon": -77.03224733333333, "bike_id": "85221e7cb22cc4257de25c7f78d3c433", "fusion_lat": 0.0, "name": "85221e7cb22cc4257de25c7f78d3c433", "is_reserved": 0, "rental_uris": {"android": "https://dc.lft.to/lastmile_qr_scan", "ios": "https://dc.lft.to/lastmile_qr_scan"}, "fusion_lon": 0.0}, {"lat": 38.89272616666667, "is_disabled": 0, "type": "electric_bike", "lon": -77.02577116666667, "bike_id": "af6080e768da6ec851fa2c0482e0153f", "fusion_lat": 0.0, "name": "af6080e768da6ec851fa2c0482e0153f", "is_reserved": 0, "rental_uris": {"android": "https://dc.lft.to/lastmile_qr_scan", "ios": "https://dc.lft.to/lastmile_qr_scan"}, "fusion_lon": 0.0}, {"lat": 38.9090465, "is_disabled": 0, "type": "electric_scooter", "lon": -77.027104, "bike_id": "3d1759441614e6e114d9c85a9cc5835e", "fusion_lat": 0.0, "name": "3d1759441614e6e114d9c85a9cc5835e", "is_reserved": 0, "rental_uris": {"android": "https://dc.lft.to/lastmile_qr_scan", "ios": "https://dc.lft.to/lastmile_qr_scan"}, "fusion_lon": 0.0}, {"lat": 38.910379, "is_disabled": 0, "type": "electric_scooter", "lon": -77.03832783333333, "bike_id": "eb86c81d94a82b4891c33d3067835871", "fusion_lat": 0.0, "name": "eb86c81d94a82b4891c33d3067835871", "is_reserved": 0, "rental_uris": {"android": "https://dc.lft.to/lastmile_qr_scan", "ios": "https://dc.lft.to/lastmile_qr_scan"}, "fusion_lon": 0.0}, {"lat": 38.9088035, "is_disabled": 0, "type": "electric_scooter", "lon": -77.04341366666667, "bike_id": "bf596ab6e012766c85683a6037763b99", "fusion_lat": 0.0, "name": "bf596ab6e012766c85683a6037763b99", "is_reserved": 0, "rental_uris": {"android": "https://dc.lft.to/lastmile_qr_scan", "ios": "https://dc.lft.to/lastmile_qr_scan"}, "fusion_lon": 0.0}, {"lat": 38.91319683333333, "is_disabled": 0, "type": "electric_scooter", "lon": -77.01213166666666, "bike_id": "f90b645aa8501ac84a3be6d01d12090d", "fusion_lat": 0.0, "name": "f90b645aa8501ac84a3be6d01d12090d", "is_reserved": 0, "rental_uris": {"android": "https://dc.lft.to/lastmile_qr_scan", "ios": "https://dc.lft.to/lastmile_qr_scan"}, "fusion_lon": 0.0}, {"lat": 38.90898766666667, "is_disabled": 0, "type": "electric_scooter", "lon": -77.04344333333333, "bike_id": "da25d5200abc2f1294655c4d7546eccc", "fusion_lat": 0.0, "name": "da25d5200abc2f1294655c4d7546eccc", "is_reserved": 0, "rental_uris": {"android": "https://dc.lft.to/lastmile_qr_scan", "ios": "https://dc.lft.to/lastmile_qr_scan"}, "fusion_lon": 0.0}, {"lat": 38.944998166666664, "is_disabled": 0, "type": "electric_scooter", "lon": -77.01550566666667, "bike_id": "9fcef512e9d323f017319efe82e752af", "fusion_lat": 0.0, "name": "9fcef512e9d323f017319efe82e752af", "is_reserved": 0, "rental_uris": {"android": "https://dc.lft.to/lastmile_qr_scan", "ios": "https://dc.lft.to/lastmile_qr_scan"}, "fusion_lon": 0.0}, {"lat": 38.918076166666665, "is_disabled": 0, "type": "electric_scooter", "lon": -77.03987416666666, "bike_id": "2098df78c3ff53b84c37462f1d60002d", "fusion_lat": 0.0, "name": "2098df78c3ff53b84c37462f1d60002d", "is_reserved": 0, "rental_uris": {"android": "https://dc.lft.to/lastmile_qr_scan", "ios": "https://dc.lft.to/lastmile_qr_scan"}, "fusion_lon": 0.0}, {"lat": 38.90851583333333, "is_disabled": 0, "type": "electric_scooter", "lon": -77.02067333333333, "bike_id": "ff33e68eb6a56cd92555952c5501c51a", "fusion_lat": 0.0, "name": "ff33e68eb6a56cd92555952c5501c51a", "is_reserved": 0, "rental_uris": {"android": "https://dc.lft.to/lastmile_qr_scan", "ios": "https://dc.lft.to/lastmile_qr_scan"}, "fusion_lon": 0.0}, {"lat": 38.90015283333334, "is_disabled": 0, "type": "electric_scooter", "lon": -77.03373416666666, "bike_id": "c6d430acc3c4d6248545956b7d5e7d29", "fusion_lat": 0.0, "name": "c6d430acc3c4d6248545956b7d5e7d29", "is_reserved": 0, "rental_uris": {"android": "https://dc.lft.to/lastmile_qr_scan", "ios": "https://dc.lft.to/lastmile_qr_scan"}, "fusion_lon": 0.0}, {"lat": 38.905222, "is_disabled": 0, "type": "electric_scooter", "lon": -77.06773683333333, "bike_id": "f7781090a90f0de7875fb079ae5c5bca", "fusion_lat": 0.0, "name": "f7781090a90f0de7875fb079ae5c5bca", "is_reserved": 0, "rental_uris": {"android": "https://dc.lft.to/lastmile_qr_scan", "ios": "https://dc.lft.to/lastmile_qr_scan"}, "fusion_lon": 0.0}, {"lat": 38.90066233333334, "is_disabled": 0, "type": "electric_scooter", "lon": -76.93392233333333, "bike_id": "6e0f89a284fa0dd29d6c9d76c9b00987", "fusion_lat": 0.0, "name": "6e0f89a284fa0dd29d6c9d76c9b00987", "is_reserved": 0, "rental_uris": {"android": "https://dc.lft.to/lastmile_qr_scan", "ios": "https://dc.lft.to/lastmile_qr_scan"}, "fusion_lon": 0.0}, {"lat": 38.99996816666667, "is_disabled": 0, "type": "electric_bike", "lon": -76.92494333333333, "bike_id": "d6d645cfa9878cc59cea89a8d5d12503", "fusion_lat": 0.0, "name": "d6d645cfa9878cc59cea89a8d5d12503", "is_reserved": 0, "rental_uris": {"android": "https://dc.lft.to/lastmile_qr_scan", "ios": "https://dc.lft.to/lastmile_qr_scan"}, "fusion_lon": 0.0}, {"lat": 38.922734166666665, "is_disabled": 0, "type": "electric_scooter", "lon": -77.04237316666666, "bike_id": "febb0439c7c6601e49744efd8a0b62d0", "fusion_lat": 0.0, "name": "febb0439c7c6601e49744efd8a0b62d0", "is_reserved": 0, "rental_uris": {"android": "https://dc.lft.to/lastmile_qr_scan", "ios": "https://dc.lft.to/lastmile_qr_scan"}, "fusion_lon": 0.0}, {"lat": 38.91422016666667, "is_disabled": 0, "type": "electric_scooter", "lon": -77.03172566666667, "bike_id": "2ec62c0b751b270e26eb65bd91cceca7", "fusion_lat": 0.0, "name": "2ec62c0b751b270e26eb65bd91cceca7", "is_reserved": 0, "rental_uris": {"android": "https://dc.lft.to/lastmile_qr_scan", "ios": "https://dc.lft.to/lastmile_qr_scan"}, "fusion_lon": 0.0}, {"lat": 38.936523666666666, "is_disabled": 0, "type": "electric_scooter", "lon": -77.02393566666667, "bike_id": "d9fa03fc90c403f6907c9544b51fc1be", "fusion_lat": 0.0, "name": "d9fa03fc90c403f6907c9544b51fc1be", "is_reserved": 0, "rental_uris": {"android": "https://dc.lft.to/lastmile_qr_scan", "ios": "https://dc.lft.to/lastmile_qr_scan"}, "fusion_lon": 0.0}, {"lat": 38.918433666666665, "is_disabled": 0, "type": "electric_scooter", "lon": -77.0353265, "bike_id": "3dab1bafbdd5079207c2e823a153d198", "fusion_lat": 0.0, "name": "3dab1bafbdd5079207c2e823a153d198", "is_reserved": 0, "rental_uris": {"android": "https://dc.lft.to/lastmile_qr_scan", "ios": "https://dc.lft.to/lastmile_qr_scan"}, "fusion_lon": 0.0}, {"lat": 38.943010666666666, "is_disabled": 0, "type": "electric_scooter", "lon": -77.077121, "bike_id": "0e6dab950eae8cf339ecb13eee62d2f4", "fusion_lat": 0.0, "name": "0e6dab950eae8cf339ecb13eee62d2f4", "is_reserved": 0, "rental_uris": {"android": "https://dc.lft.to/lastmile_qr_scan", "ios": "https://dc.lft.to/lastmile_qr_scan"}, "fusion_lon": 0.0}, {"lat": 38.89100916666666, "is_disabled": 0, "type": "electric_scooter", "lon": -76.95255816666666, "bike_id": "c9f5f028b3e35e0f37c1aa6a6016aa25", "fusion_lat": 0.0, "name": "c9f5f028b3e35e0f37c1aa6a6016aa25", "is_reserved": 0, "rental_uris": {"android": "https://dc.lft.to/lastmile_qr_scan", "ios": "https://dc.lft.to/lastmile_qr_scan"}, "fusion_lon": 0.0}, {"lat": 38.9205705, "is_disabled": 0, "type": "electric_scooter", "lon": -77.0347485, "bike_id": "f65bb722f9c14bd26bbe760a84343020", "fusion_lat": 0.0, "name": "f65bb722f9c14bd26bbe760a84343020", "is_reserved": 0, "rental_uris": {"android": "https://dc.lft.to/lastmile_qr_scan", "ios": "https://dc.lft.to/lastmile_qr_scan"}, "fusion_lon": 0.0}, {"lat": 38.89948533333333, "is_disabled": 0, "type": "electric_scooter", "lon": -77.05202583333333, "bike_id": "2166c24e34c5efe642e4324f9589a974", "fusion_lat": 0.0, "name": "2166c24e34c5efe642e4324f9589a974", "is_reserved": 0, "rental_uris": {"android": "https://dc.lft.to/lastmile_qr_scan", "ios": "https://dc.lft.to/lastmile_qr_scan"}, "fusion_lon": 0.0}, {"lat": 38.927772166666664, "is_disabled": 0, "type": "electric_scooter", "lon": -77.04300316666667, "bike_id": "32b8aefac512f4cf682f6541319ed385", "fusion_lat": 0.0, "name": "32b8aefac512f4cf682f6541319ed385", "is_reserved": 0, "rental_uris": {"android": "https://dc.lft.to/lastmile_qr_scan", "ios": "https://dc.lft.to/lastmile_qr_scan"}, "fusion_lon": 0.0}, {"lat": 38.9002615, "is_disabled": 0, "type": "electric_scooter", "lon": -77.02169966666666, "bike_id": "708b83ca4db242e539f027c40007cd2e", "fusion_lat": 0.0, "name": "708b83ca4db242e539f027c40007cd2e", "is_reserved": 0, "rental_uris": {"android": "https://dc.lft.to/lastmile_qr_scan", "ios": "https://dc.lft.to/lastmile_qr_scan"}, "fusion_lon": 0.0}, {"lat": 38.892966, "is_disabled": 0, "type": "electric_scooter", "lon": -77.00213733333334, "bike_id": "ad7b292ecd5d649d8f90254a6be15a23", "fusion_lat": 0.0, "name": "ad7b292ecd5d649d8f90254a6be15a23", "is_reserved": 0, "rental_uris": {"android": "https://dc.lft.to/lastmile_qr_scan", "ios": "https://dc.lft.to/lastmile_qr_scan"}, "fusion_lon": 0.0}, {"lat": 38.80225333333333, "is_disabled": 0, "type": "electric_bike", "lon": -77.07916166666666, "bike_id": "1551f87f5363a5ee61efe9f4dc806bcb", "fusion_lat": 0.0, "name": "1551f87f5363a5ee61efe9f4dc806bcb", "is_reserved": 0, "rental_uris": {"android": "https://dc.lft.to/lastmile_qr_scan", "ios": "https://dc.lft.to/lastmile_qr_scan"}, "fusion_lon": 0.0}, {"lat": 38.8579395, "is_disabled": 0, "type": "electric_bike", "lon": -76.9874695, "bike_id": "938780af052cf4f040a66b3dfd658e4e", "fusion_lat": 0.0, "name": "938780af052cf4f040a66b3dfd658e4e", "is_reserved": 0, "rental_uris": {"android": "https://dc.lft.to/lastmile_qr_scan", "ios": "https://dc.lft.to/lastmile_qr_scan"}, "fusion_lon": 0.0}, {"lat": 38.933377, "is_disabled": 0, "type": "electric_scooter", "lon": -77.04399916666667, "bike_id": "6a7bea50458a6b0d2eb51218bce6ce0e", "fusion_lat": 0.0, "name": "6a7bea50458a6b0d2eb51218bce6ce0e", "is_reserved": 0, "rental_uris": {"android": "https://dc.lft.to/lastmile_qr_scan", "ios": "https://dc.lft.to/lastmile_qr_scan"}, "fusion_lon": 0.0}, {"lat": 38.903933, "is_disabled": 0, "type": "electric_scooter", "lon": -77.028066, "bike_id": "f1871688887516c346d43d4177b4ab41", "fusion_lat": 0.0, "name": "f1871688887516c346d43d4177b4ab41", "is_reserved": 0, "rental_uris": {"android": "https://dc.lft.to/lastmile_qr_scan", "ios": "https://dc.lft.to/lastmile_qr_scan"}, "fusion_lon": 0.0}, {"lat": 38.917719, "is_disabled": 0, "type": "electric_scooter", "lon": -77.04010516666666, "bike_id": "840b9330d461cc4412364e4f18d83dc6", "fusion_lat": 0.0, "name": "840b9330d461cc4412364e4f18d83dc6", "is_reserved": 0, "rental_uris": {"android": "https://dc.lft.to/lastmile_qr_scan", "ios": "https://dc.lft.to/lastmile_qr_scan"}, "fusion_lon": 0.0}, {"lat": 38.914117166666664, "is_disabled": 0, "type": "electric_scooter", "lon": -77.0223455, "bike_id": "c6c2f133420b3df8d67a3cb3824dfc55", "fusion_lat": 0.0, "name": "c6c2f133420b3df8d67a3cb3824dfc55", "is_reserved": 0, "rental_uris": {"android": "https://dc.lft.to/lastmile_qr_scan", "ios": "https://dc.lft.to/lastmile_qr_scan"}, "fusion_lon": 0.0}, {"lat": 38.92113166666667, "is_disabled": 0, "type": "electric_bike", "lon": -76.98577116666667, "bike_id": "b193b6695167c20af97627e8b4ea8237", "fusion_lat": 0.0, "name": "b193b6695167c20af97627e8b4ea8237", "is_reserved": 0, "rental_uris": {"android": "https://dc.lft.to/lastmile_qr_scan", "ios": "https://dc.lft.to/lastmile_qr_scan"}, "fusion_lon": 0.0}, {"lat": 38.8953595, "is_disabled": 0, "type": "electric_scooter", "lon": -77.050227, "bike_id": "7c13179a2c13ae464248747cf8d91fc4", "fusion_lat": 0.0, "name": "7c13179a2c13ae464248747cf8d91fc4", "is_reserved": 0, "rental_uris": {"android": "https://dc.lft.to/lastmile_qr_scan", "ios": "https://dc.lft.to/lastmile_qr_scan"}, "fusion_lon": 0.0}, {"lat": 38.8585235, "is_disabled": 0, "type": "electric_bike", "lon": -77.09759966666667, "bike_id": "a5a19b4a7aba9f10c664f28f898585c7", "fusion_lat": 0.0, "name": "a5a19b4a7aba9f10c664f28f898585c7", "is_reserved": 0, "rental_uris": {"android": "https://dc.lft.to/lastmile_qr_scan", "ios": "https://dc.lft.to/lastmile_qr_scan"}, "fusion_lon": 0.0}, {"lat": 38.9028805, "is_disabled": 0, "type": "electric_scooter", "lon": -77.03642166666667, "bike_id": "e865a1863657e8966a7d46b6f3bbe686", "fusion_lat": 0.0, "name": "e865a1863657e8966a7d46b6f3bbe686", "is_reserved": 0, "rental_uris": {"android": "https://dc.lft.to/lastmile_qr_scan", "ios": "https://dc.lft.to/lastmile_qr_scan"}, "fusion_lon": 0.0}, {"lat": 38.91736933333333, "is_disabled": 0, "type": "electric_scooter", "lon": -77.02306266666666, "bike_id": "04c26a0769f8f823f27a97be50b81533", "fusion_lat": 0.0, "name": "04c26a0769f8f823f27a97be50b81533", "is_reserved": 0, "rental_uris": {"android": "https://dc.lft.to/lastmile_qr_scan", "ios": "https://dc.lft.to/lastmile_qr_scan"}, "fusion_lon": 0.0}, {"lat": 38.9588495, "is_disabled": 0, "type": "electric_bike", "lon": -76.92494483333333, "bike_id": "985dbb5edbaf6f9476fd02d17efa8256", "fusion_lat": 0.0, "name": "985dbb5edbaf6f9476fd02d17efa8256", "is_reserved": 0, "rental_uris": {"android": "https://dc.lft.to/lastmile_qr_scan", "ios": "https://dc.lft.to/lastmile_qr_scan"}, "fusion_lon": 0.0}, {"lat": 38.914174, "is_disabled": 0, "type": "electric_scooter", "lon": -77.031729, "bike_id": "d4c896209f600a9f9691018d1e1c4cd1", "fusion_lat": 0.0, "name": "d4c896209f600a9f9691018d1e1c4cd1", "is_reserved": 0, "rental_uris": {"android": "https://dc.lft.to/lastmile_qr_scan", "ios": "https://dc.lft.to/lastmile_qr_scan"}, "fusion_lon": 0.0}, {"lat": 38.929041833333336, "is_disabled": 0, "type": "electric_scooter", "lon": -77.0318375, "bike_id": "43440acc8c99a82b3fe29976ea9c2469", "fusion_lat": 0.0, "name": "43440acc8c99a82b3fe29976ea9c2469", "is_reserved": 0, "rental_uris": {"android": "https://dc.lft.to/lastmile_qr_scan", "ios": "https://dc.lft.to/lastmile_qr_scan"}, "fusion_lon": 0.0}, {"lat": 38.908442666666666, "is_disabled": 0, "type": "electric_scooter", "lon": -77.06354433333334, "bike_id": "b3854cc5852406c8c13dc879ac2663d8", "fusion_lat": 0.0, "name": "b3854cc5852406c8c13dc879ac2663d8", "is_reserved": 0, "rental_uris": {"android": "https://dc.lft.to/lastmile_qr_scan", "ios": "https://dc.lft.to/lastmile_qr_scan"}, "fusion_lon": 0.0}, {"lat": 38.920694833333336, "is_disabled": 0, "type": "electric_scooter", "lon": -77.02501933333333, "bike_id": "80fef1b34180d4b4ab6c603fb2fc8c6e", "fusion_lat": 0.0, "name": "80fef1b34180d4b4ab6c603fb2fc8c6e", "is_reserved": 0, "rental_uris": {"android": "https://dc.lft.to/lastmile_qr_scan", "ios": "https://dc.lft.to/lastmile_qr_scan"}, "fusion_lon": 0.0}, {"lat": 38.9308275, "is_disabled": 0, "type": "electric_scooter", "lon": -77.0376855, "bike_id": "7d3b36234f77662577a4c5f18e16faf2", "fusion_lat": 0.0, "name": "7d3b36234f77662577a4c5f18e16faf2", "is_reserved": 0, "rental_uris": {"android": "https://dc.lft.to/lastmile_qr_scan", "ios": "https://dc.lft.to/lastmile_qr_scan"}, "fusion_lon": 0.0}, {"lat": 38.89045733333333, "is_disabled": 0, "type": "electric_scooter", "lon": -76.9405725, "bike_id": "2f0b86410881ef54ee1e14acf2baa3be", "fusion_lat": 0.0, "name": "2f0b86410881ef54ee1e14acf2baa3be", "is_reserved": 0, "rental_uris": {"android": "https://dc.lft.to/lastmile_qr_scan", "ios": "https://dc.lft.to/lastmile_qr_scan"}, "fusion_lon": 0.0}, {"lat": 38.8800085, "is_disabled": 0, "type": "electric_scooter", "lon": -76.98547466666666, "bike_id": "ccf6dfe814de64e3c220ec650ddfdb8f", "fusion_lat": 0.0, "name": "ccf6dfe814de64e3c220ec650ddfdb8f", "is_reserved": 0, "rental_uris": {"android": "https://dc.lft.to/lastmile_qr_scan", "ios": "https://dc.lft.to/lastmile_qr_scan"}, "fusion_lon": 0.0}, {"lat": 38.939937666666665, "is_disabled": 0, "type": "electric_scooter", "lon": -77.07181416666667, "bike_id": "041b5bd62bdc1d98803b7c2110662d87", "fusion_lat": 0.0, "name": "041b5bd62bdc1d98803b7c2110662d87", "is_reserved": 0, "rental_uris": {"android": "https://dc.lft.to/lastmile_qr_scan", "ios": "https://dc.lft.to/lastmile_qr_scan"}, "fusion_lon": 0.0}, {"lat": 38.90402783333333, "is_disabled": 0, "type": "electric_scooter", "lon": -77.020842, "bike_id": "3b64dc29b849e0c8369f21d3cb467aa9", "fusion_lat": 0.0, "name": "3b64dc29b849e0c8369f21d3cb467aa9", "is_reserved": 0, "rental_uris": {"android": "https://dc.lft.to/lastmile_qr_scan", "ios": "https://dc.lft.to/lastmile_qr_scan"}, "fusion_lon": 0.0}, {"lat": 38.92279383333333, "is_disabled": 0, "type": "electric_scooter", "lon": -77.02245883333333, "bike_id": "661bdb77b2ecc59a26d41c84ae5106f2", "fusion_lat": 0.0, "name": "661bdb77b2ecc59a26d41c84ae5106f2", "is_reserved": 0, "rental_uris": {"android": "https://dc.lft.to/lastmile_qr_scan", "ios": "https://dc.lft.to/lastmile_qr_scan"}, "fusion_lon": 0.0}, {"lat": 38.89772333333333, "is_disabled": 0, "type": "electric_scooter", "lon": -77.03215733333333, "bike_id": "61b0d4420453d1dec3b3f10c23a1a1de", "fusion_lat": 0.0, "name": "61b0d4420453d1dec3b3f10c23a1a1de", "is_reserved": 0, "rental_uris": {"android": "https://dc.lft.to/lastmile_qr_scan", "ios": "https://dc.lft.to/lastmile_qr_scan"}, "fusion_lon": 0.0}, {"lat": 38.8581275, "is_disabled": 0, "type": "electric_scooter", "lon": -76.98992283333334, "bike_id": "84cc04227a02f096550d556d05ee9316", "fusion_lat": 0.0, "name": "84cc04227a02f096550d556d05ee9316", "is_reserved": 0, "rental_uris": {"android": "https://dc.lft.to/lastmile_qr_scan", "ios": "https://dc.lft.to/lastmile_qr_scan"}, "fusion_lon": 0.0}, {"lat": 38.805622666666665, "is_disabled": 0, "type": "electric_bike", "lon": -77.1324625, "bike_id": "63a387a25942d1aa5fd23a9053187030", "fusion_lat": 0.0, "name": "63a387a25942d1aa5fd23a9053187030", "is_reserved": 0, "rental_uris": {"android": "https://dc.lft.to/lastmile_qr_scan", "ios": "https://dc.lft.to/lastmile_qr_scan"}, "fusion_lon": 0.0}, {"lat": 38.925350333333334, "is_disabled": 0, "type": "electric_scooter", "lon": -77.02582283333334, "bike_id": "01802276b5f354e6a250d35da26be306", "fusion_lat": 0.0, "name": "01802276b5f354e6a250d35da26be306", "is_reserved": 0, "rental_uris": {"android": "https://dc.lft.to/lastmile_qr_scan", "ios": "https://dc.lft.to/lastmile_qr_scan"}, "fusion_lon": 0.0}, {"lat": 38.89259083333334, "is_disabled": 0, "type": "electric_scooter", "lon": -76.94157383333334, "bike_id": "f372db8824497839bdd3ba809838c747", "fusion_lat": 0.0, "name": "f372db8824497839bdd3ba809838c747", "is_reserved": 0, "rental_uris": {"android": "https://dc.lft.to/lastmile_qr_scan", "ios": "https://dc.lft.to/lastmile_qr_scan"}, "fusion_lon": 0.0}, {"lat": 38.915411666666664, "is_disabled": 0, "type": "electric_scooter", "lon": -77.031801, "bike_id": "d9f6d4c723aa0d9e26f7773215b3f833", "fusion_lat": 0.0, "name": "d9f6d4c723aa0d9e26f7773215b3f833", "is_reserved": 0, "rental_uris": {"android": "https://dc.lft.to/lastmile_qr_scan", "ios": "https://dc.lft.to/lastmile_qr_scan"}, "fusion_lon": 0.0}, {"lat": 38.897592833333334, "is_disabled": 0, "type": "electric_scooter", "lon": -77.03264216666666, "bike_id": "71e4a908ed8673317bdfdfa38f42a03c", "fusion_lat": 0.0, "name": "71e4a908ed8673317bdfdfa38f42a03c", "is_reserved": 0, "rental_uris": {"android": "https://dc.lft.to/lastmile_qr_scan", "ios": "https://dc.lft.to/lastmile_qr_scan"}, "fusion_lon": 0.0}, {"lat": 38.928991, "is_disabled": 0, "type": "electric_scooter", "lon": -77.05455366666666, "bike_id": "7b03829a301e9f8ea654de78ce0d4a51", "fusion_lat": 0.0, "name": "7b03829a301e9f8ea654de78ce0d4a51", "is_reserved": 0, "rental_uris": {"android": "https://dc.lft.to/lastmile_qr_scan", "ios": "https://dc.lft.to/lastmile_qr_scan"}, "fusion_lon": 0.0}, {"lat": 38.87342266666667, "is_disabled": 0, "type": "electric_scooter", "lon": -76.99166566666666, "bike_id": "c6aab2d73c88b2ae9e342c7ab4846be2", "fusion_lat": 0.0, "name": "c6aab2d73c88b2ae9e342c7ab4846be2", "is_reserved": 0, "rental_uris": {"android": "https://dc.lft.to/lastmile_qr_scan", "ios": "https://dc.lft.to/lastmile_qr_scan"}, "fusion_lon": 0.0}, {"lat": 38.928003833333335, "is_disabled": 0, "type": "electric_scooter", "lon": -77.04320716666666, "bike_id": "6fc326ccdb157eb91fdf46105640aa19", "fusion_lat": 0.0, "name": "6fc326ccdb157eb91fdf46105640aa19", "is_reserved": 0, "rental_uris": {"android": "https://dc.lft.to/lastmile_qr_scan", "ios": "https://dc.lft.to/lastmile_qr_scan"}, "fusion_lon": 0.0}, {"lat": 38.9169605, "is_disabled": 0, "type": "electric_scooter", "lon": -77.03734066666667, "bike_id": "f5f62b155406c34d4b36a9e077f37bbc", "fusion_lat": 0.0, "name": "f5f62b155406c34d4b36a9e077f37bbc", "is_reserved": 0, "rental_uris": {"android": "https://dc.lft.to/lastmile_qr_scan", "ios": "https://dc.lft.to/lastmile_qr_scan"}, "fusion_lon": 0.0}, {"lat": 38.91702016666667, "is_disabled": 0, "type": "electric_scooter", "lon": -77.04340933333333, "bike_id": "ba27940ba6d4cb18dfbafd407a72c71d", "fusion_lat": 0.0, "name": "ba27940ba6d4cb18dfbafd407a72c71d", "is_reserved": 0, "rental_uris": {"android": "https://dc.lft.to/lastmile_qr_scan", "ios": "https://dc.lft.to/lastmile_qr_scan"}, "fusion_lon": 0.0}, {"lat": 38.8990505, "is_disabled": 0, "type": "electric_scooter", "lon": -77.039387, "bike_id": "f055a8f0fa502eacdeadfb5ab1997203", "fusion_lat": 0.0, "name": "f055a8f0fa502eacdeadfb5ab1997203", "is_reserved": 0, "rental_uris": {"android": "https://dc.lft.to/lastmile_qr_scan", "ios": "https://dc.lft.to/lastmile_qr_scan"}, "fusion_lon": 0.0}, {"lat": 38.904185166666664, "is_disabled": 0, "type": "electric_scooter", "lon": -77.05337016666667, "bike_id": "8140cd2407521e880f847ec1f8cf7eab", "fusion_lat": 0.0, "name": "8140cd2407521e880f847ec1f8cf7eab", "is_reserved": 0, "rental_uris": {"android": "https://dc.lft.to/lastmile_qr_scan", "ios": "https://dc.lft.to/lastmile_qr_scan"}, "fusion_lon": 0.0}, {"lat": 38.897399, "is_disabled": 0, "type": "electric_scooter", "lon": -77.045353, "bike_id": "ad8a40157acd7fd61cf899eecca383a5", "fusion_lat": 0.0, "name": "ad8a40157acd7fd61cf899eecca383a5", "is_reserved": 0, "rental_uris": {"android": "https://dc.lft.to/lastmile_qr_scan", "ios": "https://dc.lft.to/lastmile_qr_scan"}, "fusion_lon": 0.0}, {"lat": 38.899092833333334, "is_disabled": 0, "type": "electric_scooter", "lon": -76.93347583333333, "bike_id": "332bf2932c290e908a4b411b09a92603", "fusion_lat": 0.0, "name": "332bf2932c290e908a4b411b09a92603", "is_reserved": 0, "rental_uris": {"android": "https://dc.lft.to/lastmile_qr_scan", "ios": "https://dc.lft.to/lastmile_qr_scan"}, "fusion_lon": 0.0}, {"lat": 38.91680266666667, "is_disabled": 0, "type": "electric_scooter", "lon": -77.02978216666666, "bike_id": "878586480e56a5cb082f15a16a706bb8", "fusion_lat": 0.0, "name": "878586480e56a5cb082f15a16a706bb8", "is_reserved": 0, "rental_uris": {"android": "https://dc.lft.to/lastmile_qr_scan", "ios": "https://dc.lft.to/lastmile_qr_scan"}, "fusion_lon": 0.0}, {"lat": 38.806818666666665, "is_disabled": 0, "type": "electric_bike", "lon": -77.08124533333333, "bike_id": "bda3c442aa5f779b9b8aa0d7b48facc1", "fusion_lat": 0.0, "name": "bda3c442aa5f779b9b8aa0d7b48facc1", "is_reserved": 0, "rental_uris": {"android": "https://dc.lft.to/lastmile_qr_scan", "ios": "https://dc.lft.to/lastmile_qr_scan"}, "fusion_lon": 0.0}, {"lat": 38.85427833333333, "is_disabled": 0, "type": "electric_bike", "lon": -76.909729, "bike_id": "5c632fbec6961dd533a6b2f8e0940d80", "fusion_lat": 0.0, "name": "5c632fbec6961dd533a6b2f8e0940d80", "is_reserved": 0, "rental_uris": {"android": "https://dc.lft.to/lastmile_qr_scan", "ios": "https://dc.lft.to/lastmile_qr_scan"}, "fusion_lon": 0.0}, {"lat": 38.8104765, "is_disabled": 0, "type": "electric_bike", "lon": -77.08517316666666, "bike_id": "e86d7a6fffdfae1933ba5acad6ca94d1", "fusion_lat": 0.0, "name": "e86d7a6fffdfae1933ba5acad6ca94d1", "is_reserved": 0, "rental_uris": {"android": "https://dc.lft.to/lastmile_qr_scan", "ios": "https://dc.lft.to/lastmile_qr_scan"}, "fusion_lon": 0.0}, {"lat": 38.904881833333334, "is_disabled": 0, "type": "electric_scooter", "lon": -76.99543966666667, "bike_id": "730e2c578eec61e30c6b57458f977232", "fusion_lat": 0.0, "name": "730e2c578eec61e30c6b57458f977232", "is_reserved": 0, "rental_uris": {"android": "https://dc.lft.to/lastmile_qr_scan", "ios": "https://dc.lft.to/lastmile_qr_scan"}, "fusion_lon": 0.0}, {"lat": 38.91805433333333, "is_disabled": 0, "type": "electric_scooter", "lon": -77.03659316666666, "bike_id": "66348f160fa11dcc38fe32eab88899a5", "fusion_lat": 0.0, "name": "66348f160fa11dcc38fe32eab88899a5", "is_reserved": 0, "rental_uris": {"android": "https://dc.lft.to/lastmile_qr_scan", "ios": "https://dc.lft.to/lastmile_qr_scan"}, "fusion_lon": 0.0}, {"lat": 38.919772333333334, "is_disabled": 0, "type": "electric_scooter", "lon": -77.02379683333334, "bike_id": "044e073934940922b08319020689513f", "fusion_lat": 0.0, "name": "044e073934940922b08319020689513f", "is_reserved": 0, "rental_uris": {"android": "https://dc.lft.to/lastmile_qr_scan", "ios": "https://dc.lft.to/lastmile_qr_scan"}, "fusion_lon": 0.0}, {"lat": 38.945963166666665, "is_disabled": 0, "type": "electric_scooter", "lon": -77.07033883333334, "bike_id": "78744289d7e209557d9b76a64513f6f0", "fusion_lat": 0.0, "name": "78744289d7e209557d9b76a64513f6f0", "is_reserved": 0, "rental_uris": {"android": "https://dc.lft.to/lastmile_qr_scan", "ios": "https://dc.lft.to/lastmile_qr_scan"}, "fusion_lon": 0.0}, {"lat": 38.90520333333333, "is_disabled": 0, "type": "electric_scooter", "lon": -77.051424, "bike_id": "a7174a266047043f9ca83f3cb2b8f14a", "fusion_lat": 0.0, "name": "a7174a266047043f9ca83f3cb2b8f14a", "is_reserved": 0, "rental_uris": {"android": "https://dc.lft.to/lastmile_qr_scan", "ios": "https://dc.lft.to/lastmile_qr_scan"}, "fusion_lon": 0.0}, {"lat": 38.907762166666664, "is_disabled": 0, "type": "electric_scooter", "lon": -77.03867433333333, "bike_id": "b7b191c08820fa4891059e44128a3d4b", "fusion_lat": 0.0, "name": "b7b191c08820fa4891059e44128a3d4b", "is_reserved": 0, "rental_uris": {"android": "https://dc.lft.to/lastmile_qr_scan", "ios": "https://dc.lft.to/lastmile_qr_scan"}, "fusion_lon": 0.0}, {"lat": 38.921035333333336, "is_disabled": 0, "type": "electric_scooter", "lon": -77.04214466666667, "bike_id": "9b3de098591adb43ba003411d717bb46", "fusion_lat": 0.0, "name": "9b3de098591adb43ba003411d717bb46", "is_reserved": 0, "rental_uris": {"android": "https://dc.lft.to/lastmile_qr_scan", "ios": "https://dc.lft.to/lastmile_qr_scan"}, "fusion_lon": 0.0}, {"lat": 38.89365333333333, "is_disabled": 0, "type": "electric_scooter", "lon": -76.9910785, "bike_id": "c4a2239c509952a8035d93e8221585d4", "fusion_lat": 0.0, "name": "c4a2239c509952a8035d93e8221585d4", "is_reserved": 0, "rental_uris": {"android": "https://dc.lft.to/lastmile_qr_scan", "ios": "https://dc.lft.to/lastmile_qr_scan"}, "fusion_lon": 0.0}, {"lat": 38.9261385, "is_disabled": 0, "type": "electric_scooter", "lon": -77.05697383333333, "bike_id": "9bb45a2aeab47fab29d38580e48ca276", "fusion_lat": 0.0, "name": "9bb45a2aeab47fab29d38580e48ca276", "is_reserved": 0, "rental_uris": {"android": "https://dc.lft.to/lastmile_qr_scan", "ios": "https://dc.lft.to/lastmile_qr_scan"}, "fusion_lon": 0.0}, {"lat": 38.915523, "is_disabled": 0, "type": "electric_scooter", "lon": -77.00983933333333, "bike_id": "c93a6467ce82229470f174a7b6e2bd2d", "fusion_lat": 0.0, "name": "c93a6467ce82229470f174a7b6e2bd2d", "is_reserved": 0, "rental_uris": {"android": "https://dc.lft.to/lastmile_qr_scan", "ios": "https://dc.lft.to/lastmile_qr_scan"}, "fusion_lon": 0.0}, {"lat": 38.92382466666667, "is_disabled": 0, "type": "electric_scooter", "lon": -77.02761566666666, "bike_id": "396a6300d6a6b22baba3d6da069daa98", "fusion_lat": 0.0, "name": "396a6300d6a6b22baba3d6da069daa98", "is_reserved": 0, "rental_uris": {"android": "https://dc.lft.to/lastmile_qr_scan", "ios": "https://dc.lft.to/lastmile_qr_scan"}, "fusion_lon": 0.0}, {"lat": 38.842842166666664, "is_disabled": 0, "type": "electric_scooter", "lon": -77.00142616666666, "bike_id": "3fe7dd2aaf5da696d1f7d37e40026b7a", "fusion_lat": 0.0, "name": "3fe7dd2aaf5da696d1f7d37e40026b7a", "is_reserved": 0, "rental_uris": {"android": "https://dc.lft.to/lastmile_qr_scan", "ios": "https://dc.lft.to/lastmile_qr_scan"}, "fusion_lon": 0.0}, {"lat": 38.90688733333333, "is_disabled": 0, "type": "electric_scooter", "lon": -77.0627775, "bike_id": "fd8d9287e023f7340755ffc6904442bc", "fusion_lat": 0.0, "name": "fd8d9287e023f7340755ffc6904442bc", "is_reserved": 0, "rental_uris": {"android": "https://dc.lft.to/lastmile_qr_scan", "ios": "https://dc.lft.to/lastmile_qr_scan"}, "fusion_lon": 0.0}, {"lat": 38.88128616666667, "is_disabled": 0, "type": "electric_scooter", "lon": -76.9872155, "bike_id": "d9644027e5cd00600cb275b874eecd8a", "fusion_lat": 0.0, "name": "d9644027e5cd00600cb275b874eecd8a", "is_reserved": 0, "rental_uris": {"android": "https://dc.lft.to/lastmile_qr_scan", "ios": "https://dc.lft.to/lastmile_qr_scan"}, "fusion_lon": 0.0}, {"lat": 38.928445333333336, "is_disabled": 0, "type": "electric_scooter", "lon": -77.05426116666666, "bike_id": "594bdaaf233db48033dad3515625ad65", "fusion_lat": 0.0, "name": "594bdaaf233db48033dad3515625ad65", "is_reserved": 0, "rental_uris": {"android": "https://dc.lft.to/lastmile_qr_scan", "ios": "https://dc.lft.to/lastmile_qr_scan"}, "fusion_lon": 0.0}, {"lat": 38.9098935, "is_disabled": 0, "type": "electric_scooter", "lon": -76.99739166666667, "bike_id": "288c8615a6e0464ad6b5d9067a1e14c0", "fusion_lat": 0.0, "name": "288c8615a6e0464ad6b5d9067a1e14c0", "is_reserved": 0, "rental_uris": {"android": "https://dc.lft.to/lastmile_qr_scan", "ios": "https://dc.lft.to/lastmile_qr_scan"}, "fusion_lon": 0.0}, {"lat": 38.910106999999996, "is_disabled": 0, "type": "electric_scooter", "lon": -77.03013566666667, "bike_id": "79d491307dd2f82f0d5e208521edf41a", "fusion_lat": 0.0, "name": "79d491307dd2f82f0d5e208521edf41a", "is_reserved": 0, "rental_uris": {"android": "https://dc.lft.to/lastmile_qr_scan", "ios": "https://dc.lft.to/lastmile_qr_scan"}, "fusion_lon": 0.0}, {"lat": 38.931348666666665, "is_disabled": 0, "type": "electric_scooter", "lon": -77.02148316666667, "bike_id": "d2dd9423fa8d0d1e43a41dfb982daf31", "fusion_lat": 0.0, "name": "d2dd9423fa8d0d1e43a41dfb982daf31", "is_reserved": 0, "rental_uris": {"android": "https://dc.lft.to/lastmile_qr_scan", "ios": "https://dc.lft.to/lastmile_qr_scan"}, "fusion_lon": 0.0}, {"lat": 38.930712666666665, "is_disabled": 0, "type": "electric_scooter", "lon": -77.03680783333333, "bike_id": "0481e5651c8c7721922fca6d3adc7030", "fusion_lat": 0.0, "name": "0481e5651c8c7721922fca6d3adc7030", "is_reserved": 0, "rental_uris": {"android": "https://dc.lft.to/lastmile_qr_scan", "ios": "https://dc.lft.to/lastmile_qr_scan"}, "fusion_lon": 0.0}, {"lat": 38.917129833333334, "is_disabled": 0, "type": "electric_scooter", "lon": -77.02897016666667, "bike_id": "4c9de58077099cad12860e50357d8ced", "fusion_lat": 0.0, "name": "4c9de58077099cad12860e50357d8ced", "is_reserved": 0, "rental_uris": {"android": "https://dc.lft.to/lastmile_qr_scan", "ios": "https://dc.lft.to/lastmile_qr_scan"}, "fusion_lon": 0.0}, {"lat": 38.866643, "is_disabled": 0, "type": "electric_scooter", "lon": -76.98903333333334, "bike_id": "8d20dd2e4628cbb15904a5d05792b17e", "fusion_lat": 0.0, "name": "8d20dd2e4628cbb15904a5d05792b17e", "is_reserved": 0, "rental_uris": {"android": "https://dc.lft.to/lastmile_qr_scan", "ios": "https://dc.lft.to/lastmile_qr_scan"}, "fusion_lon": 0.0}, {"lat": 38.896516166666665, "is_disabled": 0, "type": "electric_scooter", "lon": -77.04674933333334, "bike_id": "989d21464cf4189e0c422244d2c11bed", "fusion_lat": 0.0, "name": "989d21464cf4189e0c422244d2c11bed", "is_reserved": 0, "rental_uris": {"android": "https://dc.lft.to/lastmile_qr_scan", "ios": "https://dc.lft.to/lastmile_qr_scan"}, "fusion_lon": 0.0}, {"lat": 38.93849066666667, "is_disabled": 0, "type": "electric_scooter", "lon": -77.03393333333334, "bike_id": "b3db345861f7cc398529a553cac0d298", "fusion_lat": 0.0, "name": "b3db345861f7cc398529a553cac0d298", "is_reserved": 0, "rental_uris": {"android": "https://dc.lft.to/lastmile_qr_scan", "ios": "https://dc.lft.to/lastmile_qr_scan"}, "fusion_lon": 0.0}, {"lat": 38.9171345, "is_disabled": 0, "type": "electric_scooter", "lon": -77.03068916666666, "bike_id": "bdde5104d3ab0580756433f0aec526e9", "fusion_lat": 0.0, "name": "bdde5104d3ab0580756433f0aec526e9", "is_reserved": 0, "rental_uris": {"android": "https://dc.lft.to/lastmile_qr_scan", "ios": "https://dc.lft.to/lastmile_qr_scan"}, "fusion_lon": 0.0}, {"lat": 38.890099166666666, "is_disabled": 0, "type": "electric_scooter", "lon": -77.03323816666666, "bike_id": "ba49203e8145d5be13d577fd55ab66fe", "fusion_lat": 0.0, "name": "ba49203e8145d5be13d577fd55ab66fe", "is_reserved": 0, "rental_uris": {"android": "https://dc.lft.to/lastmile_qr_scan", "ios": "https://dc.lft.to/lastmile_qr_scan"}, "fusion_lon": 0.0}, {"lat": 39.024324166666666, "is_disabled": 0, "type": "electric_bike", "lon": -77.13100216666666, "bike_id": "d101fb1b51705ca2829ef315f8a4f453", "fusion_lat": 0.0, "name": "d101fb1b51705ca2829ef315f8a4f453", "is_reserved": 0, "rental_uris": {"android": "https://dc.lft.to/lastmile_qr_scan", "ios": "https://dc.lft.to/lastmile_qr_scan"}, "fusion_lon": 0.0}, {"lat": 39.03050266666666, "is_disabled": 0, "type": "electric_bike", "lon": -77.09483833333333, "bike_id": "4272ea40497858f391cc96ac5efee6ba", "fusion_lat": 0.0, "name": "4272ea40497858f391cc96ac5efee6ba", "is_reserved": 0, "rental_uris": {"android": "https://dc.lft.to/lastmile_qr_scan", "ios": "https://dc.lft.to/lastmile_qr_scan"}, "fusion_lon": 0.0}, {"lat": 38.91712233333333, "is_disabled": 0, "type": "electric_scooter", "lon": -77.038732, "bike_id": "c0f8e25b544ddd79cff48b57061c604f", "fusion_lat": 0.0, "name": "c0f8e25b544ddd79cff48b57061c604f", "is_reserved": 0, "rental_uris": {"android": "https://dc.lft.to/lastmile_qr_scan", "ios": "https://dc.lft.to/lastmile_qr_scan"}, "fusion_lon": 0.0}, {"lat": 38.8623165, "is_disabled": 0, "type": "electric_scooter", "lon": -76.99550383333333, "bike_id": "a62e88751346b0ef2a2a50518ddad2c2", "fusion_lat": 0.0, "name": "a62e88751346b0ef2a2a50518ddad2c2", "is_reserved": 0, "rental_uris": {"android": "https://dc.lft.to/lastmile_qr_scan", "ios": "https://dc.lft.to/lastmile_qr_scan"}, "fusion_lon": 0.0}, {"lat": 38.936181, "is_disabled": 0, "type": "electric_scooter", "lon": -77.03219033333333, "bike_id": "1a1dcbbad49eb326c01c49855f54f957", "fusion_lat": 0.0, "name": "1a1dcbbad49eb326c01c49855f54f957", "is_reserved": 0, "rental_uris": {"android": "https://dc.lft.to/lastmile_qr_scan", "ios": "https://dc.lft.to/lastmile_qr_scan"}, "fusion_lon": 0.0}, {"lat": 38.90779066666666, "is_disabled": 0, "type": "electric_scooter", "lon": -77.0385425, "bike_id": "aa00311bd22507f6c3a00febf8f38f4d", "fusion_lat": 0.0, "name": "aa00311bd22507f6c3a00febf8f38f4d", "is_reserved": 0, "rental_uris": {"android": "https://dc.lft.to/lastmile_qr_scan", "ios": "https://dc.lft.to/lastmile_qr_scan"}, "fusion_lon": 0.0}, {"lat": 38.872163, "is_disabled": 0, "type": "electric_scooter", "lon": -77.0176535, "bike_id": "9ab4917bcc0b6b93f25a56b035d26a02", "fusion_lat": 0.0, "name": "9ab4917bcc0b6b93f25a56b035d26a02", "is_reserved": 0, "rental_uris": {"android": "https://dc.lft.to/lastmile_qr_scan", "ios": "https://dc.lft.to/lastmile_qr_scan"}, "fusion_lon": 0.0}, {"lat": 38.916901833333334, "is_disabled": 0, "type": "electric_scooter", "lon": -77.02952816666667, "bike_id": "ed91dbebfa98b7bd9ebb004fe9bc17c6", "fusion_lat": 0.0, "name": "ed91dbebfa98b7bd9ebb004fe9bc17c6", "is_reserved": 0, "rental_uris": {"android": "https://dc.lft.to/lastmile_qr_scan", "ios": "https://dc.lft.to/lastmile_qr_scan"}, "fusion_lon": 0.0}, {"lat": 38.998184333333334, "is_disabled": 0, "type": "electric_bike", "lon": -76.88374033333334, "bike_id": "094b9baca52984831e99773f2c21786b", "fusion_lat": 0.0, "name": "094b9baca52984831e99773f2c21786b", "is_reserved": 0, "rental_uris": {"android": "https://dc.lft.to/lastmile_qr_scan", "ios": "https://dc.lft.to/lastmile_qr_scan"}, "fusion_lon": 0.0}, {"lat": 38.902739, "is_disabled": 0, "type": "electric_scooter", "lon": -77.03450316666667, "bike_id": "7aa563a4aafca2a87815ef0fb6e03942", "fusion_lat": 0.0, "name": "7aa563a4aafca2a87815ef0fb6e03942", "is_reserved": 0, "rental_uris": {"android": "https://dc.lft.to/lastmile_qr_scan", "ios": "https://dc.lft.to/lastmile_qr_scan"}, "fusion_lon": 0.0}, {"lat": 38.885864166666664, "is_disabled": 0, "type": "electric_scooter", "lon": -77.01226083333333, "bike_id": "7a991655d61882ecf99fecfc5129eb80", "fusion_lat": 0.0, "name": "7a991655d61882ecf99fecfc5129eb80", "is_reserved": 0, "rental_uris": {"android": "https://dc.lft.to/lastmile_qr_scan", "ios": "https://dc.lft.to/lastmile_qr_scan"}, "fusion_lon": 0.0}, {"lat": 38.945171, "is_disabled": 0, "type": "electric_scooter", "lon": -77.06396583333333, "bike_id": "1ee34a768b2552c78dbf369ba41ed29a", "fusion_lat": 0.0, "name": "1ee34a768b2552c78dbf369ba41ed29a", "is_reserved": 0, "rental_uris": {"android": "https://dc.lft.to/lastmile_qr_scan", "ios": "https://dc.lft.to/lastmile_qr_scan"}, "fusion_lon": 0.0}, {"lat": 38.918703, "is_disabled": 0, "type": "electric_scooter", "lon": -76.97124066666666, "bike_id": "bb90be9196f135788960de188be2de61", "fusion_lat": 0.0, "name": "bb90be9196f135788960de188be2de61", "is_reserved": 0, "rental_uris": {"android": "https://dc.lft.to/lastmile_qr_scan", "ios": "https://dc.lft.to/lastmile_qr_scan"}, "fusion_lon": 0.0}, {"lat": 38.90281, "is_disabled": 0, "type": "electric_scooter", "lon": -77.039408, "bike_id": "1a4b3ba3477309888aca6a2ae6da4d32", "fusion_lat": 0.0, "name": "1a4b3ba3477309888aca6a2ae6da4d32", "is_reserved": 0, "rental_uris": {"android": "https://dc.lft.to/lastmile_qr_scan", "ios": "https://dc.lft.to/lastmile_qr_scan"}, "fusion_lon": 0.0}, {"lat": 38.93478133333333, "is_disabled": 0, "type": "electric_scooter", "lon": -77.0285925, "bike_id": "0bd53edc7fa5a1743a86521196fcd953", "fusion_lat": 0.0, "name": "0bd53edc7fa5a1743a86521196fcd953", "is_reserved": 0, "rental_uris": {"android": "https://dc.lft.to/lastmile_qr_scan", "ios": "https://dc.lft.to/lastmile_qr_scan"}, "fusion_lon": 0.0}, {"lat": 38.9110845, "is_disabled": 0, "type": "electric_scooter", "lon": -77.04392233333333, "bike_id": "fcdeb74877b9b69ec32b57d4866e818d", "fusion_lat": 0.0, "name": "fcdeb74877b9b69ec32b57d4866e818d", "is_reserved": 0, "rental_uris": {"android": "https://dc.lft.to/lastmile_qr_scan", "ios": "https://dc.lft.to/lastmile_qr_scan"}, "fusion_lon": 0.0}, {"lat": 38.921913, "is_disabled": 0, "type": "electric_scooter", "lon": -77.04138066666667, "bike_id": "972068e92ffbde63e362603ba7e7af58", "fusion_lat": 0.0, "name": "972068e92ffbde63e362603ba7e7af58", "is_reserved": 0, "rental_uris": {"android": "https://dc.lft.to/lastmile_qr_scan", "ios": "https://dc.lft.to/lastmile_qr_scan"}, "fusion_lon": 0.0}, {"lat": 38.91015633333333, "is_disabled": 0, "type": "electric_scooter", "lon": -77.038562, "bike_id": "c3a2b5953792b3b9f913f2709b489c02", "fusion_lat": 0.0, "name": "c3a2b5953792b3b9f913f2709b489c02", "is_reserved": 0, "rental_uris": {"android": "https://dc.lft.to/lastmile_qr_scan", "ios": "https://dc.lft.to/lastmile_qr_scan"}, "fusion_lon": 0.0}, {"lat": 38.884566, "is_disabled": 0, "type": "electric_scooter", "lon": -76.92622066666667, "bike_id": "04bdb203a8933781f31c27b7bcaad30e", "fusion_lat": 0.0, "name": "04bdb203a8933781f31c27b7bcaad30e", "is_reserved": 0, "rental_uris": {"android": "https://dc.lft.to/lastmile_qr_scan", "ios": "https://dc.lft.to/lastmile_qr_scan"}, "fusion_lon": 0.0}, {"lat": 38.884869, "is_disabled": 0, "type": "electric_scooter", "lon": -77.03478283333334, "bike_id": "543996a62bb5a6aa4322e230e1975c86", "fusion_lat": 0.0, "name": "543996a62bb5a6aa4322e230e1975c86", "is_reserved": 0, "rental_uris": {"android": "https://dc.lft.to/lastmile_qr_scan", "ios": "https://dc.lft.to/lastmile_qr_scan"}, "fusion_lon": 0.0}, {"lat": 38.92852466666667, "is_disabled": 0, "type": "electric_bike", "lon": -77.10680383333333, "bike_id": "94c91edfbdcf26d6055fa93a488a6076", "fusion_lat": 0.0, "name": "94c91edfbdcf26d6055fa93a488a6076", "is_reserved": 0, "rental_uris": {"android": "https://dc.lft.to/lastmile_qr_scan", "ios": "https://dc.lft.to/lastmile_qr_scan"}, "fusion_lon": 0.0}, {"lat": 38.90612483333334, "is_disabled": 0, "type": "electric_scooter", "lon": -77.06301183333333, "bike_id": "120302e1c2f4c8aa2bdfdca3d939fd63", "fusion_lat": 0.0, "name": "120302e1c2f4c8aa2bdfdca3d939fd63", "is_reserved": 0, "rental_uris": {"android": "https://dc.lft.to/lastmile_qr_scan", "ios": "https://dc.lft.to/lastmile_qr_scan"}, "fusion_lon": 0.0}, {"lat": 38.807448, "is_disabled": 0, "type": "electric_bike", "lon": -77.09431366666666, "bike_id": "d715a548757be3d229eae156e75131cd", "fusion_lat": 0.0, "name": "d715a548757be3d229eae156e75131cd", "is_reserved": 0, "rental_uris": {"android": "https://dc.lft.to/lastmile_qr_scan", "ios": "https://dc.lft.to/lastmile_qr_scan"}, "fusion_lon": 0.0}, {"lat": 38.93870166666667, "is_disabled": 0, "type": "electric_scooter", "lon": -77.02446633333334, "bike_id": "0acc83ca487fa74d2e20828cddf8d8e3", "fusion_lat": 0.0, "name": "0acc83ca487fa74d2e20828cddf8d8e3", "is_reserved": 0, "rental_uris": {"android": "https://dc.lft.to/lastmile_qr_scan", "ios": "https://dc.lft.to/lastmile_qr_scan"}, "fusion_lon": 0.0}, {"lat": 38.90857783333333, "is_disabled": 0, "type": "electric_scooter", "lon": -76.99968166666666, "bike_id": "8639f8becce04b8109bd5221bb413bb2", "fusion_lat": 0.0, "name": "8639f8becce04b8109bd5221bb413bb2", "is_reserved": 0, "rental_uris": {"android": "https://dc.lft.to/lastmile_qr_scan", "ios": "https://dc.lft.to/lastmile_qr_scan"}, "fusion_lon": 0.0}, {"lat": 38.9087955, "is_disabled": 0, "type": "electric_scooter", "lon": -77.064411, "bike_id": "8196ca94b3f42532c0240f65bc6476d1", "fusion_lat": 0.0, "name": "8196ca94b3f42532c0240f65bc6476d1", "is_reserved": 0, "rental_uris": {"android": "https://dc.lft.to/lastmile_qr_scan", "ios": "https://dc.lft.to/lastmile_qr_scan"}, "fusion_lon": 0.0}, {"lat": 38.937644166666665, "is_disabled": 0, "type": "electric_scooter", "lon": -77.03142983333333, "bike_id": "f3f4d1fa2a31f0b3d8b5d062605ad007", "fusion_lat": 0.0, "name": "f3f4d1fa2a31f0b3d8b5d062605ad007", "is_reserved": 0, "rental_uris": {"android": "https://dc.lft.to/lastmile_qr_scan", "ios": "https://dc.lft.to/lastmile_qr_scan"}, "fusion_lon": 0.0}, {"lat": 38.91395216666667, "is_disabled": 0, "type": "electric_scooter", "lon": -77.036662, "bike_id": "082a52d8455975624785f08c8e0ae905", "fusion_lat": 0.0, "name": "082a52d8455975624785f08c8e0ae905", "is_reserved": 0, "rental_uris": {"android": "https://dc.lft.to/lastmile_qr_scan", "ios": "https://dc.lft.to/lastmile_qr_scan"}, "fusion_lon": 0.0}, {"lat": 38.9211525, "is_disabled": 0, "type": "electric_scooter", "lon": -77.0180615, "bike_id": "2e580069f6031938af51905d1dfad2aa", "fusion_lat": 0.0, "name": "2e580069f6031938af51905d1dfad2aa", "is_reserved": 0, "rental_uris": {"android": "https://dc.lft.to/lastmile_qr_scan", "ios": "https://dc.lft.to/lastmile_qr_scan"}, "fusion_lon": 0.0}, {"lat": 38.882833166666664, "is_disabled": 0, "type": "electric_bike", "lon": -76.93243016666666, "bike_id": "ec74a6d3b1e32e53b8557df7cb7b5690", "fusion_lat": 0.0, "name": "ec74a6d3b1e32e53b8557df7cb7b5690", "is_reserved": 0, "rental_uris": {"android": "https://dc.lft.to/lastmile_qr_scan", "ios": "https://dc.lft.to/lastmile_qr_scan"}, "fusion_lon": 0.0}, {"lat": 38.918400166666665, "is_disabled": 0, "type": "electric_scooter", "lon": -77.0230235, "bike_id": "0c8b02ee97479546f1e2d9ddda9ca0b3", "fusion_lat": 0.0, "name": "0c8b02ee97479546f1e2d9ddda9ca0b3", "is_reserved": 0, "rental_uris": {"android": "https://dc.lft.to/lastmile_qr_scan", "ios": "https://dc.lft.to/lastmile_qr_scan"}, "fusion_lon": 0.0}, {"lat": 38.92450733333333, "is_disabled": 0, "type": "electric_scooter", "lon": -77.04032483333333, "bike_id": "542fe889a5b1f740baa1869c237b130e", "fusion_lat": 0.0, "name": "542fe889a5b1f740baa1869c237b130e", "is_reserved": 0, "rental_uris": {"android": "https://dc.lft.to/lastmile_qr_scan", "ios": "https://dc.lft.to/lastmile_qr_scan"}, "fusion_lon": 0.0}, {"lat": 38.95080983333333, "is_disabled": 0, "type": "electric_bike", "lon": -77.0120245, "bike_id": "81f4956b5cb7decf6d5c81bb1c309447", "fusion_lat": 0.0, "name": "81f4956b5cb7decf6d5c81bb1c309447", "is_reserved": 0, "rental_uris": {"android": "https://dc.lft.to/lastmile_qr_scan", "ios": "https://dc.lft.to/lastmile_qr_scan"}, "fusion_lon": 0.0}, {"lat": 38.908858, "is_disabled": 0, "type": "electric_scooter", "lon": -77.0366705, "bike_id": "c5001f728127f9199eb16606d4fd52dd", "fusion_lat": 0.0, "name": "c5001f728127f9199eb16606d4fd52dd", "is_reserved": 0, "rental_uris": {"android": "https://dc.lft.to/lastmile_qr_scan", "ios": "https://dc.lft.to/lastmile_qr_scan"}, "fusion_lon": 0.0}, {"lat": 38.89222083333333, "is_disabled": 0, "type": "electric_scooter", "lon": -77.04871616666667, "bike_id": "2d93e5fad9ed165dfe445775193a65c6", "fusion_lat": 0.0, "name": "2d93e5fad9ed165dfe445775193a65c6", "is_reserved": 0, "rental_uris": {"android": "https://dc.lft.to/lastmile_qr_scan", "ios": "https://dc.lft.to/lastmile_qr_scan"}, "fusion_lon": 0.0}, {"lat": 38.90337066666667, "is_disabled": 0, "type": "electric_scooter", "lon": -76.97057066666666, "bike_id": "a244bad17d397c79fbf67f3f28521b97", "fusion_lat": 0.0, "name": "a244bad17d397c79fbf67f3f28521b97", "is_reserved": 0, "rental_uris": {"android": "https://dc.lft.to/lastmile_qr_scan", "ios": "https://dc.lft.to/lastmile_qr_scan"}, "fusion_lon": 0.0}, {"lat": 38.898895333333336, "is_disabled": 0, "type": "electric_scooter", "lon": -77.02962666666667, "bike_id": "68a4dd45785b1fe6d7322b73baeb3e53", "fusion_lat": 0.0, "name": "68a4dd45785b1fe6d7322b73baeb3e53", "is_reserved": 0, "rental_uris": {"android": "https://dc.lft.to/lastmile_qr_scan", "ios": "https://dc.lft.to/lastmile_qr_scan"}, "fusion_lon": 0.0}, {"lat": 38.91686166666667, "is_disabled": 0, "type": "electric_scooter", "lon": -77.02960133333333, "bike_id": "348b8b10419a352406243b38fb979b9e", "fusion_lat": 0.0, "name": "348b8b10419a352406243b38fb979b9e", "is_reserved": 0, "rental_uris": {"android": "https://dc.lft.to/lastmile_qr_scan", "ios": "https://dc.lft.to/lastmile_qr_scan"}, "fusion_lon": 0.0}, {"lat": 38.89805033333333, "is_disabled": 0, "type": "electric_bike", "lon": -76.99068433333333, "bike_id": "c2f53dbbce72620b0246230f35feeb15", "fusion_lat": 0.0, "name": "c2f53dbbce72620b0246230f35feeb15", "is_reserved": 0, "rental_uris": {"android": "https://dc.lft.to/lastmile_qr_scan", "ios": "https://dc.lft.to/lastmile_qr_scan"}, "fusion_lon": 0.0}, {"lat": 38.9156555, "is_disabled": 0, "type": "electric_scooter", "lon": -77.00978433333333, "bike_id": "0242a3e3b07d2fb417221bb92d2b2e77", "fusion_lat": 0.0, "name": "0242a3e3b07d2fb417221bb92d2b2e77", "is_reserved": 0, "rental_uris": {"android": "https://dc.lft.to/lastmile_qr_scan", "ios": "https://dc.lft.to/lastmile_qr_scan"}, "fusion_lon": 0.0}, {"lat": 38.935711166666664, "is_disabled": 0, "type": "electric_scooter", "lon": -77.037359, "bike_id": "21e0f11ae1669cab6244f4ae2757ccde", "fusion_lat": 0.0, "name": "21e0f11ae1669cab6244f4ae2757ccde", "is_reserved": 0, "rental_uris": {"android": "https://dc.lft.to/lastmile_qr_scan", "ios": "https://dc.lft.to/lastmile_qr_scan"}, "fusion_lon": 0.0}, {"lat": 38.9223975, "is_disabled": 0, "type": "electric_scooter", "lon": -77.029093, "bike_id": "d6ece0e15698798f0bfda9eb64e36fd4", "fusion_lat": 0.0, "name": "d6ece0e15698798f0bfda9eb64e36fd4", "is_reserved": 0, "rental_uris": {"android": "https://dc.lft.to/lastmile_qr_scan", "ios": "https://dc.lft.to/lastmile_qr_scan"}, "fusion_lon": 0.0}, {"lat": 38.961558833333335, "is_disabled": 0, "type": "electric_scooter", "lon": -77.028253, "bike_id": "c638b3f5ebc28d5318c2f266b80234bc", "fusion_lat": 0.0, "name": "c638b3f5ebc28d5318c2f266b80234bc", "is_reserved": 0, "rental_uris": {"android": "https://dc.lft.to/lastmile_qr_scan", "ios": "https://dc.lft.to/lastmile_qr_scan"}, "fusion_lon": 0.0}, {"lat": 38.94185266666667, "is_disabled": 0, "type": "electric_bike", "lon": -77.02492766666667, "bike_id": "c224ab328b9c5bb17a0beb4b6226071c", "fusion_lat": 0.0, "name": "c224ab328b9c5bb17a0beb4b6226071c", "is_reserved": 0, "rental_uris": {"android": "https://dc.lft.to/lastmile_qr_scan", "ios": "https://dc.lft.to/lastmile_qr_scan"}, "fusion_lon": 0.0}, {"lat": 38.866192833333336, "is_disabled": 0, "type": "electric_scooter", "lon": -76.98663716666667, "bike_id": "71ae093de624505bd2f2709178df9739", "fusion_lat": 0.0, "name": "71ae093de624505bd2f2709178df9739", "is_reserved": 0, "rental_uris": {"android": "https://dc.lft.to/lastmile_qr_scan", "ios": "https://dc.lft.to/lastmile_qr_scan"}, "fusion_lon": 0.0}, {"lat": 38.917229, "is_disabled": 0, "type": "electric_scooter", "lon": -77.02715433333333, "bike_id": "93940f2ea08c9c497528fe48dadef115", "fusion_lat": 0.0, "name": "93940f2ea08c9c497528fe48dadef115", "is_reserved": 0, "rental_uris": {"android": "https://dc.lft.to/lastmile_qr_scan", "ios": "https://dc.lft.to/lastmile_qr_scan"}, "fusion_lon": 0.0}, {"lat": 38.86220616666667, "is_disabled": 0, "type": "electric_scooter", "lon": -76.98358766666666, "bike_id": "2053253f63cd0d9b5e569fcd4f78cfcd", "fusion_lat": 0.0, "name": "2053253f63cd0d9b5e569fcd4f78cfcd", "is_reserved": 0, "rental_uris": {"android": "https://dc.lft.to/lastmile_qr_scan", "ios": "https://dc.lft.to/lastmile_qr_scan"}, "fusion_lon": 0.0}, {"lat": 38.9056305, "is_disabled": 0, "type": "electric_scooter", "lon": -77.05703616666666, "bike_id": "ee176f63d409e3996fdcc323be439871", "fusion_lat": 0.0, "name": "ee176f63d409e3996fdcc323be439871", "is_reserved": 0, "rental_uris": {"android": "https://dc.lft.to/lastmile_qr_scan", "ios": "https://dc.lft.to/lastmile_qr_scan"}, "fusion_lon": 0.0}, {"lat": 38.916258666666664, "is_disabled": 0, "type": "electric_scooter", "lon": -77.03175583333334, "bike_id": "e5ccc4552bdd88e73181e3f04ab3c3dc", "fusion_lat": 0.0, "name": "e5ccc4552bdd88e73181e3f04ab3c3dc", "is_reserved": 0, "rental_uris": {"android": "https://dc.lft.to/lastmile_qr_scan", "ios": "https://dc.lft.to/lastmile_qr_scan"}, "fusion_lon": 0.0}, {"lat": 38.924097, "is_disabled": 0, "type": "electric_scooter", "lon": -77.02745766666666, "bike_id": "0812813d8324d39579d35319f94c879c", "fusion_lat": 0.0, "name": "0812813d8324d39579d35319f94c879c", "is_reserved": 0, "rental_uris": {"android": "https://dc.lft.to/lastmile_qr_scan", "ios": "https://dc.lft.to/lastmile_qr_scan"}, "fusion_lon": 0.0}, {"lat": 38.903747833333334, "is_disabled": 0, "type": "electric_scooter", "lon": -77.042658, "bike_id": "50ff124172fb4c96af03d69f896e485c", "fusion_lat": 0.0, "name": "50ff124172fb4c96af03d69f896e485c", "is_reserved": 0, "rental_uris": {"android": "https://dc.lft.to/lastmile_qr_scan", "ios": "https://dc.lft.to/lastmile_qr_scan"}, "fusion_lon": 0.0}, {"lat": 38.876271333333335, "is_disabled": 0, "type": "electric_scooter", "lon": -76.96529916666667, "bike_id": "374442e2512be7dc78d243e1feced007", "fusion_lat": 0.0, "name": "374442e2512be7dc78d243e1feced007", "is_reserved": 0, "rental_uris": {"android": "https://dc.lft.to/lastmile_qr_scan", "ios": "https://dc.lft.to/lastmile_qr_scan"}, "fusion_lon": 0.0}, {"lat": 38.9028655, "is_disabled": 0, "type": "electric_scooter", "lon": -77.04042833333334, "bike_id": "ff26b280c8dd214457690583e8a48bf4", "fusion_lat": 0.0, "name": "ff26b280c8dd214457690583e8a48bf4", "is_reserved": 0, "rental_uris": {"android": "https://dc.lft.to/lastmile_qr_scan", "ios": "https://dc.lft.to/lastmile_qr_scan"}, "fusion_lon": 0.0}, {"lat": 38.8341975, "is_disabled": 0, "type": "electric_bike", "lon": -77.10380266666667, "bike_id": "9b5ceba578d679588431b2dd27e7fced", "fusion_lat": 0.0, "name": "9b5ceba578d679588431b2dd27e7fced", "is_reserved": 0, "rental_uris": {"android": "https://dc.lft.to/lastmile_qr_scan", "ios": "https://dc.lft.to/lastmile_qr_scan"}, "fusion_lon": 0.0}, {"lat": 38.86526083333333, "is_disabled": 0, "type": "electric_scooter", "lon": -76.99029933333334, "bike_id": "7a2e5810d4355fd287e4684b1e50225f", "fusion_lat": 0.0, "name": "7a2e5810d4355fd287e4684b1e50225f", "is_reserved": 0, "rental_uris": {"android": "https://dc.lft.to/lastmile_qr_scan", "ios": "https://dc.lft.to/lastmile_qr_scan"}, "fusion_lon": 0.0}, {"lat": 38.844687, "is_disabled": 0, "type": "electric_bike", "lon": -76.98759316666667, "bike_id": "fd089bd520306ae4c80059a3a5f2262f", "fusion_lat": 0.0, "name": "fd089bd520306ae4c80059a3a5f2262f", "is_reserved": 0, "rental_uris": {"android": "https://dc.lft.to/lastmile_qr_scan", "ios": "https://dc.lft.to/lastmile_qr_scan"}, "fusion_lon": 0.0}, {"lat": 38.90259266666666, "is_disabled": 0, "type": "electric_scooter", "lon": -77.01766183333334, "bike_id": "9a81e946b576f67a64122f98dc2f2f34", "fusion_lat": 0.0, "name": "9a81e946b576f67a64122f98dc2f2f34", "is_reserved": 0, "rental_uris": {"android": "https://dc.lft.to/lastmile_qr_scan", "ios": "https://dc.lft.to/lastmile_qr_scan"}, "fusion_lon": 0.0}, {"lat": 38.916911666666664, "is_disabled": 0, "type": "electric_scooter", "lon": -77.03109683333334, "bike_id": "b4a3f8b28a0d1dc5d19c78064ced044e", "fusion_lat": 0.0, "name": "b4a3f8b28a0d1dc5d19c78064ced044e", "is_reserved": 0, "rental_uris": {"android": "https://dc.lft.to/lastmile_qr_scan", "ios": "https://dc.lft.to/lastmile_qr_scan"}, "fusion_lon": 0.0}, {"lat": 38.902680833333335, "is_disabled": 0, "type": "electric_scooter", "lon": -77.0345075, "bike_id": "082e59fada3508f4cd06388592a7a15d", "fusion_lat": 0.0, "name": "082e59fada3508f4cd06388592a7a15d", "is_reserved": 0, "rental_uris": {"android": "https://dc.lft.to/lastmile_qr_scan", "ios": "https://dc.lft.to/lastmile_qr_scan"}, "fusion_lon": 0.0}, {"lat": 38.932382, "is_disabled": 0, "type": "electric_scooter", "lon": -77.030965, "bike_id": "fd763219dc9959e23dda76c638b1444c", "fusion_lat": 0.0, "name": "fd763219dc9959e23dda76c638b1444c", "is_reserved": 0, "rental_uris": {"android": "https://dc.lft.to/lastmile_qr_scan", "ios": "https://dc.lft.to/lastmile_qr_scan"}, "fusion_lon": 0.0}, {"lat": 38.85927266666667, "is_disabled": 0, "type": "electric_scooter", "lon": -76.9972145, "bike_id": "3a8c639728d9d24cbd4af03997e31ae3", "fusion_lat": 0.0, "name": "3a8c639728d9d24cbd4af03997e31ae3", "is_reserved": 0, "rental_uris": {"android": "https://dc.lft.to/lastmile_qr_scan", "ios": "https://dc.lft.to/lastmile_qr_scan"}, "fusion_lon": 0.0}, {"lat": 38.897093166666664, "is_disabled": 0, "type": "electric_scooter", "lon": -77.003472, "bike_id": "55f2b1c0b0e658648a3965a902997f18", "fusion_lat": 0.0, "name": "55f2b1c0b0e658648a3965a902997f18", "is_reserved": 0, "rental_uris": {"android": "https://dc.lft.to/lastmile_qr_scan", "ios": "https://dc.lft.to/lastmile_qr_scan"}, "fusion_lon": 0.0}, {"lat": 38.9165965, "is_disabled": 0, "type": "electric_scooter", "lon": -77.01921366666667, "bike_id": "3d8169cd6b6ba83ccf2ed193fe378633", "fusion_lat": 0.0, "name": "3d8169cd6b6ba83ccf2ed193fe378633", "is_reserved": 0, "rental_uris": {"android": "https://dc.lft.to/lastmile_qr_scan", "ios": "https://dc.lft.to/lastmile_qr_scan"}, "fusion_lon": 0.0}, {"lat": 38.92622583333333, "is_disabled": 0, "type": "electric_scooter", "lon": -77.04417866666667, "bike_id": "ef772446005aa9756aa6b739132f2599", "fusion_lat": 0.0, "name": "ef772446005aa9756aa6b739132f2599", "is_reserved": 0, "rental_uris": {"android": "https://dc.lft.to/lastmile_qr_scan", "ios": "https://dc.lft.to/lastmile_qr_scan"}, "fusion_lon": 0.0}, {"lat": 38.93736166666667, "is_disabled": 0, "type": "electric_scooter", "lon": -77.03495633333333, "bike_id": "36008754a48b91324b1442c6d4a7fee2", "fusion_lat": 0.0, "name": "36008754a48b91324b1442c6d4a7fee2", "is_reserved": 0, "rental_uris": {"android": "https://dc.lft.to/lastmile_qr_scan", "ios": "https://dc.lft.to/lastmile_qr_scan"}, "fusion_lon": 0.0}, {"lat": 38.883826666666664, "is_disabled": 0, "type": "electric_scooter", "lon": -77.0461375, "bike_id": "45aa8514fb3cd3670472765cb57ca596", "fusion_lat": 0.0, "name": "45aa8514fb3cd3670472765cb57ca596", "is_reserved": 0, "rental_uris": {"android": "https://dc.lft.to/lastmile_qr_scan", "ios": "https://dc.lft.to/lastmile_qr_scan"}, "fusion_lon": 0.0}, {"lat": 38.9002315, "is_disabled": 0, "type": "electric_scooter", "lon": -77.03333566666667, "bike_id": "66ece9559dbc1a40737f96f14fa4d52c", "fusion_lat": 0.0, "name": "66ece9559dbc1a40737f96f14fa4d52c", "is_reserved": 0, "rental_uris": {"android": "https://dc.lft.to/lastmile_qr_scan", "ios": "https://dc.lft.to/lastmile_qr_scan"}, "fusion_lon": 0.0}, {"lat": 38.913782, "is_disabled": 0, "type": "electric_scooter", "lon": -77.03204733333334, "bike_id": "c6f7e59997e09f151c4b198bc9c6ef6d", "fusion_lat": 0.0, "name": "c6f7e59997e09f151c4b198bc9c6ef6d", "is_reserved": 0, "rental_uris": {"android": "https://dc.lft.to/lastmile_qr_scan", "ios": "https://dc.lft.to/lastmile_qr_scan"}, "fusion_lon": 0.0}, {"lat": 38.901203, "is_disabled": 0, "type": "electric_scooter", "lon": -77.00321283333334, "bike_id": "f1a0b1d2ebb20e41a613fca8455f8c70", "fusion_lat": 0.0, "name": "f1a0b1d2ebb20e41a613fca8455f8c70", "is_reserved": 0, "rental_uris": {"android": "https://dc.lft.to/lastmile_qr_scan", "ios": "https://dc.lft.to/lastmile_qr_scan"}, "fusion_lon": 0.0}, {"lat": 38.896093, "is_disabled": 0, "type": "electric_scooter", "lon": -76.95659983333333, "bike_id": "b72dd590658a14770521bf29819593a5", "fusion_lat": 0.0, "name": "b72dd590658a14770521bf29819593a5", "is_reserved": 0, "rental_uris": {"android": "https://dc.lft.to/lastmile_qr_scan", "ios": "https://dc.lft.to/lastmile_qr_scan"}, "fusion_lon": 0.0}, {"lat": 38.94908683333333, "is_disabled": 0, "type": "electric_scooter", "lon": -77.06628666666667, "bike_id": "73636f87bec46d9c5d78289413cef346", "fusion_lat": 0.0, "name": "73636f87bec46d9c5d78289413cef346", "is_reserved": 0, "rental_uris": {"android": "https://dc.lft.to/lastmile_qr_scan", "ios": "https://dc.lft.to/lastmile_qr_scan"}, "fusion_lon": 0.0}, {"lat": 38.8863025, "is_disabled": 0, "type": "electric_scooter", "lon": -77.0229755, "bike_id": "f8ccc019be65e7ef279b8b86978d25fe", "fusion_lat": 0.0, "name": "f8ccc019be65e7ef279b8b86978d25fe", "is_reserved": 0, "rental_uris": {"android": "https://dc.lft.to/lastmile_qr_scan", "ios": "https://dc.lft.to/lastmile_qr_scan"}, "fusion_lon": 0.0}, {"lat": 38.911119, "is_disabled": 0, "type": "electric_scooter", "lon": -77.02176433333334, "bike_id": "5b9d0dc650c8b683b98bba679195f931", "fusion_lat": 0.0, "name": "5b9d0dc650c8b683b98bba679195f931", "is_reserved": 0, "rental_uris": {"android": "https://dc.lft.to/lastmile_qr_scan", "ios": "https://dc.lft.to/lastmile_qr_scan"}, "fusion_lon": 0.0}, {"lat": 38.928849166666666, "is_disabled": 0, "type": "electric_scooter", "lon": -77.03877133333333, "bike_id": "a90f693502488672b48884063d07b86c", "fusion_lat": 0.0, "name": "a90f693502488672b48884063d07b86c", "is_reserved": 0, "rental_uris": {"android": "https://dc.lft.to/lastmile_qr_scan", "ios": "https://dc.lft.to/lastmile_qr_scan"}, "fusion_lon": 0.0}, {"lat": 38.85315683333334, "is_disabled": 0, "type": "electric_scooter", "lon": -76.98023416666666, "bike_id": "71787601245836f27fe7a6a9a67b2fbb", "fusion_lat": 0.0, "name": "71787601245836f27fe7a6a9a67b2fbb", "is_reserved": 0, "rental_uris": {"android": "https://dc.lft.to/lastmile_qr_scan", "ios": "https://dc.lft.to/lastmile_qr_scan"}, "fusion_lon": 0.0},