{"data": {"bikes": [{"name": "5ed44de536888bd69007dbc8a79601ad", "fusion_lat": 0.0, "type": "electric_scooter", "lat": 38.9249515, "is_reserved": 0, "is_disabled": 0, "fusion_lon": 0.0, "bike_id": "5ed44de536888bd69007dbc8a79601ad", "lon": -77.0521925, "rental_uris": {"ios": "https://dc.lft.to/lastmile_qr_scan", "android": "https://dc.lft.to/lastmile_qr_scan"}}, {"name": "83a67cc2519ae14595f331039a2685a3", "fusion_lat": 0.0, "type": "electric_scooter", "lat": 38.905699166666665, "is_reserved": 0, "is_disabled": 0, "fusion_lon": 0.0, "bike_id": "83a67cc2519ae14595f331039a2685a3", "lon": -77.05709083333333, "rental_uris": {"ios": "https://dc.lft.to/lastmile_qr_scan", "android": "https://dc.lft.to/lastmile_qr_scan"}}, {"name": "b4e8d88c15d95b5248f0f67ecb0593c6", "fusion_lat": 0.0, "type": "electric_scooter", "lat": 38.93335966666667, "is_reserved": 0, "is_disabled": 0, "fusion_lon": 0.0, "bike_id": "b4e8d88c15d95b5248f0f67ecb0593c6", "lon": -77.08201216666667, "rental_uris": {"ios": "https://dc.lft.to/lastmile_qr_scan", "android": "https://dc.lft.to/lastmile_qr_scan"}}, {"name": "4ba617dad78fcec1a722945550f84d96", "fusion_lat": 0.0, "type": "electric_scooter", "lat": 38.869185333333334, "is_reserved": 0, "is_disabled": 0, "fusion_lon": 0.0, "bike_id": "4ba617dad78fcec1a722945550f84d96", "lon": -76.9750235, "rental_uris": {"ios": "https://dc.lft.to/lastmile_qr_scan", "android": "https://dc.lft.to/lastmile_qr_scan"}}, {"name": "7aaa833bf5384708d2f7fc2a5d841ec2", "fusion_lat": 0.0, "type": "electric_scooter", "lat": 38.92899516666667, "is_reserved": 0, "is_disabled": 0, "fusion_lon": 0.0, "bike_id": "7aaa833bf5384708d2f7fc2a5d841ec2", "lon": -77.005277, "rental_uris": {"ios": "https://dc.lft.to/lastmile_qr_scan", "android": "https://dc.lft.to/lastmile_qr_scan"}}, {"name": "59257311f5a8d4bc119435a32693e082", "fusion_lat": 0.0, "type": "electric_bike", "lat": 38.945852, "is_reserved": 0, "is_disabled": 0, "fusion_lon": 0.0, "bike_id": "59257311f5a8d4bc119435a32693e082", "lon": -77.34403833333333, "rental_uris": {"ios": "https://dc.lft.to/lastmile_qr_scan", "android": "https://dc.lft.to/lastmile_qr_scan"}}, {"name": "68dc42828960313c99711b794ab8edcb", "fusion_lat": 0.0, "type": "electric_scooter", "lat": 38.89739816666667, "is_reserved": 0, "is_disabled": 0, "fusion_lon": 0.0, "bike_id": "68dc42828960313c99711b794ab8edcb", "lon": -77.04750566666667, "rental_uris": {"ios": "https://dc.lft.to/lastmile_qr_scan", "android": "https://dc.lft.to/lastmile_qr_scan"}}, {"name": "249418dbb278689c9f94fd246c5c7e9f", "fusion_lat": 0.0, "type": "electric_scooter", "lat": 38.89885483333333, "is_reserved": 0, "is_disabled": 0, "fusion_lon": 0.0, "bike_id": "249418dbb278689c9f94fd246c5c7e9f", "lon": -76.93174666666667, "rental_uris": {"ios": "https://dc.lft.to/lastmile_qr_scan", "android": "https://dc.lft.to/lastmile_qr_scan"}}, {"name": "309522f0eafae4ae87792a8ba5ded70c", "fusion_lat": 0.0, "type": "electric_scooter", "lat": 38.8996605, "is_reserved": 0, "is_disabled": 0, "fusion_lon": 0.0, "bike_id": "309522f0eafae4ae87792a8ba5ded70c", "lon": -76.995018, "rental_uris": {"ios": "https://dc.lft.to/lastmile_qr_scan", "android": "https://dc.lft.to/lastmile_qr_scan"}}, {"name": "6bcc2218c0c1004a1b85179ac5d8e73b", "fusion_lat": 0.0, "type": "electric_scooter", "lat": 38.879202166666666, "is_reserved": 0, "is_disabled": 0, "fusion_lon": 0.0, "bike_id": "6bcc2218c0c1004a1b85179ac5d8e73b", "lon": -77.02102416666666, "rental_uris": {"ios": "https://dc.lft.to/lastmile_qr_scan", "android": "https://dc.lft.to/lastmile_qr_scan"}}, {"name": "f36e2de7c24781aca74cab9e88e2c093", "fusion_lat": 0.0, "type": "electric_scooter", "lat": 38.900346, "is_reserved": 0, "is_disabled": 0, "fusion_lon": 0.0, "bike_id": "f36e2de7c24781aca74cab9e88e2c093", "lon": -76.99857566666667, "rental_uris": {"ios": "https://dc.lft.to/lastmile_qr_scan", "android": "https://dc.lft.to/lastmile_qr_scan"}}, {"name": "e432f18c77df907817057a1cff2d5501", "fusion_lat": 0.0, "type": "electric_bike", "lat": 38.853233333333336, "is_reserved": 0, "is_disabled": 0, "fusion_lon": 0.0, "bike_id": "e432f18c77df907817057a1cff2d5501", "lon": -76.98024383333333, "rental_uris": {"ios": "https://dc.lft.to/lastmile_qr_scan", "android": "https://dc.lft.to/lastmile_qr_scan"}}, {"name": "5cce7698fac5c10840ff1d2a4119d7bd", "fusion_lat": 0.0, "type": "electric_scooter", "lat": 38.9126155, "is_reserved": 0, "is_disabled": 0, "fusion_lon": 0.0, "bike_id": "5cce7698fac5c10840ff1d2a4119d7bd", "lon": -77.03867916666667, "rental_uris": {"ios": "https://dc.lft.to/lastmile_qr_scan", "android": "https://dc.lft.to/lastmile_qr_scan"}}, {"name": "a062e005960a612ebcff7dfdbf427c3b", "fusion_lat": 0.0, "type": "electric_scooter", "lat": 38.93111833333333, "is_reserved": 0, "is_disabled": 0, "fusion_lon": 0.0, "bike_id": "a062e005960a612ebcff7dfdbf427c3b", "lon": -77.03509133333333, "rental_uris": {"ios": "https://dc.lft.to/lastmile_qr_scan", "android": "https://dc.lft.to/lastmile_qr_scan"}}, {"name": "2657c7ccba97ae03d94ff434cc5947df", "fusion_lat": 0.0, "type": "electric_scooter", "lat": 38.93677, "is_reserved": 0, "is_disabled": 0, "fusion_lon": 0.0, "bike_id": "2657c7ccba97ae03d94ff434cc5947df", "lon": -77.03635883333334, "rental_uris": {"ios": "https://dc.lft.to/lastmile_qr_scan", "android": "https://dc.lft.to/lastmile_qr_scan"}}, {"name": "60e7ca77978e2352412e5f57eae49d26", "fusion_lat": 0.0, "type": "electric_scooter", "lat": 38.865605333333335, "is_reserved": 0, "is_disabled": 0, "fusion_lon": 0.0, "bike_id": "60e7ca77978e2352412e5f57eae49d26", "lon": -76.95997833333334, "rental_uris": {"ios": "https://dc.lft.to/lastmile_qr_scan", "android": "https://dc.lft.to/lastmile_qr_scan"}}, {"name": "4007ccc663cc4214d99f6638be9301f9", "fusion_lat": 0.0, "type": "electric_scooter", "lat": 38.90516366666667, "is_reserved": 0, "is_disabled": 0, "fusion_lon": 0.0, "bike_id": "4007ccc663cc4214d99f6638be9301f9", "lon": -77.06878833333333, "rental_uris": {"ios": "https://dc.lft.to/lastmile_qr_scan", "android": "https://dc.lft.to/lastmile_qr_scan"}}, {"name": "9c7a59401c600dffcaf9509c68956608", "fusion_lat": 0.0, "type": "electric_scooter", "lat": 38.9089585, "is_reserved": 0, "is_disabled": 0, "fusion_lon": 0.0, "bike_id": "9c7a59401c600dffcaf9509c68956608", "lon": -77.04938516666667, "rental_uris": {"ios": "https://dc.lft.to/lastmile_qr_scan", "android": "https://dc.lft.to/lastmile_qr_scan"}}, {"name": "ad7656723d5965cd8d95d4eb1f7af84d", "fusion_lat": 0.0, "type": "electric_scooter", "lat": 38.92768683333333, "is_reserved": 0, "is_disabled": 0, "fusion_lon": 0.0, "bike_id": "ad7656723d5965cd8d95d4eb1f7af84d", "lon": -77.027785, "rental_uris": {"ios": "https://dc.lft.to/lastmile_qr_scan", "android": "https://dc.lft.to/lastmile_qr_scan"}}, {"name": "5dfc6ead5f747f7650ad1ed9ed7215e8", "fusion_lat": 0.0, "type": "electric_scooter", "lat": 38.911268166666666, "is_reserved": 0, "is_disabled": 0, "fusion_lon": 0.0, "bike_id": "5dfc6ead5f747f7650ad1ed9ed7215e8", "lon": -77.04777316666667, "rental_uris": {"ios": "https://dc.lft.to/lastmile_qr_scan", "android": "https://dc.lft.to/lastmile_qr_scan"}}, {"name": "3816969b75a48de1dd14ba689ae522b8", "fusion_lat": 0.0, "type": "electric_scooter", "lat": 38.927125833333335, "is_reserved": 0, "is_disabled": 0, "fusion_lon": 0.0, "bike_id": "3816969b75a48de1dd14ba689ae522b8", "lon": -77.0372755, "rental_uris": {"ios": "https://dc.lft.to/lastmile_qr_scan", "android": "https://dc.lft.to/lastmile_qr_scan"}}, {"name": "abcaa84e3351a032c6f8371a97b64dc2", "fusion_lat": 0.0, "type": "electric_scooter", "lat": 38.912499333333336, "is_reserved": 0, "is_disabled": 0, "fusion_lon": 0.0, "bike_id": "abcaa84e3351a032c6f8371a97b64dc2", "lon": -77.03212916666666, "rental_uris": {"ios": "https://dc.lft.to/lastmile_qr_scan", "android": "https://dc.lft.to/lastmile_qr_scan"}}, {"name": "541783752146084ba081e0f21eca6598", "fusion_lat": 0.0, "type": "electric_scooter", "lat": 38.917056333333335, "is_reserved": 0, "is_disabled": 0, "fusion_lon": 0.0, "bike_id": "541783752146084ba081e0f21eca6598", "lon": -77.02312066666667, "rental_uris": {"ios": "https://dc.lft.to/lastmile_qr_scan", "android": "https://dc.lft.to/lastmile_qr_scan"}}, {"name": "15eb896cf6c4e7e995132584dbb0f2aa", "fusion_lat": 0.0, "type": "electric_scooter", "lat": 38.888289, "is_reserved": 0, "is_disabled": 0, "fusion_lon": 0.0, "bike_id": "15eb896cf6c4e7e995132584dbb0f2aa", "lon": -77.04941783333334, "rental_uris": {"ios": "https://dc.lft.to/lastmile_qr_scan", "android": "https://dc.lft.to/lastmile_qr_scan"}}, {"name": "8518bd76d1efe06b9b952b78005b8eab", "fusion_lat": 0.0, "type": "electric_bike", "lat": 38.915529166666666, "is_reserved": 0, "is_disabled": 0, "fusion_lon": 0.0, "bike_id": "8518bd76d1efe06b9b952b78005b8eab", "lon": -77.06758133333334, "rental_uris": {"ios": "https://dc.lft.to/lastmile_qr_scan", "android": "https://dc.lft.to/lastmile_qr_scan"}}, {"name": "56f191435d3ea284ba929332765860e1", "fusion_lat": 0.0, "type": "electric_scooter", "lat": 38.9106725, "is_reserved": 0, "is_disabled": 0, "fusion_lon": 0.0, "bike_id": "56f191435d3ea284ba929332765860e1", "lon": -77.0085185, "rental_uris": {"ios": "https://dc.lft.to/lastmile_qr_scan", "android": "https://dc.lft.to/lastmile_qr_scan"}}, {"name": "99a5ea7a8fd4cd5482ebc15de6381263", "fusion_lat": 0.0, "type": "electric_bike", "lat": 38.919241, "is_reserved": 0, "is_disabled": 0, "fusion_lon": 0.0, "bike_id": "99a5ea7a8fd4cd5482ebc15de6381263", "lon": -77.032208, "rental_uris": {"ios": "https://dc.lft.to/lastmile_qr_scan", "android": "https://dc.lft.to/lastmile_qr_scan"}}, {"name": "df9950f78676b4053445ed726a92d2c8", "fusion_lat": 0.0, "type": "electric_scooter", "lat": 38.9202265, "is_reserved": 0, "is_disabled": 0, "fusion_lon": 0.0, "bike_id": "df9950f78676b4053445ed726a92d2c8", "lon": -77.03112033333333, "rental_uris": {"ios": "https://dc.lft.to/lastmile_qr_scan", "android": "https://dc.lft.to/lastmile_qr_scan"}}, {"name": "3ca9e718b483e9bfef4ae5cfa5eba99b", "fusion_lat": 0.0, "type": "electric_scooter", "lat": 38.92629766666667, "is_reserved": 0, "is_disabled": 0, "fusion_lon": 0.0, "bike_id": "3ca9e718b483e9bfef4ae5cfa5eba99b", "lon": -77.03784216666666, "rental_uris": {"ios": "https://dc.lft.to/lastmile_qr_scan", "android": "https://dc.lft.to/lastmile_qr_scan"}}, {"name": "e4eb8865b013ec147cb08c75931bb9fe", "fusion_lat": 0.0, "type": "electric_bike", "lat": 38.863788, "is_reserved": 0, "is_disabled": 0, "fusion_lon": 0.0, "bike_id": "e4eb8865b013ec147cb08c75931bb9fe", "lon": -77.12899666666667, "rental_uris": {"ios": "https://dc.lft.to/lastmile_qr_scan", "android": "https://dc.lft.to/lastmile_qr_scan"}}, {"name": "4dcbb293b312e6348f0a2f098c78aa32", "fusion_lat": 0.0, "type": "electric_scooter", "lat": 38.89249933333333, "is_reserved": 0, "is_disabled": 0, "fusion_lon": 0.0, "bike_id": "4dcbb293b312e6348f0a2f098c78aa32", "lon": -77.01513566666667, "rental_uris": {"ios": "https://dc.lft.to/lastmile_qr_scan", "android": "https://dc.lft.to/lastmile_qr_scan"}}, {"name": "afacfc333ddce72be2b4d6913682e035", "fusion_lat": 0.0, "type": "electric_bike", "lat": 38.97091616666667, "is_reserved": 0, "is_disabled": 0, "fusion_lon": 0.0, "bike_id": "afacfc333ddce72be2b4d6913682e035", "lon": -77.0696405, "rental_uris": {"ios": "https://dc.lft.to/lastmile_qr_scan", "android": "https://dc.lft.to/lastmile_qr_scan"}}, {"name": "df34d1f6e1f462e0897763dd2460e59f", "fusion_lat": 0.0, "type": "electric_scooter", "lat": 38.89967466666667, "is_reserved": 0, "is_disabled": 0, "fusion_lon": 0.0, "bike_id": "df34d1f6e1f462e0897763dd2460e59f", "lon": -77.01614416666666, "rental_uris": {"ios": "https://dc.lft.to/lastmile_qr_scan", "android": "https://dc.lft.to/lastmile_qr_scan"}}, {"name": "a169a6f0ddd8b4b97346d3d923067d23", "fusion_lat": 0.0, "type": "electric_scooter", "lat": 38.911984833333335, "is_reserved": 0, "is_disabled": 0, "fusion_lon": 0.0, "bike_id": "a169a6f0ddd8b4b97346d3d923067d23", "lon": -77.05959633333333, "rental_uris": {"ios": "https://dc.lft.to/lastmile_qr_scan", "android": "https://dc.lft.to/lastmile_qr_scan"}}, {"name": "0648a11141ea474650c83ce4cb031f77", "fusion_lat": 0.0, "type": "electric_scooter", "lat": 38.900373333333334, "is_reserved": 0, "is_disabled": 0, "fusion_lon": 0.0, "bike_id": "0648a11141ea474650c83ce4cb031f77", "lon": -77.01161066666667, "rental_uris": {"ios": "https://dc.lft.to/lastmile_qr_scan", "android": "https://dc.lft.to/lastmile_qr_scan"}}, {"name": "fc75eb7b8a7b927f7ae380a524e0565d", "fusion_lat": 0.0, "type": "electric_scooter", "lat": 38.91571616666667, "is_reserved": 0, "is_disabled": 0, "fusion_lon": 0.0, "bike_id": "fc75eb7b8a7b927f7ae380a524e0565d", "lon": -77.04882633333334, "rental_uris": {"ios": "https://dc.lft.to/lastmile_qr_scan", "android": "https://dc.lft.to/lastmile_qr_scan"}}, {"name": "8f5a39cca997292ec7ed3ddeab6bfdc6", "fusion_lat": 0.0, "type": "electric_scooter", "lat": 38.8763225, "is_reserved": 0, "is_disabled": 0, "fusion_lon": 0.0, "bike_id": "8f5a39cca997292ec7ed3ddeab6bfdc6", "lon": -76.965289, "rental_uris": {"ios": "https://dc.lft.to/lastmile_qr_scan", "android": "https://dc.lft.to/lastmile_qr_scan"}}, {"name": "155f83b77d5af37850ad63c5dc6af9e5", "fusion_lat": 0.0, "type": "electric_scooter", "lat": 38.91827166666667, "is_reserved": 0, "is_disabled": 0, "fusion_lon": 0.0, "bike_id": "155f83b77d5af37850ad63c5dc6af9e5", "lon": -77.02694333333334, "rental_uris": {"ios": "https://dc.lft.to/lastmile_qr_scan", "android": "https://dc.lft.to/lastmile_qr_scan"}}, {"name": "0f2070cb4241b53c247dd4317bfec1bc", "fusion_lat": 0.0, "type": "electric_scooter", "lat": 38.9169415, "is_reserved": 0, "is_disabled": 0, "fusion_lon": 0.0, "bike_id": "0f2070cb4241b53c247dd4317bfec1bc", "lon": -77.02594583333334, "rental_uris": {"ios": "https://dc.lft.to/lastmile_qr_scan", "android": "https://dc.lft.to/lastmile_qr_scan"}}, {"name": "3202c0f19e8dc77cd3cc663d1d7c15e5", "fusion_lat": 0.0, "type": "electric_bike", "lat": 38.90977566666667, "is_reserved": 0, "is_disabled": 0, "fusion_lon": 0.0, "bike_id": "3202c0f19e8dc77cd3cc663d1d7c15e5", "lon": -77.0881905, "rental_uris": {"ios": "https://dc.lft.to/lastmile_qr_scan", "android": "https://dc.lft.to/lastmile_qr_scan"}}, {"name": "9c4b9bb77c6b6c633e6f7aacf81db2da", "fusion_lat": 0.0, "type": "electric_scooter", "lat": 38.899584, "is_reserved": 0, "is_disabled": 0, "fusion_lon": 0.0, "bike_id": "9c4b9bb77c6b6c633e6f7aacf81db2da", "lon": -77.01799283333334, "rental_uris": {"ios": "https://dc.lft.to/lastmile_qr_scan", "android": "https://dc.lft.to/lastmile_qr_scan"}}, {"name": "5b38504c63c1d17f54a65936f2578008", "fusion_lat": 0.0, "type": "electric_scooter", "lat": 38.9179055, "is_reserved": 0, "is_disabled": 0, "fusion_lon": 0.0, "bike_id": "5b38504c63c1d17f54a65936f2578008", "lon": -77.02318116666666, "rental_uris": {"ios": "https://dc.lft.to/lastmile_qr_scan", "android": "https://dc.lft.to/lastmile_qr_scan"}}, {"name": "5093b1595d73a13b17465e045e55847a", "fusion_lat": 0.0, "type": "electric_scooter", "lat": 38.87467766666666, "is_reserved": 0, "is_disabled": 0, "fusion_lon": 0.0, "bike_id": "5093b1595d73a13b17465e045e55847a", "lon": -77.00614016666667, "rental_uris": {"ios": "https://dc.lft.to/lastmile_qr_scan", "android": "https://dc.lft.to/lastmile_qr_scan"}}, {"name": "53210d8d35045558f5eff0ed2a6c026c", "fusion_lat": 0.0, "type": "electric_scooter", "lat": 38.8710855, "is_reserved": 0, "is_disabled": 0, "fusion_lon": 0.0, "bike_id": "53210d8d35045558f5eff0ed2a6c026c", "lon": -76.965958, "rental_uris": {"ios": "https://dc.lft.to/lastmile_qr_scan", "android": "https://dc.lft.to/lastmile_qr_scan"}}, {"name": "4459f75824790f3089ca983958707995", "fusion_lat": 0.0, "type": "electric_bike", "lat": 38.8880115, "is_reserved": 0, "is_disabled": 0, "fusion_lon": 0.0, "bike_id": "4459f75824790f3089ca983958707995", "lon": -76.92998333333334, "rental_uris": {"ios": "https://dc.lft.to/lastmile_qr_scan", "android": "https://dc.lft.to/lastmile_qr_scan"}}, {"name": "4387cdade7e115ec5fbba7b5be105a93", "fusion_lat": 0.0, "type": "electric_scooter", "lat": 38.894163166666665, "is_reserved": 0, "is_disabled": 0, "fusion_lon": 0.0, "bike_id": "4387cdade7e115ec5fbba7b5be105a93", "lon": -76.93960766666666, "rental_uris": {"ios": "https://dc.lft.to/lastmile_qr_scan", "android": "https://dc.lft.to/lastmile_qr_scan"}}, {"name": "81b36781587ca1d83b869265956e90e6", "fusion_lat": 0.0, "type": "electric_scooter", "lat": 38.9032935, "is_reserved": 0, "is_disabled": 0, "fusion_lon": 0.0, "bike_id": "81b36781587ca1d83b869265956e90e6", "lon": -77.02884866666666, "rental_uris": {"ios": "https://dc.lft.to/lastmile_qr_scan", "android": "https://dc.lft.to/lastmile_qr_scan"}}, {"name": "0e5511f5b715aa0e44ac7f1aae389764", "fusion_lat": 0.0, "type": "electric_bike", "lat": 38.956907, "is_reserved": 0, "is_disabled": 0, "fusion_lon": 0.0, "bike_id": "0e5511f5b715aa0e44ac7f1aae389764", "lon": -77.02225783333333, "rental_uris": {"ios": "https://dc.lft.to/lastmile_qr_scan", "android": "https://dc.lft.to/lastmile_qr_scan"}}, {"name": "bbed8b9769c351dfc1ad957777eafee1", "fusion_lat": 0.0, "type": "electric_scooter", "lat": 38.901698833333334, "is_reserved": 0, "is_disabled": 0, "fusion_lon": 0.0, "bike_id": "bbed8b9769c351dfc1ad957777eafee1", "lon": -77.016011, "rental_uris": {"ios": "https://dc.lft.to/lastmile_qr_scan", "android": "https://dc.lft.to/lastmile_qr_scan"}}, {"name": "62ff905afb8be5bc212b7122e67dc4c2", "fusion_lat": 0.0, "type": "electric_bike", "lat": 38.9367455, "is_reserved": 0, "is_disabled": 0, "fusion_lon": 0.0, "bike_id": "62ff905afb8be5bc212b7122e67dc4c2", "lon": -76.95208233333334, "rental_uris": {"ios": "https://dc.lft.to/lastmile_qr_scan", "android": "https://dc.lft.to/lastmile_qr_scan"}}, {"name": "3844cc377cdef06d408e1f1e24f0a3f0", "fusion_lat": 0.0, "type": "electric_scooter", "lat": 38.89649633333333, "is_reserved": 0, "is_disabled": 0, "fusion_lon": 0.0, "bike_id": "3844cc377cdef06d408e1f1e24f0a3f0", "lon": -77.00917316666667, "rental_uris": {"ios": "https://dc.lft.to/lastmile_qr_scan", "android": "https://dc.lft.to/lastmile_qr_scan"}}, {"name": "e93c131c4ce3804fc3da728785747fcc", "fusion_lat": 0.0, "type": "electric_scooter", "lat": 38.9097185, "is_reserved": 0, "is_disabled": 0, "fusion_lon": 0.0, "bike_id": "e93c131c4ce3804fc3da728785747fcc", "lon": -77.021756, "rental_uris": {"ios": "https://dc.lft.to/lastmile_qr_scan", "android": "https://dc.lft.to/lastmile_qr_scan"}}, {"name": "34c66bd4739a22ef3e8670fb09c7f548", "fusion_lat": 0.0, "type": "electric_scooter", "lat": 38.9259075, "is_reserved": 0, "is_disabled": 0, "fusion_lon": 0.0, "bike_id": "34c66bd4739a22ef3e8670fb09c7f548", "lon": -77.05291233333334, "rental_uris": {"ios": "https://dc.lft.to/lastmile_qr_scan", "android": "https://dc.lft.to/lastmile_qr_scan"}}, {"name": "aed109d963bbe4a6bbdbd5bd4fb8d90f", "fusion_lat": 0.0, "type": "electric_scooter", "lat": 38.895031, "is_reserved": 0, "is_disabled": 0, "fusion_lon": 0.0, "bike_id": "aed109d963bbe4a6bbdbd5bd4fb8d90f", "lon": -77.0241765, "rental_uris": {"ios": "https://dc.lft.to/lastmile_qr_scan", "android": "https://dc.lft.to/lastmile_qr_scan"}}, {"name": "885ef815644f8b4b7d1a93c0beba3004", "fusion_lat": 0.0, "type": "electric_scooter", "lat": 38.901347666666666, "is_reserved": 0, "is_disabled": 0, "fusion_lon": 0.0, "bike_id": "885ef815644f8b4b7d1a93c0beba3004", "lon": -77.03332166666667, "rental_uris": {"ios": "https://dc.lft.to/lastmile_qr_scan", "android": "https://dc.lft.to/lastmile_qr_scan"}}, {"name": "31eaa241b306dbd7b2ad4ebeb6327a6a", "fusion_lat": 0.0, "type": "electric_scooter", "lat": 38.886735, "is_reserved": 0, "is_disabled": 0, "fusion_lon": 0.0, "bike_id": "31eaa241b306dbd7b2ad4ebeb6327a6a", "lon": -76.93613733333333, "rental_uris": {"ios": "https://dc.lft.to/lastmile_qr_scan", "android": "https://dc.lft.to/lastmile_qr_scan"}}, {"name": "72ad7795cb2c44cb93ec1614a5ec3a43", "fusion_lat": 0.0, "type": "electric_scooter", "lat": 38.92324833333333, "is_reserved": 0, "is_disabled": 0, "fusion_lon": 0.0, "bike_id": "72ad7795cb2c44cb93ec1614a5ec3a43", "lon": -77.05435983333334, "rental_uris": {"ios": "https://dc.lft.to/lastmile_qr_scan", "android": "https://dc.lft.to/lastmile_qr_scan"}}, {"name": "af674a5165257fdfec8696afe62e351e", "fusion_lat": 0.0, "type": "electric_scooter", "lat": 38.90255833333333, "is_reserved": 0, "is_disabled": 0, "fusion_lon": 0.0, "bike_id": "af674a5165257fdfec8696afe62e351e", "lon": -77.01750783333334, "rental_uris": {"ios": "https://dc.lft.to/lastmile_qr_scan", "android": "https://dc.lft.to/lastmile_qr_scan"}}, {"name": "5e2aaac5578fe30acb77fc4dcf6ac36b", "fusion_lat": 0.0, "type": "electric_bike", "lat": 38.827269, "is_reserved": 0, "is_disabled": 0, "fusion_lon": 0.0, "bike_id": "5e2aaac5578fe30acb77fc4dcf6ac36b", "lon": -77.008643, "rental_uris": {"ios": "https://dc.lft.to/lastmile_qr_scan", "android": "https://dc.lft.to/lastmile_qr_scan"}}, {"name": "f4c22ac21cd67d0b58a42ea5e76f87b6", "fusion_lat": 0.0, "type": "electric_scooter", "lat": 38.92268583333333, "is_reserved": 0, "is_disabled": 0, "fusion_lon": 0.0, "bike_id": "f4c22ac21cd67d0b58a42ea5e76f87b6", "lon": -77.03408166666667, "rental_uris": {"ios": "https://dc.lft.to/lastmile_qr_scan", "android": "https://dc.lft.to/lastmile_qr_scan"}}, {"name": "ebf7cd7991e9340dc0c1f8fc409c21f1", "fusion_lat": 0.0, "type": "electric_scooter", "lat": 38.952217833333336, "is_reserved": 0, "is_disabled": 0, "fusion_lon": 0.0, "bike_id": "ebf7cd7991e9340dc0c1f8fc409c21f1", "lon": -77.07071016666667, "rental_uris": {"ios": "https://dc.lft.to/lastmile_qr_scan", "android": "https://dc.lft.to/lastmile_qr_scan"}}, {"name": "555a23acf42abdc4bbb800ae4f020ba1", "fusion_lat": 0.0, "type": "electric_scooter", "lat": 38.910612, "is_reserved": 0, "is_disabled": 0, "fusion_lon": 0.0, "bike_id": "555a23acf42abdc4bbb800ae4f020ba1", "lon": -77.04578733333334, "rental_uris": {"ios": "https://dc.lft.to/lastmile_qr_scan", "android": "https://dc.lft.to/lastmile_qr_scan"}}, {"name": "0cc9a3e3881d78b1d802468ac7e24117", "fusion_lat": 0.0, "type": "electric_scooter", "lat": 38.89484133333333, "is_reserved": 0, "is_disabled": 0, "fusion_lon": 0.0, "bike_id": "0cc9a3e3881d78b1d802468ac7e24117", "lon": -76.94873416666667, "rental_uris": {"ios": "https://dc.lft.to/lastmile_qr_scan", "android": "https://dc.lft.to/lastmile_qr_scan"}}, {"name": "4803b62029fdf6fac3d0afc08158d5ce", "fusion_lat": 0.0, "type": "electric_scooter", "lat": 38.865052, "is_reserved": 0, "is_disabled": 0, "fusion_lon": 0.0, "bike_id": "4803b62029fdf6fac3d0afc08158d5ce", "lon": -76.99002966666667, "rental_uris": {"ios": "https://dc.lft.to/lastmile_qr_scan", "android": "https://dc.lft.to/lastmile_qr_scan"}}, {"name": "90167d588d4d0d7b7a10763507b89af3", "fusion_lat": 0.0, "type": "electric_scooter", "lat": 38.918981, "is_reserved": 0, "is_disabled": 0, "fusion_lon": 0.0, "bike_id": "90167d588d4d0d7b7a10763507b89af3", "lon": -77.05288716666666, "rental_uris": {"ios": "https://dc.lft.to/lastmile_qr_scan", "android": "https://dc.lft.to/lastmile_qr_scan"}}, {"name": "4b43b9461facc90f815177db56e4e246", "fusion_lat": 0.0, "type": "electric_scooter", "lat": 38.87649966666667, "is_reserved": 0, "is_disabled": 0, "fusion_lon": 0.0, "bike_id": "4b43b9461facc90f815177db56e4e246", "lon": -77.0148245, "rental_uris": {"ios": "https://dc.lft.to/lastmile_qr_scan", "android": "https://dc.lft.to/lastmile_qr_scan"}}, {"name": "8c729c3dd1a9b7d6a0bcfdc75434dbab", "fusion_lat": 0.0, "type": "electric_scooter", "lat": 38.900310833333336, "is_reserved": 0, "is_disabled": 0, "fusion_lon": 0.0, "bike_id": "8c729c3dd1a9b7d6a0bcfdc75434dbab", "lon": -76.998595, "rental_uris": {"ios": "https://dc.lft.to/lastmile_qr_scan", "android": "https://dc.lft.to/lastmile_qr_scan"}}, {"name": "6448babc06730fb83a6bba1d3892084a", "fusion_lat": 0.0, "type": "electric_scooter", "lat": 38.914064833333335, "is_reserved": 0, "is_disabled": 0, "fusion_lon": 0.0, "bike_id": "6448babc06730fb83a6bba1d3892084a", "lon": -77.0395135, "rental_uris": {"ios": "https://dc.lft.to/lastmile_qr_scan", "android": "https://dc.lft.to/lastmile_qr_scan"}}, {"name": "b5f40c2d538ae3bf5dbc696dac3b6fea", "fusion_lat": 0.0, "type": "electric_scooter", "lat": 38.936404833333334, "is_reserved": 0, "is_disabled": 0, "fusion_lon": 0.0, "bike_id": "b5f40c2d538ae3bf5dbc696dac3b6fea", "lon": -77.03669916666666, "rental_uris": {"ios": "https://dc.lft.to/lastmile_qr_scan", "android": "https://dc.lft.to/lastmile_qr_scan"}}, {"name": "1a30a2148dc4da5435e4a2e13e0651c6", "fusion_lat": 0.0, "type": "electric_scooter", "lat": 38.905817666666664, "is_reserved": 0, "is_disabled": 0, "fusion_lon": 0.0, "bike_id": "1a30a2148dc4da5435e4a2e13e0651c6", "lon": -77.0372125, "rental_uris": {"ios": "https://dc.lft.to/lastmile_qr_scan", "android": "https://dc.lft.to/lastmile_qr_scan"}}, {"name": "4f30b63f39e283e3ae21f3ad706877af", "fusion_lat": 0.0, "type": "electric_scooter", "lat": 38.920614666666665, "is_reserved": 0, "is_disabled": 0, "fusion_lon": 0.0, "bike_id": "4f30b63f39e283e3ae21f3ad706877af", "lon": -77.03473216666667, "rental_uris": {"ios": "https://dc.lft.to/lastmile_qr_scan", "android": "https://dc.lft.to/lastmile_qr_scan"}}, {"name": "e117bb7072bf55aa3b1d750fa5286f02", "fusion_lat": 0.0, "type": "electric_scooter", "lat": 38.868351, "is_reserved": 0, "is_disabled": 0, "fusion_lon": 0.0, "bike_id": "e117bb7072bf55aa3b1d750fa5286f02", "lon": -76.98613866666666, "rental_uris": {"ios": "https://dc.lft.to/lastmile_qr_scan", "android": "https://dc.lft.to/lastmile_qr_scan"}}, {"name": "54e0ff82ea8676178ca3c600cf60e7fe", "fusion_lat": 0.0, "type": "electric_scooter", "lat": 38.91418633333333, "is_reserved": 0, "is_disabled": 0, "fusion_lon": 0.0, "bike_id": "54e0ff82ea8676178ca3c600cf60e7fe", "lon": -77.03102866666667, "rental_uris": {"ios": "https://dc.lft.to/lastmile_qr_scan", "android": "https://dc.lft.to/lastmile_qr_scan"}}, {"name": "e7c265b55bd5f1a4ea2db709b21264e4", "fusion_lat": 0.0, "type": "electric_scooter", "lat": 38.91185633333333, "is_reserved": 0, "is_disabled": 0, "fusion_lon": 0.0, "bike_id": "e7c265b55bd5f1a4ea2db709b21264e4", "lon": -77.04497116666667, "rental_uris": {"ios": "https://dc.lft.to/lastmile_qr_scan", "android": "https://dc.lft.to/lastmile_qr_scan"}}, {"name": "ffaf31918507ae450d8b92f98c505164", "fusion_lat": 0.0, "type": "electric_scooter", "lat": 38.9158855, "is_reserved": 0, "is_disabled": 0, "fusion_lon": 0.0, "bike_id": "ffaf31918507ae450d8b92f98c505164", "lon": -77.04258116666666, "rental_uris": {"ios": "https://dc.lft.to/lastmile_qr_scan", "android": "https://dc.lft.to/lastmile_qr_scan"}}, {"name": "525905ffaee3327a7f11a24cf8a924c0", "fusion_lat": 0.0, "type": "electric_scooter", "lat": 38.92091766666667, "is_reserved": 0, "is_disabled": 0, "fusion_lon": 0.0, "bike_id": "525905ffaee3327a7f11a24cf8a924c0", "lon": -77.01373166666667, "rental_uris": {"ios": "https://dc.lft.to/lastmile_qr_scan", "android": "https://dc.lft.to/lastmile_qr_scan"}}, {"name": "886dc8a5cd064ead14f5fb130fe5f12d", "fusion_lat": 0.0, "type": "electric_scooter", "lat": 38.938740833333334, "is_reserved": 0, "is_disabled": 0, "fusion_lon": 0.0, "bike_id": "886dc8a5cd064ead14f5fb130fe5f12d", "lon": -77.02220033333333, "rental_uris": {"ios": "https://dc.lft.to/lastmile_qr_scan", "android": "https://dc.lft.to/lastmile_qr_scan"}}, {"name": "d2c81283aa9e3744300144a8f780f683", "fusion_lat": 0.0, "type": "electric_scooter", "lat": 38.9243425, "is_reserved": 0, "is_disabled": 0, "fusion_lon": 0.0, "bike_id": "d2c81283aa9e3744300144a8f780f683", "lon": -77.0421665, "rental_uris": {"ios": "https://dc.lft.to/lastmile_qr_scan", "android": "https://dc.lft.to/lastmile_qr_scan"}}, {"name": "f5b56ba9a61665c54c524491a3fbb863", "fusion_lat": 0.0, "type": "electric_bike", "lat": 38.91175583333333, "is_reserved": 0, "is_disabled": 0, "fusion_lon": 0.0, "bike_id": "f5b56ba9a61665c54c524491a3fbb863", "lon": -77.01153583333334, "rental_uris": {"ios": "https://dc.lft.to/lastmile_qr_scan", "android": "https://dc.lft.to/lastmile_qr_scan"}}, {"name": "1d8e1bfa1e4b9afa4154382a003d5cb1", "fusion_lat": 0.0, "type": "electric_scooter", "lat": 38.916936166666666, "is_reserved": 0, "is_disabled": 0, "fusion_lon": 0.0, "bike_id": "1d8e1bfa1e4b9afa4154382a003d5cb1", "lon": -77.0307475, "rental_uris": {"ios": "https://dc.lft.to/lastmile_qr_scan", "android": "https://dc.lft.to/lastmile_qr_scan"}}, {"name": "0db1f6e75afc2fd7906c384e18d9ddfc", "fusion_lat": 0.0, "type": "electric_scooter", "lat": 38.919037833333334, "is_reserved": 0, "is_disabled": 0, "fusion_lon": 0.0, "bike_id": "0db1f6e75afc2fd7906c384e18d9ddfc", "lon": -77.000434, "rental_uris": {"ios": "https://dc.lft.to/lastmile_qr_scan", "android": "https://dc.lft.to/lastmile_qr_scan"}}, {"name": "f81637ba1363cb05a2d71179a4a3e0c2", "fusion_lat": 0.0, "type": "electric_scooter", "lat": 38.900351666666666, "is_reserved": 0, "is_disabled": 0, "fusion_lon": 0.0, "bike_id": "f81637ba1363cb05a2d71179a4a3e0c2", "lon": -77.0019795, "rental_uris": {"ios": "https://dc.lft.to/lastmile_qr_scan", "android": "https://dc.lft.to/lastmile_qr_scan"}}, {"name": "fa9650f316333a386d20c977c73010b2", "fusion_lat": 0.0, "type": "electric_scooter", "lat": 38.8666075, "is_reserved": 0, "is_disabled": 0, "fusion_lon": 0.0, "bike_id": "fa9650f316333a386d20c977c73010b2", "lon": -76.98887183333333, "rental_uris": {"ios": "https://dc.lft.to/lastmile_qr_scan", "android": "https://dc.lft.to/lastmile_qr_scan"}}, {"name": "9928ff4d70fd49a89fc12f1bb4380884", "fusion_lat": 0.0, "type": "electric_scooter", "lat": 38.917207833333336, "is_reserved": 0, "is_disabled": 0, "fusion_lon": 0.0, "bike_id": "9928ff4d70fd49a89fc12f1bb4380884", "lon": -77.02347916666666, "rental_uris": {"ios": "https://dc.lft.to/lastmile_qr_scan", "android": "https://dc.lft.to/lastmile_qr_scan"}}, {"name": "b0a01d794e0fc7dc413aaa94c176fa64", "fusion_lat": 0.0, "type": "electric_scooter", "lat": 38.924338166666665, "is_reserved": 0, "is_disabled": 0, "fusion_lon": 0.0, "bike_id": "b0a01d794e0fc7dc413aaa94c176fa64", "lon": -77.04247066666667, "rental_uris": {"ios": "https://dc.lft.to/lastmile_qr_scan", "android": "https://dc.lft.to/lastmile_qr_scan"}}, {"name": "e6385f6157bb58210a22157293f68d92", "fusion_lat": 0.0, "type": "electric_bike", "lat": 38.8344405, "is_reserved": 0, "is_disabled": 0, "fusion_lon": 0.0, "bike_id": "e6385f6157bb58210a22157293f68d92", "lon": -77.00827233333334, "rental_uris": {"ios": "https://dc.lft.to/lastmile_qr_scan", "android": "https://dc.lft.to/lastmile_qr_scan"}}, {"name": "e8575facd684b6a84c8417219eb6c6b4", "fusion_lat": 0.0, "type": "electric_scooter", "lat": 38.90973366666667, "is_reserved": 0, "is_disabled": 0, "fusion_lon": 0.0, "bike_id": "e8575facd684b6a84c8417219eb6c6b4", "lon": -77.02174633333334, "rental_uris": {"ios": "https://dc.lft.to/lastmile_qr_scan", "android": "https://dc.lft.to/lastmile_qr_scan"}}, {"name": "610207fddf4e896d64dcd97a3c384db9", "fusion_lat": 0.0, "type": "electric_bike", "lat": 38.869127166666665, "is_reserved": 0, "is_disabled": 0, "fusion_lon": 0.0, "bike_id": "610207fddf4e896d64dcd97a3c384db9", "lon": -77.13178366666666, "rental_uris": {"ios": "https://dc.lft.to/lastmile_qr_scan", "android": "https://dc.lft.to/lastmile_qr_scan"}}, {"name": "705970bfc672763658e94125bc0111bf", "fusion_lat": 0.0, "type": "electric_bike", "lat": 38.9193285, "is_reserved": 0, "is_disabled": 0, "fusion_lon": 0.0, "bike_id": "705970bfc672763658e94125bc0111bf", "lon": -77.045936, "rental_uris": {"ios": "https://dc.lft.to/lastmile_qr_scan", "android": "https://dc.lft.to/lastmile_qr_scan"}}, {"name": "2f9d69fecfd217ee6f3859f11c7ef4e3", "fusion_lat": 0.0, "type": "electric_bike", "lat": 38.924514, "is_reserved": 0, "is_disabled": 0, "fusion_lon": 0.0, "bike_id": "2f9d69fecfd217ee6f3859f11c7ef4e3", "lon": -76.99046383333334, "rental_uris": {"ios": "https://dc.lft.to/lastmile_qr_scan", "android": "https://dc.lft.to/lastmile_qr_scan"}}, {"name": "5cbd3a0d8a708d0bb464dea3c04c91d5", "fusion_lat": 0.0, "type": "electric_scooter", "lat": 38.876496, "is_reserved": 0, "is_disabled": 0, "fusion_lon": 0.0, "bike_id": "5cbd3a0d8a708d0bb464dea3c04c91d5", "lon": -77.00753833333333, "rental_uris": {"ios": "https://dc.lft.to/lastmile_qr_scan", "android": "https://dc.lft.to/lastmile_qr_scan"}}, {"name": "f7ef7bd4bc9b912662ac269f96febf6e", "fusion_lat": 0.0, "type": "electric_scooter", "lat": 38.9182005, "is_reserved": 0, "is_disabled": 0, "fusion_lon": 0.0, "bike_id": "f7ef7bd4bc9b912662ac269f96febf6e", "lon": -77.02799383333333, "rental_uris": {"ios": "https://dc.lft.to/lastmile_qr_scan", "android": "https://dc.lft.to/lastmile_qr_scan"}}, {"name": "0f77d551b05566e294d098b92b1022da", "fusion_lat": 0.0, "type": "electric_scooter", "lat": 38.893659666666665, "is_reserved": 0, "is_disabled": 0, "fusion_lon": 0.0, "bike_id": "0f77d551b05566e294d098b92b1022da", "lon": -76.94982216666666, "rental_uris": {"ios": "https://dc.lft.to/lastmile_qr_scan", "android": "https://dc.lft.to/lastmile_qr_scan"}}, {"name": "cf03937b64b5aa1d1904142edc0f5514", "fusion_lat": 0.0, "type": "electric_scooter", "lat": 38.910599833333336, "is_reserved": 0, "is_disabled": 0, "fusion_lon": 0.0, "bike_id": "cf03937b64b5aa1d1904142edc0f5514", "lon": -77.04269066666667, "rental_uris": {"ios": "https://dc.lft.to/lastmile_qr_scan", "android": "https://dc.lft.to/lastmile_qr_scan"}}, {"name": "9bfc35ff6f53c1fc4480b89bdeea7303", "fusion_lat": 0.0, "type": "electric_scooter", "lat": 38.900833666666664, "is_reserved": 0, "is_disabled": 0, "fusion_lon": 0.0, "bike_id": "9bfc35ff6f53c1fc4480b89bdeea7303", "lon": -77.03374633333334, "rental_uris": {"ios": "https://dc.lft.to/lastmile_qr_scan", "android": "https://dc.lft.to/lastmile_qr_scan"}}, {"name": "50c699c5c1017e26871884fd65d56b6e", "fusion_lat": 0.0, "type": "electric_scooter", "lat": 38.844325166666664, "is_reserved": 0, "is_disabled": 0, "fusion_lon": 0.0, "bike_id": "50c699c5c1017e26871884fd65d56b6e", "lon": -76.99721766666667, "rental_uris": {"ios": "https://dc.lft.to/lastmile_qr_scan", "android": "https://dc.lft.to/lastmile_qr_scan"}}, {"name": "e387ff90d02119d2a188b592ab507c4a", "fusion_lat": 0.0, "type": "electric_scooter", "lat": 38.90705, "is_reserved": 0, "is_disabled": 0, "fusion_lon": 0.0, "bike_id": "e387ff90d02119d2a188b592ab507c4a", "lon": -77.02381683333333, "rental_uris": {"ios": "https://dc.lft.to/lastmile_qr_scan", "android": "https://dc.lft.to/lastmile_qr_scan"}}, {"name": "cdcb65741ac23315b8b9cf5c44e2a650", "fusion_lat": 0.0, "type": "electric_scooter", "lat": 38.91714916666667, "is_reserved": 0, "is_disabled": 0, "fusion_lon": 0.0, "bike_id": "cdcb65741ac23315b8b9cf5c44e2a650", "lon": -77.03215533333334, "rental_uris": {"ios": "https://dc.lft.to/lastmile_qr_scan", "android": "https://dc.lft.to/lastmile_qr_scan"}}, {"name": "1fd53f0a86ab6b801b7f35580368893c", "fusion_lat": 0.0, "type": "electric_scooter", "lat": 38.902213833333334, "is_reserved": 0, "is_disabled": 0, "fusion_lon": 0.0, "bike_id": "1fd53f0a86ab6b801b7f35580368893c", "lon": -77.05128016666667, "rental_uris": {"ios": "https://dc.lft.to/lastmile_qr_scan", "android": "https://dc.lft.to/lastmile_qr_scan"}}, {"name": "cc15f868ef4edb2f96c77e3451169691", "fusion_lat": 0.0, "type": "electric_scooter", "lat": 38.91696966666667, "is_reserved": 0, "is_disabled": 0, "fusion_lon": 0.0, "bike_id": "cc15f868ef4edb2f96c77e3451169691", "lon": -77.03144583333334, "rental_uris": {"ios": "https://dc.lft.to/lastmile_qr_scan", "android": "https://dc.lft.to/lastmile_qr_scan"}}, {"name": "bc2e7ba3c879c0bd72ee9743a1149b77", "fusion_lat": 0.0, "type": "electric_scooter", "lat": 38.911406166666666, "is_reserved": 0, "is_disabled": 0, "fusion_lon": 0.0, "bike_id": "bc2e7ba3c879c0bd72ee9743a1149b77", "lon": -77.019902, "rental_uris": {"ios": "https://dc.lft.to/lastmile_qr_scan", "android": "https://dc.lft.to/lastmile_qr_scan"}}, {"name": "5423a9d45c9a3cd42df1d0e734212880", "fusion_lat": 0.0, "type": "electric_scooter", "lat": 38.900599666666665, "is_reserved": 0, "is_disabled": 0, "fusion_lon": 0.0, "bike_id": "5423a9d45c9a3cd42df1d0e734212880", "lon": -77.0295815, "rental_uris": {"ios": "https://dc.lft.to/lastmile_qr_scan", "android": "https://dc.lft.to/lastmile_qr_scan"}}, {"name": "8b4089e93fed5ec809b40541914a158a", "fusion_lat": 0.0, "type": "electric_scooter", "lat": 38.93155616666667, "is_reserved": 0, "is_disabled": 0, "fusion_lon": 0.0, "bike_id": "8b4089e93fed5ec809b40541914a158a", "lon": -77.02964333333334, "rental_uris": {"ios": "https://dc.lft.to/lastmile_qr_scan", "android": "https://dc.lft.to/lastmile_qr_scan"}}, {"name": "43310e11c7d114a71264193ac0459c36", "fusion_lat": 0.0, "type": "electric_scooter", "lat": 38.941161, "is_reserved": 0, "is_disabled": 0, "fusion_lon": 0.0, "bike_id": "43310e11c7d114a71264193ac0459c36", "lon": -77.01790716666666, "rental_uris": {"ios": "https://dc.lft.to/lastmile_qr_scan", "android": "https://dc.lft.to/lastmile_qr_scan"}}, {"name": "946dee317315b073f63a8d05ba5a070f", "fusion_lat": 0.0, "type": "electric_scooter", "lat": 38.869601, "is_reserved": 0, "is_disabled": 0, "fusion_lon": 0.0, "bike_id": "946dee317315b073f63a8d05ba5a070f", "lon": -77.0137515, "rental_uris": {"ios": "https://dc.lft.to/lastmile_qr_scan", "android": "https://dc.lft.to/lastmile_qr_scan"}}, {"name": "6f6d983858674603d31f690bfa406938", "fusion_lat": 0.0, "type": "electric_scooter", "lat": 38.919887333333335, "is_reserved": 0, "is_disabled": 0, "fusion_lon": 0.0, "bike_id": "6f6d983858674603d31f690bfa406938", "lon": -77.02391983333334, "rental_uris": {"ios": "https://dc.lft.to/lastmile_qr_scan", "android": "https://dc.lft.to/lastmile_qr_scan"}}, {"name": "5e28c4f7df98da24750219698ccf7630", "fusion_lat": 0.0, "type": "electric_scooter", "lat": 38.911236, "is_reserved": 0, "is_disabled": 0, "fusion_lon": 0.0, "bike_id": "5e28c4f7df98da24750219698ccf7630", "lon": -77.0219645, "rental_uris": {"ios": "https://dc.lft.to/lastmile_qr_scan", "android": "https://dc.lft.to/lastmile_qr_scan"}}, {"name": "c10a12793f8acc7ad3a6db8f87633cba", "fusion_lat": 0.0, "type": "electric_bike", "lat": 38.900654, "is_reserved": 0, "is_disabled": 0, "fusion_lon": 0.0, "bike_id": "c10a12793f8acc7ad3a6db8f87633cba", "lon": -77.01334983333334, "rental_uris": {"ios": "https://dc.lft.to/lastmile_qr_scan", "android": "https://dc.lft.to/lastmile_qr_scan"}}, {"name": "53a8a2969bc653c33e093e9b60c23e8e", "fusion_lat": 0.0, "type": "electric_scooter", "lat": 38.87640566666666, "is_reserved": 0, "is_disabled": 0, "fusion_lon": 0.0, "bike_id": "53a8a2969bc653c33e093e9b60c23e8e", "lon": -77.0157265, "rental_uris": {"ios": "https://dc.lft.to/lastmile_qr_scan", "android": "https://dc.lft.to/lastmile_qr_scan"}}, {"name": "164f5fb823283e95fe00ea1e701843a4", "fusion_lat": 0.0, "type": "electric_scooter", "lat": 38.92973, "is_reserved": 0, "is_disabled": 0, "fusion_lon": 0.0, "bike_id": "164f5fb823283e95fe00ea1e701843a4", "lon": -77.01815666666667, "rental_uris": {"ios": "https://dc.lft.to/lastmile_qr_scan", "android": "https://dc.lft.to/lastmile_qr_scan"}}, {"name": "21e8b1cd3351e71010679714756b77e6", "fusion_lat": 0.0, "type": "electric_scooter", "lat": 38.865052, "is_reserved": 0, "is_disabled": 0, "fusion_lon": 0.0, "bike_id": "21e8b1cd3351e71010679714756b77e6", "lon": -76.99000883333333, "rental_uris": {"ios": "https://dc.lft.to/lastmile_qr_scan", "android": "https://dc.lft.to/lastmile_qr_scan"}}, {"name": "929ea291379b3d3dc0593c35a0e39123", "fusion_lat": 0.0, "type": "electric_scooter", "lat": 38.894736, "is_reserved": 0, "is_disabled": 0, "fusion_lon": 0.0, "bike_id": "929ea291379b3d3dc0593c35a0e39123", "lon": -77.0306405, "rental_uris": {"ios": "https://dc.lft.to/lastmile_qr_scan", "android": "https://dc.lft.to/lastmile_qr_scan"}}, {"name": "105e24f4a6ffab70ba3fc6c9da05a296", "fusion_lat": 0.0, "type": "electric_scooter", "lat": 38.89756966666667, "is_reserved": 0, "is_disabled": 0, "fusion_lon": 0.0, "bike_id": "105e24f4a6ffab70ba3fc6c9da05a296", "lon": -77.0201475, "rental_uris": {"ios": "https://dc.lft.to/lastmile_qr_scan", "android": "https://dc.lft.to/lastmile_qr_scan"}}, {"name": "deb8703d7058c35f519983b987f589b3", "fusion_lat": 0.0, "type": "electric_scooter", "lat": 38.905734, "is_reserved": 0, "is_disabled": 0, "fusion_lon": 0.0, "bike_id": "deb8703d7058c35f519983b987f589b3", "lon": -77.02218933333333, "rental_uris": {"ios": "https://dc.lft.to/lastmile_qr_scan", "android": "https://dc.lft.to/lastmile_qr_scan"}}, {"name": "caf5dd5cb8c4625b0262de73ddfa9fef", "fusion_lat": 0.0, "type": "electric_bike", "lat": 38.8524845, "is_reserved": 0, "is_disabled": 0, "fusion_lon": 0.0, "bike_id": "caf5dd5cb8c4625b0262de73ddfa9fef", "lon": -77.11426783333333, "rental_uris": {"ios": "https://dc.lft.to/lastmile_qr_scan", "android": "https://dc.lft.to/lastmile_qr_scan"}}, {"name": "e96b0ad3747274eae95dd2adef377043", "fusion_lat": 0.0, "type": "electric_scooter", "lat": 38.92228633333333, "is_reserved": 0, "is_disabled": 0, "fusion_lon": 0.0, "bike_id": "e96b0ad3747274eae95dd2adef377043", "lon": -77.02107016666666, "rental_uris": {"ios": "https://dc.lft.to/lastmile_qr_scan", "android": "https://dc.lft.to/lastmile_qr_scan"}}, {"name": "6d8bcc14c8402bd97be5d7b093aba39c", "fusion_lat": 0.0, "type": "electric_scooter", "lat": 38.91193466666667, "is_reserved": 0, "is_disabled": 0, "fusion_lon": 0.0, "bike_id": "6d8bcc14c8402bd97be5d7b093aba39c", "lon": -77.0321515, "rental_uris": {"ios": "https://dc.lft.to/lastmile_qr_scan", "android": "https://dc.lft.to/lastmile_qr_scan"}}, {"name": "dbe1e6147020b5c29996565196845448", "fusion_lat": 0.0, "type": "electric_scooter", "lat": 38.91806416666667, "is_reserved": 0, "is_disabled": 0, "fusion_lon": 0.0, "bike_id": "dbe1e6147020b5c29996565196845448", "lon": -77.04017416666667, "rental_uris": {"ios": "https://dc.lft.to/lastmile_qr_scan", "android": "https://dc.lft.to/lastmile_qr_scan"}}, {"name": "778da8a1fba6a07c29b8335ab34578d8", "fusion_lat": 0.0, "type": "electric_scooter", "lat": 38.9064385, "is_reserved": 0, "is_disabled": 0, "fusion_lon": 0.0, "bike_id": "778da8a1fba6a07c29b8335ab34578d8", "lon": -77.00991133333333, "rental_uris": {"ios": "https://dc.lft.to/lastmile_qr_scan", "android": "https://dc.lft.to/lastmile_qr_scan"}}, {"name": "08632a7ea6e630a40c2be59c2bd9b22d", "fusion_lat": 0.0, "type": "electric_scooter", "lat": 38.905873, "is_reserved": 0, "is_disabled": 0, "fusion_lon": 0.0, "bike_id": "08632a7ea6e630a40c2be59c2bd9b22d", "lon": -77.0059625, "rental_uris": {"ios": "https://dc.lft.to/lastmile_qr_scan", "android": "https://dc.lft.to/lastmile_qr_scan"}}, {"name": "bf093f0ff167802d126b931e1c7108d8", "fusion_lat": 0.0, "type": "electric_scooter", "lat": 38.89225, "is_reserved": 0, "is_disabled": 0, "fusion_lon": 0.0, "bike_id": "bf093f0ff167802d126b931e1c7108d8", "lon": -77.0223175, "rental_uris": {"ios": "https://dc.lft.to/lastmile_qr_scan", "android": "https://dc.lft.to/lastmile_qr_scan"}}, {"name": "97bb3c2027c688e269406204d92388b6", "fusion_lat": 0.0, "type": "electric_scooter", "lat": 38.914889, "is_reserved": 0, "is_disabled": 0, "fusion_lon": 0.0, "bike_id": "97bb3c2027c688e269406204d92388b6", "lon": -77.07489033333333, "rental_uris": {"ios": "https://dc.lft.to/lastmile_qr_scan", "android": "https://dc.lft.to/lastmile_qr_scan"}}, {"name": "7dd3613223ead3b9e53f331e85b0f480", "fusion_lat": 0.0, "type": "electric_scooter", "lat": 38.91825516666667, "is_reserved": 0, "is_disabled": 0, "fusion_lon": 0.0, "bike_id": "7dd3613223ead3b9e53f331e85b0f480", "lon": -77.03206483333334, "rental_uris": {"ios": "https://dc.lft.to/lastmile_qr_scan", "android": "https://dc.lft.to/lastmile_qr_scan"}}, {"name": "3ee612704fc81c762a0d87fd016a0f5a", "fusion_lat": 0.0, "type": "electric_scooter", "lat": 38.9214195, "is_reserved": 0, "is_disabled": 0, "fusion_lon": 0.0, "bike_id": "3ee612704fc81c762a0d87fd016a0f5a", "lon": -77.04510983333333, "rental_uris": {"ios": "https://dc.lft.to/lastmile_qr_scan", "android": "https://dc.lft.to/lastmile_qr_scan"}}, {"name": "3723f89a15863538100e8f0bb940679c", "fusion_lat": 0.0, "type": "electric_scooter", "lat": 38.905268, "is_reserved": 0, "is_disabled": 0, "fusion_lon": 0.0, "bike_id": "3723f89a15863538100e8f0bb940679c", "lon": -77.02954066666666, "rental_uris": {"ios": "https://dc.lft.to/lastmile_qr_scan", "android": "https://dc.lft.to/lastmile_qr_scan"}}, {"name": "ee4c69eafed79dbab32d9dd1211da22d", "fusion_lat": 0.0, "type": "electric_scooter", "lat": 38.92380333333333, "is_reserved": 0, "is_disabled": 0, "fusion_lon": 0.0, "bike_id": "ee4c69eafed79dbab32d9dd1211da22d", "lon": -76.99020416666667, "rental_uris": {"ios": "https://dc.lft.to/lastmile_qr_scan", "android": "https://dc.lft.to/lastmile_qr_scan"}}, {"name": "fbe7859bab1b8ed6a400be917a3b23cf", "fusion_lat": 0.0, "type": "electric_scooter", "lat": 38.922520166666665, "is_reserved": 0, "is_disabled": 0, "fusion_lon": 0.0, "bike_id": "fbe7859bab1b8ed6a400be917a3b23cf", "lon": -77.02810166666667, "rental_uris": {"ios": "https://dc.lft.to/lastmile_qr_scan", "android": "https://dc.lft.to/lastmile_qr_scan"}}, {"name": "491d9edf0cce8ca5e25dc5b96b83ece6", "fusion_lat": 0.0, "type": "electric_scooter", "lat": 38.912692666666665, "is_reserved": 0, "is_disabled": 0, "fusion_lon": 0.0, "bike_id": "491d9edf0cce8ca5e25dc5b96b83ece6", "lon": -77.03872716666666, "rental_uris": {"ios": "https://dc.lft.to/lastmile_qr_scan", "android": "https://dc.lft.to/lastmile_qr_scan"}}, {"name": "b77fece345592d90986ad9cbe242827e", "fusion_lat": 0.0, "type": "electric_scooter", "lat": 38.91712483333333, "is_reserved": 0, "is_disabled": 0, "fusion_lon": 0.0, "bike_id": "b77fece345592d90986ad9cbe242827e", "lon": -77.03142433333333, "rental_uris": {"ios": "https://dc.lft.to/lastmile_qr_scan", "android": "https://dc.lft.to/lastmile_qr_scan"}}, {"name": "f611d4777b067a7bd48bbecd7fcb4108", "fusion_lat": 0.0, "type": "electric_scooter", "lat": 38.926434, "is_reserved": 0, "is_disabled": 0, "fusion_lon": 0.0, "bike_id": "f611d4777b067a7bd48bbecd7fcb4108", "lon": -77.03321416666667, "rental_uris": {"ios": "https://dc.lft.to/lastmile_qr_scan", "android": "https://dc.lft.to/lastmile_qr_scan"}}, {"name": "6876b4821a051e31e973d1cb04928c6f", "fusion_lat": 0.0, "type": "electric_scooter", "lat": 38.91566316666667, "is_reserved": 0, "is_disabled": 0, "fusion_lon": 0.0, "bike_id": "6876b4821a051e31e973d1cb04928c6f", "lon": -77.03235666666667, "rental_uris": {"ios": "https://dc.lft.to/lastmile_qr_scan", "android": "https://dc.lft.to/lastmile_qr_scan"}}, {"name": "ec8bdc56d5a0d12b627f7fb5cab7bf4c", "fusion_lat": 0.0, "type": "electric_bike", "lat": 38.870800833333334, "is_reserved": 0, "is_disabled": 0, "fusion_lon": 0.0, "bike_id": "ec8bdc56d5a0d12b627f7fb5cab7bf4c", "lon": -77.11042883333333, "rental_uris": {"ios": "https://dc.lft.to/lastmile_qr_scan", "android": "https://dc.lft.to/lastmile_qr_scan"}}, {"name": "16cc1f0bcc48b26cfe022f526834decb", "fusion_lat": 0.0, "type": "electric_scooter", "lat": 38.8876825, "is_reserved": 0, "is_disabled": 0, "fusion_lon": 0.0, "bike_id": "16cc1f0bcc48b26cfe022f526834decb", "lon": -76.98021766666666, "rental_uris": {"ios": "https://dc.lft.to/lastmile_qr_scan", "android": "https://dc.lft.to/lastmile_qr_scan"}}, {"name": "ce1d20c5b1dd829aa1daf47cc317871e", "fusion_lat": 0.0, "type": "electric_bike", "lat": 38.91558116666667, "is_reserved": 0, "is_disabled": 0, "fusion_lon": 0.0, "bike_id": "ce1d20c5b1dd829aa1daf47cc317871e", "lon": -76.98359066666667, "rental_uris": {"ios": "https://dc.lft.to/lastmile_qr_scan", "android": "https://dc.lft.to/lastmile_qr_scan"}}, {"name": "55f63d58f265512f07e7beb33e5ca6bb", "fusion_lat": 0.0, "type": "electric_bike", "lat": 38.965049666666665, "is_reserved": 0, "is_disabled": 0, "fusion_lon": 0.0, "bike_id": "55f63d58f265512f07e7beb33e5ca6bb", "lon": -77.02822983333333, "rental_uris": {"ios": "https://dc.lft.to/lastmile_qr_scan", "android": "https://dc.lft.to/lastmile_qr_scan"}}, {"name": "ba16eeb843483037f8d95185b76e2511", "fusion_lat": 0.0, "type": "electric_scooter", "lat": 38.917608666666666, "is_reserved": 0, "is_disabled": 0, "fusion_lon": 0.0, "bike_id": "ba16eeb843483037f8d95185b76e2511", "lon": -77.01759116666666, "rental_uris": {"ios": "https://dc.lft.to/lastmile_qr_scan", "android": "https://dc.lft.to/lastmile_qr_scan"}}, {"name": "bc82de002e41a16f84c03ae98c45b6ee", "fusion_lat": 0.0, "type": "electric_scooter", "lat": 38.90579783333333, "is_reserved": 0, "is_disabled": 0, "fusion_lon": 0.0, "bike_id": "bc82de002e41a16f84c03ae98c45b6ee", "lon": -77.03420066666666, "rental_uris": {"ios": "https://dc.lft.to/lastmile_qr_scan", "android": "https://dc.lft.to/lastmile_qr_scan"}}, {"name": "e8794e8a6738fb3c7170832b4ed526de", "fusion_lat": 0.0, "type": "electric_scooter", "lat": 38.897360166666665, "is_reserved": 0, "is_disabled": 0, "fusion_lon": 0.0, "bike_id": "e8794e8a6738fb3c7170832b4ed526de", "lon": -77.04729583333334, "rental_uris": {"ios": "https://dc.lft.to/lastmile_qr_scan", "android": "https://dc.lft.to/lastmile_qr_scan"}}, {"name": "0baca791d92dbd78fc97d47e1fc64239", "fusion_lat": 0.0, "type": "electric_scooter", "lat": 38.877514, "is_reserved": 0, "is_disabled": 0, "fusion_lon": 0.0, "bike_id": "0baca791d92dbd78fc97d47e1fc64239", "lon": -76.97238883333333, "rental_uris": {"ios": "https://dc.lft.to/lastmile_qr_scan", "android": "https://dc.lft.to/lastmile_qr_scan"}}, {"name": "852f76d2d73cb4c1cc91cbda22f378c9", "fusion_lat": 0.0, "type": "electric_scooter", "lat": 38.889931, "is_reserved": 0, "is_disabled": 0, "fusion_lon": 0.0, "bike_id": "852f76d2d73cb4c1cc91cbda22f378c9", "lon": -77.0011885, "rental_uris": {"ios": "https://dc.lft.to/lastmile_qr_scan", "android": "https://dc.lft.to/lastmile_qr_scan"}}, {"name": "3c8abe8560c0fe0dc76707160628ef8f", "fusion_lat": 0.0, "type": "electric_scooter", "lat": 38.94840033333333, "is_reserved": 0, "is_disabled": 0, "fusion_lon": 0.0, "bike_id": "3c8abe8560c0fe0dc76707160628ef8f", "lon": -77.025533, "rental_uris": {"ios": "https://dc.lft.to/lastmile_qr_scan", "android": "https://dc.lft.to/lastmile_qr_scan"}}, {"name": "e11735e8e8340393a7d4d11ddddeb017", "fusion_lat": 0.0, "type": "electric_scooter", "lat": 38.91873266666666, "is_reserved": 0, "is_disabled": 0, "fusion_lon": 0.0, "bike_id": "e11735e8e8340393a7d4d11ddddeb017", "lon": -77.07344433333333, "rental_uris": {"ios": "https://dc.lft.to/lastmile_qr_scan", "android": "https://dc.lft.to/lastmile_qr_scan"}}, {"name": "db98493f068b4559f5d74a2c1ffefe5e", "fusion_lat": 0.0, "type": "electric_bike", "lat": 38.906872, "is_reserved": 0, "is_disabled": 0, "fusion_lon": 0.0, "bike_id": "db98493f068b4559f5d74a2c1ffefe5e", "lon": -77.06370866666667, "rental_uris": {"ios": "https://dc.lft.to/lastmile_qr_scan", "android": "https://dc.lft.to/lastmile_qr_scan"}}, {"name": "b5a86c79e1a70cffd8dbfc8bee4627e7", "fusion_lat": 0.0, "type": "electric_bike", "lat": 38.868737, "is_reserved": 0, "is_disabled": 0, "fusion_lon": 0.0, "bike_id": "b5a86c79e1a70cffd8dbfc8bee4627e7", "lon": -76.91665033333334, "rental_uris": {"ios": "https://dc.lft.to/lastmile_qr_scan", "android": "https://dc.lft.to/lastmile_qr_scan"}}, {"name": "d92c9e1c34b13f0af81ad6b9e147aff9", "fusion_lat": 0.0, "type": "electric_scooter", "lat": 38.90394383333334, "is_reserved": 0, "is_disabled": 0, "fusion_lon": 0.0, "bike_id": "d92c9e1c34b13f0af81ad6b9e147aff9", "lon": -76.9900425, "rental_uris": {"ios": "https://dc.lft.to/lastmile_qr_scan", "android": "https://dc.lft.to/lastmile_qr_scan"}}, {"name": "f8a3494d850a5f8779eec22abcf31714", "fusion_lat": 0.0, "type": "electric_scooter", "lat": 38.8959225, "is_reserved": 0, "is_disabled": 0, "fusion_lon": 0.0, "bike_id": "f8a3494d850a5f8779eec22abcf31714", "lon": -76.94850483333333, "rental_uris": {"ios": "https://dc.lft.to/lastmile_qr_scan", "android": "https://dc.lft.to/lastmile_qr_scan"}}, {"name": "5d62eceda8a7a980b8bb3a38815ec510", "fusion_lat": 0.0, "type": "electric_scooter", "lat": 38.921829333333335, "is_reserved": 0, "is_disabled": 0, "fusion_lon": 0.0, "bike_id": "5d62eceda8a7a980b8bb3a38815ec510", "lon": -77.02415683333334, "rental_uris": {"ios": "https://dc.lft.to/lastmile_qr_scan", "android": "https://dc.lft.to/lastmile_qr_scan"}}, {"name": "99b6aa0d3f1a24adc55504efcaa231a7", "fusion_lat": 0.0, "type": "electric_scooter", "lat": 38.92357966666667, "is_reserved": 0, "is_disabled": 0, "fusion_lon": 0.0, "bike_id": "99b6aa0d3f1a24adc55504efcaa231a7", "lon": -77.05057733333334, "rental_uris": {"ios": "https://dc.lft.to/lastmile_qr_scan", "android": "https://dc.lft.to/lastmile_qr_scan"}}, {"name": "9a7999fff1f4c2d73ba3ed16c56b4d34", "fusion_lat": 0.0, "type": "electric_scooter", "lat": 38.87476816666667, "is_reserved": 0, "is_disabled": 0, "fusion_lon": 0.0, "bike_id": "9a7999fff1f4c2d73ba3ed16c56b4d34", "lon": -77.01057116666667, "rental_uris": {"ios": "https://dc.lft.to/lastmile_qr_scan", "android": "https://dc.lft.to/lastmile_qr_scan"}}, {"name": "b63e8aa71197cf5cef43dc22c099ef25", "fusion_lat": 0.0, "type": "electric_scooter", "lat": 38.91550933333333, "is_reserved": 0, "is_disabled": 0, "fusion_lon": 0.0, "bike_id": "b63e8aa71197cf5cef43dc22c099ef25", "lon": -77.038518, "rental_uris": {"ios": "https://dc.lft.to/lastmile_qr_scan", "android": "https://dc.lft.to/lastmile_qr_scan"}}, {"name": "b9af0d06b40cf28ab96bae780b461760", "fusion_lat": 0.0, "type": "electric_scooter", "lat": 38.916951, "is_reserved": 0, "is_disabled": 0, "fusion_lon": 0.0, "bike_id": "b9af0d06b40cf28ab96bae780b461760", "lon": -77.03935766666666, "rental_uris": {"ios": "https://dc.lft.to/lastmile_qr_scan", "android": "https://dc.lft.to/lastmile_qr_scan"}}, {"name": "bd64b9ce29a7918c1f488efa50e43114", "fusion_lat": 0.0, "type": "electric_scooter", "lat": 38.91420433333333, "is_reserved": 0, "is_disabled": 0, "fusion_lon": 0.0, "bike_id": "bd64b9ce29a7918c1f488efa50e43114", "lon": -77.00974333333333, "rental_uris": {"ios": "https://dc.lft.to/lastmile_qr_scan", "android": "https://dc.lft.to/lastmile_qr_scan"}}, {"name": "a5fc412e3738a3f89901d9906703b1b5", "fusion_lat": 0.0, "type": "electric_scooter", "lat": 38.91881716666666, "is_reserved": 0, "is_disabled": 0, "fusion_lon": 0.0, "bike_id": "a5fc412e3738a3f89901d9906703b1b5", "lon": -77.03501933333334, "rental_uris": {"ios": "https://dc.lft.to/lastmile_qr_scan", "android": "https://dc.lft.to/lastmile_qr_scan"}}, {"name": "a9fa693c2aaef685db97b0842949bd61", "fusion_lat": 0.0, "type": "electric_bike", "lat": 38.8965095, "is_reserved": 0, "is_disabled": 0, "fusion_lon": 0.0, "bike_id": "a9fa693c2aaef685db97b0842949bd61", "lon": -77.104531, "rental_uris": {"ios": "https://dc.lft.to/lastmile_qr_scan", "android": "https://dc.lft.to/lastmile_qr_scan"}}, {"name": "95180d3bd0accc5968696f2370a48b26", "fusion_lat": 0.0, "type": "electric_scooter", "lat": 38.91056016666667, "is_reserved": 0, "is_disabled": 0, "fusion_lon": 0.0, "bike_id": "95180d3bd0accc5968696f2370a48b26", "lon": -77.04343316666667, "rental_uris": {"ios": "https://dc.lft.to/lastmile_qr_scan", "android": "https://dc.lft.to/lastmile_qr_scan"}}, {"name": "5c6f2aabdd3d13d0cb05b168ca484553", "fusion_lat": 0.0, "type": "electric_scooter", "lat": 38.84295383333333, "is_reserved": 0, "is_disabled": 0, "fusion_lon": 0.0, "bike_id": "5c6f2aabdd3d13d0cb05b168ca484553", "lon": -76.99946466666667, "rental_uris": {"ios": "https://dc.lft.to/lastmile_qr_scan", "android": "https://dc.lft.to/lastmile_qr_scan"}}, {"name": "8b3081fa98440797fb3e37783660ddf4", "fusion_lat": 0.0, "type": "electric_scooter", "lat": 38.884318666666665, "is_reserved": 0, "is_disabled": 0, "fusion_lon": 0.0, "bike_id": "8b3081fa98440797fb3e37783660ddf4", "lon": -77.03046516666667, "rental_uris": {"ios": "https://dc.lft.to/lastmile_qr_scan", "android": "https://dc.lft.to/lastmile_qr_scan"}}, {"name": "255cabc36c0648d3fc8184a2146c855a", "fusion_lat": 0.0, "type": "electric_scooter", "lat": 38.918076, "is_reserved": 0, "is_disabled": 0, "fusion_lon": 0.0, "bike_id": "255cabc36c0648d3fc8184a2146c855a", "lon": -77.034334, "rental_uris": {"ios": "https://dc.lft.to/lastmile_qr_scan", "android": "https://dc.lft.to/lastmile_qr_scan"}}, {"name": "5d55ad2da99ae0e5c2d2649eb86d93d1", "fusion_lat": 0.0, "type": "electric_scooter", "lat": 38.92205083333333, "is_reserved": 0, "is_disabled": 0, "fusion_lon": 0.0, "bike_id": "5d55ad2da99ae0e5c2d2649eb86d93d1", "lon": -77.04136583333333, "rental_uris": {"ios": "https://dc.lft.to/lastmile_qr_scan", "android": "https://dc.lft.to/lastmile_qr_scan"}}, {"name": "1d1740ba2ca4d6835b46a1407401d8eb", "fusion_lat": 0.0, "type": "electric_bike", "lat": 38.824462, "is_reserved": 0, "is_disabled": 0, "fusion_lon": 0.0, "bike_id": "1d1740ba2ca4d6835b46a1407401d8eb", "lon": -77.07043833333333, "rental_uris": {"ios": "https://dc.lft.to/lastmile_qr_scan", "android": "https://dc.lft.to/lastmile_qr_scan"}}, {"name": "b48845f239bf9066cf911041b6ba74b6", "fusion_lat": 0.0, "type": "electric_scooter", "lat": 38.902922333333336, "is_reserved": 0, "is_disabled": 0, "fusion_lon": 0.0, "bike_id": "b48845f239bf9066cf911041b6ba74b6", "lon": -77.058091, "rental_uris": {"ios": "https://dc.lft.to/lastmile_qr_scan", "android": "https://dc.lft.to/lastmile_qr_scan"}}, {"name": "3ae40d9400b65267a37b1c402bad1300", "fusion_lat": 0.0, "type": "electric_scooter", "lat": 38.906414, "is_reserved": 0, "is_disabled": 0, "fusion_lon": 0.0, "bike_id": "3ae40d9400b65267a37b1c402bad1300", "lon": -76.98570783333334, "rental_uris": {"ios": "https://dc.lft.to/lastmile_qr_scan", "android": "https://dc.lft.to/lastmile_qr_scan"}}, {"name": "34422cdcced19eb54c4ae324524e0b42", "fusion_lat": 0.0, "type": "electric_scooter", "lat": 38.923133, "is_reserved": 0, "is_disabled": 0, "fusion_lon": 0.0, "bike_id": "34422cdcced19eb54c4ae324524e0b42", "lon": -77.029724, "rental_uris": {"ios": "https://dc.lft.to/lastmile_qr_scan", "android": "https://dc.lft.to/lastmile_qr_scan"}}, {"name": "ce2334175c3f5d9c288a4205385792ef", "fusion_lat": 0.0, "type": "electric_scooter", "lat": 38.9319165, "is_reserved": 0, "is_disabled": 0, "fusion_lon": 0.0, "bike_id": "ce2334175c3f5d9c288a4205385792ef", "lon": -77.02579916666667, "rental_uris": {"ios": "https://dc.lft.to/lastmile_qr_scan", "android": "https://dc.lft.to/lastmile_qr_scan"}}, {"name": "2bfc00ab5eff4fa4919147764bc185f3", "fusion_lat": 0.0, "type": "electric_scooter", "lat": 38.879207, "is_reserved": 0, "is_disabled": 0, "fusion_lon": 0.0, "bike_id": "2bfc00ab5eff4fa4919147764bc185f3", "lon": -77.02260216666667, "rental_uris": {"ios": "https://dc.lft.to/lastmile_qr_scan", "android": "https://dc.lft.to/lastmile_qr_scan"}}, {"name": "dca775bec0cef25def266260b03a1beb", "fusion_lat": 0.0, "type": "electric_scooter", "lat": 38.9177995, "is_reserved": 0, "is_disabled": 0, "fusion_lon": 0.0, "bike_id": "dca775bec0cef25def266260b03a1beb", "lon": -77.02317316666667, "rental_uris": {"ios": "https://dc.lft.to/lastmile_qr_scan", "android": "https://dc.lft.to/lastmile_qr_scan"}}, {"name": "2b99ad77015e2dabb6a1b9e8e5f22e6a", "fusion_lat": 0.0, "type": "electric_scooter", "lat": 38.88121816666666, "is_reserved": 0, "is_disabled": 0, "fusion_lon": 0.0, "bike_id": "2b99ad77015e2dabb6a1b9e8e5f22e6a", "lon": -77.01340316666666, "rental_uris": {"ios": "https://dc.lft.to/lastmile_qr_scan", "android": "https://dc.lft.to/lastmile_qr_scan"}}, {"name": "740cf759e0292af1ce8d617442dd9e20", "fusion_lat": 0.0, "type": "electric_scooter", "lat": 38.86662833333333, "is_reserved": 0, "is_disabled": 0, "fusion_lon": 0.0, "bike_id": "740cf759e0292af1ce8d617442dd9e20", "lon": -76.98883616666667, "rental_uris": {"ios": "https://dc.lft.to/lastmile_qr_scan", "android": "https://dc.lft.to/lastmile_qr_scan"}}, {"name": "bd8930269339e498857df9aac448a6c4", "fusion_lat": 0.0, "type": "electric_scooter", "lat": 38.913122666666666, "is_reserved": 0, "is_disabled": 0, "fusion_lon": 0.0, "bike_id": "bd8930269339e498857df9aac448a6c4", "lon": -77.020263, "rental_uris": {"ios": "https://dc.lft.to/lastmile_qr_scan", "android": "https://dc.lft.to/lastmile_qr_scan"}}, {"name": "d9c440976b5f06ae011906f8fec2700f", "fusion_lat": 0.0, "type": "electric_scooter", "lat": 38.897295666666665, "is_reserved": 0, "is_disabled": 0, "fusion_lon": 0.0, "bike_id": "d9c440976b5f06ae011906f8fec2700f", "lon": -77.00954583333333, "rental_uris": {"ios": "https://dc.lft.to/lastmile_qr_scan", "android": "https://dc.lft.to/lastmile_qr_scan"}}, {"name": "bd3b3a8927d845dc0726c6be69f953c5", "fusion_lat": 0.0, "type": "electric_scooter", "lat": 38.90315366666667, "is_reserved": 0, "is_disabled": 0, "fusion_lon": 0.0, "bike_id": "bd3b3a8927d845dc0726c6be69f953c5", "lon": -76.97797816666667, "rental_uris": {"ios": "https://dc.lft.to/lastmile_qr_scan", "android": "https://dc.lft.to/lastmile_qr_scan"}}, {"name": "339d122c58ceab20ebdae496b280826a", "fusion_lat": 0.0, "type": "electric_bike", "lat": 38.93413783333333, "is_reserved": 0, "is_disabled": 0, "fusion_lon": 0.0, "bike_id": "339d122c58ceab20ebdae496b280826a", "lon": -77.02510283333334, "rental_uris": {"ios": "https://dc.lft.to/lastmile_qr_scan", "android": "https://dc.lft.to/lastmile_qr_scan"}}, {"name": "677dbe1f8aae20d8a5b654d4d8506c3b", "fusion_lat": 0.0, "type": "electric_scooter", "lat": 38.90444383333333, "is_reserved": 0, "is_disabled": 0, "fusion_lon": 0.0, "bike_id": "677dbe1f8aae20d8a5b654d4d8506c3b", "lon": -76.97558616666667, "rental_uris": {"ios": "https://dc.lft.to/lastmile_qr_scan", "android": "https://dc.lft.to/lastmile_qr_scan"}}, {"name": "6ab2178fcf3e201e8b2ae73874914f96", "fusion_lat": 0.0, "type": "electric_scooter", "lat": 38.9067125, "is_reserved": 0, "is_disabled": 0, "fusion_lon": 0.0, "bike_id": "6ab2178fcf3e201e8b2ae73874914f96", "lon": -77.02705533333334, "rental_uris": {"ios": "https://dc.lft.to/lastmile_qr_scan", "android": "https://dc.lft.to/lastmile_qr_scan"}}, {"name": "e922414ab7e9d1343411641aa92482d5", "fusion_lat": 0.0, "type": "electric_scooter", "lat": 38.9121645, "is_reserved": 0, "is_disabled": 0, "fusion_lon": 0.0, "bike_id": "e922414ab7e9d1343411641aa92482d5", "lon": -77.07592583333333, "rental_uris": {"ios": "https://dc.lft.to/lastmile_qr_scan", "android": "https://dc.lft.to/lastmile_qr_scan"}}, {"name": "14e99a5715f6d3907e5c6aaa14acdcaa", "fusion_lat": 0.0, "type": "electric_bike", "lat": 38.85522566666667, "is_reserved": 0, "is_disabled": 0, "fusion_lon": 0.0, "bike_id": "14e99a5715f6d3907e5c6aaa14acdcaa", "lon": -77.10713933333334, "rental_uris": {"ios": "https://dc.lft.to/lastmile_qr_scan", "android": "https://dc.lft.to/lastmile_qr_scan"}}, {"name": "5045026d9a3be25a8fc90e5339481b99", "fusion_lat": 0.0, "type": "electric_scooter", "lat": 38.89485833333333, "is_reserved": 0, "is_disabled": 0, "fusion_lon": 0.0, "bike_id": "5045026d9a3be25a8fc90e5339481b99", "lon": -76.94871483333333, "rental_uris": {"ios": "https://dc.lft.to/lastmile_qr_scan", "android": "https://dc.lft.to/lastmile_qr_scan"}}, {"name": "37ca66d29a6832f654f16bf8c7d0c3f3", "fusion_lat": 0.0, "type": "electric_scooter", "lat": 38.899138, "is_reserved": 0, "is_disabled": 0, "fusion_lon": 0.0, "bike_id": "37ca66d29a6832f654f16bf8c7d0c3f3", "lon": -77.07096783333333, "rental_uris": {"ios": "https://dc.lft.to/lastmile_qr_scan", "android": "https://dc.lft.to/lastmile_qr_scan"}}, {"name": "6c910d91e409cb27410875f11be2e269", "fusion_lat": 0.0, "type": "electric_bike", "lat": 38.934126, "is_reserved": 0, "is_disabled": 0, "fusion_lon": 0.0, "bike_id": "6c910d91e409cb27410875f11be2e269", "lon": -77.02501516666666, "rental_uris": {"ios": "https://dc.lft.to/lastmile_qr_scan", "android": "https://dc.lft.to/lastmile_qr_scan"}}, {"name": "af9c39f0b57bfc9e7db3724d9e246316", "fusion_lat": 0.0, "type": "electric_scooter", "lat": 38.90499466666667, "is_reserved": 0, "is_disabled": 0, "fusion_lon": 0.0, "bike_id": "af9c39f0b57bfc9e7db3724d9e246316", "lon": -77.05134633333333, "rental_uris": {"ios": "https://dc.lft.to/lastmile_qr_scan", "android": "https://dc.lft.to/lastmile_qr_scan"}}, {"name": "ca1168bda74cd30ad7017197a2fe34e6", "fusion_lat": 0.0, "type": "electric_scooter", "lat": 38.9119475, "is_reserved": 0, "is_disabled": 0, "fusion_lon": 0.0, "bike_id": "ca1168bda74cd30ad7017197a2fe34e6", "lon": -77.06098916666667, "rental_uris": {"ios": "https://dc.lft.to/lastmile_qr_scan", "android": "https://dc.lft.to/lastmile_qr_scan"}}, {"name": "90810641651585e3a6212bb317b50913", "fusion_lat": 0.0, "type": "electric_scooter", "lat": 38.890012666666664, "is_reserved": 0, "is_disabled": 0, "fusion_lon": 0.0, "bike_id": "90810641651585e3a6212bb317b50913", "lon": -76.95411266666666, "rental_uris": {"ios": "https://dc.lft.to/lastmile_qr_scan", "android": "https://dc.lft.to/lastmile_qr_scan"}}, {"name": "a3c1dbc0f130a74595fdf231332d55e6", "fusion_lat": 0.0, "type": "electric_scooter", "lat": 38.9023705, "is_reserved": 0, "is_disabled": 0, "fusion_lon": 0.0, "bike_id": "a3c1dbc0f130a74595fdf231332d55e6", "lon": -77.04373766666667, "rental_uris": {"ios": "https://dc.lft.to/lastmile_qr_scan", "android": "https://dc.lft.to/lastmile_qr_scan"}}, {"name": "39a7bf8396a0fb584589585d240ac5f3", "fusion_lat": 0.0, "type": "electric_scooter", "lat": 38.918657333333336, "is_reserved": 0, "is_disabled": 0, "fusion_lon": 0.0, "bike_id": "39a7bf8396a0fb584589585d240ac5f3", "lon": -77.04604383333333, "rental_uris": {"ios": "https://dc.lft.to/lastmile_qr_scan", "android": "https://dc.lft.to/lastmile_qr_scan"}}, {"name": "3e0637a2ff534af0a6d27811b0a3f148", "fusion_lat": 0.0, "type": "electric_scooter", "lat": 38.885379, "is_reserved": 0, "is_disabled": 0, "fusion_lon": 0.0, "bike_id": "3e0637a2ff534af0a6d27811b0a3f148", "lon": -77.033505, "rental_uris": {"ios": "https://dc.lft.to/lastmile_qr_scan", "android": "https://dc.lft.to/lastmile_qr_scan"}}, {"name": "a8e5817922190d3b3ad36176be131cff", "fusion_lat": 0.0, "type": "electric_scooter", "lat": 38.8637655, "is_reserved": 0, "is_disabled": 0, "fusion_lon": 0.0, "bike_id": "a8e5817922190d3b3ad36176be131cff", "lon": -77.01358916666666, "rental_uris": {"ios": "https://dc.lft.to/lastmile_qr_scan", "android": "https://dc.lft.to/lastmile_qr_scan"}}, {"name": "c2fe592bb3788f6ba2487157fcc97549", "fusion_lat": 0.0, "type": "electric_scooter", "lat": 38.90008566666667, "is_reserved": 0, "is_disabled": 0, "fusion_lon": 0.0, "bike_id": "c2fe592bb3788f6ba2487157fcc97549", "lon": -76.99685816666667, "rental_uris": {"ios": "https://dc.lft.to/lastmile_qr_scan", "android": "https://dc.lft.to/lastmile_qr_scan"}}, {"name": "f251ced0efdbc63cd6d3dd083f78b9fd", "fusion_lat": 0.0, "type": "electric_scooter", "lat": 38.879313333333336, "is_reserved": 0, "is_disabled": 0, "fusion_lon": 0.0, "bike_id": "f251ced0efdbc63cd6d3dd083f78b9fd", "lon": -77.00755066666666, "rental_uris": {"ios": "https://dc.lft.to/lastmile_qr_scan", "android": "https://dc.lft.to/lastmile_qr_scan"}}, {"name": "dc7f07d3fac054d248f48e2d510c8d2f", "fusion_lat": 0.0, "type": "electric_bike", "lat": 38.94200166666667, "is_reserved": 0, "is_disabled": 0, "fusion_lon": 0.0, "bike_id": "dc7f07d3fac054d248f48e2d510c8d2f", "lon": -76.9663075, "rental_uris": {"ios": "https://dc.lft.to/lastmile_qr_scan", "android": "https://dc.lft.to/lastmile_qr_scan"}}, {"name": "80ecb4a2fa732ad8d1662ba459eb24b1", "fusion_lat": 0.0, "type": "electric_scooter", "lat": 38.91881766666667, "is_reserved": 0, "is_disabled": 0, "fusion_lon": 0.0, "bike_id": "80ecb4a2fa732ad8d1662ba459eb24b1", "lon": -77.03505, "rental_uris": {"ios": "https://dc.lft.to/lastmile_qr_scan", "android": "https://dc.lft.to/lastmile_qr_scan"}}, {"name": "68391bb062660d9e7c1ec18405a4a5de", "fusion_lat": 0.0, "type": "electric_scooter", "lat": 38.9086325, "is_reserved": 0, "is_disabled": 0, "fusion_lon": 0.0, "bike_id": "68391bb062660d9e7c1ec18405a4a5de", "lon": -77.02379283333333, "rental_uris": {"ios": "https://dc.lft.to/lastmile_qr_scan", "android": "https://dc.lft.to/lastmile_qr_scan"}}, {"name": "da08da229b3f840e6601a0ab2c2467b7", "fusion_lat": 0.0, "type": "electric_scooter", "lat": 38.93129233333333, "is_reserved": 0, "is_disabled": 0, "fusion_lon": 0.0, "bike_id": "da08da229b3f840e6601a0ab2c2467b7", "lon": -77.02817416666667, "rental_uris": {"ios": "https://dc.lft.to/lastmile_qr_scan", "android": "https://dc.lft.to/lastmile_qr_scan"}}, {"name": "97efe92427a1d52092860953ef67e0c7", "fusion_lat": 0.0, "type": "electric_scooter", "lat": 38.917113666666665, "is_reserved": 0, "is_disabled": 0, "fusion_lon": 0.0, "bike_id": "97efe92427a1d52092860953ef67e0c7", "lon": -77.03866133333334, "rental_uris": {"ios": "https://dc.lft.to/lastmile_qr_scan", "android": "https://dc.lft.to/lastmile_qr_scan"}}, {"name": "b1f78d264ef0ef8290b48d61a8269f04", "fusion_lat": 0.0, "type": "electric_scooter", "lat": 38.89332733333333, "is_reserved": 0, "is_disabled": 0, "fusion_lon": 0.0, "bike_id": "b1f78d264ef0ef8290b48d61a8269f04", "lon": -76.92891683333333, "rental_uris": {"ios": "https://dc.lft.to/lastmile_qr_scan", "android": "https://dc.lft.to/lastmile_qr_scan"}}, {"name": "83ffc0c3dcb033cddd129e21ebc3d96c", "fusion_lat": 0.0, "type": "electric_scooter", "lat": 38.874252166666665, "is_reserved": 0, "is_disabled": 0, "fusion_lon": 0.0, "bike_id": "83ffc0c3dcb033cddd129e21ebc3d96c", "lon": -77.02060783333333, "rental_uris": {"ios": "https://dc.lft.to/lastmile_qr_scan", "android": "https://dc.lft.to/lastmile_qr_scan"}}, {"name": "97f2c4ec690ebd7307bc1e12caa41d01", "fusion_lat": 0.0, "type": "electric_scooter", "lat": 38.832328833333335, "is_reserved": 0, "is_disabled": 0, "fusion_lon": 0.0, "bike_id": "97f2c4ec690ebd7307bc1e12caa41d01", "lon": -76.988867, "rental_uris": {"ios": "https://dc.lft.to/lastmile_qr_scan", "android": "https://dc.lft.to/lastmile_qr_scan"}}, {"name": "e03f5d32f35015b1d058317235adab80", "fusion_lat": 0.0, "type": "electric_scooter", "lat": 38.895919, "is_reserved": 0, "is_disabled": 0, "fusion_lon": 0.0, "bike_id": "e03f5d32f35015b1d058317235adab80", "lon": -77.042661, "rental_uris": {"ios": "https://dc.lft.to/lastmile_qr_scan", "android": "https://dc.lft.to/lastmile_qr_scan"}}, {"name": "006c5b44fcaa520d2f01a999db645c77", "fusion_lat": 0.0, "type": "electric_scooter", "lat": 38.92757816666666, "is_reserved": 0, "is_disabled": 0, "fusion_lon": 0.0, "bike_id": "006c5b44fcaa520d2f01a999db645c77", "lon": -77.02420933333333, "rental_uris": {"ios": "https://dc.lft.to/lastmile_qr_scan", "android": "https://dc.lft.to/lastmile_qr_scan"}}, {"name": "79d87799dfc79dc96376e00160e14407", "fusion_lat": 0.0, "type": "electric_scooter", "lat": 38.9027345, "is_reserved": 0, "is_disabled": 0, "fusion_lon": 0.0, "bike_id": "79d87799dfc79dc96376e00160e14407", "lon": -77.02995383333334, "rental_uris": {"ios": "https://dc.lft.to/lastmile_qr_scan", "android": "https://dc.lft.to/lastmile_qr_scan"}}, {"name": "846fae2c93e8464eb7fec851cb3ba605", "fusion_lat": 0.0, "type": "electric_scooter", "lat": 38.907399833333336, "is_reserved": 0, "is_disabled": 0, "fusion_lon": 0.0, "bike_id": "846fae2c93e8464eb7fec851cb3ba605", "lon": -77.026934, "rental_uris": {"ios": "https://dc.lft.to/lastmile_qr_scan", "android": "https://dc.lft.to/lastmile_qr_scan"}}, {"name": "4c61ba1e88c0929bd7371331122945b5", "fusion_lat": 0.0, "type": "electric_scooter", "lat": 38.902685166666664, "is_reserved": 0, "is_disabled": 0, "fusion_lon": 0.0, "bike_id": "4c61ba1e88c0929bd7371331122945b5", "lon": -77.05378916666666, "rental_uris": {"ios": "https://dc.lft.to/lastmile_qr_scan", "android": "https://dc.lft.to/lastmile_qr_scan"}}, {"name": "4efa00b487414dc7400a4badd5104b4c", "fusion_lat": 0.0, "type": "electric_bike", "lat": 38.84350166666667, "is_reserved": 0, "is_disabled": 0, "fusion_lon": 0.0, "bike_id": "4efa00b487414dc7400a4badd5104b4c", "lon": -77.064055, "rental_uris": {"ios": "https://dc.lft.to/lastmile_qr_scan", "android": "https://dc.lft.to/lastmile_qr_scan"}}, {"name": "e0ee67f4c2db73e123ff079914610922", "fusion_lat": 0.0, "type": "electric_scooter", "lat": 38.92468933333333, "is_reserved": 0, "is_disabled": 0, "fusion_lon": 0.0, "bike_id": "e0ee67f4c2db73e123ff079914610922", "lon": -77.0271275, "rental_uris": {"ios": "https://dc.lft.to/lastmile_qr_scan", "android": "https://dc.lft.to/lastmile_qr_scan"}}, {"name": "a4929b366af2ec49c6b14f4b09003160", "fusion_lat": 0.0, "type": "electric_bike", "lat": 38.9752255, "is_reserved": 0, "is_disabled": 0, "fusion_lon": 0.0, "bike_id": "a4929b366af2ec49c6b14f4b09003160", "lon": -77.0168745, "rental_uris": {"ios": "https://dc.lft.to/lastmile_qr_scan", "android": "https://dc.lft.to/lastmile_qr_scan"}}, {"name": "ac7440a51c44486df24dd3ee270dd069", "fusion_lat": 0.0, "type": "electric_scooter", "lat": 38.91648983333333, "is_reserved": 0, "is_disabled": 0, "fusion_lon": 0.0, "bike_id": "ac7440a51c44486df24dd3ee270dd069", "lon": -77.04825316666667, "rental_uris": {"ios": "https://dc.lft.to/lastmile_qr_scan", "android": "https://dc.lft.to/lastmile_qr_scan"}}, {"name": "55baeefd077da581784b934548fd74b0", "fusion_lat": 0.0, "type": "electric_scooter", "lat": 38.9272805, "is_reserved": 0, "is_disabled": 0, "fusion_lon": 0.0, "bike_id": "55baeefd077da581784b934548fd74b0", "lon": -77.00566966666666, "rental_uris": {"ios": "https://dc.lft.to/lastmile_qr_scan", "android": "https://dc.lft.to/lastmile_qr_scan"}}, {"name": "387e39a62877dd8ca672639b52cbd97a", "fusion_lat": 0.0, "type": "electric_bike", "lat": 39.0946305, "is_reserved": 0, "is_disabled": 0, "fusion_lon": 0.0, "bike_id": "387e39a62877dd8ca672639b52cbd97a", "lon": -77.14996183333334, "rental_uris": {"ios": "https://dc.lft.to/lastmile_qr_scan", "android": "https://dc.lft.to/lastmile_qr_scan"}}, {"name": "c96354f3d18bdbcee3ba3cb12e76da06", "fusion_lat": 0.0, "type": "electric_scooter", "lat": 38.900734166666666, "is_reserved": 0, "is_disabled": 0, "fusion_lon": 0.0, "bike_id": "c96354f3d18bdbcee3ba3cb12e76da06", "lon": -77.04876716666666, "rental_uris": {"ios": "https://dc.lft.to/lastmile_qr_scan", "android": "https://dc.lft.to/lastmile_qr_scan"}}, {"name": "fdb8b226518a3414d736b53d92e0e2d2", "fusion_lat": 0.0, "type": "electric_bike", "lat": 38.875281, "is_reserved": 0, "is_disabled": 0, "fusion_lon": 0.0, "bike_id": "fdb8b226518a3414d736b53d92e0e2d2", "lon": -77.199085, "rental_uris": {"ios": "https://dc.lft.to/lastmile_qr_scan", "android": "https://dc.lft.to/lastmile_qr_scan"}}, {"name": "81d84d1b72749ce5bfe5f274caeb9638", "fusion_lat": 0.0, "type": "electric_scooter", "lat": 38.91818166666667, "is_reserved": 0, "is_disabled": 0, "fusion_lon": 0.0, "bike_id": "81d84d1b72749ce5bfe5f274caeb9638", "lon": -77.02794716666666, "rental_uris": {"ios": "https://dc.lft.to/lastmile_qr_scan", "android": "https://dc.lft.to/lastmile_qr_scan"}}, {"name": "6558d29ce0e56d7e8a93883f26881a90", "fusion_lat": 0.0, "type": "electric_scooter", "lat": 38.89902433333334, "is_reserved": 0, "is_disabled": 0, "fusion_lon": 0.0, "bike_id": "6558d29ce0e56d7e8a93883f26881a90", "lon": -76.93379133333333, "rental_uris": {"ios": "https://dc.lft.to/lastmile_qr_scan", "android": "https://dc.lft.to/lastmile_qr_scan"}}, {"name": "b9959b4de4a0ca54a89640b017802fab", "fusion_lat": 0.0, "type": "electric_bike", "lat": 38.857920166666666, "is_reserved": 0, "is_disabled": 0, "fusion_lon": 0.0, "bike_id": "b9959b4de4a0ca54a89640b017802fab", "lon": -77.0996695, "rental_uris": {"ios": "https://dc.lft.to/lastmile_qr_scan", "android": "https://dc.lft.to/lastmile_qr_scan"}}, {"name": "16a647946a9c25d360552d372fc43af9", "fusion_lat": 0.0, "type": "electric_scooter", "lat": 38.921082166666665, "is_reserved": 0, "is_disabled": 0, "fusion_lon": 0.0, "bike_id": "16a647946a9c25d360552d372fc43af9", "lon": -77.03189083333334, "rental_uris": {"ios": "https://dc.lft.to/lastmile_qr_scan", "android": "https://dc.lft.to/lastmile_qr_scan"}}, {"name": "c1d84dc31af4ce29f8867c6c12014592", "fusion_lat": 0.0, "type": "electric_scooter", "lat": 38.876426333333335, "is_reserved": 0, "is_disabled": 0, "fusion_lon": 0.0, "bike_id": "c1d84dc31af4ce29f8867c6c12014592", "lon": -77.00748783333333, "rental_uris": {"ios": "https://dc.lft.to/lastmile_qr_scan", "android": "https://dc.lft.to/lastmile_qr_scan"}}, {"name": "728a29e03b74cd2b8963ced93d384dbc", "fusion_lat": 0.0, "type": "electric_scooter", "lat": 38.884584333333336, "is_reserved": 0, "is_disabled": 0, "fusion_lon": 0.0, "bike_id": "728a29e03b74cd2b8963ced93d384dbc", "lon": -76.92469616666666, "rental_uris": {"ios": "https://dc.lft.to/lastmile_qr_scan", "android": "https://dc.lft.to/lastmile_qr_scan"}}, {"name": "b318078677d91463bfea0f2598940bf3", "fusion_lat": 0.0, "type": "electric_scooter", "lat": 38.87926483333333, "is_reserved": 0, "is_disabled": 0, "fusion_lon": 0.0, "bike_id": "b318078677d91463bfea0f2598940bf3", "lon": -77.02106233333333, "rental_uris": {"ios": "https://dc.lft.to/lastmile_qr_scan", "android": "https://dc.lft.to/lastmile_qr_scan"}}, {"name": "3a2a04a26318bea71bba4d8645bad014", "fusion_lat": 0.0, "type": "electric_scooter", "lat": 38.89741683333333, "is_reserved": 0, "is_disabled": 0, "fusion_lon": 0.0, "bike_id": "3a2a04a26318bea71bba4d8645bad014", "lon": -76.94255083333333, "rental_uris": {"ios": "https://dc.lft.to/lastmile_qr_scan", "android": "https://dc.lft.to/lastmile_qr_scan"}}, {"name": "f8fba2bb2470758e7c714e1aafae94d8", "fusion_lat": 0.0, "type": "electric_scooter", "lat": 38.9170115, "is_reserved": 0, "is_disabled": 0, "fusion_lon": 0.0, "bike_id": "f8fba2bb2470758e7c714e1aafae94d8", "lon": -77.029349, "rental_uris": {"ios": "https://dc.lft.to/lastmile_qr_scan", "android": "https://dc.lft.to/lastmile_qr_scan"}}, {"name": "f53fc297ffeade9db2df2cde29adf027", "fusion_lat": 0.0, "type": "electric_scooter", "lat": 38.91987133333333, "is_reserved": 0, "is_disabled": 0, "fusion_lon": 0.0, "bike_id": "f53fc297ffeade9db2df2cde29adf027", "lon": -76.97300916666667, "rental_uris": {"ios": "https://dc.lft.to/lastmile_qr_scan", "android": "https://dc.lft.to/lastmile_qr_scan"}}, {"name": "25cf9863012355b248600bd17d1037b4", "fusion_lat": 0.0, "type": "electric_scooter", "lat": 38.932348833333336, "is_reserved": 0, "is_disabled": 0, "fusion_lon": 0.0, "bike_id": "25cf9863012355b248600bd17d1037b4", "lon": -77.03589383333333, "rental_uris": {"ios": "https://dc.lft.to/lastmile_qr_scan", "android": "https://dc.lft.to/lastmile_qr_scan"}}, {"name": "2793bfe6c7184d6a2432cc97aabf7a68", "fusion_lat": 0.0, "type": "electric_bike", "lat": 38.932490666666666, "is_reserved": 0, "is_disabled": 0, "fusion_lon": 0.0, "bike_id": "2793bfe6c7184d6a2432cc97aabf7a68", "lon": -77.06659633333334, "rental_uris": {"ios": "https://dc.lft.to/lastmile_qr_scan", "android": "https://dc.lft.to/lastmile_qr_scan"}}, {"name": "67ab780f216049e11202323bcc73b088", "fusion_lat": 0.0, "type": "electric_scooter", "lat": 38.86374566666667, "is_reserved": 0, "is_disabled": 0, "fusion_lon": 0.0, "bike_id": "67ab780f216049e11202323bcc73b088", "lon": -77.013648, "rental_uris": {"ios": "https://dc.lft.to/lastmile_qr_scan", "android": "https://dc.lft.to/lastmile_qr_scan"}}, {"name": "68d9347a2cd1972d24dad460fe67f714", "fusion_lat": 0.0, "type": "electric_bike", "lat": 38.921096166666665, "is_reserved": 0, "is_disabled": 0, "fusion_lon": 0.0, "bike_id": "68d9347a2cd1972d24dad460fe67f714", "lon": -77.063347, "rental_uris": {"ios": "https://dc.lft.to/lastmile_qr_scan", "android": "https://dc.lft.to/lastmile_qr_scan"}}, {"name": "0caa2a2363ca4667b8d1e99b661e2e5b", "fusion_lat": 0.0, "type": "electric_scooter", "lat": 38.94290016666667, "is_reserved": 0, "is_disabled": 0, "fusion_lon": 0.0, "bike_id": "0caa2a2363ca4667b8d1e99b661e2e5b", "lon": -77.0217485, "rental_uris": {"ios": "https://dc.lft.to/lastmile_qr_scan", "android": "https://dc.lft.to/lastmile_qr_scan"}}, {"name": "318c7cb97c7cb5c55e57fc3a9ad60660", "fusion_lat": 0.0, "type": "electric_scooter", "lat": 38.907947666666665, "is_reserved": 0, "is_disabled": 0, "fusion_lon": 0.0, "bike_id": "318c7cb97c7cb5c55e57fc3a9ad60660", "lon": -77.04817766666666, "rental_uris": {"ios": "https://dc.lft.to/lastmile_qr_scan", "android": "https://dc.lft.to/lastmile_qr_scan"}}, {"name": "aff39fe5a3e9fb4db7427590014a2fb3", "fusion_lat": 0.0, "type": "electric_scooter", "lat": 38.929970833333336, "is_reserved": 0, "is_disabled": 0, "fusion_lon": 0.0, "bike_id": "aff39fe5a3e9fb4db7427590014a2fb3", "lon": -77.02303066666667, "rental_uris": {"ios": "https://dc.lft.to/lastmile_qr_scan", "android": "https://dc.lft.to/lastmile_qr_scan"}}, {"name": "d42e46b2da8a59cda5c37d7f3c1e9baf", "fusion_lat": 0.0, "type": "electric_scooter", "lat": 38.921180166666666, "is_reserved": 0, "is_disabled": 0, "fusion_lon": 0.0, "bike_id": "d42e46b2da8a59cda5c37d7f3c1e9baf", "lon": -77.031814, "rental_uris": {"ios": "https://dc.lft.to/lastmile_qr_scan", "android": "https://dc.lft.to/lastmile_qr_scan"}}, {"name": "ca99ec6c10a7ab1a9369cc9565121372", "fusion_lat": 0.0, "type": "electric_scooter", "lat": 38.8781605, "is_reserved": 0, "is_disabled": 0, "fusion_lon": 0.0, "bike_id": "ca99ec6c10a7ab1a9369cc9565121372", "lon": -77.005681, "rental_uris": {"ios": "https://dc.lft.to/lastmile_qr_scan", "android": "https://dc.lft.to/lastmile_qr_scan"}}, {"name": "d7b0b31fc74f37c5c2850d9dc668bfa1", "fusion_lat": 0.0, "type": "electric_scooter", "lat": 38.92889566666667, "is_reserved": 0, "is_disabled": 0, "fusion_lon": 0.0, "bike_id": "d7b0b31fc74f37c5c2850d9dc668bfa1", "lon": -77.023098, "rental_uris": {"ios": "https://dc.lft.to/lastmile_qr_scan", "android": "https://dc.lft.to/lastmile_qr_scan"}}, {"name": "5b2c76423a122872ab9de05af3ef74f3", "fusion_lat": 0.0, "type": "electric_scooter", "lat": 38.89847133333333, "is_reserved": 0, "is_disabled": 0, "fusion_lon": 0.0, "bike_id": "5b2c76423a122872ab9de05af3ef74f3", "lon": -77.03307, "rental_uris": {"ios": "https://dc.lft.to/lastmile_qr_scan", "android": "https://dc.lft.to/lastmile_qr_scan"}}, {"name": "c1ea83c6be364abedac90348f1b9355d", "fusion_lat": 0.0, "type": "electric_scooter", "lat": 38.935, "is_reserved": 0, "is_disabled": 0, "fusion_lon": 0.0, "bike_id": "c1ea83c6be364abedac90348f1b9355d", "lon": -77.02546466666666, "rental_uris": {"ios": "https://dc.lft.to/lastmile_qr_scan", "android": "https://dc.lft.to/lastmile_qr_scan"}}, {"name": "a03eca264e247163f189e29581cab642", "fusion_lat": 0.0, "type": "electric_scooter", "lat": 38.899025333333334, "is_reserved": 0, "is_disabled": 0, "fusion_lon": 0.0, "bike_id": "a03eca264e247163f189e29581cab642", "lon": -77.02176783333333, "rental_uris": {"ios": "https://dc.lft.to/lastmile_qr_scan", "android": "https://dc.lft.to/lastmile_qr_scan"}}, {"name": "7850bd3cb35578a9df8d6b741f6db8bf", "fusion_lat": 0.0, "type": "electric_scooter", "lat": 38.9055925, "is_reserved": 0, "is_disabled": 0, "fusion_lon": 0.0, "bike_id": "7850bd3cb35578a9df8d6b741f6db8bf", "lon": -77.04758166666667, "rental_uris": {"ios": "https://dc.lft.to/lastmile_qr_scan", "android": "https://dc.lft.to/lastmile_qr_scan"}}, {"name": "35ac1a3265d2ccc7f3a5f00f7dbd0f2a", "fusion_lat": 0.0, "type": "electric_scooter", "lat": 38.88919166666667, "is_reserved": 0, "is_disabled": 0, "fusion_lon": 0.0, "bike_id": "35ac1a3265d2ccc7f3a5f00f7dbd0f2a", "lon": -76.95372116666667, "rental_uris": {"ios": "https://dc.lft.to/lastmile_qr_scan", "android": "https://dc.lft.to/lastmile_qr_scan"}}, {"name": "02dd26826848d83eade4efbaf62cd9a0", "fusion_lat": 0.0, "type": "electric_scooter", "lat": 38.9211415, "is_reserved": 0, "is_disabled": 0, "fusion_lon": 0.0, "bike_id": "02dd26826848d83eade4efbaf62cd9a0", "lon": -77.04391916666667, "rental_uris": {"ios": "https://dc.lft.to/lastmile_qr_scan", "android": "https://dc.lft.to/lastmile_qr_scan"}}, {"name": "a5f1f08d0e149c373c867eb87521dd24", "fusion_lat": 0.0, "type": "electric_scooter", "lat": 38.92132816666667, "is_reserved": 0, "is_disabled": 0, "fusion_lon": 0.0, "bike_id": "a5f1f08d0e149c373c867eb87521dd24", "lon": -77.04563433333334, "rental_uris": {"ios": "https://dc.lft.to/lastmile_qr_scan", "android": "https://dc.lft.to/lastmile_qr_scan"}}, {"name": "1bd53f955f1a667df57a1d1b7af6785b", "fusion_lat": 0.0, "type": "electric_scooter", "lat": 38.882247166666666, "is_reserved": 0, "is_disabled": 0, "fusion_lon": 0.0, "bike_id": "1bd53f955f1a667df57a1d1b7af6785b", "lon": -76.9417725, "rental_uris": {"ios": "https://dc.lft.to/lastmile_qr_scan", "android": "https://dc.lft.to/lastmile_qr_scan"}}, {"name": "6e11d28fb13b067f0f5603fbbabf0962", "fusion_lat": 0.0, "type": "electric_scooter", "lat": 38.920131833333336, "is_reserved": 0, "is_disabled": 0, "fusion_lon": 0.0, "bike_id": "6e11d28fb13b067f0f5603fbbabf0962", "lon": -77.03176083333334, "rental_uris": {"ios": "https://dc.lft.to/lastmile_qr_scan", "android": "https://dc.lft.to/lastmile_qr_scan"}}, {"name": "3d6fefd7db92ae034fc64a0ee5d4ebc5", "fusion_lat": 0.0, "type": "electric_scooter", "lat": 38.9210035, "is_reserved": 0, "is_disabled": 0, "fusion_lon": 0.0, "bike_id": "3d6fefd7db92ae034fc64a0ee5d4ebc5", "lon": -77.05472766666666, "rental_uris": {"ios": "https://dc.lft.to/lastmile_qr_scan", "android": "https://dc.lft.to/lastmile_qr_scan"}}, {"name": "9d308e9d38a88dc5dd1f828efc21e6e3", "fusion_lat": 0.0, "type": "electric_scooter", "lat": 38.90561566666667, "is_reserved": 0, "is_disabled": 0, "fusion_lon": 0.0, "bike_id": "9d308e9d38a88dc5dd1f828efc21e6e3", "lon": -77.02214633333334, "rental_uris": {"ios": "https://dc.lft.to/lastmile_qr_scan", "android": "https://dc.lft.to/lastmile_qr_scan"}}, {"name": "2d2d885d42ba1f7eccfca860501bb4eb", "fusion_lat": 0.0, "type": "electric_scooter", "lat": 38.87360133333333, "is_reserved": 0, "is_disabled": 0, "fusion_lon": 0.0, "bike_id": "2d2d885d42ba1f7eccfca860501bb4eb", "lon": -77.00092566666666, "rental_uris": {"ios": "https://dc.lft.to/lastmile_qr_scan", "android": "https://dc.lft.to/lastmile_qr_scan"}}, {"name": "af00d0c6bed3916747e40195dedd9387", "fusion_lat": 0.0, "type": "electric_scooter", "lat": 38.900493833333336, "is_reserved": 0, "is_disabled": 0, "fusion_lon": 0.0, "bike_id": "af00d0c6bed3916747e40195dedd9387", "lon": -76.99150183333333, "rental_uris": {"ios": "https://dc.lft.to/lastmile_qr_scan", "android": "https://dc.lft.to/lastmile_qr_scan"}}, {"name": "c54bd6f10686da617755387b24c14332", "fusion_lat": 0.0, "type": "electric_scooter", "lat": 38.923751833333334, "is_reserved": 0, "is_disabled": 0, "fusion_lon": 0.0, "bike_id": "c54bd6f10686da617755387b24c14332", "lon": -77.04100383333333, "rental_uris": {"ios": "https://dc.lft.to/lastmile_qr_scan", "android": "https://dc.lft.to/lastmile_qr_scan"}}, {"name": "2b3fec22700761056d7f1274627de6fc", "fusion_lat": 0.0, "type": "electric_scooter", "lat": 38.9183865, "is_reserved": 0, "is_disabled": 0, "fusion_lon": 0.0, "bike_id": "2b3fec22700761056d7f1274627de6fc", "lon": -77.02295283333333, "rental_uris": {"ios": "https://dc.lft.to/lastmile_qr_scan", "android": "https://dc.lft.to/lastmile_qr_scan"}}, {"name": "bd74b1f1fb077d00f6d68b48ecea2653", "fusion_lat": 0.0, "type": "electric_scooter", "lat": 38.862626666666664, "is_reserved": 0, "is_disabled": 0, "fusion_lon": 0.0, "bike_id": "bd74b1f1fb077d00f6d68b48ecea2653", "lon": -76.98714516666666, "rental_uris": {"ios": "https://dc.lft.to/lastmile_qr_scan", "android": "https://dc.lft.to/lastmile_qr_scan"}}, {"name": "b99d16544d748bf1cbdff96d6a0b932b", "fusion_lat": 0.0, "type": "electric_scooter", "lat": 38.889920000000004, "is_reserved": 0, "is_disabled": 0, "fusion_lon": 0.0, "bike_id": "b99d16544d748bf1cbdff96d6a0b932b", "lon": -76.954169, "rental_uris": {"ios": "https://dc.lft.to/lastmile_qr_scan", "android": "https://dc.lft.to/lastmile_qr_scan"}}, {"name": "5863a7487401f73fe0c628fc6a2689ee", "fusion_lat": 0.0, "type": "electric_scooter", "lat": 38.92467116666667, "is_reserved": 0, "is_disabled": 0, "fusion_lon": 0.0, "bike_id": "5863a7487401f73fe0c628fc6a2689ee", "lon": -77.030563, "rental_uris": {"ios": "https://dc.lft.to/lastmile_qr_scan", "android": "https://dc.lft.to/lastmile_qr_scan"}}, {"name": "9495766d389c9f2dbabfc6543bf67816", "fusion_lat": 0.0, "type": "electric_scooter", "lat": 38.9097665, "is_reserved": 0, "is_disabled": 0, "fusion_lon": 0.0, "bike_id": "9495766d389c9f2dbabfc6543bf67816", "lon": -77.04670016666667, "rental_uris": {"ios": "https://dc.lft.to/lastmile_qr_scan", "android": "https://dc.lft.to/lastmile_qr_scan"}}, {"name": "093502985385f50116b2ea8277c1a0dd", "fusion_lat": 0.0, "type": "electric_scooter", "lat": 38.90274483333334, "is_reserved": 0, "is_disabled": 0, "fusion_lon": 0.0, "bike_id": "093502985385f50116b2ea8277c1a0dd", "lon": -77.04061016666667, "rental_uris": {"ios": "https://dc.lft.to/lastmile_qr_scan", "android": "https://dc.lft.to/lastmile_qr_scan"}}, {"name": "6cca2bdece6cee56d31c1235fab78ae3", "fusion_lat": 0.0, "type": "electric_scooter", "lat": 38.91558, "is_reserved": 0, "is_disabled": 0, "fusion_lon": 0.0, "bike_id": "6cca2bdece6cee56d31c1235fab78ae3", "lon": -77.04284883333334, "rental_uris": {"ios": "https://dc.lft.to/lastmile_qr_scan", "android": "https://dc.lft.to/lastmile_qr_scan"}}, {"name": "9ce77674fb70aea4044ec5d8047adbb7", "fusion_lat": 0.0, "type": "electric_scooter", "lat": 38.90324, "is_reserved": 0, "is_disabled": 0, "fusion_lon": 0.0, "bike_id": "9ce77674fb70aea4044ec5d8047adbb7", "lon": -77.0535855, "rental_uris": {"ios": "https://dc.lft.to/lastmile_qr_scan", "android": "https://dc.lft.to/lastmile_qr_scan"}}, {"name": "356af1f08fa02cf3d5f64042f5cf8aa7", "fusion_lat": 0.0, "type": "electric_bike", "lat": 38.91275983333333, "is_reserved": 0, "is_disabled": 0, "fusion_lon": 0.0, "bike_id": "356af1f08fa02cf3d5f64042f5cf8aa7", "lon": -77.022669, "rental_uris": {"ios": "https://dc.lft.to/lastmile_qr_scan", "android": "https://dc.lft.to/lastmile_qr_scan"}}, {"name": "dd6111c215d1c97891d116b6249e81d0", "fusion_lat": 0.0, "type": "electric_bike", "lat": 38.9301415, "is_reserved": 0, "is_disabled": 0, "fusion_lon": 0.0, "bike_id": "dd6111c215d1c97891d116b6249e81d0", "lon": -77.03800166666667, "rental_uris": {"ios": "https://dc.lft.to/lastmile_qr_scan", "android": "https://dc.lft.to/lastmile_qr_scan"}}, {"name": "2a9511a06b18cac214d5e2104cb71ffe", "fusion_lat": 0.0, "type": "electric_scooter", "lat": 38.885132166666665, "is_reserved": 0, "is_disabled": 0, "fusion_lon": 0.0, "bike_id": "2a9511a06b18cac214d5e2104cb71ffe", "lon": -76.978812, "rental_uris": {"ios": "https://dc.lft.to/lastmile_qr_scan", "android": "https://dc.lft.to/lastmile_qr_scan"}}, {"name": "c2f438e0a9559323f811ddb56d591cd6", "fusion_lat": 0.0, "type": "electric_scooter", "lat": 38.8948425, "is_reserved": 0, "is_disabled": 0, "fusion_lon": 0.0, "bike_id": "c2f438e0a9559323f811ddb56d591cd6", "lon": -77.01009333333333, "rental_uris": {"ios": "https://dc.lft.to/lastmile_qr_scan", "android": "https://dc.lft.to/lastmile_qr_scan"}}, {"name": "c52817b4ba7921966e2dd5e4c604060a", "fusion_lat": 0.0, "type": "electric_scooter", "lat": 38.894492166666666, "is_reserved": 0, "is_disabled": 0, "fusion_lon": 0.0, "bike_id": "c52817b4ba7921966e2dd5e4c604060a", "lon": -77.01093066666667, "rental_uris": {"ios": "https://dc.lft.to/lastmile_qr_scan", "android": "https://dc.lft.to/lastmile_qr_scan"}}, {"name": "b42ae0ffc7b976cc64e4eb36f23f8eac", "fusion_lat": 0.0, "type": "electric_scooter", "lat": 38.910429, "is_reserved": 0, "is_disabled": 0, "fusion_lon": 0.0, "bike_id": "b42ae0ffc7b976cc64e4eb36f23f8eac", "lon": -77.02810166666667, "rental_uris": {"ios": "https://dc.lft.to/lastmile_qr_scan", "android": "https://dc.lft.to/lastmile_qr_scan"}}, {"name": "9dfd16c6a09467e8de66f19b3d118022", "fusion_lat": 0.0, "type": "electric_scooter", "lat": 38.907066, "is_reserved": 0, "is_disabled": 0, "fusion_lon": 0.0, "bike_id": "9dfd16c6a09467e8de66f19b3d118022", "lon": -76.98696283333334, "rental_uris": {"ios": "https://dc.lft.to/lastmile_qr_scan", "android": "https://dc.lft.to/lastmile_qr_scan"}}, {"name": "a6e7ebf22d6b7404b2516da08aa503ec", "fusion_lat": 0.0, "type": "electric_bike", "lat": 38.81943583333333, "is_reserved": 0, "is_disabled": 0, "fusion_lon": 0.0, "bike_id": "a6e7ebf22d6b7404b2516da08aa503ec", "lon": -77.0020795, "rental_uris": {"ios": "https://dc.lft.to/lastmile_qr_scan", "android": "https://dc.lft.to/lastmile_qr_scan"}}, {"name": "d9b3b2f94f3da04db22a6f20ff81e6b0", "fusion_lat": 0.0, "type": "electric_scooter", "lat": 38.939045166666666, "is_reserved": 0, "is_disabled": 0, "fusion_lon": 0.0, "bike_id": "d9b3b2f94f3da04db22a6f20ff81e6b0", "lon": -77.03263716666666, "rental_uris": {"ios": "https://dc.lft.to/lastmile_qr_scan", "android": "https://dc.lft.to/lastmile_qr_scan"}}, {"name": "8ea53ec46370d268bcb65f2a8ffd1bef", "fusion_lat": 0.0, "type": "electric_bike", "lat": 38.965411, "is_reserved": 0, "is_disabled": 0, "fusion_lon": 0.0, "bike_id": "8ea53ec46370d268bcb65f2a8ffd1bef", "lon": -77.035221, "rental_uris": {"ios": "https://dc.lft.to/lastmile_qr_scan", "android": "https://dc.lft.to/lastmile_qr_scan"}}, {"name": "54c444a4020b65b4d4b29595f306fe1b", "fusion_lat": 0.0, "type": "electric_scooter", "lat": 38.89844166666666, "is_reserved": 0, "is_disabled": 0, "fusion_lon": 0.0, "bike_id": "54c444a4020b65b4d4b29595f306fe1b", "lon": -77.0332525, "rental_uris": {"ios": "https://dc.lft.to/lastmile_qr_scan", "android": "https://dc.lft.to/lastmile_qr_scan"}}, {"name": "c07eaa7b7b84fbad8ee2830d2923d605", "fusion_lat": 0.0, "type": "electric_scooter", "lat": 38.900748666666665, "is_reserved": 0, "is_disabled": 0, "fusion_lon": 0.0, "bike_id": "c07eaa7b7b84fbad8ee2830d2923d605", "lon": -77.05066433333333, "rental_uris": {"ios": "https://dc.lft.to/lastmile_qr_scan", "android": "https://dc.lft.to/lastmile_qr_scan"}}, {"name": "78db6027633364493c49db0f4ca62750", "fusion_lat": 0.0, "type": "electric_scooter", "lat": 38.915658666666666, "is_reserved": 0, "is_disabled": 0, "fusion_lon": 0.0, "bike_id": "78db6027633364493c49db0f4ca62750", "lon": -77.01412783333333, "rental_uris": {"ios": "https://dc.lft.to/lastmile_qr_scan", "android": "https://dc.lft.to/lastmile_qr_scan"}}, {"name": "96c15ff564893a80b03feda6e74e8b6c", "fusion_lat": 0.0, "type": "electric_bike", "lat": 38.86284633333333, "is_reserved": 0, "is_disabled": 0, "fusion_lon": 0.0, "bike_id": "96c15ff564893a80b03feda6e74e8b6c", "lon": -76.98004383333334, "rental_uris": {"ios": "https://dc.lft.to/lastmile_qr_scan", "android": "https://dc.lft.to/lastmile_qr_scan"}}, {"name": "ec6c44c8fc9f5a776f3baba6eb37bf92", "fusion_lat": 0.0, "type": "electric_scooter", "lat": 38.916413, "is_reserved": 0, "is_disabled": 0, "fusion_lon": 0.0, "bike_id": "ec6c44c8fc9f5a776f3baba6eb37bf92", "lon": -77.01585983333334, "rental_uris": {"ios": "https://dc.lft.to/lastmile_qr_scan", "android": "https://dc.lft.to/lastmile_qr_scan"}}, {"name": "1ba6bffc666ef5ca5e1b339f7b8c94f0", "fusion_lat": 0.0, "type": "electric_scooter", "lat": 38.930914666666666, "is_reserved": 0, "is_disabled": 0, "fusion_lon": 0.0, "bike_id": "1ba6bffc666ef5ca5e1b339f7b8c94f0", "lon": -77.02405916666666, "rental_uris": {"ios": "https://dc.lft.to/lastmile_qr_scan", "android": "https://dc.lft.to/lastmile_qr_scan"}}, {"name": "5e8767038e3bd325d810808048045bcf", "fusion_lat": 0.0, "type": "electric_scooter", "lat": 38.909644166666666, "is_reserved": 0, "is_disabled": 0, "fusion_lon": 0.0, "bike_id": "5e8767038e3bd325d810808048045bcf", "lon": -77.01134866666666, "rental_uris": {"ios": "https://dc.lft.to/lastmile_qr_scan", "android": "https://dc.lft.to/lastmile_qr_scan"}}, {"name": "cd6708af82d15e008a60f303f08c4976", "fusion_lat": 0.0, "type": "electric_scooter", "lat": 38.90648483333333, "is_reserved": 0, "is_disabled": 0, "fusion_lon": 0.0, "bike_id": "cd6708af82d15e008a60f303f08c4976", "lon": -77.02957533333333, "rental_uris": {"ios": "https://dc.lft.to/lastmile_qr_scan", "android": "https://dc.lft.to/lastmile_qr_scan"}}, {"name": "9af72e474eca01209731ec0940a66bac", "fusion_lat": 0.0, "type": "electric_scooter", "lat": 38.87669266666666, "is_reserved": 0, "is_disabled": 0, "fusion_lon": 0.0, "bike_id": "9af72e474eca01209731ec0940a66bac", "lon": -77.00400183333333, "rental_uris": {"ios": "https://dc.lft.to/lastmile_qr_scan", "android": "https://dc.lft.to/lastmile_qr_scan"}}, {"name": "0ab4194d983681c3ae39f272866d4517", "fusion_lat": 0.0, "type": "electric_scooter", "lat": 38.9013225, "is_reserved": 0, "is_disabled": 0, "fusion_lon": 0.0, "bike_id": "0ab4194d983681c3ae39f272866d4517", "lon": -76.9918, "rental_uris": {"ios": "https://dc.lft.to/lastmile_qr_scan", "android": "https://dc.lft.to/lastmile_qr_scan"}}, {"name": "cb0a0686a75bfc9974fa3f9b9f5c4140", "fusion_lat": 0.0, "type": "electric_scooter", "lat": 38.90955616666667, "is_reserved": 0, "is_disabled": 0, "fusion_lon": 0.0, "bike_id": "cb0a0686a75bfc9974fa3f9b9f5c4140", "lon": -77.02378983333334, "rental_uris": {"ios": "https://dc.lft.to/lastmile_qr_scan", "android": "https://dc.lft.to/lastmile_qr_scan"}}, {"name": "80c4adf5b38218ae73e694a043f29c97", "fusion_lat": 0.0, "type": "electric_scooter", "lat": 38.934324833333335, "is_reserved": 0, "is_disabled": 0, "fusion_lon": 0.0, "bike_id": "80c4adf5b38218ae73e694a043f29c97", "lon": -77.04001883333333, "rental_uris": {"ios": "https://dc.lft.to/lastmile_qr_scan", "android": "https://dc.lft.to/lastmile_qr_scan"}}, {"name": "8416b88cdca243542834ca7f4eaf7f10", "fusion_lat": 0.0, "type": "electric_scooter", "lat": 38.91823983333333, "is_reserved": 0, "is_disabled": 0, "fusion_lon": 0.0, "bike_id": "8416b88cdca243542834ca7f4eaf7f10", "lon": -77.040141, "rental_uris": {"ios": "https://dc.lft.to/lastmile_qr_scan", "android": "https://dc.lft.to/lastmile_qr_scan"}}, {"name": "25eb24ad209a05644f2e9a401c9b5b84", "fusion_lat": 0.0, "type": "electric_scooter", "lat": 38.918067666666666, "is_reserved": 0, "is_disabled": 0, "fusion_lon": 0.0, "bike_id": "25eb24ad209a05644f2e9a401c9b5b84", "lon": -77.02817983333334, "rental_uris": {"ios": "https://dc.lft.to/lastmile_qr_scan", "android": "https://dc.lft.to/lastmile_qr_scan"}}, {"name": "655d3480e999899b5a87bb0cf9dc76a9", "fusion_lat": 0.0, "type": "electric_scooter", "lat": 38.874703, "is_reserved": 0, "is_disabled": 0, "fusion_lon": 0.0, "bike_id": "655d3480e999899b5a87bb0cf9dc76a9", "lon": -77.00190583333334, "rental_uris": {"ios": "https://dc.lft.to/lastmile_qr_scan", "android": "https://dc.lft.to/lastmile_qr_scan"}}, {"name": "7326afeba8aa4f954b9442a73a7f6474", "fusion_lat": 0.0, "type": "electric_bike", "lat": 38.973309666666665, "is_reserved": 0, "is_disabled": 0, "fusion_lon": 0.0, "bike_id": "7326afeba8aa4f954b9442a73a7f6474", "lon": -77.02141066666667, "rental_uris": {"ios": "https://dc.lft.to/lastmile_qr_scan", "android": "https://dc.lft.to/lastmile_qr_scan"}}, {"name": "3c560f61d7d470e919fbc00eae174e22", "fusion_lat": 0.0, "type": "electric_bike", "lat": 38.838128, "is_reserved": 0, "is_disabled": 0, "fusion_lon": 0.0, "bike_id": "3c560f61d7d470e919fbc00eae174e22", "lon": -77.0952275, "rental_uris": {"ios": "https://dc.lft.to/lastmile_qr_scan", "android": "https://dc.lft.to/lastmile_qr_scan"}}, {"name": "1819202a3109657e3c8c8e150b3ef019", "fusion_lat": 0.0, "type": "electric_scooter", "lat": 38.90144083333333, "is_reserved": 0, "is_disabled": 0, "fusion_lon": 0.0, "bike_id": "1819202a3109657e3c8c8e150b3ef019", "lon": -76.99970633333334, "rental_uris": {"ios": "https://dc.lft.to/lastmile_qr_scan", "android": "https://dc.lft.to/lastmile_qr_scan"}}, {"name": "84cacc0832a05eaaf7a2b5c46379c052", "fusion_lat": 0.0, "type": "electric_bike", "lat": 38.9706475, "is_reserved": 0, "is_disabled": 0, "fusion_lon": 0.0, "bike_id": "84cacc0832a05eaaf7a2b5c46379c052", "lon": -76.93622116666667, "rental_uris": {"ios": "https://dc.lft.to/lastmile_qr_scan", "android": "https://dc.lft.to/lastmile_qr_scan"}}, {"name": "d675476369956ea666a9da34a1e32839", "fusion_lat": 0.0, "type": "electric_bike", "lat": 38.902891833333335, "is_reserved": 0, "is_disabled": 0, "fusion_lon": 0.0, "bike_id": "d675476369956ea666a9da34a1e32839", "lon": -76.98082733333334, "rental_uris": {"ios": "https://dc.lft.to/lastmile_qr_scan", "android": "https://dc.lft.to/lastmile_qr_scan"}}, {"name": "e3ecf9319cffad33134d32ab32e27eb8", "fusion_lat": 0.0, "type": "electric_scooter", "lat": 38.93087033333333, "is_reserved": 0, "is_disabled": 0, "fusion_lon": 0.0, "bike_id": "e3ecf9319cffad33134d32ab32e27eb8", "lon": -77.0240605, "rental_uris": {"ios": "https://dc.lft.to/lastmile_qr_scan", "android": "https://dc.lft.to/lastmile_qr_scan"}},