{"data": {"bikes": [{"fusion_lat": 0.0, "bike_id": "63e106f4f521bbec546de831558531d5", "fusion_lon": 0.0, "lon": -77.033109, "lat": 38.909670166666665, "is_reserved": 0, "is_disabled": 0, "rental_uris": {"android": "https://dc.lft.to/lastmile_qr_scan", "ios": "https://dc.lft.to/lastmile_qr_scan"}, "name": "63e106f4f521bbec546de831558531d5", "type": "electric_scooter"}, {"fusion_lat": 0.0, "bike_id": "7c4fee23f68709e995f75a00b0a4e44d", "fusion_lon": 0.0, "lon": -76.97860466666667, "lat": 38.87196333333333, "is_reserved": 0, "is_disabled": 0, "rental_uris": {"android": "https://dc.lft.to/lastmile_qr_scan", "ios": "https://dc.lft.to/lastmile_qr_scan"}, "name": "7c4fee23f68709e995f75a00b0a4e44d", "type": "electric_scooter"}, {"fusion_lat": 0.0, "bike_id": "4a96f3e1976fce740197c684d48bc614", "fusion_lon": 0.0, "lon": -77.01529433333333, "lat": 38.887422, "is_reserved": 0, "is_disabled": 0, "rental_uris": {"android": "https://dc.lft.to/lastmile_qr_scan", "ios": "https://dc.lft.to/lastmile_qr_scan"}, "name": "4a96f3e1976fce740197c684d48bc614", "type": "electric_scooter"}, {"fusion_lat": 0.0, "bike_id": "df84fc92207f5c41f4a3944895c230e4", "fusion_lon": 0.0, "lon": -77.044374, "lat": 38.921610333333334, "is_reserved": 0, "is_disabled": 0, "rental_uris": {"android": "https://dc.lft.to/lastmile_qr_scan", "ios": "https://dc.lft.to/lastmile_qr_scan"}, "name": "df84fc92207f5c41f4a3944895c230e4", "type": "electric_scooter"}, {"fusion_lat": 0.0, "bike_id": "8a6cf7cf4ec2869bf26d467e3d1159ab", "fusion_lon": 0.0, "lon": -77.03942416666666, "lat": 38.89981383333333, "is_reserved": 0, "is_disabled": 0, "rental_uris": {"android": "https://dc.lft.to/lastmile_qr_scan", "ios": "https://dc.lft.to/lastmile_qr_scan"}, "name": "8a6cf7cf4ec2869bf26d467e3d1159ab", "type": "electric_scooter"}, {"fusion_lat": 0.0, "bike_id": "af20da637abb05053ce2124dd0f6b62c", "fusion_lon": 0.0, "lon": -77.0238785, "lat": 38.91958616666667, "is_reserved": 0, "is_disabled": 0, "rental_uris": {"android": "https://dc.lft.to/lastmile_qr_scan", "ios": "https://dc.lft.to/lastmile_qr_scan"}, "name": "af20da637abb05053ce2124dd0f6b62c", "type": "electric_scooter"}, {"fusion_lat": 0.0, "bike_id": "fe0a7c0888d458676ffe9ae11c33c716", "fusion_lon": 0.0, "lon": -76.94635116666667, "lat": 38.89834166666667, "is_reserved": 0, "is_disabled": 0, "rental_uris": {"android": "https://dc.lft.to/lastmile_qr_scan", "ios": "https://dc.lft.to/lastmile_qr_scan"}, "name": "fe0a7c0888d458676ffe9ae11c33c716", "type": "electric_scooter"}, {"fusion_lat": 0.0, "bike_id": "59b02e9c683e24fc0104b6aadf8c26e1", "fusion_lon": 0.0, "lon": -77.02157683333333, "lat": 38.895013166666665, "is_reserved": 0, "is_disabled": 0, "rental_uris": {"android": "https://dc.lft.to/lastmile_qr_scan", "ios": "https://dc.lft.to/lastmile_qr_scan"}, "name": "59b02e9c683e24fc0104b6aadf8c26e1", "type": "electric_scooter"}, {"fusion_lat": 0.0, "bike_id": "451feb9bac1a33c5536578bdc7202b55", "fusion_lon": 0.0, "lon": -77.03926533333333, "lat": 38.924928333333334, "is_reserved": 0, "is_disabled": 0, "rental_uris": {"android": "https://dc.lft.to/lastmile_qr_scan", "ios": "https://dc.lft.to/lastmile_qr_scan"}, "name": "451feb9bac1a33c5536578bdc7202b55", "type": "electric_scooter"}, {"fusion_lat": 0.0, "bike_id": "83fc3c2ddfe4aaec03853b4cea3ca108", "fusion_lon": 0.0, "lon": -77.18123066666666, "lat": 38.932305, "is_reserved": 0, "is_disabled": 0, "rental_uris": {"android": "https://dc.lft.to/lastmile_qr_scan", "ios": "https://dc.lft.to/lastmile_qr_scan"}, "name": "83fc3c2ddfe4aaec03853b4cea3ca108", "type": "electric_bike"}, {"fusion_lat": 0.0, "bike_id": "4fe85d261d4e7bcbcbb6b66ab8db627d", "fusion_lon": 0.0, "lon": -76.968196, "lat": 38.84713283333333, "is_reserved": 0, "is_disabled": 0, "rental_uris": {"android": "https://dc.lft.to/lastmile_qr_scan", "ios": "https://dc.lft.to/lastmile_qr_scan"}, "name": "4fe85d261d4e7bcbcbb6b66ab8db627d", "type": "electric_scooter"}, {"fusion_lat": 0.0, "bike_id": "ca739691edcd40d226e783fcfd7601de", "fusion_lon": 0.0, "lon": -77.047831, "lat": 38.9049615, "is_reserved": 0, "is_disabled": 0, "rental_uris": {"android": "https://dc.lft.to/lastmile_qr_scan", "ios": "https://dc.lft.to/lastmile_qr_scan"}, "name": "ca739691edcd40d226e783fcfd7601de", "type": "electric_scooter"}, {"fusion_lat": 0.0, "bike_id": "a070fcea994f9d149032899a4206374e", "fusion_lon": 0.0, "lon": -76.96507483333333, "lat": 38.87475933333333, "is_reserved": 0, "is_disabled": 0, "rental_uris": {"android": "https://dc.lft.to/lastmile_qr_scan", "ios": "https://dc.lft.to/lastmile_qr_scan"}, "name": "a070fcea994f9d149032899a4206374e", "type": "electric_scooter"}, {"fusion_lat": 0.0, "bike_id": "7f2508e69341ced997dcb771678df2b0", "fusion_lon": 0.0, "lon": -77.0468125, "lat": 38.90293633333334, "is_reserved": 0, "is_disabled": 0, "rental_uris": {"android": "https://dc.lft.to/lastmile_qr_scan", "ios": "https://dc.lft.to/lastmile_qr_scan"}, "name": "7f2508e69341ced997dcb771678df2b0", "type": "electric_scooter"}, {"fusion_lat": 0.0, "bike_id": "badf99bbb1eb086818f96edcb40bee9d", "fusion_lon": 0.0, "lon": -77.02313133333334, "lat": 38.92786916666667, "is_reserved": 0, "is_disabled": 0, "rental_uris": {"android": "https://dc.lft.to/lastmile_qr_scan", "ios": "https://dc.lft.to/lastmile_qr_scan"}, "name": "badf99bbb1eb086818f96edcb40bee9d", "type": "electric_scooter"}, {"fusion_lat": 0.0, "bike_id": "75d95956f9df3232b477285b92e0d2be", "fusion_lon": 0.0, "lon": -77.0368745, "lat": 38.91816466666667, "is_reserved": 0, "is_disabled": 0, "rental_uris": {"android": "https://dc.lft.to/lastmile_qr_scan", "ios": "https://dc.lft.to/lastmile_qr_scan"}, "name": "75d95956f9df3232b477285b92e0d2be", "type": "electric_scooter"}, {"fusion_lat": 0.0, "bike_id": "d25ee06049b313e6f9c8b8412f819d35", "fusion_lon": 0.0, "lon": -77.02563933333333, "lat": 38.93352766666667, "is_reserved": 0, "is_disabled": 0, "rental_uris": {"android": "https://dc.lft.to/lastmile_qr_scan", "ios": "https://dc.lft.to/lastmile_qr_scan"}, "name": "d25ee06049b313e6f9c8b8412f819d35", "type": "electric_scooter"}, {"fusion_lat": 0.0, "bike_id": "1090040e40155cb1f35b6f6b0648d9c4", "fusion_lon": 0.0, "lon": -77.02916883333333, "lat": 38.91682683333333, "is_reserved": 0, "is_disabled": 0, "rental_uris": {"android": "https://dc.lft.to/lastmile_qr_scan", "ios": "https://dc.lft.to/lastmile_qr_scan"}, "name": "1090040e40155cb1f35b6f6b0648d9c4", "type": "electric_scooter"}, {"fusion_lat": 0.0, "bike_id": "f74c743b908f5592463a19f629e883f3", "fusion_lon": 0.0, "lon": -76.979711, "lat": 38.92900616666667, "is_reserved": 0, "is_disabled": 0, "rental_uris": {"android": "https://dc.lft.to/lastmile_qr_scan", "ios": "https://dc.lft.to/lastmile_qr_scan"}, "name": "f74c743b908f5592463a19f629e883f3", "type": "electric_bike"}, {"fusion_lat": 0.0, "bike_id": "34fbc1afdcaa6c40c9cd39d164a46621", "fusion_lon": 0.0, "lon": -77.03517583333333, "lat": 38.922620333333334, "is_reserved": 0, "is_disabled": 0, "rental_uris": {"android": "https://dc.lft.to/lastmile_qr_scan", "ios": "https://dc.lft.to/lastmile_qr_scan"}, "name": "34fbc1afdcaa6c40c9cd39d164a46621", "type": "electric_scooter"}, {"fusion_lat": 0.0, "bike_id": "612317eddfcc573307292f86057bf7d5", "fusion_lon": 0.0, "lon": -77.0594755, "lat": 38.91840416666667, "is_reserved": 0, "is_disabled": 0, "rental_uris": {"android": "https://dc.lft.to/lastmile_qr_scan", "ios": "https://dc.lft.to/lastmile_qr_scan"}, "name": "612317eddfcc573307292f86057bf7d5", "type": "electric_scooter"}, {"fusion_lat": 0.0, "bike_id": "50d5c3e8c5a409342c9ec01deb59a43e", "fusion_lon": 0.0, "lon": -77.07016566666667, "lat": 38.918693, "is_reserved": 0, "is_disabled": 0, "rental_uris": {"android": "https://dc.lft.to/lastmile_qr_scan", "ios": "https://dc.lft.to/lastmile_qr_scan"}, "name": "50d5c3e8c5a409342c9ec01deb59a43e", "type": "electric_scooter"}, {"fusion_lat": 0.0, "bike_id": "294660a61e6e2aaa48b2237ffda08847", "fusion_lon": 0.0, "lon": -77.01694583333334, "lat": 38.8771925, "is_reserved": 0, "is_disabled": 0, "rental_uris": {"android": "https://dc.lft.to/lastmile_qr_scan", "ios": "https://dc.lft.to/lastmile_qr_scan"}, "name": "294660a61e6e2aaa48b2237ffda08847", "type": "electric_scooter"}, {"fusion_lat": 0.0, "bike_id": "5d5268d2714044f02399b6d35abe6e5d", "fusion_lon": 0.0, "lon": -76.97533266666667, "lat": 38.903321, "is_reserved": 0, "is_disabled": 0, "rental_uris": {"android": "https://dc.lft.to/lastmile_qr_scan", "ios": "https://dc.lft.to/lastmile_qr_scan"}, "name": "5d5268d2714044f02399b6d35abe6e5d", "type": "electric_bike"}, {"fusion_lat": 0.0, "bike_id": "530c369b64aaf62f3fb1f963eb8c9025", "fusion_lon": 0.0, "lon": -77.04503183333334, "lat": 38.8922655, "is_reserved": 0, "is_disabled": 0, "rental_uris": {"android": "https://dc.lft.to/lastmile_qr_scan", "ios": "https://dc.lft.to/lastmile_qr_scan"}, "name": "530c369b64aaf62f3fb1f963eb8c9025", "type": "electric_scooter"}, {"fusion_lat": 0.0, "bike_id": "478e1a801d2fb9c42c474b4b14cc731c", "fusion_lon": 0.0, "lon": -76.97082533333334, "lat": 38.89219633333333, "is_reserved": 0, "is_disabled": 0, "rental_uris": {"android": "https://dc.lft.to/lastmile_qr_scan", "ios": "https://dc.lft.to/lastmile_qr_scan"}, "name": "478e1a801d2fb9c42c474b4b14cc731c", "type": "electric_bike"}, {"fusion_lat": 0.0, "bike_id": "a151158ab7066ef54f80e42d013268bf", "fusion_lon": 0.0, "lon": -77.11778816666667, "lat": 39.05493283333333, "is_reserved": 0, "is_disabled": 0, "rental_uris": {"android": "https://dc.lft.to/lastmile_qr_scan", "ios": "https://dc.lft.to/lastmile_qr_scan"}, "name": "a151158ab7066ef54f80e42d013268bf", "type": "electric_bike"}, {"fusion_lat": 0.0, "bike_id": "9c2ecca3bdce3fb8274ab098de2ed536", "fusion_lon": 0.0, "lon": -77.04861266666667, "lat": 38.9049165, "is_reserved": 0, "is_disabled": 0, "rental_uris": {"android": "https://dc.lft.to/lastmile_qr_scan", "ios": "https://dc.lft.to/lastmile_qr_scan"}, "name": "9c2ecca3bdce3fb8274ab098de2ed536", "type": "electric_bike"}, {"fusion_lat": 0.0, "bike_id": "394ead21be99a9b7b8bd88e8129bb296", "fusion_lon": 0.0, "lon": -77.0418525, "lat": 38.919817333333334, "is_reserved": 0, "is_disabled": 0, "rental_uris": {"android": "https://dc.lft.to/lastmile_qr_scan", "ios": "https://dc.lft.to/lastmile_qr_scan"}, "name": "394ead21be99a9b7b8bd88e8129bb296", "type": "electric_scooter"}, {"fusion_lat": 0.0, "bike_id": "fc740b36feeae5d9c4bd14ce23184806", "fusion_lon": 0.0, "lon": -77.02703766666667, "lat": 38.9277385, "is_reserved": 0, "is_disabled": 0, "rental_uris": {"android": "https://dc.lft.to/lastmile_qr_scan", "ios": "https://dc.lft.to/lastmile_qr_scan"}, "name": "fc740b36feeae5d9c4bd14ce23184806", "type": "electric_scooter"}, {"fusion_lat": 0.0, "bike_id": "ba8d0c62f94c58c2787da88e9461c609", "fusion_lon": 0.0, "lon": -77.02864083333333, "lat": 38.895388833333335, "is_reserved": 0, "is_disabled": 0, "rental_uris": {"android": "https://dc.lft.to/lastmile_qr_scan", "ios": "https://dc.lft.to/lastmile_qr_scan"}, "name": "ba8d0c62f94c58c2787da88e9461c609", "type": "electric_scooter"}, {"fusion_lat": 0.0, "bike_id": "845ec08453e637420e51d0cd37fa7c35", "fusion_lon": 0.0, "lon": -77.0326995, "lat": 38.941614, "is_reserved": 0, "is_disabled": 0, "rental_uris": {"android": "https://dc.lft.to/lastmile_qr_scan", "ios": "https://dc.lft.to/lastmile_qr_scan"}, "name": "845ec08453e637420e51d0cd37fa7c35", "type": "electric_scooter"}, {"fusion_lat": 0.0, "bike_id": "29dc3d97cccd4e1d27005114dcb46b25", "fusion_lon": 0.0, "lon": -77.050022, "lat": 38.89229533333334, "is_reserved": 0, "is_disabled": 0, "rental_uris": {"android": "https://dc.lft.to/lastmile_qr_scan", "ios": "https://dc.lft.to/lastmile_qr_scan"}, "name": "29dc3d97cccd4e1d27005114dcb46b25", "type": "electric_scooter"}, {"fusion_lat": 0.0, "bike_id": "c1ae6d02fad5c8dd8373dca508d50ab4", "fusion_lon": 0.0, "lon": -77.03338216666667, "lat": 38.89223033333333, "is_reserved": 0, "is_disabled": 0, "rental_uris": {"android": "https://dc.lft.to/lastmile_qr_scan", "ios": "https://dc.lft.to/lastmile_qr_scan"}, "name": "c1ae6d02fad5c8dd8373dca508d50ab4", "type": "electric_scooter"}, {"fusion_lat": 0.0, "bike_id": "a1599318c56935709322ff093d5934d6", "fusion_lon": 0.0, "lon": -77.0311705, "lat": 38.89726866666667, "is_reserved": 0, "is_disabled": 0, "rental_uris": {"android": "https://dc.lft.to/lastmile_qr_scan", "ios": "https://dc.lft.to/lastmile_qr_scan"}, "name": "a1599318c56935709322ff093d5934d6", "type": "electric_scooter"}, {"fusion_lat": 0.0, "bike_id": "9b2a1acfcf8dce4eadc738225ae6239a", "fusion_lon": 0.0, "lon": -76.99920466666667, "lat": 38.8897725, "is_reserved": 0, "is_disabled": 0, "rental_uris": {"android": "https://dc.lft.to/lastmile_qr_scan", "ios": "https://dc.lft.to/lastmile_qr_scan"}, "name": "9b2a1acfcf8dce4eadc738225ae6239a", "type": "electric_scooter"}, {"fusion_lat": 0.0, "bike_id": "69d09d907e42e7b3f5077e09bf075391", "fusion_lon": 0.0, "lon": -76.981042, "lat": 38.877305166666666, "is_reserved": 0, "is_disabled": 0, "rental_uris": {"android": "https://dc.lft.to/lastmile_qr_scan", "ios": "https://dc.lft.to/lastmile_qr_scan"}, "name": "69d09d907e42e7b3f5077e09bf075391", "type": "electric_bike"}, {"fusion_lat": 0.0, "bike_id": "b6d16fc16f1ee8107d962cf6fcf95925", "fusion_lon": 0.0, "lon": -77.02710716666667, "lat": 38.92468266666667, "is_reserved": 0, "is_disabled": 0, "rental_uris": {"android": "https://dc.lft.to/lastmile_qr_scan", "ios": "https://dc.lft.to/lastmile_qr_scan"}, "name": "b6d16fc16f1ee8107d962cf6fcf95925", "type": "electric_scooter"}, {"fusion_lat": 0.0, "bike_id": "f282143d67b2560ab9e7739a887bea00", "fusion_lon": 0.0, "lon": -77.0091075, "lat": 38.90988133333333, "is_reserved": 0, "is_disabled": 0, "rental_uris": {"android": "https://dc.lft.to/lastmile_qr_scan", "ios": "https://dc.lft.to/lastmile_qr_scan"}, "name": "f282143d67b2560ab9e7739a887bea00", "type": "electric_scooter"}, {"fusion_lat": 0.0, "bike_id": "92fde499145f417c366a08b4daf09db7", "fusion_lon": 0.0, "lon": -77.01532716666667, "lat": 38.88742416666667, "is_reserved": 0, "is_disabled": 0, "rental_uris": {"android": "https://dc.lft.to/lastmile_qr_scan", "ios": "https://dc.lft.to/lastmile_qr_scan"}, "name": "92fde499145f417c366a08b4daf09db7", "type": "electric_scooter"}, {"fusion_lat": 0.0, "bike_id": "5ee5772335389adc50a126e5bab28170", "fusion_lon": 0.0, "lon": -77.0320465, "lat": 38.907226666666666, "is_reserved": 0, "is_disabled": 0, "rental_uris": {"android": "https://dc.lft.to/lastmile_qr_scan", "ios": "https://dc.lft.to/lastmile_qr_scan"}, "name": "5ee5772335389adc50a126e5bab28170", "type": "electric_scooter"}, {"fusion_lat": 0.0, "bike_id": "a4dbf03b1bcb9a76676ddc80000770dd", "fusion_lon": 0.0, "lon": -77.02096533333334, "lat": 38.9113045, "is_reserved": 0, "is_disabled": 0, "rental_uris": {"android": "https://dc.lft.to/lastmile_qr_scan", "ios": "https://dc.lft.to/lastmile_qr_scan"}, "name": "a4dbf03b1bcb9a76676ddc80000770dd", "type": "electric_scooter"}, {"fusion_lat": 0.0, "bike_id": "2e2d70eef3369698af3e5e99d0044ca7", "fusion_lon": 0.0, "lon": -77.04000866666667, "lat": 38.93429833333333, "is_reserved": 0, "is_disabled": 0, "rental_uris": {"android": "https://dc.lft.to/lastmile_qr_scan", "ios": "https://dc.lft.to/lastmile_qr_scan"}, "name": "2e2d70eef3369698af3e5e99d0044ca7", "type": "electric_scooter"}, {"fusion_lat": 0.0, "bike_id": "468a05eeb083bd11d923f85607b832a0", "fusion_lon": 0.0, "lon": -77.02144766666666, "lat": 38.92342333333333, "is_reserved": 0, "is_disabled": 0, "rental_uris": {"android": "https://dc.lft.to/lastmile_qr_scan", "ios": "https://dc.lft.to/lastmile_qr_scan"}, "name": "468a05eeb083bd11d923f85607b832a0", "type": "electric_scooter"}, {"fusion_lat": 0.0, "bike_id": "c5ed8f1f392794685f27f00eb6a2d8d4", "fusion_lon": 0.0, "lon": -77.02778766666667, "lat": 38.89221466666667, "is_reserved": 0, "is_disabled": 0, "rental_uris": {"android": "https://dc.lft.to/lastmile_qr_scan", "ios": "https://dc.lft.to/lastmile_qr_scan"}, "name": "c5ed8f1f392794685f27f00eb6a2d8d4", "type": "electric_scooter"}, {"fusion_lat": 0.0, "bike_id": "fdeaa362ed52f95b89973baa949ac24b", "fusion_lon": 0.0, "lon": -77.05243733333333, "lat": 38.925504833333335, "is_reserved": 0, "is_disabled": 0, "rental_uris": {"android": "https://dc.lft.to/lastmile_qr_scan", "ios": "https://dc.lft.to/lastmile_qr_scan"}, "name": "fdeaa362ed52f95b89973baa949ac24b", "type": "electric_scooter"}, {"fusion_lat": 0.0, "bike_id": "31e961f97931faccd353aca4b0e4b592", "fusion_lon": 0.0, "lon": -77.03936583333333, "lat": 38.932781, "is_reserved": 0, "is_disabled": 0, "rental_uris": {"android": "https://dc.lft.to/lastmile_qr_scan", "ios": "https://dc.lft.to/lastmile_qr_scan"}, "name": "31e961f97931faccd353aca4b0e4b592", "type": "electric_scooter"}, {"fusion_lat": 0.0, "bike_id": "abffa6dc8adf2af2f7dc966a2acd354f", "fusion_lon": 0.0, "lon": -77.015055, "lat": 38.90573633333333, "is_reserved": 0, "is_disabled": 0, "rental_uris": {"android": "https://dc.lft.to/lastmile_qr_scan", "ios": "https://dc.lft.to/lastmile_qr_scan"}, "name": "abffa6dc8adf2af2f7dc966a2acd354f", "type": "electric_scooter"}, {"fusion_lat": 0.0, "bike_id": "fb2cb2b009a8f1d9b9aa2bb08a1860c2", "fusion_lon": 0.0, "lon": -77.017689, "lat": 38.8748215, "is_reserved": 0, "is_disabled": 0, "rental_uris": {"android": "https://dc.lft.to/lastmile_qr_scan", "ios": "https://dc.lft.to/lastmile_qr_scan"}, "name": "fb2cb2b009a8f1d9b9aa2bb08a1860c2", "type": "electric_scooter"}, {"fusion_lat": 0.0, "bike_id": "37ec73c07373a34e729b7bc82d106ca3", "fusion_lon": 0.0, "lon": -76.98524966666666, "lat": 38.866921833333336, "is_reserved": 0, "is_disabled": 0, "rental_uris": {"android": "https://dc.lft.to/lastmile_qr_scan", "ios": "https://dc.lft.to/lastmile_qr_scan"}, "name": "37ec73c07373a34e729b7bc82d106ca3", "type": "electric_scooter"}, {"fusion_lat": 0.0, "bike_id": "444a3fffcb87b244bdf60028c1128956", "fusion_lon": 0.0, "lon": -77.03653883333334, "lat": 38.93133366666667, "is_reserved": 0, "is_disabled": 0, "rental_uris": {"android": "https://dc.lft.to/lastmile_qr_scan", "ios": "https://dc.lft.to/lastmile_qr_scan"}, "name": "444a3fffcb87b244bdf60028c1128956", "type": "electric_scooter"}, {"fusion_lat": 0.0, "bike_id": "88d01dae038b402e9179da083ed8648d", "fusion_lon": 0.0, "lon": -77.022035, "lat": 38.9247, "is_reserved": 0, "is_disabled": 0, "rental_uris": {"android": "https://dc.lft.to/lastmile_qr_scan", "ios": "https://dc.lft.to/lastmile_qr_scan"}, "name": "88d01dae038b402e9179da083ed8648d", "type": "electric_scooter"}, {"fusion_lat": 0.0, "bike_id": "773defd8b6e9133f2dc002323f196722", "fusion_lon": 0.0, "lon": -76.907405, "lat": 38.896163, "is_reserved": 0, "is_disabled": 0, "rental_uris": {"android": "https://dc.lft.to/lastmile_qr_scan", "ios": "https://dc.lft.to/lastmile_qr_scan"}, "name": "773defd8b6e9133f2dc002323f196722", "type": "electric_bike"}, {"fusion_lat": 0.0, "bike_id": "f091aac7cc6ddc917093bdee40cd170d", "fusion_lon": 0.0, "lon": -77.00713516666667, "lat": 38.905687666666665, "is_reserved": 0, "is_disabled": 0, "rental_uris": {"android": "https://dc.lft.to/lastmile_qr_scan", "ios": "https://dc.lft.to/lastmile_qr_scan"}, "name": "f091aac7cc6ddc917093bdee40cd170d", "type": "electric_scooter"}, {"fusion_lat": 0.0, "bike_id": "1d27496d29978d63bd825f9d87f77930", "fusion_lon": 0.0, "lon": -76.99271716666667, "lat": 38.89609266666667, "is_reserved": 0, "is_disabled": 0, "rental_uris": {"android": "https://dc.lft.to/lastmile_qr_scan", "ios": "https://dc.lft.to/lastmile_qr_scan"}, "name": "1d27496d29978d63bd825f9d87f77930", "type": "electric_scooter"}, {"fusion_lat": 0.0, "bike_id": "8bf31ff8f2311459546ea1d18ee705ea", "fusion_lon": 0.0, "lon": -77.01498416666666, "lat": 38.926703, "is_reserved": 0, "is_disabled": 0, "rental_uris": {"android": "https://dc.lft.to/lastmile_qr_scan", "ios": "https://dc.lft.to/lastmile_qr_scan"}, "name": "8bf31ff8f2311459546ea1d18ee705ea", "type": "electric_scooter"}, {"fusion_lat": 0.0, "bike_id": "cce24331c8893dcdda0fcb72f6768bfb", "fusion_lon": 0.0, "lon": -77.054449, "lat": 38.897713, "is_reserved": 0, "is_disabled": 0, "rental_uris": {"android": "https://dc.lft.to/lastmile_qr_scan", "ios": "https://dc.lft.to/lastmile_qr_scan"}, "name": "cce24331c8893dcdda0fcb72f6768bfb", "type": "electric_scooter"}, {"fusion_lat": 0.0, "bike_id": "29a4df1d1f0512202d9cd893ed62970e", "fusion_lon": 0.0, "lon": -77.0599775, "lat": 38.804408333333335, "is_reserved": 0, "is_disabled": 0, "rental_uris": {"android": "https://dc.lft.to/lastmile_qr_scan", "ios": "https://dc.lft.to/lastmile_qr_scan"}, "name": "29a4df1d1f0512202d9cd893ed62970e", "type": "electric_bike"}, {"fusion_lat": 0.0, "bike_id": "28e14cc54b1c7afae9fec67b6fbd56d5", "fusion_lon": 0.0, "lon": -77.046723, "lat": 38.89560866666667, "is_reserved": 0, "is_disabled": 0, "rental_uris": {"android": "https://dc.lft.to/lastmile_qr_scan", "ios": "https://dc.lft.to/lastmile_qr_scan"}, "name": "28e14cc54b1c7afae9fec67b6fbd56d5", "type": "electric_scooter"}, {"fusion_lat": 0.0, "bike_id": "c9fc0049cec5c19257202fb53d4599ca", "fusion_lon": 0.0, "lon": -77.0096205, "lat": 38.917062333333334, "is_reserved": 0, "is_disabled": 0, "rental_uris": {"android": "https://dc.lft.to/lastmile_qr_scan", "ios": "https://dc.lft.to/lastmile_qr_scan"}, "name": "c9fc0049cec5c19257202fb53d4599ca", "type": "electric_scooter"}, {"fusion_lat": 0.0, "bike_id": "161346432a4377e1eaee795a92bde1a6", "fusion_lon": 0.0, "lon": -76.9987125, "lat": 38.88645733333333, "is_reserved": 0, "is_disabled": 0, "rental_uris": {"android": "https://dc.lft.to/lastmile_qr_scan", "ios": "https://dc.lft.to/lastmile_qr_scan"}, "name": "161346432a4377e1eaee795a92bde1a6", "type": "electric_scooter"}, {"fusion_lat": 0.0, "bike_id": "eb2e5927f9d7e00e77cc2c96d65562c0", "fusion_lon": 0.0, "lon": -76.933676, "lat": 38.89915833333333, "is_reserved": 0, "is_disabled": 0, "rental_uris": {"android": "https://dc.lft.to/lastmile_qr_scan", "ios": "https://dc.lft.to/lastmile_qr_scan"}, "name": "eb2e5927f9d7e00e77cc2c96d65562c0", "type": "electric_scooter"}, {"fusion_lat": 0.0, "bike_id": "1c9ffe068492bde05ca698020c284082", "fusion_lon": 0.0, "lon": -77.05316183333333, "lat": 38.906541, "is_reserved": 0, "is_disabled": 0, "rental_uris": {"android": "https://dc.lft.to/lastmile_qr_scan", "ios": "https://dc.lft.to/lastmile_qr_scan"}, "name": "1c9ffe068492bde05ca698020c284082", "type": "electric_scooter"}, {"fusion_lat": 0.0, "bike_id": "c5a869a464f2adff316218f2c65c733c", "fusion_lon": 0.0, "lon": -77.0054345, "lat": 38.874593833333336, "is_reserved": 0, "is_disabled": 0, "rental_uris": {"android": "https://dc.lft.to/lastmile_qr_scan", "ios": "https://dc.lft.to/lastmile_qr_scan"}, "name": "c5a869a464f2adff316218f2c65c733c", "type": "electric_scooter"}, {"fusion_lat": 0.0, "bike_id": "f7e5e28af046fa52f31c4ae4f8b7d0a5", "fusion_lon": 0.0, "lon": -77.040068, "lat": 38.90797416666667, "is_reserved": 0, "is_disabled": 0, "rental_uris": {"android": "https://dc.lft.to/lastmile_qr_scan", "ios": "https://dc.lft.to/lastmile_qr_scan"}, "name": "f7e5e28af046fa52f31c4ae4f8b7d0a5", "type": "electric_scooter"}, {"fusion_lat": 0.0, "bike_id": "bf2c9e475efb48533687730a7d3051b1", "fusion_lon": 0.0, "lon": -76.99940316666667, "lat": 38.90697633333333, "is_reserved": 0, "is_disabled": 0, "rental_uris": {"android": "https://dc.lft.to/lastmile_qr_scan", "ios": "https://dc.lft.to/lastmile_qr_scan"}, "name": "bf2c9e475efb48533687730a7d3051b1", "type": "electric_scooter"}, {"fusion_lat": 0.0, "bike_id": "5148baa80b3f85261642273d8c0ff372", "fusion_lon": 0.0, "lon": -76.94877083333333, "lat": 38.894295666666665, "is_reserved": 0, "is_disabled": 0, "rental_uris": {"android": "https://dc.lft.to/lastmile_qr_scan", "ios": "https://dc.lft.to/lastmile_qr_scan"}, "name": "5148baa80b3f85261642273d8c0ff372", "type": "electric_scooter"}, {"fusion_lat": 0.0, "bike_id": "ccdd7992d626a163cf418c3a1ca297bf", "fusion_lon": 0.0, "lon": -77.02699766666667, "lat": 38.94991383333333, "is_reserved": 0, "is_disabled": 0, "rental_uris": {"android": "https://dc.lft.to/lastmile_qr_scan", "ios": "https://dc.lft.to/lastmile_qr_scan"}, "name": "ccdd7992d626a163cf418c3a1ca297bf", "type": "electric_scooter"}, {"fusion_lat": 0.0, "bike_id": "a9db07ed4fc2adc8b075efad63505147", "fusion_lon": 0.0, "lon": -77.02164183333333, "lat": 38.88727633333333, "is_reserved": 0, "is_disabled": 0, "rental_uris": {"android": "https://dc.lft.to/lastmile_qr_scan", "ios": "https://dc.lft.to/lastmile_qr_scan"}, "name": "a9db07ed4fc2adc8b075efad63505147", "type": "electric_scooter"}, {"fusion_lat": 0.0, "bike_id": "d49881835d3e99c5f42f6c190b227f82", "fusion_lon": 0.0, "lon": -76.98811533333334, "lat": 38.900461, "is_reserved": 0, "is_disabled": 0, "rental_uris": {"android": "https://dc.lft.to/lastmile_qr_scan", "ios": "https://dc.lft.to/lastmile_qr_scan"}, "name": "d49881835d3e99c5f42f6c190b227f82", "type": "electric_scooter"}, {"fusion_lat": 0.0, "bike_id": "880dac739cb4273038f912b50dfd3db8", "fusion_lon": 0.0, "lon": -76.995658, "lat": 38.85181933333333, "is_reserved": 0, "is_disabled": 0, "rental_uris": {"android": "https://dc.lft.to/lastmile_qr_scan", "ios": "https://dc.lft.to/lastmile_qr_scan"}, "name": "880dac739cb4273038f912b50dfd3db8", "type": "electric_bike"}, {"fusion_lat": 0.0, "bike_id": "f1bcbee02408a596736b14f6bab8b7ee", "fusion_lon": 0.0, "lon": -77.037606, "lat": 38.907801, "is_reserved": 0, "is_disabled": 0, "rental_uris": {"android": "https://dc.lft.to/lastmile_qr_scan", "ios": "https://dc.lft.to/lastmile_qr_scan"}, "name": "f1bcbee02408a596736b14f6bab8b7ee", "type": "electric_scooter"}, {"fusion_lat": 0.0, "bike_id": "78a29295b963d543382cf0ad19ee0ac0", "fusion_lon": 0.0, "lon": -77.05053016666666, "lat": 38.9053145, "is_reserved": 0, "is_disabled": 0, "rental_uris": {"android": "https://dc.lft.to/lastmile_qr_scan", "ios": "https://dc.lft.to/lastmile_qr_scan"}, "name": "78a29295b963d543382cf0ad19ee0ac0", "type": "electric_scooter"}, {"fusion_lat": 0.0, "bike_id": "0e86adea02db7720fede927f8b7e9a95", "fusion_lon": 0.0, "lon": -77.04262, "lat": 38.90983583333333, "is_reserved": 0, "is_disabled": 0, "rental_uris": {"android": "https://dc.lft.to/lastmile_qr_scan", "ios": "https://dc.lft.to/lastmile_qr_scan"}, "name": "0e86adea02db7720fede927f8b7e9a95", "type": "electric_scooter"}, {"fusion_lat": 0.0, "bike_id": "904804916ee8aaad4e1ae0248aefb6b3", "fusion_lon": 0.0, "lon": -77.028845, "lat": 38.932799833333334, "is_reserved": 0, "is_disabled": 0, "rental_uris": {"android": "https://dc.lft.to/lastmile_qr_scan", "ios": "https://dc.lft.to/lastmile_qr_scan"}, "name": "904804916ee8aaad4e1ae0248aefb6b3", "type": "electric_scooter"}, {"fusion_lat": 0.0, "bike_id": "96d78d9195844fd879b8ded4670bcaa7", "fusion_lon": 0.0, "lon": -77.02422916666667, "lat": 38.8922055, "is_reserved": 0, "is_disabled": 0, "rental_uris": {"android": "https://dc.lft.to/lastmile_qr_scan", "ios": "https://dc.lft.to/lastmile_qr_scan"}, "name": "96d78d9195844fd879b8ded4670bcaa7", "type": "electric_scooter"}, {"fusion_lat": 0.0, "bike_id": "3f312c1167413085fafa06abfc15ee2a", "fusion_lon": 0.0, "lon": -77.03747933333334, "lat": 38.91252166666666, "is_reserved": 0, "is_disabled": 0, "rental_uris": {"android": "https://dc.lft.to/lastmile_qr_scan", "ios": "https://dc.lft.to/lastmile_qr_scan"}, "name": "3f312c1167413085fafa06abfc15ee2a", "type": "electric_scooter"}, {"fusion_lat": 0.0, "bike_id": "691bc42eb79ec8989282d76ae9b5a50e", "fusion_lon": 0.0, "lon": -76.992721, "lat": 38.919819833333335, "is_reserved": 0, "is_disabled": 0, "rental_uris": {"android": "https://dc.lft.to/lastmile_qr_scan", "ios": "https://dc.lft.to/lastmile_qr_scan"}, "name": "691bc42eb79ec8989282d76ae9b5a50e", "type": "electric_scooter"}, {"fusion_lat": 0.0, "bike_id": "7443fbc93bd13a5a9d6572d715006ecc", "fusion_lon": 0.0, "lon": -76.99849833333333, "lat": 38.896234666666665, "is_reserved": 0, "is_disabled": 0, "rental_uris": {"android": "https://dc.lft.to/lastmile_qr_scan", "ios": "https://dc.lft.to/lastmile_qr_scan"}, "name": "7443fbc93bd13a5a9d6572d715006ecc", "type": "electric_scooter"}, {"fusion_lat": 0.0, "bike_id": "3b49a17cc187bf027e80b843f4538012", "fusion_lon": 0.0, "lon": -76.94632116666666, "lat": 38.898351, "is_reserved": 0, "is_disabled": 0, "rental_uris": {"android": "https://dc.lft.to/lastmile_qr_scan", "ios": "https://dc.lft.to/lastmile_qr_scan"}, "name": "3b49a17cc187bf027e80b843f4538012", "type": "electric_scooter"}, {"fusion_lat": 0.0, "bike_id": "5f3a74cce52038be4ecac034da100bbb", "fusion_lon": 0.0, "lon": -77.02510966666667, "lat": 38.89225883333334, "is_reserved": 0, "is_disabled": 0, "rental_uris": {"android": "https://dc.lft.to/lastmile_qr_scan", "ios": "https://dc.lft.to/lastmile_qr_scan"}, "name": "5f3a74cce52038be4ecac034da100bbb", "type": "electric_scooter"}, {"fusion_lat": 0.0, "bike_id": "37227d6823cfaf5d32f645ab61d1c885", "fusion_lon": 0.0, "lon": -77.03291216666666, "lat": 38.91709816666667, "is_reserved": 0, "is_disabled": 0, "rental_uris": {"android": "https://dc.lft.to/lastmile_qr_scan", "ios": "https://dc.lft.to/lastmile_qr_scan"}, "name": "37227d6823cfaf5d32f645ab61d1c885", "type": "electric_scooter"}, {"fusion_lat": 0.0, "bike_id": "2f8f0f33125556a084277bbdd75011fe", "fusion_lon": 0.0, "lon": -77.0004795, "lat": 38.906928, "is_reserved": 0, "is_disabled": 0, "rental_uris": {"android": "https://dc.lft.to/lastmile_qr_scan", "ios": "https://dc.lft.to/lastmile_qr_scan"}, "name": "2f8f0f33125556a084277bbdd75011fe", "type": "electric_scooter"}, {"fusion_lat": 0.0, "bike_id": "15fa520a36a39405633d2b896f852fec", "fusion_lon": 0.0, "lon": -77.01663483333333, "lat": 38.881116, "is_reserved": 0, "is_disabled": 0, "rental_uris": {"android": "https://dc.lft.to/lastmile_qr_scan", "ios": "https://dc.lft.to/lastmile_qr_scan"}, "name": "15fa520a36a39405633d2b896f852fec", "type": "electric_scooter"}, {"fusion_lat": 0.0, "bike_id": "1e02caebd7236d839592e8a6fd8878a1", "fusion_lon": 0.0, "lon": -77.03605183333333, "lat": 38.934838166666665, "is_reserved": 0, "is_disabled": 0, "rental_uris": {"android": "https://dc.lft.to/lastmile_qr_scan", "ios": "https://dc.lft.to/lastmile_qr_scan"}, "name": "1e02caebd7236d839592e8a6fd8878a1", "type": "electric_scooter"}, {"fusion_lat": 0.0, "bike_id": "86e4f5526ab2a5dd0198911eef17f572", "fusion_lon": 0.0, "lon": -76.99681533333333, "lat": 38.88697716666667, "is_reserved": 0, "is_disabled": 0, "rental_uris": {"android": "https://dc.lft.to/lastmile_qr_scan", "ios": "https://dc.lft.to/lastmile_qr_scan"}, "name": "86e4f5526ab2a5dd0198911eef17f572", "type": "electric_scooter"}, {"fusion_lat": 0.0, "bike_id": "3218f6c0c347326c5a72cacb679dab58", "fusion_lon": 0.0, "lon": -77.044774, "lat": 38.90114116666667, "is_reserved": 0, "is_disabled": 0, "rental_uris": {"android": "https://dc.lft.to/lastmile_qr_scan", "ios": "https://dc.lft.to/lastmile_qr_scan"}, "name": "3218f6c0c347326c5a72cacb679dab58", "type": "electric_scooter"}, {"fusion_lat": 0.0, "bike_id": "72b16bd1a65c44f456be17580dacec68", "fusion_lon": 0.0, "lon": -77.036642, "lat": 38.922709, "is_reserved": 0, "is_disabled": 0, "rental_uris": {"android": "https://dc.lft.to/lastmile_qr_scan", "ios": "https://dc.lft.to/lastmile_qr_scan"}, "name": "72b16bd1a65c44f456be17580dacec68", "type": "electric_scooter"}, {"fusion_lat": 0.0, "bike_id": "e61eb2f2a651542f6158fed0eb4b591e", "fusion_lon": 0.0, "lon": -76.92190883333333, "lat": 38.895053833333336, "is_reserved": 0, "is_disabled": 0, "rental_uris": {"android": "https://dc.lft.to/lastmile_qr_scan", "ios": "https://dc.lft.to/lastmile_qr_scan"}, "name": "e61eb2f2a651542f6158fed0eb4b591e", "type": "electric_bike"}, {"fusion_lat": 0.0, "bike_id": "ea0f2e72aea92f918368262632667a9e", "fusion_lon": 0.0, "lon": -77.00457383333334, "lat": 38.87744, "is_reserved": 0, "is_disabled": 0, "rental_uris": {"android": "https://dc.lft.to/lastmile_qr_scan", "ios": "https://dc.lft.to/lastmile_qr_scan"}, "name": "ea0f2e72aea92f918368262632667a9e", "type": "electric_scooter"}, {"fusion_lat": 0.0, "bike_id": "224b47900f01eecec5f87ab7dde6bdc5", "fusion_lon": 0.0, "lon": -77.078985, "lat": 38.839357666666665, "is_reserved": 0, "is_disabled": 0, "rental_uris": {"android": "https://dc.lft.to/lastmile_qr_scan", "ios": "https://dc.lft.to/lastmile_qr_scan"}, "name": "224b47900f01eecec5f87ab7dde6bdc5", "type": "electric_bike"}, {"fusion_lat": 0.0, "bike_id": "bc19885ec10224d592ebf144ee64de84", "fusion_lon": 0.0, "lon": -77.02941466666667, "lat": 38.899948333333334, "is_reserved": 0, "is_disabled": 0, "rental_uris": {"android": "https://dc.lft.to/lastmile_qr_scan", "ios": "https://dc.lft.to/lastmile_qr_scan"}, "name": "bc19885ec10224d592ebf144ee64de84", "type": "electric_scooter"}, {"fusion_lat": 0.0, "bike_id": "c00a0dd3630d2db8eb1dbdc3179321d9", "fusion_lon": 0.0, "lon": -77.03440583333334, "lat": 38.918027, "is_reserved": 0, "is_disabled": 0, "rental_uris": {"android": "https://dc.lft.to/lastmile_qr_scan", "ios": "https://dc.lft.to/lastmile_qr_scan"}, "name": "c00a0dd3630d2db8eb1dbdc3179321d9", "type": "electric_scooter"}, {"fusion_lat": 0.0, "bike_id": "9b6dad708beee619ff9b1e97cc5010b0", "fusion_lon": 0.0, "lon": -77.05329416666666, "lat": 38.85262083333333, "is_reserved": 0, "is_disabled": 0, "rental_uris": {"android": "https://dc.lft.to/lastmile_qr_scan", "ios": "https://dc.lft.to/lastmile_qr_scan"}, "name": "9b6dad708beee619ff9b1e97cc5010b0", "type": "electric_bike"}, {"fusion_lat": 0.0, "bike_id": "d58f1d37be2ff5380441f6e3f367262b", "fusion_lon": 0.0, "lon": -77.027728, "lat": 38.892019833333336, "is_reserved": 0, "is_disabled": 0, "rental_uris": {"android": "https://dc.lft.to/lastmile_qr_scan", "ios": "https://dc.lft.to/lastmile_qr_scan"}, "name": "d58f1d37be2ff5380441f6e3f367262b", "type": "electric_scooter"}, {"fusion_lat": 0.0, "bike_id": "6dbfaf9d9d5e51ab10413759cb0084ce", "fusion_lon": 0.0, "lon": -76.93187383333333, "lat": 38.898760833333334, "is_reserved": 0, "is_disabled": 0, "rental_uris": {"android": "https://dc.lft.to/lastmile_qr_scan", "ios": "https://dc.lft.to/lastmile_qr_scan"}, "name": "6dbfaf9d9d5e51ab10413759cb0084ce", "type": "electric_scooter"}, {"fusion_lat": 0.0, "bike_id": "b853a3642f1f07048a5aba9b8050c445", "fusion_lon": 0.0, "lon": -77.04265416666667, "lat": 38.922368166666665, "is_reserved": 0, "is_disabled": 0, "rental_uris": {"android": "https://dc.lft.to/lastmile_qr_scan", "ios": "https://dc.lft.to/lastmile_qr_scan"}, "name": "b853a3642f1f07048a5aba9b8050c445", "type": "electric_scooter"}, {"fusion_lat": 0.0, "bike_id": "2d5e820a1462d3bbb3312fbb212e61da", "fusion_lon": 0.0, "lon": -77.0118225, "lat": 38.9002475, "is_reserved": 0, "is_disabled": 0, "rental_uris": {"android": "https://dc.lft.to/lastmile_qr_scan", "ios": "https://dc.lft.to/lastmile_qr_scan"}, "name": "2d5e820a1462d3bbb3312fbb212e61da", "type": "electric_scooter"}, {"fusion_lat": 0.0, "bike_id": "2c0b1a03f0e11494a3b712b18211e2e9", "fusion_lon": 0.0, "lon": -77.04997883333333, "lat": 38.8923005, "is_reserved": 0, "is_disabled": 0, "rental_uris": {"android": "https://dc.lft.to/lastmile_qr_scan", "ios": "https://dc.lft.to/lastmile_qr_scan"}, "name": "2c0b1a03f0e11494a3b712b18211e2e9", "type": "electric_scooter"}, {"fusion_lat": 0.0, "bike_id": "33bf6037b293392e5eb4059dedcf0bc5", "fusion_lon": 0.0, "lon": -77.0388015, "lat": 38.90338166666667, "is_reserved": 0, "is_disabled": 0, "rental_uris": {"android": "https://dc.lft.to/lastmile_qr_scan", "ios": "https://dc.lft.to/lastmile_qr_scan"}, "name": "33bf6037b293392e5eb4059dedcf0bc5", "type": "electric_scooter"}, {"fusion_lat": 0.0, "bike_id": "b3210311db38a9a10624aa7a84d2993f", "fusion_lon": 0.0, "lon": -77.01454516666666, "lat": 38.929898, "is_reserved": 0, "is_disabled": 0, "rental_uris": {"android": "https://dc.lft.to/lastmile_qr_scan", "ios": "https://dc.lft.to/lastmile_qr_scan"}, "name": "b3210311db38a9a10624aa7a84d2993f", "type": "electric_scooter"}, {"fusion_lat": 0.0, "bike_id": "a1c1d0ef2d921b1a90296175606febd3", "fusion_lon": 0.0, "lon": -77.03388066666666, "lat": 38.90102233333333, "is_reserved": 0, "is_disabled": 0, "rental_uris": {"android": "https://dc.lft.to/lastmile_qr_scan", "ios": "https://dc.lft.to/lastmile_qr_scan"}, "name": "a1c1d0ef2d921b1a90296175606febd3", "type": "electric_scooter"}, {"fusion_lat": 0.0, "bike_id": "9460266b95afb37239af2c4824da5d4b", "fusion_lon": 0.0, "lon": -77.0279165, "lat": 38.916932, "is_reserved": 0, "is_disabled": 0, "rental_uris": {"android": "https://dc.lft.to/lastmile_qr_scan", "ios": "https://dc.lft.to/lastmile_qr_scan"}, "name": "9460266b95afb37239af2c4824da5d4b", "type": "electric_scooter"}, {"fusion_lat": 0.0, "bike_id": "9f88aa2f417f65c0bd0842ed05fa4542", "fusion_lon": 0.0, "lon": -76.93358083333334, "lat": 38.888005166666666, "is_reserved": 0, "is_disabled": 0, "rental_uris": {"android": "https://dc.lft.to/lastmile_qr_scan", "ios": "https://dc.lft.to/lastmile_qr_scan"}, "name": "9f88aa2f417f65c0bd0842ed05fa4542", "type": "electric_scooter"}, {"fusion_lat": 0.0, "bike_id": "4d9157529e9b0aac302f680923c0a0fd", "fusion_lon": 0.0, "lon": -76.99492533333333, "lat": 38.83559666666667, "is_reserved": 0, "is_disabled": 0, "rental_uris": {"android": "https://dc.lft.to/lastmile_qr_scan", "ios": "https://dc.lft.to/lastmile_qr_scan"}, "name": "4d9157529e9b0aac302f680923c0a0fd", "type": "electric_scooter"}, {"fusion_lat": 0.0, "bike_id": "ba4ea06098694206a5860c1fed77bbe7", "fusion_lon": 0.0, "lon": -77.05316216666667, "lat": 38.9064645, "is_reserved": 0, "is_disabled": 0, "rental_uris": {"android": "https://dc.lft.to/lastmile_qr_scan", "ios": "https://dc.lft.to/lastmile_qr_scan"}, "name": "ba4ea06098694206a5860c1fed77bbe7", "type": "electric_scooter"}, {"fusion_lat": 0.0, "bike_id": "c44b09185b293d7ad7ca2040b0bb8375", "fusion_lon": 0.0, "lon": -77.024453, "lat": 38.90249766666667, "is_reserved": 0, "is_disabled": 0, "rental_uris": {"android": "https://dc.lft.to/lastmile_qr_scan", "ios": "https://dc.lft.to/lastmile_qr_scan"}, "name": "c44b09185b293d7ad7ca2040b0bb8375", "type": "electric_scooter"}, {"fusion_lat": 0.0, "bike_id": "be889bc6ef79a3bf5fc3ba1218a189fb", "fusion_lon": 0.0, "lon": -76.93874966666667, "lat": 38.95640133333333, "is_reserved": 0, "is_disabled": 0, "rental_uris": {"android": "https://dc.lft.to/lastmile_qr_scan", "ios": "https://dc.lft.to/lastmile_qr_scan"}, "name": "be889bc6ef79a3bf5fc3ba1218a189fb", "type": "electric_bike"}, {"fusion_lat": 0.0, "bike_id": "266ea3acfed21eb4babb807208f54e83", "fusion_lon": 0.0, "lon": -77.02278966666667, "lat": 38.924872, "is_reserved": 0, "is_disabled": 0, "rental_uris": {"android": "https://dc.lft.to/lastmile_qr_scan", "ios": "https://dc.lft.to/lastmile_qr_scan"}, "name": "266ea3acfed21eb4babb807208f54e83", "type": "electric_scooter"}, {"fusion_lat": 0.0, "bike_id": "17cdd5059c15c0384b9aefc870de677b", "fusion_lon": 0.0, "lon": -77.017462, "lat": 38.87719416666667, "is_reserved": 0, "is_disabled": 0, "rental_uris": {"android": "https://dc.lft.to/lastmile_qr_scan", "ios": "https://dc.lft.to/lastmile_qr_scan"}, "name": "17cdd5059c15c0384b9aefc870de677b", "type": "electric_scooter"}, {"fusion_lat": 0.0, "bike_id": "643d30c8bc3da42be55b450cdc118b4a", "fusion_lon": 0.0, "lon": -77.03472516666666, "lat": 38.90726383333333, "is_reserved": 0, "is_disabled": 0, "rental_uris": {"android": "https://dc.lft.to/lastmile_qr_scan", "ios": "https://dc.lft.to/lastmile_qr_scan"}, "name": "643d30c8bc3da42be55b450cdc118b4a", "type": "electric_scooter"}, {"fusion_lat": 0.0, "bike_id": "60b8fd1c89781cc3fd79888e9a05a23f", "fusion_lon": 0.0, "lon": -77.04171383333333, "lat": 38.920093666666666, "is_reserved": 0, "is_disabled": 0, "rental_uris": {"android": "https://dc.lft.to/lastmile_qr_scan", "ios": "https://dc.lft.to/lastmile_qr_scan"}, "name": "60b8fd1c89781cc3fd79888e9a05a23f", "type": "electric_scooter"}, {"fusion_lat": 0.0, "bike_id": "8aba94aaeab1243855895630f03461b9", "fusion_lon": 0.0, "lon": -77.03763583333334, "lat": 38.92554783333333, "is_reserved": 0, "is_disabled": 0, "rental_uris": {"android": "https://dc.lft.to/lastmile_qr_scan", "ios": "https://dc.lft.to/lastmile_qr_scan"}, "name": "8aba94aaeab1243855895630f03461b9", "type": "electric_scooter"}, {"fusion_lat": 0.0, "bike_id": "c479d7cc798c9b396d25e7566226007e", "fusion_lon": 0.0, "lon": -76.985243, "lat": 38.86685633333333, "is_reserved": 0, "is_disabled": 0, "rental_uris": {"android": "https://dc.lft.to/lastmile_qr_scan", "ios": "https://dc.lft.to/lastmile_qr_scan"}, "name": "c479d7cc798c9b396d25e7566226007e", "type": "electric_scooter"}, {"fusion_lat": 0.0, "bike_id": "704a38f1945e5622c5bba177c7400fb6", "fusion_lon": 0.0, "lon": -77.02415566666667, "lat": 38.957358, "is_reserved": 0, "is_disabled": 0, "rental_uris": {"android": "https://dc.lft.to/lastmile_qr_scan", "ios": "https://dc.lft.to/lastmile_qr_scan"}, "name": "704a38f1945e5622c5bba177c7400fb6", "type": "electric_bike"}, {"fusion_lat": 0.0, "bike_id": "5bec1b53c032df36bde4b6e4ac57fed2", "fusion_lon": 0.0, "lon": -77.0132795, "lat": 38.900286333333334, "is_reserved": 0, "is_disabled": 0, "rental_uris": {"android": "https://dc.lft.to/lastmile_qr_scan", "ios": "https://dc.lft.to/lastmile_qr_scan"}, "name": "5bec1b53c032df36bde4b6e4ac57fed2", "type": "electric_scooter"}, {"fusion_lat": 0.0, "bike_id": "c42f3141bbb78afe53c299f206c83080", "fusion_lon": 0.0, "lon": -77.03653866666667, "lat": 38.902815, "is_reserved": 0, "is_disabled": 0, "rental_uris": {"android": "https://dc.lft.to/lastmile_qr_scan", "ios": "https://dc.lft.to/lastmile_qr_scan"}, "name": "c42f3141bbb78afe53c299f206c83080", "type": "electric_scooter"}, {"fusion_lat": 0.0, "bike_id": "ebb1ec329374f421ecbcde7d23299dd7", "fusion_lon": 0.0, "lon": -77.02504133333333, "lat": 38.898188166666664, "is_reserved": 0, "is_disabled": 0, "rental_uris": {"android": "https://dc.lft.to/lastmile_qr_scan", "ios": "https://dc.lft.to/lastmile_qr_scan"}, "name": "ebb1ec329374f421ecbcde7d23299dd7", "type": "electric_bike"}, {"fusion_lat": 0.0, "bike_id": "c7c6b8ebb78173d94bbd608b3a2a6d12", "fusion_lon": 0.0, "lon": -77.0620765, "lat": 38.9203925, "is_reserved": 0, "is_disabled": 0, "rental_uris": {"android": "https://dc.lft.to/lastmile_qr_scan", "ios": "https://dc.lft.to/lastmile_qr_scan"}, "name": "c7c6b8ebb78173d94bbd608b3a2a6d12", "type": "electric_bike"}, {"fusion_lat": 0.0, "bike_id": "e07e3dbbc9862798695474fcef2b8eeb", "fusion_lon": 0.0, "lon": -77.03655283333333, "lat": 38.923892333333335, "is_reserved": 0, "is_disabled": 0, "rental_uris": {"android": "https://dc.lft.to/lastmile_qr_scan", "ios": "https://dc.lft.to/lastmile_qr_scan"}, "name": "e07e3dbbc9862798695474fcef2b8eeb", "type": "electric_scooter"}, {"fusion_lat": 0.0, "bike_id": "b6e2ce8d19bcbb353e050c24c05854dd", "fusion_lon": 0.0, "lon": -77.0223355, "lat": 38.9224195, "is_reserved": 0, "is_disabled": 0, "rental_uris": {"android": "https://dc.lft.to/lastmile_qr_scan", "ios": "https://dc.lft.to/lastmile_qr_scan"}, "name": "b6e2ce8d19bcbb353e050c24c05854dd", "type": "electric_scooter"}, {"fusion_lat": 0.0, "bike_id": "bf1f74e2bde0c27b8380ff16bd81d866", "fusion_lon": 0.0, "lon": -77.05040283333334, "lat": 38.92363366666667, "is_reserved": 0, "is_disabled": 0, "rental_uris": {"android": "https://dc.lft.to/lastmile_qr_scan", "ios": "https://dc.lft.to/lastmile_qr_scan"}, "name": "bf1f74e2bde0c27b8380ff16bd81d866", "type": "electric_scooter"}, {"fusion_lat": 0.0, "bike_id": "4e6bc56c2d2f0e597a213f9b668e31f6", "fusion_lon": 0.0, "lon": -77.00200016666666, "lat": 38.90242, "is_reserved": 0, "is_disabled": 0, "rental_uris": {"android": "https://dc.lft.to/lastmile_qr_scan", "ios": "https://dc.lft.to/lastmile_qr_scan"}, "name": "4e6bc56c2d2f0e597a213f9b668e31f6", "type": "electric_scooter"}, {"fusion_lat": 0.0, "bike_id": "3f1a60878b88ba05a7475cf8035395db", "fusion_lon": 0.0, "lon": -77.036642, "lat": 38.92269783333333, "is_reserved": 0, "is_disabled": 0, "rental_uris": {"android": "https://dc.lft.to/lastmile_qr_scan", "ios": "https://dc.lft.to/lastmile_qr_scan"}, "name": "3f1a60878b88ba05a7475cf8035395db", "type": "electric_scooter"}, {"fusion_lat": 0.0, "bike_id": "205356f1a350b9937a97c7f0e9c37769", "fusion_lon": 0.0, "lon": -77.0300555, "lat": 38.89601733333333, "is_reserved": 0, "is_disabled": 0, "rental_uris": {"android": "https://dc.lft.to/lastmile_qr_scan", "ios": "https://dc.lft.to/lastmile_qr_scan"}, "name": "205356f1a350b9937a97c7f0e9c37769", "type": "electric_scooter"}, {"fusion_lat": 0.0, "bike_id": "93e4afb358249ec4fee81d4193fb9793", "fusion_lon": 0.0, "lon": -77.02383116666667, "lat": 38.892353, "is_reserved": 0, "is_disabled": 0, "rental_uris": {"android": "https://dc.lft.to/lastmile_qr_scan", "ios": "https://dc.lft.to/lastmile_qr_scan"}, "name": "93e4afb358249ec4fee81d4193fb9793", "type": "electric_scooter"}, {"fusion_lat": 0.0, "bike_id": "7fa43877ffaf830d0a6985cbca33b913", "fusion_lon": 0.0, "lon": -77.00041833333333, "lat": 38.968082333333335, "is_reserved": 0, "is_disabled": 0, "rental_uris": {"android": "https://dc.lft.to/lastmile_qr_scan", "ios": "https://dc.lft.to/lastmile_qr_scan"}, "name": "7fa43877ffaf830d0a6985cbca33b913", "type": "electric_bike"}, {"fusion_lat": 0.0, "bike_id": "2b432f2815786a1025ada70b1e211e30", "fusion_lon": 0.0, "lon": -77.05684916666667, "lat": 38.86487233333333, "is_reserved": 0, "is_disabled": 0, "rental_uris": {"android": "https://dc.lft.to/lastmile_qr_scan", "ios": "https://dc.lft.to/lastmile_qr_scan"}, "name": "2b432f2815786a1025ada70b1e211e30", "type": "electric_bike"}, {"fusion_lat": 0.0, "bike_id": "5562d31d0a886741bf6dee5b3af7215b", "fusion_lon": 0.0, "lon": -77.0388, "lat": 38.929671, "is_reserved": 0, "is_disabled": 0, "rental_uris": {"android": "https://dc.lft.to/lastmile_qr_scan", "ios": "https://dc.lft.to/lastmile_qr_scan"}, "name": "5562d31d0a886741bf6dee5b3af7215b", "type": "electric_scooter"}, {"fusion_lat": 0.0, "bike_id": "4d73e21b0e5a57814198ceb4fc0cc1b8", "fusion_lon": 0.0, "lon": -77.03328, "lat": 38.901122666666666, "is_reserved": 0, "is_disabled": 0, "rental_uris": {"android": "https://dc.lft.to/lastmile_qr_scan", "ios": "https://dc.lft.to/lastmile_qr_scan"}, "name": "4d73e21b0e5a57814198ceb4fc0cc1b8", "type": "electric_scooter"}, {"fusion_lat": 0.0, "bike_id": "1ebc04dacb2f1d70576568c34888435b", "fusion_lon": 0.0, "lon": -77.03181366666666, "lat": 38.91747766666667, "is_reserved": 0, "is_disabled": 0, "rental_uris": {"android": "https://dc.lft.to/lastmile_qr_scan", "ios": "https://dc.lft.to/lastmile_qr_scan"}, "name": "1ebc04dacb2f1d70576568c34888435b", "type": "electric_scooter"}, {"fusion_lat": 0.0, "bike_id": "1c532f61ca5fdd2e06d213ee658bd396", "fusion_lon": 0.0, "lon": -77.03665683333334, "lat": 38.92131766666667, "is_reserved": 0, "is_disabled": 0, "rental_uris": {"android": "https://dc.lft.to/lastmile_qr_scan", "ios": "https://dc.lft.to/lastmile_qr_scan"}, "name": "1c532f61ca5fdd2e06d213ee658bd396", "type": "electric_scooter"}, {"fusion_lat": 0.0, "bike_id": "b0e957f7aebd3f69485b9eb96e6859a3", "fusion_lon": 0.0, "lon": -77.02653133333334, "lat": 38.92776083333333, "is_reserved": 0, "is_disabled": 0, "rental_uris": {"android": "https://dc.lft.to/lastmile_qr_scan", "ios": "https://dc.lft.to/lastmile_qr_scan"}, "name": "b0e957f7aebd3f69485b9eb96e6859a3", "type": "electric_scooter"}, {"fusion_lat": 0.0, "bike_id": "91ac787f4d895dfdfe5066b8878b57b8", "fusion_lon": 0.0, "lon": -77.02802483333333, "lat": 38.91130883333334, "is_reserved": 0, "is_disabled": 0, "rental_uris": {"android": "https://dc.lft.to/lastmile_qr_scan", "ios": "https://dc.lft.to/lastmile_qr_scan"}, "name": "91ac787f4d895dfdfe5066b8878b57b8", "type": "electric_scooter"}, {"fusion_lat": 0.0, "bike_id": "de0b13f1342968b9090dbb34bcdef5e2", "fusion_lon": 0.0, "lon": -77.01411083333333, "lat": 38.92844083333333, "is_reserved": 0, "is_disabled": 0, "rental_uris": {"android": "https://dc.lft.to/lastmile_qr_scan", "ios": "https://dc.lft.to/lastmile_qr_scan"}, "name": "de0b13f1342968b9090dbb34bcdef5e2", "type": "electric_scooter"}, {"fusion_lat": 0.0, "bike_id": "132404152ec2dcb39ccaeb06bd8df98b", "fusion_lon": 0.0, "lon": -77.0222255, "lat": 38.935514833333336, "is_reserved": 0, "is_disabled": 0, "rental_uris": {"android": "https://dc.lft.to/lastmile_qr_scan", "ios": "https://dc.lft.to/lastmile_qr_scan"}, "name": "132404152ec2dcb39ccaeb06bd8df98b", "type": "electric_scooter"}, {"fusion_lat": 0.0, "bike_id": "cd7d53dbfde4c15b680fa6b03a197e58", "fusion_lon": 0.0, "lon": -77.0088925, "lat": 38.92653083333333, "is_reserved": 0, "is_disabled": 0, "rental_uris": {"android": "https://dc.lft.to/lastmile_qr_scan", "ios": "https://dc.lft.to/lastmile_qr_scan"}, "name": "cd7d53dbfde4c15b680fa6b03a197e58", "type": "electric_scooter"}, {"fusion_lat": 0.0, "bike_id": "8c39dcb7ec435d3a50298ec6a88d66b5", "fusion_lon": 0.0, "lon": -77.0452775, "lat": 38.91327866666666, "is_reserved": 0, "is_disabled": 0, "rental_uris": {"android": "https://dc.lft.to/lastmile_qr_scan", "ios": "https://dc.lft.to/lastmile_qr_scan"}, "name": "8c39dcb7ec435d3a50298ec6a88d66b5", "type": "electric_scooter"}, {"fusion_lat": 0.0, "bike_id": "b6eba8235bef1fd2586e36eeefccdaca", "fusion_lon": 0.0, "lon": -76.982222, "lat": 38.868973, "is_reserved": 0, "is_disabled": 0, "rental_uris": {"android": "https://dc.lft.to/lastmile_qr_scan", "ios": "https://dc.lft.to/lastmile_qr_scan"}, "name": "b6eba8235bef1fd2586e36eeefccdaca", "type": "electric_scooter"}, {"fusion_lat": 0.0, "bike_id": "018437b8e97d0505316f47d15b374545", "fusion_lon": 0.0, "lon": -77.04377866666667, "lat": 38.892208833333335, "is_reserved": 0, "is_disabled": 0, "rental_uris": {"android": "https://dc.lft.to/lastmile_qr_scan", "ios": "https://dc.lft.to/lastmile_qr_scan"}, "name": "018437b8e97d0505316f47d15b374545", "type": "electric_scooter"}, {"fusion_lat": 0.0, "bike_id": "920a116e874772785274a1224790773e", "fusion_lon": 0.0, "lon": -77.0450145, "lat": 38.892226, "is_reserved": 0, "is_disabled": 0, "rental_uris": {"android": "https://dc.lft.to/lastmile_qr_scan", "ios": "https://dc.lft.to/lastmile_qr_scan"}, "name": "920a116e874772785274a1224790773e", "type": "electric_scooter"}, {"fusion_lat": 0.0, "bike_id": "568e40382a623cc77a939bad03ec39af", "fusion_lon": 0.0, "lon": -77.05006816666666, "lat": 38.900800333333336, "is_reserved": 0, "is_disabled": 0, "rental_uris": {"android": "https://dc.lft.to/lastmile_qr_scan", "ios": "https://dc.lft.to/lastmile_qr_scan"}, "name": "568e40382a623cc77a939bad03ec39af", "type": "electric_scooter"}, {"fusion_lat": 0.0, "bike_id": "e50bdf3a1863a6d953616458ddf93b9c", "fusion_lon": 0.0, "lon": -77.05497766666667, "lat": 38.9354515, "is_reserved": 0, "is_disabled": 0, "rental_uris": {"android": "https://dc.lft.to/lastmile_qr_scan", "ios": "https://dc.lft.to/lastmile_qr_scan"}, "name": "e50bdf3a1863a6d953616458ddf93b9c", "type": "electric_scooter"}, {"fusion_lat": 0.0, "bike_id": "a145284c9a95fed31a20f1eb0c0d24dc", "fusion_lon": 0.0, "lon": -77.019982, "lat": 38.88742416666667, "is_reserved": 0, "is_disabled": 0, "rental_uris": {"android": "https://dc.lft.to/lastmile_qr_scan", "ios": "https://dc.lft.to/lastmile_qr_scan"}, "name": "a145284c9a95fed31a20f1eb0c0d24dc", "type": "electric_scooter"}, {"fusion_lat": 0.0, "bike_id": "106139b9dcd5700f6520f3677512f78e", "fusion_lon": 0.0, "lon": -76.9870865, "lat": 38.86696083333333, "is_reserved": 0, "is_disabled": 0, "rental_uris": {"android": "https://dc.lft.to/lastmile_qr_scan", "ios": "https://dc.lft.to/lastmile_qr_scan"}, "name": "106139b9dcd5700f6520f3677512f78e", "type": "electric_scooter"}, {"fusion_lat": 0.0, "bike_id": "38d9ee068e3f889ce44ff387404410eb", "fusion_lon": 0.0, "lon": -76.93178933333333, "lat": 38.89886633333333, "is_reserved": 0, "is_disabled": 0, "rental_uris": {"android": "https://dc.lft.to/lastmile_qr_scan", "ios": "https://dc.lft.to/lastmile_qr_scan"}, "name": "38d9ee068e3f889ce44ff387404410eb", "type": "electric_scooter"}, {"fusion_lat": 0.0, "bike_id": "cf65c9721277728fc801e56516853d70", "fusion_lon": 0.0, "lon": -77.03252816666667, "lat": 38.933868333333336, "is_reserved": 0, "is_disabled": 0, "rental_uris": {"android": "https://dc.lft.to/lastmile_qr_scan", "ios": "https://dc.lft.to/lastmile_qr_scan"}, "name": "cf65c9721277728fc801e56516853d70", "type": "electric_scooter"}, {"fusion_lat": 0.0, "bike_id": "79be294a33cdfbf6f7041aa45cd7d3fc", "fusion_lon": 0.0, "lon": -77.02490416666667, "lat": 38.9274485, "is_reserved": 0, "is_disabled": 0, "rental_uris": {"android": "https://dc.lft.to/lastmile_qr_scan", "ios": "https://dc.lft.to/lastmile_qr_scan"}, "name": "79be294a33cdfbf6f7041aa45cd7d3fc", "type": "electric_scooter"}, {"fusion_lat": 0.0, "bike_id": "854e853be42b371336ed8e69212e5ef8", "fusion_lon": 0.0, "lon": -77.019827, "lat": 38.9602865, "is_reserved": 0, "is_disabled": 0, "rental_uris": {"android": "https://dc.lft.to/lastmile_qr_scan", "ios": "https://dc.lft.to/lastmile_qr_scan"}, "name": "854e853be42b371336ed8e69212e5ef8", "type": "electric_scooter"}, {"fusion_lat": 0.0, "bike_id": "4785b8c2dfcd9e909c50e29845527816", "fusion_lon": 0.0, "lon": -76.97421233333333, "lat": 38.93238266666667, "is_reserved": 0, "is_disabled": 0, "rental_uris": {"android": "https://dc.lft.to/lastmile_qr_scan", "ios": "https://dc.lft.to/lastmile_qr_scan"}, "name": "4785b8c2dfcd9e909c50e29845527816", "type": "electric_bike"}, {"fusion_lat": 0.0, "bike_id": "caeaa37cc52575e496c5f71386d59618", "fusion_lon": 0.0, "lon": -77.04372983333333, "lat": 38.89222633333333, "is_reserved": 0, "is_disabled": 0, "rental_uris": {"android": "https://dc.lft.to/lastmile_qr_scan", "ios": "https://dc.lft.to/lastmile_qr_scan"}, "name": "caeaa37cc52575e496c5f71386d59618", "type": "electric_scooter"}, {"fusion_lat": 0.0, "bike_id": "630f1a75d6a94ea2242567cc84942022", "fusion_lon": 0.0, "lon": -77.02145016666667, "lat": 38.89492033333333, "is_reserved": 0, "is_disabled": 0, "rental_uris": {"android": "https://dc.lft.to/lastmile_qr_scan", "ios": "https://dc.lft.to/lastmile_qr_scan"}, "name": "630f1a75d6a94ea2242567cc84942022", "type": "electric_scooter"}, {"fusion_lat": 0.0, "bike_id": "ab1c5b8367b37bd39fdf6e2f53a4ce5c", "fusion_lon": 0.0, "lon": -77.043713, "lat": 38.9111805, "is_reserved": 0, "is_disabled": 0, "rental_uris": {"android": "https://dc.lft.to/lastmile_qr_scan", "ios": "https://dc.lft.to/lastmile_qr_scan"}, "name": "ab1c5b8367b37bd39fdf6e2f53a4ce5c", "type": "electric_scooter"}, {"fusion_lat": 0.0, "bike_id": "28f991769f3610d40a6b8400cac9725f", "fusion_lon": 0.0, "lon": -77.04675916666666, "lat": 38.8955605, "is_reserved": 0, "is_disabled": 0, "rental_uris": {"android": "https://dc.lft.to/lastmile_qr_scan", "ios": "https://dc.lft.to/lastmile_qr_scan"}, "name": "28f991769f3610d40a6b8400cac9725f", "type": "electric_scooter"}, {"fusion_lat": 0.0, "bike_id": "7c2d3984d6987ead130f4c9dbae840f5", "fusion_lon": 0.0, "lon": -76.97546183333333, "lat": 38.90324283333333, "is_reserved": 0, "is_disabled": 0, "rental_uris": {"android": "https://dc.lft.to/lastmile_qr_scan", "ios": "https://dc.lft.to/lastmile_qr_scan"}, "name": "7c2d3984d6987ead130f4c9dbae840f5", "type": "electric_scooter"}, {"fusion_lat": 0.0, "bike_id": "cb41e32d4e7265429fc6157ee9985c49", "fusion_lon": 0.0, "lon": -77.021907, "lat": 38.9002135, "is_reserved": 0, "is_disabled": 0, "rental_uris": {"android": "https://dc.lft.to/lastmile_qr_scan", "ios": "https://dc.lft.to/lastmile_qr_scan"}, "name": "cb41e32d4e7265429fc6157ee9985c49", "type": "electric_scooter"}, {"fusion_lat": 0.0, "bike_id": "741ca0fa51b4907e91c082f7a223085e", "fusion_lon": 0.0, "lon": -77.02302683333333, "lat": 38.94091483333333, "is_reserved": 0, "is_disabled": 0, "rental_uris": {"android": "https://dc.lft.to/lastmile_qr_scan", "ios": "https://dc.lft.to/lastmile_qr_scan"}, "name": "741ca0fa51b4907e91c082f7a223085e", "type": "electric_scooter"}, {"fusion_lat": 0.0, "bike_id": "9e5c2c28ea9ba3805ad58af79dad7d7d", "fusion_lon": 0.0, "lon": -77.028208, "lat": 38.887414, "is_reserved": 0, "is_disabled": 0, "rental_uris": {"android": "https://dc.lft.to/lastmile_qr_scan", "ios": "https://dc.lft.to/lastmile_qr_scan"}, "name": "9e5c2c28ea9ba3805ad58af79dad7d7d", "type": "electric_scooter"}, {"fusion_lat": 0.0, "bike_id": "6240a6aa9ed2f2f033e8b43d7dff6476", "fusion_lon": 0.0, "lon": -77.0044455, "lat": 38.876585166666665, "is_reserved": 0, "is_disabled": 0, "rental_uris": {"android": "https://dc.lft.to/lastmile_qr_scan", "ios": "https://dc.lft.to/lastmile_qr_scan"}, "name": "6240a6aa9ed2f2f033e8b43d7dff6476", "type": "electric_scooter"}, {"fusion_lat": 0.0, "bike_id": "3b622e3028bd3c8311a84ebe7f0fcad9", "fusion_lon": 0.0, "lon": -76.97390416666667, "lat": 38.905581, "is_reserved": 0, "is_disabled": 0, "rental_uris": {"android": "https://dc.lft.to/lastmile_qr_scan", "ios": "https://dc.lft.to/lastmile_qr_scan"}, "name": "3b622e3028bd3c8311a84ebe7f0fcad9", "type": "electric_scooter"}, {"fusion_lat": 0.0, "bike_id": "f2016c55a69f411112209e0002347aa5", "fusion_lon": 0.0, "lon": -76.94632283333334, "lat": 38.898318333333336, "is_reserved": 0, "is_disabled": 0, "rental_uris": {"android": "https://dc.lft.to/lastmile_qr_scan", "ios": "https://dc.lft.to/lastmile_qr_scan"}, "name": "f2016c55a69f411112209e0002347aa5", "type": "electric_scooter"}, {"fusion_lat": 0.0, "bike_id": "03d8f16bd3358d625aa785e5a3e4160e", "fusion_lon": 0.0, "lon": -77.03424333333334, "lat": 38.92243833333333, "is_reserved": 0, "is_disabled": 0, "rental_uris": {"android": "https://dc.lft.to/lastmile_qr_scan", "ios": "https://dc.lft.to/lastmile_qr_scan"}, "name": "03d8f16bd3358d625aa785e5a3e4160e", "type": "electric_scooter"}, {"fusion_lat": 0.0, "bike_id": "dafa4c1449c412cebf01e08eca6bc424", "fusion_lon": 0.0, "lon": -77.03497866666666, "lat": 38.93754716666667, "is_reserved": 0, "is_disabled": 0, "rental_uris": {"android": "https://dc.lft.to/lastmile_qr_scan", "ios": "https://dc.lft.to/lastmile_qr_scan"}, "name": "dafa4c1449c412cebf01e08eca6bc424", "type": "electric_scooter"}, {"fusion_lat": 0.0, "bike_id": "d11eb2cde79b0b6cf1ec17bf2dbbd0e6", "fusion_lon": 0.0, "lon": -77.06338283333334, "lat": 38.906826833333334, "is_reserved": 0, "is_disabled": 0, "rental_uris": {"android": "https://dc.lft.to/lastmile_qr_scan", "ios": "https://dc.lft.to/lastmile_qr_scan"}, "name": "d11eb2cde79b0b6cf1ec17bf2dbbd0e6", "type": "electric_scooter"}, {"fusion_lat": 0.0, "bike_id": "55931bc525b2fa05bf0e088f163c35d9", "fusion_lon": 0.0, "lon": -77.12075233333333, "lat": 38.85409766666667, "is_reserved": 0, "is_disabled": 0, "rental_uris": {"android": "https://dc.lft.to/lastmile_qr_scan", "ios": "https://dc.lft.to/lastmile_qr_scan"}, "name": "55931bc525b2fa05bf0e088f163c35d9", "type": "electric_bike"}, {"fusion_lat": 0.0, "bike_id": "a76db5f74648f8923d2a37e60b464201", "fusion_lon": 0.0, "lon": -77.0325775, "lat": 38.91561516666667, "is_reserved": 0, "is_disabled": 0, "rental_uris": {"android": "https://dc.lft.to/lastmile_qr_scan", "ios": "https://dc.lft.to/lastmile_qr_scan"}, "name": "a76db5f74648f8923d2a37e60b464201", "type": "electric_scooter"}, {"fusion_lat": 0.0, "bike_id": "e23d1c0cc4795c4bbce1ff7ffbec556b", "fusion_lon": 0.0, "lon": -77.10535366666667, "lat": 38.8551245, "is_reserved": 0, "is_disabled": 0, "rental_uris": {"android": "https://dc.lft.to/lastmile_qr_scan", "ios": "https://dc.lft.to/lastmile_qr_scan"}, "name": "e23d1c0cc4795c4bbce1ff7ffbec556b", "type": "electric_bike"}, {"fusion_lat": 0.0, "bike_id": "09a97e1d03e90215da3d7dd7caa691fd", "fusion_lon": 0.0, "lon": -77.03244733333334, "lat": 38.9338215, "is_reserved": 0, "is_disabled": 0, "rental_uris": {"android": "https://dc.lft.to/lastmile_qr_scan", "ios": "https://dc.lft.to/lastmile_qr_scan"}, "name": "09a97e1d03e90215da3d7dd7caa691fd", "type": "electric_scooter"}, {"fusion_lat": 0.0, "bike_id": "a18fc184a61792528e9cdf1281e731fb", "fusion_lon": 0.0, "lon": -77.03183233333333, "lat": 38.920701, "is_reserved": 0, "is_disabled": 0, "rental_uris": {"android": "https://dc.lft.to/lastmile_qr_scan", "ios": "https://dc.lft.to/lastmile_qr_scan"}, "name": "a18fc184a61792528e9cdf1281e731fb", "type": "electric_scooter"}, {"fusion_lat": 0.0, "bike_id": "25ed66cf18b73336f3d4beb1e36a5258", "fusion_lon": 0.0, "lon": -77.04236266666666, "lat": 38.9126175, "is_reserved": 0, "is_disabled": 0, "rental_uris": {"android": "https://dc.lft.to/lastmile_qr_scan", "ios": "https://dc.lft.to/lastmile_qr_scan"}, "name": "25ed66cf18b73336f3d4beb1e36a5258", "type": "electric_scooter"}, {"fusion_lat": 0.0, "bike_id": "1a9cf24cd91cf9a9223e5dbd358fc55c", "fusion_lon": 0.0, "lon": -77.02052783333333, "lat": 38.90970683333333, "is_reserved": 0, "is_disabled": 0, "rental_uris": {"android": "https://dc.lft.to/lastmile_qr_scan", "ios": "https://dc.lft.to/lastmile_qr_scan"}, "name": "1a9cf24cd91cf9a9223e5dbd358fc55c", "type": "electric_scooter"}, {"fusion_lat": 0.0, "bike_id": "3c526a01815351908b07a653fe129b0b", "fusion_lon": 0.0, "lon": -77.03476933333333, "lat": 38.9023335, "is_reserved": 0, "is_disabled": 0, "rental_uris": {"android": "https://dc.lft.to/lastmile_qr_scan", "ios": "https://dc.lft.to/lastmile_qr_scan"}, "name": "3c526a01815351908b07a653fe129b0b", "type": "electric_scooter"}, {"fusion_lat": 0.0, "bike_id": "0375183b234b960143553ab8d5b16f8c", "fusion_lon": 0.0, "lon": -77.02376016666666, "lat": 38.916819833333335, "is_reserved": 0, "is_disabled": 0, "rental_uris": {"android": "https://dc.lft.to/lastmile_qr_scan", "ios": "https://dc.lft.to/lastmile_qr_scan"}, "name": "0375183b234b960143553ab8d5b16f8c", "type": "electric_scooter"}, {"fusion_lat": 0.0, "bike_id": "d6836a6803d4fdee5aa8baa7fc66809b", "fusion_lon": 0.0, "lon": -77.03443883333334, "lat": 38.90984483333333, "is_reserved": 0, "is_disabled": 0, "rental_uris": {"android": "https://dc.lft.to/lastmile_qr_scan", "ios": "https://dc.lft.to/lastmile_qr_scan"}, "name": "d6836a6803d4fdee5aa8baa7fc66809b", "type": "electric_scooter"}, {"fusion_lat": 0.0, "bike_id": "a667970bed06e7e606af1ad040cf6925", "fusion_lon": 0.0, "lon": -77.02635266666667, "lat": 38.91699783333333, "is_reserved": 0, "is_disabled": 0, "rental_uris": {"android": "https://dc.lft.to/lastmile_qr_scan", "ios": "https://dc.lft.to/lastmile_qr_scan"}, "name": "a667970bed06e7e606af1ad040cf6925", "type": "electric_scooter"}, {"fusion_lat": 0.0, "bike_id": "0f3e980763f7986da8582be58d5c2d7b", "fusion_lon": 0.0, "lon": -77.0050055, "lat": 38.912622999999996, "is_reserved": 0, "is_disabled": 0, "rental_uris": {"android": "https://dc.lft.to/lastmile_qr_scan", "ios": "https://dc.lft.to/lastmile_qr_scan"}, "name": "0f3e980763f7986da8582be58d5c2d7b", "type": "electric_scooter"}, {"fusion_lat": 0.0, "bike_id": "c7a0913a5d8b5c7b36327459a118f036", "fusion_lon": 0.0, "lon": -77.03414966666666, "lat": 38.92322083333333, "is_reserved": 0, "is_disabled": 0, "rental_uris": {"android": "https://dc.lft.to/lastmile_qr_scan", "ios": "https://dc.lft.to/lastmile_qr_scan"}, "name": "c7a0913a5d8b5c7b36327459a118f036", "type": "electric_scooter"}, {"fusion_lat": 0.0, "bike_id": "fb693848bdae1f2e769d035e7aee1982", "fusion_lon": 0.0, "lon": -77.02276566666667, "lat": 38.925276833333335, "is_reserved": 0, "is_disabled": 0, "rental_uris": {"android": "https://dc.lft.to/lastmile_qr_scan", "ios": "https://dc.lft.to/lastmile_qr_scan"}, "name": "fb693848bdae1f2e769d035e7aee1982", "type": "electric_scooter"}, {"fusion_lat": 0.0, "bike_id": "9a7db102f126ce3b1184f94d5271e414", "fusion_lon": 0.0, "lon": -77.03173466666667, "lat": 38.9210395, "is_reserved": 0, "is_disabled": 0, "rental_uris": {"android": "https://dc.lft.to/lastmile_qr_scan", "ios": "https://dc.lft.to/lastmile_qr_scan"}, "name": "9a7db102f126ce3b1184f94d5271e414", "type": "electric_scooter"}, {"fusion_lat": 0.0, "bike_id": "e7f5ecdbc31a49464d080afa4f85ee10", "fusion_lon": 0.0, "lon": -77.03063283333333, "lat": 38.880469833333336, "is_reserved": 0, "is_disabled": 0, "rental_uris": {"android": "https://dc.lft.to/lastmile_qr_scan", "ios": "https://dc.lft.to/lastmile_qr_scan"}, "name": "e7f5ecdbc31a49464d080afa4f85ee10", "type": "electric_scooter"}, {"fusion_lat": 0.0, "bike_id": "6da459d3f67452c2ab59d36c8147ed08", "fusion_lon": 0.0, "lon": -77.02216533333333, "lat": 38.892221166666666, "is_reserved": 0, "is_disabled": 0, "rental_uris": {"android": "https://dc.lft.to/lastmile_qr_scan", "ios": "https://dc.lft.to/lastmile_qr_scan"}, "name": "6da459d3f67452c2ab59d36c8147ed08", "type": "electric_scooter"}, {"fusion_lat": 0.0, "bike_id": "39ca4324a50d6a5d36bc18282419bcd8", "fusion_lon": 0.0, "lon": -77.05863333333333, "lat": 38.936067666666666, "is_reserved": 0, "is_disabled": 0, "rental_uris": {"android": "https://dc.lft.to/lastmile_qr_scan", "ios": "https://dc.lft.to/lastmile_qr_scan"}, "name": "39ca4324a50d6a5d36bc18282419bcd8", "type": "electric_scooter"}, {"fusion_lat": 0.0, "bike_id": "b5ef1a7ff86c7c2eb7d8d547113ce38d", "fusion_lon": 0.0, "lon": -77.0006085, "lat": 38.923994, "is_reserved": 0, "is_disabled": 0, "rental_uris": {"android": "https://dc.lft.to/lastmile_qr_scan", "ios": "https://dc.lft.to/lastmile_qr_scan"}, "name": "b5ef1a7ff86c7c2eb7d8d547113ce38d", "type": "electric_scooter"}, {"fusion_lat": 0.0, "bike_id": "85d0bc900b1fe6d2c0abb136f560c31c", "fusion_lon": 0.0, "lon": -77.01982266666667, "lat": 38.925497166666666, "is_reserved": 0, "is_disabled": 0, "rental_uris": {"android": "https://dc.lft.to/lastmile_qr_scan", "ios": "https://dc.lft.to/lastmile_qr_scan"}, "name": "85d0bc900b1fe6d2c0abb136f560c31c", "type": "electric_bike"}, {"fusion_lat": 0.0, "bike_id": "9a48763d366e2ffd9787dc170c52a5e6", "fusion_lon": 0.0, "lon": -76.99053966666666, "lat": 38.86382533333333, "is_reserved": 0, "is_disabled": 0, "rental_uris": {"android": "https://dc.lft.to/lastmile_qr_scan", "ios": "https://dc.lft.to/lastmile_qr_scan"}, "name": "9a48763d366e2ffd9787dc170c52a5e6", "type": "electric_scooter"}, {"fusion_lat": 0.0, "bike_id": "bb5aaac84a58f3271302e69cdfd2ba6e", "fusion_lon": 0.0, "lon": -77.04601533333333, "lat": 38.91565666666666, "is_reserved": 0, "is_disabled": 0, "rental_uris": {"android": "https://dc.lft.to/lastmile_qr_scan", "ios": "https://dc.lft.to/lastmile_qr_scan"}, "name": "bb5aaac84a58f3271302e69cdfd2ba6e", "type": "electric_scooter"}, {"fusion_lat": 0.0, "bike_id": "68b7e7815de87af7c3032121cb311a4d", "fusion_lon": 0.0, "lon": -77.017496, "lat": 38.88326583333333, "is_reserved": 0, "is_disabled": 0, "rental_uris": {"android": "https://dc.lft.to/lastmile_qr_scan", "ios": "https://dc.lft.to/lastmile_qr_scan"}, "name": "68b7e7815de87af7c3032121cb311a4d", "type": "electric_scooter"}, {"fusion_lat": 0.0, "bike_id": "c18dd455848f7aebd3b0ac6f6dfdea02", "fusion_lon": 0.0, "lon": -77.00224333333334, "lat": 38.92509, "is_reserved": 0, "is_disabled": 0, "rental_uris": {"android": "https://dc.lft.to/lastmile_qr_scan", "ios": "https://dc.lft.to/lastmile_qr_scan"}, "name": "c18dd455848f7aebd3b0ac6f6dfdea02", "type": "electric_scooter"}, {"fusion_lat": 0.0, "bike_id": "987f73de408a5a3d3188e8a507cdddf2", "fusion_lon": 0.0, "lon": -77.03254466666667, "lat": 38.921692, "is_reserved": 0, "is_disabled": 0, "rental_uris": {"android": "https://dc.lft.to/lastmile_qr_scan", "ios": "https://dc.lft.to/lastmile_qr_scan"}, "name": "987f73de408a5a3d3188e8a507cdddf2", "type": "electric_scooter"}, {"fusion_lat": 0.0, "bike_id": "884127cba2a8e2eb8772b196675d9a60", "fusion_lon": 0.0, "lon": -77.02369716666666, "lat": 38.920679166666666, "is_reserved": 0, "is_disabled": 0, "rental_uris": {"android": "https://dc.lft.to/lastmile_qr_scan", "ios": "https://dc.lft.to/lastmile_qr_scan"}, "name": "884127cba2a8e2eb8772b196675d9a60", "type": "electric_scooter"}, {"fusion_lat": 0.0, "bike_id": "8bb35a512ef0cf95aeaddd0f6452bf86", "fusion_lon": 0.0, "lon": -76.99367766666667, "lat": 38.893859666666664, "is_reserved": 0, "is_disabled": 0, "rental_uris": {"android": "https://dc.lft.to/lastmile_qr_scan", "ios": "https://dc.lft.to/lastmile_qr_scan"}, "name": "8bb35a512ef0cf95aeaddd0f6452bf86", "type": "electric_scooter"}, {"fusion_lat": 0.0, "bike_id": "aff9d03b9106ec59716155deb052f87f", "fusion_lon": 0.0, "lon": -77.045537, "lat": 38.913136, "is_reserved": 0, "is_disabled": 0, "rental_uris": {"android": "https://dc.lft.to/lastmile_qr_scan", "ios": "https://dc.lft.to/lastmile_qr_scan"}, "name": "aff9d03b9106ec59716155deb052f87f", "type": "electric_scooter"}, {"fusion_lat": 0.0, "bike_id": "a179591ed6c031349f445a8e199b7095", "fusion_lon": 0.0, "lon": -77.02063383333333, "lat": 38.908554333333335, "is_reserved": 0, "is_disabled": 0, "rental_uris": {"android": "https://dc.lft.to/lastmile_qr_scan", "ios": "https://dc.lft.to/lastmile_qr_scan"}, "name": "a179591ed6c031349f445a8e199b7095", "type": "electric_scooter"}, {"fusion_lat": 0.0, "bike_id": "e9a1181a3959c49d11c94899f5132187", "fusion_lon": 0.0, "lon": -77.04650233333334, "lat": 38.914243666666664, "is_reserved": 0, "is_disabled": 0, "rental_uris": {"android": "https://dc.lft.to/lastmile_qr_scan", "ios": "https://dc.lft.to/lastmile_qr_scan"}, "name": "e9a1181a3959c49d11c94899f5132187", "type": "electric_scooter"}, {"fusion_lat": 0.0, "bike_id": "98dd94b5f94dc96e045e6aea31ba7a94", "fusion_lon": 0.0, "lon": -76.948761, "lat": 38.894295, "is_reserved": 0, "is_disabled": 0, "rental_uris": {"android": "https://dc.lft.to/lastmile_qr_scan", "ios": "https://dc.lft.to/lastmile_qr_scan"}, "name": "98dd94b5f94dc96e045e6aea31ba7a94", "type": "electric_scooter"}, {"fusion_lat": 0.0, "bike_id": "5cf4bf1dae1a56d993d773159ae03913", "fusion_lon": 0.0, "lon": -77.03079683333333, "lat": 38.90081216666667, "is_reserved": 0, "is_disabled": 0, "rental_uris": {"android": "https://dc.lft.to/lastmile_qr_scan", "ios": "https://dc.lft.to/lastmile_qr_scan"}, "name": "5cf4bf1dae1a56d993d773159ae03913", "type": "electric_scooter"}, {"fusion_lat": 0.0, "bike_id": "7352728566b8b510763642b20bed7ff0", "fusion_lon": 0.0, "lon": -77.02766866666667, "lat": 38.89222, "is_reserved": 0, "is_disabled": 0, "rental_uris": {"android": "https://dc.lft.to/lastmile_qr_scan", "ios": "https://dc.lft.to/lastmile_qr_scan"}, "name": "7352728566b8b510763642b20bed7ff0", "type": "electric_scooter"}, {"fusion_lat": 0.0, "bike_id": "0c4615784c751438c7f40c0565290007", "fusion_lon": 0.0, "lon": -77.043571, "lat": 38.901280666666665, "is_reserved": 0, "is_disabled": 0, "rental_uris": {"android": "https://dc.lft.to/lastmile_qr_scan", "ios": "https://dc.lft.to/lastmile_qr_scan"}, "name": "0c4615784c751438c7f40c0565290007", "type": "electric_scooter"}, {"fusion_lat": 0.0, "bike_id": "6affc264a4587ed3a70beceb0e0370e3", "fusion_lon": 0.0, "lon": -77.0005125, "lat": 38.900862833333335, "is_reserved": 0, "is_disabled": 0, "rental_uris": {"android": "https://dc.lft.to/lastmile_qr_scan", "ios": "https://dc.lft.to/lastmile_qr_scan"}, "name": "6affc264a4587ed3a70beceb0e0370e3", "type": "electric_scooter"}, {"fusion_lat": 0.0, "bike_id": "9745d0ac221cb7457f9dfa84a4f32a13", "fusion_lon": 0.0, "lon": -77.0380045, "lat": 38.93022083333334, "is_reserved": 0, "is_disabled": 0, "rental_uris": {"android": "https://dc.lft.to/lastmile_qr_scan", "ios": "https://dc.lft.to/lastmile_qr_scan"}, "name": "9745d0ac221cb7457f9dfa84a4f32a13", "type": "electric_scooter"}, {"fusion_lat": 0.0, "bike_id": "caafcc111064361a6ec32bdd69dc1437", "fusion_lon": 0.0, "lon": -77.04659216666667, "lat": 38.90448683333334, "is_reserved": 0, "is_disabled": 0, "rental_uris": {"android": "https://dc.lft.to/lastmile_qr_scan", "ios": "https://dc.lft.to/lastmile_qr_scan"}, "name": "caafcc111064361a6ec32bdd69dc1437", "type": "electric_scooter"}, {"fusion_lat": 0.0, "bike_id": "c943e11c484b9f5588f412037e5a5db5", "fusion_lon": 0.0, "lon": -77.045003, "lat": 38.90377333333333, "is_reserved": 0, "is_disabled": 0, "rental_uris": {"android": "https://dc.lft.to/lastmile_qr_scan", "ios": "https://dc.lft.to/lastmile_qr_scan"}, "name": "c943e11c484b9f5588f412037e5a5db5", "type": "electric_scooter"}, {"fusion_lat": 0.0, "bike_id": "1c1bbc57c73261417b62bfbac5f69e05", "fusion_lon": 0.0, "lon": -77.02792483333333, "lat": 38.9308035, "is_reserved": 0, "is_disabled": 0, "rental_uris": {"android": "https://dc.lft.to/lastmile_qr_scan", "ios": "https://dc.lft.to/lastmile_qr_scan"}, "name": "1c1bbc57c73261417b62bfbac5f69e05", "type": "electric_scooter"}, {"fusion_lat": 0.0, "bike_id": "b1a18b425c0c184472186b0b67e34055", "fusion_lon": 0.0, "lon": -77.01040533333334, "lat": 38.89737866666667, "is_reserved": 0, "is_disabled": 0, "rental_uris": {"android": "https://dc.lft.to/lastmile_qr_scan", "ios": "https://dc.lft.to/lastmile_qr_scan"}, "name": "b1a18b425c0c184472186b0b67e34055", "type": "electric_scooter"}, {"fusion_lat": 0.0, "bike_id": "59348b722ed92067f5030cc9b3994a33", "fusion_lon": 0.0, "lon": -77.045175, "lat": 38.902301, "is_reserved": 0, "is_disabled": 0, "rental_uris": {"android": "https://dc.lft.to/lastmile_qr_scan", "ios": "https://dc.lft.to/lastmile_qr_scan"}, "name": "59348b722ed92067f5030cc9b3994a33", "type": "electric_scooter"}, {"fusion_lat": 0.0, "bike_id": "5c92f4a70cd79aa85c965c165cde8405", "fusion_lon": 0.0, "lon": -77.041603, "lat": 38.8958245, "is_reserved": 0, "is_disabled": 0, "rental_uris": {"android": "https://dc.lft.to/lastmile_qr_scan", "ios": "https://dc.lft.to/lastmile_qr_scan"}, "name": "5c92f4a70cd79aa85c965c165cde8405", "type": "electric_bike"}, {"fusion_lat": 0.0, "bike_id": "d16f4a63a1670fbbac9ee45715ebc8cb", "fusion_lon": 0.0, "lon": -77.05389516666666, "lat": 38.92762033333333, "is_reserved": 0, "is_disabled": 0, "rental_uris": {"android": "https://dc.lft.to/lastmile_qr_scan", "ios": "https://dc.lft.to/lastmile_qr_scan"}, "name": "d16f4a63a1670fbbac9ee45715ebc8cb", "type": "electric_scooter"}, {"fusion_lat": 0.0, "bike_id": "5ff6ff60311c6c0bb27d0d3c2944bef8", "fusion_lon": 0.0, "lon": -77.04117083333334, "lat": 38.90234183333333, "is_reserved": 0, "is_disabled": 0, "rental_uris": {"android": "https://dc.lft.to/lastmile_qr_scan", "ios": "https://dc.lft.to/lastmile_qr_scan"}, "name": "5ff6ff60311c6c0bb27d0d3c2944bef8", "type": "electric_scooter"}, {"fusion_lat": 0.0, "bike_id": "98945d8e3f5c0c3f32e5a24ed3c396cd", "fusion_lon": 0.0, "lon": -77.03457066666667, "lat": 38.90436783333333, "is_reserved": 0, "is_disabled": 0, "rental_uris": {"android": "https://dc.lft.to/lastmile_qr_scan", "ios": "https://dc.lft.to/lastmile_qr_scan"}, "name": "98945d8e3f5c0c3f32e5a24ed3c396cd", "type": "electric_scooter"}, {"fusion_lat": 0.0, "bike_id": "da832955ce098c533e1dd9710d504c8a", "fusion_lon": 0.0, "lon": -76.93055516666666, "lat": 38.89852416666667, "is_reserved": 0, "is_disabled": 0, "rental_uris": {"android": "https://dc.lft.to/lastmile_qr_scan", "ios": "https://dc.lft.to/lastmile_qr_scan"}, "name": "da832955ce098c533e1dd9710d504c8a", "type": "electric_scooter"}, {"fusion_lat": 0.0, "bike_id": "4aa10386e9f68a88c08cee0bf12ea394", "fusion_lon": 0.0, "lon": -77.02445933333334, "lat": 38.93747533333333, "is_reserved": 0, "is_disabled": 0, "rental_uris": {"android": "https://dc.lft.to/lastmile_qr_scan", "ios": "https://dc.lft.to/lastmile_qr_scan"}, "name": "4aa10386e9f68a88c08cee0bf12ea394", "type": "electric_scooter"}, {"fusion_lat": 0.0, "bike_id": "ea598a568b0af88258268230645549fb", "fusion_lon": 0.0, "lon": -76.98706466666667, "lat": 38.8670105, "is_reserved": 0, "is_disabled": 0, "rental_uris": {"android": "https://dc.lft.to/lastmile_qr_scan", "ios": "https://dc.lft.to/lastmile_qr_scan"}, "name": "ea598a568b0af88258268230645549fb", "type": "electric_scooter"}, {"fusion_lat": 0.0, "bike_id": "4695a32ba1f1c2cc37cf514d6a8d174e", "fusion_lon": 0.0, "lon": -76.982268, "lat": 38.8689415, "is_reserved": 0, "is_disabled": 0, "rental_uris": {"android": "https://dc.lft.to/lastmile_qr_scan", "ios": "https://dc.lft.to/lastmile_qr_scan"}, "name": "4695a32ba1f1c2cc37cf514d6a8d174e", "type": "electric_scooter"}, {"fusion_lat": 0.0, "bike_id": "0f671f3cc9afe039d82708f023b466e3", "fusion_lon": 0.0, "lon": -77.03269866666666, "lat": 38.91998433333333, "is_reserved": 0, "is_disabled": 0, "rental_uris": {"android": "https://dc.lft.to/lastmile_qr_scan", "ios": "https://dc.lft.to/lastmile_qr_scan"}, "name": "0f671f3cc9afe039d82708f023b466e3", "type": "electric_scooter"}, {"fusion_lat": 0.0, "bike_id": "0b6e689b716967d0c0c1db3e97f3ae20", "fusion_lon": 0.0, "lon": -76.99931483333333, "lat": 38.843144333333335, "is_reserved": 0, "is_disabled": 0, "rental_uris": {"android": "https://dc.lft.to/lastmile_qr_scan", "ios": "https://dc.lft.to/lastmile_qr_scan"}, "name": "0b6e689b716967d0c0c1db3e97f3ae20", "type": "electric_scooter"}, {"fusion_lat": 0.0, "bike_id": "3ea7743bc6e2c26bf5d001c5e149180b", "fusion_lon": 0.0, "lon": -77.04864666666667, "lat": 38.8922195, "is_reserved": 0, "is_disabled": 0, "rental_uris": {"android": "https://dc.lft.to/lastmile_qr_scan", "ios": "https://dc.lft.to/lastmile_qr_scan"}, "name": "3ea7743bc6e2c26bf5d001c5e149180b", "type": "electric_scooter"}, {"fusion_lat": 0.0, "bike_id": "845138c1bc6acaf1feb93e2eeaa9a9f7", "fusion_lon": 0.0, "lon": -77.1144715, "lat": 38.88198666666667, "is_reserved": 0, "is_disabled": 0, "rental_uris": {"android": "https://dc.lft.to/lastmile_qr_scan", "ios": "https://dc.lft.to/lastmile_qr_scan"}, "name": "845138c1bc6acaf1feb93e2eeaa9a9f7", "type": "electric_bike"}, {"fusion_lat": 0.0, "bike_id": "2a0dffbb94d0679f9f999316ec10f777", "fusion_lon": 0.0, "lon": -77.0205495, "lat": 38.957563, "is_reserved": 0, "is_disabled": 0, "rental_uris": {"android": "https://dc.lft.to/lastmile_qr_scan", "ios": "https://dc.lft.to/lastmile_qr_scan"}, "name": "2a0dffbb94d0679f9f999316ec10f777", "type": "electric_bike"}, {"fusion_lat": 0.0, "bike_id": "1710901fd783ef689bfce2f7a824f483", "fusion_lon": 0.0, "lon": -77.04173533333334, "lat": 38.9154825, "is_reserved": 0, "is_disabled": 0, "rental_uris": {"android": "https://dc.lft.to/lastmile_qr_scan", "ios": "https://dc.lft.to/lastmile_qr_scan"}, "name": "1710901fd783ef689bfce2f7a824f483", "type": "electric_scooter"}, {"fusion_lat": 0.0, "bike_id": "be71ef35a3572ef14c560d5b8fdb7542", "fusion_lon": 0.0, "lon": -77.0328245, "lat": 38.9288515, "is_reserved": 0, "is_disabled": 0, "rental_uris": {"android": "https://dc.lft.to/lastmile_qr_scan", "ios": "https://dc.lft.to/lastmile_qr_scan"}, "name": "be71ef35a3572ef14c560d5b8fdb7542", "type": "electric_scooter"}, {"fusion_lat": 0.0, "bike_id": "428af9c8ff108abe8529d30a41608c49", "fusion_lon": 0.0, "lon": -77.0166055, "lat": 38.8812665, "is_reserved": 0, "is_disabled": 0, "rental_uris": {"android": "https://dc.lft.to/lastmile_qr_scan", "ios": "https://dc.lft.to/lastmile_qr_scan"}, "name": "428af9c8ff108abe8529d30a41608c49", "type": "electric_bike"}, {"fusion_lat": 0.0, "bike_id": "ec438e7496e11c8685fa0bbcf4f02522", "fusion_lon": 0.0, "lon": -77.1034995, "lat": 38.8855475, "is_reserved": 0, "is_disabled": 0, "rental_uris": {"android": "https://dc.lft.to/lastmile_qr_scan", "ios": "https://dc.lft.to/lastmile_qr_scan"}, "name": "ec438e7496e11c8685fa0bbcf4f02522", "type": "electric_bike"}, {"fusion_lat": 0.0, "bike_id": "1b92353430217b55e020706f84699be6", "fusion_lon": 0.0, "lon": -77.05585, "lat": 38.900073666666664, "is_reserved": 0, "is_disabled": 0, "rental_uris": {"android": "https://dc.lft.to/lastmile_qr_scan", "ios": "https://dc.lft.to/lastmile_qr_scan"}, "name": "1b92353430217b55e020706f84699be6", "type": "electric_scooter"}, {"fusion_lat": 0.0, "bike_id": "6b0773f5333685119484c9e47e86367a", "fusion_lon": 0.0, "lon": -77.078491, "lat": 38.91953266666667, "is_reserved": 0, "is_disabled": 0, "rental_uris": {"android": "https://dc.lft.to/lastmile_qr_scan", "ios": "https://dc.lft.to/lastmile_qr_scan"}, "name": "6b0773f5333685119484c9e47e86367a", "type": "electric_bike"}, {"fusion_lat": 0.0, "bike_id": "ff27f64e1a162db93aa9f23b99bed693", "fusion_lon": 0.0, "lon": -77.023995, "lat": 38.89191116666667, "is_reserved": 0, "is_disabled": 0, "rental_uris": {"android": "https://dc.lft.to/lastmile_qr_scan", "ios": "https://dc.lft.to/lastmile_qr_scan"}, "name": "ff27f64e1a162db93aa9f23b99bed693", "type": "electric_scooter"}, {"fusion_lat": 0.0, "bike_id": "af40ef3b2de1d9351e9e3a1a00559d3e", "fusion_lon": 0.0, "lon": -77.0391915, "lat": 38.91839866666667, "is_reserved": 0, "is_disabled": 0, "rental_uris": {"android": "https://dc.lft.to/lastmile_qr_scan", "ios": "https://dc.lft.to/lastmile_qr_scan"}, "name": "af40ef3b2de1d9351e9e3a1a00559d3e", "type": "electric_scooter"}, {"fusion_lat": 0.0, "bike_id": "ac9997965fd8cd9aa0e59b0b966f0429", "fusion_lon": 0.0, "lon": -77.00205166666667, "lat": 38.902293666666665, "is_reserved": 0, "is_disabled": 0, "rental_uris": {"android": "https://dc.lft.to/lastmile_qr_scan", "ios": "https://dc.lft.to/lastmile_qr_scan"}, "name": "ac9997965fd8cd9aa0e59b0b966f0429", "type": "electric_scooter"}, {"fusion_lat": 0.0, "bike_id": "b6909acd5fe5b78800fd7cd226ec4c3d", "fusion_lon": 0.0, "lon": -77.04459983333334, "lat": 38.8960925, "is_reserved": 0, "is_disabled": 0, "rental_uris": {"android": "https://dc.lft.to/lastmile_qr_scan", "ios": "https://dc.lft.to/lastmile_qr_scan"}, "name": "b6909acd5fe5b78800fd7cd226ec4c3d", "type": "electric_scooter"}, {"fusion_lat": 0.0, "bike_id": "aaa35d274aea94a35e92f54c2369fdb1", "fusion_lon": 0.0, "lon": -77.00194816666666, "lat": 38.900376, "is_reserved": 0, "is_disabled": 0, "rental_uris": {"android": "https://dc.lft.to/lastmile_qr_scan", "ios": "https://dc.lft.to/lastmile_qr_scan"}, "name": "aaa35d274aea94a35e92f54c2369fdb1", "type": "electric_scooter"}, {"fusion_lat": 0.0, "bike_id": "fafea3701deb585b5852229bc374f4e5", "fusion_lon": 0.0, "lon": -77.03260733333333, "lat": 38.9310525, "is_reserved": 0, "is_disabled": 0, "rental_uris": {"android": "https://dc.lft.to/lastmile_qr_scan", "ios": "https://dc.lft.to/lastmile_qr_scan"}, "name": "fafea3701deb585b5852229bc374f4e5", "type": "electric_scooter"}, {"fusion_lat": 0.0, "bike_id": "89f9046201ce395dac6e694fcb4dc00e", "fusion_lon": 0.0, "lon": -77.0185505, "lat": 38.91495316666666, "is_reserved": 0, "is_disabled": 0, "rental_uris": {"android": "https://dc.lft.to/lastmile_qr_scan", "ios": "https://dc.lft.to/lastmile_qr_scan"}, "name": "89f9046201ce395dac6e694fcb4dc00e", "type": "electric_scooter"}, {"fusion_lat": 0.0, "bike_id": "3c4a3dc8ad3ec0a9a9d617ff42f5c4e3", "fusion_lon": 0.0, "lon": -76.99473683333333, "lat": 38.86212616666667, "is_reserved": 0, "is_disabled": 0, "rental_uris": {"android": "https://dc.lft.to/lastmile_qr_scan", "ios": "https://dc.lft.to/lastmile_qr_scan"}, "name": "3c4a3dc8ad3ec0a9a9d617ff42f5c4e3", "type": "electric_scooter"}, {"fusion_lat": 0.0, "bike_id": "7ed6b459a752fc28f83f4aa8ec96f60d", "fusion_lon": 0.0, "lon": -77.07093566666667, "lat": 38.91970116666667, "is_reserved": 0, "is_disabled": 0, "rental_uris": {"android": "https://dc.lft.to/lastmile_qr_scan", "ios": "https://dc.lft.to/lastmile_qr_scan"}, "name": "7ed6b459a752fc28f83f4aa8ec96f60d", "type": "electric_scooter"}, {"fusion_lat": 0.0, "bike_id": "8d00a91bfa6d7ed9a597139448c515c5", "fusion_lon": 0.0, "lon": -77.042837, "lat": 38.91116566666667, "is_reserved": 0, "is_disabled": 0, "rental_uris": {"android": "https://dc.lft.to/lastmile_qr_scan", "ios": "https://dc.lft.to/lastmile_qr_scan"}, "name": "8d00a91bfa6d7ed9a597139448c515c5", "type": "electric_scooter"}, {"fusion_lat": 0.0, "bike_id": "4fa8c4c8563a551b20481d8bd0ae3447", "fusion_lon": 0.0, "lon": -77.04783666666667, "lat": 38.904943833333334, "is_reserved": 0, "is_disabled": 0, "rental_uris": {"android": "https://dc.lft.to/lastmile_qr_scan", "ios": "https://dc.lft.to/lastmile_qr_scan"}, "name": "4fa8c4c8563a551b20481d8bd0ae3447", "type": "electric_scooter"}, {"fusion_lat": 0.0, "bike_id": "91939227f9c2d8da59370219576a5d86", "fusion_lon": 0.0, "lon": -77.03323766666666, "lat": 38.9471545, "is_reserved": 0, "is_disabled": 0, "rental_uris": {"android": "https://dc.lft.to/lastmile_qr_scan", "ios": "https://dc.lft.to/lastmile_qr_scan"}, "name": "91939227f9c2d8da59370219576a5d86", "type": "electric_scooter"}, {"fusion_lat": 0.0, "bike_id": "4729f73572268837e41ceea19745c190", "fusion_lon": 0.0, "lon": -76.99866766666666, "lat": 38.900197666666664, "is_reserved": 0, "is_disabled": 0, "rental_uris": {"android": "https://dc.lft.to/lastmile_qr_scan", "ios": "https://dc.lft.to/lastmile_qr_scan"}, "name": "4729f73572268837e41ceea19745c190", "type": "electric_scooter"}, {"fusion_lat": 0.0, "bike_id": "c0fab7e9f3a5b7373f0fd534f7144ae7", "fusion_lon": 0.0, "lon": -76.9861765, "lat": 38.93827316666667, "is_reserved": 0, "is_disabled": 0, "rental_uris": {"android": "https://dc.lft.to/lastmile_qr_scan", "ios": "https://dc.lft.to/lastmile_qr_scan"}, "name": "c0fab7e9f3a5b7373f0fd534f7144ae7", "type": "electric_scooter"}, {"fusion_lat": 0.0, "bike_id": "e96919bf19249814054fb31ea26ed7db", "fusion_lon": 0.0, "lon": -77.0198585, "lat": 38.904064166666664, "is_reserved": 0, "is_disabled": 0, "rental_uris": {"android": "https://dc.lft.to/lastmile_qr_scan", "ios": "https://dc.lft.to/lastmile_qr_scan"}, "name": "e96919bf19249814054fb31ea26ed7db", "type": "electric_scooter"}, {"fusion_lat": 0.0, "bike_id": "831cb9bb1957140ce40b6dc917e022d5", "fusion_lon": 0.0, "lon": -77.032942, "lat": 38.925512166666664, "is_reserved": 0, "is_disabled": 0, "rental_uris": {"android": "https://dc.lft.to/lastmile_qr_scan", "ios": "https://dc.lft.to/lastmile_qr_scan"}, "name": "831cb9bb1957140ce40b6dc917e022d5", "type": "electric_scooter"}, {"fusion_lat": 0.0, "bike_id": "b51cbef4eb880c5af75ae29c961d8f6e", "fusion_lon": 0.0, "lon": -77.047678, "lat": 38.92145766666667, "is_reserved": 0, "is_disabled": 0, "rental_uris": {"android": "https://dc.lft.to/lastmile_qr_scan", "ios": "https://dc.lft.to/lastmile_qr_scan"}, "name": "b51cbef4eb880c5af75ae29c961d8f6e", "type": "electric_scooter"}, {"fusion_lat": 0.0, "bike_id": "e6b9f0e174ef1cff74a8d800314a0727", "fusion_lon": 0.0, "lon": -77.006763, "lat": 38.8998705, "is_reserved": 0, "is_disabled": 0, "rental_uris": {"android": "https://dc.lft.to/lastmile_qr_scan", "ios": "https://dc.lft.to/lastmile_qr_scan"}, "name": "e6b9f0e174ef1cff74a8d800314a0727", "type": "electric_scooter"}, {"fusion_lat": 0.0, "bike_id": "5e72bf899f2368aa4d9f10624bdbfe63", "fusion_lon": 0.0, "lon": -77.04156566666667, "lat": 38.91346733333334, "is_reserved": 0, "is_disabled": 0, "rental_uris": {"android": "https://dc.lft.to/lastmile_qr_scan", "ios": "https://dc.lft.to/lastmile_qr_scan"}, "name": "5e72bf899f2368aa4d9f10624bdbfe63", "type": "electric_scooter"}, {"fusion_lat": 0.0, "bike_id": "14518edf3af8da9399561446bde86117", "fusion_lon": 0.0, "lon": -77.02462416666667, "lat": 38.94200933333333, "is_reserved": 0, "is_disabled": 0, "rental_uris": {"android": "https://dc.lft.to/lastmile_qr_scan", "ios": "https://dc.lft.to/lastmile_qr_scan"}, "name": "14518edf3af8da9399561446bde86117", "type": "electric_scooter"}, {"fusion_lat": 0.0, "bike_id": "3e29cc68d0fb61a6a9cabe0b16033280", "fusion_lon": 0.0, "lon": -77.039181, "lat": 38.9183755, "is_reserved": 0, "is_disabled": 0, "rental_uris": {"android": "https://dc.lft.to/lastmile_qr_scan", "ios": "https://dc.lft.to/lastmile_qr_scan"}, "name": "3e29cc68d0fb61a6a9cabe0b16033280", "type": "electric_scooter"}, {"fusion_lat": 0.0, "bike_id": "638d351a623ad0579a8ab3facd724fe1", "fusion_lon": 0.0, "lon": -76.99651216666666, "lat": 38.89676816666667, "is_reserved": 0, "is_disabled": 0, "rental_uris": {"android": "https://dc.lft.to/lastmile_qr_scan", "ios": "https://dc.lft.to/lastmile_qr_scan"}, "name": "638d351a623ad0579a8ab3facd724fe1", "type": "electric_scooter"}, {"fusion_lat": 0.0, "bike_id": "f188a0ee60fbd75c1f6fbf6655eb3c78", "fusion_lon": 0.0, "lon": -77.00132, "lat": 38.89471733333333, "is_reserved": 0, "is_disabled": 0, "rental_uris": {"android": "https://dc.lft.to/lastmile_qr_scan", "ios": "https://dc.lft.to/lastmile_qr_scan"}, "name": "f188a0ee60fbd75c1f6fbf6655eb3c78", "type": "electric_scooter"}, {"fusion_lat": 0.0, "bike_id": "3fa9c11358102ee578321bda70315781", "fusion_lon": 0.0, "lon": -76.96256383333333, "lat": 38.882465833333335, "is_reserved": 0, "is_disabled": 0, "rental_uris": {"android": "https://dc.lft.to/lastmile_qr_scan", "ios": "https://dc.lft.to/lastmile_qr_scan"}, "name": "3fa9c11358102ee578321bda70315781", "type": "electric_bike"}, {"fusion_lat": 0.0, "bike_id": "bd15b5e6a0bfe3ce641b3db59a0100bc", "fusion_lon": 0.0, "lon": -76.973321, "lat": 38.904121833333335, "is_reserved": 0, "is_disabled": 0, "rental_uris": {"android": "https://dc.lft.to/lastmile_qr_scan", "ios": "https://dc.lft.to/lastmile_qr_scan"}, "name": "bd15b5e6a0bfe3ce641b3db59a0100bc", "type": "electric_scooter"}, {"fusion_lat": 0.0, "bike_id": "8e5b0661d89391925e367c02dff426e9", "fusion_lon": 0.0, "lon": -77.018627, "lat": 38.89940716666667, "is_reserved": 0, "is_disabled": 0, "rental_uris": {"android": "https://dc.lft.to/lastmile_qr_scan", "ios": "https://dc.lft.to/lastmile_qr_scan"}, "name": "8e5b0661d89391925e367c02dff426e9", "type": "electric_bike"}, {"fusion_lat": 0.0, "bike_id": "174aecf148342f8fde1ef2e39421982f", "fusion_lon": 0.0, "lon": -76.98506416666666, "lat": 38.86014133333333, "is_reserved": 0, "is_disabled": 0, "rental_uris": {"android": "https://dc.lft.to/lastmile_qr_scan", "ios": "https://dc.lft.to/lastmile_qr_scan"}, "name": "174aecf148342f8fde1ef2e39421982f", "type": "electric_scooter"}, {"fusion_lat": 0.0, "bike_id": "9814ae5480f33f636ac9ead8f02df028", "fusion_lon": 0.0, "lon": -77.01897266666667, "lat": 38.93305183333333, "is_reserved": 0, "is_disabled": 0, "rental_uris": {"android": "https://dc.lft.to/lastmile_qr_scan", "ios": "https://dc.lft.to/lastmile_qr_scan"}, "name": "9814ae5480f33f636ac9ead8f02df028", "type": "electric_scooter"}, {"fusion_lat": 0.0, "bike_id": "b085bbb025b9126e05d32f3bc58da36d", "fusion_lon": 0.0, "lon": -77.02181433333334, "lat": 38.920857, "is_reserved": 0, "is_disabled": 0, "rental_uris": {"android": "https://dc.lft.to/lastmile_qr_scan", "ios": "https://dc.lft.to/lastmile_qr_scan"}, "name": "b085bbb025b9126e05d32f3bc58da36d", "type": "electric_scooter"}, {"fusion_lat": 0.0, "bike_id": "bd636b70dd9da51a8f8d10d9f5158c9f", "fusion_lon": 0.0, "lon": -76.93060516666667, "lat": 38.901565, "is_reserved": 0, "is_disabled": 0, "rental_uris": {"android": "https://dc.lft.to/lastmile_qr_scan", "ios": "https://dc.lft.to/lastmile_qr_scan"}, "name": "bd636b70dd9da51a8f8d10d9f5158c9f", "type": "electric_scooter"}, {"fusion_lat": 0.0, "bike_id": "92db218eaa3fef0995e5b39692ef9aea", "fusion_lon": 0.0, "lon": -76.97224366666667, "lat": 38.900314, "is_reserved": 0, "is_disabled": 0, "rental_uris": {"android": "https://dc.lft.to/lastmile_qr_scan", "ios": "https://dc.lft.to/lastmile_qr_scan"}, "name": "92db218eaa3fef0995e5b39692ef9aea", "type": "electric_bike"}, {"fusion_lat": 0.0, "bike_id": "9820b8c39db328cdd42af23b35aec576", "fusion_lon": 0.0, "lon": -77.0297175, "lat": 38.91682483333334, "is_reserved": 0, "is_disabled": 0, "rental_uris": {"android": "https://dc.lft.to/lastmile_qr_scan", "ios": "https://dc.lft.to/lastmile_qr_scan"}, "name": "9820b8c39db328cdd42af23b35aec576", "type": "electric_scooter"}, {"fusion_lat": 0.0, "bike_id": "cf1f71757cb179a94e9291a93edc196e", "fusion_lon": 0.0, "lon": -77.03584983333333, "lat": 38.992282833333334, "is_reserved": 0, "is_disabled": 0, "rental_uris": {"android": "https://dc.lft.to/lastmile_qr_scan", "ios": "https://dc.lft.to/lastmile_qr_scan"}, "name": "cf1f71757cb179a94e9291a93edc196e", "type": "electric_scooter"}, {"fusion_lat": 0.0, "bike_id": "556bd6b0c73023da51d0a96e72e00ebd", "fusion_lon": 0.0, "lon": -77.0328995, "lat": 38.909664, "is_reserved": 0, "is_disabled": 0, "rental_uris": {"android": "https://dc.lft.to/lastmile_qr_scan", "ios": "https://dc.lft.to/lastmile_qr_scan"}, "name": "556bd6b0c73023da51d0a96e72e00ebd", "type": "electric_scooter"}, {"fusion_lat": 0.0, "bike_id": "f1fa31fb33fe3d03905b74d6fb7c8004", "fusion_lon": 0.0, "lon": -76.97824416666667, "lat": 38.84371333333333, "is_reserved": 0, "is_disabled": 0, "rental_uris": {"android": "https://dc.lft.to/lastmile_qr_scan", "ios": "https://dc.lft.to/lastmile_qr_scan"}, "name": "f1fa31fb33fe3d03905b74d6fb7c8004", "type": "electric_bike"}, {"fusion_lat": 0.0, "bike_id": "05c6e04132c957f26d29c684ec13adcb", "fusion_lon": 0.0, "lon": -77.0318465, "lat": 38.9087015, "is_reserved": 0, "is_disabled": 0, "rental_uris": {"android": "https://dc.lft.to/lastmile_qr_scan", "ios": "https://dc.lft.to/lastmile_qr_scan"}, "name": "05c6e04132c957f26d29c684ec13adcb", "type": "electric_scooter"}, {"fusion_lat": 0.0, "bike_id": "0dd92f1004fb9c2a5b474fff27b5f536", "fusion_lon": 0.0, "lon": -77.034659, "lat": 38.92636233333333, "is_reserved": 0, "is_disabled": 0, "rental_uris": {"android": "https://dc.lft.to/lastmile_qr_scan", "ios": "https://dc.lft.to/lastmile_qr_scan"}, "name": "0dd92f1004fb9c2a5b474fff27b5f536", "type": "electric_scooter"}, {"fusion_lat": 0.0, "bike_id": "e3f90064f08e60567f411095288a8860", "fusion_lon": 0.0, "lon": -77.08331283333334, "lat": 38.85440916666667, "is_reserved": 0, "is_disabled": 0, "rental_uris": {"android": "https://dc.lft.to/lastmile_qr_scan", "ios": "https://dc.lft.to/lastmile_qr_scan"}, "name": "e3f90064f08e60567f411095288a8860", "type": "electric_bike"}, {"fusion_lat": 0.0, "bike_id": "2cc3473fe2d547e9a99c649c7a8a8b9a", "fusion_lon": 0.0, "lon": -77.03242216666666, "lat": 38.929141333333334, "is_reserved": 0, "is_disabled": 0, "rental_uris": {"android": "https://dc.lft.to/lastmile_qr_scan", "ios": "https://dc.lft.to/lastmile_qr_scan"}, "name": "2cc3473fe2d547e9a99c649c7a8a8b9a", "type": "electric_scooter"}, {"fusion_lat": 0.0, "bike_id": "403e246ed77bf0414b31f9f42d256611", "fusion_lon": 0.0, "lon": -77.0061115, "lat": 38.89476783333333, "is_reserved": 0, "is_disabled": 0, "rental_uris": {"android": "https://dc.lft.to/lastmile_qr_scan", "ios": "https://dc.lft.to/lastmile_qr_scan"}, "name": "403e246ed77bf0414b31f9f42d256611", "type": "electric_scooter"}, {"fusion_lat": 0.0, "bike_id": "68a9350c29262625a3356b076b3f9388", "fusion_lon": 0.0, "lon": -77.0435565, "lat": 38.90155983333333, "is_reserved": 0, "is_disabled": 0, "rental_uris": {"android": "https://dc.lft.to/lastmile_qr_scan", "ios": "https://dc.lft.to/lastmile_qr_scan"}, "name": "68a9350c29262625a3356b076b3f9388", "type": "electric_scooter"}, {"fusion_lat": 0.0, "bike_id": "9edd90407daa15ddba9409ecda2e075e", "fusion_lon": 0.0, "lon": -77.037659, "lat": 38.916933666666665, "is_reserved": 0, "is_disabled": 0, "rental_uris": {"android": "https://dc.lft.to/lastmile_qr_scan", "ios": "https://dc.lft.to/lastmile_qr_scan"}, "name": "9edd90407daa15ddba9409ecda2e075e", "type": "electric_scooter"}, {"fusion_lat": 0.0, "bike_id": "af860bb42bf3dfc8cd3ef817937c3170", "fusion_lon": 0.0, "lon": -77.0383355, "lat": 38.90402816666667, "is_reserved": 0, "is_disabled": 0, "rental_uris": {"android": "https://dc.lft.to/lastmile_qr_scan", "ios": "https://dc.lft.to/lastmile_qr_scan"}, "name": "af860bb42bf3dfc8cd3ef817937c3170", "type": "electric_scooter"}, {"fusion_lat": 0.0, "bike_id": "56e90da2de6d63ba373aa88f5dc068ee", "fusion_lon": 0.0, "lon": -77.03971866666667, "lat": 38.90268483333333, "is_reserved": 0, "is_disabled": 0, "rental_uris": {"android": "https://dc.lft.to/lastmile_qr_scan", "ios": "https://dc.lft.to/lastmile_qr_scan"}, "name": "56e90da2de6d63ba373aa88f5dc068ee", "type": "electric_scooter"}, {"fusion_lat": 0.0, "bike_id": "b475b8d5a32276460892b8f62598e60d", "fusion_lon": 0.0, "lon": -77.01104066666667, "lat": 38.89480533333333, "is_reserved": 0, "is_disabled": 0, "rental_uris": {"android": "https://dc.lft.to/lastmile_qr_scan", "ios": "https://dc.lft.to/lastmile_qr_scan"}, "name": "b475b8d5a32276460892b8f62598e60d", "type": "electric_scooter"}, {"fusion_lat": 0.0, "bike_id": "0833c463f4d1c458e81512ef3a1d6993", "fusion_lon": 0.0, "lon": -76.99870566666667, "lat": 38.90756233333333, "is_reserved": 0, "is_disabled": 0, "rental_uris": {"android": "https://dc.lft.to/lastmile_qr_scan", "ios": "https://dc.lft.to/lastmile_qr_scan"}, "name": "0833c463f4d1c458e81512ef3a1d6993", "type": "electric_scooter"}, {"fusion_lat": 0.0, "bike_id": "0b5477de3d2da5553150682b61907b6f", "fusion_lon": 0.0, "lon": -77.03207183333333, "lat": 38.91389, "is_reserved": 0, "is_disabled": 0, "rental_uris": {"android": "https://dc.lft.to/lastmile_qr_scan", "ios": "https://dc.lft.to/lastmile_qr_scan"}, "name": "0b5477de3d2da5553150682b61907b6f", "type": "electric_scooter"}, {"fusion_lat": 0.0, "bike_id": "84e6e05641296635be41a8543e9f808f", "fusion_lon": 0.0, "lon": -77.04372483333333, "lat": 38.89223833333333, "is_reserved": 0, "is_disabled": 0, "rental_uris": {"android": "https://dc.lft.to/lastmile_qr_scan", "ios": "https://dc.lft.to/lastmile_qr_scan"}, "name": "84e6e05641296635be41a8543e9f808f", "type": "electric_scooter"}, {"fusion_lat": 0.0, "bike_id": "54fb0fffedc590664366ec3243994a48", "fusion_lon": 0.0, "lon": -76.93729883333333, "lat": 38.890151333333336, "is_reserved": 0, "is_disabled": 0, "rental_uris": {"android": "https://dc.lft.to/lastmile_qr_scan", "ios": "https://dc.lft.to/lastmile_qr_scan"}, "name": "54fb0fffedc590664366ec3243994a48", "type": "electric_scooter"}, {"fusion_lat": 0.0, "bike_id": "d9c64564ea417a3774ed40adf48f421d", "fusion_lon": 0.0, "lon": -77.02615066666667, "lat": 38.89910416666667, "is_reserved": 0, "is_disabled": 0, "rental_uris": {"android": "https://dc.lft.to/lastmile_qr_scan", "ios": "https://dc.lft.to/lastmile_qr_scan"}, "name": "d9c64564ea417a3774ed40adf48f421d", "type": "electric_scooter"}, {"fusion_lat": 0.0, "bike_id": "3d5065423a6acc04e6f022547f5d0c8d", "fusion_lon": 0.0, "lon": -77.02560533333333, "lat": 38.90338, "is_reserved": 0, "is_disabled": 0, "rental_uris": {"android": "https://dc.lft.to/lastmile_qr_scan", "ios": "https://dc.lft.to/lastmile_qr_scan"}, "name": "3d5065423a6acc04e6f022547f5d0c8d", "type": "electric_scooter"}, {"fusion_lat": 0.0, "bike_id": "11f59ac4591c0dde2bef4b2be6056e91", "fusion_lon": 0.0, "lon": -76.99011383333334, "lat": 38.88267416666667, "is_reserved": 0, "is_disabled": 0, "rental_uris": {"android": "https://dc.lft.to/lastmile_qr_scan", "ios": "https://dc.lft.to/lastmile_qr_scan"}, "name": "11f59ac4591c0dde2bef4b2be6056e91", "type": "electric_scooter"}, {"fusion_lat": 0.0, "bike_id": "e08753e6fcdf013ec2804b831f4596ce", "fusion_lon": 0.0, "lon": -77.03163933333333, "lat": 38.892218166666666, "is_reserved": 0, "is_disabled": 0, "rental_uris": {"android": "https://dc.lft.to/lastmile_qr_scan", "ios": "https://dc.lft.to/lastmile_qr_scan"}, "name": "e08753e6fcdf013ec2804b831f4596ce", "type": "electric_scooter"}, {"fusion_lat": 0.0, "bike_id": "afc633e98be2a11ed51e414c30bdca6a", "fusion_lon": 0.0, "lon": -77.12527183333333, "lat": 39.05632933333333, "is_reserved": 0, "is_disabled": 0, "rental_uris": {"android": "https://dc.lft.to/lastmile_qr_scan", "ios": "https://dc.lft.to/lastmile_qr_scan"}, "name": "afc633e98be2a11ed51e414c30bdca6a", "type": "electric_bike"}, {"fusion_lat": 0.0, "bike_id": "bbdd2d5f308dbd79c61f6911c546ec49", "fusion_lon": 0.0, "lon": -77.024838, "lat": 38.916995, "is_reserved": 0, "is_disabled": 0, "rental_uris": {"android": "https://dc.lft.to/lastmile_qr_scan", "ios": "https://dc.lft.to/lastmile_qr_scan"}, "name": "bbdd2d5f308dbd79c61f6911c546ec49", "type": "electric_scooter"}, {"fusion_lat": 0.0, "bike_id": "80dd3eb54dfbf707024e6fbfb59dc8cd", "fusion_lon": 0.0, "lon": -76.999321, "lat": 38.843141333333335, "is_reserved": 0, "is_disabled": 0, "rental_uris": {"android": "https://dc.lft.to/lastmile_qr_scan", "ios": "https://dc.lft.to/lastmile_qr_scan"}, "name": "80dd3eb54dfbf707024e6fbfb59dc8cd", "type": "electric_scooter"}, {"fusion_lat": 0.0, "bike_id": "160b7f2bec5c82c5d644977f54ad8d35", "fusion_lon": 0.0, "lon": -77.028438, "lat": 38.93417866666667, "is_reserved": 0, "is_disabled": 0, "rental_uris": {"android": "https://dc.lft.to/lastmile_qr_scan", "ios": "https://dc.lft.to/lastmile_qr_scan"}, "name": "160b7f2bec5c82c5d644977f54ad8d35", "type": "electric_scooter"}, {"fusion_lat": 0.0, "bike_id": "9d4a393d230483b3c1538df57515ec57", "fusion_lon": 0.0, "lon": -77.03466033333333, "lat": 38.902794, "is_reserved": 0, "is_disabled": 0, "rental_uris": {"android": "https://dc.lft.to/lastmile_qr_scan", "ios": "https://dc.lft.to/lastmile_qr_scan"}, "name": "9d4a393d230483b3c1538df57515ec57", "type": "electric_scooter"}, {"fusion_lat": 0.0, "bike_id": "1c851d376911aaef0eb9b51946418ea6", "fusion_lon": 0.0, "lon": -77.031988, "lat": 38.9037655, "is_reserved": 0, "is_disabled": 0, "rental_uris": {"android": "https://dc.lft.to/lastmile_qr_scan", "ios": "https://dc.lft.to/lastmile_qr_scan"},