{"data": {"bikes": [{"lon": -77.0412045, "name": "4c5478c6784ffce72ade2eedc067286d", "is_disabled": 0, "type": "electric_scooter", "is_reserved": 0, "fusion_lon": 0.0, "lat": 38.9211375, "rental_uris": {"ios": "https://dc.lft.to/lastmile_qr_scan", "android": "https://dc.lft.to/lastmile_qr_scan"}, "bike_id": "4c5478c6784ffce72ade2eedc067286d", "fusion_lat": 0.0}, {"lon": -77.00006533333334, "name": "3561b47acc0de4621cedd3d21d2f6cbe", "is_disabled": 0, "type": "electric_scooter", "is_reserved": 0, "fusion_lon": 0.0, "lat": 38.90784416666666, "rental_uris": {"ios": "https://dc.lft.to/lastmile_qr_scan", "android": "https://dc.lft.to/lastmile_qr_scan"}, "bike_id": "3561b47acc0de4621cedd3d21d2f6cbe", "fusion_lat": 0.0}, {"lon": -77.02203566666667, "name": "d7e12742bc8bc54275840b4191f124af", "is_disabled": 0, "type": "electric_scooter", "is_reserved": 0, "fusion_lon": 0.0, "lat": 38.914807833333334, "rental_uris": {"ios": "https://dc.lft.to/lastmile_qr_scan", "android": "https://dc.lft.to/lastmile_qr_scan"}, "bike_id": "d7e12742bc8bc54275840b4191f124af", "fusion_lat": 0.0}, {"lon": -77.04698466666666, "name": "86b4e15608f71a7c2dd651c3561a76df", "is_disabled": 0, "type": "electric_scooter", "is_reserved": 0, "fusion_lon": 0.0, "lat": 38.92162616666667, "rental_uris": {"ios": "https://dc.lft.to/lastmile_qr_scan", "android": "https://dc.lft.to/lastmile_qr_scan"}, "bike_id": "86b4e15608f71a7c2dd651c3561a76df", "fusion_lat": 0.0}, {"lon": -77.02189183333333, "name": "1a79c2a2eda72dde844205a2d288d9cb", "is_disabled": 0, "type": "electric_scooter", "is_reserved": 0, "fusion_lon": 0.0, "lat": 38.916564, "rental_uris": {"ios": "https://dc.lft.to/lastmile_qr_scan", "android": "https://dc.lft.to/lastmile_qr_scan"}, "bike_id": "1a79c2a2eda72dde844205a2d288d9cb", "fusion_lat": 0.0}, {"lon": -77.05422783333333, "name": "de878b2c1360bcfbe23bf0c39fec7b58", "is_disabled": 0, "type": "electric_scooter", "is_reserved": 0, "fusion_lon": 0.0, "lat": 38.9234655, "rental_uris": {"ios": "https://dc.lft.to/lastmile_qr_scan", "android": "https://dc.lft.to/lastmile_qr_scan"}, "bike_id": "de878b2c1360bcfbe23bf0c39fec7b58", "fusion_lat": 0.0}, {"lon": -77.02201283333333, "name": "a3e8c610dd6f7125b80d586265327a71", "is_disabled": 0, "type": "electric_scooter", "is_reserved": 0, "fusion_lon": 0.0, "lat": 38.929985333333335, "rental_uris": {"ios": "https://dc.lft.to/lastmile_qr_scan", "android": "https://dc.lft.to/lastmile_qr_scan"}, "bike_id": "a3e8c610dd6f7125b80d586265327a71", "fusion_lat": 0.0}, {"lon": -77.05237266666667, "name": "fd91969b8f6df3e69daffd53a5350934", "is_disabled": 0, "type": "electric_scooter", "is_reserved": 0, "fusion_lon": 0.0, "lat": 38.92465216666667, "rental_uris": {"ios": "https://dc.lft.to/lastmile_qr_scan", "android": "https://dc.lft.to/lastmile_qr_scan"}, "bike_id": "fd91969b8f6df3e69daffd53a5350934", "fusion_lat": 0.0}, {"lon": -77.03340566666667, "name": "7ca180df708371dd14145bd2f82f9aad", "is_disabled": 0, "type": "electric_scooter", "is_reserved": 0, "fusion_lon": 0.0, "lat": 38.90307816666667, "rental_uris": {"ios": "https://dc.lft.to/lastmile_qr_scan", "android": "https://dc.lft.to/lastmile_qr_scan"}, "bike_id": "7ca180df708371dd14145bd2f82f9aad", "fusion_lat": 0.0}, {"lon": -77.0186095, "name": "62f38427fcf6b67f1027653b58c2435a", "is_disabled": 0, "type": "electric_scooter", "is_reserved": 0, "fusion_lon": 0.0, "lat": 38.900847166666665, "rental_uris": {"ios": "https://dc.lft.to/lastmile_qr_scan", "android": "https://dc.lft.to/lastmile_qr_scan"}, "bike_id": "62f38427fcf6b67f1027653b58c2435a", "fusion_lat": 0.0}, {"lon": -77.00052633333334, "name": "225e6d24f529f6a18f3f5466cda3bd0d", "is_disabled": 0, "type": "electric_scooter", "is_reserved": 0, "fusion_lon": 0.0, "lat": 38.875247, "rental_uris": {"ios": "https://dc.lft.to/lastmile_qr_scan", "android": "https://dc.lft.to/lastmile_qr_scan"}, "bike_id": "225e6d24f529f6a18f3f5466cda3bd0d", "fusion_lat": 0.0}, {"lon": -77.02465483333333, "name": "b7c9651f24915ef02ef7949528b0ffc3", "is_disabled": 0, "type": "electric_scooter", "is_reserved": 0, "fusion_lon": 0.0, "lat": 38.906242666666664, "rental_uris": {"ios": "https://dc.lft.to/lastmile_qr_scan", "android": "https://dc.lft.to/lastmile_qr_scan"}, "bike_id": "b7c9651f24915ef02ef7949528b0ffc3", "fusion_lat": 0.0}, {"lon": -77.00801833333334, "name": "dd2c7f6a0a2c2a81c67bca4ba0a2d461", "is_disabled": 0, "type": "electric_scooter", "is_reserved": 0, "fusion_lon": 0.0, "lat": 38.897108833333334, "rental_uris": {"ios": "https://dc.lft.to/lastmile_qr_scan", "android": "https://dc.lft.to/lastmile_qr_scan"}, "bike_id": "dd2c7f6a0a2c2a81c67bca4ba0a2d461", "fusion_lat": 0.0}, {"lon": -76.9985855, "name": "c2b3c87d92613a977c3babc0efe9b2ba", "is_disabled": 0, "type": "electric_scooter", "is_reserved": 0, "fusion_lon": 0.0, "lat": 38.90256683333333, "rental_uris": {"ios": "https://dc.lft.to/lastmile_qr_scan", "android": "https://dc.lft.to/lastmile_qr_scan"}, "bike_id": "c2b3c87d92613a977c3babc0efe9b2ba", "fusion_lat": 0.0}, {"lon": -77.03393666666666, "name": "7a447a28fbde98f877ca5fb112ed8112", "is_disabled": 0, "type": "electric_scooter", "is_reserved": 0, "fusion_lon": 0.0, "lat": 38.901697666666664, "rental_uris": {"ios": "https://dc.lft.to/lastmile_qr_scan", "android": "https://dc.lft.to/lastmile_qr_scan"}, "bike_id": "7a447a28fbde98f877ca5fb112ed8112", "fusion_lat": 0.0}, {"lon": -77.05474916666667, "name": "9b2043483fe04dced9367b45c1ee8c8d", "is_disabled": 0, "type": "electric_scooter", "is_reserved": 0, "fusion_lon": 0.0, "lat": 38.893907, "rental_uris": {"ios": "https://dc.lft.to/lastmile_qr_scan", "android": "https://dc.lft.to/lastmile_qr_scan"}, "bike_id": "9b2043483fe04dced9367b45c1ee8c8d", "fusion_lat": 0.0}, {"lon": -77.00064016666667, "name": "22e192abb6323a595aadebc3eab6ab78", "is_disabled": 0, "type": "electric_scooter", "is_reserved": 0, "fusion_lon": 0.0, "lat": 38.876793166666666, "rental_uris": {"ios": "https://dc.lft.to/lastmile_qr_scan", "android": "https://dc.lft.to/lastmile_qr_scan"}, "bike_id": "22e192abb6323a595aadebc3eab6ab78", "fusion_lat": 0.0}, {"lon": -76.9251515, "name": "48183c8c319584d0b3df7922dbfbb647", "is_disabled": 0, "type": "electric_scooter", "is_reserved": 0, "fusion_lon": 0.0, "lat": 38.885992333333334, "rental_uris": {"ios": "https://dc.lft.to/lastmile_qr_scan", "android": "https://dc.lft.to/lastmile_qr_scan"}, "bike_id": "48183c8c319584d0b3df7922dbfbb647", "fusion_lat": 0.0}, {"lon": -76.99160283333333, "name": "fc5f953dc1caf977969cf5dd62418be7", "is_disabled": 0, "type": "electric_scooter", "is_reserved": 0, "fusion_lon": 0.0, "lat": 38.89902383333333, "rental_uris": {"ios": "https://dc.lft.to/lastmile_qr_scan", "android": "https://dc.lft.to/lastmile_qr_scan"}, "bike_id": "fc5f953dc1caf977969cf5dd62418be7", "fusion_lat": 0.0}, {"lon": -77.02759766666667, "name": "7556da89328e32e62656467783b450ae", "is_disabled": 0, "type": "electric_scooter", "is_reserved": 0, "fusion_lon": 0.0, "lat": 38.956115833333335, "rental_uris": {"ios": "https://dc.lft.to/lastmile_qr_scan", "android": "https://dc.lft.to/lastmile_qr_scan"}, "bike_id": "7556da89328e32e62656467783b450ae", "fusion_lat": 0.0}, {"lon": -77.057096, "name": "6b59764e5f60c26b008cdfa30ff604d3", "is_disabled": 0, "type": "electric_scooter", "is_reserved": 0, "fusion_lon": 0.0, "lat": 38.91662933333333, "rental_uris": {"ios": "https://dc.lft.to/lastmile_qr_scan", "android": "https://dc.lft.to/lastmile_qr_scan"}, "bike_id": "6b59764e5f60c26b008cdfa30ff604d3", "fusion_lat": 0.0}, {"lon": -76.9950825, "name": "9abe5978be77471076bacc08862ad7d6", "is_disabled": 0, "type": "electric_scooter", "is_reserved": 0, "fusion_lon": 0.0, "lat": 38.8808215, "rental_uris": {"ios": "https://dc.lft.to/lastmile_qr_scan", "android": "https://dc.lft.to/lastmile_qr_scan"}, "bike_id": "9abe5978be77471076bacc08862ad7d6", "fusion_lat": 0.0}, {"lon": -77.0490545, "name": "0c5a9bf3fd129162b3c90b0128b3ec2a", "is_disabled": 0, "type": "electric_scooter", "is_reserved": 0, "fusion_lon": 0.0, "lat": 38.91590733333334, "rental_uris": {"ios": "https://dc.lft.to/lastmile_qr_scan", "android": "https://dc.lft.to/lastmile_qr_scan"}, "bike_id": "0c5a9bf3fd129162b3c90b0128b3ec2a", "fusion_lat": 0.0}, {"lon": -77.05318666666666, "name": "3c5e6093eb71827cec202fcff9bbb9cd", "is_disabled": 0, "type": "electric_scooter", "is_reserved": 0, "fusion_lon": 0.0, "lat": 38.934514, "rental_uris": {"ios": "https://dc.lft.to/lastmile_qr_scan", "android": "https://dc.lft.to/lastmile_qr_scan"}, "bike_id": "3c5e6093eb71827cec202fcff9bbb9cd", "fusion_lat": 0.0}, {"lon": -77.02533233333334, "name": "359da5beec3853de764e137551261b66", "is_disabled": 0, "type": "electric_scooter", "is_reserved": 0, "fusion_lon": 0.0, "lat": 38.896012166666665, "rental_uris": {"ios": "https://dc.lft.to/lastmile_qr_scan", "android": "https://dc.lft.to/lastmile_qr_scan"}, "bike_id": "359da5beec3853de764e137551261b66", "fusion_lat": 0.0}, {"lon": -77.00332716666666, "name": "f0a89b59e93b97a2b1532758b9dced26", "is_disabled": 0, "type": "electric_scooter", "is_reserved": 0, "fusion_lon": 0.0, "lat": 38.89362633333333, "rental_uris": {"ios": "https://dc.lft.to/lastmile_qr_scan", "android": "https://dc.lft.to/lastmile_qr_scan"}, "bike_id": "f0a89b59e93b97a2b1532758b9dced26", "fusion_lat": 0.0}, {"lon": -77.01223516666667, "name": "73b86a213007c44e1101f83799bf4ca6", "is_disabled": 0, "type": "electric_scooter", "is_reserved": 0, "fusion_lon": 0.0, "lat": 38.898012333333334, "rental_uris": {"ios": "https://dc.lft.to/lastmile_qr_scan", "android": "https://dc.lft.to/lastmile_qr_scan"}, "bike_id": "73b86a213007c44e1101f83799bf4ca6", "fusion_lat": 0.0}, {"lon": -77.03205966666667, "name": "1c00e91c675a9e079ea2fc093a891e47", "is_disabled": 0, "type": "electric_scooter", "is_reserved": 0, "fusion_lon": 0.0, "lat": 38.915305333333336, "rental_uris": {"ios": "https://dc.lft.to/lastmile_qr_scan", "android": "https://dc.lft.to/lastmile_qr_scan"}, "bike_id": "1c00e91c675a9e079ea2fc093a891e47", "fusion_lat": 0.0}, {"lon": -77.030488, "name": "0fe2aeb78e0af87a50f66d9577f6185f", "is_disabled": 0, "type": "electric_scooter", "is_reserved": 0, "fusion_lon": 0.0, "lat": 38.941783666666666, "rental_uris": {"ios": "https://dc.lft.to/lastmile_qr_scan", "android": "https://dc.lft.to/lastmile_qr_scan"}, "bike_id": "0fe2aeb78e0af87a50f66d9577f6185f", "fusion_lat": 0.0}, {"lon": -77.002091, "name": "d415e15d7cd3f6245d0b01789deae1e5", "is_disabled": 0, "type": "electric_scooter", "is_reserved": 0, "fusion_lon": 0.0, "lat": 38.873921833333334, "rental_uris": {"ios": "https://dc.lft.to/lastmile_qr_scan", "android": "https://dc.lft.to/lastmile_qr_scan"}, "bike_id": "d415e15d7cd3f6245d0b01789deae1e5", "fusion_lat": 0.0}, {"lon": -77.02195333333333, "name": "46d50ace05385ad9c855f4f4362577e2", "is_disabled": 0, "type": "electric_scooter", "is_reserved": 0, "fusion_lon": 0.0, "lat": 38.9208085, "rental_uris": {"ios": "https://dc.lft.to/lastmile_qr_scan", "android": "https://dc.lft.to/lastmile_qr_scan"}, "bike_id": "46d50ace05385ad9c855f4f4362577e2", "fusion_lat": 0.0}, {"lon": -77.02316816666666, "name": "262c138095e7959236ee719b11bf1611", "is_disabled": 0, "type": "electric_scooter", "is_reserved": 0, "fusion_lon": 0.0, "lat": 38.92075666666667, "rental_uris": {"ios": "https://dc.lft.to/lastmile_qr_scan", "android": "https://dc.lft.to/lastmile_qr_scan"}, "bike_id": "262c138095e7959236ee719b11bf1611", "fusion_lat": 0.0}, {"lon": -77.01540683333333, "name": "75db08381097bd927f1312f51c5b9635", "is_disabled": 0, "type": "electric_scooter", "is_reserved": 0, "fusion_lon": 0.0, "lat": 38.920613833333334, "rental_uris": {"ios": "https://dc.lft.to/lastmile_qr_scan", "android": "https://dc.lft.to/lastmile_qr_scan"}, "bike_id": "75db08381097bd927f1312f51c5b9635", "fusion_lat": 0.0}, {"lon": -77.03601616666667, "name": "f09e8f4356d21d1c02335f53f6a4de48", "is_disabled": 0, "type": "electric_scooter", "is_reserved": 0, "fusion_lon": 0.0, "lat": 38.90813683333333, "rental_uris": {"ios": "https://dc.lft.to/lastmile_qr_scan", "android": "https://dc.lft.to/lastmile_qr_scan"}, "bike_id": "f09e8f4356d21d1c02335f53f6a4de48", "fusion_lat": 0.0}, {"lon": -76.991426, "name": "58f22e2c1589cdb2f1ce431497d5c31c", "is_disabled": 0, "type": "electric_scooter", "is_reserved": 0, "fusion_lon": 0.0, "lat": 38.899724666666664, "rental_uris": {"ios": "https://dc.lft.to/lastmile_qr_scan", "android": "https://dc.lft.to/lastmile_qr_scan"}, "bike_id": "58f22e2c1589cdb2f1ce431497d5c31c", "fusion_lat": 0.0}, {"lon": -77.07228166666667, "name": "8160c75c5e3f39d0efdd3eb3dae4df8f", "is_disabled": 0, "type": "electric_scooter", "is_reserved": 0, "fusion_lon": 0.0, "lat": 38.923623666666664, "rental_uris": {"ios": "https://dc.lft.to/lastmile_qr_scan", "android": "https://dc.lft.to/lastmile_qr_scan"}, "bike_id": "8160c75c5e3f39d0efdd3eb3dae4df8f", "fusion_lat": 0.0}, {"lon": -77.0268585, "name": "0a45b516f0b81638a2702a0e4e7e5331", "is_disabled": 0, "type": "electric_scooter", "is_reserved": 0, "fusion_lon": 0.0, "lat": 38.9112815, "rental_uris": {"ios": "https://dc.lft.to/lastmile_qr_scan", "android": "https://dc.lft.to/lastmile_qr_scan"}, "bike_id": "0a45b516f0b81638a2702a0e4e7e5331", "fusion_lat": 0.0}, {"lon": -76.9854635, "name": "aca91106f9fd7de4ec56342cb721314c", "is_disabled": 0, "type": "electric_scooter", "is_reserved": 0, "fusion_lon": 0.0, "lat": 38.90587266666667, "rental_uris": {"ios": "https://dc.lft.to/lastmile_qr_scan", "android": "https://dc.lft.to/lastmile_qr_scan"}, "bike_id": "aca91106f9fd7de4ec56342cb721314c", "fusion_lat": 0.0}, {"lon": -77.022705, "name": "39658fa60bb0d28eecae76002339f7e0", "is_disabled": 0, "type": "electric_scooter", "is_reserved": 0, "fusion_lon": 0.0, "lat": 38.88132266666667, "rental_uris": {"ios": "https://dc.lft.to/lastmile_qr_scan", "android": "https://dc.lft.to/lastmile_qr_scan"}, "bike_id": "39658fa60bb0d28eecae76002339f7e0", "fusion_lat": 0.0}, {"lon": -77.03473716666667, "name": "3cc4dd287b7af18586c183684d84c4d8", "is_disabled": 0, "type": "electric_scooter", "is_reserved": 0, "fusion_lon": 0.0, "lat": 38.9291775, "rental_uris": {"ios": "https://dc.lft.to/lastmile_qr_scan", "android": "https://dc.lft.to/lastmile_qr_scan"}, "bike_id": "3cc4dd287b7af18586c183684d84c4d8", "fusion_lat": 0.0}, {"lon": -77.03349366666667, "name": "de28d0854cc95000a368a6a6cabf5330", "is_disabled": 0, "type": "electric_scooter", "is_reserved": 0, "fusion_lon": 0.0, "lat": 38.89743716666667, "rental_uris": {"ios": "https://dc.lft.to/lastmile_qr_scan", "android": "https://dc.lft.to/lastmile_qr_scan"}, "bike_id": "de28d0854cc95000a368a6a6cabf5330", "fusion_lat": 0.0}, {"lon": -76.93520983333333, "name": "6dcc39c8a15bdefa29823d817afb7bcc", "is_disabled": 0, "type": "electric_scooter", "is_reserved": 0, "fusion_lon": 0.0, "lat": 38.87897266666667, "rental_uris": {"ios": "https://dc.lft.to/lastmile_qr_scan", "android": "https://dc.lft.to/lastmile_qr_scan"}, "bike_id": "6dcc39c8a15bdefa29823d817afb7bcc", "fusion_lat": 0.0}, {"lon": -77.0253145, "name": "963c75fa4982e16e36c9c39530b837e8", "is_disabled": 0, "type": "electric_scooter", "is_reserved": 0, "fusion_lon": 0.0, "lat": 38.967283333333334, "rental_uris": {"ios": "https://dc.lft.to/lastmile_qr_scan", "android": "https://dc.lft.to/lastmile_qr_scan"}, "bike_id": "963c75fa4982e16e36c9c39530b837e8", "fusion_lat": 0.0}, {"lon": -77.021908, "name": "a77b3366e606d6395b5de071367acf8c", "is_disabled": 0, "type": "electric_scooter", "is_reserved": 0, "fusion_lon": 0.0, "lat": 38.90102783333333, "rental_uris": {"ios": "https://dc.lft.to/lastmile_qr_scan", "android": "https://dc.lft.to/lastmile_qr_scan"}, "bike_id": "a77b3366e606d6395b5de071367acf8c", "fusion_lat": 0.0}, {"lon": -77.04007716666666, "name": "92d5da68af24a3505d6c8430c83bf5d5", "is_disabled": 0, "type": "electric_scooter", "is_reserved": 0, "fusion_lon": 0.0, "lat": 38.902581, "rental_uris": {"ios": "https://dc.lft.to/lastmile_qr_scan", "android": "https://dc.lft.to/lastmile_qr_scan"}, "bike_id": "92d5da68af24a3505d6c8430c83bf5d5", "fusion_lat": 0.0}, {"lon": -77.00515633333333, "name": "b9d8fe24395140bc13ae9cd6d6a69783", "is_disabled": 0, "type": "electric_scooter", "is_reserved": 0, "fusion_lon": 0.0, "lat": 38.87472283333334, "rental_uris": {"ios": "https://dc.lft.to/lastmile_qr_scan", "android": "https://dc.lft.to/lastmile_qr_scan"}, "bike_id": "b9d8fe24395140bc13ae9cd6d6a69783", "fusion_lat": 0.0}, {"lon": -77.03290433333333, "name": "e8b40b8cb1012b8be469a48b9e080c25", "is_disabled": 0, "type": "electric_scooter", "is_reserved": 0, "fusion_lon": 0.0, "lat": 38.897113166666664, "rental_uris": {"ios": "https://dc.lft.to/lastmile_qr_scan", "android": "https://dc.lft.to/lastmile_qr_scan"}, "bike_id": "e8b40b8cb1012b8be469a48b9e080c25", "fusion_lat": 0.0}, {"lon": -77.00893783333333, "name": "bd4bfb0c8308c6df62333d9f1a11aedb", "is_disabled": 0, "type": "electric_scooter", "is_reserved": 0, "fusion_lon": 0.0, "lat": 38.909691333333335, "rental_uris": {"ios": "https://dc.lft.to/lastmile_qr_scan", "android": "https://dc.lft.to/lastmile_qr_scan"}, "bike_id": "bd4bfb0c8308c6df62333d9f1a11aedb", "fusion_lat": 0.0}, {"lon": -77.05886866666667, "name": "c4400efb8dd9ce9b400183f661ad0f90", "is_disabled": 0, "type": "electric_bike", "is_reserved": 0, "fusion_lon": 0.0, "lat": 38.82700166666667, "rental_uris": {"ios": "https://dc.lft.to/lastmile_qr_scan", "android": "https://dc.lft.to/lastmile_qr_scan"}, "bike_id": "c4400efb8dd9ce9b400183f661ad0f90", "fusion_lat": 0.0}, {"lon": -77.030302, "name": "2cbf9481c24d7f6ed281eea9e8cbe0d9", "is_disabled": 0, "type": "electric_scooter", "is_reserved": 0, "fusion_lon": 0.0, "lat": 38.8982755, "rental_uris": {"ios": "https://dc.lft.to/lastmile_qr_scan", "android": "https://dc.lft.to/lastmile_qr_scan"}, "bike_id": "2cbf9481c24d7f6ed281eea9e8cbe0d9", "fusion_lat": 0.0}, {"lon": -77.04162566666666, "name": "a45f8b90b10e6d960eaacf7651f2b771", "is_disabled": 0, "type": "electric_scooter", "is_reserved": 0, "fusion_lon": 0.0, "lat": 38.915924833333335, "rental_uris": {"ios": "https://dc.lft.to/lastmile_qr_scan", "android": "https://dc.lft.to/lastmile_qr_scan"}, "bike_id": "a45f8b90b10e6d960eaacf7651f2b771", "fusion_lat": 0.0}, {"lon": -77.0725525, "name": "6bd07849f0a870b0afc2e962e2b722f3", "is_disabled": 0, "type": "electric_scooter", "is_reserved": 0, "fusion_lon": 0.0, "lat": 38.9077585, "rental_uris": {"ios": "https://dc.lft.to/lastmile_qr_scan", "android": "https://dc.lft.to/lastmile_qr_scan"}, "bike_id": "6bd07849f0a870b0afc2e962e2b722f3", "fusion_lat": 0.0}, {"lon": -77.04380783333333, "name": "353fa56998045d8beb1b522ac4dc9547", "is_disabled": 0, "type": "electric_scooter", "is_reserved": 0, "fusion_lon": 0.0, "lat": 38.920606166666666, "rental_uris": {"ios": "https://dc.lft.to/lastmile_qr_scan", "android": "https://dc.lft.to/lastmile_qr_scan"}, "bike_id": "353fa56998045d8beb1b522ac4dc9547", "fusion_lat": 0.0}, {"lon": -77.01753816666667, "name": "d02e0e9907d6a57221e192a84aecdbcd", "is_disabled": 0, "type": "electric_scooter", "is_reserved": 0, "fusion_lon": 0.0, "lat": 38.877137833333336, "rental_uris": {"ios": "https://dc.lft.to/lastmile_qr_scan", "android": "https://dc.lft.to/lastmile_qr_scan"}, "bike_id": "d02e0e9907d6a57221e192a84aecdbcd", "fusion_lat": 0.0}, {"lon": -77.0322805, "name": "fa4d92ff183658f1e5a101d76f5db3b3", "is_disabled": 0, "type": "electric_scooter", "is_reserved": 0, "fusion_lon": 0.0, "lat": 38.89946, "rental_uris": {"ios": "https://dc.lft.to/lastmile_qr_scan", "android": "https://dc.lft.to/lastmile_qr_scan"}, "bike_id": "fa4d92ff183658f1e5a101d76f5db3b3", "fusion_lat": 0.0}, {"lon": -77.02526266666666, "name": "c9f3e100763bccdfe709d029ea627637", "is_disabled": 0, "type": "electric_scooter", "is_reserved": 0, "fusion_lon": 0.0, "lat": 38.920897833333335, "rental_uris": {"ios": "https://dc.lft.to/lastmile_qr_scan", "android": "https://dc.lft.to/lastmile_qr_scan"}, "bike_id": "c9f3e100763bccdfe709d029ea627637", "fusion_lat": 0.0}, {"lon": -77.037019, "name": "414612abb20e75c5638ab157b7d3867b", "is_disabled": 0, "type": "electric_scooter", "is_reserved": 0, "fusion_lon": 0.0, "lat": 38.932768833333334, "rental_uris": {"ios": "https://dc.lft.to/lastmile_qr_scan", "android": "https://dc.lft.to/lastmile_qr_scan"}, "bike_id": "414612abb20e75c5638ab157b7d3867b", "fusion_lat": 0.0}, {"lon": -77.00063466666667, "name": "8b2db77531493afa88a34fcb13b3b273", "is_disabled": 0, "type": "electric_scooter", "is_reserved": 0, "fusion_lon": 0.0, "lat": 38.92062466666667, "rental_uris": {"ios": "https://dc.lft.to/lastmile_qr_scan", "android": "https://dc.lft.to/lastmile_qr_scan"}, "bike_id": "8b2db77531493afa88a34fcb13b3b273", "fusion_lat": 0.0}, {"lon": -77.0260255, "name": "597c0a1d594346889594e1191c41ef06", "is_disabled": 0, "type": "electric_scooter", "is_reserved": 0, "fusion_lon": 0.0, "lat": 38.9638605, "rental_uris": {"ios": "https://dc.lft.to/lastmile_qr_scan", "android": "https://dc.lft.to/lastmile_qr_scan"}, "bike_id": "597c0a1d594346889594e1191c41ef06", "fusion_lat": 0.0}, {"lon": -77.032322, "name": "dbc1d0f541262411aa27481de69f2f35", "is_disabled": 0, "type": "electric_scooter", "is_reserved": 0, "fusion_lon": 0.0, "lat": 38.912706666666665, "rental_uris": {"ios": "https://dc.lft.to/lastmile_qr_scan", "android": "https://dc.lft.to/lastmile_qr_scan"}, "bike_id": "dbc1d0f541262411aa27481de69f2f35", "fusion_lat": 0.0}, {"lon": -77.23392983333333, "name": "23907554c668a006b952d028f3432b69", "is_disabled": 0, "type": "electric_bike", "is_reserved": 0, "fusion_lon": 0.0, "lat": 38.871719166666665, "rental_uris": {"ios": "https://dc.lft.to/lastmile_qr_scan", "android": "https://dc.lft.to/lastmile_qr_scan"}, "bike_id": "23907554c668a006b952d028f3432b69", "fusion_lat": 0.0}, {"lon": -77.031382, "name": "f6f62dd36a1f32a1f7dce464a2b0fb7e", "is_disabled": 0, "type": "electric_scooter", "is_reserved": 0, "fusion_lon": 0.0, "lat": 38.91256933333333, "rental_uris": {"ios": "https://dc.lft.to/lastmile_qr_scan", "android": "https://dc.lft.to/lastmile_qr_scan"}, "bike_id": "f6f62dd36a1f32a1f7dce464a2b0fb7e", "fusion_lat": 0.0}, {"lon": -77.01517583333333, "name": "2cae56bd150a577e0994265cec8c9b14", "is_disabled": 0, "type": "electric_scooter", "is_reserved": 0, "fusion_lon": 0.0, "lat": 38.8727705, "rental_uris": {"ios": "https://dc.lft.to/lastmile_qr_scan", "android": "https://dc.lft.to/lastmile_qr_scan"}, "bike_id": "2cae56bd150a577e0994265cec8c9b14", "fusion_lat": 0.0}, {"lon": -76.99280916666666, "name": "1f7e8245c97e8f7c5d072128e955bd30", "is_disabled": 0, "type": "electric_scooter", "is_reserved": 0, "fusion_lon": 0.0, "lat": 38.903108, "rental_uris": {"ios": "https://dc.lft.to/lastmile_qr_scan", "android": "https://dc.lft.to/lastmile_qr_scan"}, "bike_id": "1f7e8245c97e8f7c5d072128e955bd30", "fusion_lat": 0.0}, {"lon": -77.09685066666667, "name": "9dca3ab258f0c8f8088bbc1794612961", "is_disabled": 0, "type": "electric_bike", "is_reserved": 0, "fusion_lon": 0.0, "lat": 38.80739066666667, "rental_uris": {"ios": "https://dc.lft.to/lastmile_qr_scan", "android": "https://dc.lft.to/lastmile_qr_scan"}, "bike_id": "9dca3ab258f0c8f8088bbc1794612961", "fusion_lat": 0.0}, {"lon": -76.992358, "name": "d0574ee0c56088609e1f007da53903ea", "is_disabled": 0, "type": "electric_scooter", "is_reserved": 0, "fusion_lon": 0.0, "lat": 38.902078, "rental_uris": {"ios": "https://dc.lft.to/lastmile_qr_scan", "android": "https://dc.lft.to/lastmile_qr_scan"}, "bike_id": "d0574ee0c56088609e1f007da53903ea", "fusion_lat": 0.0}, {"lon": -77.02142283333333, "name": "472ec11adf0f09c2153bce163bdd4167", "is_disabled": 0, "type": "electric_scooter", "is_reserved": 0, "fusion_lon": 0.0, "lat": 38.9210895, "rental_uris": {"ios": "https://dc.lft.to/lastmile_qr_scan", "android": "https://dc.lft.to/lastmile_qr_scan"}, "bike_id": "472ec11adf0f09c2153bce163bdd4167", "fusion_lat": 0.0}, {"lon": -77.0213385, "name": "c892debdf1075f9fa9dae9b9b7b6170e", "is_disabled": 0, "type": "electric_scooter", "is_reserved": 0, "fusion_lon": 0.0, "lat": 38.92484833333334, "rental_uris": {"ios": "https://dc.lft.to/lastmile_qr_scan", "android": "https://dc.lft.to/lastmile_qr_scan"}, "bike_id": "c892debdf1075f9fa9dae9b9b7b6170e", "fusion_lat": 0.0}, {"lon": -77.0087225, "name": "9fe04e7dc44464ffb1d1db2f04e670d8", "is_disabled": 0, "type": "electric_scooter", "is_reserved": 0, "fusion_lon": 0.0, "lat": 38.897397833333336, "rental_uris": {"ios": "https://dc.lft.to/lastmile_qr_scan", "android": "https://dc.lft.to/lastmile_qr_scan"}, "bike_id": "9fe04e7dc44464ffb1d1db2f04e670d8", "fusion_lat": 0.0}, {"lon": -77.07151483333334, "name": "f16b1370512cc6c5976f3b6e445cad6b", "is_disabled": 0, "type": "electric_scooter", "is_reserved": 0, "fusion_lon": 0.0, "lat": 38.9086785, "rental_uris": {"ios": "https://dc.lft.to/lastmile_qr_scan", "android": "https://dc.lft.to/lastmile_qr_scan"}, "bike_id": "f16b1370512cc6c5976f3b6e445cad6b", "fusion_lat": 0.0}, {"lon": -76.94883733333333, "name": "31c2ea06261342afce2c9db28a7bc638", "is_disabled": 0, "type": "electric_scooter", "is_reserved": 0, "fusion_lon": 0.0, "lat": 38.89508333333333, "rental_uris": {"ios": "https://dc.lft.to/lastmile_qr_scan", "android": "https://dc.lft.to/lastmile_qr_scan"}, "bike_id": "31c2ea06261342afce2c9db28a7bc638", "fusion_lat": 0.0}, {"lon": -77.0113665, "name": "f63d163f71ecd3a3980a40adcc801d7a", "is_disabled": 0, "type": "electric_scooter", "is_reserved": 0, "fusion_lon": 0.0, "lat": 38.90720483333333, "rental_uris": {"ios": "https://dc.lft.to/lastmile_qr_scan", "android": "https://dc.lft.to/lastmile_qr_scan"}, "bike_id": "f63d163f71ecd3a3980a40adcc801d7a", "fusion_lat": 0.0}, {"lon": -77.00604866666667, "name": "1596658f30a701398dada0085140e45a", "is_disabled": 0, "type": "electric_scooter", "is_reserved": 0, "fusion_lon": 0.0, "lat": 38.877481, "rental_uris": {"ios": "https://dc.lft.to/lastmile_qr_scan", "android": "https://dc.lft.to/lastmile_qr_scan"}, "bike_id": "1596658f30a701398dada0085140e45a", "fusion_lat": 0.0}, {"lon": -77.0200625, "name": "d206575ad6e4ea33c145439579cdd8ee", "is_disabled": 0, "type": "electric_scooter", "is_reserved": 0, "fusion_lon": 0.0, "lat": 38.89961533333334, "rental_uris": {"ios": "https://dc.lft.to/lastmile_qr_scan", "android": "https://dc.lft.to/lastmile_qr_scan"}, "bike_id": "d206575ad6e4ea33c145439579cdd8ee", "fusion_lat": 0.0}, {"lon": -77.0489565, "name": "f45bceb37b139c5d418f8a7eb0acdd16", "is_disabled": 0, "type": "electric_scooter", "is_reserved": 0, "fusion_lon": 0.0, "lat": 38.90057933333333, "rental_uris": {"ios": "https://dc.lft.to/lastmile_qr_scan", "android": "https://dc.lft.to/lastmile_qr_scan"}, "bike_id": "f45bceb37b139c5d418f8a7eb0acdd16", "fusion_lat": 0.0}, {"lon": -77.0375805, "name": "fd6a28e7bcd2c2746d99abaa394ed16d", "is_disabled": 0, "type": "electric_scooter", "is_reserved": 0, "fusion_lon": 0.0, "lat": 38.911171833333334, "rental_uris": {"ios": "https://dc.lft.to/lastmile_qr_scan", "android": "https://dc.lft.to/lastmile_qr_scan"}, "bike_id": "fd6a28e7bcd2c2746d99abaa394ed16d", "fusion_lat": 0.0}, {"lon": -77.04567983333334, "name": "6d022e5862f43a25f825acf705342c0a", "is_disabled": 0, "type": "electric_scooter", "is_reserved": 0, "fusion_lon": 0.0, "lat": 38.911975166666664, "rental_uris": {"ios": "https://dc.lft.to/lastmile_qr_scan", "android": "https://dc.lft.to/lastmile_qr_scan"}, "bike_id": "6d022e5862f43a25f825acf705342c0a", "fusion_lat": 0.0}, {"lon": -77.23177083333333, "name": "62d8a8136ec9945e4c42ec3cb5d4a9f9", "is_disabled": 0, "type": "electric_bike", "is_reserved": 0, "fusion_lon": 0.0, "lat": 38.92890466666667, "rental_uris": {"ios": "https://dc.lft.to/lastmile_qr_scan", "android": "https://dc.lft.to/lastmile_qr_scan"}, "bike_id": "62d8a8136ec9945e4c42ec3cb5d4a9f9", "fusion_lat": 0.0}, {"lon": -77.05831016666667, "name": "c074ea508ab3785838f7c23715ba963a", "is_disabled": 0, "type": "electric_scooter", "is_reserved": 0, "fusion_lon": 0.0, "lat": 38.905333166666665, "rental_uris": {"ios": "https://dc.lft.to/lastmile_qr_scan", "android": "https://dc.lft.to/lastmile_qr_scan"}, "bike_id": "c074ea508ab3785838f7c23715ba963a", "fusion_lat": 0.0}, {"lon": -77.079156, "name": "b00c47ec71911a66de3660a60890eadc", "is_disabled": 0, "type": "electric_bike", "is_reserved": 0, "fusion_lon": 0.0, "lat": 38.838239333333334, "rental_uris": {"ios": "https://dc.lft.to/lastmile_qr_scan", "android": "https://dc.lft.to/lastmile_qr_scan"}, "bike_id": "b00c47ec71911a66de3660a60890eadc", "fusion_lat": 0.0}, {"lon": -77.02143066666666, "name": "746222fc0eca9a4abeb8baed84664cb6", "is_disabled": 0, "type": "electric_scooter", "is_reserved": 0, "fusion_lon": 0.0, "lat": 38.932969, "rental_uris": {"ios": "https://dc.lft.to/lastmile_qr_scan", "android": "https://dc.lft.to/lastmile_qr_scan"}, "bike_id": "746222fc0eca9a4abeb8baed84664cb6", "fusion_lat": 0.0}, {"lon": -77.019497, "name": "bde71b0f16b63371d8abfe831bb8aa49", "is_disabled": 0, "type": "electric_scooter", "is_reserved": 0, "fusion_lon": 0.0, "lat": 38.924160666666666, "rental_uris": {"ios": "https://dc.lft.to/lastmile_qr_scan", "android": "https://dc.lft.to/lastmile_qr_scan"}, "bike_id": "bde71b0f16b63371d8abfe831bb8aa49", "fusion_lat": 0.0}, {"lon": -77.02129683333334, "name": "0428fbafe8c80e1e2df0bc29020fc26b", "is_disabled": 0, "type": "electric_scooter", "is_reserved": 0, "fusion_lon": 0.0, "lat": 38.926914833333335, "rental_uris": {"ios": "https://dc.lft.to/lastmile_qr_scan", "android": "https://dc.lft.to/lastmile_qr_scan"}, "bike_id": "0428fbafe8c80e1e2df0bc29020fc26b", "fusion_lat": 0.0}, {"lon": -77.03172933333333, "name": "83db8103017a795385f301ab94432065", "is_disabled": 0, "type": "electric_scooter", "is_reserved": 0, "fusion_lon": 0.0, "lat": 38.89220816666667, "rental_uris": {"ios": "https://dc.lft.to/lastmile_qr_scan", "android": "https://dc.lft.to/lastmile_qr_scan"}, "bike_id": "83db8103017a795385f301ab94432065", "fusion_lat": 0.0}, {"lon": -77.08039133333334, "name": "6cf41d9c52120dad9e59c68be26a0487", "is_disabled": 0, "type": "electric_scooter", "is_reserved": 0, "fusion_lon": 0.0, "lat": 38.948751, "rental_uris": {"ios": "https://dc.lft.to/lastmile_qr_scan", "android": "https://dc.lft.to/lastmile_qr_scan"}, "bike_id": "6cf41d9c52120dad9e59c68be26a0487", "fusion_lat": 0.0}, {"lon": -77.02283616666666, "name": "edd3e9002bc2ca45dce1b44cc8a74ae0", "is_disabled": 0, "type": "electric_scooter", "is_reserved": 0, "fusion_lon": 0.0, "lat": 38.91560366666667, "rental_uris": {"ios": "https://dc.lft.to/lastmile_qr_scan", "android": "https://dc.lft.to/lastmile_qr_scan"}, "bike_id": "edd3e9002bc2ca45dce1b44cc8a74ae0", "fusion_lat": 0.0}, {"lon": -77.01508433333333, "name": "20a44bdcb51611135d338241f5ad057c", "is_disabled": 0, "type": "electric_scooter", "is_reserved": 0, "fusion_lon": 0.0, "lat": 38.9099585, "rental_uris": {"ios": "https://dc.lft.to/lastmile_qr_scan", "android": "https://dc.lft.to/lastmile_qr_scan"}, "bike_id": "20a44bdcb51611135d338241f5ad057c", "fusion_lat": 0.0}, {"lon": -77.0450245, "name": "73fea97d51cbebccc8d3bb6be42503a8", "is_disabled": 0, "type": "electric_scooter", "is_reserved": 0, "fusion_lon": 0.0, "lat": 38.91609966666667, "rental_uris": {"ios": "https://dc.lft.to/lastmile_qr_scan", "android": "https://dc.lft.to/lastmile_qr_scan"}, "bike_id": "73fea97d51cbebccc8d3bb6be42503a8", "fusion_lat": 0.0}, {"lon": -77.01202266666667, "name": "c7f807dcdd8dc0364399c883def3daf0", "is_disabled": 0, "type": "electric_scooter", "is_reserved": 0, "fusion_lon": 0.0, "lat": 38.916986, "rental_uris": {"ios": "https://dc.lft.to/lastmile_qr_scan", "android": "https://dc.lft.to/lastmile_qr_scan"}, "bike_id": "c7f807dcdd8dc0364399c883def3daf0", "fusion_lat": 0.0}, {"lon": -77.02759183333333, "name": "0202f128226d729321bdd53ac8465d4c", "is_disabled": 0, "type": "electric_scooter", "is_reserved": 0, "fusion_lon": 0.0, "lat": 38.9276685, "rental_uris": {"ios": "https://dc.lft.to/lastmile_qr_scan", "android": "https://dc.lft.to/lastmile_qr_scan"}, "bike_id": "0202f128226d729321bdd53ac8465d4c", "fusion_lat": 0.0}, {"lon": -77.01454033333333, "name": "5b2103137f4256bd8ecadae44cd739ed", "is_disabled": 0, "type": "electric_scooter", "is_reserved": 0, "fusion_lon": 0.0, "lat": 38.958113833333336, "rental_uris": {"ios": "https://dc.lft.to/lastmile_qr_scan", "android": "https://dc.lft.to/lastmile_qr_scan"}, "bike_id": "5b2103137f4256bd8ecadae44cd739ed", "fusion_lat": 0.0}, {"lon": -77.00363033333333, "name": "861669eec1216262a16e888379481ad4", "is_disabled": 0, "type": "electric_scooter", "is_reserved": 0, "fusion_lon": 0.0, "lat": 38.91104816666667, "rental_uris": {"ios": "https://dc.lft.to/lastmile_qr_scan", "android": "https://dc.lft.to/lastmile_qr_scan"}, "bike_id": "861669eec1216262a16e888379481ad4", "fusion_lat": 0.0}, {"lon": -77.11322333333334, "name": "8eefe4bcf5d3e47ed998a834cf3a4bb3", "is_disabled": 0, "type": "electric_bike", "is_reserved": 0, "fusion_lon": 0.0, "lat": 38.831334166666664, "rental_uris": {"ios": "https://dc.lft.to/lastmile_qr_scan", "android": "https://dc.lft.to/lastmile_qr_scan"}, "bike_id": "8eefe4bcf5d3e47ed998a834cf3a4bb3", "fusion_lat": 0.0}, {"lon": -77.01446016666667, "name": "e7473cdea7f5759dc1f9733dde117fa3", "is_disabled": 0, "type": "electric_scooter", "is_reserved": 0, "fusion_lon": 0.0, "lat": 38.909598833333334, "rental_uris": {"ios": "https://dc.lft.to/lastmile_qr_scan", "android": "https://dc.lft.to/lastmile_qr_scan"}, "bike_id": "e7473cdea7f5759dc1f9733dde117fa3", "fusion_lat": 0.0}, {"lon": -77.05911833333333, "name": "cbee36a85b7e078fe7665e69f387c9cd", "is_disabled": 0, "type": "electric_scooter", "is_reserved": 0, "fusion_lon": 0.0, "lat": 38.90338666666667, "rental_uris": {"ios": "https://dc.lft.to/lastmile_qr_scan", "android": "https://dc.lft.to/lastmile_qr_scan"}, "bike_id": "cbee36a85b7e078fe7665e69f387c9cd", "fusion_lat": 0.0}, {"lon": -77.015545, "name": "6c955de8774b23bf9594ed19c3e310a9", "is_disabled": 0, "type": "electric_scooter", "is_reserved": 0, "fusion_lon": 0.0, "lat": 38.89173533333334, "rental_uris": {"ios": "https://dc.lft.to/lastmile_qr_scan", "android": "https://dc.lft.to/lastmile_qr_scan"}, "bike_id": "6c955de8774b23bf9594ed19c3e310a9", "fusion_lat": 0.0}, {"lon": -77.0431835, "name": "0ce9e500abb9e6d4b20bc9ac78a97413", "is_disabled": 0, "type": "electric_bike", "is_reserved": 0, "fusion_lon": 0.0, "lat": 39.03421983333333, "rental_uris": {"ios": "https://dc.lft.to/lastmile_qr_scan", "android": "https://dc.lft.to/lastmile_qr_scan"}, "bike_id": "0ce9e500abb9e6d4b20bc9ac78a97413", "fusion_lat": 0.0}, {"lon": -77.00136866666666, "name": "1ff468dc1feec5e1fd17f34c9c9ad12a", "is_disabled": 0, "type": "electric_scooter", "is_reserved": 0, "fusion_lon": 0.0, "lat": 38.87367016666666, "rental_uris": {"ios": "https://dc.lft.to/lastmile_qr_scan", "android": "https://dc.lft.to/lastmile_qr_scan"}, "bike_id": "1ff468dc1feec5e1fd17f34c9c9ad12a", "fusion_lat": 0.0}, {"lon": -76.9466515, "name": "1b08446a2d66fdc021b559e963dc7a58", "is_disabled": 0, "type": "electric_scooter", "is_reserved": 0, "fusion_lon": 0.0, "lat": 38.898698833333334, "rental_uris": {"ios": "https://dc.lft.to/lastmile_qr_scan", "android": "https://dc.lft.to/lastmile_qr_scan"}, "bike_id": "1b08446a2d66fdc021b559e963dc7a58", "fusion_lat": 0.0}, {"lon": -77.021397, "name": "a36afd90f53fe6278547f679d93399b8", "is_disabled": 0, "type": "electric_scooter", "is_reserved": 0, "fusion_lon": 0.0, "lat": 38.923654, "rental_uris": {"ios": "https://dc.lft.to/lastmile_qr_scan", "android": "https://dc.lft.to/lastmile_qr_scan"}, "bike_id": "a36afd90f53fe6278547f679d93399b8", "fusion_lat": 0.0}, {"lon": -77.05182533333333, "name": "cb17848bce2a9b6c1f38d5eec4202a52", "is_disabled": 0, "type": "electric_scooter", "is_reserved": 0, "fusion_lon": 0.0, "lat": 38.92423183333333, "rental_uris": {"ios": "https://dc.lft.to/lastmile_qr_scan", "android": "https://dc.lft.to/lastmile_qr_scan"}, "bike_id": "cb17848bce2a9b6c1f38d5eec4202a52", "fusion_lat": 0.0}, {"lon": -77.052345, "name": "9e444d5453941befbde446fabb360fc6", "is_disabled": 0, "type": "electric_scooter", "is_reserved": 0, "fusion_lon": 0.0, "lat": 38.9247285, "rental_uris": {"ios": "https://dc.lft.to/lastmile_qr_scan", "android": "https://dc.lft.to/lastmile_qr_scan"}, "bike_id": "9e444d5453941befbde446fabb360fc6", "fusion_lat": 0.0}, {"lon": -77.01508266666667, "name": "661d13789c4282cbd7404f790265c96b", "is_disabled": 0, "type": "electric_scooter", "is_reserved": 0, "fusion_lon": 0.0, "lat": 38.901400333333335, "rental_uris": {"ios": "https://dc.lft.to/lastmile_qr_scan", "android": "https://dc.lft.to/lastmile_qr_scan"}, "bike_id": "661d13789c4282cbd7404f790265c96b", "fusion_lat": 0.0}, {"lon": -77.00215216666666, "name": "d52dce52cf5af542ed92d4bc2e650c1c", "is_disabled": 0, "type": "electric_scooter", "is_reserved": 0, "fusion_lon": 0.0, "lat": 38.924479166666664, "rental_uris": {"ios": "https://dc.lft.to/lastmile_qr_scan", "android": "https://dc.lft.to/lastmile_qr_scan"}, "bike_id": "d52dce52cf5af542ed92d4bc2e650c1c", "fusion_lat": 0.0}, {"lon": -77.010441, "name": "cfc1645b191f3fff80bcdeb9e336f322", "is_disabled": 0, "type": "electric_scooter", "is_reserved": 0, "fusion_lon": 0.0, "lat": 38.894645833333335, "rental_uris": {"ios": "https://dc.lft.to/lastmile_qr_scan", "android": "https://dc.lft.to/lastmile_qr_scan"}, "bike_id": "cfc1645b191f3fff80bcdeb9e336f322", "fusion_lat": 0.0}, {"lon": -76.94723883333333, "name": "ce886c3716b209d26c0de21988ad9844", "is_disabled": 0, "type": "electric_bike", "is_reserved": 0, "fusion_lon": 0.0, "lat": 38.9837945, "rental_uris": {"ios": "https://dc.lft.to/lastmile_qr_scan", "android": "https://dc.lft.to/lastmile_qr_scan"}, "bike_id": "ce886c3716b209d26c0de21988ad9844", "fusion_lat": 0.0}, {"lon": -77.00738783333334, "name": "0c903817e92c6c8609ebff95b81b8608", "is_disabled": 0, "type": "electric_scooter", "is_reserved": 0, "fusion_lon": 0.0, "lat": 38.90956083333333, "rental_uris": {"ios": "https://dc.lft.to/lastmile_qr_scan", "android": "https://dc.lft.to/lastmile_qr_scan"}, "bike_id": "0c903817e92c6c8609ebff95b81b8608", "fusion_lat": 0.0}, {"lon": -77.00137733333334, "name": "ffc977c582be76e7c80fc23a24a3df5a", "is_disabled": 0, "type": "electric_scooter", "is_reserved": 0, "fusion_lon": 0.0, "lat": 38.87361533333333, "rental_uris": {"ios": "https://dc.lft.to/lastmile_qr_scan", "android": "https://dc.lft.to/lastmile_qr_scan"}, "bike_id": "ffc977c582be76e7c80fc23a24a3df5a", "fusion_lat": 0.0}, {"lon": -77.00209883333333, "name": "aeccd2d9448dc8ca18b220d25c28435c", "is_disabled": 0, "type": "electric_scooter", "is_reserved": 0, "fusion_lon": 0.0, "lat": 38.905122, "rental_uris": {"ios": "https://dc.lft.to/lastmile_qr_scan", "android": "https://dc.lft.to/lastmile_qr_scan"}, "bike_id": "aeccd2d9448dc8ca18b220d25c28435c", "fusion_lat": 0.0}, {"lon": -77.04473966666667, "name": "4252ebc7bf04e61fd21cf2b494f0276d", "is_disabled": 0, "type": "electric_scooter", "is_reserved": 0, "fusion_lon": 0.0, "lat": 38.9096515, "rental_uris": {"ios": "https://dc.lft.to/lastmile_qr_scan", "android": "https://dc.lft.to/lastmile_qr_scan"}, "bike_id": "4252ebc7bf04e61fd21cf2b494f0276d", "fusion_lat": 0.0}, {"lon": -77.04687866666667, "name": "6096ec7f290c8948234eccc36930c802", "is_disabled": 0, "type": "electric_scooter", "is_reserved": 0, "fusion_lon": 0.0, "lat": 38.892194833333335, "rental_uris": {"ios": "https://dc.lft.to/lastmile_qr_scan", "android": "https://dc.lft.to/lastmile_qr_scan"}, "bike_id": "6096ec7f290c8948234eccc36930c802", "fusion_lat": 0.0}, {"lon": -77.01374, "name": "66fe34eced40b52a723a51f5aab8838e", "is_disabled": 0, "type": "electric_scooter", "is_reserved": 0, "fusion_lon": 0.0, "lat": 38.9103925, "rental_uris": {"ios": "https://dc.lft.to/lastmile_qr_scan", "android": "https://dc.lft.to/lastmile_qr_scan"}, "bike_id": "66fe34eced40b52a723a51f5aab8838e", "fusion_lat": 0.0}, {"lon": -77.03585166666667, "name": "a8b64b1112530de0da81f461c957a083", "is_disabled": 0, "type": "electric_bike", "is_reserved": 0, "fusion_lon": 0.0, "lat": 38.992233666666664, "rental_uris": {"ios": "https://dc.lft.to/lastmile_qr_scan", "android": "https://dc.lft.to/lastmile_qr_scan"}, "bike_id": "a8b64b1112530de0da81f461c957a083", "fusion_lat": 0.0}, {"lon": -77.04413333333333, "name": "b57a9cd9f173810e977fa7d7e16b91fe", "is_disabled": 0, "type": "electric_scooter", "is_reserved": 0, "fusion_lon": 0.0, "lat": 38.89609266666667, "rental_uris": {"ios": "https://dc.lft.to/lastmile_qr_scan", "android": "https://dc.lft.to/lastmile_qr_scan"}, "bike_id": "b57a9cd9f173810e977fa7d7e16b91fe", "fusion_lat": 0.0}, {"lon": -77.0037655, "name": "a07afe15240ed698318b3f3e2eabc590", "is_disabled": 0, "type": "electric_bike", "is_reserved": 0, "fusion_lon": 0.0, "lat": 38.83603316666667, "rental_uris": {"ios": "https://dc.lft.to/lastmile_qr_scan", "android": "https://dc.lft.to/lastmile_qr_scan"}, "bike_id": "a07afe15240ed698318b3f3e2eabc590", "fusion_lat": 0.0}, {"lon": -76.9902135, "name": "07e6645f935e869a45c0086edd7ef053", "is_disabled": 0, "type": "electric_scooter", "is_reserved": 0, "fusion_lon": 0.0, "lat": 38.865178, "rental_uris": {"ios": "https://dc.lft.to/lastmile_qr_scan", "android": "https://dc.lft.to/lastmile_qr_scan"}, "bike_id": "07e6645f935e869a45c0086edd7ef053", "fusion_lat": 0.0}, {"lon": -77.01848, "name": "9e5fe97c6e02a7b46255e5fd838cf974", "is_disabled": 0, "type": "electric_scooter", "is_reserved": 0, "fusion_lon": 0.0, "lat": 38.902598166666664, "rental_uris": {"ios": "https://dc.lft.to/lastmile_qr_scan", "android": "https://dc.lft.to/lastmile_qr_scan"}, "bike_id": "9e5fe97c6e02a7b46255e5fd838cf974", "fusion_lat": 0.0}, {"lon": -77.024694, "name": "ff17d2da749ea04082a8fa418902e173", "is_disabled": 0, "type": "electric_scooter", "is_reserved": 0, "fusion_lon": 0.0, "lat": 38.916971833333335, "rental_uris": {"ios": "https://dc.lft.to/lastmile_qr_scan", "android": "https://dc.lft.to/lastmile_qr_scan"}, "bike_id": "ff17d2da749ea04082a8fa418902e173", "fusion_lat": 0.0}, {"lon": -77.03818383333333, "name": "ec9f200e6b55ad08252a3418cf980120", "is_disabled": 0, "type": "electric_scooter", "is_reserved": 0, "fusion_lon": 0.0, "lat": 38.9169185, "rental_uris": {"ios": "https://dc.lft.to/lastmile_qr_scan", "android": "https://dc.lft.to/lastmile_qr_scan"}, "bike_id": "ec9f200e6b55ad08252a3418cf980120", "fusion_lat": 0.0}, {"lon": -77.0236695, "name": "3ee34e86cb930e65674cd8d9c490929f", "is_disabled": 0, "type": "electric_scooter", "is_reserved": 0, "fusion_lon": 0.0, "lat": 38.947346333333336, "rental_uris": {"ios": "https://dc.lft.to/lastmile_qr_scan", "android": "https://dc.lft.to/lastmile_qr_scan"}, "bike_id": "3ee34e86cb930e65674cd8d9c490929f", "fusion_lat": 0.0}, {"lon": -77.07316016666667, "name": "10ec145edfde784ebd76a880eeb6a206", "is_disabled": 0, "type": "electric_scooter", "is_reserved": 0, "fusion_lon": 0.0, "lat": 38.911935166666666, "rental_uris": {"ios": "https://dc.lft.to/lastmile_qr_scan", "android": "https://dc.lft.to/lastmile_qr_scan"}, "bike_id": "10ec145edfde784ebd76a880eeb6a206", "fusion_lat": 0.0}, {"lon": -77.02406216666667, "name": "b57b3752d81708a407eb675a177a681b", "is_disabled": 0, "type": "electric_scooter", "is_reserved": 0, "fusion_lon": 0.0, "lat": 38.90865383333333, "rental_uris": {"ios": "https://dc.lft.to/lastmile_qr_scan", "android": "https://dc.lft.to/lastmile_qr_scan"}, "bike_id": "b57b3752d81708a407eb675a177a681b", "fusion_lat": 0.0}, {"lon": -77.00893466666666, "name": "b4f1581fb7cf0fc3e0abda09c4362e7b", "is_disabled": 0, "type": "electric_scooter", "is_reserved": 0, "fusion_lon": 0.0, "lat": 38.90949366666667, "rental_uris": {"ios": "https://dc.lft.to/lastmile_qr_scan", "android": "https://dc.lft.to/lastmile_qr_scan"}, "bike_id": "b4f1581fb7cf0fc3e0abda09c4362e7b", "fusion_lat": 0.0}, {"lon": -76.998862, "name": "ebce08b7d425bb86aa8252b3d56ec795", "is_disabled": 0, "type": "electric_scooter", "is_reserved": 0, "fusion_lon": 0.0, "lat": 38.9089205, "rental_uris": {"ios": "https://dc.lft.to/lastmile_qr_scan", "android": "https://dc.lft.to/lastmile_qr_scan"}, "bike_id": "ebce08b7d425bb86aa8252b3d56ec795", "fusion_lat": 0.0}, {"lon": -77.02746066666667, "name": "85911894d7ac15f8ebdb3e30473d5e72", "is_disabled": 0, "type": "electric_scooter", "is_reserved": 0, "fusion_lon": 0.0, "lat": 38.96645916666667, "rental_uris": {"ios": "https://dc.lft.to/lastmile_qr_scan", "android": "https://dc.lft.to/lastmile_qr_scan"}, "bike_id": "85911894d7ac15f8ebdb3e30473d5e72", "fusion_lat": 0.0}, {"lon": -77.0419, "name": "d6c0be620d394a2286ecba63f57a913a", "is_disabled": 0, "type": "electric_scooter", "is_reserved": 0, "fusion_lon": 0.0, "lat": 38.90051116666667, "rental_uris": {"ios": "https://dc.lft.to/lastmile_qr_scan", "android": "https://dc.lft.to/lastmile_qr_scan"}, "bike_id": "d6c0be620d394a2286ecba63f57a913a", "fusion_lat": 0.0}, {"lon": -77.032995, "name": "bd5a0574f55b326ad793733f33f0b610", "is_disabled": 0, "type": "electric_scooter", "is_reserved": 0, "fusion_lon": 0.0, "lat": 38.89886466666667, "rental_uris": {"ios": "https://dc.lft.to/lastmile_qr_scan", "android": "https://dc.lft.to/lastmile_qr_scan"}, "bike_id": "bd5a0574f55b326ad793733f33f0b610", "fusion_lat": 0.0}, {"lon": -77.02203783333333, "name": "775c1e6e09240a7d17c577db60884908", "is_disabled": 0, "type": "electric_scooter", "is_reserved": 0, "fusion_lon": 0.0, "lat": 38.92468266666667, "rental_uris": {"ios": "https://dc.lft.to/lastmile_qr_scan", "android": "https://dc.lft.to/lastmile_qr_scan"}, "bike_id": "775c1e6e09240a7d17c577db60884908", "fusion_lat": 0.0}, {"lon": -77.026414, "name": "6e41d8906ed71d76d3a5533c7aeb2f1b", "is_disabled": 0, "type": "electric_scooter", "is_reserved": 0, "fusion_lon": 0.0, "lat": 38.92378866666667, "rental_uris": {"ios": "https://dc.lft.to/lastmile_qr_scan", "android": "https://dc.lft.to/lastmile_qr_scan"}, "bike_id": "6e41d8906ed71d76d3a5533c7aeb2f1b", "fusion_lat": 0.0}, {"lon": -76.961014, "name": "9c334de3815a83d4ca93aec612c1c809", "is_disabled": 0, "type": "electric_scooter", "is_reserved": 0, "fusion_lon": 0.0, "lat": 38.89204383333333, "rental_uris": {"ios": "https://dc.lft.to/lastmile_qr_scan", "android": "https://dc.lft.to/lastmile_qr_scan"}, "bike_id": "9c334de3815a83d4ca93aec612c1c809", "fusion_lat": 0.0}, {"lon": -76.98377833333333, "name": "b17038ddc9482dd018d1eb20b93937c1", "is_disabled": 0, "type": "electric_scooter", "is_reserved": 0, "fusion_lon": 0.0, "lat": 38.906466333333334, "rental_uris": {"ios": "https://dc.lft.to/lastmile_qr_scan", "android": "https://dc.lft.to/lastmile_qr_scan"}, "bike_id": "b17038ddc9482dd018d1eb20b93937c1", "fusion_lat": 0.0}, {"lon": -77.021547, "name": "8e9c9f2509636347ebc9779dbf546b92", "is_disabled": 0, "type": "electric_scooter", "is_reserved": 0, "fusion_lon": 0.0, "lat": 38.924561, "rental_uris": {"ios": "https://dc.lft.to/lastmile_qr_scan", "android": "https://dc.lft.to/lastmile_qr_scan"}, "bike_id": "8e9c9f2509636347ebc9779dbf546b92", "fusion_lat": 0.0}, {"lon": -76.989696, "name": "85c5eba7d7725dba254c308ba456b60c", "is_disabled": 0, "type": "electric_scooter", "is_reserved": 0, "fusion_lon": 0.0, "lat": 38.85690833333334, "rental_uris": {"ios": "https://dc.lft.to/lastmile_qr_scan", "android": "https://dc.lft.to/lastmile_qr_scan"}, "bike_id": "85c5eba7d7725dba254c308ba456b60c", "fusion_lat": 0.0}, {"lon": -77.02113483333333, "name": "ef4a3b216e6320df236b38cdef32f381", "is_disabled": 0, "type": "electric_scooter", "is_reserved": 0, "fusion_lon": 0.0, "lat": 38.92783, "rental_uris": {"ios": "https://dc.lft.to/lastmile_qr_scan", "android": "https://dc.lft.to/lastmile_qr_scan"}, "bike_id": "ef4a3b216e6320df236b38cdef32f381", "fusion_lat": 0.0}, {"lon": -76.9859655, "name": "c011852edc6ee040389c84ff08d1d0ba", "is_disabled": 0, "type": "electric_scooter", "is_reserved": 0, "fusion_lon": 0.0, "lat": 38.9065645, "rental_uris": {"ios": "https://dc.lft.to/lastmile_qr_scan", "android": "https://dc.lft.to/lastmile_qr_scan"}, "bike_id": "c011852edc6ee040389c84ff08d1d0ba", "fusion_lat": 0.0}, {"lon": -76.99782366666666, "name": "0a29562ad20e5493757339216ddf17fc", "is_disabled": 0, "type": "electric_bike", "is_reserved": 0, "fusion_lon": 0.0, "lat": 38.9980995, "rental_uris": {"ios": "https://dc.lft.to/lastmile_qr_scan", "android": "https://dc.lft.to/lastmile_qr_scan"}, "bike_id": "0a29562ad20e5493757339216ddf17fc", "fusion_lat": 0.0}, {"lon": -77.00644566666666, "name": "71941ddcf2cd55f247a2167adee0105e", "is_disabled": 0, "type": "electric_scooter", "is_reserved": 0, "fusion_lon": 0.0, "lat": 38.899984333333336, "rental_uris": {"ios": "https://dc.lft.to/lastmile_qr_scan", "android": "https://dc.lft.to/lastmile_qr_scan"}, "bike_id": "71941ddcf2cd55f247a2167adee0105e", "fusion_lat": 0.0}, {"lon": -77.00288516666667, "name": "2832d10ea6064fdf47ff668e86bb54d1", "is_disabled": 0, "type": "electric_scooter", "is_reserved": 0, "fusion_lon": 0.0, "lat": 38.89352083333333, "rental_uris": {"ios": "https://dc.lft.to/lastmile_qr_scan", "android": "https://dc.lft.to/lastmile_qr_scan"}, "bike_id": "2832d10ea6064fdf47ff668e86bb54d1", "fusion_lat": 0.0}, {"lon": -77.03616916666667, "name": "1cdea00bcf67611f3c61367025019f80", "is_disabled": 0, "type": "electric_scooter", "is_reserved": 0, "fusion_lon": 0.0, "lat": 38.907058166666665, "rental_uris": {"ios": "https://dc.lft.to/lastmile_qr_scan", "android": "https://dc.lft.to/lastmile_qr_scan"}, "bike_id": "1cdea00bcf67611f3c61367025019f80", "fusion_lat": 0.0}, {"lon": -77.05443133333333, "name": "ab5ba4d1aa6defa20567d1ed819728e5", "is_disabled": 0, "type": "electric_scooter", "is_reserved": 0, "fusion_lon": 0.0, "lat": 38.91477866666666, "rental_uris": {"ios": "https://dc.lft.to/lastmile_qr_scan", "android": "https://dc.lft.to/lastmile_qr_scan"}, "bike_id": "ab5ba4d1aa6defa20567d1ed819728e5", "fusion_lat": 0.0}, {"lon": -77.06223833333334, "name": "34e666d78daf425e43107268bb282fd0", "is_disabled": 0, "type": "electric_scooter", "is_reserved": 0, "fusion_lon": 0.0, "lat": 38.942203, "rental_uris": {"ios": "https://dc.lft.to/lastmile_qr_scan", "android": "https://dc.lft.to/lastmile_qr_scan"}, "bike_id": "34e666d78daf425e43107268bb282fd0", "fusion_lat": 0.0}, {"lon": -77.02828633333333, "name": "458dbcfb4d38292a2a69187a68db2abc", "is_disabled": 0, "type": "electric_scooter", "is_reserved": 0, "fusion_lon": 0.0, "lat": 38.938874166666665, "rental_uris": {"ios": "https://dc.lft.to/lastmile_qr_scan", "android": "https://dc.lft.to/lastmile_qr_scan"}, "bike_id": "458dbcfb4d38292a2a69187a68db2abc", "fusion_lat": 0.0}, {"lon": -77.012948, "name": "8a19d1334d99bdc1934a12f3a917ee94", "is_disabled": 0, "type": "electric_scooter", "is_reserved": 0, "fusion_lon": 0.0, "lat": 38.900693833333335, "rental_uris": {"ios": "https://dc.lft.to/lastmile_qr_scan", "android": "https://dc.lft.to/lastmile_qr_scan"}, "bike_id": "8a19d1334d99bdc1934a12f3a917ee94", "fusion_lat": 0.0}, {"lon": -77.04190966666667, "name": "7ff90b3df8aa931213276bb1c2945020", "is_disabled": 0, "type": "electric_scooter", "is_reserved": 0, "fusion_lon": 0.0, "lat": 38.904761666666666, "rental_uris": {"ios": "https://dc.lft.to/lastmile_qr_scan", "android": "https://dc.lft.to/lastmile_qr_scan"}, "bike_id": "7ff90b3df8aa931213276bb1c2945020", "fusion_lat": 0.0}, {"lon": -76.93467783333334, "name": "623fcae4551f05ff9c35991b46a637b2", "is_disabled": 0, "type": "electric_scooter", "is_reserved": 0, "fusion_lon": 0.0, "lat": 38.90180216666667, "rental_uris": {"ios": "https://dc.lft.to/lastmile_qr_scan", "android": "https://dc.lft.to/lastmile_qr_scan"}, "bike_id": "623fcae4551f05ff9c35991b46a637b2", "fusion_lat": 0.0}, {"lon": -77.00409366666666, "name": "e4e0fb04908cc49506bcc797548edc11", "is_disabled": 0, "type": "electric_bike", "is_reserved": 0, "fusion_lon": 0.0, "lat": 38.985269833333334, "rental_uris": {"ios": "https://dc.lft.to/lastmile_qr_scan", "android": "https://dc.lft.to/lastmile_qr_scan"}, "bike_id": "e4e0fb04908cc49506bcc797548edc11", "fusion_lat": 0.0}, {"lon": -77.01154866666667, "name": "74f5956cb85ab9a7f7292bf1ab411ae4", "is_disabled": 0, "type": "electric_scooter", "is_reserved": 0, "fusion_lon": 0.0, "lat": 38.896345, "rental_uris": {"ios": "https://dc.lft.to/lastmile_qr_scan", "android": "https://dc.lft.to/lastmile_qr_scan"}, "bike_id": "74f5956cb85ab9a7f7292bf1ab411ae4", "fusion_lat": 0.0}, {"lon": -77.04685483333333, "name": "6e95d684b7f73cf028475e2c6e7f49af", "is_disabled": 0, "type": "electric_scooter", "is_reserved": 0, "fusion_lon": 0.0, "lat": 38.899571333333334, "rental_uris": {"ios": "https://dc.lft.to/lastmile_qr_scan", "android": "https://dc.lft.to/lastmile_qr_scan"}, "bike_id": "6e95d684b7f73cf028475e2c6e7f49af", "fusion_lat": 0.0}, {"lon": -77.0348275, "name": "9e1b87dc63d77d5e4a3e31bd1576adf4", "is_disabled": 0, "type": "electric_scooter", "is_reserved": 0, "fusion_lon": 0.0, "lat": 38.91937033333333, "rental_uris": {"ios": "https://dc.lft.to/lastmile_qr_scan", "android": "https://dc.lft.to/lastmile_qr_scan"}, "bike_id": "9e1b87dc63d77d5e4a3e31bd1576adf4", "fusion_lat": 0.0}, {"lon": -77.04171816666667, "name": "e583f139675d7acc71a689a13ece4ba8", "is_disabled": 0, "type": "electric_scooter", "is_reserved": 0, "fusion_lon": 0.0, "lat": 38.9164535, "rental_uris": {"ios": "https://dc.lft.to/lastmile_qr_scan", "android": "https://dc.lft.to/lastmile_qr_scan"}, "bike_id": "e583f139675d7acc71a689a13ece4ba8", "fusion_lat": 0.0}, {"lon": -77.01946983333333, "name": "c1450da1c3fd99afa58819ea9ec22b2c", "is_disabled": 0, "type": "electric_scooter", "is_reserved": 0, "fusion_lon": 0.0, "lat": 38.924181, "rental_uris": {"ios": "https://dc.lft.to/lastmile_qr_scan", "android": "https://dc.lft.to/lastmile_qr_scan"}, "bike_id": "c1450da1c3fd99afa58819ea9ec22b2c", "fusion_lat": 0.0}, {"lon": -76.93209683333333, "name": "bee57e2addb38a825889bb89731674cc", "is_disabled": 0, "type": "electric_scooter", "is_reserved": 0, "fusion_lon": 0.0, "lat": 38.896645, "rental_uris": {"ios": "https://dc.lft.to/lastmile_qr_scan", "android": "https://dc.lft.to/lastmile_qr_scan"}, "bike_id": "bee57e2addb38a825889bb89731674cc", "fusion_lat": 0.0}, {"lon": -77.058113, "name": "146bb12ce4db59e3a0f52fb23e02d1e0", "is_disabled": 0, "type": "electric_scooter", "is_reserved": 0, "fusion_lon": 0.0, "lat": 38.92904433333333, "rental_uris": {"ios": "https://dc.lft.to/lastmile_qr_scan", "android": "https://dc.lft.to/lastmile_qr_scan"}, "bike_id": "146bb12ce4db59e3a0f52fb23e02d1e0", "fusion_lat": 0.0}, {"lon": -77.0657935, "name": "d580a38b9b1b91ffbee451e977dcd1ec", "is_disabled": 0, "type": "electric_bike", "is_reserved": 0, "fusion_lon": 0.0, "lat": 38.91128716666667, "rental_uris": {"ios": "https://dc.lft.to/lastmile_qr_scan", "android": "https://dc.lft.to/lastmile_qr_scan"}, "bike_id": "d580a38b9b1b91ffbee451e977dcd1ec", "fusion_lat": 0.0}, {"lon": -76.97085066666666, "name": "982b4b87f463046c542dbd8d48843f39", "is_disabled": 0, "type": "electric_scooter", "is_reserved": 0, "fusion_lon": 0.0, "lat": 38.869372166666665, "rental_uris": {"ios": "https://dc.lft.to/lastmile_qr_scan", "android": "https://dc.lft.to/lastmile_qr_scan"}, "bike_id": "982b4b87f463046c542dbd8d48843f39", "fusion_lat": 0.0}, {"lon": -77.03183233333333, "name": "2ea6f503d02d64bb3c18e4ec0496cecc", "is_disabled": 0, "type": "electric_scooter", "is_reserved": 0, "fusion_lon": 0.0, "lat": 38.892335333333335, "rental_uris": {"ios": "https://dc.lft.to/lastmile_qr_scan", "android": "https://dc.lft.to/lastmile_qr_scan"}, "bike_id": "2ea6f503d02d64bb3c18e4ec0496cecc", "fusion_lat": 0.0}, {"lon": -77.0059255, "name": "e2de72b606167f3cf34d629223fbd49a", "is_disabled": 0, "type": "electric_scooter", "is_reserved": 0, "fusion_lon": 0.0, "lat": 38.90596, "rental_uris": {"ios": "https://dc.lft.to/lastmile_qr_scan", "android": "https://dc.lft.to/lastmile_qr_scan"}, "bike_id": "e2de72b606167f3cf34d629223fbd49a", "fusion_lat": 0.0}, {"lon": -76.983356, "name": "19110371b4d067f6aacc1696e3561581", "is_disabled": 0, "type": "electric_scooter", "is_reserved": 0, "fusion_lon": 0.0, "lat": 38.89541833333333, "rental_uris": {"ios": "https://dc.lft.to/lastmile_qr_scan", "android": "https://dc.lft.to/lastmile_qr_scan"}, "bike_id": "19110371b4d067f6aacc1696e3561581", "fusion_lat": 0.0}, {"lon": -77.0326475, "name": "063259cd071845fe5c544905ad99f073", "is_disabled": 0, "type": "electric_scooter", "is_reserved": 0, "fusion_lon": 0.0, "lat": 38.934425833333336, "rental_uris": {"ios": "https://dc.lft.to/lastmile_qr_scan", "android": "https://dc.lft.to/lastmile_qr_scan"}, "bike_id": "063259cd071845fe5c544905ad99f073", "fusion_lat": 0.0}, {"lon": -76.97869016666667, "name": "4100c294c0f687222f824f9fbc6d47b2", "is_disabled": 0, "type": "electric_scooter", "is_reserved": 0, "fusion_lon": 0.0, "lat": 38.89751566666666, "rental_uris": {"ios": "https://dc.lft.to/lastmile_qr_scan", "android": "https://dc.lft.to/lastmile_qr_scan"}, "bike_id": "4100c294c0f687222f824f9fbc6d47b2", "fusion_lat": 0.0}, {"lon": -77.00765533333333, "name": "7cd0adbfde893dfc0c607d77ef4216b6", "is_disabled": 0, "type": "electric_scooter", "is_reserved": 0, "fusion_lon": 0.0, "lat": 38.909555166666664, "rental_uris": {"ios": "https://dc.lft.to/lastmile_qr_scan", "android": "https://dc.lft.to/lastmile_qr_scan"}, "bike_id": "7cd0adbfde893dfc0c607d77ef4216b6", "fusion_lat": 0.0}, {"lon": -77.0220635, "name": "62d2f86eeadbd26c82f42dbe33d8c58d", "is_disabled": 0, "type": "electric_scooter", "is_reserved": 0, "fusion_lon": 0.0, "lat": 38.92474083333333, "rental_uris": {"ios": "https://dc.lft.to/lastmile_qr_scan", "android": "https://dc.lft.to/lastmile_qr_scan"}, "bike_id": "62d2f86eeadbd26c82f42dbe33d8c58d", "fusion_lat": 0.0}, {"lon": -77.00374716666667, "name": "232fcfe5d8752bf456fa48061f6ad83f", "is_disabled": 0, "type": "electric_scooter", "is_reserved": 0, "fusion_lon": 0.0, "lat": 38.899631666666664, "rental_uris": {"ios": "https://dc.lft.to/lastmile_qr_scan", "android": "https://dc.lft.to/lastmile_qr_scan"}, "bike_id": "232fcfe5d8752bf456fa48061f6ad83f", "fusion_lat": 0.0}, {"lon": -77.05473333333333, "name": "58941472b6e995c26df57a8c8fac1a88", "is_disabled": 0, "type": "electric_scooter", "is_reserved": 0, "fusion_lon": 0.0, "lat": 38.89721733333333, "rental_uris": {"ios": "https://dc.lft.to/lastmile_qr_scan", "android": "https://dc.lft.to/lastmile_qr_scan"}, "bike_id": "58941472b6e995c26df57a8c8fac1a88", "fusion_lat": 0.0}, {"lon": -77.05000883333334, "name": "bf96fd0f82272c0091a61f34bffa75ad", "is_disabled": 0, "type": "electric_scooter", "is_reserved": 0, "fusion_lon": 0.0, "lat": 38.900796, "rental_uris": {"ios": "https://dc.lft.to/lastmile_qr_scan", "android": "https://dc.lft.to/lastmile_qr_scan"}, "bike_id": "bf96fd0f82272c0091a61f34bffa75ad", "fusion_lat": 0.0}, {"lon": -77.0018505, "name": "aa01a896f6038741e8dc8711328917d3", "is_disabled": 0, "type": "electric_scooter", "is_reserved": 0, "fusion_lon": 0.0, "lat": 38.90032583333333, "rental_uris": {"ios": "https://dc.lft.to/lastmile_qr_scan", "android": "https://dc.lft.to/lastmile_qr_scan"}, "bike_id": "aa01a896f6038741e8dc8711328917d3", "fusion_lat": 0.0}, {"lon": -77.050231, "name": "b8abb0870fb399fb50b145adffdacb81", "is_disabled": 0, "type": "electric_scooter", "is_reserved": 0, "fusion_lon": 0.0, "lat": 38.901482333333334, "rental_uris": {"ios": "https://dc.lft.to/lastmile_qr_scan", "android": "https://dc.lft.to/lastmile_qr_scan"}, "bike_id": "b8abb0870fb399fb50b145adffdacb81", "fusion_lat": 0.0}, {"lon": -77.01909233333333, "name": "326c9a36888bdf41398f581d6a92b6bc", "is_disabled": 0, "type": "electric_scooter", "is_reserved": 0, "fusion_lon": 0.0, "lat": 38.92334833333334, "rental_uris": {"ios": "https://dc.lft.to/lastmile_qr_scan", "android": "https://dc.lft.to/lastmile_qr_scan"}, "bike_id": "326c9a36888bdf41398f581d6a92b6bc", "fusion_lat": 0.0}, {"lon": -77.0463935, "name": "260da8891a92fcda2033e625b68d72aa", "is_disabled": 0, "type": "electric_bike", "is_reserved": 0, "fusion_lon": 0.0, "lat": 38.815483666666665, "rental_uris": {"ios": "https://dc.lft.to/lastmile_qr_scan", "android": "https://dc.lft.to/lastmile_qr_scan"}, "bike_id": "260da8891a92fcda2033e625b68d72aa", "fusion_lat": 0.0}, {"lon": -77.002138, "name": "164ab365b52c30742fcf596e37d6cccb", "is_disabled": 0, "type": "electric_scooter", "is_reserved": 0, "fusion_lon": 0.0, "lat": 38.91169383333333, "rental_uris": {"ios": "https://dc.lft.to/lastmile_qr_scan", "android": "https://dc.lft.to/lastmile_qr_scan"}, "bike_id": "164ab365b52c30742fcf596e37d6cccb", "fusion_lat": 0.0}, {"lon": -77.0296745, "name": "15d46883ec15839cfd76c3aaffa42045", "is_disabled": 0, "type": "electric_scooter", "is_reserved": 0, "fusion_lon": 0.0, "lat": 38.9260255, "rental_uris": {"ios": "https://dc.lft.to/lastmile_qr_scan", "android": "https://dc.lft.to/lastmile_qr_scan"}, "bike_id": "15d46883ec15839cfd76c3aaffa42045", "fusion_lat": 0.0}, {"lon": -77.04659266666667, "name": "98f18f833e4ee159fb39c5ff2065db5a", "is_disabled": 0, "type": "electric_scooter", "is_reserved": 0, "fusion_lon": 0.0, "lat": 38.892492833333336, "rental_uris": {"ios": "https://dc.lft.to/lastmile_qr_scan", "android": "https://dc.lft.to/lastmile_qr_scan"}, "bike_id": "98f18f833e4ee159fb39c5ff2065db5a", "fusion_lat": 0.0}, {"lon": -77.0187035, "name": "589d62824d7aa9c2aa1e2f52d69e0f36", "is_disabled": 0, "type": "electric_scooter", "is_reserved": 0, "fusion_lon": 0.0, "lat": 38.92013566666667, "rental_uris": {"ios": "https://dc.lft.to/lastmile_qr_scan", "android": "https://dc.lft.to/lastmile_qr_scan"}, "bike_id": "589d62824d7aa9c2aa1e2f52d69e0f36", "fusion_lat": 0.0}, {"lon": -76.937123, "name": "d793ccc1d5de4641547fca06bb2073d5", "is_disabled": 0, "type": "electric_scooter", "is_reserved": 0, "fusion_lon": 0.0, "lat": 38.8885515, "rental_uris": {"ios": "https://dc.lft.to/lastmile_qr_scan", "android": "https://dc.lft.to/lastmile_qr_scan"}, "bike_id": "d793ccc1d5de4641547fca06bb2073d5", "fusion_lat": 0.0}, {"lon": -77.00381783333333, "name": "4ea00c47e44e59b28ff4d362b46fdd89", "is_disabled": 0, "type": "electric_scooter", "is_reserved": 0, "fusion_lon": 0.0, "lat": 38.876307, "rental_uris": {"ios": "https://dc.lft.to/lastmile_qr_scan", "android": "https://dc.lft.to/lastmile_qr_scan"}, "bike_id": "4ea00c47e44e59b28ff4d362b46fdd89", "fusion_lat": 0.0}, {"lon": -77.03461783333333, "name": "3d23c035c6418e0edea87f73afbef34b", "is_disabled": 0, "type": "electric_scooter", "is_reserved": 0, "fusion_lon": 0.0, "lat": 38.908592666666664, "rental_uris": {"ios": "https://dc.lft.to/lastmile_qr_scan", "android": "https://dc.lft.to/lastmile_qr_scan"}, "bike_id": "3d23c035c6418e0edea87f73afbef34b", "fusion_lat": 0.0}, {"lon": -77.00517783333333, "name": "b979919e158809f695c1085a70cc86d2", "is_disabled": 0, "type": "electric_scooter", "is_reserved": 0, "fusion_lon": 0.0, "lat": 38.87470316666667, "rental_uris": {"ios": "https://dc.lft.to/lastmile_qr_scan", "android": "https://dc.lft.to/lastmile_qr_scan"}, "bike_id": "b979919e158809f695c1085a70cc86d2", "fusion_lat": 0.0}, {"lon": -77.04459033333333, "name": "ba0b3d69649687624ab172d32c069f07", "is_disabled": 0, "type": "electric_scooter", "is_reserved": 0, "fusion_lon": 0.0, "lat": 38.896214666666665, "rental_uris": {"ios": "https://dc.lft.to/lastmile_qr_scan", "android": "https://dc.lft.to/lastmile_qr_scan"}, "bike_id": "ba0b3d69649687624ab172d32c069f07", "fusion_lat": 0.0}, {"lon": -77.0239555, "name": "18ff58e123f62a5bcbf1f324d34ca920", "is_disabled": 0, "type": "electric_scooter", "is_reserved": 0, "fusion_lon": 0.0, "lat": 38.893986166666664, "rental_uris": {"ios": "https://dc.lft.to/lastmile_qr_scan", "android": "https://dc.lft.to/lastmile_qr_scan"}, "bike_id": "18ff58e123f62a5bcbf1f324d34ca920", "fusion_lat": 0.0}, {"lon": -77.0320805, "name": "9fda1fa3b7a7adec7d88c4bd899078ed", "is_disabled": 0, "type": "electric_scooter", "is_reserved": 0, "fusion_lon": 0.0, "lat": 38.9078475, "rental_uris": {"ios": "https://dc.lft.to/lastmile_qr_scan", "android": "https://dc.lft.to/lastmile_qr_scan"}, "bike_id": "9fda1fa3b7a7adec7d88c4bd899078ed", "fusion_lat": 0.0}, {"lon": -77.02161266666667, "name": "9b38ad3dfa0d00ba32974248b59bf5ff", "is_disabled": 0, "type": "electric_scooter", "is_reserved": 0, "fusion_lon": 0.0, "lat": 38.926328, "rental_uris": {"ios": "https://dc.lft.to/lastmile_qr_scan", "android": "https://dc.lft.to/lastmile_qr_scan"}, "bike_id": "9b38ad3dfa0d00ba32974248b59bf5ff", "fusion_lat": 0.0}, {"lon": -76.90303433333334, "name": "6e74b6e36fc906164da9b9e83d1fa155", "is_disabled": 0, "type": "electric_bike", "is_reserved": 0, "fusion_lon": 0.0, "lat": 39.002891, "rental_uris": {"ios": "https://dc.lft.to/lastmile_qr_scan", "android": "https://dc.lft.to/lastmile_qr_scan"}, "bike_id": "6e74b6e36fc906164da9b9e83d1fa155", "fusion_lat": 0.0}, {"lon": -77.02700633333333, "name": "edf849a731a22b1e5a3419162aad62dd", "is_disabled": 0, "type": "electric_scooter", "is_reserved": 0, "fusion_lon": 0.0, "lat": 38.897569, "rental_uris": {"ios": "https://dc.lft.to/lastmile_qr_scan", "android": "https://dc.lft.to/lastmile_qr_scan"}, "bike_id": "edf849a731a22b1e5a3419162aad62dd", "fusion_lat": 0.0}, {"lon": -77.06985816666666, "name": "5b6a0bc9dfe65365686b6d89bb5b6218", "is_disabled": 0, "type": "electric_scooter", "is_reserved": 0, "fusion_lon": 0.0, "lat": 38.90764466666667, "rental_uris": {"ios": "https://dc.lft.to/lastmile_qr_scan", "android": "https://dc.lft.to/lastmile_qr_scan"}, "bike_id": "5b6a0bc9dfe65365686b6d89bb5b6218", "fusion_lat": 0.0}, {"lon": -77.02130916666667, "name": "4d4f1aa1ac7034cbcbdeeba19cccdbc0", "is_disabled": 0, "type": "electric_scooter", "is_reserved": 0, "fusion_lon": 0.0, "lat": 38.92414383333333, "rental_uris": {"ios": "https://dc.lft.to/lastmile_qr_scan", "android": "https://dc.lft.to/lastmile_qr_scan"}, "bike_id": "4d4f1aa1ac7034cbcbdeeba19cccdbc0", "fusion_lat": 0.0}, {"lon": -77.128969, "name": "32323a05e32d01a84cdd223df1d377de", "is_disabled": 0, "type": "electric_bike", "is_reserved": 0, "fusion_lon": 0.0, "lat": 38.906069333333335, "rental_uris": {"ios": "https://dc.lft.to/lastmile_qr_scan", "android": "https://dc.lft.to/lastmile_qr_scan"}, "bike_id": "32323a05e32d01a84cdd223df1d377de", "fusion_lat": 0.0}, {"lon": -77.0176645, "name": "34a0745aace8ad656519785e8619095a", "is_disabled": 0, "type": "electric_scooter", "is_reserved": 0, "fusion_lon": 0.0, "lat": 38.87696316666667, "rental_uris": {"ios": "https://dc.lft.to/lastmile_qr_scan", "android": "https://dc.lft.to/lastmile_qr_scan"}, "bike_id": "34a0745aace8ad656519785e8619095a", "fusion_lat": 0.0}, {"lon": -77.013733, "name": "5f22d546f546fdbecc7cb359520deee8", "is_disabled": 0, "type": "electric_scooter", "is_reserved": 0, "fusion_lon": 0.0, "lat": 38.912822166666665, "rental_uris": {"ios": "https://dc.lft.to/lastmile_qr_scan", "android": "https://dc.lft.to/lastmile_qr_scan"}, "bike_id": "5f22d546f546fdbecc7cb359520deee8", "fusion_lat": 0.0}, {"lon": -76.9851485, "name": "67cf70edfe03b2564ff209b17a961009", "is_disabled": 0, "type": "electric_scooter", "is_reserved": 0, "fusion_lon": 0.0, "lat": 38.859980166666666, "rental_uris": {"ios": "https://dc.lft.to/lastmile_qr_scan", "android": "https://dc.lft.to/lastmile_qr_scan"}, "bike_id": "67cf70edfe03b2564ff209b17a961009", "fusion_lat": 0.0}, {"lon": -77.03443816666666, "name": "212bb51434bbbb4835ab3be922e94517", "is_disabled": 0, "type": "electric_scooter", "is_reserved": 0, "fusion_lon": 0.0, "lat": 38.91783216666666, "rental_uris": {"ios": "https://dc.lft.to/lastmile_qr_scan", "android": "https://dc.lft.to/lastmile_qr_scan"}, "bike_id": "212bb51434bbbb4835ab3be922e94517", "fusion_lat": 0.0}, {"lon": -77.03468833333334, "name": "9fce217920e5bd9d5172f090d8a8905b", "is_disabled": 0, "type": "electric_scooter", "is_reserved": 0, "fusion_lon": 0.0, "lat": 38.9297905, "rental_uris": {"ios": "https://dc.lft.to/lastmile_qr_scan", "android": "https://dc.lft.to/lastmile_qr_scan"}, "bike_id": "9fce217920e5bd9d5172f090d8a8905b", "fusion_lat": 0.0}, {"lon": -76.98464183333333, "name": "3d83d71a7584739cc429b0c2a0a504fc", "is_disabled": 0, "type": "electric_scooter", "is_reserved": 0, "fusion_lon": 0.0, "lat": 38.90968633333333, "rental_uris": {"ios": "https://dc.lft.to/lastmile_qr_scan", "android": "https://dc.lft.to/lastmile_qr_scan"}, "bike_id": "3d83d71a7584739cc429b0c2a0a504fc", "fusion_lat": 0.0}, {"lon": -77.03615066666667, "name": "21f193507cd3101f9f8add4413eb9349", "is_disabled": 0, "type": "electric_scooter", "is_reserved": 0, "fusion_lon": 0.0, "lat": 38.917258333333336, "rental_uris": {"ios": "https://dc.lft.to/lastmile_qr_scan", "android": "https://dc.lft.to/lastmile_qr_scan"}, "bike_id": "21f193507cd3101f9f8add4413eb9349", "fusion_lat": 0.0}, {"lon": -76.99700033333333, "name": "20150ea890980d0b21b275c170e5cc94", "is_disabled": 0, "type": "electric_scooter", "is_reserved": 0, "fusion_lon": 0.0, "lat": 38.9079615, "rental_uris": {"ios": "https://dc.lft.to/lastmile_qr_scan", "android": "https://dc.lft.to/lastmile_qr_scan"}, "bike_id": "20150ea890980d0b21b275c170e5cc94", "fusion_lat": 0.0}, {"lon": -77.02410233333333, "name": "090d09a74819ea6cdeea053a912d3a78", "is_disabled": 0, "type": "electric_scooter", "is_reserved": 0, "fusion_lon": 0.0, "lat": 38.933602, "rental_uris": {"ios": "https://dc.lft.to/lastmile_qr_scan", "android": "https://dc.lft.to/lastmile_qr_scan"}, "bike_id": "090d09a74819ea6cdeea053a912d3a78", "fusion_lat": 0.0}, {"lon": -76.97682316666666, "name": "a39cc2e2f6b16286faca0eef11f197d1", "is_disabled": 0, "type": "electric_scooter", "is_reserved": 0, "fusion_lon": 0.0, "lat": 38.90091316666667, "rental_uris": {"ios": "https://dc.lft.to/lastmile_qr_scan", "android": "https://dc.lft.to/lastmile_qr_scan"}, "bike_id": "a39cc2e2f6b16286faca0eef11f197d1", "fusion_lat": 0.0}, {"lon": -77.01543016666666, "name": "1ec86e6ae06240166d913e64e88a94a9", "is_disabled": 0, "type": "electric_scooter", "is_reserved": 0, "fusion_lon": 0.0, "lat": 38.88573916666667, "rental_uris": {"ios": "https://dc.lft.to/lastmile_qr_scan", "android": "https://dc.lft.to/lastmile_qr_scan"}, "bike_id": "1ec86e6ae06240166d913e64e88a94a9", "fusion_lat": 0.0}, {"lon": -77.05006183333333, "name": "8436f5dafb25e14a84c71ab3002ea45b", "is_disabled": 0, "type": "electric_scooter", "is_reserved": 0, "fusion_lon": 0.0, "lat": 38.90362783333333, "rental_uris": {"ios": "https://dc.lft.to/lastmile_qr_scan", "android": "https://dc.lft.to/lastmile_qr_scan"}, "bike_id": "8436f5dafb25e14a84c71ab3002ea45b", "fusion_lat": 0.0}, {"lon": -77.04008466666667, "name": "31744d6fa39a4b9d00a6528c813e551e", "is_disabled": 0, "type": "electric_scooter", "is_reserved": 0, "fusion_lon": 0.0, "lat": 38.909977833333336, "rental_uris": {"ios": "https://dc.lft.to/lastmile_qr_scan", "android": "https://dc.lft.to/lastmile_qr_scan"}, "bike_id": "31744d6fa39a4b9d00a6528c813e551e", "fusion_lat": 0.0}, {"lon": -77.03190983333333, "name": "147293e67f945f889d00cd8d070763e6", "is_disabled": 0, "type": "electric_scooter", "is_reserved": 0, "fusion_lon": 0.0, "lat": 38.89237833333333, "rental_uris": {"ios": "https://dc.lft.to/lastmile_qr_scan", "android": "https://dc.lft.to/lastmile_qr_scan"}, "bike_id": "147293e67f945f889d00cd8d070763e6", "fusion_lat": 0.0}, {"lon": -76.97741783333333, "name": "c527f3a50968734aa7eb4681aae05d29", "is_disabled": 0, "type": "electric_bike", "is_reserved": 0, "fusion_lon": 0.0, "lat": 38.864883, "rental_uris": {"ios": "https://dc.lft.to/lastmile_qr_scan", "android": "https://dc.lft.to/lastmile_qr_scan"}, "bike_id": "c527f3a50968734aa7eb4681aae05d29", "fusion_lat": 0.0}, {"lon": -77.02301916666667, "name": "e9c3f2da382eff6c7987c51488d7163e", "is_disabled": 0, "type": "electric_scooter", "is_reserved": 0, "fusion_lon": 0.0, "lat": 38.91705016666667, "rental_uris": {"ios": "https://dc.lft.to/lastmile_qr_scan", "android": "https://dc.lft.to/lastmile_qr_scan"}, "bike_id": "e9c3f2da382eff6c7987c51488d7163e", "fusion_lat": 0.0}, {"lon": -76.980908, "name": "2ac440ca11955c932a95de7ab564425c", "is_disabled": 0, "type": "electric_bike", "is_reserved": 0, "fusion_lon": 0.0, "lat": 38.95355333333333, "rental_uris": {"ios": "https://dc.lft.to/lastmile_qr_scan", "android": "https://dc.lft.to/lastmile_qr_scan"}, "bike_id": "2ac440ca11955c932a95de7ab564425c", "fusion_lat": 0.0}, {"lon": -76.991541, "name": "fd66c47288d5cdda0da2b6cb9261b7b5", "is_disabled": 0, "type": "electric_scooter", "is_reserved": 0, "fusion_lon": 0.0, "lat": 38.891572333333336, "rental_uris": {"ios": "https://dc.lft.to/lastmile_qr_scan", "android": "https://dc.lft.to/lastmile_qr_scan"}, "bike_id": "fd66c47288d5cdda0da2b6cb9261b7b5", "fusion_lat": 0.0}, {"lon": -77.015019, "name": "6a679b83f63bdd452eac3a88d77ff864", "is_disabled": 0, "type": "electric_scooter", "is_reserved": 0, "fusion_lon": 0.0, "lat": 38.891621, "rental_uris": {"ios": "https://dc.lft.to/lastmile_qr_scan", "android": "https://dc.lft.to/lastmile_qr_scan"}, "bike_id": "6a679b83f63bdd452eac3a88d77ff864", "fusion_lat": 0.0}, {"lon": -77.01842666666667, "name": "a3ef99d3c9304713e6b3cc846498d115", "is_disabled": 0, "type": "electric_scooter", "is_reserved": 0, "fusion_lon": 0.0, "lat": 38.9086595, "rental_uris": {"ios": "https://dc.lft.to/lastmile_qr_scan", "android": "https://dc.lft.to/lastmile_qr_scan"}, "bike_id": "a3ef99d3c9304713e6b3cc846498d115", "fusion_lat": 0.0}, {"lon": -77.055224, "name": "ca80da117df509f0a20ad877c0403eda", "is_disabled": 0, "type": "electric_scooter", "is_reserved": 0, "fusion_lon": 0.0, "lat": 38.9296315, "rental_uris": {"ios": "https://dc.lft.to/lastmile_qr_scan", "android": "https://dc.lft.to/lastmile_qr_scan"}, "bike_id": "ca80da117df509f0a20ad877c0403eda", "fusion_lat": 0.0}, {"lon": -77.03977183333333, "name": "41bd1489b3a29d761c3cda556981d55a", "is_disabled": 0, "type": "electric_scooter", "is_reserved": 0, "fusion_lon": 0.0, "lat": 38.901190666666665, "rental_uris": {"ios": "https://dc.lft.to/lastmile_qr_scan", "android": "https://dc.lft.to/lastmile_qr_scan"}, "bike_id": "41bd1489b3a29d761c3cda556981d55a", "fusion_lat": 0.0}, {"lon": -77.062853, "name": "5849dde7eab49cad7b7bb442d98d7df0", "is_disabled": 0, "type": "electric_scooter", "is_reserved": 0, "fusion_lon": 0.0, "lat": 38.905379, "rental_uris": {"ios": "https://dc.lft.to/lastmile_qr_scan", "android": "https://dc.lft.to/lastmile_qr_scan"}, "bike_id": "5849dde7eab49cad7b7bb442d98d7df0", "fusion_lat": 0.0}, {"lon": -77.0013835, "name": "833b5eff8b5b2ed0b8366d139685856f", "is_disabled": 0, "type": "electric_scooter", "is_reserved": 0, "fusion_lon": 0.0, "lat": 38.88435783333333, "rental_uris": {"ios": "https://dc.lft.to/lastmile_qr_scan", "android": "https://dc.lft.to/lastmile_qr_scan"}, "bike_id": "833b5eff8b5b2ed0b8366d139685856f", "fusion_lat": 0.0}, {"lon": -77.03757566666667, "name": "9663d68f12856fd0ff1bd2e197e6968a", "is_disabled": 0, "type": "electric_scooter", "is_reserved": 0, "fusion_lon": 0.0, "lat": 38.93090383333333, "rental_uris": {"ios": "https://dc.lft.to/lastmile_qr_scan", "android": "https://dc.lft.to/lastmile_qr_scan"}, "bike_id": "9663d68f12856fd0ff1bd2e197e6968a", "fusion_lat": 0.0}, {"lon": -77.02210133333334, "name": "37b662b58a7573468a5f496203b85013", "is_disabled": 0, "type": "electric_scooter", "is_reserved": 0, "fusion_lon": 0.0, "lat": 38.896123833333334, "rental_uris": {"ios": "https://dc.lft.to/lastmile_qr_scan", "android": "https://dc.lft.to/lastmile_qr_scan"}, "bike_id": "37b662b58a7573468a5f496203b85013", "fusion_lat": 0.0}, {"lon": -76.99303983333333, "name": "bf12ccdbccea481fd959890e823df3b4", "is_disabled": 0, "type": "electric_scooter", "is_reserved": 0, "fusion_lon": 0.0, "lat": 38.937709, "rental_uris": {"ios": "https://dc.lft.to/lastmile_qr_scan", "android": "https://dc.lft.to/lastmile_qr_scan"}, "bike_id": "bf12ccdbccea481fd959890e823df3b4", "fusion_lat": 0.0}, {"lon": -77.07183733333333, "name": "12be046ee9f3ea46f143f3e6eabb4fde", "is_disabled": 0, "type": "electric_scooter", "is_reserved": 0, "fusion_lon": 0.0, "lat": 38.920624, "rental_uris": {"ios": "https://dc.lft.to/lastmile_qr_scan", "android": "https://dc.lft.to/lastmile_qr_scan"}, "bike_id": "12be046ee9f3ea46f143f3e6eabb4fde", "fusion_lat": 0.0}, {"lon": -77.03356633333334, "name": "3f3189a64b47eaec23baa465411d2c6f", "is_disabled": 0, "type": "electric_scooter", "is_reserved": 0, "fusion_lon": 0.0, "lat": 38.927398333333336, "rental_uris": {"ios": "https://dc.lft.to/lastmile_qr_scan", "android": "https://dc.lft.to/lastmile_qr_scan"}, "bike_id": "3f3189a64b47eaec23baa465411d2c6f", "fusion_lat": 0.0}, {"lon": -76.93391166666666, "name": "c487f6f05a6745c4f7d8719a38cee5ab", "is_disabled": 0, "type": "electric_scooter", "is_reserved": 0, "fusion_lon": 0.0, "lat": 38.899129, "rental_uris": {"ios": "https://dc.lft.to/lastmile_qr_scan", "android": "https://dc.lft.to/lastmile_qr_scan"}, "bike_id": "c487f6f05a6745c4f7d8719a38cee5ab", "fusion_lat": 0.0}, {"lon": -77.05794616666667, "name": "0f82f6cdb334f8d92f870f017331033b", "is_disabled": 0, "type": "electric_scooter", "is_reserved": 0, "fusion_lon": 0.0, "lat": 38.9026665, "rental_uris": {"ios": "https://dc.lft.to/lastmile_qr_scan", "android": "https://dc.lft.to/lastmile_qr_scan"}, "bike_id": "0f82f6cdb334f8d92f870f017331033b", "fusion_lat": 0.0}, {"lon": -77.03189966666666, "name": "099b610db2165c2b5ead24a720593203", "is_disabled": 0, "type": "electric_scooter", "is_reserved": 0, "fusion_lon": 0.0, "lat": 38.91321533333333, "rental_uris": {"ios": "https://dc.lft.to/lastmile_qr_scan", "android": "https://dc.lft.to/lastmile_qr_scan"}, "bike_id": "099b610db2165c2b5ead24a720593203", "fusion_lat": 0.0}, {"lon": -77.04059, "name": "0a8a9d283796d45f6ab894b68f23f0e7", "is_disabled": 0, "type": "electric_scooter", "is_reserved": 0, "fusion_lon": 0.0, "lat": 38.90401983333334, "rental_uris": {"ios": "https://dc.lft.to/lastmile_qr_scan", "android": "https://dc.lft.to/lastmile_qr_scan"}, "bike_id": "0a8a9d283796d45f6ab894b68f23f0e7", "fusion_lat": 0.0}, {"lon": -77.05007566666667, "name": "937956ab7db065b5033dfc1799a7738c", "is_disabled": 0, "type": "electric_scooter", "is_reserved": 0, "fusion_lon": 0.0, "lat": 38.90082833333334, "rental_uris": {"ios": "https://dc.lft.to/lastmile_qr_scan", "android": "https://dc.lft.to/lastmile_qr_scan"}, "bike_id": "937956ab7db065b5033dfc1799a7738c", "fusion_lat": 0.0}, {"lon": -76.99782433333333, "name": "f7a088762d360c3747fd681267b18b9d", "is_disabled": 0, "type": "electric_scooter", "is_reserved": 0, "fusion_lon": 0.0, "lat": 38.93218866666667, "rental_uris": {"ios": "https://dc.lft.to/lastmile_qr_scan", "android": "https://dc.lft.to/lastmile_qr_scan"}, "bike_id": "f7a088762d360c3747fd681267b18b9d", "fusion_lat": 0.0}, {"lon": -76.9867365, "name": "f2720718c3cf0b7c310ee2cbc81405ab", "is_disabled": 0, "type": "electric_bike", "is_reserved": 0, "fusion_lon": 0.0, "lat": 38.899635833333335, "rental_uris": {"ios": "https://dc.lft.to/lastmile_qr_scan", "android": "https://dc.lft.to/lastmile_qr_scan"}, "bike_id": "f2720718c3cf0b7c310ee2cbc81405ab", "fusion_lat": 0.0}, {"lon": -77.0279385, "name": "78f92aaa0a80ab31028767d4337923b0", "is_disabled": 0, "type": "electric_scooter", "is_reserved": 0, "fusion_lon": 0.0, "lat": 38.941777, "rental_uris": {"ios": "https://dc.lft.to/lastmile_qr_scan", "android": "https://dc.lft.to/lastmile_qr_scan"}, "bike_id": "78f92aaa0a80ab31028767d4337923b0", "fusion_lat": 0.0}, {"lon": -77.03173583333333, "name": "e8d0b4b78031af39922f4cabe71246eb", "is_disabled": 0, "type": "electric_scooter", "is_reserved": 0, "fusion_lon": 0.0, "lat": 38.892245833333334, "rental_uris": {"ios": "https://dc.lft.to/lastmile_qr_scan", "android": "https://dc.lft.to/lastmile_qr_scan"}, "bike_id": "e8d0b4b78031af39922f4cabe71246eb", "fusion_lat": 0.0}, {"lon": -77.00567216666667, "name": "967b966d71c5e40071d6a3e08c273407", "is_disabled": 0, "type": "electric_scooter", "is_reserved": 0, "fusion_lon": 0.0, "lat": 38.88201166666666, "rental_uris": {"ios": "https://dc.lft.to/lastmile_qr_scan", "android": "https://dc.lft.to/lastmile_qr_scan"}, "bike_id": "967b966d71c5e40071d6a3e08c273407", "fusion_lat": 0.0}, {"lon": -77.00707083333333, "name": "28f480e93de82f270cb6d544fe2fc598", "is_disabled": 0, "type": "electric_scooter", "is_reserved": 0, "fusion_lon": 0.0, "lat": 38.90730516666667, "rental_uris": {"ios": "https://dc.lft.to/lastmile_qr_scan", "android": "https://dc.lft.to/lastmile_qr_scan"}, "bike_id": "28f480e93de82f270cb6d544fe2fc598", "fusion_lat": 0.0}, {"lon": -77.022313, "name": "7338bdda178e5b632d1a93a0c93559db", "is_disabled": 0, "type": "electric_scooter", "is_reserved": 0, "fusion_lon": 0.0, "lat": 38.9247695, "rental_uris": {"ios": "https://dc.lft.to/lastmile_qr_scan", "android": "https://dc.lft.to/lastmile_qr_scan"}, "bike_id": "7338bdda178e5b632d1a93a0c93559db", "fusion_lat": 0.0}, {"lon": -76.9577035, "name": "900beb0d2d19a39450f3504b2b037757", "is_disabled": 0, "type": "electric_scooter", "is_reserved": 0, "fusion_lon": 0.0, "lat": 38.88353633333333, "rental_uris": {"ios": "https://dc.lft.to/lastmile_qr_scan", "android": "https://dc.lft.to/lastmile_qr_scan"}, "bike_id": "900beb0d2d19a39450f3504b2b037757", "fusion_lat": 0.0}, {"lon": -77.04653533333334, "name": "823238cea6dd55d4039dab8083bb930d", "is_disabled": 0, "type": "electric_scooter", "is_reserved": 0, "fusion_lon": 0.0, "lat": 38.90015116666667, "rental_uris": {"ios": "https://dc.lft.to/lastmile_qr_scan", "android": "https://dc.lft.to/lastmile_qr_scan"}, "bike_id": "823238cea6dd55d4039dab8083bb930d", "fusion_lat": 0.0}, {"lon": -77.02954433333333, "name": "4020c1e4ea453acba200ae741122e451", "is_disabled": 0, "type": "electric_scooter", "is_reserved": 0, "fusion_lon": 0.0, "lat": 38.899466, "rental_uris": {"ios": "https://dc.lft.to/lastmile_qr_scan", "android": "https://dc.lft.to/lastmile_qr_scan"}, "bike_id": "4020c1e4ea453acba200ae741122e451", "fusion_lat": 0.0}, {"lon": -76.9815205, "name": "4a7538d05f59e3e4eeb87ff77f095bb8", "is_disabled": 0, "type": "electric_scooter", "is_reserved": 0, "fusion_lon": 0.0, "lat": 38.92551666666667, "rental_uris": {"ios": "https://dc.lft.to/lastmile_qr_scan", "android": "https://dc.lft.to/lastmile_qr_scan"}, "bike_id": "4a7538d05f59e3e4eeb87ff77f095bb8", "fusion_lat": 0.0}, {"lon": -76.93934516666667, "name": "90c2d7643506f3bc41909ed6408ed317", "is_disabled": 0, "type": "electric_scooter", "is_reserved": 0, "fusion_lon": 0.0, "lat": 38.908589166666665, "rental_uris": {"ios": "https://dc.lft.to/lastmile_qr_scan", "android": "https://dc.lft.to/lastmile_qr_scan"}, "bike_id": "90c2d7643506f3bc41909ed6408ed317", "fusion_lat": 0.0}, {"lon": -77.01916183333333, "name": "ea5e69975b0bc86e2fa119a939396ee2", "is_disabled": 0, "type": "electric_scooter", "is_reserved": 0, "fusion_lon": 0.0, "lat": 38.91947433333333, "rental_uris": {"ios": "https://dc.lft.to/lastmile_qr_scan", "android": "https://dc.lft.to/lastmile_qr_scan"}, "bike_id": "ea5e69975b0bc86e2fa119a939396ee2", "fusion_lat": 0.0}, {"lon": -77.02289666666667, "name": "6e7256a4e7eb9cdfec1d87ec026815df", "is_disabled": 0, "type": "electric_scooter", "is_reserved": 0, "fusion_lon": 0.0, "lat": 38.926552, "rental_uris": {"ios": "https://dc.lft.to/lastmile_qr_scan", "android": "https://dc.lft.to/lastmile_qr_scan"}, "bike_id": "6e7256a4e7eb9cdfec1d87ec026815df", "fusion_lat": 0.0}, {"lon": -77.02414, "name": "7c49f4aa7e9b13ea613a9a008d8c807d", "is_disabled": 0, "type": "electric_scooter", "is_reserved": 0, "fusion_lon": 0.0, "lat": 38.89229683333333, "rental_uris": {"ios": "https://dc.lft.to/lastmile_qr_scan", "android": "https://dc.lft.to/lastmile_qr_scan"}, "bike_id": "7c49f4aa7e9b13ea613a9a008d8c807d", "fusion_lat": 0.0}, {"lon": -76.978225, "name": "8e593839403c5ba7160dd053775634fa", "is_disabled": 0, "type": "electric_scooter", "is_reserved": 0, "fusion_lon": 0.0, "lat": 38.89392616666667, "rental_uris": {"ios": "https://dc.lft.to/lastmile_qr_scan", "android": "https://dc.lft.to/lastmile_qr_scan"}, "bike_id": "8e593839403c5ba7160dd053775634fa", "fusion_lat": 0.0}, {"lon": -77.02135933333334, "name": "8d22d5468f7b4a4541186b754304931c", "is_disabled": 0, "type": "electric_scooter", "is_reserved": 0, "fusion_lon": 0.0, "lat": 38.9240755, "rental_uris": {"ios": "https://dc.lft.to/lastmile_qr_scan", "android": "https://dc.lft.to/lastmile_qr_scan"}, "bike_id": "8d22d5468f7b4a4541186b754304931c", "fusion_lat": 0.0}, {"lon": -77.029046, "name": "0d1ffa900c94a55d9bc1b020fb96c38a", "is_disabled": 0, "type": "electric_scooter", "is_reserved": 0, "fusion_lon": 0.0, "lat": 38.92315383333333, "rental_uris": {"ios": "https://dc.lft.to/lastmile_qr_scan", "android": "https://dc.lft.to/lastmile_qr_scan"}, "bike_id": "0d1ffa900c94a55d9bc1b020fb96c38a", "fusion_lat": 0.0}, {"lon": -77.01266566666666, "name": "4b94819a3b0ffd8ae1f7c71cbef4c84c", "is_disabled": 0, "type": "electric_scooter", "is_reserved": 0, "fusion_lon": 0.0, "lat": 38.89818783333333, "rental_uris": {"ios": "https://dc.lft.to/lastmile_qr_scan", "android": "https://dc.lft.to/lastmile_qr_scan"}, "bike_id": "4b94819a3b0ffd8ae1f7c71cbef4c84c", "fusion_lat": 0.0}, {"lon": -77.045049, "name": "62636e5ba4fc57ed71e8c5043aa0c45a", "is_disabled": 0, "type": "electric_scooter", "is_reserved": 0, "fusion_lon": 0.0, "lat": 38.89594833333334, "rental_uris": {"ios": "https://dc.lft.to/lastmile_qr_scan", "android": "https://dc.lft.to/lastmile_qr_scan"}, "bike_id": "62636e5ba4fc57ed71e8c5043aa0c45a", "fusion_lat": 0.0}, {"lon": -77.07662666666667, "name": "c765849b0cdca9ba2cf7163d780a162f", "is_disabled": 0, "type": "electric_bike", "is_reserved": 0, "fusion_lon": 0.0, "lat": 38.80977016666667, "rental_uris": {"ios": "https://dc.lft.to/lastmile_qr_scan", "android": "https://dc.lft.to/lastmile_qr_scan"}, "bike_id": "c765849b0cdca9ba2cf7163d780a162f", "fusion_lat": 0.0}, {"lon": -77.04732983333334, "name": "91f8e99133a7403830a53b99863afe73", "is_disabled": 0, "type": "electric_scooter", "is_reserved": 0, "fusion_lon": 0.0, "lat": 38.90189016666667, "rental_uris": {"ios": "https://dc.lft.to/lastmile_qr_scan", "android": "https://dc.lft.to/lastmile_qr_scan"}, "bike_id": "91f8e99133a7403830a53b99863afe73", "fusion_lat": 0.0}, {"lon": -77.02398283333333, "name": "8214ee4a2c6bef86ce7ae040a72f90e1", "is_disabled": 0, "type": "electric_scooter", "is_reserved": 0, "fusion_lon": 0.0, "lat": 38.9098035, "rental_uris": {"ios": "https://dc.lft.to/lastmile_qr_scan", "android": "https://dc.lft.to/lastmile_qr_scan"}, "bike_id": "8214ee4a2c6bef86ce7ae040a72f90e1", "fusion_lat": 0.0}, {"lon": -77.02790666666667, "name": "ce17031aaacc2aeeeb6f218b4cec97e8", "is_disabled": 0, "type": "electric_scooter", "is_reserved": 0, "fusion_lon": 0.0, "lat": 38.9267755, "rental_uris": {"ios": "https://dc.lft.to/lastmile_qr_scan", "android": "https://dc.lft.to/lastmile_qr_scan"}, "bike_id": "ce17031aaacc2aeeeb6f218b4cec97e8", "fusion_lat": 0.0}, {"lon": -76.99571683333333, "name": "b91d002fef1b9e4d4a75558bcb104104", "is_disabled": 0, "type": "electric_scooter", "is_reserved": 0, "fusion_lon": 0.0, "lat": 38.89209616666667, "rental_uris": {"ios": "https://dc.lft.to/lastmile_qr_scan", "android": "https://dc.lft.to/lastmile_qr_scan"}, "bike_id": "b91d002fef1b9e4d4a75558bcb104104", "fusion_lat": 0.0}, {"lon": -77.0404725, "name": "cde21d9f28a01ffde77cf1ed246cef5a", "is_disabled": 0, "type": "electric_scooter", "is_reserved": 0, "fusion_lon": 0.0, "lat": 38.90851966666666, "rental_uris": {"ios": "https://dc.lft.to/lastmile_qr_scan", "android": "https://dc.lft.to/lastmile_qr_scan"}, "bike_id": "cde21d9f28a01ffde77cf1ed246cef5a", "fusion_lat": 0.0}, {"lon": -77.02465316666667, "name": "84db1a1c1844938038d43060c96acace", "is_disabled": 0, "type": "electric_scooter", "is_reserved": 0, "fusion_lon": 0.0, "lat": 38.897332166666665, "rental_uris": {"ios": "https://dc.lft.to/lastmile_qr_scan", "android": "https://dc.lft.to/lastmile_qr_scan"}, "bike_id": "84db1a1c1844938038d43060c96acace", "fusion_lat": 0.0}, {"lon": -77.0590105, "name": "a726c4137250f9ae15a20e8abcbd81e1", "is_disabled": 0, "type": "electric_bike", "is_reserved": 0, "fusion_lon": 0.0, "lat": 38.94289783333333, "rental_uris": {"ios": "https://dc.lft.to/lastmile_qr_scan", "android": "https://dc.lft.to/lastmile_qr_scan"}, "bike_id": "a726c4137250f9ae15a20e8abcbd81e1", "fusion_lat": 0.0}, {"lon": -76.98626283333333, "name": "d5b0f34852791781602315f104b62bd0", "is_disabled": 0, "type": "electric_scooter", "is_reserved": 0, "fusion_lon": 0.0, "lat": 38.90582833333333, "rental_uris": {"ios": "https://dc.lft.to/lastmile_qr_scan", "android": "https://dc.lft.to/lastmile_qr_scan"}, "bike_id": "d5b0f34852791781602315f104b62bd0", "fusion_lat": 0.0}, {"lon": -76.96543133333333, "name": "5af6f00b07aa7f659f467c1f1cde9e78", "is_disabled": 0, "type": "electric_scooter", "is_reserved": 0, "fusion_lon": 0.0, "lat": 38.8788155, "rental_uris": {"ios": "https://dc.lft.to/lastmile_qr_scan", "android": "https://dc.lft.to/lastmile_qr_scan"}, "bike_id": "5af6f00b07aa7f659f467c1f1cde9e78", "fusion_lat": 0.0}, {"lon": -77.0222425, "name": "5a1045baedac42f0c2f8b82e7463a742", "is_disabled": 0, "type": "electric_scooter", "is_reserved": 0, "fusion_lon": 0.0, "lat": 38.9140885, "rental_uris": {"ios": "https://dc.lft.to/lastmile_qr_scan", "android": "https://dc.lft.to/lastmile_qr_scan"}, "bike_id": "5a1045baedac42f0c2f8b82e7463a742", "fusion_lat": 0.0}, {"lon": -77.00213766666667, "name": "43c2e5f8a4395229484c053f2033a028", "is_disabled": 0, "type": "electric_scooter", "is_reserved": 0, "fusion_lon": 0.0, "lat": 38.901289, "rental_uris": {"ios": "https://dc.lft.to/lastmile_qr_scan", "android": "https://dc.lft.to/lastmile_qr_scan"}, "bike_id": "43c2e5f8a4395229484c053f2033a028", "fusion_lat": 0.0}, {"lon": -77.00539483333333, "name": "067fb05d140204d6007d7f02b3d65e06", "is_disabled": 0, "type": "electric_scooter", "is_reserved": 0, "fusion_lon": 0.0, "lat": 38.87541233333334, "rental_uris": {"ios": "https://dc.lft.to/lastmile_qr_scan", "android": "https://dc.lft.to/lastmile_qr_scan"}, "bike_id": "067fb05d140204d6007d7f02b3d65e06", "fusion_lat": 0.0}, {"lon": -77.08122216666666, "name": "dd9827fd86e521fc84ea02f1c5be4cf3", "is_disabled": 0, "type": "electric_scooter", "is_reserved": 0, "fusion_lon": 0.0, "lat": 38.9096915, "rental_uris": {"ios": "https://dc.lft.to/lastmile_qr_scan", "android": "https://dc.lft.to/lastmile_qr_scan"}, "bike_id": "dd9827fd86e521fc84ea02f1c5be4cf3", "fusion_lat": 0.0}, {"lon": -76.9836, "name": "56fdc6e98fce2c03597e151e95c4a03e", "is_disabled": 0, "type": "electric_scooter", "is_reserved": 0, "fusion_lon": 0.0, "lat": 38.887289333333335, "rental_uris": {"ios": "https://dc.lft.to/lastmile_qr_scan", "android": "https://dc.lft.to/lastmile_qr_scan"}, "bike_id": "56fdc6e98fce2c03597e151e95c4a03e", "fusion_lat": 0.0}, {"lon": -77.02193583333333, "name": "fc4af15cbba2df428b29324efb877fb0", "is_disabled": 0, "type": "electric_scooter", "is_reserved": 0, "fusion_lon": 0.0, "lat": 38.900953666666666, "rental_uris": {"ios": "https://dc.lft.to/lastmile_qr_scan", "android": "https://dc.lft.to/lastmile_qr_scan"}, "bike_id": "fc4af15cbba2df428b29324efb877fb0", "fusion_lat": 0.0}, {"lon": -77.0440345, "name": "267c9bdc38f778b2a3e8c849e754ae45", "is_disabled": 0, "type": "electric_scooter", "is_reserved": 0, "fusion_lon": 0.0, "lat": 38.92950283333333, "rental_uris": {"ios": "https://dc.lft.to/lastmile_qr_scan", "android": "https://dc.lft.to/lastmile_qr_scan"}, "bike_id": "267c9bdc38f778b2a3e8c849e754ae45", "fusion_lat": 0.0}, {"lon": -77.0122145, "name": "d1fd0a887f2fb3abbbea458d8d047c1a", "is_disabled": 0, "type": "electric_scooter", "is_reserved": 0, "fusion_lon": 0.0, "lat": 38.925127833333335, "rental_uris": {"ios": "https://dc.lft.to/lastmile_qr_scan", "android": "https://dc.lft.to/lastmile_qr_scan"}, "bike_id": "d1fd0a887f2fb3abbbea458d8d047c1a", "fusion_lat": 0.0}, {"lon": -77.03464916666667, "name": "e29e8707dd369afbf03a9ba8b1ce0dec", "is_disabled": 0, "type": "electric_scooter", "is_reserved": 0, "fusion_lon": 0.0, "lat": 38.90765366666667, "rental_uris": {"ios": "https://dc.lft.to/lastmile_qr_scan", "android": "https://dc.lft.to/lastmile_qr_scan"}, "bike_id": "e29e8707dd369afbf03a9ba8b1ce0dec", "fusion_lat": 0.0}, {"lon": -77.03279383333333, "name": "ef5b18f26609e0851546b0fe2cf6b2cb", "is_disabled": 0, "type": "electric_scooter", "is_reserved": 0, "fusion_lon": 0.0, "lat": 38.9373435, "rental_uris": {"ios": "https://dc.lft.to/lastmile_qr_scan", "android": "https://dc.lft.to/lastmile_qr_scan"}, "bike_id": "ef5b18f26609e0851546b0fe2cf6b2cb", "fusion_lat": 0.0}, {"lon": -77.02739933333334, "name": "3d3a342a3edafa8b3c98af73ff172cc6", "is_disabled": 0, "type": "electric_scooter", "is_reserved": 0, "fusion_lon": 0.0, "lat": 38.94004783333333, "rental_uris": {"ios": "https://dc.lft.to/lastmile_qr_scan", "android": "https://dc.lft.to/lastmile_qr_scan"}, "bike_id": "3d3a342a3edafa8b3c98af73ff172cc6", "fusion_lat": 0.0}, {"lon": -77.02304483333333, "name": "6a01ea501ad4983ff2893a35989d6555", "is_disabled": 0, "type": "electric_bike", "is_reserved": 0, "fusion_lon": 0.0, "lat": 38.96663866666667, "rental_uris": {"ios": "https://dc.lft.to/lastmile_qr_scan", "android": "https://dc.lft.to/lastmile_qr_scan"}, "bike_id": "6a01ea501ad4983ff2893a35989d6555", "fusion_lat": 0.0}, {"lon": -77.04237733333333, "name": "51e8b7cafdd14b9e717068255137f422", "is_disabled": 0, "type": "electric_scooter", "is_reserved": 0, "fusion_lon": 0.0, "lat": 38.921444666666666, "rental_uris": {"ios": "https://dc.lft.to/lastmile_qr_scan", "android": "https://dc.lft.to/lastmile_qr_scan"}, "bike_id": "51e8b7cafdd14b9e717068255137f422", "fusion_lat": 0.0}, {"lon": -77.03349883333334, "name": "29f16878826bae9ec8e5b19aff18084c", "is_disabled": 0, "type": "electric_scooter", "is_reserved": 0, "fusion_lon": 0.0, "lat": 38.892403, "rental_uris": {"ios": "https://dc.lft.to/lastmile_qr_scan", "android": "https://dc.lft.to/lastmile_qr_scan"}, "bike_id": "29f16878826bae9ec8e5b19aff18084c", "fusion_lat": 0.0}, {"lon": -77.00581316666667, "name": "79398175386233891a41d04c8bf6e11d", "is_disabled": 0, "type": "electric_scooter", "is_reserved": 0, "fusion_lon": 0.0, "lat": 38.8751845, "rental_uris": {"ios": "https://dc.lft.to/lastmile_qr_scan", "android": "https://dc.lft.to/lastmile_qr_scan"}, "bike_id": "79398175386233891a41d04c8bf6e11d", "fusion_lat": 0.0}, {"lon": -77.0272245, "name": "f10de19977c3468c0e67cc0f2e6b7486", "is_disabled": 0, "type": "electric_scooter", "is_reserved": 0, "fusion_lon": 0.0, "lat": 38.92474633333333, "rental_uris": {"ios": "https://dc.lft.to/lastmile_qr_scan", "android": "https://dc.lft.to/lastmile_qr_scan"}, "bike_id": "f10de19977c3468c0e67cc0f2e6b7486", "fusion_lat": 0.0}, {"lon": -77.040788, "name": "48f90d0e671886f11b3553775c0bc66f", "is_disabled": 0, "type": "electric_bike", "is_reserved": 0, "fusion_lon": 0.0, "lat": 38.830622166666664, "rental_uris": {"ios": "https://dc.lft.to/lastmile_qr_scan", "android": "https://dc.lft.to/lastmile_qr_scan"}, "bike_id": "48f90d0e671886f11b3553775c0bc66f", "fusion_lat": 0.0}, {"lon": -76.974882, "name": "bb4881db26e17979081ece3dd5dae392", "is_disabled": 0, "type": "electric_scooter", "is_reserved": 0, "fusion_lon": 0.0, "lat": 38.8716065, "rental_uris": {"ios": "https://dc.lft.to/lastmile_qr_scan", "android": "https://dc.lft.to/lastmile_qr_scan"}, "bike_id": "bb4881db26e17979081ece3dd5dae392", "fusion_lat": 0.0}, {"lon": -77.027208, "name": "2a60e1d158c0a63dbaf9dcbe2f3217d9", "is_disabled": 0, "type": "electric_scooter", "is_reserved": 0, "fusion_lon": 0.0, "lat": 38.92477616666667, "rental_uris": {"ios": "https://dc.lft.to/lastmile_qr_scan", "android": "https://dc.lft.to/lastmile_qr_scan"}, "bike_id": "2a60e1d158c0a63dbaf9dcbe2f3217d9", "fusion_lat": 0.0}, {"lon": -77.0393265, "name": "787ee92466abda3ebc296f5da5b661d7", "is_disabled": 0, "type": "electric_scooter", "is_reserved": 0, "fusion_lon": 0.0, "lat": 38.91695216666667, "rental_uris": {"ios": "https://dc.lft.to/lastmile_qr_scan", "android": "https://dc.lft.to/lastmile_qr_scan"}, "bike_id": "787ee92466abda3ebc296f5da5b661d7", "fusion_lat": 0.0}, {"lon": -77.00973233333333, "name": "8ba217e654048e8e067deed537c56fb4", "is_disabled": 0, "type": "electric_scooter", "is_reserved": 0, "fusion_lon": 0.0, "lat": 38.908471, "rental_uris": {"ios": "https://dc.lft.to/lastmile_qr_scan", "android": "https://dc.lft.to/lastmile_qr_scan"}, "bike_id": "8ba217e654048e8e067deed537c56fb4", "fusion_lat": 0.0}, {"lon": -77.05028616666667, "name": "4e2ba3f9cc4b9908c7c0f3d304bf2793", "is_disabled": 0, "type": "electric_scooter", "is_reserved": 0, "fusion_lon": 0.0, "lat": 38.892402833333335, "rental_uris": {"ios": "https://dc.lft.to/lastmile_qr_scan", "android": "https://dc.lft.to/lastmile_qr_scan"}, "bike_id": "4e2ba3f9cc4b9908c7c0f3d304bf2793", "fusion_lat": 0.0}, {"lon": -77.037505, "name": "3abdad6a9323e40c2b2c7543bb5f3922", "is_disabled": 0, "type": "electric_scooter", "is_reserved": 0, "fusion_lon": 0.0, "lat": 38.9111955, "rental_uris": {"ios": "https://dc.lft.to/lastmile_qr_scan", "android": "https://dc.lft.to/lastmile_qr_scan"}, "bike_id": "3abdad6a9323e40c2b2c7543bb5f3922", "fusion_lat": 0.0}, {"lon": -77.02461933333333, "name": "7186c11907e44f80e4dac51581938c6d", "is_disabled": 0, "type": "electric_scooter", "is_reserved": 0, "fusion_lon": 0.0, "lat": 38.91703566666666, "rental_uris": {"ios": "https://dc.lft.to/lastmile_qr_scan", "android": "https://dc.lft.to/lastmile_qr_scan"}, "bike_id": "7186c11907e44f80e4dac51581938c6d", "fusion_lat": 0.0}, {"lon": -76.99378783333333, "name": "8eb0d91d19f5ed4aedd37c5582e83540", "is_disabled": 0, "type": "electric_bike", "is_reserved": 0, "fusion_lon": 0.0, "lat": 38.990990333333336, "rental_uris": {"ios": "https://dc.lft.to/lastmile_qr_scan", "android": "https://dc.lft.to/lastmile_qr_scan"}, "bike_id": "8eb0d91d19f5ed4aedd37c5582e83540", "fusion_lat": 0.0}, {"lon": -77.01279233333334, "name": "e53d956e78cb2da2213dce8835431beb", "is_disabled": 0, "type": "electric_scooter", "is_reserved": 0, "fusion_lon": 0.0, "lat": 38.956497166666665, "rental_uris": {"ios": "https://dc.lft.to/lastmile_qr_scan", "android": "https://dc.lft.to/lastmile_qr_scan"}, "bike_id": "e53d956e78cb2da2213dce8835431beb", "fusion_lat": 0.0}, {"lon": -76.93631266666667, "name": "61c6ec36b0124d14c42f51e68d439469", "is_disabled": 0, "type": "electric_scooter", "is_reserved": 0, "fusion_lon": 0.0, "lat": 38.883454, "rental_uris": {"ios": "https://dc.lft.to/lastmile_qr_scan", "android": "https://dc.lft.to/lastmile_qr_scan"}, "bike_id": "61c6ec36b0124d14c42f51e68d439469", "fusion_lat": 0.0}, {"lon": -77.03174233333333, "name": "857b767bb000ae73a5d62fa30cba2cc6", "is_disabled": 0, "type": "electric_scooter", "is_reserved": 0, "fusion_lon": 0.0, "lat": 38.898403, "rental_uris": {"ios": "https://dc.lft.to/lastmile_qr_scan", "android": "https://dc.lft.to/lastmile_qr_scan"}, "bike_id": "857b767bb000ae73a5d62fa30cba2cc6", "fusion_lat": 0.0}, {"lon": -76.94637266666666, "name": "bcadbf08be784dc7256bdd07ede81d02", "is_disabled": 0, "type": "electric_scooter", "is_reserved": 0, "fusion_lon": 0.0, "lat": 38.898462, "rental_uris": {"ios": "https://dc.lft.to/lastmile_qr_scan", "android": "https://dc.lft.to/lastmile_qr_scan"}, "bike_id": "bcadbf08be784dc7256bdd07ede81d02", "fusion_lat": 0.0}, {"lon": -76.991633, "name": "a67d9b1f23b39194fc9fb9e06cd92b9a", "is_disabled": 0, "type": "electric_scooter", "is_reserved": 0, "fusion_lon": 0.0, "lat": 38.88966966666667, "rental_uris": {"ios": "https://dc.lft.to/lastmile_qr_scan", "android": "https://dc.lft.to/lastmile_qr_scan"}, "bike_id": "a67d9b1f23b39194fc9fb9e06cd92b9a", "fusion_lat": 0.0}, {"lon": -77.04158966666667, "name": "c1d0f3abfec8947269b31c5e58b5bb5b", "is_disabled": 0, "type": "electric_scooter", "is_reserved": 0, "fusion_lon": 0.0, "lat": 38.907987166666665, "rental_uris": {"ios": "https://dc.lft.to/lastmile_qr_scan", "android": "https://dc.lft.to/lastmile_qr_scan"}, "bike_id": "c1d0f3abfec8947269b31c5e58b5bb5b", "fusion_lat": 0.0}, {"lon": -77.02461083333333, "name": "9eb5df05bf243e25b9cd3566e72cb4dd", "is_disabled": 0, "type": "electric_scooter", "is_reserved": 0, "fusion_lon": 0.0, "lat": 38.906539333333335, "rental_uris": {"ios": "https://dc.lft.to/lastmile_qr_scan", "android": "https://dc.lft.to/lastmile_qr_scan"}, "bike_id": "9eb5df05bf243e25b9cd3566e72cb4dd", "fusion_lat": 0.0},