{"data": {"bikes": [{"rental_uris": {"ios": "https://dc.lft.to/lastmile_qr_scan", "android": "https://dc.lft.to/lastmile_qr_scan"}, "type": "electric_scooter", "name": "056ac2d4f308e33caee3309d787bf655", "is_reserved": 0, "lon": -77.031989, "is_disabled": 0, "fusion_lat": 0.0, "lat": 38.915394666666664, "bike_id": "056ac2d4f308e33caee3309d787bf655", "fusion_lon": 0.0}, {"rental_uris": {"ios": "https://dc.lft.to/lastmile_qr_scan", "android": "https://dc.lft.to/lastmile_qr_scan"}, "type": "electric_scooter", "name": "23f9e8a629cd1fe007480293e5ece879", "is_reserved": 0, "lon": -77.043574, "is_disabled": 0, "fusion_lat": 0.0, "lat": 38.911207166666664, "bike_id": "23f9e8a629cd1fe007480293e5ece879", "fusion_lon": 0.0}, {"rental_uris": {"ios": "https://dc.lft.to/lastmile_qr_scan", "android": "https://dc.lft.to/lastmile_qr_scan"}, "type": "electric_scooter", "name": "ef95033c4d49c921095acbbb2568cac2", "is_reserved": 0, "lon": -77.03957483333333, "is_disabled": 0, "fusion_lat": 0.0, "lat": 38.892485666666666, "bike_id": "ef95033c4d49c921095acbbb2568cac2", "fusion_lon": 0.0}, {"rental_uris": {"ios": "https://dc.lft.to/lastmile_qr_scan", "android": "https://dc.lft.to/lastmile_qr_scan"}, "type": "electric_scooter", "name": "4c6f1c6d1d4bcf9afffbc4eeed8c595f", "is_reserved": 0, "lon": -77.03346083333334, "is_disabled": 0, "fusion_lat": 0.0, "lat": 38.89250916666667, "bike_id": "4c6f1c6d1d4bcf9afffbc4eeed8c595f", "fusion_lon": 0.0}, {"rental_uris": {"ios": "https://dc.lft.to/lastmile_qr_scan", "android": "https://dc.lft.to/lastmile_qr_scan"}, "type": "electric_scooter", "name": "e0c9e60749828d23e0b7cb958c28a8a3", "is_reserved": 0, "lon": -77.02976883333334, "is_disabled": 0, "fusion_lat": 0.0, "lat": 38.92372116666667, "bike_id": "e0c9e60749828d23e0b7cb958c28a8a3", "fusion_lon": 0.0}, {"rental_uris": {"ios": "https://dc.lft.to/lastmile_qr_scan", "android": "https://dc.lft.to/lastmile_qr_scan"}, "type": "electric_scooter", "name": "1ab43f725174f71f83ca8ac61af3d34d", "is_reserved": 0, "lon": -77.0410555, "is_disabled": 0, "fusion_lat": 0.0, "lat": 38.905381166666665, "bike_id": "1ab43f725174f71f83ca8ac61af3d34d", "fusion_lon": 0.0}, {"rental_uris": {"ios": "https://dc.lft.to/lastmile_qr_scan", "android": "https://dc.lft.to/lastmile_qr_scan"}, "type": "electric_scooter", "name": "bc5d51202f51addf39ebeada726fdf33", "is_reserved": 0, "lon": -76.94716733333334, "is_disabled": 0, "fusion_lat": 0.0, "lat": 38.890844666666666, "bike_id": "bc5d51202f51addf39ebeada726fdf33", "fusion_lon": 0.0}, {"rental_uris": {"ios": "https://dc.lft.to/lastmile_qr_scan", "android": "https://dc.lft.to/lastmile_qr_scan"}, "type": "electric_scooter", "name": "7862182803b4ca5deaa03e2ba715cfc2", "is_reserved": 0, "lon": -77.0375345, "is_disabled": 0, "fusion_lat": 0.0, "lat": 38.93197816666667, "bike_id": "7862182803b4ca5deaa03e2ba715cfc2", "fusion_lon": 0.0}, {"rental_uris": {"ios": "https://dc.lft.to/lastmile_qr_scan", "android": "https://dc.lft.to/lastmile_qr_scan"}, "type": "electric_scooter", "name": "c428e9d520427f06a705f9c135e05fc6", "is_reserved": 0, "lon": -77.0677455, "is_disabled": 0, "fusion_lat": 0.0, "lat": 38.908798, "bike_id": "c428e9d520427f06a705f9c135e05fc6", "fusion_lon": 0.0}, {"rental_uris": {"ios": "https://dc.lft.to/lastmile_qr_scan", "android": "https://dc.lft.to/lastmile_qr_scan"}, "type": "electric_bike", "name": "65741fb8c7848dd14141aaf5559770dd", "is_reserved": 0, "lon": -76.9574375, "is_disabled": 0, "fusion_lat": 0.0, "lat": 38.88855, "bike_id": "65741fb8c7848dd14141aaf5559770dd", "fusion_lon": 0.0}, {"rental_uris": {"ios": "https://dc.lft.to/lastmile_qr_scan", "android": "https://dc.lft.to/lastmile_qr_scan"}, "type": "electric_bike", "name": "6525d5abcc574f79447a940c385d433b", "is_reserved": 0, "lon": -77.02907816666666, "is_disabled": 0, "fusion_lat": 0.0, "lat": 38.91696683333333, "bike_id": "6525d5abcc574f79447a940c385d433b", "fusion_lon": 0.0}, {"rental_uris": {"ios": "https://dc.lft.to/lastmile_qr_scan", "android": "https://dc.lft.to/lastmile_qr_scan"}, "type": "electric_scooter", "name": "9e9b5fea1a17bc04a41d5857eba83f20", "is_reserved": 0, "lon": -77.0278095, "is_disabled": 0, "fusion_lat": 0.0, "lat": 38.92784483333333, "bike_id": "9e9b5fea1a17bc04a41d5857eba83f20", "fusion_lon": 0.0}, {"rental_uris": {"ios": "https://dc.lft.to/lastmile_qr_scan", "android": "https://dc.lft.to/lastmile_qr_scan"}, "type": "electric_scooter", "name": "94105dc2da878bb71323995cb7d1dd01", "is_reserved": 0, "lon": -77.01576216666666, "is_disabled": 0, "fusion_lat": 0.0, "lat": 38.87661166666667, "bike_id": "94105dc2da878bb71323995cb7d1dd01", "fusion_lon": 0.0}, {"rental_uris": {"ios": "https://dc.lft.to/lastmile_qr_scan", "android": "https://dc.lft.to/lastmile_qr_scan"}, "type": "electric_scooter", "name": "5ac6395f28bfaa12be8b754ea1b86ae4", "is_reserved": 0, "lon": -77.034211, "is_disabled": 0, "fusion_lat": 0.0, "lat": 38.93072683333333, "bike_id": "5ac6395f28bfaa12be8b754ea1b86ae4", "fusion_lon": 0.0}, {"rental_uris": {"ios": "https://dc.lft.to/lastmile_qr_scan", "android": "https://dc.lft.to/lastmile_qr_scan"}, "type": "electric_scooter", "name": "9cc99ab4311d623cc8a2dbb8973b729e", "is_reserved": 0, "lon": -77.02158183333333, "is_disabled": 0, "fusion_lat": 0.0, "lat": 38.92611466666666, "bike_id": "9cc99ab4311d623cc8a2dbb8973b729e", "fusion_lon": 0.0}, {"rental_uris": {"ios": "https://dc.lft.to/lastmile_qr_scan", "android": "https://dc.lft.to/lastmile_qr_scan"}, "type": "electric_scooter", "name": "ab31f290073a29b33827e15b9e1f2952", "is_reserved": 0, "lon": -77.00430416666667, "is_disabled": 0, "fusion_lat": 0.0, "lat": 38.92088666666667, "bike_id": "ab31f290073a29b33827e15b9e1f2952", "fusion_lon": 0.0}, {"rental_uris": {"ios": "https://dc.lft.to/lastmile_qr_scan", "android": "https://dc.lft.to/lastmile_qr_scan"}, "type": "electric_scooter", "name": "f284959b181c076843c566b0f51c684e", "is_reserved": 0, "lon": -76.981036, "is_disabled": 0, "fusion_lat": 0.0, "lat": 38.8641645, "bike_id": "f284959b181c076843c566b0f51c684e", "fusion_lon": 0.0}, {"rental_uris": {"ios": "https://dc.lft.to/lastmile_qr_scan", "android": "https://dc.lft.to/lastmile_qr_scan"}, "type": "electric_scooter", "name": "41167cf052c4040e91be366afb0fc663", "is_reserved": 0, "lon": -77.032224, "is_disabled": 0, "fusion_lat": 0.0, "lat": 38.938729, "bike_id": "41167cf052c4040e91be366afb0fc663", "fusion_lon": 0.0}, {"rental_uris": {"ios": "https://dc.lft.to/lastmile_qr_scan", "android": "https://dc.lft.to/lastmile_qr_scan"}, "type": "electric_scooter", "name": "9a3f46593b47688ede32d15fefcfc238", "is_reserved": 0, "lon": -77.06610666666667, "is_disabled": 0, "fusion_lat": 0.0, "lat": 38.90611033333333, "bike_id": "9a3f46593b47688ede32d15fefcfc238", "fusion_lon": 0.0}, {"rental_uris": {"ios": "https://dc.lft.to/lastmile_qr_scan", "android": "https://dc.lft.to/lastmile_qr_scan"}, "type": "electric_scooter", "name": "2a1be05ed0b4d99ff03aceb5d8a0b2c7", "is_reserved": 0, "lon": -77.02781666666667, "is_disabled": 0, "fusion_lat": 0.0, "lat": 38.90554733333333, "bike_id": "2a1be05ed0b4d99ff03aceb5d8a0b2c7", "fusion_lon": 0.0}, {"rental_uris": {"ios": "https://dc.lft.to/lastmile_qr_scan", "android": "https://dc.lft.to/lastmile_qr_scan"}, "type": "electric_scooter", "name": "50f911a9ea7f6e3e6d53d9f2cddb73fb", "is_reserved": 0, "lon": -77.0121535, "is_disabled": 0, "fusion_lat": 0.0, "lat": 38.9171405, "bike_id": "50f911a9ea7f6e3e6d53d9f2cddb73fb", "fusion_lon": 0.0}, {"rental_uris": {"ios": "https://dc.lft.to/lastmile_qr_scan", "android": "https://dc.lft.to/lastmile_qr_scan"}, "type": "electric_scooter", "name": "162d52bcbc2a1296e2be2db6cef9dd72", "is_reserved": 0, "lon": -77.03441016666666, "is_disabled": 0, "fusion_lat": 0.0, "lat": 38.905732666666665, "bike_id": "162d52bcbc2a1296e2be2db6cef9dd72", "fusion_lon": 0.0}, {"rental_uris": {"ios": "https://dc.lft.to/lastmile_qr_scan", "android": "https://dc.lft.to/lastmile_qr_scan"}, "type": "electric_scooter", "name": "07ae5b7320370ebec549a07f3af50d40", "is_reserved": 0, "lon": -77.02212283333333, "is_disabled": 0, "fusion_lat": 0.0, "lat": 38.8985285, "bike_id": "07ae5b7320370ebec549a07f3af50d40", "fusion_lon": 0.0}, {"rental_uris": {"ios": "https://dc.lft.to/lastmile_qr_scan", "android": "https://dc.lft.to/lastmile_qr_scan"}, "type": "electric_scooter", "name": "28ca15cea14552359d1c70eee12b9181", "is_reserved": 0, "lon": -77.06283883333333, "is_disabled": 0, "fusion_lat": 0.0, "lat": 38.91241016666667, "bike_id": "28ca15cea14552359d1c70eee12b9181", "fusion_lon": 0.0}, {"rental_uris": {"ios": "https://dc.lft.to/lastmile_qr_scan", "android": "https://dc.lft.to/lastmile_qr_scan"}, "type": "electric_scooter", "name": "011d90189af390c172887d922a489324", "is_reserved": 0, "lon": -77.02427216666666, "is_disabled": 0, "fusion_lat": 0.0, "lat": 38.9232395, "bike_id": "011d90189af390c172887d922a489324", "fusion_lon": 0.0}, {"rental_uris": {"ios": "https://dc.lft.to/lastmile_qr_scan", "android": "https://dc.lft.to/lastmile_qr_scan"}, "type": "electric_scooter", "name": "10dfab7174e249c7b19f3ce7d83a9098", "is_reserved": 0, "lon": -77.00579383333333, "is_disabled": 0, "fusion_lat": 0.0, "lat": 38.90039766666666, "bike_id": "10dfab7174e249c7b19f3ce7d83a9098", "fusion_lon": 0.0}, {"rental_uris": {"ios": "https://dc.lft.to/lastmile_qr_scan", "android": "https://dc.lft.to/lastmile_qr_scan"}, "type": "electric_scooter", "name": "ca400563660b180930fda3254787be65", "is_reserved": 0, "lon": -77.03511916666666, "is_disabled": 0, "fusion_lat": 0.0, "lat": 38.9183215, "bike_id": "ca400563660b180930fda3254787be65", "fusion_lon": 0.0}, {"rental_uris": {"ios": "https://dc.lft.to/lastmile_qr_scan", "android": "https://dc.lft.to/lastmile_qr_scan"}, "type": "electric_scooter", "name": "1d184a759baf51e5bef0841e68233919", "is_reserved": 0, "lon": -77.04199266666667, "is_disabled": 0, "fusion_lat": 0.0, "lat": 38.90386, "bike_id": "1d184a759baf51e5bef0841e68233919", "fusion_lon": 0.0}, {"rental_uris": {"ios": "https://dc.lft.to/lastmile_qr_scan", "android": "https://dc.lft.to/lastmile_qr_scan"}, "type": "electric_scooter", "name": "7b14e69b4f8e17cbf669c9202d352c73", "is_reserved": 0, "lon": -77.036587, "is_disabled": 0, "fusion_lat": 0.0, "lat": 38.92286633333333, "bike_id": "7b14e69b4f8e17cbf669c9202d352c73", "fusion_lon": 0.0}, {"rental_uris": {"ios": "https://dc.lft.to/lastmile_qr_scan", "android": "https://dc.lft.to/lastmile_qr_scan"}, "type": "electric_scooter", "name": "3f29278e0d29044d22357eefdabdb360", "is_reserved": 0, "lon": -76.991613, "is_disabled": 0, "fusion_lat": 0.0, "lat": 38.9003835, "bike_id": "3f29278e0d29044d22357eefdabdb360", "fusion_lon": 0.0}, {"rental_uris": {"ios": "https://dc.lft.to/lastmile_qr_scan", "android": "https://dc.lft.to/lastmile_qr_scan"}, "type": "electric_scooter", "name": "49acd703d9e4a14ccaf46806bda75d15", "is_reserved": 0, "lon": -77.02227683333334, "is_disabled": 0, "fusion_lat": 0.0, "lat": 38.8922155, "bike_id": "49acd703d9e4a14ccaf46806bda75d15", "fusion_lon": 0.0}, {"rental_uris": {"ios": "https://dc.lft.to/lastmile_qr_scan", "android": "https://dc.lft.to/lastmile_qr_scan"}, "type": "electric_scooter", "name": "143d580554a5e713558ac85078d6a217", "is_reserved": 0, "lon": -77.034485, "is_disabled": 0, "fusion_lat": 0.0, "lat": 38.910241, "bike_id": "143d580554a5e713558ac85078d6a217", "fusion_lon": 0.0}, {"rental_uris": {"ios": "https://dc.lft.to/lastmile_qr_scan", "android": "https://dc.lft.to/lastmile_qr_scan"}, "type": "electric_scooter", "name": "80952b16c43f240d1fb9b96bebb3fbf7", "is_reserved": 0, "lon": -77.02001183333333, "is_disabled": 0, "fusion_lat": 0.0, "lat": 38.913954, "bike_id": "80952b16c43f240d1fb9b96bebb3fbf7", "fusion_lon": 0.0}, {"rental_uris": {"ios": "https://dc.lft.to/lastmile_qr_scan", "android": "https://dc.lft.to/lastmile_qr_scan"}, "type": "electric_scooter", "name": "162a87a8788e65979b832c4bb7d8bdda", "is_reserved": 0, "lon": -77.03696066666667, "is_disabled": 0, "fusion_lat": 0.0, "lat": 38.932838, "bike_id": "162a87a8788e65979b832c4bb7d8bdda", "fusion_lon": 0.0}, {"rental_uris": {"ios": "https://dc.lft.to/lastmile_qr_scan", "android": "https://dc.lft.to/lastmile_qr_scan"}, "type": "electric_scooter", "name": "7d410ab5e050a48d33efc97e8ced3579", "is_reserved": 0, "lon": -77.01016033333333, "is_disabled": 0, "fusion_lat": 0.0, "lat": 38.914047833333335, "bike_id": "7d410ab5e050a48d33efc97e8ced3579", "fusion_lon": 0.0}, {"rental_uris": {"ios": "https://dc.lft.to/lastmile_qr_scan", "android": "https://dc.lft.to/lastmile_qr_scan"}, "type": "electric_scooter", "name": "c9c179030beb3a44f2cab3710fc9db08", "is_reserved": 0, "lon": -77.03188683333333, "is_disabled": 0, "fusion_lat": 0.0, "lat": 38.90871083333333, "bike_id": "c9c179030beb3a44f2cab3710fc9db08", "fusion_lon": 0.0}, {"rental_uris": {"ios": "https://dc.lft.to/lastmile_qr_scan", "android": "https://dc.lft.to/lastmile_qr_scan"}, "type": "electric_scooter", "name": "1b08055b94c1fe4b85e1f82e825db5cd", "is_reserved": 0, "lon": -77.0218125, "is_disabled": 0, "fusion_lat": 0.0, "lat": 38.914864, "bike_id": "1b08055b94c1fe4b85e1f82e825db5cd", "fusion_lon": 0.0}, {"rental_uris": {"ios": "https://dc.lft.to/lastmile_qr_scan", "android": "https://dc.lft.to/lastmile_qr_scan"}, "type": "electric_scooter", "name": "462085d03cc1ceef1a36b1d4648c4245", "is_reserved": 0, "lon": -77.013532, "is_disabled": 0, "fusion_lat": 0.0, "lat": 38.919365666666664, "bike_id": "462085d03cc1ceef1a36b1d4648c4245", "fusion_lon": 0.0}, {"rental_uris": {"ios": "https://dc.lft.to/lastmile_qr_scan", "android": "https://dc.lft.to/lastmile_qr_scan"}, "type": "electric_scooter", "name": "048d532d646ff45086dbba6d1502d92a", "is_reserved": 0, "lon": -77.04233933333333, "is_disabled": 0, "fusion_lat": 0.0, "lat": 38.9219575, "bike_id": "048d532d646ff45086dbba6d1502d92a", "fusion_lon": 0.0}, {"rental_uris": {"ios": "https://dc.lft.to/lastmile_qr_scan", "android": "https://dc.lft.to/lastmile_qr_scan"}, "type": "electric_scooter", "name": "0393d95e15634a201b36349b03601d89", "is_reserved": 0, "lon": -77.03294883333334, "is_disabled": 0, "fusion_lat": 0.0, "lat": 38.924559333333335, "bike_id": "0393d95e15634a201b36349b03601d89", "fusion_lon": 0.0}, {"rental_uris": {"ios": "https://dc.lft.to/lastmile_qr_scan", "android": "https://dc.lft.to/lastmile_qr_scan"}, "type": "electric_scooter", "name": "e2685627f927f4282bda8970990b2f49", "is_reserved": 0, "lon": -77.03243066666667, "is_disabled": 0, "fusion_lat": 0.0, "lat": 38.931368166666665, "bike_id": "e2685627f927f4282bda8970990b2f49", "fusion_lon": 0.0}, {"rental_uris": {"ios": "https://dc.lft.to/lastmile_qr_scan", "android": "https://dc.lft.to/lastmile_qr_scan"}, "type": "electric_scooter", "name": "c8d354f01dd76b37c3db891bfe23b64e", "is_reserved": 0, "lon": -77.02145616666667, "is_disabled": 0, "fusion_lat": 0.0, "lat": 38.91332633333333, "bike_id": "c8d354f01dd76b37c3db891bfe23b64e", "fusion_lon": 0.0}, {"rental_uris": {"ios": "https://dc.lft.to/lastmile_qr_scan", "android": "https://dc.lft.to/lastmile_qr_scan"}, "type": "electric_scooter", "name": "f24ddfc905a4b8148d2f5be57dae1373", "is_reserved": 0, "lon": -77.02676783333334, "is_disabled": 0, "fusion_lat": 0.0, "lat": 38.984357, "bike_id": "f24ddfc905a4b8148d2f5be57dae1373", "fusion_lon": 0.0}, {"rental_uris": {"ios": "https://dc.lft.to/lastmile_qr_scan", "android": "https://dc.lft.to/lastmile_qr_scan"}, "type": "electric_scooter", "name": "0a4ebb050f6445d619d1be717888bc19", "is_reserved": 0, "lon": -76.9837375, "is_disabled": 0, "fusion_lat": 0.0, "lat": 38.86666733333333, "bike_id": "0a4ebb050f6445d619d1be717888bc19", "fusion_lon": 0.0}, {"rental_uris": {"ios": "https://dc.lft.to/lastmile_qr_scan", "android": "https://dc.lft.to/lastmile_qr_scan"}, "type": "electric_scooter", "name": "059fe91271fd325c41745c976ef5cc57", "is_reserved": 0, "lon": -76.99966516666667, "is_disabled": 0, "fusion_lat": 0.0, "lat": 38.88657333333333, "bike_id": "059fe91271fd325c41745c976ef5cc57", "fusion_lon": 0.0}, {"rental_uris": {"ios": "https://dc.lft.to/lastmile_qr_scan", "android": "https://dc.lft.to/lastmile_qr_scan"}, "type": "electric_scooter", "name": "36c747946a5f779dbab69bf2994797f9", "is_reserved": 0, "lon": -77.04045316666667, "is_disabled": 0, "fusion_lat": 0.0, "lat": 38.92314183333333, "bike_id": "36c747946a5f779dbab69bf2994797f9", "fusion_lon": 0.0}, {"rental_uris": {"ios": "https://dc.lft.to/lastmile_qr_scan", "android": "https://dc.lft.to/lastmile_qr_scan"}, "type": "electric_scooter", "name": "01501c7f971f996d1b22b46b0b3fd4b2", "is_reserved": 0, "lon": -77.03952966666667, "is_disabled": 0, "fusion_lat": 0.0, "lat": 38.924671000000004, "bike_id": "01501c7f971f996d1b22b46b0b3fd4b2", "fusion_lon": 0.0}, {"rental_uris": {"ios": "https://dc.lft.to/lastmile_qr_scan", "android": "https://dc.lft.to/lastmile_qr_scan"}, "type": "electric_scooter", "name": "26f36a61d07016db26c6e573c71fe31c", "is_reserved": 0, "lon": -77.0317985, "is_disabled": 0, "fusion_lat": 0.0, "lat": 38.89225483333333, "bike_id": "26f36a61d07016db26c6e573c71fe31c", "fusion_lon": 0.0}, {"rental_uris": {"ios": "https://dc.lft.to/lastmile_qr_scan", "android": "https://dc.lft.to/lastmile_qr_scan"}, "type": "electric_scooter", "name": "0624cead65ebf606df044f055eb3d36a", "is_reserved": 0, "lon": -77.02571816666666, "is_disabled": 0, "fusion_lat": 0.0, "lat": 38.8874435, "bike_id": "0624cead65ebf606df044f055eb3d36a", "fusion_lon": 0.0}, {"rental_uris": {"ios": "https://dc.lft.to/lastmile_qr_scan", "android": "https://dc.lft.to/lastmile_qr_scan"}, "type": "electric_scooter", "name": "a7c6d5573d4f3fb1d8bcb55a39832772", "is_reserved": 0, "lon": -77.06279583333334, "is_disabled": 0, "fusion_lat": 0.0, "lat": 38.9049985, "bike_id": "a7c6d5573d4f3fb1d8bcb55a39832772", "fusion_lon": 0.0}, {"rental_uris": {"ios": "https://dc.lft.to/lastmile_qr_scan", "android": "https://dc.lft.to/lastmile_qr_scan"}, "type": "electric_scooter", "name": "77eeb89d45d3ac0fb8c62ee3b0e2629d", "is_reserved": 0, "lon": -77.0249885, "is_disabled": 0, "fusion_lat": 0.0, "lat": 38.94213933333333, "bike_id": "77eeb89d45d3ac0fb8c62ee3b0e2629d", "fusion_lon": 0.0}, {"rental_uris": {"ios": "https://dc.lft.to/lastmile_qr_scan", "android": "https://dc.lft.to/lastmile_qr_scan"}, "type": "electric_scooter", "name": "c359fee7b34c301998082a55f60e5aed", "is_reserved": 0, "lon": -76.98316566666666, "is_disabled": 0, "fusion_lat": 0.0, "lat": 38.92586216666667, "bike_id": "c359fee7b34c301998082a55f60e5aed", "fusion_lon": 0.0}, {"rental_uris": {"ios": "https://dc.lft.to/lastmile_qr_scan", "android": "https://dc.lft.to/lastmile_qr_scan"}, "type": "electric_scooter", "name": "833e78cd896cd45f991d05e8c7415eb6", "is_reserved": 0, "lon": -77.02313766666667, "is_disabled": 0, "fusion_lat": 0.0, "lat": 38.91770433333333, "bike_id": "833e78cd896cd45f991d05e8c7415eb6", "fusion_lon": 0.0}, {"rental_uris": {"ios": "https://dc.lft.to/lastmile_qr_scan", "android": "https://dc.lft.to/lastmile_qr_scan"}, "type": "electric_scooter", "name": "55b6e28334ca4041d02df69326129e2c", "is_reserved": 0, "lon": -77.03838316666666, "is_disabled": 0, "fusion_lat": 0.0, "lat": 38.9311135, "bike_id": "55b6e28334ca4041d02df69326129e2c", "fusion_lon": 0.0}, {"rental_uris": {"ios": "https://dc.lft.to/lastmile_qr_scan", "android": "https://dc.lft.to/lastmile_qr_scan"}, "type": "electric_scooter", "name": "839009207dafbafadb4e0b60f68a2e1e", "is_reserved": 0, "lon": -77.049546, "is_disabled": 0, "fusion_lat": 0.0, "lat": 38.905435, "bike_id": "839009207dafbafadb4e0b60f68a2e1e", "fusion_lon": 0.0}, {"rental_uris": {"ios": "https://dc.lft.to/lastmile_qr_scan", "android": "https://dc.lft.to/lastmile_qr_scan"}, "type": "electric_scooter", "name": "c006a75c832beab4cb0f64fc9db68d82", "is_reserved": 0, "lon": -77.03211716666667, "is_disabled": 0, "fusion_lat": 0.0, "lat": 38.90894866666667, "bike_id": "c006a75c832beab4cb0f64fc9db68d82", "fusion_lon": 0.0}, {"rental_uris": {"ios": "https://dc.lft.to/lastmile_qr_scan", "android": "https://dc.lft.to/lastmile_qr_scan"}, "type": "electric_scooter", "name": "b2b38e649d6188cb6689b44568aa1c8b", "is_reserved": 0, "lon": -76.965048, "is_disabled": 0, "fusion_lat": 0.0, "lat": 38.87646983333333, "bike_id": "b2b38e649d6188cb6689b44568aa1c8b", "fusion_lon": 0.0}, {"rental_uris": {"ios": "https://dc.lft.to/lastmile_qr_scan", "android": "https://dc.lft.to/lastmile_qr_scan"}, "type": "electric_scooter", "name": "f9eb73a93ea4d63abbb6a0a561ee9a90", "is_reserved": 0, "lon": -77.0280905, "is_disabled": 0, "fusion_lat": 0.0, "lat": 38.90617683333333, "bike_id": "f9eb73a93ea4d63abbb6a0a561ee9a90", "fusion_lon": 0.0}, {"rental_uris": {"ios": "https://dc.lft.to/lastmile_qr_scan", "android": "https://dc.lft.to/lastmile_qr_scan"}, "type": "electric_scooter", "name": "6d55bcfaf1a710a792963e95e297a8ad", "is_reserved": 0, "lon": -77.04674066666666, "is_disabled": 0, "fusion_lat": 0.0, "lat": 38.8923375, "bike_id": "6d55bcfaf1a710a792963e95e297a8ad", "fusion_lon": 0.0}, {"rental_uris": {"ios": "https://dc.lft.to/lastmile_qr_scan", "android": "https://dc.lft.to/lastmile_qr_scan"}, "type": "electric_scooter", "name": "582c531620032046b2fce0ff711ee419", "is_reserved": 0, "lon": -77.02757133333333, "is_disabled": 0, "fusion_lat": 0.0, "lat": 38.91203633333333, "bike_id": "582c531620032046b2fce0ff711ee419", "fusion_lon": 0.0}, {"rental_uris": {"ios": "https://dc.lft.to/lastmile_qr_scan", "android": "https://dc.lft.to/lastmile_qr_scan"}, "type": "electric_bike", "name": "5ee9334cdf8d20640e343abf8758cf1a", "is_reserved": 0, "lon": -77.05766466666667, "is_disabled": 0, "fusion_lat": 0.0, "lat": 38.93381933333333, "bike_id": "5ee9334cdf8d20640e343abf8758cf1a", "fusion_lon": 0.0}, {"rental_uris": {"ios": "https://dc.lft.to/lastmile_qr_scan", "android": "https://dc.lft.to/lastmile_qr_scan"}, "type": "electric_scooter", "name": "4661a16aef8eb01af6b914729fb5afac", "is_reserved": 0, "lon": -77.01993683333333, "is_disabled": 0, "fusion_lat": 0.0, "lat": 38.89874183333333, "bike_id": "4661a16aef8eb01af6b914729fb5afac", "fusion_lon": 0.0}, {"rental_uris": {"ios": "https://dc.lft.to/lastmile_qr_scan", "android": "https://dc.lft.to/lastmile_qr_scan"}, "type": "electric_scooter", "name": "844390b8c7acc4d3120fa75a5a54eada", "is_reserved": 0, "lon": -77.04565633333333, "is_disabled": 0, "fusion_lat": 0.0, "lat": 38.91778683333333, "bike_id": "844390b8c7acc4d3120fa75a5a54eada", "fusion_lon": 0.0}, {"rental_uris": {"ios": "https://dc.lft.to/lastmile_qr_scan", "android": "https://dc.lft.to/lastmile_qr_scan"}, "type": "electric_scooter", "name": "770e6d77d489d1029ef0ca2d8b1264e3", "is_reserved": 0, "lon": -77.037778, "is_disabled": 0, "fusion_lat": 0.0, "lat": 38.92591133333333, "bike_id": "770e6d77d489d1029ef0ca2d8b1264e3", "fusion_lon": 0.0}, {"rental_uris": {"ios": "https://dc.lft.to/lastmile_qr_scan", "android": "https://dc.lft.to/lastmile_qr_scan"}, "type": "electric_scooter", "name": "da7d8f2bf6b294c61548244a87dc478b", "is_reserved": 0, "lon": -77.04146883333334, "is_disabled": 0, "fusion_lat": 0.0, "lat": 38.907285, "bike_id": "da7d8f2bf6b294c61548244a87dc478b", "fusion_lon": 0.0}, {"rental_uris": {"ios": "https://dc.lft.to/lastmile_qr_scan", "android": "https://dc.lft.to/lastmile_qr_scan"}, "type": "electric_scooter", "name": "ba71b202d81baab3cd9ba7df318616bb", "is_reserved": 0, "lon": -77.02375833333333, "is_disabled": 0, "fusion_lat": 0.0, "lat": 38.9168685, "bike_id": "ba71b202d81baab3cd9ba7df318616bb", "fusion_lon": 0.0}, {"rental_uris": {"ios": "https://dc.lft.to/lastmile_qr_scan", "android": "https://dc.lft.to/lastmile_qr_scan"}, "type": "electric_scooter", "name": "3e99fe4112c791720b1e22d55cc318b7", "is_reserved": 0, "lon": -77.03465983333334, "is_disabled": 0, "fusion_lat": 0.0, "lat": 38.91824883333334, "bike_id": "3e99fe4112c791720b1e22d55cc318b7", "fusion_lon": 0.0}, {"rental_uris": {"ios": "https://dc.lft.to/lastmile_qr_scan", "android": "https://dc.lft.to/lastmile_qr_scan"}, "type": "electric_scooter", "name": "3a7c290a377fe93821e11b42d1746034", "is_reserved": 0, "lon": -76.93425216666667, "is_disabled": 0, "fusion_lat": 0.0, "lat": 38.89341183333333, "bike_id": "3a7c290a377fe93821e11b42d1746034", "fusion_lon": 0.0}, {"rental_uris": {"ios": "https://dc.lft.to/lastmile_qr_scan", "android": "https://dc.lft.to/lastmile_qr_scan"}, "type": "electric_scooter", "name": "50bd42d8f16271f33a5500112f667ac1", "is_reserved": 0, "lon": -77.04168616666666, "is_disabled": 0, "fusion_lat": 0.0, "lat": 38.9198515, "bike_id": "50bd42d8f16271f33a5500112f667ac1", "fusion_lon": 0.0}, {"rental_uris": {"ios": "https://dc.lft.to/lastmile_qr_scan", "android": "https://dc.lft.to/lastmile_qr_scan"}, "type": "electric_scooter", "name": "dd1546964656765ff22dbecf547802a4", "is_reserved": 0, "lon": -77.02692783333333, "is_disabled": 0, "fusion_lat": 0.0, "lat": 38.94976316666666, "bike_id": "dd1546964656765ff22dbecf547802a4", "fusion_lon": 0.0}, {"rental_uris": {"ios": "https://dc.lft.to/lastmile_qr_scan", "android": "https://dc.lft.to/lastmile_qr_scan"}, "type": "electric_scooter", "name": "5a61879a720249ed31d803a271af3ab3", "is_reserved": 0, "lon": -77.021888, "is_disabled": 0, "fusion_lat": 0.0, "lat": 38.899222333333334, "bike_id": "5a61879a720249ed31d803a271af3ab3", "fusion_lon": 0.0}, {"rental_uris": {"ios": "https://dc.lft.to/lastmile_qr_scan", "android": "https://dc.lft.to/lastmile_qr_scan"}, "type": "electric_bike", "name": "8a9ae886c65220e32a40a9cd972b3be9", "is_reserved": 0, "lon": -77.012235, "is_disabled": 0, "fusion_lat": 0.0, "lat": 38.95075883333333, "bike_id": "8a9ae886c65220e32a40a9cd972b3be9", "fusion_lon": 0.0}, {"rental_uris": {"ios": "https://dc.lft.to/lastmile_qr_scan", "android": "https://dc.lft.to/lastmile_qr_scan"}, "type": "electric_scooter", "name": "e9c5dbb62d3cba4c27caa9b706f1c274", "is_reserved": 0, "lon": -77.032066, "is_disabled": 0, "fusion_lat": 0.0, "lat": 38.90990866666667, "bike_id": "e9c5dbb62d3cba4c27caa9b706f1c274", "fusion_lon": 0.0}, {"rental_uris": {"ios": "https://dc.lft.to/lastmile_qr_scan", "android": "https://dc.lft.to/lastmile_qr_scan"}, "type": "electric_scooter", "name": "6069c0bf7e2cc1ffe9d2b76081a34858", "is_reserved": 0, "lon": -77.03324433333333, "is_disabled": 0, "fusion_lat": 0.0, "lat": 38.888889666666664, "bike_id": "6069c0bf7e2cc1ffe9d2b76081a34858", "fusion_lon": 0.0}, {"rental_uris": {"ios": "https://dc.lft.to/lastmile_qr_scan", "android": "https://dc.lft.to/lastmile_qr_scan"}, "type": "electric_scooter", "name": "22e929f97dea6ce791359bc9ea1a23c2", "is_reserved": 0, "lon": -77.04212716666666, "is_disabled": 0, "fusion_lat": 0.0, "lat": 38.9251395, "bike_id": "22e929f97dea6ce791359bc9ea1a23c2", "fusion_lon": 0.0}, {"rental_uris": {"ios": "https://dc.lft.to/lastmile_qr_scan", "android": "https://dc.lft.to/lastmile_qr_scan"}, "type": "electric_bike", "name": "b727e8c016372694228f7a0081bba2ce", "is_reserved": 0, "lon": -76.9967735, "is_disabled": 0, "fusion_lat": 0.0, "lat": 38.8381605, "bike_id": "b727e8c016372694228f7a0081bba2ce", "fusion_lon": 0.0}, {"rental_uris": {"ios": "https://dc.lft.to/lastmile_qr_scan", "android": "https://dc.lft.to/lastmile_qr_scan"}, "type": "electric_scooter", "name": "9537e64ccf30486ed76537cff0800b0c", "is_reserved": 0, "lon": -77.03855966666667, "is_disabled": 0, "fusion_lat": 0.0, "lat": 38.932016833333336, "bike_id": "9537e64ccf30486ed76537cff0800b0c", "fusion_lon": 0.0}, {"rental_uris": {"ios": "https://dc.lft.to/lastmile_qr_scan", "android": "https://dc.lft.to/lastmile_qr_scan"}, "type": "electric_scooter", "name": "d4f37b2eb7ad19e28ef2f8dd1179fb08", "is_reserved": 0, "lon": -77.0251705, "is_disabled": 0, "fusion_lat": 0.0, "lat": 38.8975505, "bike_id": "d4f37b2eb7ad19e28ef2f8dd1179fb08", "fusion_lon": 0.0}, {"rental_uris": {"ios": "https://dc.lft.to/lastmile_qr_scan", "android": "https://dc.lft.to/lastmile_qr_scan"}, "type": "electric_scooter", "name": "42be18138c83a6e1a2b4b1016ae58901", "is_reserved": 0, "lon": -77.05260433333333, "is_disabled": 0, "fusion_lat": 0.0, "lat": 38.92565533333333, "bike_id": "42be18138c83a6e1a2b4b1016ae58901", "fusion_lon": 0.0}, {"rental_uris": {"ios": "https://dc.lft.to/lastmile_qr_scan", "android": "https://dc.lft.to/lastmile_qr_scan"}, "type": "electric_scooter", "name": "7837973d672212fb9a510e9bfd565afb", "is_reserved": 0, "lon": -77.03933216666667, "is_disabled": 0, "fusion_lat": 0.0, "lat": 38.901518, "bike_id": "7837973d672212fb9a510e9bfd565afb", "fusion_lon": 0.0}, {"rental_uris": {"ios": "https://dc.lft.to/lastmile_qr_scan", "android": "https://dc.lft.to/lastmile_qr_scan"}, "type": "electric_scooter", "name": "61810318e53602833fdab88413d80b9b", "is_reserved": 0, "lon": -77.031939, "is_disabled": 0, "fusion_lat": 0.0, "lat": 38.89860933333333, "bike_id": "61810318e53602833fdab88413d80b9b", "fusion_lon": 0.0}, {"rental_uris": {"ios": "https://dc.lft.to/lastmile_qr_scan", "android": "https://dc.lft.to/lastmile_qr_scan"}, "type": "electric_scooter", "name": "65152c14cb94094b5393fb386ef071a8", "is_reserved": 0, "lon": -77.00195383333333, "is_disabled": 0, "fusion_lat": 0.0, "lat": 38.90241966666667, "bike_id": "65152c14cb94094b5393fb386ef071a8", "fusion_lon": 0.0}, {"rental_uris": {"ios": "https://dc.lft.to/lastmile_qr_scan", "android": "https://dc.lft.to/lastmile_qr_scan"}, "type": "electric_scooter", "name": "c67f8b8157330daa7d9b2bc17e101e03", "is_reserved": 0, "lon": -77.03322283333334, "is_disabled": 0, "fusion_lat": 0.0, "lat": 38.918055, "bike_id": "c67f8b8157330daa7d9b2bc17e101e03", "fusion_lon": 0.0}, {"rental_uris": {"ios": "https://dc.lft.to/lastmile_qr_scan", "android": "https://dc.lft.to/lastmile_qr_scan"}, "type": "electric_scooter", "name": "5e7a7c3293fdecb9a637f97dfde08674", "is_reserved": 0, "lon": -77.05314, "is_disabled": 0, "fusion_lat": 0.0, "lat": 38.940920166666665, "bike_id": "5e7a7c3293fdecb9a637f97dfde08674", "fusion_lon": 0.0}, {"rental_uris": {"ios": "https://dc.lft.to/lastmile_qr_scan", "android": "https://dc.lft.to/lastmile_qr_scan"}, "type": "electric_scooter", "name": "dfe3f22d60b8d1688b8a8066d55ca563", "is_reserved": 0, "lon": -77.038748, "is_disabled": 0, "fusion_lat": 0.0, "lat": 38.903694, "bike_id": "dfe3f22d60b8d1688b8a8066d55ca563", "fusion_lon": 0.0}, {"rental_uris": {"ios": "https://dc.lft.to/lastmile_qr_scan", "android": "https://dc.lft.to/lastmile_qr_scan"}, "type": "electric_scooter", "name": "fb242dd17dae6f0fffe879cff43abc9d", "is_reserved": 0, "lon": -77.03204, "is_disabled": 0, "fusion_lat": 0.0, "lat": 38.9167865, "bike_id": "fb242dd17dae6f0fffe879cff43abc9d", "fusion_lon": 0.0}, {"rental_uris": {"ios": "https://dc.lft.to/lastmile_qr_scan", "android": "https://dc.lft.to/lastmile_qr_scan"}, "type": "electric_scooter", "name": "9ca7ff7fdaa7ee8df554380cea136226", "is_reserved": 0, "lon": -77.02175133333333, "is_disabled": 0, "fusion_lat": 0.0, "lat": 38.91469166666667, "bike_id": "9ca7ff7fdaa7ee8df554380cea136226", "fusion_lon": 0.0}, {"rental_uris": {"ios": "https://dc.lft.to/lastmile_qr_scan", "android": "https://dc.lft.to/lastmile_qr_scan"}, "type": "electric_bike", "name": "75e27a362ac51a70adda8ecac1bd7c23", "is_reserved": 0, "lon": -77.0591045, "is_disabled": 0, "fusion_lat": 0.0, "lat": 38.9053705, "bike_id": "75e27a362ac51a70adda8ecac1bd7c23", "fusion_lon": 0.0}, {"rental_uris": {"ios": "https://dc.lft.to/lastmile_qr_scan", "android": "https://dc.lft.to/lastmile_qr_scan"}, "type": "electric_scooter", "name": "863a2cb6b24e27e96c51c80823220b0a", "is_reserved": 0, "lon": -76.985616, "is_disabled": 0, "fusion_lat": 0.0, "lat": 38.859991666666666, "bike_id": "863a2cb6b24e27e96c51c80823220b0a", "fusion_lon": 0.0}, {"rental_uris": {"ios": "https://dc.lft.to/lastmile_qr_scan", "android": "https://dc.lft.to/lastmile_qr_scan"}, "type": "electric_scooter", "name": "0e0cf885132b725f279e8d7891ef6585", "is_reserved": 0, "lon": -77.03842666666667, "is_disabled": 0, "fusion_lat": 0.0, "lat": 38.9099235, "bike_id": "0e0cf885132b725f279e8d7891ef6585", "fusion_lon": 0.0}, {"rental_uris": {"ios": "https://dc.lft.to/lastmile_qr_scan", "android": "https://dc.lft.to/lastmile_qr_scan"}, "type": "electric_scooter", "name": "c86068453515d11cc2c25f14d3cba191", "is_reserved": 0, "lon": -77.05835133333333, "is_disabled": 0, "fusion_lat": 0.0, "lat": 38.9052765, "bike_id": "c86068453515d11cc2c25f14d3cba191", "fusion_lon": 0.0}, {"rental_uris": {"ios": "https://dc.lft.to/lastmile_qr_scan", "android": "https://dc.lft.to/lastmile_qr_scan"}, "type": "electric_scooter", "name": "c6822bf5a9f4b7b49c74d81e9b613380", "is_reserved": 0, "lon": -77.063918, "is_disabled": 0, "fusion_lat": 0.0, "lat": 38.908641833333334, "bike_id": "c6822bf5a9f4b7b49c74d81e9b613380", "fusion_lon": 0.0}, {"rental_uris": {"ios": "https://dc.lft.to/lastmile_qr_scan", "android": "https://dc.lft.to/lastmile_qr_scan"}, "type": "electric_scooter", "name": "546dc254b023d70a9d4b0537bc8a9a36", "is_reserved": 0, "lon": -77.03660583333334, "is_disabled": 0, "fusion_lat": 0.0, "lat": 38.91390166666667, "bike_id": "546dc254b023d70a9d4b0537bc8a9a36", "fusion_lon": 0.0}, {"rental_uris": {"ios": "https://dc.lft.to/lastmile_qr_scan", "android": "https://dc.lft.to/lastmile_qr_scan"}, "type": "electric_scooter", "name": "1247ea4dead935be51faa0580b9fd407", "is_reserved": 0, "lon": -77.03221333333333, "is_disabled": 0, "fusion_lat": 0.0, "lat": 38.887094166666664, "bike_id": "1247ea4dead935be51faa0580b9fd407", "fusion_lon": 0.0}, {"rental_uris": {"ios": "https://dc.lft.to/lastmile_qr_scan", "android": "https://dc.lft.to/lastmile_qr_scan"}, "type": "electric_bike", "name": "3aae2519a2b72fbfbe0f429ec4a2bfe7", "is_reserved": 0, "lon": -76.9689015, "is_disabled": 0, "fusion_lat": 0.0, "lat": 38.8698215, "bike_id": "3aae2519a2b72fbfbe0f429ec4a2bfe7", "fusion_lon": 0.0}, {"rental_uris": {"ios": "https://dc.lft.to/lastmile_qr_scan", "android": "https://dc.lft.to/lastmile_qr_scan"}, "type": "electric_scooter", "name": "48832a86687f2ac4ac8cc6df07cc3f0f", "is_reserved": 0, "lon": -77.0366035, "is_disabled": 0, "fusion_lat": 0.0, "lat": 38.91759283333333, "bike_id": "48832a86687f2ac4ac8cc6df07cc3f0f", "fusion_lon": 0.0}, {"rental_uris": {"ios": "https://dc.lft.to/lastmile_qr_scan", "android": "https://dc.lft.to/lastmile_qr_scan"}, "type": "electric_scooter", "name": "46886d6a7a101d49b5ecf3687b3d1c16", "is_reserved": 0, "lon": -77.0075595, "is_disabled": 0, "fusion_lat": 0.0, "lat": 38.926784833333336, "bike_id": "46886d6a7a101d49b5ecf3687b3d1c16", "fusion_lon": 0.0}, {"rental_uris": {"ios": "https://dc.lft.to/lastmile_qr_scan", "android": "https://dc.lft.to/lastmile_qr_scan"}, "type": "electric_scooter", "name": "d3833a4e1574dda1a3ba990d9ddde5ef", "is_reserved": 0, "lon": -76.994138, "is_disabled": 0, "fusion_lat": 0.0, "lat": 38.92095183333333, "bike_id": "d3833a4e1574dda1a3ba990d9ddde5ef", "fusion_lon": 0.0}, {"rental_uris": {"ios": "https://dc.lft.to/lastmile_qr_scan", "android": "https://dc.lft.to/lastmile_qr_scan"}, "type": "electric_scooter", "name": "d9cdef4d0ab13edabbf7e00913bc1370", "is_reserved": 0, "lon": -77.0073785, "is_disabled": 0, "fusion_lat": 0.0, "lat": 38.8764745, "bike_id": "d9cdef4d0ab13edabbf7e00913bc1370", "fusion_lon": 0.0}, {"rental_uris": {"ios": "https://dc.lft.to/lastmile_qr_scan", "android": "https://dc.lft.to/lastmile_qr_scan"}, "type": "electric_scooter", "name": "2479f36c6fe5bcb1a8b4dc678958424f", "is_reserved": 0, "lon": -77.03832933333334, "is_disabled": 0, "fusion_lat": 0.0, "lat": 38.9107495, "bike_id": "2479f36c6fe5bcb1a8b4dc678958424f", "fusion_lon": 0.0}, {"rental_uris": {"ios": "https://dc.lft.to/lastmile_qr_scan", "android": "https://dc.lft.to/lastmile_qr_scan"}, "type": "electric_scooter", "name": "96ba25df77ddae810c6468ff7e4d93f2", "is_reserved": 0, "lon": -77.05018166666666, "is_disabled": 0, "fusion_lat": 0.0, "lat": 38.923546333333334, "bike_id": "96ba25df77ddae810c6468ff7e4d93f2", "fusion_lon": 0.0}, {"rental_uris": {"ios": "https://dc.lft.to/lastmile_qr_scan", "android": "https://dc.lft.to/lastmile_qr_scan"}, "type": "electric_scooter", "name": "9cc9cd60876733b99a9287fae766b256", "is_reserved": 0, "lon": -77.02411966666666, "is_disabled": 0, "fusion_lat": 0.0, "lat": 38.9095775, "bike_id": "9cc9cd60876733b99a9287fae766b256", "fusion_lon": 0.0}, {"rental_uris": {"ios": "https://dc.lft.to/lastmile_qr_scan", "android": "https://dc.lft.to/lastmile_qr_scan"}, "type": "electric_scooter", "name": "13f451efcc8501486e702cdc64c31cdb", "is_reserved": 0, "lon": -77.04490933333334, "is_disabled": 0, "fusion_lat": 0.0, "lat": 38.893398833333336, "bike_id": "13f451efcc8501486e702cdc64c31cdb", "fusion_lon": 0.0}, {"rental_uris": {"ios": "https://dc.lft.to/lastmile_qr_scan", "android": "https://dc.lft.to/lastmile_qr_scan"}, "type": "electric_scooter", "name": "29552de407e6b0f705dab155c33a2559", "is_reserved": 0, "lon": -77.03546516666667, "is_disabled": 0, "fusion_lat": 0.0, "lat": 38.9047455, "bike_id": "29552de407e6b0f705dab155c33a2559", "fusion_lon": 0.0}, {"rental_uris": {"ios": "https://dc.lft.to/lastmile_qr_scan", "android": "https://dc.lft.to/lastmile_qr_scan"}, "type": "electric_scooter", "name": "d78ccac3a33c55d83896060417317d34", "is_reserved": 0, "lon": -77.01080316666666, "is_disabled": 0, "fusion_lat": 0.0, "lat": 38.90333566666666, "bike_id": "d78ccac3a33c55d83896060417317d34", "fusion_lon": 0.0}, {"rental_uris": {"ios": "https://dc.lft.to/lastmile_qr_scan", "android": "https://dc.lft.to/lastmile_qr_scan"}, "type": "electric_scooter", "name": "8b2c4ce6edcb42d1fb2e6d798985fe0b", "is_reserved": 0, "lon": -77.05599983333333, "is_disabled": 0, "fusion_lat": 0.0, "lat": 38.937022, "bike_id": "8b2c4ce6edcb42d1fb2e6d798985fe0b", "fusion_lon": 0.0}, {"rental_uris": {"ios": "https://dc.lft.to/lastmile_qr_scan", "android": "https://dc.lft.to/lastmile_qr_scan"}, "type": "electric_scooter", "name": "00afdfa7124d23c82831951a926134ad", "is_reserved": 0, "lon": -77.036027, "is_disabled": 0, "fusion_lat": 0.0, "lat": 38.928509166666664, "bike_id": "00afdfa7124d23c82831951a926134ad", "fusion_lon": 0.0}, {"rental_uris": {"ios": "https://dc.lft.to/lastmile_qr_scan", "android": "https://dc.lft.to/lastmile_qr_scan"}, "type": "electric_scooter", "name": "c9d9813d3bb04436cc9de850c67f44ca", "is_reserved": 0, "lon": -77.0231105, "is_disabled": 0, "fusion_lat": 0.0, "lat": 38.961319333333336, "bike_id": "c9d9813d3bb04436cc9de850c67f44ca", "fusion_lon": 0.0}, {"rental_uris": {"ios": "https://dc.lft.to/lastmile_qr_scan", "android": "https://dc.lft.to/lastmile_qr_scan"}, "type": "electric_scooter", "name": "2a45cef342d7025cd3781bbc65667641", "is_reserved": 0, "lon": -77.04133883333333, "is_disabled": 0, "fusion_lat": 0.0, "lat": 38.93466766666667, "bike_id": "2a45cef342d7025cd3781bbc65667641", "fusion_lon": 0.0}, {"rental_uris": {"ios": "https://dc.lft.to/lastmile_qr_scan", "android": "https://dc.lft.to/lastmile_qr_scan"}, "type": "electric_scooter", "name": "4d51b796eaa2930b3afba850ba729b03", "is_reserved": 0, "lon": -77.02818833333333, "is_disabled": 0, "fusion_lat": 0.0, "lat": 38.9297255, "bike_id": "4d51b796eaa2930b3afba850ba729b03", "fusion_lon": 0.0}, {"rental_uris": {"ios": "https://dc.lft.to/lastmile_qr_scan", "android": "https://dc.lft.to/lastmile_qr_scan"}, "type": "electric_scooter", "name": "f5ae212f597098391147886622f60a4f", "is_reserved": 0, "lon": -77.03408316666666, "is_disabled": 0, "fusion_lat": 0.0, "lat": 38.919741333333334, "bike_id": "f5ae212f597098391147886622f60a4f", "fusion_lon": 0.0}, {"rental_uris": {"ios": "https://dc.lft.to/lastmile_qr_scan", "android": "https://dc.lft.to/lastmile_qr_scan"}, "type": "electric_scooter", "name": "f762b1bf575ed64823f4e2a549ed40fe", "is_reserved": 0, "lon": -77.03339983333333, "is_disabled": 0, "fusion_lat": 0.0, "lat": 38.90331783333333, "bike_id": "f762b1bf575ed64823f4e2a549ed40fe", "fusion_lon": 0.0}, {"rental_uris": {"ios": "https://dc.lft.to/lastmile_qr_scan", "android": "https://dc.lft.to/lastmile_qr_scan"}, "type": "electric_scooter", "name": "e0b66d5a4ced1023786e0afa34a15f14", "is_reserved": 0, "lon": -77.03374616666666, "is_disabled": 0, "fusion_lat": 0.0, "lat": 38.91043783333333, "bike_id": "e0b66d5a4ced1023786e0afa34a15f14", "fusion_lon": 0.0}, {"rental_uris": {"ios": "https://dc.lft.to/lastmile_qr_scan", "android": "https://dc.lft.to/lastmile_qr_scan"}, "type": "electric_scooter", "name": "a6a1ebe38ffbf1b9885219be9be9dca1", "is_reserved": 0, "lon": -77.02284866666666, "is_disabled": 0, "fusion_lat": 0.0, "lat": 38.907889833333336, "bike_id": "a6a1ebe38ffbf1b9885219be9be9dca1", "fusion_lon": 0.0}, {"rental_uris": {"ios": "https://dc.lft.to/lastmile_qr_scan", "android": "https://dc.lft.to/lastmile_qr_scan"}, "type": "electric_scooter", "name": "279810531d265b18bbe413c528b077a0", "is_reserved": 0, "lon": -77.04050883333333, "is_disabled": 0, "fusion_lat": 0.0, "lat": 38.904509, "bike_id": "279810531d265b18bbe413c528b077a0", "fusion_lon": 0.0}, {"rental_uris": {"ios": "https://dc.lft.to/lastmile_qr_scan", "android": "https://dc.lft.to/lastmile_qr_scan"}, "type": "electric_scooter", "name": "f05494e8785cd15d1483b648cbd7d1fc", "is_reserved": 0, "lon": -77.03159183333334, "is_disabled": 0, "fusion_lat": 0.0, "lat": 38.9012375, "bike_id": "f05494e8785cd15d1483b648cbd7d1fc", "fusion_lon": 0.0}, {"rental_uris": {"ios": "https://dc.lft.to/lastmile_qr_scan", "android": "https://dc.lft.to/lastmile_qr_scan"}, "type": "electric_scooter", "name": "94b52a57b696dbbaabd6b1d969339317", "is_reserved": 0, "lon": -77.06749433333333, "is_disabled": 0, "fusion_lat": 0.0, "lat": 38.9051195, "bike_id": "94b52a57b696dbbaabd6b1d969339317", "fusion_lon": 0.0}, {"rental_uris": {"ios": "https://dc.lft.to/lastmile_qr_scan", "android": "https://dc.lft.to/lastmile_qr_scan"}, "type": "electric_scooter", "name": "24d1a36d374d4798e078e1253da0b2dd", "is_reserved": 0, "lon": -77.01358866666666, "is_disabled": 0, "fusion_lat": 0.0, "lat": 38.919256833333336, "bike_id": "24d1a36d374d4798e078e1253da0b2dd", "fusion_lon": 0.0}, {"rental_uris": {"ios": "https://dc.lft.to/lastmile_qr_scan", "android": "https://dc.lft.to/lastmile_qr_scan"}, "type": "electric_scooter", "name": "83aafcb1cebb4e9f2f570db86da596d2", "is_reserved": 0, "lon": -77.026425, "is_disabled": 0, "fusion_lat": 0.0, "lat": 38.896316166666665, "bike_id": "83aafcb1cebb4e9f2f570db86da596d2", "fusion_lon": 0.0}, {"rental_uris": {"ios": "https://dc.lft.to/lastmile_qr_scan", "android": "https://dc.lft.to/lastmile_qr_scan"}, "type": "electric_scooter", "name": "371bea3500bd7d4f122883fa01d30a6b", "is_reserved": 0, "lon": -77.02475883333334, "is_disabled": 0, "fusion_lat": 0.0, "lat": 38.91814333333333, "bike_id": "371bea3500bd7d4f122883fa01d30a6b", "fusion_lon": 0.0}, {"rental_uris": {"ios": "https://dc.lft.to/lastmile_qr_scan", "android": "https://dc.lft.to/lastmile_qr_scan"}, "type": "electric_scooter", "name": "8149da46b8c1b09dc4b492b5f919674c", "is_reserved": 0, "lon": -76.99687833333333, "is_disabled": 0, "fusion_lat": 0.0, "lat": 38.9220425, "bike_id": "8149da46b8c1b09dc4b492b5f919674c", "fusion_lon": 0.0}, {"rental_uris": {"ios": "https://dc.lft.to/lastmile_qr_scan", "android": "https://dc.lft.to/lastmile_qr_scan"}, "type": "electric_scooter", "name": "1fa48cd788f82dc8f38eeddd69bbc311", "is_reserved": 0, "lon": -77.04405266666667, "is_disabled": 0, "fusion_lat": 0.0, "lat": 38.9014145, "bike_id": "1fa48cd788f82dc8f38eeddd69bbc311", "fusion_lon": 0.0}, {"rental_uris": {"ios": "https://dc.lft.to/lastmile_qr_scan", "android": "https://dc.lft.to/lastmile_qr_scan"}, "type": "electric_scooter", "name": "13a0f0f5707af19dd0225831ecb330f6", "is_reserved": 0, "lon": -76.99623133333333, "is_disabled": 0, "fusion_lat": 0.0, "lat": 38.8773715, "bike_id": "13a0f0f5707af19dd0225831ecb330f6", "fusion_lon": 0.0}, {"rental_uris": {"ios": "https://dc.lft.to/lastmile_qr_scan", "android": "https://dc.lft.to/lastmile_qr_scan"}, "type": "electric_bike", "name": "6337dcf2769d5442e41cbf2764eb89d1", "is_reserved": 0, "lon": -76.9332785, "is_disabled": 0, "fusion_lat": 0.0, "lat": 38.951564833333336, "bike_id": "6337dcf2769d5442e41cbf2764eb89d1", "fusion_lon": 0.0}, {"rental_uris": {"ios": "https://dc.lft.to/lastmile_qr_scan", "android": "https://dc.lft.to/lastmile_qr_scan"}, "type": "electric_scooter", "name": "3d2e9aa2fea4aca0baaaa3ca7e5e1642", "is_reserved": 0, "lon": -77.03440383333333, "is_disabled": 0, "fusion_lat": 0.0, "lat": 38.90742216666666, "bike_id": "3d2e9aa2fea4aca0baaaa3ca7e5e1642", "fusion_lon": 0.0}, {"rental_uris": {"ios": "https://dc.lft.to/lastmile_qr_scan", "android": "https://dc.lft.to/lastmile_qr_scan"}, "type": "electric_scooter", "name": "3b34cd700a4c1589e6c6699832864934", "is_reserved": 0, "lon": -77.004512, "is_disabled": 0, "fusion_lat": 0.0, "lat": 38.8379195, "bike_id": "3b34cd700a4c1589e6c6699832864934", "fusion_lon": 0.0}, {"rental_uris": {"ios": "https://dc.lft.to/lastmile_qr_scan", "android": "https://dc.lft.to/lastmile_qr_scan"}, "type": "electric_scooter", "name": "72bda5e60f52d474dc60a336a7f5f2ee", "is_reserved": 0, "lon": -77.0322605, "is_disabled": 0, "fusion_lat": 0.0, "lat": 38.90973016666667, "bike_id": "72bda5e60f52d474dc60a336a7f5f2ee", "fusion_lon": 0.0}, {"rental_uris": {"ios": "https://dc.lft.to/lastmile_qr_scan", "android": "https://dc.lft.to/lastmile_qr_scan"}, "type": "electric_scooter", "name": "59c734df8c25e473f74b64f18fb077c9", "is_reserved": 0, "lon": -77.03442233333334, "is_disabled": 0, "fusion_lat": 0.0, "lat": 38.919215666666666, "bike_id": "59c734df8c25e473f74b64f18fb077c9", "fusion_lon": 0.0}, {"rental_uris": {"ios": "https://dc.lft.to/lastmile_qr_scan", "android": "https://dc.lft.to/lastmile_qr_scan"}, "type": "electric_scooter", "name": "696255c9d669b152974b093645267835", "is_reserved": 0, "lon": -76.991766, "is_disabled": 0, "fusion_lat": 0.0, "lat": 38.88928816666667, "bike_id": "696255c9d669b152974b093645267835", "fusion_lon": 0.0}, {"rental_uris": {"ios": "https://dc.lft.to/lastmile_qr_scan", "android": "https://dc.lft.to/lastmile_qr_scan"}, "type": "electric_scooter", "name": "dc2c3b04aa1f9c930f9229cbd28ab686", "is_reserved": 0, "lon": -77.022797, "is_disabled": 0, "fusion_lat": 0.0, "lat": 38.9096885, "bike_id": "dc2c3b04aa1f9c930f9229cbd28ab686", "fusion_lon": 0.0}, {"rental_uris": {"ios": "https://dc.lft.to/lastmile_qr_scan", "android": "https://dc.lft.to/lastmile_qr_scan"}, "type": "electric_scooter", "name": "b5f2d02f8f992e000673e486b16e1efd", "is_reserved": 0, "lon": -77.02530516666667, "is_disabled": 0, "fusion_lat": 0.0, "lat": 38.92078383333333, "bike_id": "b5f2d02f8f992e000673e486b16e1efd", "fusion_lon": 0.0}, {"rental_uris": {"ios": "https://dc.lft.to/lastmile_qr_scan", "android": "https://dc.lft.to/lastmile_qr_scan"}, "type": "electric_scooter", "name": "a7ea086f2b14f3a323e41e2167641fde", "is_reserved": 0, "lon": -77.0032975, "is_disabled": 0, "fusion_lat": 0.0, "lat": 38.89726066666667, "bike_id": "a7ea086f2b14f3a323e41e2167641fde", "fusion_lon": 0.0}, {"rental_uris": {"ios": "https://dc.lft.to/lastmile_qr_scan", "android": "https://dc.lft.to/lastmile_qr_scan"}, "type": "electric_scooter", "name": "9e2b59bfb5d05d22c16507ea6407913b", "is_reserved": 0, "lon": -77.02955083333333, "is_disabled": 0, "fusion_lat": 0.0, "lat": 38.90467966666667, "bike_id": "9e2b59bfb5d05d22c16507ea6407913b", "fusion_lon": 0.0}, {"rental_uris": {"ios": "https://dc.lft.to/lastmile_qr_scan", "android": "https://dc.lft.to/lastmile_qr_scan"}, "type": "electric_scooter", "name": "452c5441a06fc75002f1bf09e5c5bf4b", "is_reserved": 0, "lon": -76.979404, "is_disabled": 0, "fusion_lat": 0.0, "lat": 38.91600966666667, "bike_id": "452c5441a06fc75002f1bf09e5c5bf4b", "fusion_lon": 0.0}, {"rental_uris": {"ios": "https://dc.lft.to/lastmile_qr_scan", "android": "https://dc.lft.to/lastmile_qr_scan"}, "type": "electric_scooter", "name": "2674fc6e1c9f6a46a8be47e5b418975e", "is_reserved": 0, "lon": -76.9733, "is_disabled": 0, "fusion_lat": 0.0, "lat": 38.90409016666667, "bike_id": "2674fc6e1c9f6a46a8be47e5b418975e", "fusion_lon": 0.0}, {"rental_uris": {"ios": "https://dc.lft.to/lastmile_qr_scan", "android": "https://dc.lft.to/lastmile_qr_scan"}, "type": "electric_scooter", "name": "430d32796701c2688c843c606f5f8f3a", "is_reserved": 0, "lon": -77.00585616666666, "is_disabled": 0, "fusion_lat": 0.0, "lat": 38.87469016666667, "bike_id": "430d32796701c2688c843c606f5f8f3a", "fusion_lon": 0.0}, {"rental_uris": {"ios": "https://dc.lft.to/lastmile_qr_scan", "android": "https://dc.lft.to/lastmile_qr_scan"}, "type": "electric_scooter", "name": "c96d6b70feb7b908ef2be6d0cd2ff985", "is_reserved": 0, "lon": -77.01218916666667, "is_disabled": 0, "fusion_lat": 0.0, "lat": 38.91467266666667, "bike_id": "c96d6b70feb7b908ef2be6d0cd2ff985", "fusion_lon": 0.0}, {"rental_uris": {"ios": "https://dc.lft.to/lastmile_qr_scan", "android": "https://dc.lft.to/lastmile_qr_scan"}, "type": "electric_scooter", "name": "12a1724a1ec162306eb2ecbe4fe01e8d", "is_reserved": 0, "lon": -77.03390216666666, "is_disabled": 0, "fusion_lat": 0.0, "lat": 38.902671, "bike_id": "12a1724a1ec162306eb2ecbe4fe01e8d", "fusion_lon": 0.0}, {"rental_uris": {"ios": "https://dc.lft.to/lastmile_qr_scan", "android": "https://dc.lft.to/lastmile_qr_scan"}, "type": "electric_scooter", "name": "a84281f6ee45430fb53b701db1502fad", "is_reserved": 0, "lon": -77.0227885, "is_disabled": 0, "fusion_lat": 0.0, "lat": 38.878912666666665, "bike_id": "a84281f6ee45430fb53b701db1502fad", "fusion_lon": 0.0}, {"rental_uris": {"ios": "https://dc.lft.to/lastmile_qr_scan", "android": "https://dc.lft.to/lastmile_qr_scan"}, "type": "electric_scooter", "name": "a215600091305aced3510482f0a08a67", "is_reserved": 0, "lon": -77.01125966666666, "is_disabled": 0, "fusion_lat": 0.0, "lat": 38.89516733333333, "bike_id": "a215600091305aced3510482f0a08a67", "fusion_lon": 0.0}, {"rental_uris": {"ios": "https://dc.lft.to/lastmile_qr_scan", "android": "https://dc.lft.to/lastmile_qr_scan"}, "type": "electric_scooter", "name": "e2033ae2b92d8413e63965b6c5a3aa67", "is_reserved": 0, "lon": -77.03934083333333, "is_disabled": 0, "fusion_lat": 0.0, "lat": 38.91410366666667, "bike_id": "e2033ae2b92d8413e63965b6c5a3aa67", "fusion_lon": 0.0}, {"rental_uris": {"ios": "https://dc.lft.to/lastmile_qr_scan", "android": "https://dc.lft.to/lastmile_qr_scan"}, "type": "electric_scooter", "name": "a2a86bca949ba2c0f7dc148a0d05a586", "is_reserved": 0, "lon": -77.04083783333333, "is_disabled": 0, "fusion_lat": 0.0, "lat": 38.9479065, "bike_id": "a2a86bca949ba2c0f7dc148a0d05a586", "fusion_lon": 0.0}, {"rental_uris": {"ios": "https://dc.lft.to/lastmile_qr_scan", "android": "https://dc.lft.to/lastmile_qr_scan"}, "type": "electric_scooter", "name": "f72acff563cd67d293ab5b6a06c65d6a", "is_reserved": 0, "lon": -77.04223233333333, "is_disabled": 0, "fusion_lat": 0.0, "lat": 38.91116433333333, "bike_id": "f72acff563cd67d293ab5b6a06c65d6a", "fusion_lon": 0.0}, {"rental_uris": {"ios": "https://dc.lft.to/lastmile_qr_scan", "android": "https://dc.lft.to/lastmile_qr_scan"}, "type": "electric_scooter", "name": "548119c891b81a76c53a40c65d15e794", "is_reserved": 0, "lon": -77.00748383333334, "is_disabled": 0, "fusion_lat": 0.0, "lat": 38.9110745, "bike_id": "548119c891b81a76c53a40c65d15e794", "fusion_lon": 0.0}, {"rental_uris": {"ios": "https://dc.lft.to/lastmile_qr_scan", "android": "https://dc.lft.to/lastmile_qr_scan"}, "type": "electric_scooter", "name": "19e2d6c27ed838abf0a4e6979ae751d3", "is_reserved": 0, "lon": -77.03252066666667, "is_disabled": 0, "fusion_lat": 0.0, "lat": 38.91553666666667, "bike_id": "19e2d6c27ed838abf0a4e6979ae751d3", "fusion_lon": 0.0}, {"rental_uris": {"ios": "https://dc.lft.to/lastmile_qr_scan", "android": "https://dc.lft.to/lastmile_qr_scan"}, "type": "electric_bike", "name": "496a978ff979cbce90afacd7f2c85c6a", "is_reserved": 0, "lon": -76.98012033333333, "is_disabled": 0, "fusion_lat": 0.0, "lat": 38.85315516666667, "bike_id": "496a978ff979cbce90afacd7f2c85c6a", "fusion_lon": 0.0}, {"rental_uris": {"ios": "https://dc.lft.to/lastmile_qr_scan", "android": "https://dc.lft.to/lastmile_qr_scan"}, "type": "electric_scooter", "name": "7d2697b1d969ddc84cbb3397f1373574", "is_reserved": 0, "lon": -77.0518885, "is_disabled": 0, "fusion_lat": 0.0, "lat": 38.90243, "bike_id": "7d2697b1d969ddc84cbb3397f1373574", "fusion_lon": 0.0}, {"rental_uris": {"ios": "https://dc.lft.to/lastmile_qr_scan", "android": "https://dc.lft.to/lastmile_qr_scan"}, "type": "electric_scooter", "name": "a616d5cc50e2d8fd9fb2e7530b9c13b9", "is_reserved": 0, "lon": -77.019555, "is_disabled": 0, "fusion_lat": 0.0, "lat": 38.92325, "bike_id": "a616d5cc50e2d8fd9fb2e7530b9c13b9", "fusion_lon": 0.0}, {"rental_uris": {"ios": "https://dc.lft.to/lastmile_qr_scan", "android": "https://dc.lft.to/lastmile_qr_scan"}, "type": "electric_bike", "name": "dd54c015008b69ba123511858ac2a05c", "is_reserved": 0, "lon": -77.0183855, "is_disabled": 0, "fusion_lat": 0.0, "lat": 38.90936083333333, "bike_id": "dd54c015008b69ba123511858ac2a05c", "fusion_lon": 0.0}, {"rental_uris": {"ios": "https://dc.lft.to/lastmile_qr_scan", "android": "https://dc.lft.to/lastmile_qr_scan"}, "type": "electric_scooter", "name": "58a6c3bd664cf2418ad7dfcbe5e7e6da", "is_reserved": 0, "lon": -77.01913583333334, "is_disabled": 0, "fusion_lat": 0.0, "lat": 38.897288, "bike_id": "58a6c3bd664cf2418ad7dfcbe5e7e6da", "fusion_lon": 0.0}, {"rental_uris": {"ios": "https://dc.lft.to/lastmile_qr_scan", "android": "https://dc.lft.to/lastmile_qr_scan"}, "type": "electric_scooter", "name": "6b3fa4cd833bf70c28ad6bc83dfa5c68", "is_reserved": 0, "lon": -77.03341266666666, "is_disabled": 0, "fusion_lat": 0.0, "lat": 38.8925225, "bike_id": "6b3fa4cd833bf70c28ad6bc83dfa5c68", "fusion_lon": 0.0}, {"rental_uris": {"ios": "https://dc.lft.to/lastmile_qr_scan", "android": "https://dc.lft.to/lastmile_qr_scan"}, "type": "electric_scooter", "name": "63d63a7ae16162f142ac3f26bfd5e50b", "is_reserved": 0, "lon": -77.03871716666667, "is_disabled": 0, "fusion_lat": 0.0, "lat": 38.90371283333333, "bike_id": "63d63a7ae16162f142ac3f26bfd5e50b", "fusion_lon": 0.0}, {"rental_uris": {"ios": "https://dc.lft.to/lastmile_qr_scan", "android": "https://dc.lft.to/lastmile_qr_scan"}, "type": "electric_scooter", "name": "f4b12181650d219358a6beeb4026ae91", "is_reserved": 0, "lon": -77.04865083333334, "is_disabled": 0, "fusion_lat": 0.0, "lat": 38.89218866666667, "bike_id": "f4b12181650d219358a6beeb4026ae91", "fusion_lon": 0.0}, {"rental_uris": {"ios": "https://dc.lft.to/lastmile_qr_scan", "android": "https://dc.lft.to/lastmile_qr_scan"}, "type": "electric_scooter", "name": "13d3dcf73e24e239f4d513d55ce7253a", "is_reserved": 0, "lon": -77.03716633333333, "is_disabled": 0, "fusion_lat": 0.0, "lat": 38.926548, "bike_id": "13d3dcf73e24e239f4d513d55ce7253a", "fusion_lon": 0.0}, {"rental_uris": {"ios": "https://dc.lft.to/lastmile_qr_scan", "android": "https://dc.lft.to/lastmile_qr_scan"}, "type": "electric_scooter", "name": "2918deeb92c543efbba57258003dc3b2", "is_reserved": 0, "lon": -77.04301133333334, "is_disabled": 0, "fusion_lat": 0.0, "lat": 38.923315, "bike_id": "2918deeb92c543efbba57258003dc3b2", "fusion_lon": 0.0}, {"rental_uris": {"ios": "https://dc.lft.to/lastmile_qr_scan", "android": "https://dc.lft.to/lastmile_qr_scan"}, "type": "electric_scooter", "name": "90b3a3aa571c5a20a31b85a5d8faeb18", "is_reserved": 0, "lon": -77.03446983333333, "is_disabled": 0, "fusion_lat": 0.0, "lat": 38.9074185, "bike_id": "90b3a3aa571c5a20a31b85a5d8faeb18", "fusion_lon": 0.0}, {"rental_uris": {"ios": "https://dc.lft.to/lastmile_qr_scan", "android": "https://dc.lft.to/lastmile_qr_scan"}, "type": "electric_scooter", "name": "7d790d4efcb1df52f5ccb5eba183037e", "is_reserved": 0, "lon": -77.01241583333334, "is_disabled": 0, "fusion_lat": 0.0, "lat": 38.912654333333336, "bike_id": "7d790d4efcb1df52f5ccb5eba183037e", "fusion_lon": 0.0}, {"rental_uris": {"ios": "https://dc.lft.to/lastmile_qr_scan", "android": "https://dc.lft.to/lastmile_qr_scan"}, "type": "electric_scooter", "name": "a22c672f0520949db2a3fc446e985023", "is_reserved": 0, "lon": -77.038571, "is_disabled": 0, "fusion_lat": 0.0, "lat": 38.912790666666666, "bike_id": "a22c672f0520949db2a3fc446e985023", "fusion_lon": 0.0}, {"rental_uris": {"ios": "https://dc.lft.to/lastmile_qr_scan", "android": "https://dc.lft.to/lastmile_qr_scan"}, "type": "electric_scooter", "name": "a41ec15a823c28d7e77843a70d9479c0", "is_reserved": 0, "lon": -77.02089316666667, "is_disabled": 0, "fusion_lat": 0.0, "lat": 38.9073225, "bike_id": "a41ec15a823c28d7e77843a70d9479c0", "fusion_lon": 0.0}, {"rental_uris": {"ios": "https://dc.lft.to/lastmile_qr_scan", "android": "https://dc.lft.to/lastmile_qr_scan"}, "type": "electric_bike", "name": "452d32afdd0e23f5c01e2d9f398f09e3", "is_reserved": 0, "lon": -77.0724575, "is_disabled": 0, "fusion_lat": 0.0, "lat": 38.81367216666666, "bike_id": "452d32afdd0e23f5c01e2d9f398f09e3", "fusion_lon": 0.0}, {"rental_uris": {"ios": "https://dc.lft.to/lastmile_qr_scan", "android": "https://dc.lft.to/lastmile_qr_scan"}, "type": "electric_scooter", "name": "5729a62d30ded14463646aa24ef89166", "is_reserved": 0, "lon": -77.04027716666667, "is_disabled": 0, "fusion_lat": 0.0, "lat": 38.924570833333334, "bike_id": "5729a62d30ded14463646aa24ef89166", "fusion_lon": 0.0}, {"rental_uris": {"ios": "https://dc.lft.to/lastmile_qr_scan", "android": "https://dc.lft.to/lastmile_qr_scan"}, "type": "electric_scooter", "name": "5cac232b0a08e66e481c5d494790ca11", "is_reserved": 0, "lon": -77.04332133333334, "is_disabled": 0, "fusion_lat": 0.0, "lat": 38.9073045, "bike_id": "5cac232b0a08e66e481c5d494790ca11", "fusion_lon": 0.0}, {"rental_uris": {"ios": "https://dc.lft.to/lastmile_qr_scan", "android": "https://dc.lft.to/lastmile_qr_scan"}, "type": "electric_scooter", "name": "f5d4793975c40bed0674f5e6a7b84a4d", "is_reserved": 0, "lon": -77.04818366666667, "is_disabled": 0, "fusion_lat": 0.0, "lat": 38.909681, "bike_id": "f5d4793975c40bed0674f5e6a7b84a4d", "fusion_lon": 0.0}, {"rental_uris": {"ios": "https://dc.lft.to/lastmile_qr_scan", "android": "https://dc.lft.to/lastmile_qr_scan"}, "type": "electric_scooter", "name": "19e0a9f4f4d1b40b5a085b1f1b51f835", "is_reserved": 0, "lon": -77.02045616666666, "is_disabled": 0, "fusion_lat": 0.0, "lat": 38.9110935, "bike_id": "19e0a9f4f4d1b40b5a085b1f1b51f835", "fusion_lon": 0.0}, {"rental_uris": {"ios": "https://dc.lft.to/lastmile_qr_scan", "android": "https://dc.lft.to/lastmile_qr_scan"}, "type": "electric_scooter", "name": "9562ae3be87beefc87ab647475826024", "is_reserved": 0, "lon": -77.02814316666667, "is_disabled": 0, "fusion_lat": 0.0, "lat": 38.9109655, "bike_id": "9562ae3be87beefc87ab647475826024", "fusion_lon": 0.0}, {"rental_uris": {"ios": "https://dc.lft.to/lastmile_qr_scan", "android": "https://dc.lft.to/lastmile_qr_scan"}, "type": "electric_scooter", "name": "f34fcbe956423234f2a86c9b8277eaec", "is_reserved": 0, "lon": -77.04405183333333, "is_disabled": 0, "fusion_lat": 0.0, "lat": 38.9258865, "bike_id": "f34fcbe956423234f2a86c9b8277eaec", "fusion_lon": 0.0}, {"rental_uris": {"ios": "https://dc.lft.to/lastmile_qr_scan", "android": "https://dc.lft.to/lastmile_qr_scan"}, "type": "electric_scooter", "name": "1342acc8d9efe143c76d7e43aa478614", "is_reserved": 0, "lon": -77.047445, "is_disabled": 0, "fusion_lat": 0.0, "lat": 38.901539, "bike_id": "1342acc8d9efe143c76d7e43aa478614", "fusion_lon": 0.0}, {"rental_uris": {"ios": "https://dc.lft.to/lastmile_qr_scan", "android": "https://dc.lft.to/lastmile_qr_scan"}, "type": "electric_scooter", "name": "5ea095659056ce7cc485f82d1200eba3", "is_reserved": 0, "lon": -76.9432255, "is_disabled": 0, "fusion_lat": 0.0, "lat": 38.8792075, "bike_id": "5ea095659056ce7cc485f82d1200eba3", "fusion_lon": 0.0}, {"rental_uris": {"ios": "https://dc.lft.to/lastmile_qr_scan", "android": "https://dc.lft.to/lastmile_qr_scan"}, "type": "electric_scooter", "name": "32766971fd2566989b9d76866e527bec", "is_reserved": 0, "lon": -76.98568866666666, "is_disabled": 0, "fusion_lat": 0.0, "lat": 38.89618216666667, "bike_id": "32766971fd2566989b9d76866e527bec", "fusion_lon": 0.0}, {"rental_uris": {"ios": "https://dc.lft.to/lastmile_qr_scan", "android": "https://dc.lft.to/lastmile_qr_scan"}, "type": "electric_scooter", "name": "e8338a2b1e085a8b35952bbebe106d93", "is_reserved": 0, "lon": -77.02758533333333, "is_disabled": 0, "fusion_lat": 0.0, "lat": 38.913461166666664, "bike_id": "e8338a2b1e085a8b35952bbebe106d93", "fusion_lon": 0.0}, {"rental_uris": {"ios": "https://dc.lft.to/lastmile_qr_scan", "android": "https://dc.lft.to/lastmile_qr_scan"}, "type": "electric_scooter", "name": "fade114865a6eadabfe5e03bf31df00b", "is_reserved": 0, "lon": -77.036616, "is_disabled": 0, "fusion_lat": 0.0, "lat": 38.91386, "bike_id": "fade114865a6eadabfe5e03bf31df00b", "fusion_lon": 0.0}, {"rental_uris": {"ios": "https://dc.lft.to/lastmile_qr_scan", "android": "https://dc.lft.to/lastmile_qr_scan"}, "type": "electric_scooter", "name": "7b54d71bf1b2b39f364a28672f5102c9", "is_reserved": 0, "lon": -77.05192766666667, "is_disabled": 0, "fusion_lat": 0.0, "lat": 38.902636666666666, "bike_id": "7b54d71bf1b2b39f364a28672f5102c9", "fusion_lon": 0.0}, {"rental_uris": {"ios": "https://dc.lft.to/lastmile_qr_scan", "android": "https://dc.lft.to/lastmile_qr_scan"}, "type": "electric_scooter", "name": "fdc9044339827db192cc3569241d44a0", "is_reserved": 0, "lon": -77.0563035, "is_disabled": 0, "fusion_lat": 0.0, "lat": 38.92425316666667, "bike_id": "fdc9044339827db192cc3569241d44a0", "fusion_lon": 0.0}, {"rental_uris": {"ios": "https://dc.lft.to/lastmile_qr_scan", "android": "https://dc.lft.to/lastmile_qr_scan"}, "type": "electric_scooter", "name": "7e52e0892ee530511fff9f023ee20f1f", "is_reserved": 0, "lon": -77.04194166666667, "is_disabled": 0, "fusion_lat": 0.0, "lat": 38.92204866666667, "bike_id": "7e52e0892ee530511fff9f023ee20f1f", "fusion_lon": 0.0}, {"rental_uris": {"ios": "https://dc.lft.to/lastmile_qr_scan", "android": "https://dc.lft.to/lastmile_qr_scan"}, "type": "electric_bike", "name": "3d017d2f3b38dd8bc393f32c7c9753a7", "is_reserved": 0, "lon": -77.07586083333334, "is_disabled": 0, "fusion_lat": 0.0, "lat": 38.90881, "bike_id": "3d017d2f3b38dd8bc393f32c7c9753a7", "fusion_lon": 0.0}, {"rental_uris": {"ios": "https://dc.lft.to/lastmile_qr_scan", "android": "https://dc.lft.to/lastmile_qr_scan"}, "type": "electric_scooter", "name": "e13b0c034e0b6ec1e067ef3d3d171b2c", "is_reserved": 0, "lon": -76.98731716666667, "is_disabled": 0, "fusion_lat": 0.0, "lat": 38.842188166666666, "bike_id": "e13b0c034e0b6ec1e067ef3d3d171b2c", "fusion_lon": 0.0}, {"rental_uris": {"ios": "https://dc.lft.to/lastmile_qr_scan", "android": "https://dc.lft.to/lastmile_qr_scan"}, "type": "electric_scooter", "name": "4ebd5f09d15e130f24ee88fb4907a021", "is_reserved": 0, "lon": -77.0404695, "is_disabled": 0, "fusion_lat": 0.0, "lat": 38.9186935, "bike_id": "4ebd5f09d15e130f24ee88fb4907a021", "fusion_lon": 0.0}, {"rental_uris": {"ios": "https://dc.lft.to/lastmile_qr_scan", "android": "https://dc.lft.to/lastmile_qr_scan"}, "type": "electric_scooter", "name": "f43ac7c2f96b530b39a14ff422616563", "is_reserved": 0, "lon": -77.05874716666666, "is_disabled": 0, "fusion_lat": 0.0, "lat": 38.9424, "bike_id": "f43ac7c2f96b530b39a14ff422616563", "fusion_lon": 0.0}, {"rental_uris": {"ios": "https://dc.lft.to/lastmile_qr_scan", "android": "https://dc.lft.to/lastmile_qr_scan"}, "type": "electric_scooter", "name": "b417190c451afd7ced5d8d92efef8067", "is_reserved": 0, "lon": -77.06775883333333, "is_disabled": 0, "fusion_lat": 0.0, "lat": 38.9041305, "bike_id": "b417190c451afd7ced5d8d92efef8067", "fusion_lon": 0.0}, {"rental_uris": {"ios": "https://dc.lft.to/lastmile_qr_scan", "android": "https://dc.lft.to/lastmile_qr_scan"}, "type": "electric_scooter", "name": "f507d5116ff2b12b208240587f85ee89", "is_reserved": 0, "lon": -77.02217416666667, "is_disabled": 0, "fusion_lat": 0.0, "lat": 38.924767833333334, "bike_id": "f507d5116ff2b12b208240587f85ee89", "fusion_lon": 0.0}, {"rental_uris": {"ios": "https://dc.lft.to/lastmile_qr_scan", "android": "https://dc.lft.to/lastmile_qr_scan"}, "type": "electric_scooter", "name": "a1206f447cc67ab13947b84e47c18e01", "is_reserved": 0, "lon": -76.92919283333333, "is_disabled": 0, "fusion_lat": 0.0, "lat": 38.8865485, "bike_id": "a1206f447cc67ab13947b84e47c18e01", "fusion_lon": 0.0}, {"rental_uris": {"ios": "https://dc.lft.to/lastmile_qr_scan", "android": "https://dc.lft.to/lastmile_qr_scan"}, "type": "electric_scooter", "name": "26331733fb77e3e747483685c7b0c6c6", "is_reserved": 0, "lon": -77.03652416666667, "is_disabled": 0, "fusion_lat": 0.0, "lat": 38.95598016666667, "bike_id": "26331733fb77e3e747483685c7b0c6c6", "fusion_lon": 0.0}, {"rental_uris": {"ios": "https://dc.lft.to/lastmile_qr_scan", "android": "https://dc.lft.to/lastmile_qr_scan"}, "type": "electric_bike", "name": "fe0a27dc53804fef8ec89cc53319753d", "is_reserved": 0, "lon": -77.01592216666667, "is_disabled": 0, "fusion_lat": 0.0, "lat": 38.952810166666666, "bike_id": "fe0a27dc53804fef8ec89cc53319753d", "fusion_lon": 0.0}, {"rental_uris": {"ios": "https://dc.lft.to/lastmile_qr_scan", "android": "https://dc.lft.to/lastmile_qr_scan"}, "type": "electric_scooter", "name": "5ca5ec0b9f6f4bdc418fa71fc429ccc2", "is_reserved": 0, "lon": -76.99555833333334, "is_disabled": 0, "fusion_lat": 0.0, "lat": 38.926718, "bike_id": "5ca5ec0b9f6f4bdc418fa71fc429ccc2", "fusion_lon": 0.0}, {"rental_uris": {"ios": "https://dc.lft.to/lastmile_qr_scan", "android": "https://dc.lft.to/lastmile_qr_scan"}, "type": "electric_scooter", "name": "cd2363915960f8de1c546deb7202aa7b", "is_reserved": 0, "lon": -77.01945333333333, "is_disabled": 0, "fusion_lat": 0.0, "lat": 38.9231205, "bike_id": "cd2363915960f8de1c546deb7202aa7b", "fusion_lon": 0.0}, {"rental_uris": {"ios": "https://dc.lft.to/lastmile_qr_scan", "android": "https://dc.lft.to/lastmile_qr_scan"}, "type": "electric_scooter", "name": "be4f610a99e014858b26261b7acd3679", "is_reserved": 0, "lon": -77.02703533333333, "is_disabled": 0, "fusion_lat": 0.0, "lat": 38.89738216666667, "bike_id": "be4f610a99e014858b26261b7acd3679", "fusion_lon": 0.0}, {"rental_uris": {"ios": "https://dc.lft.to/lastmile_qr_scan", "android": "https://dc.lft.to/lastmile_qr_scan"}, "type": "electric_scooter", "name": "e1d1460725c42465880a737138cce6f4", "is_reserved": 0, "lon": -77.002016, "is_disabled": 0, "fusion_lat": 0.0, "lat": 38.90039266666667, "bike_id": "e1d1460725c42465880a737138cce6f4", "fusion_lon": 0.0}, {"rental_uris": {"ios": "https://dc.lft.to/lastmile_qr_scan", "android": "https://dc.lft.to/lastmile_qr_scan"}, "type": "electric_scooter", "name": "df09d8f209a1000c1136dbe60201ac39", "is_reserved": 0, "lon": -77.0198805, "is_disabled": 0, "fusion_lat": 0.0, "lat": 38.900522, "bike_id": "df09d8f209a1000c1136dbe60201ac39", "fusion_lon": 0.0}, {"rental_uris": {"ios": "https://dc.lft.to/lastmile_qr_scan", "android": "https://dc.lft.to/lastmile_qr_scan"}, "type": "electric_scooter", "name": "cfe21f6c9253faaf2c240521bb6113b7", "is_reserved": 0, "lon": -77.0411515, "is_disabled": 0, "fusion_lat": 0.0, "lat": 38.934689666666664, "bike_id": "cfe21f6c9253faaf2c240521bb6113b7", "fusion_lon": 0.0}, {"rental_uris": {"ios": "https://dc.lft.to/lastmile_qr_scan", "android": "https://dc.lft.to/lastmile_qr_scan"}, "type": "electric_scooter", "name": "f7ce04aa564ee27f98d5937076b575b8", "is_reserved": 0, "lon": -77.04968, "is_disabled": 0, "fusion_lat": 0.0, "lat": 38.913290833333335, "bike_id": "f7ce04aa564ee27f98d5937076b575b8", "fusion_lon": 0.0}, {"rental_uris": {"ios": "https://dc.lft.to/lastmile_qr_scan", "android": "https://dc.lft.to/lastmile_qr_scan"}, "type": "electric_scooter", "name": "fdb34ef30601f7f18d6983ffa1e1455d", "is_reserved": 0, "lon": -77.0261815, "is_disabled": 0, "fusion_lat": 0.0, "lat": 38.89732433333333, "bike_id": "fdb34ef30601f7f18d6983ffa1e1455d", "fusion_lon": 0.0}, {"rental_uris": {"ios": "https://dc.lft.to/lastmile_qr_scan", "android": "https://dc.lft.to/lastmile_qr_scan"}, "type": "electric_scooter", "name": "b1a68f553aa91231c195ca3d5df7614b", "is_reserved": 0, "lon": -76.98029833333334, "is_disabled": 0, "fusion_lat": 0.0, "lat": 38.91683183333333, "bike_id": "b1a68f553aa91231c195ca3d5df7614b", "fusion_lon": 0.0}, {"rental_uris": {"ios": "https://dc.lft.to/lastmile_qr_scan", "android": "https://dc.lft.to/lastmile_qr_scan"}, "type": "electric_scooter", "name": "b46a94aeb272db7f381da0047261973d", "is_reserved": 0, "lon": -77.016259, "is_disabled": 0, "fusion_lat": 0.0, "lat": 38.899641333333335, "bike_id": "b46a94aeb272db7f381da0047261973d", "fusion_lon": 0.0}, {"rental_uris": {"ios": "https://dc.lft.to/lastmile_qr_scan", "android": "https://dc.lft.to/lastmile_qr_scan"}, "type": "electric_bike", "name": "718dc072d1f3712e02820b2c8c43ef65", "is_reserved": 0, "lon": -76.94164016666667, "is_disabled": 0, "fusion_lat": 0.0, "lat": 38.8655705, "bike_id": "718dc072d1f3712e02820b2c8c43ef65", "fusion_lon": 0.0}, {"rental_uris": {"ios": "https://dc.lft.to/lastmile_qr_scan", "android": "https://dc.lft.to/lastmile_qr_scan"}, "type": "electric_scooter", "name": "c4b49b9ba8697b5e3da959904b9e1b0a", "is_reserved": 0, "lon": -77.038658, "is_disabled": 0, "fusion_lat": 0.0, "lat": 38.91257683333333, "bike_id": "c4b49b9ba8697b5e3da959904b9e1b0a", "fusion_lon": 0.0}, {"rental_uris": {"ios": "https://dc.lft.to/lastmile_qr_scan", "android": "https://dc.lft.to/lastmile_qr_scan"}, "type": "electric_scooter", "name": "9bf53703c3a9f2320a9b64ec2d8686d2", "is_reserved": 0, "lon": -77.03953166666666, "is_disabled": 0, "fusion_lat": 0.0, "lat": 38.892475, "bike_id": "9bf53703c3a9f2320a9b64ec2d8686d2", "fusion_lon": 0.0}, {"rental_uris": {"ios": "https://dc.lft.to/lastmile_qr_scan", "android": "https://dc.lft.to/lastmile_qr_scan"}, "type": "electric_scooter", "name": "97fbcec62bf6f8d7c7d2872ed1cfd616", "is_reserved": 0, "lon": -77.0366105, "is_disabled": 0, "fusion_lat": 0.0, "lat": 38.923838833333335, "bike_id": "97fbcec62bf6f8d7c7d2872ed1cfd616", "fusion_lon": 0.0}, {"rental_uris": {"ios": "https://dc.lft.to/lastmile_qr_scan", "android": "https://dc.lft.to/lastmile_qr_scan"}, "type": "electric_scooter", "name": "dc4396ca8cde9ce634647a7cc9e2c7c4", "is_reserved": 0, "lon": -77.04666316666666, "is_disabled": 0, "fusion_lat": 0.0, "lat": 38.9180105, "bike_id": "dc4396ca8cde9ce634647a7cc9e2c7c4", "fusion_lon": 0.0}, {"rental_uris": {"ios": "https://dc.lft.to/lastmile_qr_scan", "android": "https://dc.lft.to/lastmile_qr_scan"}, "type": "electric_scooter", "name": "12732266c71fd9448fd2dfacef6c9444", "is_reserved": 0, "lon": -76.982106, "is_disabled": 0, "fusion_lat": 0.0, "lat": 38.88641283333333, "bike_id": "12732266c71fd9448fd2dfacef6c9444", "fusion_lon": 0.0}, {"rental_uris": {"ios": "https://dc.lft.to/lastmile_qr_scan", "android": "https://dc.lft.to/lastmile_qr_scan"}, "type": "electric_scooter", "name": "036aa4bfbc604586f1d8f59a0c460108", "is_reserved": 0, "lon": -77.045362, "is_disabled": 0, "fusion_lat": 0.0, "lat": 38.897335, "bike_id": "036aa4bfbc604586f1d8f59a0c460108", "fusion_lon": 0.0}, {"rental_uris": {"ios": "https://dc.lft.to/lastmile_qr_scan", "android": "https://dc.lft.to/lastmile_qr_scan"}, "type": "electric_scooter", "name": "6f0656e87578eba61f30bb4647f61cc3", "is_reserved": 0, "lon": -77.01962366666666, "is_disabled": 0, "fusion_lat": 0.0, "lat": 38.93384183333333, "bike_id": "6f0656e87578eba61f30bb4647f61cc3", "fusion_lon": 0.0}, {"rental_uris": {"ios": "https://dc.lft.to/lastmile_qr_scan", "android": "https://dc.lft.to/lastmile_qr_scan"}, "type": "electric_scooter", "name": "d9cbbde26f60c7e391b35086866825fd", "is_reserved": 0, "lon": -77.0651855, "is_disabled": 0, "fusion_lat": 0.0, "lat": 38.9498335, "bike_id": "d9cbbde26f60c7e391b35086866825fd", "fusion_lon": 0.0}, {"rental_uris": {"ios": "https://dc.lft.to/lastmile_qr_scan", "android": "https://dc.lft.to/lastmile_qr_scan"}, "type": "electric_scooter", "name": "839af24fc6ba7710ed09d4dd6baa3bff", "is_reserved": 0, "lon": -77.03661466666667, "is_disabled": 0, "fusion_lat": 0.0, "lat": 38.918575, "bike_id": "839af24fc6ba7710ed09d4dd6baa3bff", "fusion_lon": 0.0}, {"rental_uris": {"ios": "https://dc.lft.to/lastmile_qr_scan", "android": "https://dc.lft.to/lastmile_qr_scan"}, "type": "electric_scooter", "name": "03939b1c0b3325698169da3d65e0d866", "is_reserved": 0, "lon": -77.00796133333333, "is_disabled": 0, "fusion_lat": 0.0, "lat": 38.91267833333333, "bike_id": "03939b1c0b3325698169da3d65e0d866", "fusion_lon": 0.0}, {"rental_uris": {"ios": "https://dc.lft.to/lastmile_qr_scan", "android": "https://dc.lft.to/lastmile_qr_scan"}, "type": "electric_scooter", "name": "a7529d38873ab653dc8fcbb693cacc0e", "is_reserved": 0, "lon": -77.03219766666666, "is_disabled": 0, "fusion_lat": 0.0, "lat": 38.88707766666667, "bike_id": "a7529d38873ab653dc8fcbb693cacc0e", "fusion_lon": 0.0}, {"rental_uris": {"ios": "https://dc.lft.to/lastmile_qr_scan", "android": "https://dc.lft.to/lastmile_qr_scan"}, "type": "electric_scooter", "name": "76a98bda78ada6529d7eed05c98db9ed", "is_reserved": 0, "lon": -77.04046366666667, "is_disabled": 0, "fusion_lat": 0.0, "lat": 38.904726, "bike_id": "76a98bda78ada6529d7eed05c98db9ed", "fusion_lon": 0.0}, {"rental_uris": {"ios": "https://dc.lft.to/lastmile_qr_scan", "android": "https://dc.lft.to/lastmile_qr_scan"}, "type": "electric_scooter", "name": "b6f67a9f1c4c2782a6c254299faa4ae0", "is_reserved": 0, "lon": -77.03267866666667, "is_disabled": 0, "fusion_lat": 0.0, "lat": 38.92969033333333, "bike_id": "b6f67a9f1c4c2782a6c254299faa4ae0", "fusion_lon": 0.0}, {"rental_uris": {"ios": "https://dc.lft.to/lastmile_qr_scan", "android": "https://dc.lft.to/lastmile_qr_scan"}, "type": "electric_scooter", "name": "ead138073d66f3238d4dfd566d073ff5", "is_reserved": 0, "lon": -77.07221933333334, "is_disabled": 0, "fusion_lat": 0.0, "lat": 38.9342965, "bike_id": "ead138073d66f3238d4dfd566d073ff5", "fusion_lon": 0.0}, {"rental_uris": {"ios": "https://dc.lft.to/lastmile_qr_scan", "android": "https://dc.lft.to/lastmile_qr_scan"}, "type": "electric_scooter", "name": "d73e1d813e8ba9dd32b13796b5bafdc5", "is_reserved": 0, "lon": -76.99470983333333, "is_disabled": 0, "fusion_lat": 0.0, "lat": 38.86211483333334, "bike_id": "d73e1d813e8ba9dd32b13796b5bafdc5", "fusion_lon": 0.0}, {"rental_uris": {"ios": "https://dc.lft.to/lastmile_qr_scan", "android": "https://dc.lft.to/lastmile_qr_scan"}, "type": "electric_scooter", "name": "ecdb4eb9ca678d9bec03eda40e39414b", "is_reserved": 0, "lon": -77.04402633333333, "is_disabled": 0, "fusion_lat": 0.0, "lat": 38.92951733333334, "bike_id": "ecdb4eb9ca678d9bec03eda40e39414b", "fusion_lon": 0.0}, {"rental_uris": {"ios": "https://dc.lft.to/lastmile_qr_scan", "android": "https://dc.lft.to/lastmile_qr_scan"}, "type": "electric_scooter", "name": "2a2ef01dbc3dacbfaaa13ef8d4f83ee6", "is_reserved": 0, "lon": -77.053205, "is_disabled": 0, "fusion_lat": 0.0, "lat": 38.90265133333333, "bike_id": "2a2ef01dbc3dacbfaaa13ef8d4f83ee6", "fusion_lon": 0.0}, {"rental_uris": {"ios": "https://dc.lft.to/lastmile_qr_scan", "android": "https://dc.lft.to/lastmile_qr_scan"}, "type": "electric_scooter", "name": "1d4938dd2f434d20871ea8fdc7eb8733", "is_reserved": 0, "lon": -76.94383916666666, "is_disabled": 0, "fusion_lat": 0.0, "lat": 38.891168, "bike_id": "1d4938dd2f434d20871ea8fdc7eb8733", "fusion_lon": 0.0}, {"rental_uris": {"ios": "https://dc.lft.to/lastmile_qr_scan", "android": "https://dc.lft.to/lastmile_qr_scan"}, "type": "electric_scooter", "name": "7c3d4cbe6772e5d56afe8f7f170e60f6", "is_reserved": 0, "lon": -76.9656385, "is_disabled": 0, "fusion_lat": 0.0, "lat": 38.87607466666667, "bike_id": "7c3d4cbe6772e5d56afe8f7f170e60f6", "fusion_lon": 0.0}, {"rental_uris": {"ios": "https://dc.lft.to/lastmile_qr_scan", "android": "https://dc.lft.to/lastmile_qr_scan"}, "type": "electric_bike", "name": "e228cde0d5cc7e63512bde11de2d4c8e", "is_reserved": 0, "lon": -77.070124, "is_disabled": 0, "fusion_lat": 0.0, "lat": 38.8410925, "bike_id": "e228cde0d5cc7e63512bde11de2d4c8e", "fusion_lon": 0.0}, {"rental_uris": {"ios": "https://dc.lft.to/lastmile_qr_scan", "android": "https://dc.lft.to/lastmile_qr_scan"}, "type": "electric_scooter", "name": "2b648f60a69db521b9c290cc948ed0ff", "is_reserved": 0, "lon": -77.02415966666666, "is_disabled": 0, "fusion_lat": 0.0, "lat": 38.909574166666665, "bike_id": "2b648f60a69db521b9c290cc948ed0ff", "fusion_lon": 0.0}, {"rental_uris": {"ios": "https://dc.lft.to/lastmile_qr_scan", "android": "https://dc.lft.to/lastmile_qr_scan"}, "type": "electric_scooter", "name": "45319e6419c5d0c9da448cf24045121a", "is_reserved": 0, "lon": -77.06865716666667, "is_disabled": 0, "fusion_lat": 0.0, "lat": 38.903872666666665, "bike_id": "45319e6419c5d0c9da448cf24045121a", "fusion_lon": 0.0}, {"rental_uris": {"ios": "https://dc.lft.to/lastmile_qr_scan", "android": "https://dc.lft.to/lastmile_qr_scan"}, "type": "electric_scooter", "name": "d687b236edcc132a3a7696b9d4bb4fa8", "is_reserved": 0, "lon": -77.066022, "is_disabled": 0, "fusion_lat": 0.0, "lat": 38.90527816666667, "bike_id": "d687b236edcc132a3a7696b9d4bb4fa8", "fusion_lon": 0.0}, {"rental_uris": {"ios": "https://dc.lft.to/lastmile_qr_scan", "android": "https://dc.lft.to/lastmile_qr_scan"}, "type": "electric_bike", "name": "4235e9be7fea65f57e2f14722e220bc6", "is_reserved": 0, "lon": -76.98543, "is_disabled": 0, "fusion_lat": 0.0, "lat": 38.892491666666665, "bike_id": "4235e9be7fea65f57e2f14722e220bc6", "fusion_lon": 0.0}, {"rental_uris": {"ios": "https://dc.lft.to/lastmile_qr_scan", "android": "https://dc.lft.to/lastmile_qr_scan"}, "type": "electric_scooter", "name": "b94a376c8975699549779746ceaf0e08", "is_reserved": 0, "lon": -76.99477016666667, "is_disabled": 0, "fusion_lat": 0.0, "lat": 38.862147666666665, "bike_id": "b94a376c8975699549779746ceaf0e08", "fusion_lon": 0.0}, {"rental_uris": {"ios": "https://dc.lft.to/lastmile_qr_scan", "android": "https://dc.lft.to/lastmile_qr_scan"}, "type": "electric_scooter", "name": "507af9fbbaf94916349ac513577d3569", "is_reserved": 0, "lon": -77.03057116666666, "is_disabled": 0, "fusion_lat": 0.0, "lat": 38.908343, "bike_id": "507af9fbbaf94916349ac513577d3569", "fusion_lon": 0.0}, {"rental_uris": {"ios": "https://dc.lft.to/lastmile_qr_scan", "android": "https://dc.lft.to/lastmile_qr_scan"}, "type": "electric_scooter", "name": "b04b34db1e0e135e28a781065e123d8c", "is_reserved": 0, "lon": -77.02416716666667, "is_disabled": 0, "fusion_lat": 0.0, "lat": 38.898252, "bike_id": "b04b34db1e0e135e28a781065e123d8c", "fusion_lon": 0.0}, {"rental_uris": {"ios": "https://dc.lft.to/lastmile_qr_scan", "android": "https://dc.lft.to/lastmile_qr_scan"}, "type": "electric_scooter", "name": "725b94a900b0d77a3d31555a65989113", "is_reserved": 0, "lon": -76.99859216666667, "is_disabled": 0, "fusion_lat": 0.0, "lat": 38.90028216666666, "bike_id": "725b94a900b0d77a3d31555a65989113", "fusion_lon": 0.0}, {"rental_uris": {"ios": "https://dc.lft.to/lastmile_qr_scan", "android": "https://dc.lft.to/lastmile_qr_scan"}, "type": "electric_scooter", "name": "241bd587bbf1c9bd37db756676ee0ef1", "is_reserved": 0, "lon": -77.02209233333333, "is_disabled": 0, "fusion_lat": 0.0, "lat": 38.9156205, "bike_id": "241bd587bbf1c9bd37db756676ee0ef1", "fusion_lon": 0.0}, {"rental_uris": {"ios": "https://dc.lft.to/lastmile_qr_scan", "android": "https://dc.lft.to/lastmile_qr_scan"}, "type": "electric_scooter", "name": "89728d8010ff82ed6a891af87b808806", "is_reserved": 0, "lon": -76.996266, "is_disabled": 0, "fusion_lat": 0.0, "lat": 38.88964716666667, "bike_id": "89728d8010ff82ed6a891af87b808806", "fusion_lon": 0.0}, {"rental_uris": {"ios": "https://dc.lft.to/lastmile_qr_scan", "android": "https://dc.lft.to/lastmile_qr_scan"}, "type": "electric_scooter", "name": "90b5dfad62c12852a84a30ccb73d01b8", "is_reserved": 0, "lon": -77.0414485, "is_disabled": 0, "fusion_lat": 0.0, "lat": 38.9073095, "bike_id": "90b5dfad62c12852a84a30ccb73d01b8", "fusion_lon": 0.0}, {"rental_uris": {"ios": "https://dc.lft.to/lastmile_qr_scan", "android": "https://dc.lft.to/lastmile_qr_scan"}, "type": "electric_scooter", "name": "dc42ec7a0eddd903a547a303dbebfc27", "is_reserved": 0, "lon": -76.98510683333333, "is_disabled": 0, "fusion_lat": 0.0, "lat": 38.879877666666665, "bike_id": "dc42ec7a0eddd903a547a303dbebfc27", "fusion_lon": 0.0}, {"rental_uris": {"ios": "https://dc.lft.to/lastmile_qr_scan", "android": "https://dc.lft.to/lastmile_qr_scan"}, "type": "electric_bike", "name": "c4deef012453ab7ccbff92631ba4ec46", "is_reserved": 0, "lon": -77.02509333333333, "is_disabled": 0, "fusion_lat": 0.0, "lat": 38.93985133333334, "bike_id": "c4deef012453ab7ccbff92631ba4ec46", "fusion_lon": 0.0}, {"rental_uris": {"ios": "https://dc.lft.to/lastmile_qr_scan", "android": "https://dc.lft.to/lastmile_qr_scan"}, "type": "electric_scooter", "name": "b574088f3b2bef1b53f5a0493e5ed607", "is_reserved": 0, "lon": -77.02759233333333, "is_disabled": 0, "fusion_lat": 0.0, "lat": 38.95615216666667, "bike_id": "b574088f3b2bef1b53f5a0493e5ed607", "fusion_lon": 0.0}, {"rental_uris": {"ios": "https://dc.lft.to/lastmile_qr_scan", "android": "https://dc.lft.to/lastmile_qr_scan"}, "type": "electric_scooter", "name": "ae4ce11a5353bb463697157a1c80f38e", "is_reserved": 0, "lon": -77.04671933333333, "is_disabled": 0, "fusion_lat": 0.0, "lat": 38.892282333333334, "bike_id": "ae4ce11a5353bb463697157a1c80f38e", "fusion_lon": 0.0}, {"rental_uris": {"ios": "https://dc.lft.to/lastmile_qr_scan", "android": "https://dc.lft.to/lastmile_qr_scan"}, "type": "electric_bike", "name": "fe0ab45d87ee8948b5d83166bc12ce5f", "is_reserved": 0, "lon": -76.96260083333334, "is_disabled": 0, "fusion_lat": 0.0, "lat": 38.96785366666667, "bike_id": "fe0ab45d87ee8948b5d83166bc12ce5f", "fusion_lon": 0.0}, {"rental_uris": {"ios": "https://dc.lft.to/lastmile_qr_scan", "android": "https://dc.lft.to/lastmile_qr_scan"}, "type": "electric_scooter", "name": "9ea96e0b8eee855b887bf3dc4922e452", "is_reserved": 0, "lon": -77.012057, "is_disabled": 0, "fusion_lat": 0.0, "lat": 38.912007833333334, "bike_id": "9ea96e0b8eee855b887bf3dc4922e452", "fusion_lon": 0.0}, {"rental_uris": {"ios": "https://dc.lft.to/lastmile_qr_scan", "android": "https://dc.lft.to/lastmile_qr_scan"}, "type": "electric_scooter", "name": "21a1b1bdb46d93435c8a7a82eb22e7f1", "is_reserved": 0, "lon": -77.04004916666666, "is_disabled": 0, "fusion_lat": 0.0, "lat": 38.90381633333333, "bike_id": "21a1b1bdb46d93435c8a7a82eb22e7f1", "fusion_lon": 0.0}, {"rental_uris": {"ios": "https://dc.lft.to/lastmile_qr_scan", "android": "https://dc.lft.to/lastmile_qr_scan"}, "type": "electric_scooter", "name": "2907660d936a52ed4e9441e440fb6604", "is_reserved": 0, "lon": -77.03214983333334, "is_disabled": 0, "fusion_lat": 0.0, "lat": 38.91431033333333, "bike_id": "2907660d936a52ed4e9441e440fb6604", "fusion_lon": 0.0}, {"rental_uris": {"ios": "https://dc.lft.to/lastmile_qr_scan", "android": "https://dc.lft.to/lastmile_qr_scan"}, "type": "electric_scooter", "name": "e08a7935ec9598e3285d5ab002abe51d", "is_reserved": 0, "lon": -77.0459845, "is_disabled": 0, "fusion_lat": 0.0, "lat": 38.90235233333333, "bike_id": "e08a7935ec9598e3285d5ab002abe51d", "fusion_lon": 0.0}, {"rental_uris": {"ios": "https://dc.lft.to/lastmile_qr_scan", "android": "https://dc.lft.to/lastmile_qr_scan"}, "type": "electric_scooter", "name": "09abd879ad82ea197e141318a90b77ba", "is_reserved": 0, "lon": -77.00204066666667, "is_disabled": 0, "fusion_lat": 0.0, "lat": 38.892951333333336, "bike_id": "09abd879ad82ea197e141318a90b77ba", "fusion_lon": 0.0}, {"rental_uris": {"ios": "https://dc.lft.to/lastmile_qr_scan", "android": "https://dc.lft.to/lastmile_qr_scan"}, "type": "electric_scooter", "name": "8a92fb4cd844a84ccbf2523df3ecf309", "is_reserved": 0, "lon": -76.99489833333334, "is_disabled": 0, "fusion_lat": 0.0, "lat": 38.86221183333333, "bike_id": "8a92fb4cd844a84ccbf2523df3ecf309", "fusion_lon": 0.0}, {"rental_uris": {"ios": "https://dc.lft.to/lastmile_qr_scan", "android": "https://dc.lft.to/lastmile_qr_scan"}, "type": "electric_bike", "name": "627cf7bf1db98a3f25f4f654bb0b876a", "is_reserved": 0, "lon": -77.00755233333334, "is_disabled": 0, "fusion_lat": 0.0, "lat": 38.997760666666665, "bike_id": "627cf7bf1db98a3f25f4f654bb0b876a", "fusion_lon": 0.0}, {"rental_uris": {"ios": "https://dc.lft.to/lastmile_qr_scan", "android": "https://dc.lft.to/lastmile_qr_scan"}, "type": "electric_scooter", "name": "b655558fc61762016cb515db79e24a08", "is_reserved": 0, "lon": -77.04236083333333, "is_disabled": 0, "fusion_lat": 0.0, "lat": 38.90581016666667, "bike_id": "b655558fc61762016cb515db79e24a08", "fusion_lon": 0.0}, {"rental_uris": {"ios": "https://dc.lft.to/lastmile_qr_scan", "android": "https://dc.lft.to/lastmile_qr_scan"}, "type": "electric_scooter", "name": "5572ecd84640b52641a971ee59a00f35", "is_reserved": 0, "lon": -77.0186, "is_disabled": 0, "fusion_lat": 0.0, "lat": 38.894669, "bike_id": "5572ecd84640b52641a971ee59a00f35", "fusion_lon": 0.0}, {"rental_uris": {"ios": "https://dc.lft.to/lastmile_qr_scan", "android": "https://dc.lft.to/lastmile_qr_scan"}, "type": "electric_scooter", "name": "2ba4cb63c0e601102769cbb60158caf1", "is_reserved": 0, "lon": -76.989818, "is_disabled": 0, "fusion_lat": 0.0, "lat": 38.917574333333334, "bike_id": "2ba4cb63c0e601102769cbb60158caf1", "fusion_lon": 0.0}, {"rental_uris": {"ios": "https://dc.lft.to/lastmile_qr_scan", "android": "https://dc.lft.to/lastmile_qr_scan"}, "type": "electric_scooter", "name": "b59fc624542d50a158e769f8d49cc946", "is_reserved": 0, "lon": -77.031837, "is_disabled": 0, "fusion_lat": 0.0, "lat": 38.913526166666664, "bike_id": "b59fc624542d50a158e769f8d49cc946", "fusion_lon": 0.0}, {"rental_uris": {"ios": "https://dc.lft.to/lastmile_qr_scan", "android": "https://dc.lft.to/lastmile_qr_scan"}, "type": "electric_scooter", "name": "10195ac6ca825b79081fc3ecc46793d0", "is_reserved": 0, "lon": -76.999129, "is_disabled": 0, "fusion_lat": 0.0, "lat": 38.924572166666664, "bike_id": "10195ac6ca825b79081fc3ecc46793d0", "fusion_lon": 0.0}, {"rental_uris": {"ios": "https://dc.lft.to/lastmile_qr_scan", "android": "https://dc.lft.to/lastmile_qr_scan"}, "type": "electric_scooter", "name": "ce8d174bc64e1cc29498f168e1e65a62", "is_reserved": 0, "lon": -77.029049, "is_disabled": 0, "fusion_lat": 0.0, "lat": 38.917078333333336, "bike_id": "ce8d174bc64e1cc29498f168e1e65a62", "fusion_lon": 0.0}, {"rental_uris": {"ios": "https://dc.lft.to/lastmile_qr_scan", "android": "https://dc.lft.to/lastmile_qr_scan"}, "type": "electric_scooter", "name": "4dcacc6d643462f8ce64a40a5eb70893", "is_reserved": 0, "lon": -77.0417925, "is_disabled": 0, "fusion_lat": 0.0, "lat": 38.91846066666667, "bike_id": "4dcacc6d643462f8ce64a40a5eb70893", "fusion_lon": 0.0}, {"rental_uris": {"ios": "https://dc.lft.to/lastmile_qr_scan", "android": "https://dc.lft.to/lastmile_qr_scan"}, "type": "electric_scooter", "name": "338a479716c3f6406e5b100ab3a11f7b", "is_reserved": 0, "lon": -77.0312295, "is_disabled": 0, "fusion_lat": 0.0, "lat": 38.917023, "bike_id": "338a479716c3f6406e5b100ab3a11f7b", "fusion_lon": 0.0}, {"rental_uris": {"ios": "https://dc.lft.to/lastmile_qr_scan", "android": "https://dc.lft.to/lastmile_qr_scan"}, "type": "electric_scooter", "name": "3e0e8c3f144d722a1aaaa6a5e602d9a9", "is_reserved": 0, "lon": -77.018518, "is_disabled": 0, "fusion_lat": 0.0, "lat": 38.9543015, "bike_id": "3e0e8c3f144d722a1aaaa6a5e602d9a9", "fusion_lon": 0.0}, {"rental_uris": {"ios": "https://dc.lft.to/lastmile_qr_scan", "android": "https://dc.lft.to/lastmile_qr_scan"}, "type": "electric_scooter", "name": "213c49c69318020afd3b2f0b0b8da040", "is_reserved": 0, "lon": -77.01039366666667, "is_disabled": 0, "fusion_lat": 0.0, "lat": 38.9110835, "bike_id": "213c49c69318020afd3b2f0b0b8da040", "fusion_lon": 0.0}, {"rental_uris": {"ios": "https://dc.lft.to/lastmile_qr_scan", "android": "https://dc.lft.to/lastmile_qr_scan"}, "type": "electric_scooter", "name": "5fc7f9ddd7dedd7ec3cd6f8df15262ab", "is_reserved": 0, "lon": -76.9520125, "is_disabled": 0, "fusion_lat": 0.0, "lat": 38.905095, "bike_id": "5fc7f9ddd7dedd7ec3cd6f8df15262ab", "fusion_lon": 0.0}, {"rental_uris": {"ios": "https://dc.lft.to/lastmile_qr_scan", "android": "https://dc.lft.to/lastmile_qr_scan"}, "type": "electric_scooter", "name": "e417e2becb29c387fecffa0c683e4b96", "is_reserved": 0, "lon": -77.03047, "is_disabled": 0, "fusion_lat": 0.0, "lat": 38.924720666666666, "bike_id": "e417e2becb29c387fecffa0c683e4b96", "fusion_lon": 0.0}, {"rental_uris": {"ios": "https://dc.lft.to/lastmile_qr_scan", "android": "https://dc.lft.to/lastmile_qr_scan"}, "type": "electric_scooter", "name": "35a56cda90b99424d3e84fab4b8d2ad8", "is_reserved": 0, "lon": -77.02057116666667, "is_disabled": 0, "fusion_lat": 0.0, "lat": 38.92392516666666, "bike_id": "35a56cda90b99424d3e84fab4b8d2ad8", "fusion_lon": 0.0}, {"rental_uris": {"ios": "https://dc.lft.to/lastmile_qr_scan", "android": "https://dc.lft.to/lastmile_qr_scan"}, "type": "electric_scooter", "name": "675890c5ce5b2646aa3e3a49c863b00f", "is_reserved": 0, "lon": -76.9993135, "is_disabled": 0, "fusion_lat": 0.0, "lat": 38.95760583333333, "bike_id": "675890c5ce5b2646aa3e3a49c863b00f", "fusion_lon": 0.0}, {"rental_uris": {"ios": "https://dc.lft.to/lastmile_qr_scan", "android": "https://dc.lft.to/lastmile_qr_scan"}, "type": "electric_scooter", "name": "d8aae6e49e69b702987cda8caf1453a1", "is_reserved": 0, "lon": -77.05546183333334, "is_disabled": 0, "fusion_lat": 0.0, "lat": 38.8998705, "bike_id": "d8aae6e49e69b702987cda8caf1453a1", "fusion_lon": 0.0}, {"rental_uris": {"ios": "https://dc.lft.to/lastmile_qr_scan", "android": "https://dc.lft.to/lastmile_qr_scan"}, "type": "electric_scooter", "name": "091a1bf763566f2f3b21d3a35ddeefaa", "is_reserved": 0, "lon": -77.02937683333333, "is_disabled": 0, "fusion_lat": 0.0, "lat": 38.90004783333333, "bike_id": "091a1bf763566f2f3b21d3a35ddeefaa", "fusion_lon": 0.0}, {"rental_uris": {"ios": "https://dc.lft.to/lastmile_qr_scan", "android": "https://dc.lft.to/lastmile_qr_scan"}, "type": "electric_scooter", "name": "d6fbc7c3a12ef545fbd1a837af42ae3a", "is_reserved": 0, "lon": -77.00774633333333, "is_disabled": 0, "fusion_lat": 0.0, "lat": 38.897365, "bike_id": "d6fbc7c3a12ef545fbd1a837af42ae3a", "fusion_lon": 0.0}, {"rental_uris": {"ios": "https://dc.lft.to/lastmile_qr_scan", "android": "https://dc.lft.to/lastmile_qr_scan"}, "type": "electric_scooter", "name": "0e313669ecc094c0dfa951f982075ba6", "is_reserved": 0, "lon": -77.04405283333334, "is_disabled": 0, "fusion_lat": 0.0, "lat": 38.92947183333333, "bike_id": "0e313669ecc094c0dfa951f982075ba6", "fusion_lon": 0.0}, {"rental_uris": {"ios": "https://dc.lft.to/lastmile_qr_scan", "android": "https://dc.lft.to/lastmile_qr_scan"}, "type": "electric_scooter", "name": "475d07a88e8323749d49063da69a81f6", "is_reserved": 0, "lon": -77.01369533333333, "is_disabled": 0, "fusion_lat": 0.0, "lat": 38.89584266666667, "bike_id": "475d07a88e8323749d49063da69a81f6", "fusion_lon": 0.0}, {"rental_uris": {"ios": "https://dc.lft.to/lastmile_qr_scan", "android": "https://dc.lft.to/lastmile_qr_scan"}, "type": "electric_scooter", "name": "448eb6b9bb59fb1056abf222c1b277b3", "is_reserved": 0, "lon": -77.04268083333334, "is_disabled": 0, "fusion_lat": 0.0, "lat": 38.904204666666665, "bike_id": "448eb6b9bb59fb1056abf222c1b277b3", "fusion_lon": 0.0}, {"rental_uris": {"ios": "https://dc.lft.to/lastmile_qr_scan", "android": "https://dc.lft.to/lastmile_qr_scan"}, "type": "electric_bike", "name": "8900069565ab9f11159c715b0bbf43cf", "is_reserved": 0, "lon": -76.99667766666667, "is_disabled": 0, "fusion_lat": 0.0, "lat": 38.93247216666666, "bike_id": "8900069565ab9f11159c715b0bbf43cf", "fusion_lon": 0.0}, {"rental_uris": {"ios": "https://dc.lft.to/lastmile_qr_scan", "android": "https://dc.lft.to/lastmile_qr_scan"}, "type": "electric_scooter", "name": "f04e8b3df8065bcb93d41b6255a7c7d8", "is_reserved": 0, "lon": -77.02000383333333, "is_disabled": 0, "fusion_lat": 0.0, "lat": 38.89953333333333, "bike_id": "f04e8b3df8065bcb93d41b6255a7c7d8", "fusion_lon": 0.0}, {"rental_uris": {"ios": "https://dc.lft.to/lastmile_qr_scan", "android": "https://dc.lft.to/lastmile_qr_scan"}, "type": "electric_scooter", "name": "268df1f045d2f98ff896de0897ddd432", "is_reserved": 0, "lon": -77.00707266666667, "is_disabled": 0, "fusion_lat": 0.0, "lat": 38.90570966666667, "bike_id": "268df1f045d2f98ff896de0897ddd432", "fusion_lon": 0.0}, {"rental_uris": {"ios": "https://dc.lft.to/lastmile_qr_scan", "android": "https://dc.lft.to/lastmile_qr_scan"}, "type": "electric_scooter", "name": "9d25d4a31043c3848662d97e41402cf3", "is_reserved": 0, "lon": -77.001908, "is_disabled": 0, "fusion_lat": 0.0, "lat": 38.90378533333333, "bike_id": "9d25d4a31043c3848662d97e41402cf3", "fusion_lon": 0.0}, {"rental_uris": {"ios": "https://dc.lft.to/lastmile_qr_scan", "android": "https://dc.lft.to/lastmile_qr_scan"}, "type": "electric_scooter", "name": "e6c2ce408d3376cd702c13c6161ff843", "is_reserved": 0, "lon": -77.03565583333334, "is_disabled": 0, "fusion_lat": 0.0, "lat": 38.908363666666666, "bike_id": "e6c2ce408d3376cd702c13c6161ff843", "fusion_lon": 0.0}, {"rental_uris": {"ios": "https://dc.lft.to/lastmile_qr_scan", "android": "https://dc.lft.to/lastmile_qr_scan"}, "type": "electric_scooter", "name": "980ccac000705f1c614fd325e2a60ec4", "is_reserved": 0, "lon": -77.02563566666667, "is_disabled": 0, "fusion_lat": 0.0, "lat": 38.93860816666667, "bike_id": "980ccac000705f1c614fd325e2a60ec4", "fusion_lon": 0.0}, {"rental_uris": {"ios": "https://dc.lft.to/lastmile_qr_scan", "android": "https://dc.lft.to/lastmile_qr_scan"}, "type": "electric_bike", "name": "8e35b1fdae6ab4b3bbc65b26a5b52cfd", "is_reserved": 0, "lon": -77.127053, "is_disabled": 0, "fusion_lat": 0.0, "lat": 38.895751833333335, "bike_id": "8e35b1fdae6ab4b3bbc65b26a5b52cfd", "fusion_lon": 0.0}, {"rental_uris": {"ios": "https://dc.lft.to/lastmile_qr_scan", "android": "https://dc.lft.to/lastmile_qr_scan"}, "type": "electric_scooter", "name": "b488ac9854115e29476a272ffb794dd2", "is_reserved": 0, "lon": -76.985861, "is_disabled": 0, "fusion_lat": 0.0, "lat": 38.861883166666665, "bike_id": "b488ac9854115e29476a272ffb794dd2", "fusion_lon": 0.0}, {"rental_uris": {"ios": "https://dc.lft.to/lastmile_qr_scan", "android": "https://dc.lft.to/lastmile_qr_scan"}, "type": "electric_scooter", "name": "56ba00eedda6a43cac9e70a28ae2da68", "is_reserved": 0, "lon": -77.00759533333333, "is_disabled": 0, "fusion_lat": 0.0, "lat": 38.925248333333336, "bike_id": "56ba00eedda6a43cac9e70a28ae2da68", "fusion_lon": 0.0}, {"rental_uris": {"ios": "https://dc.lft.to/lastmile_qr_scan", "android": "https://dc.lft.to/lastmile_qr_scan"}, "type": "electric_scooter", "name": "b34df32465396e15bc1398b40206b63a", "is_reserved": 0, "lon": -76.9588095, "is_disabled": 0, "fusion_lat": 0.0, "lat": 38.858383, "bike_id": "b34df32465396e15bc1398b40206b63a", "fusion_lon": 0.0}, {"rental_uris": {"ios": "https://dc.lft.to/lastmile_qr_scan", "android": "https://dc.lft.to/lastmile_qr_scan"}, "type": "electric_scooter", "name": "d3f084f4cb5c4764c192dcbd2ec9d49e", "is_reserved": 0, "lon": -77.02518666666667, "is_disabled": 0, "fusion_lat": 0.0, "lat": 38.8982965, "bike_id": "d3f084f4cb5c4764c192dcbd2ec9d49e", "fusion_lon": 0.0}, {"rental_uris": {"ios": "https://dc.lft.to/lastmile_qr_scan", "android": "https://dc.lft.to/lastmile_qr_scan"}, "type": "electric_scooter", "name": "aa52649bcce772012cc2ef6980a8ffa8", "is_reserved": 0, "lon": -77.041791, "is_disabled": 0, "fusion_lat": 0.0, "lat": 38.918474833333335, "bike_id": "aa52649bcce772012cc2ef6980a8ffa8", "fusion_lon": 0.0}, {"rental_uris": {"ios": "https://dc.lft.to/lastmile_qr_scan", "android": "https://dc.lft.to/lastmile_qr_scan"}, "type": "electric_bike", "name": "5ba3ad3cb86d7040a60660954eae875a", "is_reserved": 0, "lon": -77.09014483333333, "is_disabled": 0, "fusion_lat": 0.0, "lat": 38.92660983333333, "bike_id": "5ba3ad3cb86d7040a60660954eae875a", "fusion_lon": 0.0}, {"rental_uris": {"ios": "https://dc.lft.to/lastmile_qr_scan", "android": "https://dc.lft.to/lastmile_qr_scan"}, "type": "electric_bike", "name": "7356b33b97da8a2e167f1f832b045686", "is_reserved": 0, "lon": -76.95690933333333, "is_disabled": 0, "fusion_lat": 0.0, "lat": 38.85089416666667, "bike_id": "7356b33b97da8a2e167f1f832b045686", "fusion_lon": 0.0}, {"rental_uris": {"ios": "https://dc.lft.to/lastmile_qr_scan", "android": "https://dc.lft.to/lastmile_qr_scan"}, "type": "electric_bike", "name": "7684382395913c0311ff71f0a66918c4", "is_reserved": 0, "lon": -77.112869, "is_disabled": 0, "fusion_lat": 0.0, "lat": 38.8310215, "bike_id": "7684382395913c0311ff71f0a66918c4", "fusion_lon": 0.0}, {"rental_uris": {"ios": "https://dc.lft.to/lastmile_qr_scan", "android": "https://dc.lft.to/lastmile_qr_scan"}, "type": "electric_scooter", "name": "420cec0242a7a31698695584b7852598", "is_reserved": 0, "lon": -76.99736583333333, "is_disabled": 0, "fusion_lat": 0.0, "lat": 38.900236166666666, "bike_id": "420cec0242a7a31698695584b7852598", "fusion_lon": 0.0}, {"rental_uris": {"ios": "https://dc.lft.to/lastmile_qr_scan", "android": "https://dc.lft.to/lastmile_qr_scan"}, "type": "electric_scooter", "name": "990e68997e439fb59c3227e2392477d1", "is_reserved": 0, "lon": -77.03249533333333, "is_disabled": 0, "fusion_lat": 0.0, "lat": 38.917129833333334, "bike_id": "990e68997e439fb59c3227e2392477d1", "fusion_lon": 0.0}, {"rental_uris": {"ios": "https://dc.lft.to/lastmile_qr_scan", "android": "https://dc.lft.to/lastmile_qr_scan"}, "type": "electric_scooter", "name": "8bd9ef1ef97256a9e8d19ae9dfffaa7e", "is_reserved": 0, "lon": -77.06325333333334, "is_disabled": 0, "fusion_lat": 0.0, "lat": 38.91341833333333, "bike_id": "8bd9ef1ef97256a9e8d19ae9dfffaa7e", "fusion_lon": 0.0}, {"rental_uris": {"ios": "https://dc.lft.to/lastmile_qr_scan", "android": "https://dc.lft.to/lastmile_qr_scan"}, "type": "electric_scooter", "name": "e6e6f02082f2d53700d7d1b7935cb85d", "is_reserved": 0, "lon": -77.087845, "is_disabled": 0, "fusion_lat": 0.0, "lat": 38.9355645, "bike_id": "e6e6f02082f2d53700d7d1b7935cb85d", "fusion_lon": 0.0}, {"rental_uris": {"ios": "https://dc.lft.to/lastmile_qr_scan", "android": "https://dc.lft.to/lastmile_qr_scan"}, "type": "electric_scooter", "name": "e509e4a7b522e4f4190ab4b77ad1ca27", "is_reserved": 0, "lon": -77.03451616666666, "is_disabled": 0, "fusion_lat": 0.0, "lat": 38.909963833333336, "bike_id": "e509e4a7b522e4f4190ab4b77ad1ca27", "fusion_lon": 0.0}, {"rental_uris": {"ios": "https://dc.lft.to/lastmile_qr_scan", "android": "https://dc.lft.to/lastmile_qr_scan"}, "type": "electric_bike", "name": "3f7d4346f37afac3ed1b319744c1680c", "is_reserved": 0, "lon": -76.98685, "is_disabled": 0, "fusion_lat": 0.0, "lat": 38.896762333333335, "bike_id": "3f7d4346f37afac3ed1b319744c1680c", "fusion_lon": 0.0}, {"rental_uris": {"ios": "https://dc.lft.to/lastmile_qr_scan", "android": "https://dc.lft.to/lastmile_qr_scan"}, "type": "electric_bike", "name": "5dacb8063f3fa524f127118be3e9b910", "is_reserved": 0, "lon": -76.99626666666667, "is_disabled": 0, "fusion_lat": 0.0, "lat": 38.921869, "bike_id": "5dacb8063f3fa524f127118be3e9b910", "fusion_lon": 0.0}, {"rental_uris": {"ios": "https://dc.lft.to/lastmile_qr_scan", "android": "https://dc.lft.to/lastmile_qr_scan"}, "type": "electric_scooter", "name": "753b93a86e99729d5b6786bfc6872e57", "is_reserved": 0, "lon": -77.02114166666667, "is_disabled": 0, "fusion_lat": 0.0, "lat": 38.91736783333333, "bike_id": "753b93a86e99729d5b6786bfc6872e57", "fusion_lon": 0.0}, {"rental_uris": {"ios": "https://dc.lft.to/lastmile_qr_scan", "android": "https://dc.lft.to/lastmile_qr_scan"}, "type": "electric_scooter", "name": "96ac8000ab3b58aee053d0ba6ba71e76", "is_reserved": 0, "lon": -77.00685066666667, "is_disabled": 0, "fusion_lat": 0.0, "lat": 38.906000666666664, "bike_id": "96ac8000ab3b58aee053d0ba6ba71e76", "fusion_lon": 0.0}, {"rental_uris": {"ios": "https://dc.lft.to/lastmile_qr_scan", "android": "https://dc.lft.to/lastmile_qr_scan"}, "type": "electric_scooter", "name": "bad4b57f04a3b1c1930cd6448f71313a", "is_reserved": 0, "lon": -77.039098, "is_disabled": 0, "fusion_lat": 0.0, "lat": 38.908368, "bike_id": "bad4b57f04a3b1c1930cd6448f71313a", "fusion_lon": 0.0}, {"rental_uris": {"ios": "https://dc.lft.to/lastmile_qr_scan", "android": "https://dc.lft.to/lastmile_qr_scan"},