{"data": {"bikes": [{"fusion_lat": 0.0, "name": "bf9bf61f1261f6beb29d217e7518374b", "is_disabled": 0, "rental_uris": {"android": "https://dc.lft.to/lastmile_qr_scan", "ios": "https://dc.lft.to/lastmile_qr_scan"}, "fusion_lon": 0.0, "lat": 38.9077735, "bike_id": "bf9bf61f1261f6beb29d217e7518374b", "type": "electric_scooter", "is_reserved": 0, "lon": -77.07256666666666}, {"fusion_lat": 0.0, "name": "34e95044491244bca80798db271f0b04", "is_disabled": 0, "rental_uris": {"android": "https://dc.lft.to/lastmile_qr_scan", "ios": "https://dc.lft.to/lastmile_qr_scan"}, "fusion_lon": 0.0, "lat": 38.902212, "bike_id": "34e95044491244bca80798db271f0b04", "type": "electric_scooter", "is_reserved": 0, "lon": -77.0205015}, {"fusion_lat": 0.0, "name": "edbda5e49193f1460744e442c5264fcf", "is_disabled": 0, "rental_uris": {"android": "https://dc.lft.to/lastmile_qr_scan", "ios": "https://dc.lft.to/lastmile_qr_scan"}, "fusion_lon": 0.0, "lat": 38.907404666666665, "bike_id": "edbda5e49193f1460744e442c5264fcf", "type": "electric_scooter", "is_reserved": 0, "lon": -77.007609}, {"fusion_lat": 0.0, "name": "93cf3e02afcd1c5260ab805cc2f5b924", "is_disabled": 0, "rental_uris": {"android": "https://dc.lft.to/lastmile_qr_scan", "ios": "https://dc.lft.to/lastmile_qr_scan"}, "fusion_lon": 0.0, "lat": 38.911074166666666, "bike_id": "93cf3e02afcd1c5260ab805cc2f5b924", "type": "electric_scooter", "is_reserved": 0, "lon": -77.004074}, {"fusion_lat": 0.0, "name": "987167b92c871dcd3eade55e8faaac9a", "is_disabled": 0, "rental_uris": {"android": "https://dc.lft.to/lastmile_qr_scan", "ios": "https://dc.lft.to/lastmile_qr_scan"}, "fusion_lon": 0.0, "lat": 38.897305, "bike_id": "987167b92c871dcd3eade55e8faaac9a", "type": "electric_scooter", "is_reserved": 0, "lon": -76.99140333333334}, {"fusion_lat": 0.0, "name": "03ba7b5d75dbec133aa8aa397c0052b8", "is_disabled": 0, "rental_uris": {"android": "https://dc.lft.to/lastmile_qr_scan", "ios": "https://dc.lft.to/lastmile_qr_scan"}, "fusion_lon": 0.0, "lat": 38.920779333333336, "bike_id": "03ba7b5d75dbec133aa8aa397c0052b8", "type": "electric_scooter", "is_reserved": 0, "lon": -77.02405333333333}, {"fusion_lat": 0.0, "name": "622101d45027316a8f2022ee7bd07785", "is_disabled": 0, "rental_uris": {"android": "https://dc.lft.to/lastmile_qr_scan", "ios": "https://dc.lft.to/lastmile_qr_scan"}, "fusion_lon": 0.0, "lat": 38.90225433333333, "bike_id": "622101d45027316a8f2022ee7bd07785", "type": "electric_scooter", "is_reserved": 0, "lon": -77.042658}, {"fusion_lat": 0.0, "name": "a300be65b05d55585259e6bb0c931e6e", "is_disabled": 0, "rental_uris": {"android": "https://dc.lft.to/lastmile_qr_scan", "ios": "https://dc.lft.to/lastmile_qr_scan"}, "fusion_lon": 0.0, "lat": 38.94952883333333, "bike_id": "a300be65b05d55585259e6bb0c931e6e", "type": "electric_scooter", "is_reserved": 0, "lon": -77.06653083333333}, {"fusion_lat": 0.0, "name": "85b2bd6e6a5324486a91aee66c2c3ce2", "is_disabled": 0, "rental_uris": {"android": "https://dc.lft.to/lastmile_qr_scan", "ios": "https://dc.lft.to/lastmile_qr_scan"}, "fusion_lon": 0.0, "lat": 38.935784166666664, "bike_id": "85b2bd6e6a5324486a91aee66c2c3ce2", "type": "electric_scooter", "is_reserved": 0, "lon": -77.021297}, {"fusion_lat": 0.0, "name": "b30beb8705e32db02067c0f6a3527359", "is_disabled": 0, "rental_uris": {"android": "https://dc.lft.to/lastmile_qr_scan", "ios": "https://dc.lft.to/lastmile_qr_scan"}, "fusion_lon": 0.0, "lat": 38.87482766666667, "bike_id": "b30beb8705e32db02067c0f6a3527359", "type": "electric_scooter", "is_reserved": 0, "lon": -77.0060585}, {"fusion_lat": 0.0, "name": "82d418b00e5101a686976681f9f3b417", "is_disabled": 0, "rental_uris": {"android": "https://dc.lft.to/lastmile_qr_scan", "ios": "https://dc.lft.to/lastmile_qr_scan"}, "fusion_lon": 0.0, "lat": 38.924544, "bike_id": "82d418b00e5101a686976681f9f3b417", "type": "electric_scooter", "is_reserved": 0, "lon": -77.0397355}, {"fusion_lat": 0.0, "name": "0b3f56ddd1d7791842ecae9ddf44e485", "is_disabled": 0, "rental_uris": {"android": "https://dc.lft.to/lastmile_qr_scan", "ios": "https://dc.lft.to/lastmile_qr_scan"}, "fusion_lon": 0.0, "lat": 38.9209855, "bike_id": "0b3f56ddd1d7791842ecae9ddf44e485", "type": "electric_scooter", "is_reserved": 0, "lon": -77.0254595}, {"fusion_lat": 0.0, "name": "8a573b09d29682a990f9d4799566bca8", "is_disabled": 0, "rental_uris": {"android": "https://dc.lft.to/lastmile_qr_scan", "ios": "https://dc.lft.to/lastmile_qr_scan"}, "fusion_lon": 0.0, "lat": 38.895768333333336, "bike_id": "8a573b09d29682a990f9d4799566bca8", "type": "electric_scooter", "is_reserved": 0, "lon": -76.9832325}, {"fusion_lat": 0.0, "name": "06da3cf0fbd6ee01f79fcc2966deb98d", "is_disabled": 0, "rental_uris": {"android": "https://dc.lft.to/lastmile_qr_scan", "ios": "https://dc.lft.to/lastmile_qr_scan"}, "fusion_lon": 0.0, "lat": 38.923351, "bike_id": "06da3cf0fbd6ee01f79fcc2966deb98d", "type": "electric_scooter", "is_reserved": 0, "lon": -77.05299366666667}, {"fusion_lat": 0.0, "name": "fb14c75cebcd59635c776e3bd3d430b8", "is_disabled": 0, "rental_uris": {"android": "https://dc.lft.to/lastmile_qr_scan", "ios": "https://dc.lft.to/lastmile_qr_scan"}, "fusion_lon": 0.0, "lat": 38.92883583333333, "bike_id": "fb14c75cebcd59635c776e3bd3d430b8", "type": "electric_scooter", "is_reserved": 0, "lon": -77.03247933333333}, {"fusion_lat": 0.0, "name": "ff85851accce686b62825e36f23bbad2", "is_disabled": 0, "rental_uris": {"android": "https://dc.lft.to/lastmile_qr_scan", "ios": "https://dc.lft.to/lastmile_qr_scan"}, "fusion_lon": 0.0, "lat": 38.879264166666665, "bike_id": "ff85851accce686b62825e36f23bbad2", "type": "electric_scooter", "is_reserved": 0, "lon": -77.02383216666666}, {"fusion_lat": 0.0, "name": "e6d37c68c3b2943ab607a330b5c77a98", "is_disabled": 0, "rental_uris": {"android": "https://dc.lft.to/lastmile_qr_scan", "ios": "https://dc.lft.to/lastmile_qr_scan"}, "fusion_lon": 0.0, "lat": 38.915620833333335, "bike_id": "e6d37c68c3b2943ab607a330b5c77a98", "type": "electric_scooter", "is_reserved": 0, "lon": -77.03144933333333}, {"fusion_lat": 0.0, "name": "eb558a35867436704e4679cdbbca68a8", "is_disabled": 0, "rental_uris": {"android": "https://dc.lft.to/lastmile_qr_scan", "ios": "https://dc.lft.to/lastmile_qr_scan"}, "fusion_lon": 0.0, "lat": 38.9156665, "bike_id": "eb558a35867436704e4679cdbbca68a8", "type": "electric_scooter", "is_reserved": 0, "lon": -77.01050466666666}, {"fusion_lat": 0.0, "name": "a8992ebe18819cb3c1ce779a6493334c", "is_disabled": 0, "rental_uris": {"android": "https://dc.lft.to/lastmile_qr_scan", "ios": "https://dc.lft.to/lastmile_qr_scan"}, "fusion_lon": 0.0, "lat": 38.892171833333336, "bike_id": "a8992ebe18819cb3c1ce779a6493334c", "type": "electric_scooter", "is_reserved": 0, "lon": -77.02052066666667}, {"fusion_lat": 0.0, "name": "f8e6614e1abb8692a3e82714e0665762", "is_disabled": 0, "rental_uris": {"android": "https://dc.lft.to/lastmile_qr_scan", "ios": "https://dc.lft.to/lastmile_qr_scan"}, "fusion_lon": 0.0, "lat": 38.886187, "bike_id": "f8e6614e1abb8692a3e82714e0665762", "type": "electric_scooter", "is_reserved": 0, "lon": -77.02829683333333}, {"fusion_lat": 0.0, "name": "556e72af2fa35ff9460c446498f85655", "is_disabled": 0, "rental_uris": {"android": "https://dc.lft.to/lastmile_qr_scan", "ios": "https://dc.lft.to/lastmile_qr_scan"}, "fusion_lon": 0.0, "lat": 38.92222116666667, "bike_id": "556e72af2fa35ff9460c446498f85655", "type": "electric_scooter", "is_reserved": 0, "lon": -77.04246666666667}, {"fusion_lat": 0.0, "name": "ecf6aaa55d2489eabbd27305bcc2cef0", "is_disabled": 0, "rental_uris": {"android": "https://dc.lft.to/lastmile_qr_scan", "ios": "https://dc.lft.to/lastmile_qr_scan"}, "fusion_lon": 0.0, "lat": 38.91705733333333, "bike_id": "ecf6aaa55d2489eabbd27305bcc2cef0", "type": "electric_scooter", "is_reserved": 0, "lon": -77.024161}, {"fusion_lat": 0.0, "name": "533d3b0e252c5c2b41e01e012c0a93d3", "is_disabled": 0, "rental_uris": {"android": "https://dc.lft.to/lastmile_qr_scan", "ios": "https://dc.lft.to/lastmile_qr_scan"}, "fusion_lon": 0.0, "lat": 38.904967, "bike_id": "533d3b0e252c5c2b41e01e012c0a93d3", "type": "electric_scooter", "is_reserved": 0, "lon": -77.06027766666666}, {"fusion_lat": 0.0, "name": "bb6aa6a629d17da2d01b67590a054596", "is_disabled": 0, "rental_uris": {"android": "https://dc.lft.to/lastmile_qr_scan", "ios": "https://dc.lft.to/lastmile_qr_scan"}, "fusion_lon": 0.0, "lat": 38.871595166666665, "bike_id": "bb6aa6a629d17da2d01b67590a054596", "type": "electric_scooter", "is_reserved": 0, "lon": -77.005803}, {"fusion_lat": 0.0, "name": "39801fbb8df4932da38d1b349883f37e", "is_disabled": 0, "rental_uris": {"android": "https://dc.lft.to/lastmile_qr_scan", "ios": "https://dc.lft.to/lastmile_qr_scan"}, "fusion_lon": 0.0, "lat": 38.92813266666667, "bike_id": "39801fbb8df4932da38d1b349883f37e", "type": "electric_scooter", "is_reserved": 0, "lon": -77.0433585}, {"fusion_lat": 0.0, "name": "76a8029c584ce2172926abcbdd0889e0", "is_disabled": 0, "rental_uris": {"android": "https://dc.lft.to/lastmile_qr_scan", "ios": "https://dc.lft.to/lastmile_qr_scan"}, "fusion_lon": 0.0, "lat": 38.9029835, "bike_id": "76a8029c584ce2172926abcbdd0889e0", "type": "electric_scooter", "is_reserved": 0, "lon": -77.04968116666667}, {"fusion_lat": 0.0, "name": "ee453ff2d083dcaddffd4f7b25efe63c", "is_disabled": 0, "rental_uris": {"android": "https://dc.lft.to/lastmile_qr_scan", "ios": "https://dc.lft.to/lastmile_qr_scan"}, "fusion_lon": 0.0, "lat": 38.85871083333333, "bike_id": "ee453ff2d083dcaddffd4f7b25efe63c", "type": "electric_bike", "is_reserved": 0, "lon": -77.09556883333333}, {"fusion_lat": 0.0, "name": "8b417220d0128ae79608204bfa32a1e3", "is_disabled": 0, "rental_uris": {"android": "https://dc.lft.to/lastmile_qr_scan", "ios": "https://dc.lft.to/lastmile_qr_scan"}, "fusion_lon": 0.0, "lat": 38.919636833333335, "bike_id": "8b417220d0128ae79608204bfa32a1e3", "type": "electric_scooter", "is_reserved": 0, "lon": -77.041588}, {"fusion_lat": 0.0, "name": "b4b69b015f94d545c108169b94c9397a", "is_disabled": 0, "rental_uris": {"android": "https://dc.lft.to/lastmile_qr_scan", "ios": "https://dc.lft.to/lastmile_qr_scan"}, "fusion_lon": 0.0, "lat": 38.905716, "bike_id": "b4b69b015f94d545c108169b94c9397a", "type": "electric_scooter", "is_reserved": 0, "lon": -77.0407555}, {"fusion_lat": 0.0, "name": "d9931e2760b86bd90290ab9388225c94", "is_disabled": 0, "rental_uris": {"android": "https://dc.lft.to/lastmile_qr_scan", "ios": "https://dc.lft.to/lastmile_qr_scan"}, "fusion_lon": 0.0, "lat": 38.93174416666667, "bike_id": "d9931e2760b86bd90290ab9388225c94", "type": "electric_scooter", "is_reserved": 0, "lon": -77.03710816666667}, {"fusion_lat": 0.0, "name": "572cb06d240504881a9a22a02238ccf3", "is_disabled": 0, "rental_uris": {"android": "https://dc.lft.to/lastmile_qr_scan", "ios": "https://dc.lft.to/lastmile_qr_scan"}, "fusion_lon": 0.0, "lat": 38.93448816666667, "bike_id": "572cb06d240504881a9a22a02238ccf3", "type": "electric_scooter", "is_reserved": 0, "lon": -77.0386995}, {"fusion_lat": 0.0, "name": "62781f6f5a68ed601d00c2ed3cc1b6ac", "is_disabled": 0, "rental_uris": {"android": "https://dc.lft.to/lastmile_qr_scan", "ios": "https://dc.lft.to/lastmile_qr_scan"}, "fusion_lon": 0.0, "lat": 38.92813816666666, "bike_id": "62781f6f5a68ed601d00c2ed3cc1b6ac", "type": "electric_scooter", "is_reserved": 0, "lon": -77.023325}, {"fusion_lat": 0.0, "name": "f0a005eac45492b7e78ab356d4729884", "is_disabled": 0, "rental_uris": {"android": "https://dc.lft.to/lastmile_qr_scan", "ios": "https://dc.lft.to/lastmile_qr_scan"}, "fusion_lon": 0.0, "lat": 38.892794333333335, "bike_id": "f0a005eac45492b7e78ab356d4729884", "type": "electric_scooter", "is_reserved": 0, "lon": -77.03185733333333}, {"fusion_lat": 0.0, "name": "6b68312e53e29259a528385ae8570236", "is_disabled": 0, "rental_uris": {"android": "https://dc.lft.to/lastmile_qr_scan", "ios": "https://dc.lft.to/lastmile_qr_scan"}, "fusion_lon": 0.0, "lat": 38.897952333333336, "bike_id": "6b68312e53e29259a528385ae8570236", "type": "electric_scooter", "is_reserved": 0, "lon": -76.98460116666666}, {"fusion_lat": 0.0, "name": "3038d576fdc48da8e4d048782a67b0d0", "is_disabled": 0, "rental_uris": {"android": "https://dc.lft.to/lastmile_qr_scan", "ios": "https://dc.lft.to/lastmile_qr_scan"}, "fusion_lon": 0.0, "lat": 38.895223333333334, "bike_id": "3038d576fdc48da8e4d048782a67b0d0", "type": "electric_scooter", "is_reserved": 0, "lon": -77.02694616666666}, {"fusion_lat": 0.0, "name": "ca5c117573aed0104f56c2fee664e058", "is_disabled": 0, "rental_uris": {"android": "https://dc.lft.to/lastmile_qr_scan", "ios": "https://dc.lft.to/lastmile_qr_scan"}, "fusion_lon": 0.0, "lat": 38.91664, "bike_id": "ca5c117573aed0104f56c2fee664e058", "type": "electric_scooter", "is_reserved": 0, "lon": -77.03861483333333}, {"fusion_lat": 0.0, "name": "9df8132f21894802c722bf922b787c47", "is_disabled": 0, "rental_uris": {"android": "https://dc.lft.to/lastmile_qr_scan", "ios": "https://dc.lft.to/lastmile_qr_scan"}, "fusion_lon": 0.0, "lat": 38.89229533333334, "bike_id": "9df8132f21894802c722bf922b787c47", "type": "electric_scooter", "is_reserved": 0, "lon": -77.02389633333334}, {"fusion_lat": 0.0, "name": "44cd490ad4e1aff50a4246d47db9b859", "is_disabled": 0, "rental_uris": {"android": "https://dc.lft.to/lastmile_qr_scan", "ios": "https://dc.lft.to/lastmile_qr_scan"}, "fusion_lon": 0.0, "lat": 38.92149883333333, "bike_id": "44cd490ad4e1aff50a4246d47db9b859", "type": "electric_scooter", "is_reserved": 0, "lon": -77.04236733333333}, {"fusion_lat": 0.0, "name": "be547e613fe59e63b341f0e683f9dba5", "is_disabled": 0, "rental_uris": {"android": "https://dc.lft.to/lastmile_qr_scan", "ios": "https://dc.lft.to/lastmile_qr_scan"}, "fusion_lon": 0.0, "lat": 38.91788733333333, "bike_id": "be547e613fe59e63b341f0e683f9dba5", "type": "electric_scooter", "is_reserved": 0, "lon": -77.04045983333333}, {"fusion_lat": 0.0, "name": "5a9d04a0e57ac04358c1c45db4af00b4", "is_disabled": 0, "rental_uris": {"android": "https://dc.lft.to/lastmile_qr_scan", "ios": "https://dc.lft.to/lastmile_qr_scan"}, "fusion_lon": 0.0, "lat": 38.916806333333334, "bike_id": "5a9d04a0e57ac04358c1c45db4af00b4", "type": "electric_scooter", "is_reserved": 0, "lon": -77.029668}, {"fusion_lat": 0.0, "name": "1b2353a0b7f27e700c7d3f168bf455d2", "is_disabled": 0, "rental_uris": {"android": "https://dc.lft.to/lastmile_qr_scan", "ios": "https://dc.lft.to/lastmile_qr_scan"}, "fusion_lon": 0.0, "lat": 38.89852916666667, "bike_id": "1b2353a0b7f27e700c7d3f168bf455d2", "type": "electric_scooter", "is_reserved": 0, "lon": -76.95031883333333}, {"fusion_lat": 0.0, "name": "5072acfd853aea6d7fb08ab7c84f4c6a", "is_disabled": 0, "rental_uris": {"android": "https://dc.lft.to/lastmile_qr_scan", "ios": "https://dc.lft.to/lastmile_qr_scan"}, "fusion_lon": 0.0, "lat": 38.88508733333333, "bike_id": "5072acfd853aea6d7fb08ab7c84f4c6a", "type": "electric_scooter", "is_reserved": 0, "lon": -76.9960725}, {"fusion_lat": 0.0, "name": "5698fe40b59c965c379bbe258991fff2", "is_disabled": 0, "rental_uris": {"android": "https://dc.lft.to/lastmile_qr_scan", "ios": "https://dc.lft.to/lastmile_qr_scan"}, "fusion_lon": 0.0, "lat": 38.90591383333334, "bike_id": "5698fe40b59c965c379bbe258991fff2", "type": "electric_scooter", "is_reserved": 0, "lon": -77.04702166666667}, {"fusion_lat": 0.0, "name": "fddae97b99fe3d3123c74750d73f8096", "is_disabled": 0, "rental_uris": {"android": "https://dc.lft.to/lastmile_qr_scan", "ios": "https://dc.lft.to/lastmile_qr_scan"}, "fusion_lon": 0.0, "lat": 38.91168183333333, "bike_id": "fddae97b99fe3d3123c74750d73f8096", "type": "electric_scooter", "is_reserved": 0, "lon": -77.031979}, {"fusion_lat": 0.0, "name": "242dc5cdd018b7f4d75c9053e87b4dab", "is_disabled": 0, "rental_uris": {"android": "https://dc.lft.to/lastmile_qr_scan", "ios": "https://dc.lft.to/lastmile_qr_scan"}, "fusion_lon": 0.0, "lat": 38.899250333333335, "bike_id": "242dc5cdd018b7f4d75c9053e87b4dab", "type": "electric_scooter", "is_reserved": 0, "lon": -77.04036233333333}, {"fusion_lat": 0.0, "name": "989af10ce832f4eb622cc7911b2b4163", "is_disabled": 0, "rental_uris": {"android": "https://dc.lft.to/lastmile_qr_scan", "ios": "https://dc.lft.to/lastmile_qr_scan"}, "fusion_lon": 0.0, "lat": 38.8990505, "bike_id": "989af10ce832f4eb622cc7911b2b4163", "type": "electric_scooter", "is_reserved": 0, "lon": -77.02712883333334}, {"fusion_lat": 0.0, "name": "8490a0b13bdc89a6c54fce901b77591e", "is_disabled": 0, "rental_uris": {"android": "https://dc.lft.to/lastmile_qr_scan", "ios": "https://dc.lft.to/lastmile_qr_scan"}, "fusion_lon": 0.0, "lat": 38.941821166666664, "bike_id": "8490a0b13bdc89a6c54fce901b77591e", "type": "electric_scooter", "is_reserved": 0, "lon": -77.024936}, {"fusion_lat": 0.0, "name": "6026aafdee1e979973b942b1b8bbbc59", "is_disabled": 0, "rental_uris": {"android": "https://dc.lft.to/lastmile_qr_scan", "ios": "https://dc.lft.to/lastmile_qr_scan"}, "fusion_lon": 0.0, "lat": 38.920621, "bike_id": "6026aafdee1e979973b942b1b8bbbc59", "type": "electric_bike", "is_reserved": 0, "lon": -77.23953283333333}, {"fusion_lat": 0.0, "name": "04f85357bac6b89ffbe6112b58c8e089", "is_disabled": 0, "rental_uris": {"android": "https://dc.lft.to/lastmile_qr_scan", "ios": "https://dc.lft.to/lastmile_qr_scan"}, "fusion_lon": 0.0, "lat": 38.91006016666667, "bike_id": "04f85357bac6b89ffbe6112b58c8e089", "type": "electric_scooter", "is_reserved": 0, "lon": -77.04914133333334}, {"fusion_lat": 0.0, "name": "6eb50cde64e313c94b73c0d5d3f8f989", "is_disabled": 0, "rental_uris": {"android": "https://dc.lft.to/lastmile_qr_scan", "ios": "https://dc.lft.to/lastmile_qr_scan"}, "fusion_lon": 0.0, "lat": 38.923834, "bike_id": "6eb50cde64e313c94b73c0d5d3f8f989", "type": "electric_scooter", "is_reserved": 0, "lon": -77.04083933333334}, {"fusion_lat": 0.0, "name": "285f191fefed10aee9815e8bd211d924", "is_disabled": 0, "rental_uris": {"android": "https://dc.lft.to/lastmile_qr_scan", "ios": "https://dc.lft.to/lastmile_qr_scan"}, "fusion_lon": 0.0, "lat": 38.909903666666665, "bike_id": "285f191fefed10aee9815e8bd211d924", "type": "electric_scooter", "is_reserved": 0, "lon": -77.0384585}, {"fusion_lat": 0.0, "name": "4fc2b24e04e7bc895d5cd38c6a54213a", "is_disabled": 0, "rental_uris": {"android": "https://dc.lft.to/lastmile_qr_scan", "ios": "https://dc.lft.to/lastmile_qr_scan"}, "fusion_lon": 0.0, "lat": 38.884397666666665, "bike_id": "4fc2b24e04e7bc895d5cd38c6a54213a", "type": "electric_scooter", "is_reserved": 0, "lon": -76.99619566666667}, {"fusion_lat": 0.0, "name": "3539808a1c6e59b283b38ef38910ec4f", "is_disabled": 0, "rental_uris": {"android": "https://dc.lft.to/lastmile_qr_scan", "ios": "https://dc.lft.to/lastmile_qr_scan"}, "fusion_lon": 0.0, "lat": 38.900625166666664, "bike_id": "3539808a1c6e59b283b38ef38910ec4f", "type": "electric_scooter", "is_reserved": 0, "lon": -77.03857833333333}, {"fusion_lat": 0.0, "name": "127dd632b3b829afcd02c5745a74859a", "is_disabled": 0, "rental_uris": {"android": "https://dc.lft.to/lastmile_qr_scan", "ios": "https://dc.lft.to/lastmile_qr_scan"}, "fusion_lon": 0.0, "lat": 38.895378, "bike_id": "127dd632b3b829afcd02c5745a74859a", "type": "electric_scooter", "is_reserved": 0, "lon": -76.98102}, {"fusion_lat": 0.0, "name": "f9e9b3e960c15e30ffac2771d4b0ed0f", "is_disabled": 0, "rental_uris": {"android": "https://dc.lft.to/lastmile_qr_scan", "ios": "https://dc.lft.to/lastmile_qr_scan"}, "fusion_lon": 0.0, "lat": 38.91921116666666, "bike_id": "f9e9b3e960c15e30ffac2771d4b0ed0f", "type": "electric_scooter", "is_reserved": 0, "lon": -77.0319595}, {"fusion_lat": 0.0, "name": "0ccb05f07be7049c35dd422d00333c62", "is_disabled": 0, "rental_uris": {"android": "https://dc.lft.to/lastmile_qr_scan", "ios": "https://dc.lft.to/lastmile_qr_scan"}, "fusion_lon": 0.0, "lat": 38.847553833333336, "bike_id": "0ccb05f07be7049c35dd422d00333c62", "type": "electric_scooter", "is_reserved": 0, "lon": -76.99501766666667}, {"fusion_lat": 0.0, "name": "3a5d2a7860d1546247bc1475c154170f", "is_disabled": 0, "rental_uris": {"android": "https://dc.lft.to/lastmile_qr_scan", "ios": "https://dc.lft.to/lastmile_qr_scan"}, "fusion_lon": 0.0, "lat": 38.9032965, "bike_id": "3a5d2a7860d1546247bc1475c154170f", "type": "electric_scooter", "is_reserved": 0, "lon": -77.0626715}, {"fusion_lat": 0.0, "name": "cadfab0172dfa74955831811c296dea3", "is_disabled": 0, "rental_uris": {"android": "https://dc.lft.to/lastmile_qr_scan", "ios": "https://dc.lft.to/lastmile_qr_scan"}, "fusion_lon": 0.0, "lat": 38.898751, "bike_id": "cadfab0172dfa74955831811c296dea3", "type": "electric_scooter", "is_reserved": 0, "lon": -76.93190816666667}, {"fusion_lat": 0.0, "name": "1325d3a808ed30457badd9649fbbcc9a", "is_disabled": 0, "rental_uris": {"android": "https://dc.lft.to/lastmile_qr_scan", "ios": "https://dc.lft.to/lastmile_qr_scan"}, "fusion_lon": 0.0, "lat": 38.90130716666667, "bike_id": "1325d3a808ed30457badd9649fbbcc9a", "type": "electric_scooter", "is_reserved": 0, "lon": -77.02596033333333}, {"fusion_lat": 0.0, "name": "3b9afc1b99cc32534007dabd57489461", "is_disabled": 0, "rental_uris": {"android": "https://dc.lft.to/lastmile_qr_scan", "ios": "https://dc.lft.to/lastmile_qr_scan"}, "fusion_lon": 0.0, "lat": 38.923412666666664, "bike_id": "3b9afc1b99cc32534007dabd57489461", "type": "electric_scooter", "is_reserved": 0, "lon": -77.05175933333334}, {"fusion_lat": 0.0, "name": "3a512a8f4e4093506e820dc47711c4de", "is_disabled": 0, "rental_uris": {"android": "https://dc.lft.to/lastmile_qr_scan", "ios": "https://dc.lft.to/lastmile_qr_scan"}, "fusion_lon": 0.0, "lat": 39.052512166666666, "bike_id": "3a512a8f4e4093506e820dc47711c4de", "type": "electric_bike", "is_reserved": 0, "lon": -77.080713}, {"fusion_lat": 0.0, "name": "46b5e15780fc4e232435a258e9687c7e", "is_disabled": 0, "rental_uris": {"android": "https://dc.lft.to/lastmile_qr_scan", "ios": "https://dc.lft.to/lastmile_qr_scan"}, "fusion_lon": 0.0, "lat": 38.9180205, "bike_id": "46b5e15780fc4e232435a258e9687c7e", "type": "electric_scooter", "is_reserved": 0, "lon": -77.04017566666667}, {"fusion_lat": 0.0, "name": "f5f963ed1a62dfb8c74cd185824d276d", "is_disabled": 0, "rental_uris": {"android": "https://dc.lft.to/lastmile_qr_scan", "ios": "https://dc.lft.to/lastmile_qr_scan"}, "fusion_lon": 0.0, "lat": 38.882247, "bike_id": "f5f963ed1a62dfb8c74cd185824d276d", "type": "electric_scooter", "is_reserved": 0, "lon": -77.02909483333333}, {"fusion_lat": 0.0, "name": "dda2f2608fab81843dea4a62d78f1af0", "is_disabled": 0, "rental_uris": {"android": "https://dc.lft.to/lastmile_qr_scan", "ios": "https://dc.lft.to/lastmile_qr_scan"}, "fusion_lon": 0.0, "lat": 38.898739666666664, "bike_id": "dda2f2608fab81843dea4a62d78f1af0", "type": "electric_bike", "is_reserved": 0, "lon": -77.11339033333333}, {"fusion_lat": 0.0, "name": "c5110f9910a77bf88f191cb4b6c19378", "is_disabled": 0, "rental_uris": {"android": "https://dc.lft.to/lastmile_qr_scan", "ios": "https://dc.lft.to/lastmile_qr_scan"}, "fusion_lon": 0.0, "lat": 38.88174466666667, "bike_id": "c5110f9910a77bf88f191cb4b6c19378", "type": "electric_scooter", "is_reserved": 0, "lon": -77.02791983333333}, {"fusion_lat": 0.0, "name": "2b333542593c72487d367f4bd1b46c50", "is_disabled": 0, "rental_uris": {"android": "https://dc.lft.to/lastmile_qr_scan", "ios": "https://dc.lft.to/lastmile_qr_scan"}, "fusion_lon": 0.0, "lat": 38.905598833333336, "bike_id": "2b333542593c72487d367f4bd1b46c50", "type": "electric_scooter", "is_reserved": 0, "lon": -77.01682366666667}, {"fusion_lat": 0.0, "name": "dfd7e8ae2b5d4e638f75cd23eac58a92", "is_disabled": 0, "rental_uris": {"android": "https://dc.lft.to/lastmile_qr_scan", "ios": "https://dc.lft.to/lastmile_qr_scan"}, "fusion_lon": 0.0, "lat": 38.957399833333334, "bike_id": "dfd7e8ae2b5d4e638f75cd23eac58a92", "type": "electric_bike", "is_reserved": 0, "lon": -77.02164583333334}, {"fusion_lat": 0.0, "name": "3f06f7f710486c0cf66c78371adc8c56", "is_disabled": 0, "rental_uris": {"android": "https://dc.lft.to/lastmile_qr_scan", "ios": "https://dc.lft.to/lastmile_qr_scan"}, "fusion_lon": 0.0, "lat": 39.014178333333334, "bike_id": "3f06f7f710486c0cf66c78371adc8c56", "type": "electric_bike", "is_reserved": 0, "lon": -77.0450335}, {"fusion_lat": 0.0, "name": "13b8dfa85c84161f2966489b5ce363cc", "is_disabled": 0, "rental_uris": {"android": "https://dc.lft.to/lastmile_qr_scan", "ios": "https://dc.lft.to/lastmile_qr_scan"}, "fusion_lon": 0.0, "lat": 38.95555216666666, "bike_id": "13b8dfa85c84161f2966489b5ce363cc", "type": "electric_bike", "is_reserved": 0, "lon": -77.02442266666667}, {"fusion_lat": 0.0, "name": "3af599764dcc58757b22a97d5155bc4f", "is_disabled": 0, "rental_uris": {"android": "https://dc.lft.to/lastmile_qr_scan", "ios": "https://dc.lft.to/lastmile_qr_scan"}, "fusion_lon": 0.0, "lat": 38.8998245, "bike_id": "3af599764dcc58757b22a97d5155bc4f", "type": "electric_scooter", "is_reserved": 0, "lon": -77.0217}, {"fusion_lat": 0.0, "name": "0c25be3470adcdd8c6dcd6c9d8723f1b", "is_disabled": 0, "rental_uris": {"android": "https://dc.lft.to/lastmile_qr_scan", "ios": "https://dc.lft.to/lastmile_qr_scan"}, "fusion_lon": 0.0, "lat": 38.90398616666667, "bike_id": "0c25be3470adcdd8c6dcd6c9d8723f1b", "type": "electric_scooter", "is_reserved": 0, "lon": -77.02028633333333}, {"fusion_lat": 0.0, "name": "24db5c0769aa4c39176b06cab28b2da0", "is_disabled": 0, "rental_uris": {"android": "https://dc.lft.to/lastmile_qr_scan", "ios": "https://dc.lft.to/lastmile_qr_scan"}, "fusion_lon": 0.0, "lat": 38.886557333333336, "bike_id": "24db5c0769aa4c39176b06cab28b2da0", "type": "electric_scooter", "is_reserved": 0, "lon": -76.985686}, {"fusion_lat": 0.0, "name": "4fc1ef84015889129cdd53710886e725", "is_disabled": 0, "rental_uris": {"android": "https://dc.lft.to/lastmile_qr_scan", "ios": "https://dc.lft.to/lastmile_qr_scan"}, "fusion_lon": 0.0, "lat": 38.91398733333333, "bike_id": "4fc1ef84015889129cdd53710886e725", "type": "electric_scooter", "is_reserved": 0, "lon": -77.04569133333334}, {"fusion_lat": 0.0, "name": "4e61613ce4a2c7d8917771732b3b0642", "is_disabled": 0, "rental_uris": {"android": "https://dc.lft.to/lastmile_qr_scan", "ios": "https://dc.lft.to/lastmile_qr_scan"}, "fusion_lon": 0.0, "lat": 38.931434833333334, "bike_id": "4e61613ce4a2c7d8917771732b3b0642", "type": "electric_scooter", "is_reserved": 0, "lon": -77.02828783333334}, {"fusion_lat": 0.0, "name": "6c8cf270ab27402b1b7ef1250d3d6c7c", "is_disabled": 0, "rental_uris": {"android": "https://dc.lft.to/lastmile_qr_scan", "ios": "https://dc.lft.to/lastmile_qr_scan"}, "fusion_lon": 0.0, "lat": 38.8982735, "bike_id": "6c8cf270ab27402b1b7ef1250d3d6c7c", "type": "electric_scooter", "is_reserved": 0, "lon": -77.0075245}, {"fusion_lat": 0.0, "name": "a91d7b0b822c6504b23fdd4cbe6cdb59", "is_disabled": 0, "rental_uris": {"android": "https://dc.lft.to/lastmile_qr_scan", "ios": "https://dc.lft.to/lastmile_qr_scan"}, "fusion_lon": 0.0, "lat": 39.07049833333333, "bike_id": "a91d7b0b822c6504b23fdd4cbe6cdb59", "type": "electric_bike", "is_reserved": 0, "lon": -77.11495833333333}, {"fusion_lat": 0.0, "name": "06f5d43f1a00a01d2cdf71955955a233", "is_disabled": 0, "rental_uris": {"android": "https://dc.lft.to/lastmile_qr_scan", "ios": "https://dc.lft.to/lastmile_qr_scan"}, "fusion_lon": 0.0, "lat": 38.899901666666665, "bike_id": "06f5d43f1a00a01d2cdf71955955a233", "type": "electric_scooter", "is_reserved": 0, "lon": -77.02270616666667}, {"fusion_lat": 0.0, "name": "917bd1d391fe949890797436a637f9ea", "is_disabled": 0, "rental_uris": {"android": "https://dc.lft.to/lastmile_qr_scan", "ios": "https://dc.lft.to/lastmile_qr_scan"}, "fusion_lon": 0.0, "lat": 38.8989445, "bike_id": "917bd1d391fe949890797436a637f9ea", "type": "electric_scooter", "is_reserved": 0, "lon": -76.98064133333334}, {"fusion_lat": 0.0, "name": "a1b0ed5c27527a6d436fa5790a9fe371", "is_disabled": 0, "rental_uris": {"android": "https://dc.lft.to/lastmile_qr_scan", "ios": "https://dc.lft.to/lastmile_qr_scan"}, "fusion_lon": 0.0, "lat": 38.90155716666666, "bike_id": "a1b0ed5c27527a6d436fa5790a9fe371", "type": "electric_scooter", "is_reserved": 0, "lon": -77.05318883333334}, {"fusion_lat": 0.0, "name": "ea2fd8a9c84600c6e83ecf4cc7a9729b", "is_disabled": 0, "rental_uris": {"android": "https://dc.lft.to/lastmile_qr_scan", "ios": "https://dc.lft.to/lastmile_qr_scan"}, "fusion_lon": 0.0, "lat": 38.929637, "bike_id": "ea2fd8a9c84600c6e83ecf4cc7a9729b", "type": "electric_scooter", "is_reserved": 0, "lon": -77.03105816666667}, {"fusion_lat": 0.0, "name": "1e3a03442f892f9383d4ca6bf7a0d33e", "is_disabled": 0, "rental_uris": {"android": "https://dc.lft.to/lastmile_qr_scan", "ios": "https://dc.lft.to/lastmile_qr_scan"}, "fusion_lon": 0.0, "lat": 38.9065865, "bike_id": "1e3a03442f892f9383d4ca6bf7a0d33e", "type": "electric_scooter", "is_reserved": 0, "lon": -77.035206}, {"fusion_lat": 0.0, "name": "7c1ba1da85314b6ba45c38949f50e51d", "is_disabled": 0, "rental_uris": {"android": "https://dc.lft.to/lastmile_qr_scan", "ios": "https://dc.lft.to/lastmile_qr_scan"}, "fusion_lon": 0.0, "lat": 38.905376833333335, "bike_id": "7c1ba1da85314b6ba45c38949f50e51d", "type": "electric_scooter", "is_reserved": 0, "lon": -77.02717866666667}, {"fusion_lat": 0.0, "name": "8a75cac68406dbd5f17e0d3790ef1dce", "is_disabled": 0, "rental_uris": {"android": "https://dc.lft.to/lastmile_qr_scan", "ios": "https://dc.lft.to/lastmile_qr_scan"}, "fusion_lon": 0.0, "lat": 38.887668166666664, "bike_id": "8a75cac68406dbd5f17e0d3790ef1dce", "type": "electric_scooter", "is_reserved": 0, "lon": -77.0286145}, {"fusion_lat": 0.0, "name": "70209df1e4afe21fa99a53b8345bd68b", "is_disabled": 0, "rental_uris": {"android": "https://dc.lft.to/lastmile_qr_scan", "ios": "https://dc.lft.to/lastmile_qr_scan"}, "fusion_lon": 0.0, "lat": 38.9167665, "bike_id": "70209df1e4afe21fa99a53b8345bd68b", "type": "electric_scooter", "is_reserved": 0, "lon": -77.0369215}, {"fusion_lat": 0.0, "name": "cf0d5f7b3f3b411c5fdabb251508eebb", "is_disabled": 0, "rental_uris": {"android": "https://dc.lft.to/lastmile_qr_scan", "ios": "https://dc.lft.to/lastmile_qr_scan"}, "fusion_lon": 0.0, "lat": 38.914794, "bike_id": "cf0d5f7b3f3b411c5fdabb251508eebb", "type": "electric_scooter", "is_reserved": 0, "lon": -77.0258675}, {"fusion_lat": 0.0, "name": "d831cd1451477508116caa49048d1792", "is_disabled": 0, "rental_uris": {"android": "https://dc.lft.to/lastmile_qr_scan", "ios": "https://dc.lft.to/lastmile_qr_scan"}, "fusion_lon": 0.0, "lat": 38.92242016666667, "bike_id": "d831cd1451477508116caa49048d1792", "type": "electric_scooter", "is_reserved": 0, "lon": -77.02242733333334}, {"fusion_lat": 0.0, "name": "110916d2eb24a96e0fd2860bb321074e", "is_disabled": 0, "rental_uris": {"android": "https://dc.lft.to/lastmile_qr_scan", "ios": "https://dc.lft.to/lastmile_qr_scan"}, "fusion_lon": 0.0, "lat": 38.9165505, "bike_id": "110916d2eb24a96e0fd2860bb321074e", "type": "electric_scooter", "is_reserved": 0, "lon": -77.00955816666666}, {"fusion_lat": 0.0, "name": "2f72f6d6620763f91f255b9e97267fe8", "is_disabled": 0, "rental_uris": {"android": "https://dc.lft.to/lastmile_qr_scan", "ios": "https://dc.lft.to/lastmile_qr_scan"}, "fusion_lon": 0.0, "lat": 38.90383333333333, "bike_id": "2f72f6d6620763f91f255b9e97267fe8", "type": "electric_scooter", "is_reserved": 0, "lon": -77.01768666666666}, {"fusion_lat": 0.0, "name": "47d5c7a303ea121ce765754144adcb33", "is_disabled": 0, "rental_uris": {"android": "https://dc.lft.to/lastmile_qr_scan", "ios": "https://dc.lft.to/lastmile_qr_scan"}, "fusion_lon": 0.0, "lat": 38.90092883333333, "bike_id": "47d5c7a303ea121ce765754144adcb33", "type": "electric_scooter", "is_reserved": 0, "lon": -77.02280266666666}, {"fusion_lat": 0.0, "name": "a271774e8eb6e029068f7235c048ffe3", "is_disabled": 0, "rental_uris": {"android": "https://dc.lft.to/lastmile_qr_scan", "ios": "https://dc.lft.to/lastmile_qr_scan"}, "fusion_lon": 0.0, "lat": 38.9140685, "bike_id": "a271774e8eb6e029068f7235c048ffe3", "type": "electric_scooter", "is_reserved": 0, "lon": -77.0425375}, {"fusion_lat": 0.0, "name": "478c73ac471f35d598eacc70186184b4", "is_disabled": 0, "rental_uris": {"android": "https://dc.lft.to/lastmile_qr_scan", "ios": "https://dc.lft.to/lastmile_qr_scan"}, "fusion_lon": 0.0, "lat": 38.88729566666667, "bike_id": "478c73ac471f35d598eacc70186184b4", "type": "electric_scooter", "is_reserved": 0, "lon": -77.015159}, {"fusion_lat": 0.0, "name": "3f5e04b4112afd525bf7a70721d87a5b", "is_disabled": 0, "rental_uris": {"android": "https://dc.lft.to/lastmile_qr_scan", "ios": "https://dc.lft.to/lastmile_qr_scan"}, "fusion_lon": 0.0, "lat": 38.9234375, "bike_id": "3f5e04b4112afd525bf7a70721d87a5b", "type": "electric_scooter", "is_reserved": 0, "lon": -77.05183966666667}, {"fusion_lat": 0.0, "name": "25e1deb32a8040438ea5811b5328067b", "is_disabled": 0, "rental_uris": {"android": "https://dc.lft.to/lastmile_qr_scan", "ios": "https://dc.lft.to/lastmile_qr_scan"}, "fusion_lon": 0.0, "lat": 38.9108765, "bike_id": "25e1deb32a8040438ea5811b5328067b", "type": "electric_scooter", "is_reserved": 0, "lon": -77.01688533333333}, {"fusion_lat": 0.0, "name": "c4c797f5e581ff981ec2f328045db0a8", "is_disabled": 0, "rental_uris": {"android": "https://dc.lft.to/lastmile_qr_scan", "ios": "https://dc.lft.to/lastmile_qr_scan"}, "fusion_lon": 0.0, "lat": 38.865139166666665, "bike_id": "c4c797f5e581ff981ec2f328045db0a8", "type": "electric_bike", "is_reserved": 0, "lon": -77.12947066666666}, {"fusion_lat": 0.0, "name": "9cdfb2944a9a02c06d496104cbc888ad", "is_disabled": 0, "rental_uris": {"android": "https://dc.lft.to/lastmile_qr_scan", "ios": "https://dc.lft.to/lastmile_qr_scan"}, "fusion_lon": 0.0, "lat": 38.917093, "bike_id": "9cdfb2944a9a02c06d496104cbc888ad", "type": "electric_scooter", "is_reserved": 0, "lon": -77.03867633333333}, {"fusion_lat": 0.0, "name": "f5cace7fbc0c1163ef244c6c17740899", "is_disabled": 0, "rental_uris": {"android": "https://dc.lft.to/lastmile_qr_scan", "ios": "https://dc.lft.to/lastmile_qr_scan"}, "fusion_lon": 0.0, "lat": 38.85359183333333, "bike_id": "f5cace7fbc0c1163ef244c6c17740899", "type": "electric_bike", "is_reserved": 0, "lon": -77.11504783333334}, {"fusion_lat": 0.0, "name": "79d0595cf78aa6165fa08fd911439921", "is_disabled": 0, "rental_uris": {"android": "https://dc.lft.to/lastmile_qr_scan", "ios": "https://dc.lft.to/lastmile_qr_scan"}, "fusion_lon": 0.0, "lat": 38.936107, "bike_id": "79d0595cf78aa6165fa08fd911439921", "type": "electric_scooter", "is_reserved": 0, "lon": -77.05864616666666}, {"fusion_lat": 0.0, "name": "ad416ed9b881b83157e27638ce76fa61", "is_disabled": 0, "rental_uris": {"android": "https://dc.lft.to/lastmile_qr_scan", "ios": "https://dc.lft.to/lastmile_qr_scan"}, "fusion_lon": 0.0, "lat": 38.883038666666664, "bike_id": "ad416ed9b881b83157e27638ce76fa61", "type": "electric_scooter", "is_reserved": 0, "lon": -77.01743783333333}, {"fusion_lat": 0.0, "name": "f68c9682be026595657f32645672f37b", "is_disabled": 0, "rental_uris": {"android": "https://dc.lft.to/lastmile_qr_scan", "ios": "https://dc.lft.to/lastmile_qr_scan"}, "fusion_lon": 0.0, "lat": 38.874838833333335, "bike_id": "f68c9682be026595657f32645672f37b", "type": "electric_scooter", "is_reserved": 0, "lon": -77.0060755}, {"fusion_lat": 0.0, "name": "7734572e966e6dd7f706b8413ae7c44d", "is_disabled": 0, "rental_uris": {"android": "https://dc.lft.to/lastmile_qr_scan", "ios": "https://dc.lft.to/lastmile_qr_scan"}, "fusion_lon": 0.0, "lat": 38.877222333333336, "bike_id": "7734572e966e6dd7f706b8413ae7c44d", "type": "electric_scooter", "is_reserved": 0, "lon": -76.99663433333333}, {"fusion_lat": 0.0, "name": "678fa146c4ed1c5bff376c9db8c7cad7", "is_disabled": 0, "rental_uris": {"android": "https://dc.lft.to/lastmile_qr_scan", "ios": "https://dc.lft.to/lastmile_qr_scan"}, "fusion_lon": 0.0, "lat": 38.91684033333333, "bike_id": "678fa146c4ed1c5bff376c9db8c7cad7", "type": "electric_scooter", "is_reserved": 0, "lon": -77.0305285}, {"fusion_lat": 0.0, "name": "3c05333552473dddb4ceaabd922f117e", "is_disabled": 0, "rental_uris": {"android": "https://dc.lft.to/lastmile_qr_scan", "ios": "https://dc.lft.to/lastmile_qr_scan"}, "fusion_lon": 0.0, "lat": 38.91903966666667, "bike_id": "3c05333552473dddb4ceaabd922f117e", "type": "electric_scooter", "is_reserved": 0, "lon": -77.02408}, {"fusion_lat": 0.0, "name": "37bd8d13c69ff67dd3dace455e204fed", "is_disabled": 0, "rental_uris": {"android": "https://dc.lft.to/lastmile_qr_scan", "ios": "https://dc.lft.to/lastmile_qr_scan"}, "fusion_lon": 0.0, "lat": 38.89772083333333, "bike_id": "37bd8d13c69ff67dd3dace455e204fed", "type": "electric_scooter", "is_reserved": 0, "lon": -76.98463633333333}, {"fusion_lat": 0.0, "name": "213880acfa8a0bc8e36dac10bd1c5902", "is_disabled": 0, "rental_uris": {"android": "https://dc.lft.to/lastmile_qr_scan", "ios": "https://dc.lft.to/lastmile_qr_scan"}, "fusion_lon": 0.0, "lat": 38.8871615, "bike_id": "213880acfa8a0bc8e36dac10bd1c5902", "type": "electric_scooter", "is_reserved": 0, "lon": -77.02585983333333}, {"fusion_lat": 0.0, "name": "5a4c6c718184f5fef7dcd855b621c672", "is_disabled": 0, "rental_uris": {"android": "https://dc.lft.to/lastmile_qr_scan", "ios": "https://dc.lft.to/lastmile_qr_scan"}, "fusion_lon": 0.0, "lat": 38.873838, "bike_id": "5a4c6c718184f5fef7dcd855b621c672", "type": "electric_scooter", "is_reserved": 0, "lon": -77.00042033333334}, {"fusion_lat": 0.0, "name": "de15b22be1125c5762710a194bc5969b", "is_disabled": 0, "rental_uris": {"android": "https://dc.lft.to/lastmile_qr_scan", "ios": "https://dc.lft.to/lastmile_qr_scan"}, "fusion_lon": 0.0, "lat": 39.034236666666665, "bike_id": "de15b22be1125c5762710a194bc5969b", "type": "electric_bike", "is_reserved": 0, "lon": -77.043011}, {"fusion_lat": 0.0, "name": "2a098ed9bf80b69a50c6bcf9807ec82f", "is_disabled": 0, "rental_uris": {"android": "https://dc.lft.to/lastmile_qr_scan", "ios": "https://dc.lft.to/lastmile_qr_scan"}, "fusion_lon": 0.0, "lat": 38.919118, "bike_id": "2a098ed9bf80b69a50c6bcf9807ec82f", "type": "electric_scooter", "is_reserved": 0, "lon": -77.02735883333334}, {"fusion_lat": 0.0, "name": "5e44fc3c69b3ef0fbf4d0569eb21ba1b", "is_disabled": 0, "rental_uris": {"android": "https://dc.lft.to/lastmile_qr_scan", "ios": "https://dc.lft.to/lastmile_qr_scan"}, "fusion_lon": 0.0, "lat": 38.89911516666667, "bike_id": "5e44fc3c69b3ef0fbf4d0569eb21ba1b", "type": "electric_scooter", "is_reserved": 0, "lon": -76.94594766666667}, {"fusion_lat": 0.0, "name": "722a0da2a268037658ef7e1acb91077d", "is_disabled": 0, "rental_uris": {"android": "https://dc.lft.to/lastmile_qr_scan", "ios": "https://dc.lft.to/lastmile_qr_scan"}, "fusion_lon": 0.0, "lat": 38.8919915, "bike_id": "722a0da2a268037658ef7e1acb91077d", "type": "electric_scooter", "is_reserved": 0, "lon": -77.01556183333334}, {"fusion_lat": 0.0, "name": "4634a61e4b6397916828c4977df6172e", "is_disabled": 0, "rental_uris": {"android": "https://dc.lft.to/lastmile_qr_scan", "ios": "https://dc.lft.to/lastmile_qr_scan"}, "fusion_lon": 0.0, "lat": 38.9083615, "bike_id": "4634a61e4b6397916828c4977df6172e", "type": "electric_scooter", "is_reserved": 0, "lon": -77.03300266666666}, {"fusion_lat": 0.0, "name": "38812349965207394616f3ce2c09ab23", "is_disabled": 0, "rental_uris": {"android": "https://dc.lft.to/lastmile_qr_scan", "ios": "https://dc.lft.to/lastmile_qr_scan"}, "fusion_lon": 0.0, "lat": 38.9078725, "bike_id": "38812349965207394616f3ce2c09ab23", "type": "electric_scooter", "is_reserved": 0, "lon": -77.04260016666667}, {"fusion_lat": 0.0, "name": "e59c2314fba1fe9acf74676390fe4e50", "is_disabled": 0, "rental_uris": {"android": "https://dc.lft.to/lastmile_qr_scan", "ios": "https://dc.lft.to/lastmile_qr_scan"}, "fusion_lon": 0.0, "lat": 38.9149295, "bike_id": "e59c2314fba1fe9acf74676390fe4e50", "type": "electric_scooter", "is_reserved": 0, "lon": -77.01999466666666}, {"fusion_lat": 0.0, "name": "3115eb6f45b10b0bfb43feb6be58da25", "is_disabled": 0, "rental_uris": {"android": "https://dc.lft.to/lastmile_qr_scan", "ios": "https://dc.lft.to/lastmile_qr_scan"}, "fusion_lon": 0.0, "lat": 38.885267, "bike_id": "3115eb6f45b10b0bfb43feb6be58da25", "type": "electric_scooter", "is_reserved": 0, "lon": -76.92927433333334}, {"fusion_lat": 0.0, "name": "ccc2a662b38d2c7e10e1f163578a029c", "is_disabled": 0, "rental_uris": {"android": "https://dc.lft.to/lastmile_qr_scan", "ios": "https://dc.lft.to/lastmile_qr_scan"}, "fusion_lon": 0.0, "lat": 38.921000666666664, "bike_id": "ccc2a662b38d2c7e10e1f163578a029c", "type": "electric_scooter", "is_reserved": 0, "lon": -77.02547866666667}, {"fusion_lat": 0.0, "name": "4febd98ca8a686adf7ac276269705954", "is_disabled": 0, "rental_uris": {"android": "https://dc.lft.to/lastmile_qr_scan", "ios": "https://dc.lft.to/lastmile_qr_scan"}, "fusion_lon": 0.0, "lat": 38.89911216666667, "bike_id": "4febd98ca8a686adf7ac276269705954", "type": "electric_scooter", "is_reserved": 0, "lon": -76.93365666666666}, {"fusion_lat": 0.0, "name": "34f99de8e262ff50bf3a255769c04cf7", "is_disabled": 0, "rental_uris": {"android": "https://dc.lft.to/lastmile_qr_scan", "ios": "https://dc.lft.to/lastmile_qr_scan"}, "fusion_lon": 0.0, "lat": 38.935382833333335, "bike_id": "34f99de8e262ff50bf3a255769c04cf7", "type": "electric_scooter", "is_reserved": 0, "lon": -77.05754}, {"fusion_lat": 0.0, "name": "98a04b61f54882894d31b54cc802f5f0", "is_disabled": 0, "rental_uris": {"android": "https://dc.lft.to/lastmile_qr_scan", "ios": "https://dc.lft.to/lastmile_qr_scan"}, "fusion_lon": 0.0, "lat": 38.87572266666667, "bike_id": "98a04b61f54882894d31b54cc802f5f0", "type": "electric_bike", "is_reserved": 0, "lon": -77.2340875}, {"fusion_lat": 0.0, "name": "16a22aeafd5d346588fc2a46e7574210", "is_disabled": 0, "rental_uris": {"android": "https://dc.lft.to/lastmile_qr_scan", "ios": "https://dc.lft.to/lastmile_qr_scan"}, "fusion_lon": 0.0, "lat": 38.899518666666665, "bike_id": "16a22aeafd5d346588fc2a46e7574210", "type": "electric_scooter", "is_reserved": 0, "lon": -77.0274585}, {"fusion_lat": 0.0, "name": "94654600d5f8e4f6b5c27b1e64ae2d4a", "is_disabled": 0, "rental_uris": {"android": "https://dc.lft.to/lastmile_qr_scan", "ios": "https://dc.lft.to/lastmile_qr_scan"}, "fusion_lon": 0.0, "lat": 38.90241666666667, "bike_id": "94654600d5f8e4f6b5c27b1e64ae2d4a", "type": "electric_scooter", "is_reserved": 0, "lon": -77.01800816666666}, {"fusion_lat": 0.0, "name": "962417ed3d80b11a68a4530fbff5d4f2", "is_disabled": 0, "rental_uris": {"android": "https://dc.lft.to/lastmile_qr_scan", "ios": "https://dc.lft.to/lastmile_qr_scan"}, "fusion_lon": 0.0, "lat": 38.909127833333336, "bike_id": "962417ed3d80b11a68a4530fbff5d4f2", "type": "electric_scooter", "is_reserved": 0, "lon": -77.03206233333333}, {"fusion_lat": 0.0, "name": "c65d490828e088ac3f0423c24deef88c", "is_disabled": 0, "rental_uris": {"android": "https://dc.lft.to/lastmile_qr_scan", "ios": "https://dc.lft.to/lastmile_qr_scan"}, "fusion_lon": 0.0, "lat": 38.907308, "bike_id": "c65d490828e088ac3f0423c24deef88c", "type": "electric_scooter", "is_reserved": 0, "lon": -77.0281135}, {"fusion_lat": 0.0, "name": "8f06280ca16a92619182ac8319bf5f57", "is_disabled": 0, "rental_uris": {"android": "https://dc.lft.to/lastmile_qr_scan", "ios": "https://dc.lft.to/lastmile_qr_scan"}, "fusion_lon": 0.0, "lat": 38.9284055, "bike_id": "8f06280ca16a92619182ac8319bf5f57", "type": "electric_scooter", "is_reserved": 0, "lon": -77.01588316666667}, {"fusion_lat": 0.0, "name": "a2c6e567f0a1916b99c56215a67f5243", "is_disabled": 0, "rental_uris": {"android": "https://dc.lft.to/lastmile_qr_scan", "ios": "https://dc.lft.to/lastmile_qr_scan"}, "fusion_lon": 0.0, "lat": 38.819155, "bike_id": "a2c6e567f0a1916b99c56215a67f5243", "type": "electric_bike", "is_reserved": 0, "lon": -77.0479735}, {"fusion_lat": 0.0, "name": "1f876b79cccb10c6904b1b933b8a6611", "is_disabled": 0, "rental_uris": {"android": "https://dc.lft.to/lastmile_qr_scan", "ios": "https://dc.lft.to/lastmile_qr_scan"}, "fusion_lon": 0.0, "lat": 38.892291166666666, "bike_id": "1f876b79cccb10c6904b1b933b8a6611", "type": "electric_scooter", "is_reserved": 0, "lon": -77.0500065}, {"fusion_lat": 0.0, "name": "0b4e2f55950b3f005f8283b27a4950b1", "is_disabled": 0, "rental_uris": {"android": "https://dc.lft.to/lastmile_qr_scan", "ios": "https://dc.lft.to/lastmile_qr_scan"}, "fusion_lon": 0.0, "lat": 38.812529166666664, "bike_id": "0b4e2f55950b3f005f8283b27a4950b1", "type": "electric_bike", "is_reserved": 0, "lon": -77.11780433333334}, {"fusion_lat": 0.0, "name": "05bf7f2ecdf7110af77d68734375f38c", "is_disabled": 0, "rental_uris": {"android": "https://dc.lft.to/lastmile_qr_scan", "ios": "https://dc.lft.to/lastmile_qr_scan"}, "fusion_lon": 0.0, "lat": 38.92723633333333, "bike_id": "05bf7f2ecdf7110af77d68734375f38c", "type": "electric_scooter", "is_reserved": 0, "lon": -77.03065433333333}, {"fusion_lat": 0.0, "name": "2937a78259c4b15dcb8d476e42d82ca9", "is_disabled": 0, "rental_uris": {"android": "https://dc.lft.to/lastmile_qr_scan", "ios": "https://dc.lft.to/lastmile_qr_scan"}, "fusion_lon": 0.0, "lat": 38.8829555, "bike_id": "2937a78259c4b15dcb8d476e42d82ca9", "type": "electric_scooter", "is_reserved": 0, "lon": -76.94867116666667}, {"fusion_lat": 0.0, "name": "e32ddc8e4d228e005b7f8c4459b91fc7", "is_disabled": 0, "rental_uris": {"android": "https://dc.lft.to/lastmile_qr_scan", "ios": "https://dc.lft.to/lastmile_qr_scan"}, "fusion_lon": 0.0, "lat": 38.90728083333333, "bike_id": "e32ddc8e4d228e005b7f8c4459b91fc7", "type": "electric_scooter", "is_reserved": 0, "lon": -76.93545116666667}, {"fusion_lat": 0.0, "name": "28050229da3e9f2b0c472614f0b97b0a", "is_disabled": 0, "rental_uris": {"android": "https://dc.lft.to/lastmile_qr_scan", "ios": "https://dc.lft.to/lastmile_qr_scan"}, "fusion_lon": 0.0, "lat": 38.91708333333333, "bike_id": "28050229da3e9f2b0c472614f0b97b0a", "type": "electric_scooter", "is_reserved": 0, "lon": -77.0388035}, {"fusion_lat": 0.0, "name": "c8b20ef3edbe65a49b82506832714341", "is_disabled": 0, "rental_uris": {"android": "https://dc.lft.to/lastmile_qr_scan", "ios": "https://dc.lft.to/lastmile_qr_scan"}, "fusion_lon": 0.0, "lat": 38.9039955, "bike_id": "c8b20ef3edbe65a49b82506832714341", "type": "electric_scooter", "is_reserved": 0, "lon": -77.06808683333334}, {"fusion_lat": 0.0, "name": "c7a2fa40db23cad5800ff66a07f9ab79", "is_disabled": 0, "rental_uris": {"android": "https://dc.lft.to/lastmile_qr_scan", "ios": "https://dc.lft.to/lastmile_qr_scan"}, "fusion_lon": 0.0, "lat": 38.922310333333336, "bike_id": "c7a2fa40db23cad5800ff66a07f9ab79", "type": "electric_scooter", "is_reserved": 0, "lon": -77.042493}, {"fusion_lat": 0.0, "name": "7ae52baea9751ca0147f65476a1f5cef", "is_disabled": 0, "rental_uris": {"android": "https://dc.lft.to/lastmile_qr_scan", "ios": "https://dc.lft.to/lastmile_qr_scan"}, "fusion_lon": 0.0, "lat": 38.807063666666664, "bike_id": "7ae52baea9751ca0147f65476a1f5cef", "type": "electric_bike", "is_reserved": 0, "lon": -77.06186333333333}, {"fusion_lat": 0.0, "name": "8ccf20928e0fec1e7e3b69ec9ad3dec4", "is_disabled": 0, "rental_uris": {"android": "https://dc.lft.to/lastmile_qr_scan", "ios": "https://dc.lft.to/lastmile_qr_scan"}, "fusion_lon": 0.0, "lat": 38.9253895, "bike_id": "8ccf20928e0fec1e7e3b69ec9ad3dec4", "type": "electric_scooter", "is_reserved": 0, "lon": -77.00762216666666}, {"fusion_lat": 0.0, "name": "edba81d7305f13e2c665bbde25da975f", "is_disabled": 0, "rental_uris": {"android": "https://dc.lft.to/lastmile_qr_scan", "ios": "https://dc.lft.to/lastmile_qr_scan"}, "fusion_lon": 0.0, "lat": 38.93038883333333, "bike_id": "edba81d7305f13e2c665bbde25da975f", "type": "electric_scooter", "is_reserved": 0, "lon": -77.03220983333334}, {"fusion_lat": 0.0, "name": "9b3daca01f7fb220b9304f423210c80f", "is_disabled": 0, "rental_uris": {"android": "https://dc.lft.to/lastmile_qr_scan", "ios": "https://dc.lft.to/lastmile_qr_scan"}, "fusion_lon": 0.0, "lat": 38.92616683333333, "bike_id": "9b3daca01f7fb220b9304f423210c80f", "type": "electric_scooter", "is_reserved": 0, "lon": -77.04201083333334}, {"fusion_lat": 0.0, "name": "86e93dabeddb41cf7edd6f95d2c5ed0b", "is_disabled": 0, "rental_uris": {"android": "https://dc.lft.to/lastmile_qr_scan", "ios": "https://dc.lft.to/lastmile_qr_scan"}, "fusion_lon": 0.0, "lat": 38.839271833333335, "bike_id": "86e93dabeddb41cf7edd6f95d2c5ed0b", "type": "electric_bike", "is_reserved": 0, "lon": -77.07903383333333}, {"fusion_lat": 0.0, "name": "9d04761e3462f4ce201f647c9c8cae9f", "is_disabled": 0, "rental_uris": {"android": "https://dc.lft.to/lastmile_qr_scan", "ios": "https://dc.lft.to/lastmile_qr_scan"}, "fusion_lon": 0.0, "lat": 38.933651166666664, "bike_id": "9d04761e3462f4ce201f647c9c8cae9f", "type": "electric_scooter", "is_reserved": 0, "lon": -77.0442385}, {"fusion_lat": 0.0, "name": "52c55a3b235679802bfabe6edaedecfa", "is_disabled": 0, "rental_uris": {"android": "https://dc.lft.to/lastmile_qr_scan", "ios": "https://dc.lft.to/lastmile_qr_scan"}, "fusion_lon": 0.0, "lat": 38.9074385, "bike_id": "52c55a3b235679802bfabe6edaedecfa", "type": "electric_scooter", "is_reserved": 0, "lon": -77.00757383333334}, {"fusion_lat": 0.0, "name": "30fbe23c851fd72dab6efad58ae36ca9", "is_disabled": 0, "rental_uris": {"android": "https://dc.lft.to/lastmile_qr_scan", "ios": "https://dc.lft.to/lastmile_qr_scan"}, "fusion_lon": 0.0, "lat": 38.87734483333333, "bike_id": "30fbe23c851fd72dab6efad58ae36ca9", "type": "electric_scooter", "is_reserved": 0, "lon": -77.02136966666667}, {"fusion_lat": 0.0, "name": "45407e7c0289a26ff8c7cd8adc6b3331", "is_disabled": 0, "rental_uris": {"android": "https://dc.lft.to/lastmile_qr_scan", "ios": "https://dc.lft.to/lastmile_qr_scan"}, "fusion_lon": 0.0, "lat": 38.9335195, "bike_id": "45407e7c0289a26ff8c7cd8adc6b3331", "type": "electric_scooter", "is_reserved": 0, "lon": -77.0389135}, {"fusion_lat": 0.0, "name": "47957c4f4ef1cfc138fb7d61fe924d01", "is_disabled": 0, "rental_uris": {"android": "https://dc.lft.to/lastmile_qr_scan", "ios": "https://dc.lft.to/lastmile_qr_scan"}, "fusion_lon": 0.0, "lat": 38.8950305, "bike_id": "47957c4f4ef1cfc138fb7d61fe924d01", "type": "electric_scooter", "is_reserved": 0, "lon": -77.0033855}, {"fusion_lat": 0.0, "name": "19082fbb518b4b14e46a276bbd1cc235", "is_disabled": 0, "rental_uris": {"android": "https://dc.lft.to/lastmile_qr_scan", "ios": "https://dc.lft.to/lastmile_qr_scan"}, "fusion_lon": 0.0, "lat": 38.925994833333334, "bike_id": "19082fbb518b4b14e46a276bbd1cc235", "type": "electric_scooter", "is_reserved": 0, "lon": -77.02397566666667}, {"fusion_lat": 0.0, "name": "1a9b112f99941450bc19e61f7849edef", "is_disabled": 0, "rental_uris": {"android": "https://dc.lft.to/lastmile_qr_scan", "ios": "https://dc.lft.to/lastmile_qr_scan"}, "fusion_lon": 0.0, "lat": 38.92565716666667, "bike_id": "1a9b112f99941450bc19e61f7849edef", "type": "electric_scooter", "is_reserved": 0, "lon": -77.0289205}, {"fusion_lat": 0.0, "name": "9db1eb7806fd970ccb85d43b54a530de", "is_disabled": 0, "rental_uris": {"android": "https://dc.lft.to/lastmile_qr_scan", "ios": "https://dc.lft.to/lastmile_qr_scan"}, "fusion_lon": 0.0, "lat": 38.87451183333334, "bike_id": "9db1eb7806fd970ccb85d43b54a530de", "type": "electric_scooter", "is_reserved": 0, "lon": -77.00299916666667}, {"fusion_lat": 0.0, "name": "7f52bdf486175bdf8d8169aa636d5e42", "is_disabled": 0, "rental_uris": {"android": "https://dc.lft.to/lastmile_qr_scan", "ios": "https://dc.lft.to/lastmile_qr_scan"}, "fusion_lon": 0.0, "lat": 38.932660166666665, "bike_id": "7f52bdf486175bdf8d8169aa636d5e42", "type": "electric_scooter", "is_reserved": 0, "lon": -77.019237}, {"fusion_lat": 0.0, "name": "2f3a9c6ecef9621dccba59665fa38f98", "is_disabled": 0, "rental_uris": {"android": "https://dc.lft.to/lastmile_qr_scan", "ios": "https://dc.lft.to/lastmile_qr_scan"}, "fusion_lon": 0.0, "lat": 38.92062933333333, "bike_id": "2f3a9c6ecef9621dccba59665fa38f98", "type": "electric_scooter", "is_reserved": 0, "lon": -77.0381095}, {"fusion_lat": 0.0, "name": "3e7fc9ef4aa46f831f2c477c63ec3565", "is_disabled": 0, "rental_uris": {"android": "https://dc.lft.to/lastmile_qr_scan", "ios": "https://dc.lft.to/lastmile_qr_scan"}, "fusion_lon": 0.0, "lat": 38.917273333333334, "bike_id": "3e7fc9ef4aa46f831f2c477c63ec3565", "type": "electric_scooter", "is_reserved": 0, "lon": -77.019046}, {"fusion_lat": 0.0, "name": "fa0235702f7149202644c5221efc06ab", "is_disabled": 0, "rental_uris": {"android": "https://dc.lft.to/lastmile_qr_scan", "ios": "https://dc.lft.to/lastmile_qr_scan"}, "fusion_lon": 0.0, "lat": 38.94098116666667, "bike_id": "fa0235702f7149202644c5221efc06ab", "type": "electric_scooter", "is_reserved": 0, "lon": -77.03283166666667}, {"fusion_lat": 0.0, "name": "4eeabb8d037cfb91d70b298a98b07a1d", "is_disabled": 0, "rental_uris": {"android": "https://dc.lft.to/lastmile_qr_scan", "ios": "https://dc.lft.to/lastmile_qr_scan"}, "fusion_lon": 0.0, "lat": 38.928059833333336, "bike_id": "4eeabb8d037cfb91d70b298a98b07a1d", "type": "electric_scooter", "is_reserved": 0, "lon": -77.0141855}, {"fusion_lat": 0.0, "name": "f2cb4fee96cf83c9c7a97a2c539f01a6", "is_disabled": 0, "rental_uris": {"android": "https://dc.lft.to/lastmile_qr_scan", "ios": "https://dc.lft.to/lastmile_qr_scan"}, "fusion_lon": 0.0, "lat": 38.93076416666667, "bike_id": "f2cb4fee96cf83c9c7a97a2c539f01a6", "type": "electric_scooter", "is_reserved": 0, "lon": -77.07761583333334}, {"fusion_lat": 0.0, "name": "8eca9b94ad584334cb64fcbb239a6cb2", "is_disabled": 0, "rental_uris": {"android": "https://dc.lft.to/lastmile_qr_scan", "ios": "https://dc.lft.to/lastmile_qr_scan"}, "fusion_lon": 0.0, "lat": 38.860143666666666, "bike_id": "8eca9b94ad584334cb64fcbb239a6cb2", "type": "electric_bike", "is_reserved": 0, "lon": -77.12810016666667}, {"fusion_lat": 0.0, "name": "7aec12c3b9915902822558825bee7758", "is_disabled": 0, "rental_uris": {"android": "https://dc.lft.to/lastmile_qr_scan", "ios": "https://dc.lft.to/lastmile_qr_scan"}, "fusion_lon": 0.0, "lat": 38.93080166666667, "bike_id": "7aec12c3b9915902822558825bee7758", "type": "electric_scooter", "is_reserved": 0, "lon": -77.02004216666667}, {"fusion_lat": 0.0, "name": "0db581e749a07f2759c2f7c0a2fa2cc2", "is_disabled": 0, "rental_uris": {"android": "https://dc.lft.to/lastmile_qr_scan", "ios": "https://dc.lft.to/lastmile_qr_scan"}, "fusion_lon": 0.0, "lat": 38.9126565, "bike_id": "0db581e749a07f2759c2f7c0a2fa2cc2", "type": "electric_scooter", "is_reserved": 0, "lon": -77.0193055}, {"fusion_lat": 0.0, "name": "6a2b990bfe5aa59ffa2fc172fb2504a8", "is_disabled": 0, "rental_uris": {"android": "https://dc.lft.to/lastmile_qr_scan", "ios": "https://dc.lft.to/lastmile_qr_scan"}, "fusion_lon": 0.0, "lat": 38.95616016666666, "bike_id": "6a2b990bfe5aa59ffa2fc172fb2504a8", "type": "electric_bike", "is_reserved": 0, "lon": -76.93877933333333}, {"fusion_lat": 0.0, "name": "570065a7c9ade495467c3f86c9097e51", "is_disabled": 0, "rental_uris": {"android": "https://dc.lft.to/lastmile_qr_scan", "ios": "https://dc.lft.to/lastmile_qr_scan"}, "fusion_lon": 0.0, "lat": 38.93129283333333, "bike_id": "570065a7c9ade495467c3f86c9097e51", "type": "electric_scooter", "is_reserved": 0, "lon": -77.03852516666667}, {"fusion_lat": 0.0, "name": "207cc06953cd1e668041e3bcbedea4b7", "is_disabled": 0, "rental_uris": {"android": "https://dc.lft.to/lastmile_qr_scan", "ios": "https://dc.lft.to/lastmile_qr_scan"}, "fusion_lon": 0.0, "lat": 38.89901183333333, "bike_id": "207cc06953cd1e668041e3bcbedea4b7", "type": "electric_scooter", "is_reserved": 0, "lon": -76.99390583333333}, {"fusion_lat": 0.0, "name": "9838ca53a06e2682ef0d45931098fc68", "is_disabled": 0, "rental_uris": {"android": "https://dc.lft.to/lastmile_qr_scan", "ios": "https://dc.lft.to/lastmile_qr_scan"}, "fusion_lon": 0.0, "lat": 38.901090333333336, "bike_id": "9838ca53a06e2682ef0d45931098fc68", "type": "electric_scooter", "is_reserved": 0, "lon": -77.058992}, {"fusion_lat": 0.0, "name": "42275cf7b1f06023f22afb19223f7c16", "is_disabled": 0, "rental_uris": {"android": "https://dc.lft.to/lastmile_qr_scan", "ios": "https://dc.lft.to/lastmile_qr_scan"}, "fusion_lon": 0.0, "lat": 38.89527266666666, "bike_id": "42275cf7b1f06023f22afb19223f7c16", "type": "electric_scooter", "is_reserved": 0, "lon": -76.93413233333334}, {"fusion_lat": 0.0, "name": "87cd087c285fc522684b3527bf3589a9", "is_disabled": 0, "rental_uris": {"android": "https://dc.lft.to/lastmile_qr_scan", "ios": "https://dc.lft.to/lastmile_qr_scan"}, "fusion_lon": 0.0, "lat": 38.9333775, "bike_id": "87cd087c285fc522684b3527bf3589a9", "type": "electric_scooter", "is_reserved": 0, "lon": -77.0262995}, {"fusion_lat": 0.0, "name": "86e3ef410d145c6336d65af2998caee6", "is_disabled": 0, "rental_uris": {"android": "https://dc.lft.to/lastmile_qr_scan", "ios": "https://dc.lft.to/lastmile_qr_scan"}, "fusion_lon": 0.0, "lat": 38.91272466666667, "bike_id": "86e3ef410d145c6336d65af2998caee6", "type": "electric_scooter", "is_reserved": 0, "lon": -77.02000116666666}, {"fusion_lat": 0.0, "name": "419f8d6758e641a0854715f8723790bf", "is_disabled": 0, "rental_uris": {"android": "https://dc.lft.to/lastmile_qr_scan", "ios": "https://dc.lft.to/lastmile_qr_scan"}, "fusion_lon": 0.0, "lat": 38.89558433333333, "bike_id": "419f8d6758e641a0854715f8723790bf", "type": "electric_scooter", "is_reserved": 0, "lon": -77.021692}, {"fusion_lat": 0.0, "name": "b4f609653aa446ec3fba922f7646d690", "is_disabled": 0, "rental_uris": {"android": "https://dc.lft.to/lastmile_qr_scan", "ios": "https://dc.lft.to/lastmile_qr_scan"}, "fusion_lon": 0.0, "lat": 38.900344833333335, "bike_id": "b4f609653aa446ec3fba922f7646d690", "type": "electric_scooter", "is_reserved": 0, "lon": -76.98554916666667}, {"fusion_lat": 0.0, "name": "7bb80ff2e029f579a5b9a60c57ec1865", "is_disabled": 0, "rental_uris": {"android": "https://dc.lft.to/lastmile_qr_scan", "ios": "https://dc.lft.to/lastmile_qr_scan"}, "fusion_lon": 0.0, "lat": 38.943872, "bike_id": "7bb80ff2e029f579a5b9a60c57ec1865", "type": "electric_scooter", "is_reserved": 0, "lon": -77.09509783333333}, {"fusion_lat": 0.0, "name": "a3a6d0d8732b2caefc17c0cb17378b26", "is_disabled": 0, "rental_uris": {"android": "https://dc.lft.to/lastmile_qr_scan", "ios": "https://dc.lft.to/lastmile_qr_scan"}, "fusion_lon": 0.0, "lat": 38.94715566666667, "bike_id": "a3a6d0d8732b2caefc17c0cb17378b26", "type": "electric_scooter", "is_reserved": 0, "lon": -77.065528}, {"fusion_lat": 0.0, "name": "f0f3660bfa6451847b650ba07284fa27", "is_disabled": 0, "rental_uris": {"android": "https://dc.lft.to/lastmile_qr_scan", "ios": "https://dc.lft.to/lastmile_qr_scan"}, "fusion_lon": 0.0, "lat": 38.9119555, "bike_id": "f0f3660bfa6451847b650ba07284fa27", "type": "electric_scooter", "is_reserved": 0, "lon": -77.03858983333333}, {"fusion_lat": 0.0, "name": "6fdf3be006aea82b26657563ee9a433c", "is_disabled": 0, "rental_uris": {"android": "https://dc.lft.to/lastmile_qr_scan", "ios": "https://dc.lft.to/lastmile_qr_scan"}, "fusion_lon": 0.0, "lat": 38.90396233333333, "bike_id": "6fdf3be006aea82b26657563ee9a433c", "type": "electric_scooter", "is_reserved": 0, "lon": -77.06774283333333}, {"fusion_lat": 0.0, "name": "0f44ff2f9a4b3b9b738a34a09fa035fa", "is_disabled": 0, "rental_uris": {"android": "https://dc.lft.to/lastmile_qr_scan", "ios": "https://dc.lft.to/lastmile_qr_scan"}, "fusion_lon": 0.0, "lat": 38.9314175, "bike_id": "0f44ff2f9a4b3b9b738a34a09fa035fa", "type": "electric_bike", "is_reserved": 0, "lon": -77.00077433333334}, {"fusion_lat": 0.0, "name": "ddd0d2eff246cf0b33b748f2ba601ca0", "is_disabled": 0, "rental_uris": {"android": "https://dc.lft.to/lastmile_qr_scan", "ios": "https://dc.lft.to/lastmile_qr_scan"}, "fusion_lon": 0.0, "lat": 38.901173, "bike_id": "ddd0d2eff246cf0b33b748f2ba601ca0", "type": "electric_scooter", "is_reserved": 0, "lon": -77.04467833333334}, {"fusion_lat": 0.0, "name": "117db6cef66e3b77c4fe81164f9f1542", "is_disabled": 0, "rental_uris": {"android": "https://dc.lft.to/lastmile_qr_scan", "ios": "https://dc.lft.to/lastmile_qr_scan"}, "fusion_lon": 0.0, "lat": 38.92328783333333, "bike_id": "117db6cef66e3b77c4fe81164f9f1542", "type": "electric_scooter", "is_reserved": 0, "lon": -77.05694066666666}, {"fusion_lat": 0.0, "name": "a71d4646e9740c4258ff3ed4d4103639", "is_disabled": 0, "rental_uris": {"android": "https://dc.lft.to/lastmile_qr_scan", "ios": "https://dc.lft.to/lastmile_qr_scan"}, "fusion_lon": 0.0, "lat": 38.91915233333334, "bike_id": "a71d4646e9740c4258ff3ed4d4103639", "type": "electric_scooter", "is_reserved": 0, "lon": -77.03427683333334}, {"fusion_lat": 0.0, "name": "519c0fa6cad702b399e45dc5134b4211", "is_disabled": 0, "rental_uris": {"android": "https://dc.lft.to/lastmile_qr_scan", "ios": "https://dc.lft.to/lastmile_qr_scan"}, "fusion_lon": 0.0, "lat": 38.920964, "bike_id": "519c0fa6cad702b399e45dc5134b4211", "type": "electric_scooter", "is_reserved": 0, "lon": -77.02523416666666}, {"fusion_lat": 0.0, "name": "6c44b3cd74d544f4f4521d7a0899a173", "is_disabled": 0, "rental_uris": {"android": "https://dc.lft.to/lastmile_qr_scan", "ios": "https://dc.lft.to/lastmile_qr_scan"}, "fusion_lon": 0.0, "lat": 38.8834125, "bike_id": "6c44b3cd74d544f4f4521d7a0899a173", "type": "electric_scooter", "is_reserved": 0, "lon": -76.93499616666666}, {"fusion_lat": 0.0, "name": "ccaf4277e5f7f6dc644b3c23afa3e799", "is_disabled": 0, "rental_uris": {"android": "https://dc.lft.to/lastmile_qr_scan", "ios": "https://dc.lft.to/lastmile_qr_scan"}, "fusion_lon": 0.0, "lat": 38.842972833333334, "bike_id": "ccaf4277e5f7f6dc644b3c23afa3e799", "type": "electric_bike", "is_reserved": 0, "lon": -77.10876216666666}, {"fusion_lat": 0.0, "name": "5395a2c0a01838ed648261c3ae101b10", "is_disabled": 0, "rental_uris": {"android": "https://dc.lft.to/lastmile_qr_scan", "ios": "https://dc.lft.to/lastmile_qr_scan"}, "fusion_lon": 0.0, "lat": 38.918180166666666, "bike_id": "5395a2c0a01838ed648261c3ae101b10", "type": "electric_scooter", "is_reserved": 0, "lon": -77.03266566666667}, {"fusion_lat": 0.0, "name": "33e5235baaca073da3530cfa74cf4799", "is_disabled": 0, "rental_uris": {"android": "https://dc.lft.to/lastmile_qr_scan", "ios": "https://dc.lft.to/lastmile_qr_scan"}, "fusion_lon": 0.0, "lat": 38.913984, "bike_id": "33e5235baaca073da3530cfa74cf4799", "type": "electric_scooter", "is_reserved": 0, "lon": -77.008469}, {"fusion_lat": 0.0, "name": "35b40b3b9d1940ada91e42b59e79b688", "is_disabled": 0, "rental_uris": {"android": "https://dc.lft.to/lastmile_qr_scan", "ios": "https://dc.lft.to/lastmile_qr_scan"}, "fusion_lon": 0.0, "lat": 38.9440485, "bike_id": "35b40b3b9d1940ada91e42b59e79b688", "type": "electric_scooter", "is_reserved": 0, "lon": -77.038658}, {"fusion_lat": 0.0, "name": "89c5fef73a8a828abd78e0d909b687fc", "is_disabled": 0, "rental_uris": {"android": "https://dc.lft.to/lastmile_qr_scan", "ios": "https://dc.lft.to/lastmile_qr_scan"}, "fusion_lon": 0.0, "lat": 38.947325666666664, "bike_id": "89c5fef73a8a828abd78e0d909b687fc", "type": "electric_scooter", "is_reserved": 0, "lon": -77.01618416666666}, {"fusion_lat": 0.0, "name": "d284a14d7882337b46206ef64a8ea1f7", "is_disabled": 0, "rental_uris": {"android": "https://dc.lft.to/lastmile_qr_scan", "ios": "https://dc.lft.to/lastmile_qr_scan"}, "fusion_lon": 0.0, "lat": 38.9043905, "bike_id": "d284a14d7882337b46206ef64a8ea1f7", "type": "electric_scooter", "is_reserved": 0, "lon": -77.06013616666667}, {"fusion_lat": 0.0, "name": "079590b67a7cd2db74ac1e5cef87b023", "is_disabled": 0, "rental_uris": {"android": "https://dc.lft.to/lastmile_qr_scan", "ios": "https://dc.lft.to/lastmile_qr_scan"}, "fusion_lon": 0.0, "lat": 38.896136, "bike_id": "079590b67a7cd2db74ac1e5cef87b023", "type": "electric_scooter", "is_reserved": 0, "lon": -77.00952283333334}, {"fusion_lat": 0.0, "name": "b2b1779b4c175a188dce40302218a8c6", "is_disabled": 0, "rental_uris": {"android": "https://dc.lft.to/lastmile_qr_scan", "ios": "https://dc.lft.to/lastmile_qr_scan"}, "fusion_lon": 0.0, "lat": 38.8801775, "bike_id": "b2b1779b4c175a188dce40302218a8c6", "type": "electric_scooter", "is_reserved": 0, "lon": -76.9311485}, {"fusion_lat": 0.0, "name": "bf6cdf512540d13568863a7bb57ab526", "is_disabled": 0, "rental_uris": {"android": "https://dc.lft.to/lastmile_qr_scan", "ios": "https://dc.lft.to/lastmile_qr_scan"}, "fusion_lon": 0.0, "lat": 38.921078666666666, "bike_id": "bf6cdf512540d13568863a7bb57ab526", "type": "electric_scooter", "is_reserved": 0, "lon": -77.06336333333333}, {"fusion_lat": 0.0, "name": "c442fce7d3436bd8dd29d710d3721eda", "is_disabled": 0, "rental_uris": {"android": "https://dc.lft.to/lastmile_qr_scan", "ios": "https://dc.lft.to/lastmile_qr_scan"}, "fusion_lon": 0.0, "lat": 38.82455566666667, "bike_id": "c442fce7d3436bd8dd29d710d3721eda", "type": "electric_bike", "is_reserved": 0, "lon": -77.007971}, {"fusion_lat": 0.0, "name": "3ab45abaff7097b37bb8bd998aad4c1c", "is_disabled": 0, "rental_uris": {"android": "https://dc.lft.to/lastmile_qr_scan", "ios": "https://dc.lft.to/lastmile_qr_scan"}, "fusion_lon": 0.0, "lat": 38.91768533333333, "bike_id": "3ab45abaff7097b37bb8bd998aad4c1c", "type": "electric_scooter", "is_reserved": 0, "lon": -77.02809283333333}, {"fusion_lat": 0.0, "name": "41bbadb0b6aa14e7bd457478be897034", "is_disabled": 0, "rental_uris": {"android": "https://dc.lft.to/lastmile_qr_scan", "ios": "https://dc.lft.to/lastmile_qr_scan"}, "fusion_lon": 0.0, "lat": 38.902679666666664, "bike_id": "41bbadb0b6aa14e7bd457478be897034", "type": "electric_scooter", "is_reserved": 0, "lon": -77.03970716666667}, {"fusion_lat": 0.0, "name": "da28a90ea8ec3d5823c1c595d41a9396", "is_disabled": 0, "rental_uris": {"android": "https://dc.lft.to/lastmile_qr_scan", "ios": "https://dc.lft.to/lastmile_qr_scan"}, "fusion_lon": 0.0, "lat": 38.929633, "bike_id": "da28a90ea8ec3d5823c1c595d41a9396", "type": "electric_scooter", "is_reserved": 0, "lon": -77.0197425}, {"fusion_lat": 0.0, "name": "6da4383f6ea7301bed0a5110d02b0a19", "is_disabled": 0, "rental_uris": {"android": "https://dc.lft.to/lastmile_qr_scan", "ios": "https://dc.lft.to/lastmile_qr_scan"}, "fusion_lon": 0.0, "lat": 38.89915583333333, "bike_id": "6da4383f6ea7301bed0a5110d02b0a19", "type": "electric_scooter", "is_reserved": 0, "lon": -76.94549383333333}, {"fusion_lat": 0.0, "name": "7ca89d7066194725d527058d5508d90c", "is_disabled": 0, "rental_uris": {"android": "https://dc.lft.to/lastmile_qr_scan", "ios": "https://dc.lft.to/lastmile_qr_scan"}, "fusion_lon": 0.0, "lat": 38.900999666666664, "bike_id": "7ca89d7066194725d527058d5508d90c", "type": "electric_scooter", "is_reserved": 0, "lon": -76.93050266666667}, {"fusion_lat": 0.0, "name": "c9494c97575649c3e5a47cf3c2580324", "is_disabled": 0, "rental_uris": {"android": "https://dc.lft.to/lastmile_qr_scan", "ios": "https://dc.lft.to/lastmile_qr_scan"}, "fusion_lon": 0.0, "lat": 38.87661816666667, "bike_id": "c9494c97575649c3e5a47cf3c2580324", "type": "electric_scooter", "is_reserved": 0, "lon": -77.00339033333333}, {"fusion_lat": 0.0, "name": "649f4118d5b3af97c4bbcfcfeee8a0c8", "is_disabled": 0, "rental_uris": {"android": "https://dc.lft.to/lastmile_qr_scan", "ios": "https://dc.lft.to/lastmile_qr_scan"}, "fusion_lon": 0.0, "lat": 38.91110666666667, "bike_id": "649f4118d5b3af97c4bbcfcfeee8a0c8", "type": "electric_scooter", "is_reserved": 0, "lon": -77.03164933333333}, {"fusion_lat": 0.0, "name": "47bb59a5290007fbe55928a2dd0d5256", "is_disabled": 0, "rental_uris": {"android": "https://dc.lft.to/lastmile_qr_scan", "ios": "https://dc.lft.to/lastmile_qr_scan"}, "fusion_lon": 0.0, "lat": 38.923164166666666, "bike_id": "47bb59a5290007fbe55928a2dd0d5256", "type": "electric_scooter", "is_reserved": 0, "lon": -77.04039766666666}, {"fusion_lat": 0.0, "name": "480d51c94ecf4d6d3b97d34f5a8486cd", "is_disabled": 0, "rental_uris": {"android": "https://dc.lft.to/lastmile_qr_scan", "ios": "https://dc.lft.to/lastmile_qr_scan"}, "fusion_lon": 0.0, "lat": 38.9233975, "bike_id": "480d51c94ecf4d6d3b97d34f5a8486cd", "type": "electric_scooter", "is_reserved": 0, "lon": -77.052265}, {"fusion_lat": 0.0, "name": "3d913f87f2e7440f235e8a0f592674d5", "is_disabled": 0, "rental_uris": {"android": "https://dc.lft.to/lastmile_qr_scan", "ios": "https://dc.lft.to/lastmile_qr_scan"}, "fusion_lon": 0.0, "lat": 38.9034635, "bike_id": "3d913f87f2e7440f235e8a0f592674d5", "type": "electric_scooter", "is_reserved": 0, "lon": -76.97479516666667}, {"fusion_lat": 0.0, "name": "142aafb35db4ff46affd8cdfe17479f2", "is_disabled": 0, "rental_uris": {"android": "https://dc.lft.to/lastmile_qr_scan", "ios": "https://dc.lft.to/lastmile_qr_scan"}, "fusion_lon": 0.0, "lat": 38.931764333333334, "bike_id": "142aafb35db4ff46affd8cdfe17479f2", "type": "electric_scooter", "is_reserved": 0, "lon": -77.02007483333334}, {"fusion_lat": 0.0, "name": "23922272a51ff4d5dd2f4371a522fc80", "is_disabled": 0, "rental_uris": {"android": "https://dc.lft.to/lastmile_qr_scan", "ios": "https://dc.lft.to/lastmile_qr_scan"}, "fusion_lon": 0.0, "lat": 38.907805833333335, "bike_id": "23922272a51ff4d5dd2f4371a522fc80", "type": "electric_scooter", "is_reserved": 0, "lon": -77.04267033333333}, {"fusion_lat": 0.0, "name": "55bf5413d8f37ea3dc816eaaa60ef291", "is_disabled": 0, "rental_uris": {"android": "https://dc.lft.to/lastmile_qr_scan", "ios": "https://dc.lft.to/lastmile_qr_scan"}, "fusion_lon": 0.0, "lat": 38.922399666666664, "bike_id": "55bf5413d8f37ea3dc816eaaa60ef291", "type": "electric_scooter", "is_reserved": 0, "lon": -77.03906733333334}, {"fusion_lat": 0.0, "name": "984321105a626ae8f787e9e40a8b4302", "is_disabled": 0, "rental_uris": {"android": "https://dc.lft.to/lastmile_qr_scan", "ios": "https://dc.lft.to/lastmile_qr_scan"}, "fusion_lon": 0.0, "lat": 38.924515, "bike_id": "984321105a626ae8f787e9e40a8b4302", "type": "electric_scooter", "is_reserved": 0, "lon": -77.02078266666666}, {"fusion_lat": 0.0, "name": "a99fc472d1878f379e7cb74cac0ae949", "is_disabled": 0, "rental_uris": {"android": "https://dc.lft.to/lastmile_qr_scan", "ios": "https://dc.lft.to/lastmile_qr_scan"}, "fusion_lon": 0.0, "lat": 38.877294, "bike_id": "a99fc472d1878f379e7cb74cac0ae949", "type": "electric_scooter", "is_reserved": 0, "lon": -77.02132166666667}, {"fusion_lat": 0.0, "name": "35943f764aa44270ba7b04e091282ebc", "is_disabled": 0, "rental_uris": {"android": "https://dc.lft.to/lastmile_qr_scan", "ios": "https://dc.lft.to/lastmile_qr_scan"}, "fusion_lon": 0.0, "lat": 38.923212666666664, "bike_id": "35943f764aa44270ba7b04e091282ebc", "type": "electric_scooter", "is_reserved": 0, "lon": -77.03549166666667}, {"fusion_lat": 0.0, "name": "5c6a136a133d8475a7f9d7bea06919ee", "is_disabled": 0, "rental_uris": {"android": "https://dc.lft.to/lastmile_qr_scan", "ios": "https://dc.lft.to/lastmile_qr_scan"}, "fusion_lon": 0.0, "lat": 38.879809, "bike_id": "5c6a136a133d8475a7f9d7bea06919ee", "type": "electric_scooter", "is_reserved": 0, "lon": -76.98387366666667}, {"fusion_lat": 0.0, "name": "76706a13f47df1c6f2ed302bba253b70", "is_disabled": 0, "rental_uris": {"android": "https://dc.lft.to/lastmile_qr_scan", "ios": "https://dc.lft.to/lastmile_qr_scan"}, "fusion_lon": 0.0, "lat": 38.89724266666666, "bike_id": "76706a13f47df1c6f2ed302bba253b70", "type": "electric_scooter", "is_reserved": 0, "lon": -77.02462516666667}, {"fusion_lat": 0.0, "name": "5238217f2528cb0ad405aeeb31d65f68", "is_disabled": 0, "rental_uris": {"android": "https://dc.lft.to/lastmile_qr_scan", "ios": "https://dc.lft.to/lastmile_qr_scan"}, "fusion_lon": 0.0, "lat": 38.90389116666667, "bike_id": "5238217f2528cb0ad405aeeb31d65f68", "type": "electric_scooter", "is_reserved": 0, "lon": -77.01797866666666}, {"fusion_lat": 0.0, "name": "5f906e7d138cd59c19f9564600f52463", "is_disabled": 0, "rental_uris": {"android": "https://dc.lft.to/lastmile_qr_scan", "ios": "https://dc.lft.to/lastmile_qr_scan"}, "fusion_lon": 0.0, "lat": 38.89972083333333, "bike_id": "5f906e7d138cd59c19f9564600f52463", "type": "electric_scooter", "is_reserved": 0, "lon": -77.05270716666666}, {"fusion_lat": 0.0, "name": "16583a01a7a9a56159bba7498592b72f", "is_disabled": 0, "rental_uris": {"android": "https://dc.lft.to/lastmile_qr_scan", "ios": "https://dc.lft.to/lastmile_qr_scan"}, "fusion_lon": 0.0, "lat": 38.93079983333333, "bike_id": "16583a01a7a9a56159bba7498592b72f", "type": "electric_scooter", "is_reserved": 0, "lon": -77.02004883333333}, {"fusion_lat": 0.0, "name": "4b387fb448b256750d5e9ed0402cc3a8", "is_disabled": 0, "rental_uris": {"android": "https://dc.lft.to/lastmile_qr_scan", "ios": "https://dc.lft.to/lastmile_qr_scan"}, "fusion_lon": 0.0, "lat": 38.9346425, "bike_id": "4b387fb448b256750d5e9ed0402cc3a8", "type": "electric_scooter", "is_reserved": 0, "lon": -77.0412145}, {"fusion_lat": 0.0, "name": "70f111f49dbd36d53e8171756607bfec", "is_disabled": 0, "rental_uris": {"android": "https://dc.lft.to/lastmile_qr_scan", "ios": "https://dc.lft.to/lastmile_qr_scan"}, "fusion_lon": 0.0, "lat": 38.88363566666666, "bike_id": "70f111f49dbd36d53e8171756607bfec", "type": "electric_scooter", "is_reserved": 0, "lon": -76.94156966666667}, {"fusion_lat": 0.0, "name": "85207361e07f9cd7ed076e22ff7f8c74", "is_disabled": 0, "rental_uris": {"android": "https://dc.lft.to/lastmile_qr_scan", "ios": "https://dc.lft.to/lastmile_qr_scan"}, "fusion_lon": 0.0, "lat": 38.901499666666666, "bike_id": "85207361e07f9cd7ed076e22ff7f8c74", "type": "electric_scooter", "is_reserved": 0, "lon": -77.05915633333333}, {"fusion_lat": 0.0, "name": "356cb5a0bc33f4b0bdd6680d62d7e644", "is_disabled": 0, "rental_uris": {"android": "https://dc.lft.to/lastmile_qr_scan", "ios": "https://dc.lft.to/lastmile_qr_scan"}, "fusion_lon": 0.0, "lat": 38.917060166666666, "bike_id": "356cb5a0bc33f4b0bdd6680d62d7e644", "type": "electric_scooter", "is_reserved": 0, "lon": -77.03230733333334}, {"fusion_lat": 0.0, "name": "f447915a73987558f9dc14ee8fb57f84", "is_disabled": 0, "rental_uris": {"android": "https://dc.lft.to/lastmile_qr_scan", "ios": "https://dc.lft.to/lastmile_qr_scan"}, "fusion_lon": 0.0, "lat": 38.92045383333333, "bike_id": "f447915a73987558f9dc14ee8fb57f84", "type": "electric_bike", "is_reserved": 0, "lon": -76.99824633333333}, {"fusion_lat": 0.0, "name": "040e0417f3f7aa170a70165ac2f683e1", "is_disabled": 0, "rental_uris": {"android": "https://dc.lft.to/lastmile_qr_scan", "ios": "https://dc.lft.to/lastmile_qr_scan"}, "fusion_lon": 0.0, "lat": 38.915847166666666, "bike_id": "040e0417f3f7aa170a70165ac2f683e1", "type": "electric_scooter", "is_reserved": 0, "lon": -76.98386283333333}, {"fusion_lat": 0.0, "name": "aa70df1fbf9deb5b36e74237e76a46ab", "is_disabled": 0, "rental_uris": {"android": "https://dc.lft.to/lastmile_qr_scan", "ios": "https://dc.lft.to/lastmile_qr_scan"}, "fusion_lon": 0.0, "lat": 38.90354933333333, "bike_id": "aa70df1fbf9deb5b36e74237e76a46ab", "type": "electric_scooter", "is_reserved": 0, "lon": -77.035537}, {"fusion_lat": 0.0, "name": "a8041e416928bba608540ecf77af0e12", "is_disabled": 0, "rental_uris": {"android": "https://dc.lft.to/lastmile_qr_scan", "ios": "https://dc.lft.to/lastmile_qr_scan"}, "fusion_lon": 0.0, "lat": 38.9450135, "bike_id": "a8041e416928bba608540ecf77af0e12", "type": "electric_scooter", "is_reserved": 0, "lon": -77.031512}, {"fusion_lat": 0.0, "name": "81bbc52e93c73036564f3a6c555619ba", "is_disabled": 0, "rental_uris": {"android": "https://dc.lft.to/lastmile_qr_scan", "ios": "https://dc.lft.to/lastmile_qr_scan"}, "fusion_lon": 0.0, "lat": 38.93128216666667, "bike_id": "81bbc52e93c73036564f3a6c555619ba", "type": "electric_bike", "is_reserved": 0, "lon": -77.01979666666666}, {"fusion_lat": 0.0, "name": "f5b02ec00988745bbebbaebdbbb8f74c", "is_disabled": 0, "rental_uris": {"android": "https://dc.lft.to/lastmile_qr_scan", "ios": "https://dc.lft.to/lastmile_qr_scan"}, "fusion_lon": 0.0, "lat": 38.900288333333336, "bike_id": "f5b02ec00988745bbebbaebdbbb8f74c", "type": "electric_scooter", "is_reserved": 0, "lon": -77.03325866666667}, {"fusion_lat": 0.0, "name": "3533acc23a80398dc99f4ec7c25a76cd", "is_disabled": 0, "rental_uris": {"android": "https://dc.lft.to/lastmile_qr_scan", "ios": "https://dc.lft.to/lastmile_qr_scan"}, "fusion_lon": 0.0, "lat": 38.8434945, "bike_id": "3533acc23a80398dc99f4ec7c25a76cd", "type": "electric_bike", "is_reserved": 0, "lon": -76.97824683333333}, {"fusion_lat": 0.0, "name": "579305424b5132219c277d0cf08fdbd2", "is_disabled": 0, "rental_uris": {"android": "https://dc.lft.to/lastmile_qr_scan", "ios": "https://dc.lft.to/lastmile_qr_scan"}, "fusion_lon": 0.0, "lat": 38.90374933333333, "bike_id": "579305424b5132219c277d0cf08fdbd2", "type": "electric_scooter", "is_reserved": 0, "lon": -77.03843816666667}, {"fusion_lat": 0.0, "name": "5edb4e7888698e8f9a073a529bff81a3", "is_disabled": 0, "rental_uris": {"android": "https://dc.lft.to/lastmile_qr_scan", "ios": "https://dc.lft.to/lastmile_qr_scan"}, "fusion_lon": 0.0, "lat": 38.923449833333336, "bike_id": "5edb4e7888698e8f9a073a529bff81a3", "type": "electric_scooter", "is_reserved": 0, "lon": -77.0522995}, {"fusion_lat": 0.0, "name": "f136ab9d05a5e55d62925e0719745ece", "is_disabled": 0, "rental_uris": {"android": "https://dc.lft.to/lastmile_qr_scan", "ios": "https://dc.lft.to/lastmile_qr_scan"}, "fusion_lon": 0.0, "lat": 38.896754333333334, "bike_id": "f136ab9d05a5e55d62925e0719745ece", "type": "electric_scooter", "is_reserved": 0, "lon": -77.02493116666666}, {"fusion_lat": 0.0, "name": "b2744de8f5dc7aab3aaee3a94057a22e", "is_disabled": 0, "rental_uris": {"android": "https://dc.lft.to/lastmile_qr_scan", "ios": "https://dc.lft.to/lastmile_qr_scan"}, "fusion_lon": 0.0, "lat": 38.8992375, "bike_id": "b2744de8f5dc7aab3aaee3a94057a22e", "type": "electric_scooter", "is_reserved": 0, "lon": -77.0296115}, {"fusion_lat": 0.0, "name": "34191899a49e95f0ea0af240bb3e1e55", "is_disabled": 0, "rental_uris": {"android": "https://dc.lft.to/lastmile_qr_scan", "ios": "https://dc.lft.to/lastmile_qr_scan"}, "fusion_lon": 0.0, "lat": 38.865638, "bike_id": "34191899a49e95f0ea0af240bb3e1e55", "type": "electric_bike", "is_reserved": 0, "lon": -76.97335833333334}, {"fusion_lat": 0.0, "name": "7825637dfff3800263d35b4224b2a07d", "is_disabled": 0, "rental_uris": {"android": "https://dc.lft.to/lastmile_qr_scan", "ios": "https://dc.lft.to/lastmile_qr_scan"}, "fusion_lon": 0.0, "lat": 38.8331055, "bike_id": "7825637dfff3800263d35b4224b2a07d", "type": "electric_bike", "is_reserved": 0, "lon": -77.04184983333333}, {"fusion_lat": 0.0, "name": "267230d9ec9bd708d074ce0b5530adca", "is_disabled": 0, "rental_uris": {"android": "https://dc.lft.to/lastmile_qr_scan", "ios": "https://dc.lft.to/lastmile_qr_scan"}, "fusion_lon": 0.0, "lat": 38.92508266666667, "bike_id": "267230d9ec9bd708d074ce0b5530adca", "type": "electric_scooter", "is_reserved": 0, "lon": -77.03814833333334}, {"fusion_lat": 0.0, "name": "48416c45ef9e2427d35511d1e8277630", "is_disabled": 0, "rental_uris": {"android": "https://dc.lft.to/lastmile_qr_scan", "ios": "https://dc.lft.to/lastmile_qr_scan"}, "fusion_lon": 0.0, "lat": 38.90065166666667, "bike_id": "48416c45ef9e2427d35511d1e8277630", "type": "electric_scooter", "is_reserved": 0, "lon": -77.01625883333334}, {"fusion_lat": 0.0, "name": "7b4cc7d43ee1392a85f0b8cfe0b1dccd", "is_disabled": 0, "rental_uris": {"android": "https://dc.lft.to/lastmile_qr_scan", "ios": "https://dc.lft.to/lastmile_qr_scan"}, "fusion_lon": 0.0, "lat": 38.91364133333333, "bike_id": "7b4cc7d43ee1392a85f0b8cfe0b1dccd", "type": "electric_scooter", "is_reserved": 0, "lon": -77.02058516666666}, {"fusion_lat": 0.0, "name": "185fce2e47f533fa233154dab791b1c3", "is_disabled": 0, "rental_uris": {"android": "https://dc.lft.to/lastmile_qr_scan", "ios": "https://dc.lft.to/lastmile_qr_scan"}, "fusion_lon": 0.0, "lat": 38.945357333333334, "bike_id": "185fce2e47f533fa233154dab791b1c3", "type": "electric_scooter", "is_reserved": 0, "lon": -77.01693733333333}, {"fusion_lat": 0.0, "name": "ab6e6a61a6c89b438d95f90943ebe14c", "is_disabled": 0, "rental_uris": {"android": "https://dc.lft.to/lastmile_qr_scan", "ios": "https://dc.lft.to/lastmile_qr_scan"}, "fusion_lon": 0.0, "lat": 38.878964833333335, "bike_id": "ab6e6a61a6c89b438d95f90943ebe14c", "type": "electric_scooter", "is_reserved": 0, "lon": -77.0057055}, {"fusion_lat": 0.0, "name": "b30247601c1ad6d630df9e98c65faa5c", "is_disabled": 0, "rental_uris": {"android": "https://dc.lft.to/lastmile_qr_scan", "ios": "https://dc.lft.to/lastmile_qr_scan"}, "fusion_lon": 0.0, "lat": 38.9280895, "bike_id": "b30247601c1ad6d630df9e98c65faa5c", "type": "electric_scooter", "is_reserved": 0, "lon": -77.04336416666666}, {"fusion_lat": 0.0, "name": "3a2b4b8ec789a8000a1f6edaea87a910", "is_disabled": 0, "rental_uris": {"android": "https://dc.lft.to/lastmile_qr_scan", "ios": "https://dc.lft.to/lastmile_qr_scan"}, "fusion_lon": 0.0, "lat": 38.915222666666665, "bike_id": "3a2b4b8ec789a8000a1f6edaea87a910", "type": "electric_scooter", "is_reserved": 0, "lon": -77.01987216666667}, {"fusion_lat": 0.0, "name": "3146a1cd5e96e8dd2529cf1c98e80852", "is_disabled": 0, "rental_uris": {"android": "https://dc.lft.to/lastmile_qr_scan", "ios": "https://dc.lft.to/lastmile_qr_scan"}, "fusion_lon": 0.0, "lat": 38.90061333333333, "bike_id": "3146a1cd5e96e8dd2529cf1c98e80852", "type": "electric_scooter", "is_reserved": 0, "lon": -76.93386333333333}, {"fusion_lat": 0.0, "name": "e14091182cace6a75d566d6cc93de83e", "is_disabled": 0, "rental_uris": {"android": "https://dc.lft.to/lastmile_qr_scan", "ios": "https://dc.lft.to/lastmile_qr_scan"}, "fusion_lon": 0.0, "lat": 38.89224933333333, "bike_id": "e14091182cace6a75d566d6cc93de83e", "type": "electric_scooter", "is_reserved": 0, "lon": -77.043252}, {"fusion_lat": 0.0, "name": "0c729ab3bb22b09d7327d80a79243971", "is_disabled": 0, "rental_uris": {"android": "https://dc.lft.to/lastmile_qr_scan", "ios": "https://dc.lft.to/lastmile_qr_scan"}, "fusion_lon": 0.0, "lat": 38.835194, "bike_id": "0c729ab3bb22b09d7327d80a79243971", "type": "electric_bike", "is_reserved": 0, "lon": -76.98673683333334}, {"fusion_lat": 0.0, "name": "1cac6a86f27bae3ac2a8cf3b29c5a73e", "is_disabled": 0, "rental_uris": {"android": "https://dc.lft.to/lastmile_qr_scan", "ios": "https://dc.lft.to/lastmile_qr_scan"}, "fusion_lon": 0.0, "lat": 38.9469295, "bike_id": "1cac6a86f27bae3ac2a8cf3b29c5a73e", "type": "electric_scooter", "is_reserved": 0, "lon": -77.07929983333334}, {"fusion_lat": 0.0, "name": "0bd3608dcc8d35949f1664766bebfd9c", "is_disabled": 0, "rental_uris": {"android": "https://dc.lft.to/lastmile_qr_scan", "ios": "https://dc.lft.to/lastmile_qr_scan"}, "fusion_lon": 0.0, "lat": 38.93413, "bike_id": "0bd3608dcc8d35949f1664766bebfd9c", "type": "electric_scooter", "is_reserved": 0, "lon": -77.02398766666667}, {"fusion_lat": 0.0, "name": "6bed87de9fe626b01f07aec84b00dafe", "is_disabled": 0, "rental_uris": {"android": "https://dc.lft.to/lastmile_qr_scan", "ios": "https://dc.lft.to/lastmile_qr_scan"}, "fusion_lon": 0.0, "lat": 38.90692, "bike_id": "6bed87de9fe626b01f07aec84b00dafe", "type": "electric_scooter", "is_reserved": 0, "lon": -77.06903466666667}, {"fusion_lat": 0.0, "name": "fe904c821186a3bb0eb7208d9c3871cf", "is_disabled": 0, "rental_uris": {"android": "https://dc.lft.to/lastmile_qr_scan", "ios": "https://dc.lft.to/lastmile_qr_scan"}, "fusion_lon": 0.0, "lat": 38.9427005, "bike_id": "fe904c821186a3bb0eb7208d9c3871cf", "type": "electric_scooter", "is_reserved": 0, "lon": -77.0326215}, {"fusion_lat": 0.0, "name": "dcb716b8e5c0695f1fd0a536c4e52478", "is_disabled": 0, "rental_uris": {"android": "https://dc.lft.to/lastmile_qr_scan", "ios": "https://dc.lft.to/lastmile_qr_scan"}, "fusion_lon": 0.0, "lat": 38.90674216666667, "bike_id": "dcb716b8e5c0695f1fd0a536c4e52478", "type": "electric_scooter", "is_reserved": 0, "lon": -77.07213016666667}, {"fusion_lat": 0.0, "name": "8445df1062f2520abc5f93794caf4073", "is_disabled": 0, "rental_uris": {"android": "https://dc.lft.to/lastmile_qr_scan", "ios": "https://dc.lft.to/lastmile_qr_scan"}, "fusion_lon": 0.0, "lat": 38.914263166666665, "bike_id": "8445df1062f2520abc5f93794caf4073", "type": "electric_scooter", "is_reserved": 0, "lon": -77.02208216666666}, {"fusion_lat": 0.0, "name": "3099b234a34138948b93144ec0e45ba1", "is_disabled": 0, "rental_uris": {"android": "https://dc.lft.to/lastmile_qr_scan", "ios": "https://dc.lft.to/lastmile_qr_scan"}, "fusion_lon": 0.0, "lat": 38.897253666666664, "bike_id": "3099b234a34138948b93144ec0e45ba1", "type": "electric_scooter", "is_reserved": 0, "lon": -77.01917233333333}, {"fusion_lat": 0.0, "name": "2d2d5c2be2f912bf234be39827f41414", "is_disabled": 0, "rental_uris": {"android": "https://dc.lft.to/lastmile_qr_scan", "ios": "https://dc.lft.to/lastmile_qr_scan"}, "fusion_lon": 0.0, "lat": 38.90908316666667, "bike_id": "2d2d5c2be2f912bf234be39827f41414", "type": "electric_scooter", "is_reserved": 0, "lon": -77.027135}, {"fusion_lat": 0.0, "name": "50c05e17666198dc1dc0d04224f89208", "is_disabled": 0, "rental_uris": {"android": "https://dc.lft.to/lastmile_qr_scan", "ios": "https://dc.lft.to/lastmile_qr_scan"}, "fusion_lon": 0.0, "lat": 38.900331, "bike_id": "50c05e17666198dc1dc0d04224f89208", "type": "electric_scooter", "is_reserved": 0, "lon": -76.99153783333334}, {"fusion_lat": 0.0, "name": "8c7a2e0b5c282eff7c716f2c3a0e84e2", "is_disabled": 0, "rental_uris": {"android": "https://dc.lft.to/lastmile_qr_scan", "ios": "https://dc.lft.to/lastmile_qr_scan"}, "fusion_lon": 0.0, "lat": 38.902438833333335, "bike_id": "8c7a2e0b5c282eff7c716f2c3a0e84e2", "type": "electric_scooter", "is_reserved": 0, "lon": -77.04350816666667}, {"fusion_lat": 0.0, "name": "fa45f20b472a26c7fcc3cbc156f49763", "is_disabled": 0, "rental_uris": {"android": "https://dc.lft.to/lastmile_qr_scan", "ios": "https://dc.lft.to/lastmile_qr_scan"}, "fusion_lon": 0.0, "lat": 38.897390333333334, "bike_id": "fa45f20b472a26c7fcc3cbc156f49763", "type": "electric_scooter", "is_reserved": 0, "lon": -77.00364783333333}, {"fusion_lat": 0.0, "name": "f144733086739e8774c469109ff4177b", "is_disabled": 0, "rental_uris": {"android": "https://dc.lft.to/lastmile_qr_scan", "ios": "https://dc.lft.to/lastmile_qr_scan"}, "fusion_lon": 0.0, "lat": 38.903647666666664, "bike_id": "f144733086739e8774c469109ff4177b", "type": "electric_scooter", "is_reserved": 0, "lon": -77.01736633333333}, {"fusion_lat": 0.0, "name": "e169a25efe86e0fe5843f8b7f5a2a327", "is_disabled": 0, "rental_uris": {"android": "https://dc.lft.to/lastmile_qr_scan", "ios": "https://dc.lft.to/lastmile_qr_scan"}, "fusion_lon": 0.0, "lat": 38.914019833333334, "bike_id": "e169a25efe86e0fe5843f8b7f5a2a327", "type": "electric_scooter", "is_reserved": 0, "lon": -77.04001766666667}, {"fusion_lat": 0.0, "name": "33a745c07623ca8d3cefb11463b77cc9", "is_disabled": 0, "rental_uris": {"android": "https://dc.lft.to/lastmile_qr_scan", "ios": "https://dc.lft.to/lastmile_qr_scan"}, "fusion_lon": 0.0, "lat": 38.922346166666664, "bike_id": "33a745c07623ca8d3cefb11463b77cc9", "type": "electric_scooter", "is_reserved": 0, "lon": -77.0426435}, {"fusion_lat": 0.0, "name": "11aebeb81c2ca16351b0b29f9d1bec0d", "is_disabled": 0, "rental_uris": {"android": "https://dc.lft.to/lastmile_qr_scan", "ios": "https://dc.lft.to/lastmile_qr_scan"}, "fusion_lon": 0.0, "lat": 38.923617, "bike_id": "11aebeb81c2ca16351b0b29f9d1bec0d", "type": "electric_scooter", "is_reserved": 0, "lon": -77.05029933333333}, {"fusion_lat": 0.0, "name": "b8c8b1b3bd28a22bc90b9dd99907ddd2", "is_disabled": 0, "rental_uris": {"android": "https://dc.lft.to/lastmile_qr_scan", "ios": "https://dc.lft.to/lastmile_qr_scan"}, "fusion_lon": 0.0, "lat": 38.90469733333333, "bike_id": "b8c8b1b3bd28a22bc90b9dd99907ddd2", "type": "electric_scooter", "is_reserved": 0, "lon": -77.0486185}, {"fusion_lat": 0.0, "name": "9815c6b9acc5cf304d82375546656728", "is_disabled": 0, "rental_uris": {"android": "https://dc.lft.to/lastmile_qr_scan", "ios": "https://dc.lft.to/lastmile_qr_scan"}, "fusion_lon": 0.0, "lat": 38.927441, "bike_id": "9815c6b9acc5cf304d82375546656728", "type": "electric_scooter", "is_reserved": 0, "lon": -77.03242066666667}, {"fusion_lat": 0.0, "name": "0fb9c0d9115467a3f43e3d1bdb73cb28", "is_disabled": 0, "rental_uris": {"android": "https://dc.lft.to/lastmile_qr_scan", "ios": "https://dc.lft.to/lastmile_qr_scan"}, "fusion_lon": 0.0, "lat": 38.89222933333333, "bike_id": "0fb9c0d9115467a3f43e3d1bdb73cb28", "type": "electric_scooter", "is_reserved": 0, "lon": -77.043265}, {"fusion_lat": 0.0, "name": "90b01223cae2eea6fa3f7b344117650f", "is_disabled": 0, "rental_uris": {"android": "https://dc.lft.to/lastmile_qr_scan", "ios": "https://dc.lft.to/lastmile_qr_scan"}, "fusion_lon": 0.0, "lat": 38.90509433333333, "bike_id": "90b01223cae2eea6fa3f7b344117650f", "type": "electric_scooter", "is_reserved": 0, "lon": -77.06156233333333}, {"fusion_lat": 0.0, "name": "868f954bab55f055375f354caa03be10", "is_disabled": 0, "rental_uris": {"android": "https://dc.lft.to/lastmile_qr_scan", "ios": "https://dc.lft.to/lastmile_qr_scan"}, "fusion_lon": 0.0, "lat": 38.906517666666666, "bike_id": "868f954bab55f055375f354caa03be10", "type": "electric_scooter", "is_reserved": 0, "lon": -77.043443}, {"fusion_lat": 0.0, "name": "155d20a640831e1abe2fb7f76b07797a", "is_disabled": 0, "rental_uris": {"android": "https://dc.lft.to/lastmile_qr_scan", "ios": "https://dc.lft.to/lastmile_qr_scan"}, "fusion_lon": 0.0, "lat": 38.892247, "bike_id": "155d20a640831e1abe2fb7f76b07797a", "type": "electric_scooter", "is_reserved": 0, "lon": -77.04870583333333}, {"fusion_lat": 0.0, "name": "48b36c3cc654849edc7345cf8dbb2d5a", "is_disabled": 0, "rental_uris": {"android": "https://dc.lft.to/lastmile_qr_scan", "ios": "https://dc.lft.to/lastmile_qr_scan"}, "fusion_lon": 0.0, "lat": 38.9943265, "bike_id": "48b36c3cc654849edc7345cf8dbb2d5a", "type": "electric_bike", "is_reserved": 0, "lon": -77.02881783333333}, {"fusion_lat": 0.0, "name": "b80ae9842a6d6302b5f01b1ae67c6b82", "is_disabled": 0, "rental_uris": {"android": "https://dc.lft.to/lastmile_qr_scan", "ios": "https://dc.lft.to/lastmile_qr_scan"}, "fusion_lon": 0.0, "lat": 38.9111625, "bike_id": "b80ae9842a6d6302b5f01b1ae67c6b82", "type": "electric_scooter", "is_reserved": 0, "lon": -77.04365766666666}, {"fusion_lat": 0.0, "name": "f2ef2ac1e0ba467abde03aadadededf3", "is_disabled": 0, "rental_uris": {"android": "https://dc.lft.to/lastmile_qr_scan", "ios": "https://dc.lft.to/lastmile_qr_scan"}, "fusion_lon": 0.0, "lat": 38.90555833333333, "bike_id": "f2ef2ac1e0ba467abde03aadadededf3", "type": "electric_scooter", "is_reserved": 0, "lon": -77.00806166666666}, {"fusion_lat": 0.0, "name": "f3c55e0ca604a9e603daf90f74306662", "is_disabled": 0, "rental_uris": {"android": "https://dc.lft.to/lastmile_qr_scan", "ios": "https://dc.lft.to/lastmile_qr_scan"}, "fusion_lon": 0.0, "lat": 38.907673, "bike_id": "f3c55e0ca604a9e603daf90f74306662", "type": "electric_scooter", "is_reserved": 0, "lon": -77.035858}, {"fusion_lat": 0.0, "name": "13a4867f87e8c07bda413d57fce31310", "is_disabled": 0, "rental_uris": {"android": "https://dc.lft.to/lastmile_qr_scan", "ios": "https://dc.lft.to/lastmile_qr_scan"}, "fusion_lon": 0.0, "lat": 38.90046366666667, "bike_id": "13a4867f87e8c07bda413d57fce31310", "type": "electric_scooter", "is_reserved": 0, "lon": -77.02961183333333}, {"fusion_lat": 0.0, "name": "b576348634412476863f8d5a84994e06", "is_disabled": 0, "rental_uris": {"android": "https://dc.lft.to/lastmile_qr_scan", "ios": "https://dc.lft.to/lastmile_qr_scan"}, "fusion_lon": 0.0, "lat": 38.871177, "bike_id": "b576348634412476863f8d5a84994e06", "type": "electric_scooter", "is_reserved": 0, "lon": -77.01230966666667}, {"fusion_lat": 0.0, "name": "c25d52f3a678729130a86ae4005dc8a8", "is_disabled": 0, "rental_uris": {"android": "https://dc.lft.to/lastmile_qr_scan", "ios": "https://dc.lft.to/lastmile_qr_scan"}, "fusion_lon": 0.0, "lat": 38.898155833333334, "bike_id": "c25d52f3a678729130a86ae4005dc8a8", "type": "electric_scooter", "is_reserved": 0, "lon": -77.05004766666667}, {"fusion_lat": 0.0, "name": "296b0250f5575600929fb7140df7342b", "is_disabled": 0, "rental_uris": {"android": "https://dc.lft.to/lastmile_qr_scan", "ios": "https://dc.lft.to/lastmile_qr_scan"}, "fusion_lon": 0.0, "lat": 38.91604516666666, "bike_id": "296b0250f5575600929fb7140df7342b", "type": "electric_scooter", "is_reserved": 0, "lon": -77.04563616666667}, {"fusion_lat": 0.0, "name": "1b4b469855ff73dae8ac5bef2e4aa14e", "is_disabled": 0, "rental_uris": {"android": "https://dc.lft.to/lastmile_qr_scan", "ios": "https://dc.lft.to/lastmile_qr_scan"}, "fusion_lon": 0.0, "lat": 38.905244333333336, "bike_id": "1b4b469855ff73dae8ac5bef2e4aa14e", "type": "electric_scooter", "is_reserved": 0, "lon": -77.06137533333333}, {"fusion_lat": 0.0, "name": "c8bf57d9fd300e4e489aa3c52f070080", "is_disabled": 0, "rental_uris": {"android": "https://dc.lft.to/lastmile_qr_scan", "ios": "https://dc.lft.to/lastmile_qr_scan"}, "fusion_lon": 0.0, "lat": 38.926124, "bike_id": "c8bf57d9fd300e4e489aa3c52f070080", "type": "electric_scooter", "is_reserved": 0, "lon": -77.07570316666667}, {"fusion_lat": 0.0, "name": "f18b29a607d4883aba1b569018d94c1b", "is_disabled": 0, "rental_uris": {"android": "https://dc.lft.to/lastmile_qr_scan", "ios": "https://dc.lft.to/lastmile_qr_scan"}, "fusion_lon": 0.0, "lat": 38.92297216666667, "bike_id": "f18b29a607d4883aba1b569018d94c1b", "type": "electric_scooter", "is_reserved": 0, "lon": -77.023304}, {"fusion_lat": 0.0, "name": "347c2686fee4e6c0d0ec0a192a477061", "is_disabled": 0, "rental_uris": {"android": "https://dc.lft.to/lastmile_qr_scan", "ios": "https://dc.lft.to/lastmile_qr_scan"}, "fusion_lon": 0.0, "lat": 38.9011225, "bike_id": "347c2686fee4e6c0d0ec0a192a477061", "type": "electric_scooter", "is_reserved": 0, "lon": -76.97428583333334}, {"fusion_lat": 0.0, "name": "a390a78685b5d92e21f73a89ed4584ad", "is_disabled": 0, "rental_uris": {"android": "https://dc.lft.to/lastmile_qr_scan", "ios": "https://dc.lft.to/lastmile_qr_scan"}, "fusion_lon": 0.0, "lat": 38.921495166666666, "bike_id": "a390a78685b5d92e21f73a89ed4584ad", "type": "electric_scooter", "is_reserved": 0, "lon": -77.03664533333334}, {"fusion_lat": 0.0, "name": "48800c5d926a693105cedaa5eacd0467", "is_disabled": 0, "rental_uris": {"android": "https://dc.lft.to/lastmile_qr_scan", "ios": "https://dc.lft.to/lastmile_qr_scan"}, "fusion_lon": 0.0, "lat": 38.924303333333334, "bike_id": "48800c5d926a693105cedaa5eacd0467", "type": "electric_scooter", "is_reserved": 0, "lon": -77.051771}, {"fusion_lat": 0.0, "name": "06b8ead2f05c977fa1d996f8f55f05d0", "is_disabled": 0, "rental_uris": {"android": "https://dc.lft.to/lastmile_qr_scan", "ios": "https://dc.lft.to/lastmile_qr_scan"}, "fusion_lon": 0.0, "lat": 38.90006366666667, "bike_id": "06b8ead2f05c977fa1d996f8f55f05d0", "type": "electric_scooter", "is_reserved": 0, "lon": -77.0033225}, {"fusion_lat": 0.0, "name": "241697d604738ef50a0cdd35ae9b5fd7", "is_disabled": 0, "rental_uris": {"android": "https://dc.lft.to/lastmile_qr_scan", "ios": "https://dc.lft.to/lastmile_qr_scan"}, "fusion_lon": 0.0, "lat": 38.8964905, "bike_id": "241697d604738ef50a0cdd35ae9b5fd7", "type": "electric_scooter", "is_reserved": 0, "lon": -77.01182033333333}, {"fusion_lat": 0.0, "name": "0bbc7db2fe1b5faf84c6346a636cbe7f", "is_disabled": 0, "rental_uris": {"android": "https://dc.lft.to/lastmile_qr_scan", "ios": "https://dc.lft.to/lastmile_qr_scan"}, "fusion_lon": 0.0, "lat": 38.9257235, "bike_id": "0bbc7db2fe1b5faf84c6346a636cbe7f", "type": "electric_scooter", "is_reserved": 0, "lon": -77.04386266666667}, {"fusion_lat": 0.0, "name": "6dfb25b1dd6a71bd9f36b43732036aaa", "is_disabled": 0, "rental_uris": {"android": "https://dc.lft.to/lastmile_qr_scan", "ios": "https://dc.lft.to/lastmile_qr_scan"}, "fusion_lon": 0.0, "lat": 38.804945000000004, "bike_id": "6dfb25b1dd6a71bd9f36b43732036aaa", "type": "electric_bike", "is_reserved": 0, "lon": -77.10165333333333}, {"fusion_lat": 0.0, "name": "2b9719e4dd89cb2a523951cb577bbb14", "is_disabled": 0, "rental_uris": {"android": "https://dc.lft.to/lastmile_qr_scan", "ios": "https://dc.lft.to/lastmile_qr_scan"}, "fusion_lon": 0.0, "lat": 38.89235133333333, "bike_id": "2b9719e4dd89cb2a523951cb577bbb14", "type": "electric_scooter", "is_reserved": 0, "lon": -77.04677783333334}, {"fusion_lat": 0.0, "name": "1a143ee326fc3a7de1be593e6e3d04f7", "is_disabled": 0, "rental_uris": {"android": "https://dc.lft.to/lastmile_qr_scan", "ios": "https://dc.lft.to/lastmile_qr_scan"}, "fusion_lon": 0.0, "lat": 38.907250833333336, "bike_id": "1a143ee326fc3a7de1be593e6e3d04f7", "type": "electric_scooter", "is_reserved": 0, "lon": -77.04997016666667}, {"fusion_lat": 0.0, "name": "ee9fb81a4000cd74237af1d398587016", "is_disabled": 0, "rental_uris": {"android": "https://dc.lft.to/lastmile_qr_scan", "ios": "https://dc.lft.to/lastmile_qr_scan"}, "fusion_lon": 0.0, "lat": 38.918374, "bike_id": "ee9fb81a4000cd74237af1d398587016", "type": "electric_scooter", "is_reserved": 0, "lon": -77.02446816666667}, {"fusion_lat": 0.0, "name": "5d633d59c234b8ef4d99e6482d662eab", "is_disabled": 0, "rental_uris": {"android": "https://dc.lft.to/lastmile_qr_scan", "ios": "https://dc.lft.to/lastmile_qr_scan"}, "fusion_lon": 0.0, "lat": 38.918222666666665, "bike_id": "5d633d59c234b8ef4d99e6482d662eab", "type": "electric_scooter", "is_reserved": 0, "lon": -77.03683633333333}, {"fusion_lat": 0.0, "name": "1ff2129e8de41c25fd04a0ab40dda0e8", "is_disabled": 0, "rental_uris": {"android": "https://dc.lft.to/lastmile_qr_scan", "ios": "https://dc.lft.to/lastmile_qr_scan"}, "fusion_lon": 0.0, "lat": 38.9167235, "bike_id": "1ff2129e8de41c25fd04a0ab40dda0e8", "type": "electric_scooter", "is_reserved": 0, "lon": -77.02302666666667}, {"fusion_lat": 0.0, "name": "02ffd0309e9eea31c0f71e3583bceeb8", "is_disabled": 0, "rental_uris": {"android": "https://dc.lft.to/lastmile_qr_scan", "ios": "https://dc.lft.to/lastmile_qr_scan"}, "fusion_lon": 0.0, "lat": 38.8772495, "bike_id": "02ffd0309e9eea31c0f71e3583bceeb8", "type": "electric_scooter", "is_reserved": 0, "lon": -76.996689}, {"fusion_lat": 0.0, "name": "a81c1bd47efb25549e512a0d21b4217b", "is_disabled": 0, "rental_uris": {"android": "https://dc.lft.to/lastmile_qr_scan", "ios": "https://dc.lft.to/lastmile_qr_scan"}, "fusion_lon": 0.0, "lat": 38.90521866666667, "bike_id": "a81c1bd47efb25549e512a0d21b4217b", "type": "electric_scooter", "is_reserved": 0, "lon": -77.0661535}, {"fusion_lat": 0.0, "name": "6a0b1e9c2b51f3f4fb536e7921ccccf7", "is_disabled": 0, "rental_uris": {"android": "https://dc.lft.to/lastmile_qr_scan", "ios": "https://dc.lft.to/lastmile_qr_scan"}, "fusion_lon": 0.0, "lat": 38.90518516666667, "bike_id": "6a0b1e9c2b51f3f4fb536e7921ccccf7", "type": "electric_scooter", "is_reserved": 0, "lon": -77.0568015}, {"fusion_lat": 0.0, "name": "36ddf478402bfe0ac32ad00c1fb35857", "is_disabled": 0, "rental_uris": {"android": "https://dc.lft.to/lastmile_qr_scan", "ios": "https://dc.lft.to/lastmile_qr_scan"}, "fusion_lon": 0.0, "lat": 38.927439666666665, "bike_id": "36ddf478402bfe0ac32ad00c1fb35857", "type": "electric_bike", "is_reserved": 0, "lon": -77.03651633333334}, {"fusion_lat": 0.0, "name": "46b96461ff5e0c79c0aea247365fa56b", "is_disabled": 0, "rental_uris": {"android": "https://dc.lft.to/lastmile_qr_scan", "ios": "https://dc.lft.to/lastmile_qr_scan"}, "fusion_lon": 0.0, "lat": 38.926077666666664, "bike_id": "46b96461ff5e0c79c0aea247365fa56b", "type": "electric_scooter", "is_reserved": 0, "lon": -77.03958183333333}, {"fusion_lat": 0.0, "name": "3c8263c78069586ee82bcb5b51fa7005", "is_disabled": 0, "rental_uris": {"android": "https://dc.lft.to/lastmile_qr_scan", "ios": "https://dc.lft.to/lastmile_qr_scan"}, "fusion_lon": 0.0, "lat": 38.9045445, "bike_id": "3c8263c78069586ee82bcb5b51fa7005", "type": "electric_scooter", "is_reserved": 0, "lon": -77.00175516666667}, {"fusion_lat": 0.0, "name": "cbe21d43ea4e91d62223bab11a959232", "is_disabled": 0, "rental_uris": {"android": "https://dc.lft.to/lastmile_qr_scan", "ios": "https://dc.lft.to/lastmile_qr_scan"}, "fusion_lon": 0.0, "lat": 38.91806583333333, "bike_id": "cbe21d43ea4e91d62223bab11a959232", "type": "electric_scooter", "is_reserved": 0, "lon": -77.0391305}, {"fusion_lat": 0.0, "name": "edcf62e8cadce014bba0417a09ca36cf", "is_disabled": 0, "rental_uris": {"android": "https://dc.lft.to/lastmile_qr_scan", "ios": "https://dc.lft.to/lastmile_qr_scan"}, "fusion_lon": 0.0, "lat": 38.885342, "bike_id": "edcf62e8cadce014bba0417a09ca36cf", "type": "electric_scooter", "is_reserved": 0, "lon": -77.00067733333333},