{"data": {"bikes": [{"is_disabled": 0, "fusion_lat": 0.0, "lat": 38.94902316666666, "type": "electric_bike", "lon": -76.97234983333334, "is_reserved": 0, "fusion_lon": 0.0, "bike_id": "ec6be55d5d33c4e543edcfd2268c1c67", "name": "ec6be55d5d33c4e543edcfd2268c1c67", "rental_uris": {"ios": "https://dc.lft.to/lastmile_qr_scan", "android": "https://dc.lft.to/lastmile_qr_scan"}}, {"is_disabled": 0, "fusion_lat": 0.0, "lat": 38.930668833333335, "type": "electric_scooter", "lon": -77.031199, "is_reserved": 0, "fusion_lon": 0.0, "bike_id": "7fb8c1d7247f58588ccc42a64141c70e", "name": "7fb8c1d7247f58588ccc42a64141c70e", "rental_uris": {"ios": "https://dc.lft.to/lastmile_qr_scan", "android": "https://dc.lft.to/lastmile_qr_scan"}}, {"is_disabled": 0, "fusion_lat": 0.0, "lat": 38.893784333333336, "type": "electric_scooter", "lon": -77.04784166666667, "is_reserved": 0, "fusion_lon": 0.0, "bike_id": "7eba4f7778e7e48e6d68dcf474e893eb", "name": "7eba4f7778e7e48e6d68dcf474e893eb", "rental_uris": {"ios": "https://dc.lft.to/lastmile_qr_scan", "android": "https://dc.lft.to/lastmile_qr_scan"}}, {"is_disabled": 0, "fusion_lat": 0.0, "lat": 38.888652666666665, "type": "electric_bike", "lon": -76.99466516666666, "is_reserved": 0, "fusion_lon": 0.0, "bike_id": "8f0a1a1ff5ea48aa8062effa6e37dcc6", "name": "8f0a1a1ff5ea48aa8062effa6e37dcc6", "rental_uris": {"ios": "https://dc.lft.to/lastmile_qr_scan", "android": "https://dc.lft.to/lastmile_qr_scan"}}, {"is_disabled": 0, "fusion_lat": 0.0, "lat": 38.94238516666667, "type": "electric_scooter", "lon": -77.0723445, "is_reserved": 0, "fusion_lon": 0.0, "bike_id": "ffae811dab846ab0165454e59efff359", "name": "ffae811dab846ab0165454e59efff359", "rental_uris": {"ios": "https://dc.lft.to/lastmile_qr_scan", "android": "https://dc.lft.to/lastmile_qr_scan"}}, {"is_disabled": 0, "fusion_lat": 0.0, "lat": 38.90671533333333, "type": "electric_scooter", "lon": -77.03826983333333, "is_reserved": 0, "fusion_lon": 0.0, "bike_id": "a54bc609944cfd34a2493e854880633b", "name": "a54bc609944cfd34a2493e854880633b", "rental_uris": {"ios": "https://dc.lft.to/lastmile_qr_scan", "android": "https://dc.lft.to/lastmile_qr_scan"}}, {"is_disabled": 0, "fusion_lat": 0.0, "lat": 38.898113, "type": "electric_scooter", "lon": -77.03330066666666, "is_reserved": 0, "fusion_lon": 0.0, "bike_id": "72b06c37150e04824106256b73d6900c", "name": "72b06c37150e04824106256b73d6900c", "rental_uris": {"ios": "https://dc.lft.to/lastmile_qr_scan", "android": "https://dc.lft.to/lastmile_qr_scan"}}, {"is_disabled": 0, "fusion_lat": 0.0, "lat": 38.958734166666666, "type": "electric_bike", "lon": -77.01033983333333, "is_reserved": 0, "fusion_lon": 0.0, "bike_id": "826dc3cc7aedb4f34151b481a555a850", "name": "826dc3cc7aedb4f34151b481a555a850", "rental_uris": {"ios": "https://dc.lft.to/lastmile_qr_scan", "android": "https://dc.lft.to/lastmile_qr_scan"}}, {"is_disabled": 0, "fusion_lat": 0.0, "lat": 38.86097816666667, "type": "electric_scooter", "lon": -76.98377233333333, "is_reserved": 0, "fusion_lon": 0.0, "bike_id": "28fa91e7ea8f49a3739ba863f9195b21", "name": "28fa91e7ea8f49a3739ba863f9195b21", "rental_uris": {"ios": "https://dc.lft.to/lastmile_qr_scan", "android": "https://dc.lft.to/lastmile_qr_scan"}}, {"is_disabled": 0, "fusion_lat": 0.0, "lat": 38.99420033333333, "type": "electric_bike", "lon": -77.03136966666666, "is_reserved": 0, "fusion_lon": 0.0, "bike_id": "0641a1917f6708254058813e061b2e27", "name": "0641a1917f6708254058813e061b2e27", "rental_uris": {"ios": "https://dc.lft.to/lastmile_qr_scan", "android": "https://dc.lft.to/lastmile_qr_scan"}}, {"is_disabled": 0, "fusion_lat": 0.0, "lat": 38.9617165, "type": "electric_bike", "lon": -76.99588, "is_reserved": 0, "fusion_lon": 0.0, "bike_id": "445409d2c39a81d2c142c6a2e05b9569", "name": "445409d2c39a81d2c142c6a2e05b9569", "rental_uris": {"ios": "https://dc.lft.to/lastmile_qr_scan", "android": "https://dc.lft.to/lastmile_qr_scan"}}, {"is_disabled": 0, "fusion_lat": 0.0, "lat": 38.92476466666667, "type": "electric_scooter", "lon": -77.03917016666666, "is_reserved": 0, "fusion_lon": 0.0, "bike_id": "77f316c27cab6ca578f2ddf1cf6a90ae", "name": "77f316c27cab6ca578f2ddf1cf6a90ae", "rental_uris": {"ios": "https://dc.lft.to/lastmile_qr_scan", "android": "https://dc.lft.to/lastmile_qr_scan"}}, {"is_disabled": 0, "fusion_lat": 0.0, "lat": 38.92418216666667, "type": "electric_bike", "lon": -77.04567916666667, "is_reserved": 0, "fusion_lon": 0.0, "bike_id": "fbc48a95c24262e9dc60c741cda31246", "name": "fbc48a95c24262e9dc60c741cda31246", "rental_uris": {"ios": "https://dc.lft.to/lastmile_qr_scan", "android": "https://dc.lft.to/lastmile_qr_scan"}}, {"is_disabled": 0, "fusion_lat": 0.0, "lat": 38.919638666666664, "type": "electric_bike", "lon": -76.97267666666667, "is_reserved": 0, "fusion_lon": 0.0, "bike_id": "75dd106e169d6edd667975f15ccfe826", "name": "75dd106e169d6edd667975f15ccfe826", "rental_uris": {"ios": "https://dc.lft.to/lastmile_qr_scan", "android": "https://dc.lft.to/lastmile_qr_scan"}}, {"is_disabled": 0, "fusion_lat": 0.0, "lat": 38.896286, "type": "electric_scooter", "lon": -77.00925033333333, "is_reserved": 0, "fusion_lon": 0.0, "bike_id": "7e9b26e5534aa8b9a5bd6d573a813d27", "name": "7e9b26e5534aa8b9a5bd6d573a813d27", "rental_uris": {"ios": "https://dc.lft.to/lastmile_qr_scan", "android": "https://dc.lft.to/lastmile_qr_scan"}}, {"is_disabled": 0, "fusion_lat": 0.0, "lat": 38.902201166666664, "type": "electric_scooter", "lon": -76.94581633333334, "is_reserved": 0, "fusion_lon": 0.0, "bike_id": "81cf50beff4bc09b762b03cf398d5368", "name": "81cf50beff4bc09b762b03cf398d5368", "rental_uris": {"ios": "https://dc.lft.to/lastmile_qr_scan", "android": "https://dc.lft.to/lastmile_qr_scan"}}, {"is_disabled": 0, "fusion_lat": 0.0, "lat": 38.909676, "type": "electric_scooter", "lon": -77.0358275, "is_reserved": 0, "fusion_lon": 0.0, "bike_id": "8ebbe63a21916710f9a8e7fa94ab0036", "name": "8ebbe63a21916710f9a8e7fa94ab0036", "rental_uris": {"ios": "https://dc.lft.to/lastmile_qr_scan", "android": "https://dc.lft.to/lastmile_qr_scan"}}, {"is_disabled": 0, "fusion_lat": 0.0, "lat": 38.918164, "type": "electric_scooter", "lon": -77.036451, "is_reserved": 0, "fusion_lon": 0.0, "bike_id": "858470024904c78c96ba19540ad456d6", "name": "858470024904c78c96ba19540ad456d6", "rental_uris": {"ios": "https://dc.lft.to/lastmile_qr_scan", "android": "https://dc.lft.to/lastmile_qr_scan"}}, {"is_disabled": 0, "fusion_lat": 0.0, "lat": 38.94943116666666, "type": "electric_scooter", "lon": -77.01615266666667, "is_reserved": 0, "fusion_lon": 0.0, "bike_id": "01ddcfb215384259c87751480143625a", "name": "01ddcfb215384259c87751480143625a", "rental_uris": {"ios": "https://dc.lft.to/lastmile_qr_scan", "android": "https://dc.lft.to/lastmile_qr_scan"}}, {"is_disabled": 0, "fusion_lat": 0.0, "lat": 38.9156525, "type": "electric_scooter", "lon": -77.0466005, "is_reserved": 0, "fusion_lon": 0.0, "bike_id": "b36a59d0d7d23e18091ce01791cd4c2f", "name": "b36a59d0d7d23e18091ce01791cd4c2f", "rental_uris": {"ios": "https://dc.lft.to/lastmile_qr_scan", "android": "https://dc.lft.to/lastmile_qr_scan"}}, {"is_disabled": 0, "fusion_lat": 0.0, "lat": 38.90072716666667, "type": "electric_scooter", "lon": -76.99832916666666, "is_reserved": 0, "fusion_lon": 0.0, "bike_id": "b00516804c37a3f1a8302a09796d5679", "name": "b00516804c37a3f1a8302a09796d5679", "rental_uris": {"ios": "https://dc.lft.to/lastmile_qr_scan", "android": "https://dc.lft.to/lastmile_qr_scan"}}, {"is_disabled": 0, "fusion_lat": 0.0, "lat": 38.89373783333333, "type": "electric_scooter", "lon": -76.94997333333333, "is_reserved": 0, "fusion_lon": 0.0, "bike_id": "0c4ab1fe808054bbee7608098a6d6112", "name": "0c4ab1fe808054bbee7608098a6d6112", "rental_uris": {"ios": "https://dc.lft.to/lastmile_qr_scan", "android": "https://dc.lft.to/lastmile_qr_scan"}}, {"is_disabled": 0, "fusion_lat": 0.0, "lat": 38.903283333333334, "type": "electric_scooter", "lon": -77.03833616666667, "is_reserved": 0, "fusion_lon": 0.0, "bike_id": "43f4837954d2105ef7f9cc2b92b80294", "name": "43f4837954d2105ef7f9cc2b92b80294", "rental_uris": {"ios": "https://dc.lft.to/lastmile_qr_scan", "android": "https://dc.lft.to/lastmile_qr_scan"}}, {"is_disabled": 0, "fusion_lat": 0.0, "lat": 38.881773833333334, "type": "electric_scooter", "lon": -77.02809416666666, "is_reserved": 0, "fusion_lon": 0.0, "bike_id": "bfd5fbdc9d6e9762fbacf89b0d06abb4", "name": "bfd5fbdc9d6e9762fbacf89b0d06abb4", "rental_uris": {"ios": "https://dc.lft.to/lastmile_qr_scan", "android": "https://dc.lft.to/lastmile_qr_scan"}}, {"is_disabled": 0, "fusion_lat": 0.0, "lat": 38.9732195, "type": "electric_bike", "lon": -77.02145616666667, "is_reserved": 0, "fusion_lon": 0.0, "bike_id": "6653d14dfa122c5a11664e8587febde0", "name": "6653d14dfa122c5a11664e8587febde0", "rental_uris": {"ios": "https://dc.lft.to/lastmile_qr_scan", "android": "https://dc.lft.to/lastmile_qr_scan"}}, {"is_disabled": 0, "fusion_lat": 0.0, "lat": 38.9255015, "type": "electric_scooter", "lon": -76.98128516666667, "is_reserved": 0, "fusion_lon": 0.0, "bike_id": "8ff7d70468fc9e199eb8c795c6484320", "name": "8ff7d70468fc9e199eb8c795c6484320", "rental_uris": {"ios": "https://dc.lft.to/lastmile_qr_scan", "android": "https://dc.lft.to/lastmile_qr_scan"}}, {"is_disabled": 0, "fusion_lat": 0.0, "lat": 38.958948666666664, "type": "electric_bike", "lon": -76.92479816666666, "is_reserved": 0, "fusion_lon": 0.0, "bike_id": "fb7112b2e85316c7a98ad1b801074e34", "name": "fb7112b2e85316c7a98ad1b801074e34", "rental_uris": {"ios": "https://dc.lft.to/lastmile_qr_scan", "android": "https://dc.lft.to/lastmile_qr_scan"}}, {"is_disabled": 0, "fusion_lat": 0.0, "lat": 38.957552666666665, "type": "electric_scooter", "lon": -77.020594, "is_reserved": 0, "fusion_lon": 0.0, "bike_id": "2627b4fda2a92a7a9bfcdb290148d3a9", "name": "2627b4fda2a92a7a9bfcdb290148d3a9", "rental_uris": {"ios": "https://dc.lft.to/lastmile_qr_scan", "android": "https://dc.lft.to/lastmile_qr_scan"}}, {"is_disabled": 0, "fusion_lat": 0.0, "lat": 38.9360795, "type": "electric_scooter", "lon": -77.03205266666667, "is_reserved": 0, "fusion_lon": 0.0, "bike_id": "25e458a6cae4198cb7b24c252e35e694", "name": "25e458a6cae4198cb7b24c252e35e694", "rental_uris": {"ios": "https://dc.lft.to/lastmile_qr_scan", "android": "https://dc.lft.to/lastmile_qr_scan"}}, {"is_disabled": 0, "fusion_lat": 0.0, "lat": 38.92186266666667, "type": "electric_scooter", "lon": -77.01824666666667, "is_reserved": 0, "fusion_lon": 0.0, "bike_id": "145633f591224bc3a3924dfdf9a1f118", "name": "145633f591224bc3a3924dfdf9a1f118", "rental_uris": {"ios": "https://dc.lft.to/lastmile_qr_scan", "android": "https://dc.lft.to/lastmile_qr_scan"}}, {"is_disabled": 0, "fusion_lat": 0.0, "lat": 38.91574583333333, "type": "electric_scooter", "lon": -77.03197666666667, "is_reserved": 0, "fusion_lon": 0.0, "bike_id": "890753e63e4f09e4cb4298d9fb3bfa5a", "name": "890753e63e4f09e4cb4298d9fb3bfa5a", "rental_uris": {"ios": "https://dc.lft.to/lastmile_qr_scan", "android": "https://dc.lft.to/lastmile_qr_scan"}}, {"is_disabled": 0, "fusion_lat": 0.0, "lat": 38.89385716666666, "type": "electric_scooter", "lon": -76.998576, "is_reserved": 0, "fusion_lon": 0.0, "bike_id": "95583b8b765bd41cf4bc92600c8a90d4", "name": "95583b8b765bd41cf4bc92600c8a90d4", "rental_uris": {"ios": "https://dc.lft.to/lastmile_qr_scan", "android": "https://dc.lft.to/lastmile_qr_scan"}}, {"is_disabled": 0, "fusion_lat": 0.0, "lat": 38.918187833333334, "type": "electric_scooter", "lon": -77.03843083333334, "is_reserved": 0, "fusion_lon": 0.0, "bike_id": "41bba4e14511392b05e9855f3ce445de", "name": "41bba4e14511392b05e9855f3ce445de", "rental_uris": {"ios": "https://dc.lft.to/lastmile_qr_scan", "android": "https://dc.lft.to/lastmile_qr_scan"}}, {"is_disabled": 0, "fusion_lat": 0.0, "lat": 39.03046033333333, "type": "electric_bike", "lon": -77.09483483333334, "is_reserved": 0, "fusion_lon": 0.0, "bike_id": "ff8e4e5a32509a7087ddcafac0c0e8eb", "name": "ff8e4e5a32509a7087ddcafac0c0e8eb", "rental_uris": {"ios": "https://dc.lft.to/lastmile_qr_scan", "android": "https://dc.lft.to/lastmile_qr_scan"}}, {"is_disabled": 0, "fusion_lat": 0.0, "lat": 39.02434933333333, "type": "electric_bike", "lon": -77.1309375, "is_reserved": 0, "fusion_lon": 0.0, "bike_id": "bed58e022068027f6887f448dd9d3770", "name": "bed58e022068027f6887f448dd9d3770", "rental_uris": {"ios": "https://dc.lft.to/lastmile_qr_scan", "android": "https://dc.lft.to/lastmile_qr_scan"}}, {"is_disabled": 0, "fusion_lat": 0.0, "lat": 38.930887166666665, "type": "electric_scooter", "lon": -76.96709966666667, "is_reserved": 0, "fusion_lon": 0.0, "bike_id": "188bcc992d8a3df4bbe21ecb54cd23c3", "name": "188bcc992d8a3df4bbe21ecb54cd23c3", "rental_uris": {"ios": "https://dc.lft.to/lastmile_qr_scan", "android": "https://dc.lft.to/lastmile_qr_scan"}}, {"is_disabled": 0, "fusion_lat": 0.0, "lat": 38.9282135, "type": "electric_scooter", "lon": -77.02257716666666, "is_reserved": 0, "fusion_lon": 0.0, "bike_id": "5b4cb34858202881c83bdf54b92eb772", "name": "5b4cb34858202881c83bdf54b92eb772", "rental_uris": {"ios": "https://dc.lft.to/lastmile_qr_scan", "android": "https://dc.lft.to/lastmile_qr_scan"}}, {"is_disabled": 0, "fusion_lat": 0.0, "lat": 38.918086, "type": "electric_scooter", "lon": -77.03356883333333, "is_reserved": 0, "fusion_lon": 0.0, "bike_id": "0216cbb3ace985b7baa7db2f81f19a01", "name": "0216cbb3ace985b7baa7db2f81f19a01", "rental_uris": {"ios": "https://dc.lft.to/lastmile_qr_scan", "android": "https://dc.lft.to/lastmile_qr_scan"}}, {"is_disabled": 0, "fusion_lat": 0.0, "lat": 38.9076855, "type": "electric_scooter", "lon": -77.06907983333333, "is_reserved": 0, "fusion_lon": 0.0, "bike_id": "85b929f2af5b0d2fddf24ec49f04fc1e", "name": "85b929f2af5b0d2fddf24ec49f04fc1e", "rental_uris": {"ios": "https://dc.lft.to/lastmile_qr_scan", "android": "https://dc.lft.to/lastmile_qr_scan"}}, {"is_disabled": 0, "fusion_lat": 0.0, "lat": 39.000125833333335, "type": "electric_bike", "lon": -76.91047616666667, "is_reserved": 0, "fusion_lon": 0.0, "bike_id": "6be18160e412bcec0eca4679b960a6b0", "name": "6be18160e412bcec0eca4679b960a6b0", "rental_uris": {"ios": "https://dc.lft.to/lastmile_qr_scan", "android": "https://dc.lft.to/lastmile_qr_scan"}}, {"is_disabled": 0, "fusion_lat": 0.0, "lat": 38.904691666666665, "type": "electric_scooter", "lon": -77.04341, "is_reserved": 0, "fusion_lon": 0.0, "bike_id": "b71629c19c074192e5ced2f3695c3e57", "name": "b71629c19c074192e5ced2f3695c3e57", "rental_uris": {"ios": "https://dc.lft.to/lastmile_qr_scan", "android": "https://dc.lft.to/lastmile_qr_scan"}}, {"is_disabled": 0, "fusion_lat": 0.0, "lat": 38.897052, "type": "electric_scooter", "lon": -76.9176525, "is_reserved": 0, "fusion_lon": 0.0, "bike_id": "cfdfade41abdfaee12d51ddf55c8fe61", "name": "cfdfade41abdfaee12d51ddf55c8fe61", "rental_uris": {"ios": "https://dc.lft.to/lastmile_qr_scan", "android": "https://dc.lft.to/lastmile_qr_scan"}}, {"is_disabled": 0, "fusion_lat": 0.0, "lat": 38.880711166666664, "type": "electric_bike", "lon": -77.0863195, "is_reserved": 0, "fusion_lon": 0.0, "bike_id": "2ff3a7847ad858a482af00b612148174", "name": "2ff3a7847ad858a482af00b612148174", "rental_uris": {"ios": "https://dc.lft.to/lastmile_qr_scan", "android": "https://dc.lft.to/lastmile_qr_scan"}}, {"is_disabled": 0, "fusion_lat": 0.0, "lat": 38.884794, "type": "electric_scooter", "lon": -77.03354733333333, "is_reserved": 0, "fusion_lon": 0.0, "bike_id": "bf3679a99fa6183f6eebc1d0965fdecd", "name": "bf3679a99fa6183f6eebc1d0965fdecd", "rental_uris": {"ios": "https://dc.lft.to/lastmile_qr_scan", "android": "https://dc.lft.to/lastmile_qr_scan"}}, {"is_disabled": 0, "fusion_lat": 0.0, "lat": 38.8272555, "type": "electric_bike", "lon": -77.00862716666667, "is_reserved": 0, "fusion_lon": 0.0, "bike_id": "f1a2c5c119a0aaf2e1143e621036dbb4", "name": "f1a2c5c119a0aaf2e1143e621036dbb4", "rental_uris": {"ios": "https://dc.lft.to/lastmile_qr_scan", "android": "https://dc.lft.to/lastmile_qr_scan"}}, {"is_disabled": 0, "fusion_lat": 0.0, "lat": 38.9207455, "type": "electric_scooter", "lon": -77.046968, "is_reserved": 0, "fusion_lon": 0.0, "bike_id": "96798375360da49e1f6d12862f2f51ff", "name": "96798375360da49e1f6d12862f2f51ff", "rental_uris": {"ios": "https://dc.lft.to/lastmile_qr_scan", "android": "https://dc.lft.to/lastmile_qr_scan"}}, {"is_disabled": 0, "fusion_lat": 0.0, "lat": 38.88471033333333, "type": "electric_scooter", "lon": -77.02339933333333, "is_reserved": 0, "fusion_lon": 0.0, "bike_id": "7b9fbe011ffa534f8e7c829865b46c28", "name": "7b9fbe011ffa534f8e7c829865b46c28", "rental_uris": {"ios": "https://dc.lft.to/lastmile_qr_scan", "android": "https://dc.lft.to/lastmile_qr_scan"}}, {"is_disabled": 0, "fusion_lat": 0.0, "lat": 38.92522316666667, "type": "electric_scooter", "lon": -77.05125416666667, "is_reserved": 0, "fusion_lon": 0.0, "bike_id": "b2a875130814591c4fc20b66d82f3187", "name": "b2a875130814591c4fc20b66d82f3187", "rental_uris": {"ios": "https://dc.lft.to/lastmile_qr_scan", "android": "https://dc.lft.to/lastmile_qr_scan"}}, {"is_disabled": 0, "fusion_lat": 0.0, "lat": 38.902392, "type": "electric_scooter", "lon": -77.0019345, "is_reserved": 0, "fusion_lon": 0.0, "bike_id": "5b51d85f6bb3823b0074e772ed15d474", "name": "5b51d85f6bb3823b0074e772ed15d474", "rental_uris": {"ios": "https://dc.lft.to/lastmile_qr_scan", "android": "https://dc.lft.to/lastmile_qr_scan"}}, {"is_disabled": 0, "fusion_lat": 0.0, "lat": 38.880135333333335, "type": "electric_scooter", "lon": -76.93122783333334, "is_reserved": 0, "fusion_lon": 0.0, "bike_id": "4480369fdf9c8d4babec5eaa4d371bd7", "name": "4480369fdf9c8d4babec5eaa4d371bd7", "rental_uris": {"ios": "https://dc.lft.to/lastmile_qr_scan", "android": "https://dc.lft.to/lastmile_qr_scan"}}, {"is_disabled": 0, "fusion_lat": 0.0, "lat": 38.92490216666667, "type": "electric_scooter", "lon": -77.052514, "is_reserved": 0, "fusion_lon": 0.0, "bike_id": "7554ef3237631953361c2b9e912a1ef4", "name": "7554ef3237631953361c2b9e912a1ef4", "rental_uris": {"ios": "https://dc.lft.to/lastmile_qr_scan", "android": "https://dc.lft.to/lastmile_qr_scan"}}, {"is_disabled": 0, "fusion_lat": 0.0, "lat": 38.9012735, "type": "electric_scooter", "lon": -77.04348633333333, "is_reserved": 0, "fusion_lon": 0.0, "bike_id": "c15e9d8621ba195617a528d0fdd26fd1", "name": "c15e9d8621ba195617a528d0fdd26fd1", "rental_uris": {"ios": "https://dc.lft.to/lastmile_qr_scan", "android": "https://dc.lft.to/lastmile_qr_scan"}}, {"is_disabled": 0, "fusion_lat": 0.0, "lat": 38.91882283333333, "type": "electric_scooter", "lon": -77.0159365, "is_reserved": 0, "fusion_lon": 0.0, "bike_id": "d30abe0218e5ffe5a3f47237b1f51675", "name": "d30abe0218e5ffe5a3f47237b1f51675", "rental_uris": {"ios": "https://dc.lft.to/lastmile_qr_scan", "android": "https://dc.lft.to/lastmile_qr_scan"}}, {"is_disabled": 0, "fusion_lat": 0.0, "lat": 38.8717515, "type": "electric_scooter", "lon": -77.00623633333333, "is_reserved": 0, "fusion_lon": 0.0, "bike_id": "ae332565066c0319dae937f114f42880", "name": "ae332565066c0319dae937f114f42880", "rental_uris": {"ios": "https://dc.lft.to/lastmile_qr_scan", "android": "https://dc.lft.to/lastmile_qr_scan"}}, {"is_disabled": 0, "fusion_lat": 0.0, "lat": 38.89553433333333, "type": "electric_scooter", "lon": -76.9336995, "is_reserved": 0, "fusion_lon": 0.0, "bike_id": "2d91d6940ccac88a1d9d46fead0996d1", "name": "2d91d6940ccac88a1d9d46fead0996d1", "rental_uris": {"ios": "https://dc.lft.to/lastmile_qr_scan", "android": "https://dc.lft.to/lastmile_qr_scan"}}, {"is_disabled": 0, "fusion_lat": 0.0, "lat": 38.92224616666667, "type": "electric_scooter", "lon": -77.04372166666667, "is_reserved": 0, "fusion_lon": 0.0, "bike_id": "ca37bf64323e2bf9c5fe55f192313c3e", "name": "ca37bf64323e2bf9c5fe55f192313c3e", "rental_uris": {"ios": "https://dc.lft.to/lastmile_qr_scan", "android": "https://dc.lft.to/lastmile_qr_scan"}}, {"is_disabled": 0, "fusion_lat": 0.0, "lat": 38.913712, "type": "electric_scooter", "lon": -77.01993533333334, "is_reserved": 0, "fusion_lon": 0.0, "bike_id": "f3ef4e44cbd5bf2274c66f519bce0c43", "name": "f3ef4e44cbd5bf2274c66f519bce0c43", "rental_uris": {"ios": "https://dc.lft.to/lastmile_qr_scan", "android": "https://dc.lft.to/lastmile_qr_scan"}}, {"is_disabled": 0, "fusion_lat": 0.0, "lat": 38.88657766666667, "type": "electric_scooter", "lon": -77.03391133333334, "is_reserved": 0, "fusion_lon": 0.0, "bike_id": "ef7499519bbe41d5969934d161bee195", "name": "ef7499519bbe41d5969934d161bee195", "rental_uris": {"ios": "https://dc.lft.to/lastmile_qr_scan", "android": "https://dc.lft.to/lastmile_qr_scan"}}, {"is_disabled": 0, "fusion_lat": 0.0, "lat": 38.900370333333335, "type": "electric_scooter", "lon": -76.98827883333334, "is_reserved": 0, "fusion_lon": 0.0, "bike_id": "e4346eb1eee18c292ebafbad7cbf3973", "name": "e4346eb1eee18c292ebafbad7cbf3973", "rental_uris": {"ios": "https://dc.lft.to/lastmile_qr_scan", "android": "https://dc.lft.to/lastmile_qr_scan"}}, {"is_disabled": 0, "fusion_lat": 0.0, "lat": 38.904318, "type": "electric_scooter", "lon": -77.04330433333334, "is_reserved": 0, "fusion_lon": 0.0, "bike_id": "fe41167204cb3bfbefaea15d7a815f2e", "name": "fe41167204cb3bfbefaea15d7a815f2e", "rental_uris": {"ios": "https://dc.lft.to/lastmile_qr_scan", "android": "https://dc.lft.to/lastmile_qr_scan"}}, {"is_disabled": 0, "fusion_lat": 0.0, "lat": 38.905872333333335, "type": "electric_scooter", "lon": -76.98613883333333, "is_reserved": 0, "fusion_lon": 0.0, "bike_id": "814c8ba730518a8f9f8fe5b92cac9796", "name": "814c8ba730518a8f9f8fe5b92cac9796", "rental_uris": {"ios": "https://dc.lft.to/lastmile_qr_scan", "android": "https://dc.lft.to/lastmile_qr_scan"}}, {"is_disabled": 0, "fusion_lat": 0.0, "lat": 38.914167, "type": "electric_scooter", "lon": -77.03994833333333, "is_reserved": 0, "fusion_lon": 0.0, "bike_id": "f430682ef45cbc48444611eff11fa657", "name": "f430682ef45cbc48444611eff11fa657", "rental_uris": {"ios": "https://dc.lft.to/lastmile_qr_scan", "android": "https://dc.lft.to/lastmile_qr_scan"}}, {"is_disabled": 0, "fusion_lat": 0.0, "lat": 38.9085655, "type": "electric_scooter", "lon": -77.02844766666666, "is_reserved": 0, "fusion_lon": 0.0, "bike_id": "639834fda14fb197d82f141f316a20db", "name": "639834fda14fb197d82f141f316a20db", "rental_uris": {"ios": "https://dc.lft.to/lastmile_qr_scan", "android": "https://dc.lft.to/lastmile_qr_scan"}}, {"is_disabled": 0, "fusion_lat": 0.0, "lat": 38.928551, "type": "electric_scooter", "lon": -77.01370216666666, "is_reserved": 0, "fusion_lon": 0.0, "bike_id": "c014310d35e0c9b7cba432dabb7a6ef0", "name": "c014310d35e0c9b7cba432dabb7a6ef0", "rental_uris": {"ios": "https://dc.lft.to/lastmile_qr_scan", "android": "https://dc.lft.to/lastmile_qr_scan"}}, {"is_disabled": 0, "fusion_lat": 0.0, "lat": 38.880118, "type": "electric_scooter", "lon": -77.02481233333333, "is_reserved": 0, "fusion_lon": 0.0, "bike_id": "b74a37a5f73c55d8ffaab89a7db20965", "name": "b74a37a5f73c55d8ffaab89a7db20965", "rental_uris": {"ios": "https://dc.lft.to/lastmile_qr_scan", "android": "https://dc.lft.to/lastmile_qr_scan"}}, {"is_disabled": 0, "fusion_lat": 0.0, "lat": 38.8973005, "type": "electric_scooter", "lon": -77.048881, "is_reserved": 0, "fusion_lon": 0.0, "bike_id": "94fb532982cbddde1c5aa8581a976811", "name": "94fb532982cbddde1c5aa8581a976811", "rental_uris": {"ios": "https://dc.lft.to/lastmile_qr_scan", "android": "https://dc.lft.to/lastmile_qr_scan"}}, {"is_disabled": 0, "fusion_lat": 0.0, "lat": 38.9111215, "type": "electric_scooter", "lon": -77.04496066666667, "is_reserved": 0, "fusion_lon": 0.0, "bike_id": "96052f06362ab7b2f7b0a7325b2f9ca7", "name": "96052f06362ab7b2f7b0a7325b2f9ca7", "rental_uris": {"ios": "https://dc.lft.to/lastmile_qr_scan", "android": "https://dc.lft.to/lastmile_qr_scan"}}, {"is_disabled": 0, "fusion_lat": 0.0, "lat": 38.909183166666665, "type": "electric_scooter", "lon": -77.080089, "is_reserved": 0, "fusion_lon": 0.0, "bike_id": "3117284c0fe28e94676029a06504633c", "name": "3117284c0fe28e94676029a06504633c", "rental_uris": {"ios": "https://dc.lft.to/lastmile_qr_scan", "android": "https://dc.lft.to/lastmile_qr_scan"}}, {"is_disabled": 0, "fusion_lat": 0.0, "lat": 38.892183833333334, "type": "electric_bike", "lon": -77.10773233333333, "is_reserved": 0, "fusion_lon": 0.0, "bike_id": "f1ffea0fcefb79c9507c060981173669", "name": "f1ffea0fcefb79c9507c060981173669", "rental_uris": {"ios": "https://dc.lft.to/lastmile_qr_scan", "android": "https://dc.lft.to/lastmile_qr_scan"}}, {"is_disabled": 0, "fusion_lat": 0.0, "lat": 38.8874095, "type": "electric_scooter", "lon": -77.0153225, "is_reserved": 0, "fusion_lon": 0.0, "bike_id": "61b29cac4c5d87fbe4586068bcc5e6ee", "name": "61b29cac4c5d87fbe4586068bcc5e6ee", "rental_uris": {"ios": "https://dc.lft.to/lastmile_qr_scan", "android": "https://dc.lft.to/lastmile_qr_scan"}}, {"is_disabled": 0, "fusion_lat": 0.0, "lat": 38.941805333333335, "type": "electric_scooter", "lon": -77.02477366666666, "is_reserved": 0, "fusion_lon": 0.0, "bike_id": "6a32a1d837bf5ca83ca586b5d9b20246", "name": "6a32a1d837bf5ca83ca586b5d9b20246", "rental_uris": {"ios": "https://dc.lft.to/lastmile_qr_scan", "android": "https://dc.lft.to/lastmile_qr_scan"}}, {"is_disabled": 0, "fusion_lat": 0.0, "lat": 38.905643166666664, "type": "electric_scooter", "lon": -77.022073, "is_reserved": 0, "fusion_lon": 0.0, "bike_id": "6b4e2448c70b61622e6799d2fab5f534", "name": "6b4e2448c70b61622e6799d2fab5f534", "rental_uris": {"ios": "https://dc.lft.to/lastmile_qr_scan", "android": "https://dc.lft.to/lastmile_qr_scan"}}, {"is_disabled": 0, "fusion_lat": 0.0, "lat": 38.92023666666667, "type": "electric_scooter", "lon": -77.02802916666667, "is_reserved": 0, "fusion_lon": 0.0, "bike_id": "551e8713b2e4e05570200127fb8c379e", "name": "551e8713b2e4e05570200127fb8c379e", "rental_uris": {"ios": "https://dc.lft.to/lastmile_qr_scan", "android": "https://dc.lft.to/lastmile_qr_scan"}}, {"is_disabled": 0, "fusion_lat": 0.0, "lat": 38.916846, "type": "electric_scooter", "lon": -77.01216, "is_reserved": 0, "fusion_lon": 0.0, "bike_id": "35b7ad3c2ebf257d644133cf6e35e4ab", "name": "35b7ad3c2ebf257d644133cf6e35e4ab", "rental_uris": {"ios": "https://dc.lft.to/lastmile_qr_scan", "android": "https://dc.lft.to/lastmile_qr_scan"}}, {"is_disabled": 0, "fusion_lat": 0.0, "lat": 38.9123305, "type": "electric_scooter", "lon": -77.04875333333334, "is_reserved": 0, "fusion_lon": 0.0, "bike_id": "9477c65f40b15c920d8874125613443d", "name": "9477c65f40b15c920d8874125613443d", "rental_uris": {"ios": "https://dc.lft.to/lastmile_qr_scan", "android": "https://dc.lft.to/lastmile_qr_scan"}}, {"is_disabled": 0, "fusion_lat": 0.0, "lat": 38.9331325, "type": "electric_scooter", "lon": -77.03275966666666, "is_reserved": 0, "fusion_lon": 0.0, "bike_id": "48069e962ed2521d0774d48aecd76d39", "name": "48069e962ed2521d0774d48aecd76d39", "rental_uris": {"ios": "https://dc.lft.to/lastmile_qr_scan", "android": "https://dc.lft.to/lastmile_qr_scan"}}, {"is_disabled": 0, "fusion_lat": 0.0, "lat": 38.998186833333335, "type": "electric_bike", "lon": -76.88374283333333, "is_reserved": 0, "fusion_lon": 0.0, "bike_id": "49b14e0a17c0a02d0aab1cd32c3f48ed", "name": "49b14e0a17c0a02d0aab1cd32c3f48ed", "rental_uris": {"ios": "https://dc.lft.to/lastmile_qr_scan", "android": "https://dc.lft.to/lastmile_qr_scan"}}, {"is_disabled": 0, "fusion_lat": 0.0, "lat": 38.90385116666667, "type": "electric_scooter", "lon": -77.01092933333334, "is_reserved": 0, "fusion_lon": 0.0, "bike_id": "2fe8c984cb0032d6f0c290a096a64d67", "name": "2fe8c984cb0032d6f0c290a096a64d67", "rental_uris": {"ios": "https://dc.lft.to/lastmile_qr_scan", "android": "https://dc.lft.to/lastmile_qr_scan"}}, {"is_disabled": 0, "fusion_lat": 0.0, "lat": 38.92548, "type": "electric_scooter", "lon": -77.052989, "is_reserved": 0, "fusion_lon": 0.0, "bike_id": "c44f0b4758d60a5fb0476fec9189cda4", "name": "c44f0b4758d60a5fb0476fec9189cda4", "rental_uris": {"ios": "https://dc.lft.to/lastmile_qr_scan", "android": "https://dc.lft.to/lastmile_qr_scan"}}, {"is_disabled": 0, "fusion_lat": 0.0, "lat": 38.9649695, "type": "electric_bike", "lon": -77.0280745, "is_reserved": 0, "fusion_lon": 0.0, "bike_id": "3a809540c3080b4aa65aff76a38e7003", "name": "3a809540c3080b4aa65aff76a38e7003", "rental_uris": {"ios": "https://dc.lft.to/lastmile_qr_scan", "android": "https://dc.lft.to/lastmile_qr_scan"}}, {"is_disabled": 0, "fusion_lat": 0.0, "lat": 38.90342783333333, "type": "electric_scooter", "lon": -76.97556716666666, "is_reserved": 0, "fusion_lon": 0.0, "bike_id": "b25b07af13a312cd25e9ee674ed0a61a", "name": "b25b07af13a312cd25e9ee674ed0a61a", "rental_uris": {"ios": "https://dc.lft.to/lastmile_qr_scan", "android": "https://dc.lft.to/lastmile_qr_scan"}}, {"is_disabled": 0, "fusion_lat": 0.0, "lat": 38.95195233333333, "type": "electric_bike", "lon": -76.96722766666667, "is_reserved": 0, "fusion_lon": 0.0, "bike_id": "8fd0e4242f63aba909871202957b0ec8", "name": "8fd0e4242f63aba909871202957b0ec8", "rental_uris": {"ios": "https://dc.lft.to/lastmile_qr_scan", "android": "https://dc.lft.to/lastmile_qr_scan"}}, {"is_disabled": 0, "fusion_lat": 0.0, "lat": 38.913404166666666, "type": "electric_scooter", "lon": -77.03005516666667, "is_reserved": 0, "fusion_lon": 0.0, "bike_id": "2925b8c263b19165e1a12ac581655c0c", "name": "2925b8c263b19165e1a12ac581655c0c", "rental_uris": {"ios": "https://dc.lft.to/lastmile_qr_scan", "android": "https://dc.lft.to/lastmile_qr_scan"}}, {"is_disabled": 0, "fusion_lat": 0.0, "lat": 38.863886666666666, "type": "electric_bike", "lon": -76.9899175, "is_reserved": 0, "fusion_lon": 0.0, "bike_id": "ea990227b3406c30495400641dd01f25", "name": "ea990227b3406c30495400641dd01f25", "rental_uris": {"ios": "https://dc.lft.to/lastmile_qr_scan", "android": "https://dc.lft.to/lastmile_qr_scan"}}, {"is_disabled": 0, "fusion_lat": 0.0, "lat": 38.9416725, "type": "electric_scooter", "lon": -77.041233, "is_reserved": 0, "fusion_lon": 0.0, "bike_id": "21291a0a05d0a29d5d00b62de4f48862", "name": "21291a0a05d0a29d5d00b62de4f48862", "rental_uris": {"ios": "https://dc.lft.to/lastmile_qr_scan", "android": "https://dc.lft.to/lastmile_qr_scan"}}, {"is_disabled": 0, "fusion_lat": 0.0, "lat": 38.90687033333333, "type": "electric_scooter", "lon": -77.06345583333334, "is_reserved": 0, "fusion_lon": 0.0, "bike_id": "a1270cf5186d470b8850950fcb74818a", "name": "a1270cf5186d470b8850950fcb74818a", "rental_uris": {"ios": "https://dc.lft.to/lastmile_qr_scan", "android": "https://dc.lft.to/lastmile_qr_scan"}}, {"is_disabled": 0, "fusion_lat": 0.0, "lat": 38.97088983333333, "type": "electric_bike", "lon": -77.06960566666666, "is_reserved": 0, "fusion_lon": 0.0, "bike_id": "83327b1cd1ad435e3f10a2c644262db2", "name": "83327b1cd1ad435e3f10a2c644262db2", "rental_uris": {"ios": "https://dc.lft.to/lastmile_qr_scan", "android": "https://dc.lft.to/lastmile_qr_scan"}}, {"is_disabled": 0, "fusion_lat": 0.0, "lat": 38.89963433333333, "type": "electric_scooter", "lon": -77.02664666666666, "is_reserved": 0, "fusion_lon": 0.0, "bike_id": "1a7fb504fe6813df3e2677426ef474b0", "name": "1a7fb504fe6813df3e2677426ef474b0", "rental_uris": {"ios": "https://dc.lft.to/lastmile_qr_scan", "android": "https://dc.lft.to/lastmile_qr_scan"}}, {"is_disabled": 0, "fusion_lat": 0.0, "lat": 38.92507066666667, "type": "electric_scooter", "lon": -77.038836, "is_reserved": 0, "fusion_lon": 0.0, "bike_id": "e2bf58b4c13bf1e4e1381da155c5ef63", "name": "e2bf58b4c13bf1e4e1381da155c5ef63", "rental_uris": {"ios": "https://dc.lft.to/lastmile_qr_scan", "android": "https://dc.lft.to/lastmile_qr_scan"}}, {"is_disabled": 0, "fusion_lat": 0.0, "lat": 38.89876, "type": "electric_scooter", "lon": -76.93181016666666, "is_reserved": 0, "fusion_lon": 0.0, "bike_id": "1386db20493133b629910abf64d4d211", "name": "1386db20493133b629910abf64d4d211", "rental_uris": {"ios": "https://dc.lft.to/lastmile_qr_scan", "android": "https://dc.lft.to/lastmile_qr_scan"}}, {"is_disabled": 0, "fusion_lat": 0.0, "lat": 38.92593466666667, "type": "electric_scooter", "lon": -77.0046645, "is_reserved": 0, "fusion_lon": 0.0, "bike_id": "df4423e907d46a5c0234532c8a9fb911", "name": "df4423e907d46a5c0234532c8a9fb911", "rental_uris": {"ios": "https://dc.lft.to/lastmile_qr_scan", "android": "https://dc.lft.to/lastmile_qr_scan"}}, {"is_disabled": 0, "fusion_lat": 0.0, "lat": 38.90048433333333, "type": "electric_scooter", "lon": -77.00216383333333, "is_reserved": 0, "fusion_lon": 0.0, "bike_id": "0c6b08f4e421f3601ea353a3c1e7784c", "name": "0c6b08f4e421f3601ea353a3c1e7784c", "rental_uris": {"ios": "https://dc.lft.to/lastmile_qr_scan", "android": "https://dc.lft.to/lastmile_qr_scan"}}, {"is_disabled": 0, "fusion_lat": 0.0, "lat": 38.885209833333334, "type": "electric_scooter", "lon": -77.01533783333333, "is_reserved": 0, "fusion_lon": 0.0, "bike_id": "8919c45a30918dd6f852c527394468df", "name": "8919c45a30918dd6f852c527394468df", "rental_uris": {"ios": "https://dc.lft.to/lastmile_qr_scan", "android": "https://dc.lft.to/lastmile_qr_scan"}}, {"is_disabled": 0, "fusion_lat": 0.0, "lat": 38.923673, "type": "electric_bike", "lon": -77.22350583333333, "is_reserved": 0, "fusion_lon": 0.0, "bike_id": "b9f83c3a68a7828efa020cf657e6f13c", "name": "b9f83c3a68a7828efa020cf657e6f13c", "rental_uris": {"ios": "https://dc.lft.to/lastmile_qr_scan", "android": "https://dc.lft.to/lastmile_qr_scan"}}, {"is_disabled": 0, "fusion_lat": 0.0, "lat": 38.903130166666664, "type": "electric_scooter", "lon": -76.978012, "is_reserved": 0, "fusion_lon": 0.0, "bike_id": "e658d90701233ac2f071e69fe9210e46", "name": "e658d90701233ac2f071e69fe9210e46", "rental_uris": {"ios": "https://dc.lft.to/lastmile_qr_scan", "android": "https://dc.lft.to/lastmile_qr_scan"}}, {"is_disabled": 0, "fusion_lat": 0.0, "lat": 38.8670975, "type": "electric_bike", "lon": -76.989484, "is_reserved": 0, "fusion_lon": 0.0, "bike_id": "b7531515acee729fafb2be8444427f3e", "name": "b7531515acee729fafb2be8444427f3e", "rental_uris": {"ios": "https://dc.lft.to/lastmile_qr_scan", "android": "https://dc.lft.to/lastmile_qr_scan"}}, {"is_disabled": 0, "fusion_lat": 0.0, "lat": 38.898772666666666, "type": "electric_scooter", "lon": -76.9315855, "is_reserved": 0, "fusion_lon": 0.0, "bike_id": "ad2ad7cce7958cbf93a6a38985283f2a", "name": "ad2ad7cce7958cbf93a6a38985283f2a", "rental_uris": {"ios": "https://dc.lft.to/lastmile_qr_scan", "android": "https://dc.lft.to/lastmile_qr_scan"}}, {"is_disabled": 0, "fusion_lat": 0.0, "lat": 38.919627, "type": "electric_scooter", "lon": -77.04146066666667, "is_reserved": 0, "fusion_lon": 0.0, "bike_id": "3df580815a2996516ad6f4a48f810db8", "name": "3df580815a2996516ad6f4a48f810db8", "rental_uris": {"ios": "https://dc.lft.to/lastmile_qr_scan", "android": "https://dc.lft.to/lastmile_qr_scan"}}, {"is_disabled": 0, "fusion_lat": 0.0, "lat": 38.93146683333333, "type": "electric_scooter", "lon": -77.03082083333334, "is_reserved": 0, "fusion_lon": 0.0, "bike_id": "07b23f6f0ed847a0467dcd7a4753ff97", "name": "07b23f6f0ed847a0467dcd7a4753ff97", "rental_uris": {"ios": "https://dc.lft.to/lastmile_qr_scan", "android": "https://dc.lft.to/lastmile_qr_scan"}}, {"is_disabled": 0, "fusion_lat": 0.0, "lat": 38.9341965, "type": "electric_scooter", "lon": -77.0440945, "is_reserved": 0, "fusion_lon": 0.0, "bike_id": "0a58613ed5dfaec0d62a1be397d53683", "name": "0a58613ed5dfaec0d62a1be397d53683", "rental_uris": {"ios": "https://dc.lft.to/lastmile_qr_scan", "android": "https://dc.lft.to/lastmile_qr_scan"}}, {"is_disabled": 0, "fusion_lat": 0.0, "lat": 38.924596666666666, "type": "electric_scooter", "lon": -77.03277216666666, "is_reserved": 0, "fusion_lon": 0.0, "bike_id": "6f7266f202856d83d3e09d27c4398483", "name": "6f7266f202856d83d3e09d27c4398483", "rental_uris": {"ios": "https://dc.lft.to/lastmile_qr_scan", "android": "https://dc.lft.to/lastmile_qr_scan"}}, {"is_disabled": 0, "fusion_lat": 0.0, "lat": 38.937617333333336, "type": "electric_scooter", "lon": -77.03133416666667, "is_reserved": 0, "fusion_lon": 0.0, "bike_id": "cb15a1ebc4063d13046845f7e1b29f26", "name": "cb15a1ebc4063d13046845f7e1b29f26", "rental_uris": {"ios": "https://dc.lft.to/lastmile_qr_scan", "android": "https://dc.lft.to/lastmile_qr_scan"}}, {"is_disabled": 0, "fusion_lat": 0.0, "lat": 38.92852416666667, "type": "electric_bike", "lon": -77.1067495, "is_reserved": 0, "fusion_lon": 0.0, "bike_id": "534c2b6893c4094ceeacfb2acac7360c", "name": "534c2b6893c4094ceeacfb2acac7360c", "rental_uris": {"ios": "https://dc.lft.to/lastmile_qr_scan", "android": "https://dc.lft.to/lastmile_qr_scan"}}, {"is_disabled": 0, "fusion_lat": 0.0, "lat": 38.918818333333334, "type": "electric_scooter", "lon": -77.03502966666667, "is_reserved": 0, "fusion_lon": 0.0, "bike_id": "71ec28b059fbb69eeb1f2c1c21d1d153", "name": "71ec28b059fbb69eeb1f2c1c21d1d153", "rental_uris": {"ios": "https://dc.lft.to/lastmile_qr_scan", "android": "https://dc.lft.to/lastmile_qr_scan"}}, {"is_disabled": 0, "fusion_lat": 0.0, "lat": 38.9483465, "type": "electric_scooter", "lon": -77.02425183333334, "is_reserved": 0, "fusion_lon": 0.0, "bike_id": "46368a83c9db27298a49ab78a4390863", "name": "46368a83c9db27298a49ab78a4390863", "rental_uris": {"ios": "https://dc.lft.to/lastmile_qr_scan", "android": "https://dc.lft.to/lastmile_qr_scan"}}, {"is_disabled": 0, "fusion_lat": 0.0, "lat": 38.925375, "type": "electric_scooter", "lon": -77.040777, "is_reserved": 0, "fusion_lon": 0.0, "bike_id": "a30409b1d35df970805d007d0ecf2285", "name": "a30409b1d35df970805d007d0ecf2285", "rental_uris": {"ios": "https://dc.lft.to/lastmile_qr_scan", "android": "https://dc.lft.to/lastmile_qr_scan"}}, {"is_disabled": 0, "fusion_lat": 0.0, "lat": 38.887241333333336, "type": "electric_scooter", "lon": -77.032086, "is_reserved": 0, "fusion_lon": 0.0, "bike_id": "3dbbaa6ff756a56392ab96fef990fe0f", "name": "3dbbaa6ff756a56392ab96fef990fe0f", "rental_uris": {"ios": "https://dc.lft.to/lastmile_qr_scan", "android": "https://dc.lft.to/lastmile_qr_scan"}}, {"is_disabled": 0, "fusion_lat": 0.0, "lat": 38.807424166666664, "type": "electric_bike", "lon": -77.094231, "is_reserved": 0, "fusion_lon": 0.0, "bike_id": "2f073979bd4a4949aea18a88a54d9f02", "name": "2f073979bd4a4949aea18a88a54d9f02", "rental_uris": {"ios": "https://dc.lft.to/lastmile_qr_scan", "android": "https://dc.lft.to/lastmile_qr_scan"}}, {"is_disabled": 0, "fusion_lat": 0.0, "lat": 38.90612483333334, "type": "electric_scooter", "lon": -77.06524016666667, "is_reserved": 0, "fusion_lon": 0.0, "bike_id": "c64c78696c153c37e9e88c529dee09ca", "name": "c64c78696c153c37e9e88c529dee09ca", "rental_uris": {"ios": "https://dc.lft.to/lastmile_qr_scan", "android": "https://dc.lft.to/lastmile_qr_scan"}}, {"is_disabled": 0, "fusion_lat": 0.0, "lat": 38.93008966666667, "type": "electric_scooter", "lon": -77.044341, "is_reserved": 0, "fusion_lon": 0.0, "bike_id": "c767d7ab064e8e43a2dcf846de48b249", "name": "c767d7ab064e8e43a2dcf846de48b249", "rental_uris": {"ios": "https://dc.lft.to/lastmile_qr_scan", "android": "https://dc.lft.to/lastmile_qr_scan"}}, {"is_disabled": 0, "fusion_lat": 0.0, "lat": 38.929034, "type": "electric_bike", "lon": -77.0238185, "is_reserved": 0, "fusion_lon": 0.0, "bike_id": "d2fa0889b7cec82a69bf7770678fdb2a", "name": "d2fa0889b7cec82a69bf7770678fdb2a", "rental_uris": {"ios": "https://dc.lft.to/lastmile_qr_scan", "android": "https://dc.lft.to/lastmile_qr_scan"}}, {"is_disabled": 0, "fusion_lat": 0.0, "lat": 38.90152166666667, "type": "electric_scooter", "lon": -77.05003516666666, "is_reserved": 0, "fusion_lon": 0.0, "bike_id": "d268ce787d558d90551491e8b5fc99e0", "name": "d268ce787d558d90551491e8b5fc99e0", "rental_uris": {"ios": "https://dc.lft.to/lastmile_qr_scan", "android": "https://dc.lft.to/lastmile_qr_scan"}}, {"is_disabled": 0, "fusion_lat": 0.0, "lat": 38.91053816666667, "type": "electric_scooter", "lon": -77.045908, "is_reserved": 0, "fusion_lon": 0.0, "bike_id": "d16d5c69c64e19f17b1c9226f6505611", "name": "d16d5c69c64e19f17b1c9226f6505611", "rental_uris": {"ios": "https://dc.lft.to/lastmile_qr_scan", "android": "https://dc.lft.to/lastmile_qr_scan"}}, {"is_disabled": 0, "fusion_lat": 0.0, "lat": 38.905711333333336, "type": "electric_scooter", "lon": -77.0345235, "is_reserved": 0, "fusion_lon": 0.0, "bike_id": "2da4d95f26b16e788c578331cda655cc", "name": "2da4d95f26b16e788c578331cda655cc", "rental_uris": {"ios": "https://dc.lft.to/lastmile_qr_scan", "android": "https://dc.lft.to/lastmile_qr_scan"}}, {"is_disabled": 0, "fusion_lat": 0.0, "lat": 38.90254983333333, "type": "electric_scooter", "lon": -76.98685, "is_reserved": 0, "fusion_lon": 0.0, "bike_id": "77bb6fc850ab6f2ae9a49831034fe8f5", "name": "77bb6fc850ab6f2ae9a49831034fe8f5", "rental_uris": {"ios": "https://dc.lft.to/lastmile_qr_scan", "android": "https://dc.lft.to/lastmile_qr_scan"}}, {"is_disabled": 0, "fusion_lat": 0.0, "lat": 38.9993765, "type": "electric_bike", "lon": -77.01763633333333, "is_reserved": 0, "fusion_lon": 0.0, "bike_id": "8dce5b4657303229a3f0390bbc756dcd", "name": "8dce5b4657303229a3f0390bbc756dcd", "rental_uris": {"ios": "https://dc.lft.to/lastmile_qr_scan", "android": "https://dc.lft.to/lastmile_qr_scan"}}, {"is_disabled": 0, "fusion_lat": 0.0, "lat": 38.902492333333335, "type": "electric_scooter", "lon": -77.03954983333334, "is_reserved": 0, "fusion_lon": 0.0, "bike_id": "2b74133abeea5d35e0101e1e3144458b", "name": "2b74133abeea5d35e0101e1e3144458b", "rental_uris": {"ios": "https://dc.lft.to/lastmile_qr_scan", "android": "https://dc.lft.to/lastmile_qr_scan"}}, {"is_disabled": 0, "fusion_lat": 0.0, "lat": 38.93247366666667, "type": "electric_scooter", "lon": -77.0386075, "is_reserved": 0, "fusion_lon": 0.0, "bike_id": "d621037c51574e3469516e80cfd5cf2e", "name": "d621037c51574e3469516e80cfd5cf2e", "rental_uris": {"ios": "https://dc.lft.to/lastmile_qr_scan", "android": "https://dc.lft.to/lastmile_qr_scan"}}, {"is_disabled": 0, "fusion_lat": 0.0, "lat": 38.93880383333333, "type": "electric_scooter", "lon": -77.0248175, "is_reserved": 0, "fusion_lon": 0.0, "bike_id": "f964eae00fbe72a75241eea41d46bf20", "name": "f964eae00fbe72a75241eea41d46bf20", "rental_uris": {"ios": "https://dc.lft.to/lastmile_qr_scan", "android": "https://dc.lft.to/lastmile_qr_scan"}}, {"is_disabled": 0, "fusion_lat": 0.0, "lat": 38.902605666666666, "type": "electric_scooter", "lon": -77.04123966666667, "is_reserved": 0, "fusion_lon": 0.0, "bike_id": "44aa59493d7b26347fc518329c4a4e49", "name": "44aa59493d7b26347fc518329c4a4e49", "rental_uris": {"ios": "https://dc.lft.to/lastmile_qr_scan", "android": "https://dc.lft.to/lastmile_qr_scan"}}, {"is_disabled": 0, "fusion_lat": 0.0, "lat": 38.916369333333336, "type": "electric_scooter", "lon": -77.04811366666667, "is_reserved": 0, "fusion_lon": 0.0, "bike_id": "f38550bb93c4d0691c62568336ec78bd", "name": "f38550bb93c4d0691c62568336ec78bd", "rental_uris": {"ios": "https://dc.lft.to/lastmile_qr_scan", "android": "https://dc.lft.to/lastmile_qr_scan"}}, {"is_disabled": 0, "fusion_lat": 0.0, "lat": 38.85503383333333, "type": "electric_bike", "lon": -77.120424, "is_reserved": 0, "fusion_lon": 0.0, "bike_id": "a05b86b3532dab1e56a0a3d5efb43107", "name": "a05b86b3532dab1e56a0a3d5efb43107", "rental_uris": {"ios": "https://dc.lft.to/lastmile_qr_scan", "android": "https://dc.lft.to/lastmile_qr_scan"}}, {"is_disabled": 0, "fusion_lat": 0.0, "lat": 38.905589, "type": "electric_scooter", "lon": -77.03981116666667, "is_reserved": 0, "fusion_lon": 0.0, "bike_id": "17116c26c434a561175182fdb4c7b285", "name": "17116c26c434a561175182fdb4c7b285", "rental_uris": {"ios": "https://dc.lft.to/lastmile_qr_scan", "android": "https://dc.lft.to/lastmile_qr_scan"}}, {"is_disabled": 0, "fusion_lat": 0.0, "lat": 38.917586666666665, "type": "electric_scooter", "lon": -77.03991833333333, "is_reserved": 0, "fusion_lon": 0.0, "bike_id": "e249ef4ddab61bcebe8002ddc081d69c", "name": "e249ef4ddab61bcebe8002ddc081d69c", "rental_uris": {"ios": "https://dc.lft.to/lastmile_qr_scan", "android": "https://dc.lft.to/lastmile_qr_scan"}}, {"is_disabled": 0, "fusion_lat": 0.0, "lat": 38.892451, "type": "electric_scooter", "lon": -77.0394905, "is_reserved": 0, "fusion_lon": 0.0, "bike_id": "74d5db179110255c5e8b645017f17b47", "name": "74d5db179110255c5e8b645017f17b47", "rental_uris": {"ios": "https://dc.lft.to/lastmile_qr_scan", "android": "https://dc.lft.to/lastmile_qr_scan"}}, {"is_disabled": 0, "fusion_lat": 0.0, "lat": 38.877826, "type": "electric_scooter", "lon": -76.9940475, "is_reserved": 0, "fusion_lon": 0.0, "bike_id": "a2c0f25356c983d239715d883ed52fc7", "name": "a2c0f25356c983d239715d883ed52fc7", "rental_uris": {"ios": "https://dc.lft.to/lastmile_qr_scan", "android": "https://dc.lft.to/lastmile_qr_scan"}}, {"is_disabled": 0, "fusion_lat": 0.0, "lat": 38.82875283333333, "type": "electric_bike", "lon": -77.112154, "is_reserved": 0, "fusion_lon": 0.0, "bike_id": "2d75d3975f35f077c70aa7500815945f", "name": "2d75d3975f35f077c70aa7500815945f", "rental_uris": {"ios": "https://dc.lft.to/lastmile_qr_scan", "android": "https://dc.lft.to/lastmile_qr_scan"}}, {"is_disabled": 0, "fusion_lat": 0.0, "lat": 38.936390333333335, "type": "electric_scooter", "lon": -77.03656, "is_reserved": 0, "fusion_lon": 0.0, "bike_id": "dab37f3bbe6d67fd93f045f80ca677e6", "name": "dab37f3bbe6d67fd93f045f80ca677e6", "rental_uris": {"ios": "https://dc.lft.to/lastmile_qr_scan", "android": "https://dc.lft.to/lastmile_qr_scan"}}, {"is_disabled": 0, "fusion_lat": 0.0, "lat": 38.903197666666664, "type": "electric_scooter", "lon": -77.04334833333333, "is_reserved": 0, "fusion_lon": 0.0, "bike_id": "9d42b0afa0fd2402093b5ae82530bfc3", "name": "9d42b0afa0fd2402093b5ae82530bfc3", "rental_uris": {"ios": "https://dc.lft.to/lastmile_qr_scan", "android": "https://dc.lft.to/lastmile_qr_scan"}}, {"is_disabled": 0, "fusion_lat": 0.0, "lat": 38.8839485, "type": "electric_scooter", "lon": -77.01532266666666, "is_reserved": 0, "fusion_lon": 0.0, "bike_id": "e3731c02d2f3c9ba75285c46beced2e7", "name": "e3731c02d2f3c9ba75285c46beced2e7", "rental_uris": {"ios": "https://dc.lft.to/lastmile_qr_scan", "android": "https://dc.lft.to/lastmile_qr_scan"}}, {"is_disabled": 0, "fusion_lat": 0.0, "lat": 38.99074366666667, "type": "electric_bike", "lon": -76.87465533333334, "is_reserved": 0, "fusion_lon": 0.0, "bike_id": "4c46d6879f5c0352f60dc7876b9e44ea", "name": "4c46d6879f5c0352f60dc7876b9e44ea", "rental_uris": {"ios": "https://dc.lft.to/lastmile_qr_scan", "android": "https://dc.lft.to/lastmile_qr_scan"}}, {"is_disabled": 0, "fusion_lat": 0.0, "lat": 38.90094833333333, "type": "electric_scooter", "lon": -76.983404, "is_reserved": 0, "fusion_lon": 0.0, "bike_id": "026d5d8b7c294b8c6e4b61f56c7395a9", "name": "026d5d8b7c294b8c6e4b61f56c7395a9", "rental_uris": {"ios": "https://dc.lft.to/lastmile_qr_scan", "android": "https://dc.lft.to/lastmile_qr_scan"}}, {"is_disabled": 0, "fusion_lat": 0.0, "lat": 38.902581833333336, "type": "electric_scooter", "lon": -77.02638933333333, "is_reserved": 0, "fusion_lon": 0.0, "bike_id": "5aeaa6dd1cff1a04ec7ffff44fbf8fe3", "name": "5aeaa6dd1cff1a04ec7ffff44fbf8fe3", "rental_uris": {"ios": "https://dc.lft.to/lastmile_qr_scan", "android": "https://dc.lft.to/lastmile_qr_scan"}}, {"is_disabled": 0, "fusion_lat": 0.0, "lat": 38.94977383333333, "type": "electric_scooter", "lon": -77.02695033333333, "is_reserved": 0, "fusion_lon": 0.0, "bike_id": "ae3799fb83c7c8fb254ceb832db29dae", "name": "ae3799fb83c7c8fb254ceb832db29dae", "rental_uris": {"ios": "https://dc.lft.to/lastmile_qr_scan", "android": "https://dc.lft.to/lastmile_qr_scan"}}, {"is_disabled": 0, "fusion_lat": 0.0, "lat": 38.914153, "type": "electric_scooter", "lon": -77.04534816666667, "is_reserved": 0, "fusion_lon": 0.0, "bike_id": "03e6924e78a2f00fe39837308334ec28", "name": "03e6924e78a2f00fe39837308334ec28", "rental_uris": {"ios": "https://dc.lft.to/lastmile_qr_scan", "android": "https://dc.lft.to/lastmile_qr_scan"}}, {"is_disabled": 0, "fusion_lat": 0.0, "lat": 38.9617305, "type": "electric_bike", "lon": -76.99587416666667, "is_reserved": 0, "fusion_lon": 0.0, "bike_id": "1df3508bda196ff75cd73cb68af284c0", "name": "1df3508bda196ff75cd73cb68af284c0", "rental_uris": {"ios": "https://dc.lft.to/lastmile_qr_scan", "android": "https://dc.lft.to/lastmile_qr_scan"}}, {"is_disabled": 0, "fusion_lat": 0.0, "lat": 38.8843155, "type": "electric_scooter", "lon": -76.95754466666666, "is_reserved": 0, "fusion_lon": 0.0, "bike_id": "ed06c42b5017a53e1935d8c947a1af15", "name": "ed06c42b5017a53e1935d8c947a1af15", "rental_uris": {"ios": "https://dc.lft.to/lastmile_qr_scan", "android": "https://dc.lft.to/lastmile_qr_scan"}}, {"is_disabled": 0, "fusion_lat": 0.0, "lat": 38.893763166666666, "type": "electric_scooter", "lon": -76.94996333333333, "is_reserved": 0, "fusion_lon": 0.0, "bike_id": "ed61bcebd75909d75d8d882114e26e98", "name": "ed61bcebd75909d75d8d882114e26e98", "rental_uris": {"ios": "https://dc.lft.to/lastmile_qr_scan", "android": "https://dc.lft.to/lastmile_qr_scan"}}, {"is_disabled": 0, "fusion_lat": 0.0, "lat": 38.89342366666666, "type": "electric_scooter", "lon": -77.01200816666666, "is_reserved": 0, "fusion_lon": 0.0, "bike_id": "c35239d475d3e1c1b98c8d90cd38e7b0", "name": "c35239d475d3e1c1b98c8d90cd38e7b0", "rental_uris": {"ios": "https://dc.lft.to/lastmile_qr_scan", "android": "https://dc.lft.to/lastmile_qr_scan"}}, {"is_disabled": 0, "fusion_lat": 0.0, "lat": 38.938255166666664, "type": "electric_scooter", "lon": -77.024698, "is_reserved": 0, "fusion_lon": 0.0, "bike_id": "0e4713d5aed3ddbd4aea4b628769b4f9", "name": "0e4713d5aed3ddbd4aea4b628769b4f9", "rental_uris": {"ios": "https://dc.lft.to/lastmile_qr_scan", "android": "https://dc.lft.to/lastmile_qr_scan"}}, {"is_disabled": 0, "fusion_lat": 0.0, "lat": 38.907487833333334, "type": "electric_scooter", "lon": -77.00104283333333, "is_reserved": 0, "fusion_lon": 0.0, "bike_id": "1125b29229850dfca8f8c575eda96ce3", "name": "1125b29229850dfca8f8c575eda96ce3", "rental_uris": {"ios": "https://dc.lft.to/lastmile_qr_scan", "android": "https://dc.lft.to/lastmile_qr_scan"}}, {"is_disabled": 0, "fusion_lat": 0.0, "lat": 38.9154545, "type": "electric_scooter", "lon": -77.01993966666667, "is_reserved": 0, "fusion_lon": 0.0, "bike_id": "9c7cc397b08cbe60c8813d34222f6655", "name": "9c7cc397b08cbe60c8813d34222f6655", "rental_uris": {"ios": "https://dc.lft.to/lastmile_qr_scan", "android": "https://dc.lft.to/lastmile_qr_scan"}}, {"is_disabled": 0, "fusion_lat": 0.0, "lat": 38.9249845, "type": "electric_scooter", "lon": -77.00883333333333, "is_reserved": 0, "fusion_lon": 0.0, "bike_id": "8a6dbd5def96c95378acaec588e1e09f", "name": "8a6dbd5def96c95378acaec588e1e09f", "rental_uris": {"ios": "https://dc.lft.to/lastmile_qr_scan", "android": "https://dc.lft.to/lastmile_qr_scan"}}, {"is_disabled": 0, "fusion_lat": 0.0, "lat": 38.882292166666666, "type": "electric_scooter", "lon": -76.92656383333333, "is_reserved": 0, "fusion_lon": 0.0, "bike_id": "96d16ff456cc19cbee79ebb34a6b3b01", "name": "96d16ff456cc19cbee79ebb34a6b3b01", "rental_uris": {"ios": "https://dc.lft.to/lastmile_qr_scan", "android": "https://dc.lft.to/lastmile_qr_scan"}}, {"is_disabled": 0, "fusion_lat": 0.0, "lat": 38.93430033333333, "type": "electric_scooter", "lon": -77.03450516666666, "is_reserved": 0, "fusion_lon": 0.0, "bike_id": "3b9e6b96b1cde6441c7f8292d7af850c", "name": "3b9e6b96b1cde6441c7f8292d7af850c", "rental_uris": {"ios": "https://dc.lft.to/lastmile_qr_scan", "android": "https://dc.lft.to/lastmile_qr_scan"}}, {"is_disabled": 0, "fusion_lat": 0.0, "lat": 38.9182495, "type": "electric_scooter", "lon": -77.036361, "is_reserved": 0, "fusion_lon": 0.0, "bike_id": "08547a855586bba7cea08e80781b0d5c", "name": "08547a855586bba7cea08e80781b0d5c", "rental_uris": {"ios": "https://dc.lft.to/lastmile_qr_scan", "android": "https://dc.lft.to/lastmile_qr_scan"}}, {"is_disabled": 0, "fusion_lat": 0.0, "lat": 38.83938833333333, "type": "electric_bike", "lon": -77.07885383333333, "is_reserved": 0, "fusion_lon": 0.0, "bike_id": "acf4a7999c4f50c165eb55131c86c1b0", "name": "acf4a7999c4f50c165eb55131c86c1b0", "rental_uris": {"ios": "https://dc.lft.to/lastmile_qr_scan", "android": "https://dc.lft.to/lastmile_qr_scan"}}, {"is_disabled": 0, "fusion_lat": 0.0, "lat": 38.90740916666667, "type": "electric_scooter", "lon": -77.02394616666666, "is_reserved": 0, "fusion_lon": 0.0, "bike_id": "5881dea5ed2795a99b8ea24be6f54350", "name": "5881dea5ed2795a99b8ea24be6f54350", "rental_uris": {"ios": "https://dc.lft.to/lastmile_qr_scan", "android": "https://dc.lft.to/lastmile_qr_scan"}}, {"is_disabled": 0, "fusion_lat": 0.0, "lat": 38.902237166666666, "type": "electric_bike", "lon": -77.04556416666667, "is_reserved": 0, "fusion_lon": 0.0, "bike_id": "e9a76b10aa46c58833b17c2eaf923b74", "name": "e9a76b10aa46c58833b17c2eaf923b74", "rental_uris": {"ios": "https://dc.lft.to/lastmile_qr_scan", "android": "https://dc.lft.to/lastmile_qr_scan"}}, {"is_disabled": 0, "fusion_lat": 0.0, "lat": 38.912654333333336, "type": "electric_scooter", "lon": -77.030833, "is_reserved": 0, "fusion_lon": 0.0, "bike_id": "d74a3aaf774e9d9be9906feebfbce95d", "name": "d74a3aaf774e9d9be9906feebfbce95d", "rental_uris": {"ios": "https://dc.lft.to/lastmile_qr_scan", "android": "https://dc.lft.to/lastmile_qr_scan"}}, {"is_disabled": 0, "fusion_lat": 0.0, "lat": 38.9082145, "type": "electric_scooter", "lon": -77.04311766666666, "is_reserved": 0, "fusion_lon": 0.0, "bike_id": "c8fe857c9227d22c2c1f58e85ed49797", "name": "c8fe857c9227d22c2c1f58e85ed49797", "rental_uris": {"ios": "https://dc.lft.to/lastmile_qr_scan", "android": "https://dc.lft.to/lastmile_qr_scan"}}, {"is_disabled": 0, "fusion_lat": 0.0, "lat": 38.9076755, "type": "electric_scooter", "lon": -77.04335716666667, "is_reserved": 0, "fusion_lon": 0.0, "bike_id": "e2f15026b6603284ece2cda867125a7d", "name": "e2f15026b6603284ece2cda867125a7d", "rental_uris": {"ios": "https://dc.lft.to/lastmile_qr_scan", "android": "https://dc.lft.to/lastmile_qr_scan"}}, {"is_disabled": 0, "fusion_lat": 0.0, "lat": 38.861042, "type": "electric_scooter", "lon": -76.98354883333333, "is_reserved": 0, "fusion_lon": 0.0, "bike_id": "666e8b87df27755f7098613776614b71", "name": "666e8b87df27755f7098613776614b71", "rental_uris": {"ios": "https://dc.lft.to/lastmile_qr_scan", "android": "https://dc.lft.to/lastmile_qr_scan"}}, {"is_disabled": 0, "fusion_lat": 0.0, "lat": 38.902696666666664, "type": "electric_scooter", "lon": -77.03375533333333, "is_reserved": 0, "fusion_lon": 0.0, "bike_id": "a6feac2d901c74ccc27e46fd76929b34", "name": "a6feac2d901c74ccc27e46fd76929b34", "rental_uris": {"ios": "https://dc.lft.to/lastmile_qr_scan", "android": "https://dc.lft.to/lastmile_qr_scan"}}, {"is_disabled": 0, "fusion_lat": 0.0, "lat": 38.88333433333333, "type": "electric_scooter", "lon": -77.03151483333333, "is_reserved": 0, "fusion_lon": 0.0, "bike_id": "4ee204a59cb7fc4b8ed45376c59afa51", "name": "4ee204a59cb7fc4b8ed45376c59afa51", "rental_uris": {"ios": "https://dc.lft.to/lastmile_qr_scan", "android": "https://dc.lft.to/lastmile_qr_scan"}}, {"is_disabled": 0, "fusion_lat": 0.0, "lat": 38.90573716666667, "type": "electric_scooter", "lon": -77.02479416666667, "is_reserved": 0, "fusion_lon": 0.0, "bike_id": "f62209f51b39257c751eb4d0e21aa400", "name": "f62209f51b39257c751eb4d0e21aa400", "rental_uris": {"ios": "https://dc.lft.to/lastmile_qr_scan", "android": "https://dc.lft.to/lastmile_qr_scan"}}, {"is_disabled": 0, "fusion_lat": 0.0, "lat": 38.89915283333333, "type": "electric_scooter", "lon": -77.0406735, "is_reserved": 0, "fusion_lon": 0.0, "bike_id": "b1d39fe19979523924bec3a6f79b6bb5", "name": "b1d39fe19979523924bec3a6f79b6bb5", "rental_uris": {"ios": "https://dc.lft.to/lastmile_qr_scan", "android": "https://dc.lft.to/lastmile_qr_scan"}}, {"is_disabled": 0, "fusion_lat": 0.0, "lat": 38.93683566666667, "type": "electric_scooter", "lon": -77.03624283333333, "is_reserved": 0, "fusion_lon": 0.0, "bike_id": "d31ae82a6ea62b3fbdaef2258f8f51f3", "name": "d31ae82a6ea62b3fbdaef2258f8f51f3", "rental_uris": {"ios": "https://dc.lft.to/lastmile_qr_scan", "android": "https://dc.lft.to/lastmile_qr_scan"}}, {"is_disabled": 0, "fusion_lat": 0.0, "lat": 38.910141, "type": "electric_scooter", "lon": -76.99388383333333, "is_reserved": 0, "fusion_lon": 0.0, "bike_id": "eeac4e10e8e1f3dcbdf2cc1ec94e2c5e", "name": "eeac4e10e8e1f3dcbdf2cc1ec94e2c5e", "rental_uris": {"ios": "https://dc.lft.to/lastmile_qr_scan", "android": "https://dc.lft.to/lastmile_qr_scan"}}, {"is_disabled": 0, "fusion_lat": 0.0, "lat": 38.923361166666666, "type": "electric_scooter", "lon": -77.01899466666667, "is_reserved": 0, "fusion_lon": 0.0, "bike_id": "e0d5f4b6934bc602ff1dafad42aa6bce", "name": "e0d5f4b6934bc602ff1dafad42aa6bce", "rental_uris": {"ios": "https://dc.lft.to/lastmile_qr_scan", "android": "https://dc.lft.to/lastmile_qr_scan"}}, {"is_disabled": 0, "fusion_lat": 0.0, "lat": 38.8908005, "type": "electric_scooter", "lon": -76.998419, "is_reserved": 0, "fusion_lon": 0.0, "bike_id": "70ad6ac49f9fa9dd0f9a81526754d2e1", "name": "70ad6ac49f9fa9dd0f9a81526754d2e1", "rental_uris": {"ios": "https://dc.lft.to/lastmile_qr_scan", "android": "https://dc.lft.to/lastmile_qr_scan"}}, {"is_disabled": 0, "fusion_lat": 0.0, "lat": 38.91339083333333, "type": "electric_scooter", "lon": -77.00224233333333, "is_reserved": 0, "fusion_lon": 0.0, "bike_id": "455b02c719839c4c8afe31bbcbee9350", "name": "455b02c719839c4c8afe31bbcbee9350", "rental_uris": {"ios": "https://dc.lft.to/lastmile_qr_scan", "android": "https://dc.lft.to/lastmile_qr_scan"}}, {"is_disabled": 0, "fusion_lat": 0.0, "lat": 38.8709065, "type": "electric_scooter", "lon": -77.012015, "is_reserved": 0, "fusion_lon": 0.0, "bike_id": "dd77ebb62c1172850300afeb6eb26ff1", "name": "dd77ebb62c1172850300afeb6eb26ff1", "rental_uris": {"ios": "https://dc.lft.to/lastmile_qr_scan", "android": "https://dc.lft.to/lastmile_qr_scan"}}, {"is_disabled": 0, "fusion_lat": 0.0, "lat": 38.90874816666667, "type": "electric_scooter", "lon": -77.04332616666667, "is_reserved": 0, "fusion_lon": 0.0, "bike_id": "c0d4a80431ea876a1f7a6562d64a4f07", "name": "c0d4a80431ea876a1f7a6562d64a4f07", "rental_uris": {"ios": "https://dc.lft.to/lastmile_qr_scan", "android": "https://dc.lft.to/lastmile_qr_scan"}}, {"is_disabled": 0, "fusion_lat": 0.0, "lat": 38.920098833333334, "type": "electric_scooter", "lon": -77.07110116666666, "is_reserved": 0, "fusion_lon": 0.0, "bike_id": "d3eb4631a7a656b5ecb88cd7b9f6bdee", "name": "d3eb4631a7a656b5ecb88cd7b9f6bdee", "rental_uris": {"ios": "https://dc.lft.to/lastmile_qr_scan", "android": "https://dc.lft.to/lastmile_qr_scan"}}, {"is_disabled": 0, "fusion_lat": 0.0, "lat": 38.884401, "type": "electric_scooter", "lon": -77.02567616666667, "is_reserved": 0, "fusion_lon": 0.0, "bike_id": "73f1ef3e1016040eec2e907889d089b3", "name": "73f1ef3e1016040eec2e907889d089b3", "rental_uris": {"ios": "https://dc.lft.to/lastmile_qr_scan", "android": "https://dc.lft.to/lastmile_qr_scan"}}, {"is_disabled": 0, "fusion_lat": 0.0, "lat": 38.919191166666664, "type": "electric_scooter", "lon": -77.03178716666666, "is_reserved": 0, "fusion_lon": 0.0, "bike_id": "82d1f66e004f3e39ccbc80eef8599255", "name": "82d1f66e004f3e39ccbc80eef8599255", "rental_uris": {"ios": "https://dc.lft.to/lastmile_qr_scan", "android": "https://dc.lft.to/lastmile_qr_scan"}}, {"is_disabled": 0, "fusion_lat": 0.0, "lat": 38.9247805, "type": "electric_scooter", "lon": -77.02838516666667, "is_reserved": 0, "fusion_lon": 0.0, "bike_id": "fd979fb172ecb07b13e26c702c541bfe", "name": "fd979fb172ecb07b13e26c702c541bfe", "rental_uris": {"ios": "https://dc.lft.to/lastmile_qr_scan", "android": "https://dc.lft.to/lastmile_qr_scan"}}, {"is_disabled": 0, "fusion_lat": 0.0, "lat": 38.9066375, "type": "electric_scooter", "lon": -77.03823716666666, "is_reserved": 0, "fusion_lon": 0.0, "bike_id": "439929079fedd301dab947b8fbf39852", "name": "439929079fedd301dab947b8fbf39852", "rental_uris": {"ios": "https://dc.lft.to/lastmile_qr_scan", "android": "https://dc.lft.to/lastmile_qr_scan"}}, {"is_disabled": 0, "fusion_lat": 0.0, "lat": 38.92579666666666, "type": "electric_scooter", "lon": -77.03911333333333, "is_reserved": 0, "fusion_lon": 0.0, "bike_id": "65a2707fce59e488de651161963458d2", "name": "65a2707fce59e488de651161963458d2", "rental_uris": {"ios": "https://dc.lft.to/lastmile_qr_scan", "android": "https://dc.lft.to/lastmile_qr_scan"}}, {"is_disabled": 0, "fusion_lat": 0.0, "lat": 38.90505433333333, "type": "electric_scooter", "lon": -77.050253, "is_reserved": 0, "fusion_lon": 0.0, "bike_id": "21c9bc8e6526776d8026b1c283e973c8", "name": "21c9bc8e6526776d8026b1c283e973c8", "rental_uris": {"ios": "https://dc.lft.to/lastmile_qr_scan", "android": "https://dc.lft.to/lastmile_qr_scan"}}, {"is_disabled": 0, "fusion_lat": 0.0, "lat": 38.92874183333333, "type": "electric_scooter", "lon": -77.02702533333333, "is_reserved": 0, "fusion_lon": 0.0, "bike_id": "69683ba45d6cb3c484b6cc7d242cfafc", "name": "69683ba45d6cb3c484b6cc7d242cfafc", "rental_uris": {"ios": "https://dc.lft.to/lastmile_qr_scan", "android": "https://dc.lft.to/lastmile_qr_scan"}}, {"is_disabled": 0, "fusion_lat": 0.0, "lat": 38.91713566666667, "type": "electric_scooter", "lon": -77.03101333333333, "is_reserved": 0, "fusion_lon": 0.0, "bike_id": "11fbbad028f67b50fc67bb1d820aa984", "name": "11fbbad028f67b50fc67bb1d820aa984", "rental_uris": {"ios": "https://dc.lft.to/lastmile_qr_scan", "android": "https://dc.lft.to/lastmile_qr_scan"}}, {"is_disabled": 0, "fusion_lat": 0.0, "lat": 38.91874, "type": "electric_scooter", "lon": -77.03554783333334, "is_reserved": 0, "fusion_lon": 0.0, "bike_id": "bc624c46178bbdb6b5c47b9a8eb6d3ac", "name": "bc624c46178bbdb6b5c47b9a8eb6d3ac", "rental_uris": {"ios": "https://dc.lft.to/lastmile_qr_scan", "android": "https://dc.lft.to/lastmile_qr_scan"}}, {"is_disabled": 0, "fusion_lat": 0.0, "lat": 38.85787416666667, "type": "electric_bike", "lon": -77.0995925, "is_reserved": 0, "fusion_lon": 0.0, "bike_id": "c65bb46eb9eb56e175a1357704fd7ae7", "name": "c65bb46eb9eb56e175a1357704fd7ae7", "rental_uris": {"ios": "https://dc.lft.to/lastmile_qr_scan", "android": "https://dc.lft.to/lastmile_qr_scan"}}, {"is_disabled": 0, "fusion_lat": 0.0, "lat": 38.93904033333333, "type": "electric_scooter", "lon": -77.06043683333333, "is_reserved": 0, "fusion_lon": 0.0, "bike_id": "a8a42b7b6bd308cd30c7b9999ad50c0f", "name": "a8a42b7b6bd308cd30c7b9999ad50c0f", "rental_uris": {"ios": "https://dc.lft.to/lastmile_qr_scan", "android": "https://dc.lft.to/lastmile_qr_scan"}}, {"is_disabled": 0, "fusion_lat": 0.0, "lat": 38.8637695, "type": "electric_scooter", "lon": -76.99057483333333, "is_reserved": 0, "fusion_lon": 0.0, "bike_id": "d071cb5694a16dee11c3ad4865e7dd37", "name": "d071cb5694a16dee11c3ad4865e7dd37", "rental_uris": {"ios": "https://dc.lft.to/lastmile_qr_scan", "android": "https://dc.lft.to/lastmile_qr_scan"}}, {"is_disabled": 0, "fusion_lat": 0.0, "lat": 38.9121145, "type": "electric_scooter", "lon": -77.03839316666667, "is_reserved": 0, "fusion_lon": 0.0, "bike_id": "e4536e27ddfbab3c50c751774d080cc3", "name": "e4536e27ddfbab3c50c751774d080cc3", "rental_uris": {"ios": "https://dc.lft.to/lastmile_qr_scan", "android": "https://dc.lft.to/lastmile_qr_scan"}}, {"is_disabled": 0, "fusion_lat": 0.0, "lat": 38.905659, "type": "electric_scooter", "lon": -77.00588966666666, "is_reserved": 0, "fusion_lon": 0.0, "bike_id": "fe0f5e678e2e63db9553f1ef91d76c71", "name": "fe0f5e678e2e63db9553f1ef91d76c71", "rental_uris": {"ios": "https://dc.lft.to/lastmile_qr_scan", "android": "https://dc.lft.to/lastmile_qr_scan"}}, {"is_disabled": 0, "fusion_lat": 0.0, "lat": 38.952724833333335, "type": "electric_bike", "lon": -77.06985083333333, "is_reserved": 0, "fusion_lon": 0.0, "bike_id": "f4b7f1f2722c87b5779b20b3f6592d3f", "name": "f4b7f1f2722c87b5779b20b3f6592d3f", "rental_uris": {"ios": "https://dc.lft.to/lastmile_qr_scan", "android": "https://dc.lft.to/lastmile_qr_scan"}}, {"is_disabled": 0, "fusion_lat": 0.0, "lat": 38.8651525, "type": "electric_scooter", "lon": -76.99044716666667, "is_reserved": 0, "fusion_lon": 0.0, "bike_id": "35244ffd33008d8f7733f0ea28d9c4ef", "name": "35244ffd33008d8f7733f0ea28d9c4ef", "rental_uris": {"ios": "https://dc.lft.to/lastmile_qr_scan", "android": "https://dc.lft.to/lastmile_qr_scan"}}, {"is_disabled": 0, "fusion_lat": 0.0, "lat": 38.91417966666667, "type": "electric_scooter", "lon": -77.01965616666666, "is_reserved": 0, "fusion_lon": 0.0, "bike_id": "77ad8e0f81a5dc3dd9e9204d5c8a178e", "name": "77ad8e0f81a5dc3dd9e9204d5c8a178e", "rental_uris": {"ios": "https://dc.lft.to/lastmile_qr_scan", "android": "https://dc.lft.to/lastmile_qr_scan"}}, {"is_disabled": 0, "fusion_lat": 0.0, "lat": 38.9021345, "type": "electric_scooter", "lon": -77.02369516666667, "is_reserved": 0, "fusion_lon": 0.0, "bike_id": "6cc52d527e6666816f02826a13594adf", "name": "6cc52d527e6666816f02826a13594adf", "rental_uris": {"ios": "https://dc.lft.to/lastmile_qr_scan", "android": "https://dc.lft.to/lastmile_qr_scan"}}, {"is_disabled": 0, "fusion_lat": 0.0, "lat": 38.91910816666667, "type": "electric_scooter", "lon": -77.04624083333333, "is_reserved": 0, "fusion_lon": 0.0, "bike_id": "3c1369ec4b5c062e6cd04d50811f00ad", "name": "3c1369ec4b5c062e6cd04d50811f00ad", "rental_uris": {"ios": "https://dc.lft.to/lastmile_qr_scan", "android": "https://dc.lft.to/lastmile_qr_scan"}}, {"is_disabled": 0, "fusion_lat": 0.0, "lat": 38.93983933333333, "type": "electric_scooter", "lon": -77.031441, "is_reserved": 0, "fusion_lon": 0.0, "bike_id": "f727455905804a8d07be317f501ac32c", "name": "f727455905804a8d07be317f501ac32c", "rental_uris": {"ios": "https://dc.lft.to/lastmile_qr_scan", "android": "https://dc.lft.to/lastmile_qr_scan"}}, {"is_disabled": 0, "fusion_lat": 0.0, "lat": 38.87648433333333, "type": "electric_scooter", "lon": -77.00426583333333, "is_reserved": 0, "fusion_lon": 0.0, "bike_id": "14624c6847fc938c7fdb9e7b55151a36", "name": "14624c6847fc938c7fdb9e7b55151a36", "rental_uris": {"ios": "https://dc.lft.to/lastmile_qr_scan", "android": "https://dc.lft.to/lastmile_qr_scan"}}, {"is_disabled": 0, "fusion_lat": 0.0, "lat": 38.935878, "type": "electric_scooter", "lon": -77.03497016666667, "is_reserved": 0, "fusion_lon": 0.0, "bike_id": "6fa1691c1c92e1b9d9cf1448cfbd2b22", "name": "6fa1691c1c92e1b9d9cf1448cfbd2b22", "rental_uris": {"ios": "https://dc.lft.to/lastmile_qr_scan", "android": "https://dc.lft.to/lastmile_qr_scan"}}, {"is_disabled": 0, "fusion_lat": 0.0, "lat": 38.91712316666667, "type": "electric_scooter", "lon": -77.0088575, "is_reserved": 0, "fusion_lon": 0.0, "bike_id": "0abbf401271d5e027dce29a71f16b6f3", "name": "0abbf401271d5e027dce29a71f16b6f3", "rental_uris": {"ios": "https://dc.lft.to/lastmile_qr_scan", "android": "https://dc.lft.to/lastmile_qr_scan"}}, {"is_disabled": 0, "fusion_lat": 0.0, "lat": 38.931470166666664, "type": "electric_scooter", "lon": -77.02984116666667, "is_reserved": 0, "fusion_lon": 0.0, "bike_id": "8e7672084bc1d8c009ff6704d851fd4e", "name": "8e7672084bc1d8c009ff6704d851fd4e", "rental_uris": {"ios": "https://dc.lft.to/lastmile_qr_scan", "android": "https://dc.lft.to/lastmile_qr_scan"}}, {"is_disabled": 0, "fusion_lat": 0.0, "lat": 38.855592666666666, "type": "electric_scooter", "lon": -76.99495466666667, "is_reserved": 0, "fusion_lon": 0.0, "bike_id": "c364eaac294e13bde26eb558320bada4", "name": "c364eaac294e13bde26eb558320bada4", "rental_uris": {"ios": "https://dc.lft.to/lastmile_qr_scan", "android": "https://dc.lft.to/lastmile_qr_scan"}}, {"is_disabled": 0, "fusion_lat": 0.0, "lat": 38.927253, "type": "electric_scooter", "lon": -77.03661466666667, "is_reserved": 0, "fusion_lon": 0.0, "bike_id": "518cbe465d88633660ddb575f46c1bc9", "name": "518cbe465d88633660ddb575f46c1bc9", "rental_uris": {"ios": "https://dc.lft.to/lastmile_qr_scan", "android": "https://dc.lft.to/lastmile_qr_scan"}}, {"is_disabled": 0, "fusion_lat": 0.0, "lat": 38.920091666666664, "type": "electric_scooter", "lon": -77.02178966666666, "is_reserved": 0, "fusion_lon": 0.0, "bike_id": "2add7bc0b353560ca6da178ef4f1663a", "name": "2add7bc0b353560ca6da178ef4f1663a", "rental_uris": {"ios": "https://dc.lft.to/lastmile_qr_scan", "android": "https://dc.lft.to/lastmile_qr_scan"}}, {"is_disabled": 0, "fusion_lat": 0.0, "lat": 38.9056695, "type": "electric_scooter", "lon": -77.005875, "is_reserved": 0, "fusion_lon": 0.0, "bike_id": "b508a173aca41530997b3bfbfce31d2b", "name": "b508a173aca41530997b3bfbfce31d2b", "rental_uris": {"ios": "https://dc.lft.to/lastmile_qr_scan", "android": "https://dc.lft.to/lastmile_qr_scan"}}, {"is_disabled": 0, "fusion_lat": 0.0, "lat": 38.91556766666667, "type": "electric_scooter", "lon": -77.021649, "is_reserved": 0, "fusion_lon": 0.0, "bike_id": "0b41ec4b744faf997af20c88d010cbab", "name": "0b41ec4b744faf997af20c88d010cbab", "rental_uris": {"ios": "https://dc.lft.to/lastmile_qr_scan", "android": "https://dc.lft.to/lastmile_qr_scan"}}, {"is_disabled": 0, "fusion_lat": 0.0, "lat": 38.9028495, "type": "electric_scooter", "lon": -77.04022183333333, "is_reserved": 0, "fusion_lon": 0.0, "bike_id": "3db345c62442fad9aa59b0a336ec9680", "name": "3db345c62442fad9aa59b0a336ec9680", "rental_uris": {"ios": "https://dc.lft.to/lastmile_qr_scan", "android": "https://dc.lft.to/lastmile_qr_scan"}}, {"is_disabled": 0, "fusion_lat": 0.0, "lat": 38.917350166666665, "type": "electric_scooter", "lon": -77.03451116666666, "is_reserved": 0, "fusion_lon": 0.0, "bike_id": "119483576c8ae43f08c5a3c903ecb73c", "name": "119483576c8ae43f08c5a3c903ecb73c", "rental_uris": {"ios": "https://dc.lft.to/lastmile_qr_scan", "android": "https://dc.lft.to/lastmile_qr_scan"}}, {"is_disabled": 0, "fusion_lat": 0.0, "lat": 38.91298366666667, "type": "electric_bike", "lon": -77.08292566666667, "is_reserved": 0, "fusion_lon": 0.0, "bike_id": "1bc74c26b529db342d095aeff4d9c640", "name": "1bc74c26b529db342d095aeff4d9c640", "rental_uris": {"ios": "https://dc.lft.to/lastmile_qr_scan", "android": "https://dc.lft.to/lastmile_qr_scan"}}, {"is_disabled": 0, "fusion_lat": 0.0, "lat": 38.92284466666667, "type": "electric_scooter", "lon": -77.0412495, "is_reserved": 0, "fusion_lon": 0.0, "bike_id": "965353cc9fe7af0db3c278fe49c7936d", "name": "965353cc9fe7af0db3c278fe49c7936d", "rental_uris": {"ios": "https://dc.lft.to/lastmile_qr_scan", "android": "https://dc.lft.to/lastmile_qr_scan"}}, {"is_disabled": 0, "fusion_lat": 0.0, "lat": 38.91698816666667, "type": "electric_scooter", "lon": -77.01229566666666, "is_reserved": 0, "fusion_lon": 0.0, "bike_id": "9d4ca6b13c2e8e9b775a325134455785", "name": "9d4ca6b13c2e8e9b775a325134455785", "rental_uris": {"ios": "https://dc.lft.to/lastmile_qr_scan", "android": "https://dc.lft.to/lastmile_qr_scan"}}, {"is_disabled": 0, "fusion_lat": 0.0, "lat": 38.9133185, "type": "electric_scooter", "lon": -77.04809716666666, "is_reserved": 0, "fusion_lon": 0.0, "bike_id": "99a3697b218474f6d7a618b210879783", "name": "99a3697b218474f6d7a618b210879783", "rental_uris": {"ios": "https://dc.lft.to/lastmile_qr_scan", "android": "https://dc.lft.to/lastmile_qr_scan"}}, {"is_disabled": 0, "fusion_lat": 0.0, "lat": 38.933644, "type": "electric_scooter", "lon": -77.03440666666667, "is_reserved": 0, "fusion_lon": 0.0, "bike_id": "013ef26544ab2b04b31b237dd51498bd", "name": "013ef26544ab2b04b31b237dd51498bd", "rental_uris": {"ios": "https://dc.lft.to/lastmile_qr_scan", "android": "https://dc.lft.to/lastmile_qr_scan"}}, {"is_disabled": 0, "fusion_lat": 0.0, "lat": 38.897996, "type": "electric_scooter", "lon": -77.01899783333333, "is_reserved": 0, "fusion_lon": 0.0, "bike_id": "334bfffef94aea74769293dbbc4942c9", "name": "334bfffef94aea74769293dbbc4942c9", "rental_uris": {"ios": "https://dc.lft.to/lastmile_qr_scan", "android": "https://dc.lft.to/lastmile_qr_scan"}}, {"is_disabled": 0, "fusion_lat": 0.0, "lat": 38.87923166666667, "type": "electric_scooter", "lon": -76.99245183333333, "is_reserved": 0, "fusion_lon": 0.0, "bike_id": "3f80a98a6140c976a530892ab9fc650b", "name": "3f80a98a6140c976a530892ab9fc650b", "rental_uris": {"ios": "https://dc.lft.to/lastmile_qr_scan", "android": "https://dc.lft.to/lastmile_qr_scan"}}, {"is_disabled": 0, "fusion_lat": 0.0, "lat": 38.93794416666667, "type": "electric_scooter", "lon": -77.0599905, "is_reserved": 0, "fusion_lon": 0.0, "bike_id": "0a199937f46f36accfa493cb47bd3616", "name": "0a199937f46f36accfa493cb47bd3616", "rental_uris": {"ios": "https://dc.lft.to/lastmile_qr_scan", "android": "https://dc.lft.to/lastmile_qr_scan"}}, {"is_disabled": 0, "fusion_lat": 0.0, "lat": 38.908539, "type": "electric_scooter", "lon": -77.02328833333333, "is_reserved": 0, "fusion_lon": 0.0, "bike_id": "f7bcb14a302489bf8c82965e63d52bcb", "name": "f7bcb14a302489bf8c82965e63d52bcb", "rental_uris": {"ios": "https://dc.lft.to/lastmile_qr_scan", "android": "https://dc.lft.to/lastmile_qr_scan"}}, {"is_disabled": 0, "fusion_lat": 0.0, "lat": 38.90980833333333, "type": "electric_scooter", "lon": -77.0318, "is_reserved": 0, "fusion_lon": 0.0, "bike_id": "7cf8984501484f7756cbffe9719618d8", "name": "7cf8984501484f7756cbffe9719618d8", "rental_uris": {"ios": "https://dc.lft.to/lastmile_qr_scan", "android": "https://dc.lft.to/lastmile_qr_scan"}}, {"is_disabled": 0, "fusion_lat": 0.0, "lat": 38.90470633333334, "type": "electric_scooter", "lon": -77.04860083333334, "is_reserved": 0, "fusion_lon": 0.0, "bike_id": "8521840cca1c1cd5b893c5a70151d8f8", "name": "8521840cca1c1cd5b893c5a70151d8f8", "rental_uris": {"ios": "https://dc.lft.to/lastmile_qr_scan", "android": "https://dc.lft.to/lastmile_qr_scan"}}, {"is_disabled": 0, "fusion_lat": 0.0, "lat": 38.959559666666664, "type": "electric_bike", "lon": -77.1009025, "is_reserved": 0, "fusion_lon": 0.0, "bike_id": "9015f917a479d418621f549ab8bd8f8d", "name": "9015f917a479d418621f549ab8bd8f8d", "rental_uris": {"ios": "https://dc.lft.to/lastmile_qr_scan", "android": "https://dc.lft.to/lastmile_qr_scan"}}, {"is_disabled": 0, "fusion_lat": 0.0, "lat": 38.900433666666665, "type": "electric_scooter", "lon": -76.98841516666667, "is_reserved": 0, "fusion_lon": 0.0, "bike_id": "b5cc811a0e29041012b2ba1465ea48f3", "name": "b5cc811a0e29041012b2ba1465ea48f3", "rental_uris": {"ios": "https://dc.lft.to/lastmile_qr_scan", "android": "https://dc.lft.to/lastmile_qr_scan"}}, {"is_disabled": 0, "fusion_lat": 0.0, "lat": 38.92654516666666, "type": "electric_scooter", "lon": -77.037025, "is_reserved": 0, "fusion_lon": 0.0, "bike_id": "81024807c9516ddbc4089004e7cccae8", "name": "81024807c9516ddbc4089004e7cccae8", "rental_uris": {"ios": "https://dc.lft.to/lastmile_qr_scan", "android": "https://dc.lft.to/lastmile_qr_scan"}}, {"is_disabled": 0, "fusion_lat": 0.0, "lat": 38.961420833333335, "type": "electric_scooter", "lon": -77.0278015, "is_reserved": 0, "fusion_lon": 0.0, "bike_id": "93cacdbc3404ad63eb7fcf50f5ae7694", "name": "93cacdbc3404ad63eb7fcf50f5ae7694", "rental_uris": {"ios": "https://dc.lft.to/lastmile_qr_scan", "android": "https://dc.lft.to/lastmile_qr_scan"}}, {"is_disabled": 0, "fusion_lat": 0.0, "lat": 38.88458033333333, "type": "electric_scooter", "lon": -77.03027316666666, "is_reserved": 0, "fusion_lon": 0.0, "bike_id": "31ee35bd6d26c0179ac3fb7256e82cf9", "name": "31ee35bd6d26c0179ac3fb7256e82cf9", "rental_uris": {"ios": "https://dc.lft.to/lastmile_qr_scan", "android": "https://dc.lft.to/lastmile_qr_scan"}}, {"is_disabled": 0, "fusion_lat": 0.0, "lat": 38.897437833333335, "type": "electric_scooter", "lon": -77.00029516666666, "is_reserved": 0, "fusion_lon": 0.0, "bike_id": "6c2292853a516eba114ad9cfabdc6c4a", "name": "6c2292853a516eba114ad9cfabdc6c4a", "rental_uris": {"ios": "https://dc.lft.to/lastmile_qr_scan", "android": "https://dc.lft.to/lastmile_qr_scan"}}, {"is_disabled": 0, "fusion_lat": 0.0, "lat": 38.896308, "type": "electric_scooter", "lon": -76.98501766666666, "is_reserved": 0, "fusion_lon": 0.0, "bike_id": "6a82618c521f44bd05721e8a01dd92c9", "name": "6a82618c521f44bd05721e8a01dd92c9", "rental_uris": {"ios": "https://dc.lft.to/lastmile_qr_scan", "android": "https://dc.lft.to/lastmile_qr_scan"}}, {"is_disabled": 0, "fusion_lat": 0.0, "lat": 38.91559266666667, "type": "electric_scooter", "lon": -77.03369183333334, "is_reserved": 0, "fusion_lon": 0.0, "bike_id": "e6466eda0339d97d19f89414ba5bb494", "name": "e6466eda0339d97d19f89414ba5bb494", "rental_uris": {"ios": "https://dc.lft.to/lastmile_qr_scan", "android": "https://dc.lft.to/lastmile_qr_scan"}}, {"is_disabled": 0, "fusion_lat": 0.0, "lat": 38.917056, "type": "electric_scooter", "lon": -77.001186, "is_reserved": 0, "fusion_lon": 0.0, "bike_id": "5d7581bb555c83a44cc31fc5e1ad8dda", "name": "5d7581bb555c83a44cc31fc5e1ad8dda", "rental_uris": {"ios": "https://dc.lft.to/lastmile_qr_scan", "android": "https://dc.lft.to/lastmile_qr_scan"}}, {"is_disabled": 0, "fusion_lat": 0.0, "lat": 38.885008166666665, "type": "electric_scooter", "lon": -77.02194933333334, "is_reserved": 0, "fusion_lon": 0.0, "bike_id": "4237bbff2dfb4207345a544f51bbe7e1", "name": "4237bbff2dfb4207345a544f51bbe7e1", "rental_uris": {"ios": "https://dc.lft.to/lastmile_qr_scan", "android": "https://dc.lft.to/lastmile_qr_scan"}}, {"is_disabled": 0, "fusion_lat": 0.0, "lat": 38.8922165, "type": "electric_scooter", "lon": -77.02219966666667, "is_reserved": 0, "fusion_lon": 0.0, "bike_id": "561de1074a84bdf026de61e6c5a9799a", "name": "561de1074a84bdf026de61e6c5a9799a", "rental_uris": {"ios": "https://dc.lft.to/lastmile_qr_scan", "android": "https://dc.lft.to/lastmile_qr_scan"}}, {"is_disabled": 0, "fusion_lat": 0.0, "lat": 38.911905, "type": "electric_scooter", "lon": -77.06091116666667, "is_reserved": 0, "fusion_lon": 0.0, "bike_id": "0564b3e2a563f384579c137bf3c057c7", "name": "0564b3e2a563f384579c137bf3c057c7", "rental_uris": {"ios": "https://dc.lft.to/lastmile_qr_scan", "android": "https://dc.lft.to/lastmile_qr_scan"}}, {"is_disabled": 0, "fusion_lat": 0.0, "lat": 38.89213383333333, "type": "electric_scooter", "lon": -77.0005225, "is_reserved": 0, "fusion_lon": 0.0, "bike_id": "764e46e5ba5332ea186bfb8ef7355ad0", "name": "764e46e5ba5332ea186bfb8ef7355ad0", "rental_uris": {"ios": "https://dc.lft.to/lastmile_qr_scan", "android": "https://dc.lft.to/lastmile_qr_scan"}}, {"is_disabled": 0, "fusion_lat": 0.0, "lat": 38.860578, "type": "electric_bike", "lon": -77.056472, "is_reserved": 0, "fusion_lon": 0.0, "bike_id": "6b48fdbe66e402c0d12091726703953f", "name": "6b48fdbe66e402c0d12091726703953f", "rental_uris": {"ios": "https://dc.lft.to/lastmile_qr_scan", "android": "https://dc.lft.to/lastmile_qr_scan"}}, {"is_disabled": 0, "fusion_lat": 0.0, "lat": 38.8446555, "type": "electric_scooter", "lon": -76.998629, "is_reserved": 0, "fusion_lon": 0.0, "bike_id": "16ae0f25cf6fd26d8cf037b78ef5822b", "name": "16ae0f25cf6fd26d8cf037b78ef5822b", "rental_uris": {"ios": "https://dc.lft.to/lastmile_qr_scan", "android": "https://dc.lft.to/lastmile_qr_scan"}}, {"is_disabled": 0, "fusion_lat": 0.0, "lat": 38.9175355, "type": "electric_scooter", "lon": -77.03189633333334, "is_reserved": 0, "fusion_lon": 0.0, "bike_id": "a61a203e4eebd0763effc0a7c593794d", "name": "a61a203e4eebd0763effc0a7c593794d", "rental_uris": {"ios": "https://dc.lft.to/lastmile_qr_scan", "android": "https://dc.lft.to/lastmile_qr_scan"}}, {"is_disabled": 0, "fusion_lat": 0.0, "lat": 38.923584, "type": "electric_scooter", "lon": -77.05091883333333, "is_reserved": 0, "fusion_lon": 0.0, "bike_id": "db32c97f09720a599a46a23f0ffa362b", "name": "db32c97f09720a599a46a23f0ffa362b", "rental_uris": {"ios": "https://dc.lft.to/lastmile_qr_scan", "android": "https://dc.lft.to/lastmile_qr_scan"}}, {"is_disabled": 0, "fusion_lat": 0.0, "lat": 38.936163666666666, "type": "electric_scooter", "lon": -77.08186283333333, "is_reserved": 0, "fusion_lon": 0.0, "bike_id": "dd3874fa8b46eaf91607dca0414776cc", "name": "dd3874fa8b46eaf91607dca0414776cc", "rental_uris": {"ios": "https://dc.lft.to/lastmile_qr_scan", "android": "https://dc.lft.to/lastmile_qr_scan"}}, {"is_disabled": 0, "fusion_lat": 0.0, "lat": 38.934994833333334, "type": "electric_scooter", "lon": -77.05800966666666, "is_reserved": 0, "fusion_lon": 0.0, "bike_id": "0a27b8ced1db17448927c48a3ae92f76", "name": "0a27b8ced1db17448927c48a3ae92f76", "rental_uris": {"ios": "https://dc.lft.to/lastmile_qr_scan", "android": "https://dc.lft.to/lastmile_qr_scan"}}, {"is_disabled": 0, "fusion_lat": 0.0, "lat": 38.918396666666666, "type": "electric_scooter", "lon": -77.03198, "is_reserved": 0, "fusion_lon": 0.0, "bike_id": "45b26ca9b671fcd9d1a19407cdd800a4", "name": "45b26ca9b671fcd9d1a19407cdd800a4", "rental_uris": {"ios": "https://dc.lft.to/lastmile_qr_scan", "android": "https://dc.lft.to/lastmile_qr_scan"}}, {"is_disabled": 0, "fusion_lat": 0.0, "lat": 38.90029833333333, "type": "electric_scooter", "lon": -77.00212016666667, "is_reserved": 0, "fusion_lon": 0.0, "bike_id": "83caf95fc018f7adaba6f7c9feb33645", "name": "83caf95fc018f7adaba6f7c9feb33645", "rental_uris": {"ios": "https://dc.lft.to/lastmile_qr_scan", "android": "https://dc.lft.to/lastmile_qr_scan"}}, {"is_disabled": 0, "fusion_lat": 0.0, "lat": 38.904922666666664, "type": "electric_scooter", "lon": -76.97925283333333, "is_reserved": 0, "fusion_lon": 0.0, "bike_id": "811cbd0139634221eb2632a7a960fd81", "name": "811cbd0139634221eb2632a7a960fd81", "rental_uris": {"ios": "https://dc.lft.to/lastmile_qr_scan", "android": "https://dc.lft.to/lastmile_qr_scan"}}, {"is_disabled": 0, "fusion_lat": 0.0, "lat": 38.88035683333333, "type": "electric_scooter", "lon": -77.019241, "is_reserved": 0, "fusion_lon": 0.0, "bike_id": "5fb04defef0a577652d81dab1a9c891b", "name": "5fb04defef0a577652d81dab1a9c891b", "rental_uris": {"ios": "https://dc.lft.to/lastmile_qr_scan", "android": "https://dc.lft.to/lastmile_qr_scan"}}, {"is_disabled": 0, "fusion_lat": 0.0, "lat": 38.836790666666666, "type": "electric_scooter", "lon": -77.00592466666667, "is_reserved": 0, "fusion_lon": 0.0, "bike_id": "51073fcd64577e63b5ac1fad34038446", "name": "51073fcd64577e63b5ac1fad34038446", "rental_uris": {"ios": "https://dc.lft.to/lastmile_qr_scan", "android": "https://dc.lft.to/lastmile_qr_scan"}}, {"is_disabled": 0, "fusion_lat": 0.0, "lat": 38.870048, "type": "electric_bike", "lon": -76.96016333333333, "is_reserved": 0, "fusion_lon": 0.0, "bike_id": "b1a0bf4f39ca57be1b8cb0beca6ca0f0", "name": "b1a0bf4f39ca57be1b8cb0beca6ca0f0", "rental_uris": {"ios": "https://dc.lft.to/lastmile_qr_scan", "android": "https://dc.lft.to/lastmile_qr_scan"}}, {"is_disabled": 0, "fusion_lat": 0.0, "lat": 38.9367105, "type": "electric_bike", "lon": -76.95222233333334, "is_reserved": 0, "fusion_lon": 0.0, "bike_id": "f4461517991eecc81de96076d6772845", "name": "f4461517991eecc81de96076d6772845", "rental_uris": {"ios": "https://dc.lft.to/lastmile_qr_scan", "android": "https://dc.lft.to/lastmile_qr_scan"}}, {"is_disabled": 0, "fusion_lat": 0.0, "lat": 38.9003505, "type": "electric_scooter", "lon": -76.99747966666666, "is_reserved": 0, "fusion_lon": 0.0, "bike_id": "8f29e75e602447c7fa727b266e78e334", "name": "8f29e75e602447c7fa727b266e78e334", "rental_uris": {"ios": "https://dc.lft.to/lastmile_qr_scan", "android": "https://dc.lft.to/lastmile_qr_scan"}}, {"is_disabled": 0, "fusion_lat": 0.0, "lat": 38.90263316666667, "type": "electric_scooter", "lon": -77.01760933333334, "is_reserved": 0, "fusion_lon": 0.0, "bike_id": "9e8df6d0d8f4f0ef07de8d9fa9b2f434", "name": "9e8df6d0d8f4f0ef07de8d9fa9b2f434", "rental_uris": {"ios": "https://dc.lft.to/lastmile_qr_scan", "android": "https://dc.lft.to/lastmile_qr_scan"}}, {"is_disabled": 0, "fusion_lat": 0.0, "lat": 38.927710166666664, "type": "electric_scooter", "lon": -77.02708616666666, "is_reserved": 0, "fusion_lon": 0.0, "bike_id": "68fc5199c2b3cb1babf0f4f87ac83a80", "name": "68fc5199c2b3cb1babf0f4f87ac83a80", "rental_uris": {"ios": "https://dc.lft.to/lastmile_qr_scan", "android": "https://dc.lft.to/lastmile_qr_scan"}}, {"is_disabled": 0, "fusion_lat": 0.0, "lat": 38.91540916666667, "type": "electric_scooter", "lon": -77.03791483333333, "is_reserved": 0, "fusion_lon": 0.0, "bike_id": "4fb904d6dcafe334bc05f4249b2fb98b", "name": "4fb904d6dcafe334bc05f4249b2fb98b", "rental_uris": {"ios": "https://dc.lft.to/lastmile_qr_scan", "android": "https://dc.lft.to/lastmile_qr_scan"}}, {"is_disabled": 0, "fusion_lat": 0.0, "lat": 38.8748335, "type": "electric_bike", "lon": -76.9652545, "is_reserved": 0, "fusion_lon": 0.0, "bike_id": "cdaf3447eaccc336fe7440d59be2de4d", "name": "cdaf3447eaccc336fe7440d59be2de4d", "rental_uris": {"ios": "https://dc.lft.to/lastmile_qr_scan", "android": "https://dc.lft.to/lastmile_qr_scan"}}, {"is_disabled": 0, "fusion_lat": 0.0, "lat": 38.92053, "type": "electric_scooter", "lon": -77.03205983333334, "is_reserved": 0, "fusion_lon": 0.0, "bike_id": "cd56cd17bfc8b0f2e1298840de57ebfd", "name": "cd56cd17bfc8b0f2e1298840de57ebfd", "rental_uris": {"ios": "https://dc.lft.to/lastmile_qr_scan", "android": "https://dc.lft.to/lastmile_qr_scan"}}, {"is_disabled": 0, "fusion_lat": 0.0, "lat": 38.923358, "type": "electric_scooter", "lon": -77.03614383333333, "is_reserved": 0, "fusion_lon": 0.0, "bike_id": "62a5b060b8e5196f56cbffc518e1eae8", "name": "62a5b060b8e5196f56cbffc518e1eae8", "rental_uris": {"ios": "https://dc.lft.to/lastmile_qr_scan", "android": "https://dc.lft.to/lastmile_qr_scan"}}, {"is_disabled": 0, "fusion_lat": 0.0, "lat": 38.90574616666667, "type": "electric_scooter", "lon": -77.0485455, "is_reserved": 0, "fusion_lon": 0.0, "bike_id": "a3aa72e38ecc9d5967e6c70e07c514da", "name": "a3aa72e38ecc9d5967e6c70e07c514da", "rental_uris": {"ios": "https://dc.lft.to/lastmile_qr_scan", "android": "https://dc.lft.to/lastmile_qr_scan"}}, {"is_disabled": 0, "fusion_lat": 0.0, "lat": 38.897379, "type": "electric_scooter", "lon": -77.04685833333333, "is_reserved": 0, "fusion_lon": 0.0, "bike_id": "0271fd224f15a1638a44462b9be41ccd", "name": "0271fd224f15a1638a44462b9be41ccd", "rental_uris": {"ios": "https://dc.lft.to/lastmile_qr_scan", "android": "https://dc.lft.to/lastmile_qr_scan"}}, {"is_disabled": 0, "fusion_lat": 0.0, "lat": 38.885852666666665, "type": "electric_scooter", "lon": -77.01978533333333, "is_reserved": 0, "fusion_lon": 0.0, "bike_id": "e7672e569c281c46d10f03ca1a69782b", "name": "e7672e569c281c46d10f03ca1a69782b", "rental_uris": {"ios": "https://dc.lft.to/lastmile_qr_scan", "android": "https://dc.lft.to/lastmile_qr_scan"}}, {"is_disabled": 0, "fusion_lat": 0.0, "lat": 38.9206865, "type": "electric_scooter", "lon": -77.04553866666667, "is_reserved": 0, "fusion_lon": 0.0, "bike_id": "7cb17272468386dc7e6d882dedd2a3e7", "name": "7cb17272468386dc7e6d882dedd2a3e7", "rental_uris": {"ios": "https://dc.lft.to/lastmile_qr_scan", "android": "https://dc.lft.to/lastmile_qr_scan"}}, {"is_disabled": 0, "fusion_lat": 0.0, "lat": 38.92311433333333, "type": "electric_scooter", "lon": -77.04129833333333, "is_reserved": 0, "fusion_lon": 0.0, "bike_id": "1de1f9dcd183470099be52f790807a94", "name": "1de1f9dcd183470099be52f790807a94", "rental_uris": {"ios": "https://dc.lft.to/lastmile_qr_scan", "android": "https://dc.lft.to/lastmile_qr_scan"}}, {"is_disabled": 0, "fusion_lat": 0.0, "lat": 38.904654666666666, "type": "electric_scooter", "lon": -76.989038, "is_reserved": 0, "fusion_lon": 0.0, "bike_id": "347fee6c1da5d671a5a2054e25a3ebc2", "name": "347fee6c1da5d671a5a2054e25a3ebc2", "rental_uris": {"ios": "https://dc.lft.to/lastmile_qr_scan", "android": "https://dc.lft.to/lastmile_qr_scan"}}, {"is_disabled": 0, "fusion_lat": 0.0, "lat": 38.9661555, "type": "electric_bike", "lon": -77.03422583333334, "is_reserved": 0, "fusion_lon": 0.0, "bike_id": "e14f04ab374d3d691a7059fd803e7ce5", "name": "e14f04ab374d3d691a7059fd803e7ce5", "rental_uris": {"ios": "https://dc.lft.to/lastmile_qr_scan", "android": "https://dc.lft.to/lastmile_qr_scan"}}, {"is_disabled": 0, "fusion_lat": 0.0, "lat": 38.913997333333334, "type": "electric_scooter", "lon": -77.03921416666667, "is_reserved": 0, "fusion_lon": 0.0, "bike_id": "3ed35d7deed6278d732a6c74c96fd1f6", "name": "3ed35d7deed6278d732a6c74c96fd1f6", "rental_uris": {"ios": "https://dc.lft.to/lastmile_qr_scan", "android": "https://dc.lft.to/lastmile_qr_scan"}}, {"is_disabled": 0, "fusion_lat": 0.0, "lat": 38.9167155, "type": "electric_scooter", "lon": -77.0347505, "is_reserved": 0, "fusion_lon": 0.0, "bike_id": "557c85e34c7afc843f8c9f97b1fef36d", "name": "557c85e34c7afc843f8c9f97b1fef36d", "rental_uris": {"ios": "https://dc.lft.to/lastmile_qr_scan", "android": "https://dc.lft.to/lastmile_qr_scan"}}, {"is_disabled": 0, "fusion_lat": 0.0, "lat": 38.9065205, "type": "electric_scooter", "lon": -77.04150416666667, "is_reserved": 0, "fusion_lon": 0.0, "bike_id": "77bb690b7fed8ed240747226e06fa5d6", "name": "77bb690b7fed8ed240747226e06fa5d6", "rental_uris": {"ios": "https://dc.lft.to/lastmile_qr_scan", "android": "https://dc.lft.to/lastmile_qr_scan"}}, {"is_disabled": 0, "fusion_lat": 0.0, "lat": 38.90809433333333, "type": "electric_scooter", "lon": -76.998578, "is_reserved": 0, "fusion_lon": 0.0, "bike_id": "686e592feccc492b5ac08075876b1e50", "name": "686e592feccc492b5ac08075876b1e50", "rental_uris": {"ios": "https://dc.lft.to/lastmile_qr_scan", "android": "https://dc.lft.to/lastmile_qr_scan"}}, {"is_disabled": 0, "fusion_lat": 0.0, "lat": 38.89736966666667, "type": "electric_scooter", "lon": -76.94719516666666, "is_reserved": 0, "fusion_lon": 0.0, "bike_id": "355083614fed45b8043cff3db5764805", "name": "355083614fed45b8043cff3db5764805", "rental_uris": {"ios": "https://dc.lft.to/lastmile_qr_scan", "android": "https://dc.lft.to/lastmile_qr_scan"}}, {"is_disabled": 0, "fusion_lat": 0.0, "lat": 38.908389666666665, "type": "electric_scooter", "lon": -77.026856, "is_reserved": 0, "fusion_lon": 0.0, "bike_id": "433c1c07b52fe44b38b5b4c2492aed26", "name": "433c1c07b52fe44b38b5b4c2492aed26", "rental_uris": {"ios": "https://dc.lft.to/lastmile_qr_scan", "android": "https://dc.lft.to/lastmile_qr_scan"}}, {"is_disabled": 0, "fusion_lat": 0.0, "lat": 38.8749685, "type": "electric_scooter", "lon": -76.99791533333334, "is_reserved": 0, "fusion_lon": 0.0, "bike_id": "1c902c697fa89898843b482a59281703", "name": "1c902c697fa89898843b482a59281703", "rental_uris": {"ios": "https://dc.lft.to/lastmile_qr_scan", "android": "https://dc.lft.to/lastmile_qr_scan"}}, {"is_disabled": 0, "fusion_lat": 0.0, "lat": 38.924147, "type": "electric_scooter", "lon": -77.0224265, "is_reserved": 0, "fusion_lon": 0.0, "bike_id": "fabab14d9c28cfc5d13cc4b9e0d5781c", "name": "fabab14d9c28cfc5d13cc4b9e0d5781c", "rental_uris": {"ios": "https://dc.lft.to/lastmile_qr_scan", "android": "https://dc.lft.to/lastmile_qr_scan"}}, {"is_disabled": 0, "fusion_lat": 0.0, "lat": 38.891998666666666, "type": "electric_scooter", "lon": -77.023766, "is_reserved": 0, "fusion_lon": 0.0, "bike_id": "dc191aa6fbb897ef17dd8627f1741820", "name": "dc191aa6fbb897ef17dd8627f1741820", "rental_uris": {"ios": "https://dc.lft.to/lastmile_qr_scan", "android": "https://dc.lft.to/lastmile_qr_scan"}}, {"is_disabled": 0, "fusion_lat": 0.0, "lat": 38.899079666666665, "type": "electric_scooter", "lon": -76.93357283333333, "is_reserved": 0, "fusion_lon": 0.0, "bike_id": "cd71d0b978b43ce6eb6ac3a4c07731d3", "name": "cd71d0b978b43ce6eb6ac3a4c07731d3", "rental_uris": {"ios": "https://dc.lft.to/lastmile_qr_scan", "android": "https://dc.lft.to/lastmile_qr_scan"}}, {"is_disabled": 0, "fusion_lat": 0.0, "lat": 38.904116, "type": "electric_scooter", "lon": -77.02080583333333, "is_reserved": 0, "fusion_lon": 0.0, "bike_id": "fe12ac0948f85449b9d94b9857f1fdb3", "name": "fe12ac0948f85449b9d94b9857f1fdb3", "rental_uris": {"ios": "https://dc.lft.to/lastmile_qr_scan", "android": "https://dc.lft.to/lastmile_qr_scan"}}, {"is_disabled": 0, "fusion_lat": 0.0, "lat": 38.883337166666664, "type": "electric_scooter", "lon": -76.93453933333333, "is_reserved": 0, "fusion_lon": 0.0, "bike_id": "6121e0c5987db176ca6c06b7134f03ac", "name": "6121e0c5987db176ca6c06b7134f03ac", "rental_uris": {"ios": "https://dc.lft.to/lastmile_qr_scan", "android": "https://dc.lft.to/lastmile_qr_scan"}}, {"is_disabled": 0, "fusion_lat": 0.0, "lat": 38.858131666666665, "type": "electric_scooter", "lon": -76.98990616666667, "is_reserved": 0, "fusion_lon": 0.0, "bike_id": "5681da6eab4fffce2477419d0a20cc5b", "name": "5681da6eab4fffce2477419d0a20cc5b", "rental_uris": {"ios": "https://dc.lft.to/lastmile_qr_scan", "android": "https://dc.lft.to/lastmile_qr_scan"}}, {"is_disabled": 0, "fusion_lat": 0.0, "lat": 38.94017683333333, "type": "electric_scooter", "lon": -77.07170783333333, "is_reserved": 0, "fusion_lon": 0.0, "bike_id": "5d2dc82850f2a979d41390655ce1e39c", "name": "5d2dc82850f2a979d41390655ce1e39c", "rental_uris": {"ios": "https://dc.lft.to/lastmile_qr_scan", "android": "https://dc.lft.to/lastmile_qr_scan"}}, {"is_disabled": 0, "fusion_lat": 0.0, "lat": 38.8851965, "type": "electric_scooter", "lon": -77.03344716666666, "is_reserved": 0, "fusion_lon": 0.0, "bike_id": "6617813a7ce191fea17f70fdd733a528", "name": "6617813a7ce191fea17f70fdd733a528", "rental_uris": {"ios": "https://dc.lft.to/lastmile_qr_scan", "android": "https://dc.lft.to/lastmile_qr_scan"}}, {"is_disabled": 0, "fusion_lat": 0.0, "lat": 38.92368583333333, "type": "electric_scooter", "lon": -77.05029583333334, "is_reserved": 0, "fusion_lon": 0.0, "bike_id": "3b6a6ad3ee0677390919e6d03ffcb601", "name": "3b6a6ad3ee0677390919e6d03ffcb601", "rental_uris": {"ios": "https://dc.lft.to/lastmile_qr_scan", "android": "https://dc.lft.to/lastmile_qr_scan"}}, {"is_disabled": 0, "fusion_lat": 0.0, "lat": 38.904914833333336, "type": "electric_scooter", "lon": -77.0601275, "is_reserved": 0, "fusion_lon": 0.0, "bike_id": "2e67d2fbf01d60aa90a1c67e81da579c", "name": "2e67d2fbf01d60aa90a1c67e81da579c", "rental_uris": {"ios": "https://dc.lft.to/lastmile_qr_scan", "android": "https://dc.lft.to/lastmile_qr_scan"}}, {"is_disabled": 0, "fusion_lat": 0.0, "lat": 38.945492, "type": "electric_bike", "lon": -76.89530533333334, "is_reserved": 0, "fusion_lon": 0.0, "bike_id": "5597838cb1ad24825dd2aadb8316dc71", "name": "5597838cb1ad24825dd2aadb8316dc71", "rental_uris": {"ios": "https://dc.lft.to/lastmile_qr_scan", "android": "https://dc.lft.to/lastmile_qr_scan"}}, {"is_disabled": 0, "fusion_lat": 0.0, "lat": 38.95257216666667, "type": "electric_scooter", "lon": -77.06976133333333, "is_reserved": 0, "fusion_lon": 0.0, "bike_id": "51103934ed43f8f59484ee85376ec846", "name": "51103934ed43f8f59484ee85376ec846", "rental_uris": {"ios": "https://dc.lft.to/lastmile_qr_scan", "android": "https://dc.lft.to/lastmile_qr_scan"}}, {"is_disabled": 0, "fusion_lat": 0.0, "lat": 38.92571183333333, "type": "electric_scooter", "lon": -77.02835416666667, "is_reserved": 0, "fusion_lon": 0.0, "bike_id": "73f5997701a7b4062a447cd2d986e49b", "name": "73f5997701a7b4062a447cd2d986e49b", "rental_uris": {"ios": "https://dc.lft.to/lastmile_qr_scan", "android": "https://dc.lft.to/lastmile_qr_scan"}}, {"is_disabled": 0, "fusion_lat": 0.0, "lat": 38.8983245, "type": "electric_scooter", "lon": -76.94631733333334, "is_reserved": 0, "fusion_lon": 0.0, "bike_id": "07a5d281e5fa384dbd9a00517a863fcc", "name": "07a5d281e5fa384dbd9a00517a863fcc", "rental_uris": {"ios": "https://dc.lft.to/lastmile_qr_scan", "android": "https://dc.lft.to/lastmile_qr_scan"}}, {"is_disabled": 0, "fusion_lat": 0.0, "lat": 38.949404333333334, "type": "electric_bike", "lon": -77.01615666666666, "is_reserved": 0, "fusion_lon": 0.0, "bike_id": "47ebbce63c2701e745d22e79d1b94ac2", "name": "47ebbce63c2701e745d22e79d1b94ac2", "rental_uris": {"ios": "https://dc.lft.to/lastmile_qr_scan", "android": "https://dc.lft.to/lastmile_qr_scan"}}, {"is_disabled": 0, "fusion_lat": 0.0, "lat": 38.9161675, "type": "electric_scooter", "lon": -77.03138616666666, "is_reserved": 0, "fusion_lon": 0.0, "bike_id": "d1e0c98db0575ad3aec95f02989a896a", "name": "d1e0c98db0575ad3aec95f02989a896a", "rental_uris": {"ios": "https://dc.lft.to/lastmile_qr_scan", "android": "https://dc.lft.to/lastmile_qr_scan"}}, {"is_disabled": 0, "fusion_lat": 0.0, "lat": 38.90973416666667, "type": "electric_scooter", "lon": -77.03436933333333, "is_reserved": 0, "fusion_lon": 0.0, "bike_id": "81aff99dc621b012471be33dbe550dc0", "name": "81aff99dc621b012471be33dbe550dc0", "rental_uris": {"ios": "https://dc.lft.to/lastmile_qr_scan", "android": "https://dc.lft.to/lastmile_qr_scan"}}, {"is_disabled": 0, "fusion_lat": 0.0, "lat": 38.916916666666665, "type": "electric_scooter", "lon": -77.03333816666667, "is_reserved": 0, "fusion_lon": 0.0, "bike_id": "aa5d1b41f957e4263388d17869bc0766", "name": "aa5d1b41f957e4263388d17869bc0766", "rental_uris": {"ios": "https://dc.lft.to/lastmile_qr_scan", "android": "https://dc.lft.to/lastmile_qr_scan"}}, {"is_disabled": 0, "fusion_lat": 0.0, "lat": 38.8975905, "type": "electric_scooter", "lon": -77.03194966666666, "is_reserved": 0, "fusion_lon": 0.0, "bike_id": "68566400945a5af6494f8d5a5fe88ca0", "name": "68566400945a5af6494f8d5a5fe88ca0", "rental_uris": {"ios": "https://dc.lft.to/lastmile_qr_scan", "android": "https://dc.lft.to/lastmile_qr_scan"}}, {"is_disabled": 0, "fusion_lat": 0.0, "lat": 38.973306666666666, "type": "electric_bike", "lon": -77.0215315, "is_reserved": 0, "fusion_lon": 0.0, "bike_id": "abfc6da89264e2e35b074549b8bce391", "name": "abfc6da89264e2e35b074549b8bce391", "rental_uris": {"ios": "https://dc.lft.to/lastmile_qr_scan", "android": "https://dc.lft.to/lastmile_qr_scan"}}, {"is_disabled": 0, "fusion_lat": 0.0, "lat": 38.9116345, "type": "electric_scooter", "lon": -77.0685595, "is_reserved": 0, "fusion_lon": 0.0, "bike_id": "c8cfe203cd27610c38a5d0555e96e5ef", "name": "c8cfe203cd27610c38a5d0555e96e5ef", "rental_uris": {"ios": "https://dc.lft.to/lastmile_qr_scan", "android": "https://dc.lft.to/lastmile_qr_scan"}}, {"is_disabled": 0, "fusion_lat": 0.0, "lat": 38.93211766666667, "type": "electric_scooter", "lon": -77.02355316666667, "is_reserved": 0, "fusion_lon": 0.0, "bike_id": "8530c5a22dc740fcc66e63a7e9c1f20a", "name": "8530c5a22dc740fcc66e63a7e9c1f20a", "rental_uris": {"ios": "https://dc.lft.to/lastmile_qr_scan", "android": "https://dc.lft.to/lastmile_qr_scan"}}, {"is_disabled": 0, "fusion_lat": 0.0, "lat": 38.902929, "type": "electric_scooter", "lon": -76.99252583333333, "is_reserved": 0, "fusion_lon": 0.0, "bike_id": "dc3ad0378753e7f758ab1241688148a8", "name": "dc3ad0378753e7f758ab1241688148a8", "rental_uris": {"ios": "https://dc.lft.to/lastmile_qr_scan", "android": "https://dc.lft.to/lastmile_qr_scan"}}, {"is_disabled": 0, "fusion_lat": 0.0, "lat": 38.86222683333333, "type": "electric_scooter", "lon": -76.994596, "is_reserved": 0, "fusion_lon": 0.0, "bike_id": "43b3cc7052f5fa2025849c234a81e1c2", "name": "43b3cc7052f5fa2025849c234a81e1c2", "rental_uris": {"ios": "https://dc.lft.to/lastmile_qr_scan", "android": "https://dc.lft.to/lastmile_qr_scan"}}, {"is_disabled": 0, "fusion_lat": 0.0, "lat": 38.84430016666666, "type": "electric_scooter", "lon": -76.99776033333333, "is_reserved": 0, "fusion_lon": 0.0, "bike_id": "f02831446098339891039c79b662bcae", "name": "f02831446098339891039c79b662bcae", "rental_uris": {"ios": "https://dc.lft.to/lastmile_qr_scan", "android": "https://dc.lft.to/lastmile_qr_scan"}}, {"is_disabled": 0, "fusion_lat": 0.0, "lat": 38.907052, "type": "electric_scooter", "lon": -77.04341983333333, "is_reserved": 0, "fusion_lon": 0.0, "bike_id": "cce4439698d4c5c049ddb6bbdb6d8f16", "name": "cce4439698d4c5c049ddb6bbdb6d8f16", "rental_uris": {"ios": "https://dc.lft.to/lastmile_qr_scan", "android": "https://dc.lft.to/lastmile_qr_scan"}}, {"is_disabled": 0, "fusion_lat": 0.0, "lat": 38.91206, "type": "electric_scooter", "lon": -77.00350266666666, "is_reserved": 0, "fusion_lon": 0.0, "bike_id": "04f54d50d255c69c33e5eb6cd52502d1", "name": "04f54d50d255c69c33e5eb6cd52502d1", "rental_uris": {"ios": "https://dc.lft.to/lastmile_qr_scan", "android": "https://dc.lft.to/lastmile_qr_scan"}}, {"is_disabled": 0, "fusion_lat": 0.0, "lat": 38.902434, "type": "electric_scooter", "lon": -77.0018665, "is_reserved": 0, "fusion_lon": 0.0, "bike_id": "b7ebf8d735083ca5929a0f7152aaf6b0", "name": "b7ebf8d735083ca5929a0f7152aaf6b0", "rental_uris": {"ios": "https://dc.lft.to/lastmile_qr_scan", "android": "https://dc.lft.to/lastmile_qr_scan"}},