{"data": {"bikes": [{"bike_id": "97924b4c3696a222aab24be983cba03b", "type": "electric_bike", "is_disabled": 0, "lat": 38.931369333333336, "rental_uris": {"ios": "https://dc.lft.to/lastmile_qr_scan", "android": "https://dc.lft.to/lastmile_qr_scan"}, "is_reserved": 0, "fusion_lon": 0.0, "fusion_lat": 0.0, "lon": -77.078472, "name": "97924b4c3696a222aab24be983cba03b"}, {"bike_id": "3dd11974c5f2fb65428aafdb50ae2aaa", "type": "electric_scooter", "is_disabled": 0, "lat": 38.8878845, "rental_uris": {"ios": "https://dc.lft.to/lastmile_qr_scan", "android": "https://dc.lft.to/lastmile_qr_scan"}, "is_reserved": 0, "fusion_lon": 0.0, "fusion_lat": 0.0, "lon": -76.95527033333333, "name": "3dd11974c5f2fb65428aafdb50ae2aaa"}, {"bike_id": "ac9a6160ad7059e79ba88e7ea0cb4bc5", "type": "electric_scooter", "is_disabled": 0, "lat": 38.92057666666667, "rental_uris": {"ios": "https://dc.lft.to/lastmile_qr_scan", "android": "https://dc.lft.to/lastmile_qr_scan"}, "is_reserved": 0, "fusion_lon": 0.0, "fusion_lat": 0.0, "lon": -77.04248616666666, "name": "ac9a6160ad7059e79ba88e7ea0cb4bc5"}, {"bike_id": "1a09768e947719486433678eb6c3329e", "type": "electric_scooter", "is_disabled": 0, "lat": 38.9084645, "rental_uris": {"ios": "https://dc.lft.to/lastmile_qr_scan", "android": "https://dc.lft.to/lastmile_qr_scan"}, "is_reserved": 0, "fusion_lon": 0.0, "fusion_lat": 0.0, "lon": -77.02229116666666, "name": "1a09768e947719486433678eb6c3329e"}, {"bike_id": "3a0300975eda2e0b9d905aa5c3c1781c", "type": "electric_scooter", "is_disabled": 0, "lat": 38.9025455, "rental_uris": {"ios": "https://dc.lft.to/lastmile_qr_scan", "android": "https://dc.lft.to/lastmile_qr_scan"}, "is_reserved": 0, "fusion_lon": 0.0, "fusion_lat": 0.0, "lon": -77.03374916666667, "name": "3a0300975eda2e0b9d905aa5c3c1781c"}, {"bike_id": "676bbeafb6b22223059ad92fbc4d3bff", "type": "electric_scooter", "is_disabled": 0, "lat": 38.92235516666667, "rental_uris": {"ios": "https://dc.lft.to/lastmile_qr_scan", "android": "https://dc.lft.to/lastmile_qr_scan"}, "is_reserved": 0, "fusion_lon": 0.0, "fusion_lat": 0.0, "lon": -77.03133966666667, "name": "676bbeafb6b22223059ad92fbc4d3bff"}, {"bike_id": "69f315da37a1e2d3f095df827725d147", "type": "electric_scooter", "is_disabled": 0, "lat": 38.90794316666667, "rental_uris": {"ios": "https://dc.lft.to/lastmile_qr_scan", "android": "https://dc.lft.to/lastmile_qr_scan"}, "is_reserved": 0, "fusion_lon": 0.0, "fusion_lat": 0.0, "lon": -77.04824216666667, "name": "69f315da37a1e2d3f095df827725d147"}, {"bike_id": "4a9803bb5f5e38c76b5fe084f969eb25", "type": "electric_scooter", "is_disabled": 0, "lat": 38.90679883333333, "rental_uris": {"ios": "https://dc.lft.to/lastmile_qr_scan", "android": "https://dc.lft.to/lastmile_qr_scan"}, "is_reserved": 0, "fusion_lon": 0.0, "fusion_lat": 0.0, "lon": -77.0269025, "name": "4a9803bb5f5e38c76b5fe084f969eb25"}, {"bike_id": "4d56d3affcdaf2bdfeb7f7a598c41595", "type": "electric_scooter", "is_disabled": 0, "lat": 38.8963435, "rental_uris": {"ios": "https://dc.lft.to/lastmile_qr_scan", "android": "https://dc.lft.to/lastmile_qr_scan"}, "is_reserved": 0, "fusion_lon": 0.0, "fusion_lat": 0.0, "lon": -77.07077166666667, "name": "4d56d3affcdaf2bdfeb7f7a598c41595"}, {"bike_id": "e65f165b0dd177d576f56ef7bfa1f978", "type": "electric_scooter", "is_disabled": 0, "lat": 38.91796183333334, "rental_uris": {"ios": "https://dc.lft.to/lastmile_qr_scan", "android": "https://dc.lft.to/lastmile_qr_scan"}, "is_reserved": 0, "fusion_lon": 0.0, "fusion_lat": 0.0, "lon": -77.03429833333334, "name": "e65f165b0dd177d576f56ef7bfa1f978"}, {"bike_id": "78b5a97db09916e863fe0971a96c65a8", "type": "electric_scooter", "is_disabled": 0, "lat": 38.9192775, "rental_uris": {"ios": "https://dc.lft.to/lastmile_qr_scan", "android": "https://dc.lft.to/lastmile_qr_scan"}, "is_reserved": 0, "fusion_lon": 0.0, "fusion_lat": 0.0, "lon": -77.07085033333334, "name": "78b5a97db09916e863fe0971a96c65a8"}, {"bike_id": "3067296fb5995793a106f464f1c861c6", "type": "electric_scooter", "is_disabled": 0, "lat": 38.86628016666667, "rental_uris": {"ios": "https://dc.lft.to/lastmile_qr_scan", "android": "https://dc.lft.to/lastmile_qr_scan"}, "is_reserved": 0, "fusion_lon": 0.0, "fusion_lat": 0.0, "lon": -76.98714433333333, "name": "3067296fb5995793a106f464f1c861c6"}, {"bike_id": "eaa13aaaeb615c6d65256c8e622b95c1", "type": "electric_scooter", "is_disabled": 0, "lat": 38.922902666666666, "rental_uris": {"ios": "https://dc.lft.to/lastmile_qr_scan", "android": "https://dc.lft.to/lastmile_qr_scan"}, "is_reserved": 0, "fusion_lon": 0.0, "fusion_lat": 0.0, "lon": -77.04463683333333, "name": "eaa13aaaeb615c6d65256c8e622b95c1"}, {"bike_id": "9e0b2c847ecae48d488fd575de0db1b5", "type": "electric_scooter", "is_disabled": 0, "lat": 38.919594333333336, "rental_uris": {"ios": "https://dc.lft.to/lastmile_qr_scan", "android": "https://dc.lft.to/lastmile_qr_scan"}, "is_reserved": 0, "fusion_lon": 0.0, "fusion_lat": 0.0, "lon": -77.014367, "name": "9e0b2c847ecae48d488fd575de0db1b5"}, {"bike_id": "69c272a2d6469cd5191b70cbea9da823", "type": "electric_scooter", "is_disabled": 0, "lat": 38.90127533333333, "rental_uris": {"ios": "https://dc.lft.to/lastmile_qr_scan", "android": "https://dc.lft.to/lastmile_qr_scan"}, "is_reserved": 0, "fusion_lon": 0.0, "fusion_lat": 0.0, "lon": -76.99072733333334, "name": "69c272a2d6469cd5191b70cbea9da823"}, {"bike_id": "0880d53c151d9c8d735ce40f3b9ccbb0", "type": "electric_scooter", "is_disabled": 0, "lat": 38.9167565, "rental_uris": {"ios": "https://dc.lft.to/lastmile_qr_scan", "android": "https://dc.lft.to/lastmile_qr_scan"}, "is_reserved": 0, "fusion_lon": 0.0, "fusion_lat": 0.0, "lon": -77.0289175, "name": "0880d53c151d9c8d735ce40f3b9ccbb0"}, {"bike_id": "02e80f1cb44aa1e1d6285cfe8ff28de1", "type": "electric_scooter", "is_disabled": 0, "lat": 38.92059733333333, "rental_uris": {"ios": "https://dc.lft.to/lastmile_qr_scan", "android": "https://dc.lft.to/lastmile_qr_scan"}, "is_reserved": 0, "fusion_lon": 0.0, "fusion_lat": 0.0, "lon": -77.023751, "name": "02e80f1cb44aa1e1d6285cfe8ff28de1"}, {"bike_id": "a7b1a4b7883753c1782ddb8ada8cf75e", "type": "electric_bike", "is_disabled": 0, "lat": 39.01479766666667, "rental_uris": {"ios": "https://dc.lft.to/lastmile_qr_scan", "android": "https://dc.lft.to/lastmile_qr_scan"}, "is_reserved": 0, "fusion_lon": 0.0, "fusion_lat": 0.0, "lon": -77.0549435, "name": "a7b1a4b7883753c1782ddb8ada8cf75e"}, {"bike_id": "d11712676423c5295cfe6cc26aeff4ac", "type": "electric_scooter", "is_disabled": 0, "lat": 38.898407166666665, "rental_uris": {"ios": "https://dc.lft.to/lastmile_qr_scan", "android": "https://dc.lft.to/lastmile_qr_scan"}, "is_reserved": 0, "fusion_lon": 0.0, "fusion_lat": 0.0, "lon": -76.94635483333333, "name": "d11712676423c5295cfe6cc26aeff4ac"}, {"bike_id": "6b69747d224c1a480bf49b171ff87970", "type": "electric_scooter", "is_disabled": 0, "lat": 38.91588866666667, "rental_uris": {"ios": "https://dc.lft.to/lastmile_qr_scan", "android": "https://dc.lft.to/lastmile_qr_scan"}, "is_reserved": 0, "fusion_lon": 0.0, "fusion_lat": 0.0, "lon": -77.00194716666667, "name": "6b69747d224c1a480bf49b171ff87970"}, {"bike_id": "6703fa83bd67b2c83c54f17945b2c780", "type": "electric_scooter", "is_disabled": 0, "lat": 38.9111705, "rental_uris": {"ios": "https://dc.lft.to/lastmile_qr_scan", "android": "https://dc.lft.to/lastmile_qr_scan"}, "is_reserved": 0, "fusion_lon": 0.0, "fusion_lat": 0.0, "lon": -77.0224, "name": "6703fa83bd67b2c83c54f17945b2c780"}, {"bike_id": "4a828ebd8570d72ec855556388102a1e", "type": "electric_scooter", "is_disabled": 0, "lat": 38.887210333333336, "rental_uris": {"ios": "https://dc.lft.to/lastmile_qr_scan", "android": "https://dc.lft.to/lastmile_qr_scan"}, "is_reserved": 0, "fusion_lon": 0.0, "fusion_lat": 0.0, "lon": -77.0219405, "name": "4a828ebd8570d72ec855556388102a1e"}, {"bike_id": "250b4bd272d52404c8a4248f175488bc", "type": "electric_scooter", "is_disabled": 0, "lat": 38.884668833333336, "rental_uris": {"ios": "https://dc.lft.to/lastmile_qr_scan", "android": "https://dc.lft.to/lastmile_qr_scan"}, "is_reserved": 0, "fusion_lon": 0.0, "fusion_lat": 0.0, "lon": -77.02580183333333, "name": "250b4bd272d52404c8a4248f175488bc"}, {"bike_id": "27bb641ab966b1764c458723d542e37e", "type": "electric_scooter", "is_disabled": 0, "lat": 38.92286, "rental_uris": {"ios": "https://dc.lft.to/lastmile_qr_scan", "android": "https://dc.lft.to/lastmile_qr_scan"}, "is_reserved": 0, "fusion_lon": 0.0, "fusion_lat": 0.0, "lon": -77.07305883333333, "name": "27bb641ab966b1764c458723d542e37e"}, {"bike_id": "038f460da315e22f7881d499de7c2e9c", "type": "electric_scooter", "is_disabled": 0, "lat": 38.91084433333333, "rental_uris": {"ios": "https://dc.lft.to/lastmile_qr_scan", "android": "https://dc.lft.to/lastmile_qr_scan"}, "is_reserved": 0, "fusion_lon": 0.0, "fusion_lat": 0.0, "lon": -77.02184816666667, "name": "038f460da315e22f7881d499de7c2e9c"}, {"bike_id": "16d58f0436dea961db524592640efe37", "type": "electric_scooter", "is_disabled": 0, "lat": 38.89220516666666, "rental_uris": {"ios": "https://dc.lft.to/lastmile_qr_scan", "android": "https://dc.lft.to/lastmile_qr_scan"}, "is_reserved": 0, "fusion_lon": 0.0, "fusion_lat": 0.0, "lon": -77.029133, "name": "16d58f0436dea961db524592640efe37"}, {"bike_id": "c7e143e64e8c026494e0a5127a0f93a1", "type": "electric_scooter", "is_disabled": 0, "lat": 38.89288116666667, "rental_uris": {"ios": "https://dc.lft.to/lastmile_qr_scan", "android": "https://dc.lft.to/lastmile_qr_scan"}, "is_reserved": 0, "fusion_lon": 0.0, "fusion_lat": 0.0, "lon": -77.0487105, "name": "c7e143e64e8c026494e0a5127a0f93a1"}, {"bike_id": "8204c19f5e79fda2fef24032cad62f3a", "type": "electric_scooter", "is_disabled": 0, "lat": 38.911821333333336, "rental_uris": {"ios": "https://dc.lft.to/lastmile_qr_scan", "android": "https://dc.lft.to/lastmile_qr_scan"}, "is_reserved": 0, "fusion_lon": 0.0, "fusion_lat": 0.0, "lon": -77.00195183333334, "name": "8204c19f5e79fda2fef24032cad62f3a"}, {"bike_id": "9f5b87077a6276f0d97dba5462f50cc6", "type": "electric_scooter", "is_disabled": 0, "lat": 38.91553283333333, "rental_uris": {"ios": "https://dc.lft.to/lastmile_qr_scan", "android": "https://dc.lft.to/lastmile_qr_scan"}, "is_reserved": 0, "fusion_lon": 0.0, "fusion_lat": 0.0, "lon": -77.03172983333333, "name": "9f5b87077a6276f0d97dba5462f50cc6"}, {"bike_id": "52271716a890ed9fbbe156fa4d77977e", "type": "electric_scooter", "is_disabled": 0, "lat": 38.936833, "rental_uris": {"ios": "https://dc.lft.to/lastmile_qr_scan", "android": "https://dc.lft.to/lastmile_qr_scan"}, "is_reserved": 0, "fusion_lon": 0.0, "fusion_lat": 0.0, "lon": -77.0662155, "name": "52271716a890ed9fbbe156fa4d77977e"}, {"bike_id": "56d86dfcb23e7970ba5f329d4a125ca9", "type": "electric_scooter", "is_disabled": 0, "lat": 38.92212716666667, "rental_uris": {"ios": "https://dc.lft.to/lastmile_qr_scan", "android": "https://dc.lft.to/lastmile_qr_scan"}, "is_reserved": 0, "fusion_lon": 0.0, "fusion_lat": 0.0, "lon": -77.04242216666667, "name": "56d86dfcb23e7970ba5f329d4a125ca9"}, {"bike_id": "c746d347013da3ef66bf17c340822f93", "type": "electric_scooter", "is_disabled": 0, "lat": 38.908850666666666, "rental_uris": {"ios": "https://dc.lft.to/lastmile_qr_scan", "android": "https://dc.lft.to/lastmile_qr_scan"}, "is_reserved": 0, "fusion_lon": 0.0, "fusion_lat": 0.0, "lon": -77.044864, "name": "c746d347013da3ef66bf17c340822f93"}, {"bike_id": "5b363dcce96dc6713dfae5cf8bd7ee1d", "type": "electric_scooter", "is_disabled": 0, "lat": 38.90543783333333, "rental_uris": {"ios": "https://dc.lft.to/lastmile_qr_scan", "android": "https://dc.lft.to/lastmile_qr_scan"}, "is_reserved": 0, "fusion_lon": 0.0, "fusion_lat": 0.0, "lon": -77.04376133333334, "name": "5b363dcce96dc6713dfae5cf8bd7ee1d"}, {"bike_id": "06d39dcf3d1aacd7475dcadc713055c0", "type": "electric_scooter", "is_disabled": 0, "lat": 38.9111835, "rental_uris": {"ios": "https://dc.lft.to/lastmile_qr_scan", "android": "https://dc.lft.to/lastmile_qr_scan"}, "is_reserved": 0, "fusion_lon": 0.0, "fusion_lat": 0.0, "lon": -77.04468433333334, "name": "06d39dcf3d1aacd7475dcadc713055c0"}, {"bike_id": "7621babd8ebd768ff82264b949ade7a9", "type": "electric_scooter", "is_disabled": 0, "lat": 38.9660495, "rental_uris": {"ios": "https://dc.lft.to/lastmile_qr_scan", "android": "https://dc.lft.to/lastmile_qr_scan"}, "is_reserved": 0, "fusion_lon": 0.0, "fusion_lat": 0.0, "lon": -77.01981933333333, "name": "7621babd8ebd768ff82264b949ade7a9"}, {"bike_id": "06d927e04f1a466425860661e0013a68", "type": "electric_bike", "is_disabled": 0, "lat": 38.956889833333335, "rental_uris": {"ios": "https://dc.lft.to/lastmile_qr_scan", "android": "https://dc.lft.to/lastmile_qr_scan"}, "is_reserved": 0, "fusion_lon": 0.0, "fusion_lat": 0.0, "lon": -77.022287, "name": "06d927e04f1a466425860661e0013a68"}, {"bike_id": "bec78eaa4b92bd8884fe7f4bd8fc5a65", "type": "electric_scooter", "is_disabled": 0, "lat": 38.9206515, "rental_uris": {"ios": "https://dc.lft.to/lastmile_qr_scan", "android": "https://dc.lft.to/lastmile_qr_scan"}, "is_reserved": 0, "fusion_lon": 0.0, "fusion_lat": 0.0, "lon": -77.0346315, "name": "bec78eaa4b92bd8884fe7f4bd8fc5a65"}, {"bike_id": "27ebd6cff441ac14b8dd269c8a510e82", "type": "electric_scooter", "is_disabled": 0, "lat": 38.9086815, "rental_uris": {"ios": "https://dc.lft.to/lastmile_qr_scan", "android": "https://dc.lft.to/lastmile_qr_scan"}, "is_reserved": 0, "fusion_lon": 0.0, "fusion_lat": 0.0, "lon": -77.06902, "name": "27ebd6cff441ac14b8dd269c8a510e82"}, {"bike_id": "3d158d2076ce771c21e7935c41171d75", "type": "electric_scooter", "is_disabled": 0, "lat": 38.90829733333333, "rental_uris": {"ios": "https://dc.lft.to/lastmile_qr_scan", "android": "https://dc.lft.to/lastmile_qr_scan"}, "is_reserved": 0, "fusion_lon": 0.0, "fusion_lat": 0.0, "lon": -77.03668033333334, "name": "3d158d2076ce771c21e7935c41171d75"}, {"bike_id": "c3d409ff973c3cfd442de4166f72a15b", "type": "electric_scooter", "is_disabled": 0, "lat": 38.919149, "rental_uris": {"ios": "https://dc.lft.to/lastmile_qr_scan", "android": "https://dc.lft.to/lastmile_qr_scan"}, "is_reserved": 0, "fusion_lon": 0.0, "fusion_lat": 0.0, "lon": -77.04471066666666, "name": "c3d409ff973c3cfd442de4166f72a15b"}, {"bike_id": "da54807a94dfda187c4781543dbb0948", "type": "electric_scooter", "is_disabled": 0, "lat": 38.909761833333334, "rental_uris": {"ios": "https://dc.lft.to/lastmile_qr_scan", "android": "https://dc.lft.to/lastmile_qr_scan"}, "is_reserved": 0, "fusion_lon": 0.0, "fusion_lat": 0.0, "lon": -77.03867316666667, "name": "da54807a94dfda187c4781543dbb0948"}, {"bike_id": "61378e61b71393589247a4febce4e505", "type": "electric_scooter", "is_disabled": 0, "lat": 38.89195216666667, "rental_uris": {"ios": "https://dc.lft.to/lastmile_qr_scan", "android": "https://dc.lft.to/lastmile_qr_scan"}, "is_reserved": 0, "fusion_lon": 0.0, "fusion_lat": 0.0, "lon": -77.00233933333334, "name": "61378e61b71393589247a4febce4e505"}, {"bike_id": "7d174357c8fa9a68a1b5137ab86269b7", "type": "electric_scooter", "is_disabled": 0, "lat": 38.924116833333336, "rental_uris": {"ios": "https://dc.lft.to/lastmile_qr_scan", "android": "https://dc.lft.to/lastmile_qr_scan"}, "is_reserved": 0, "fusion_lon": 0.0, "fusion_lat": 0.0, "lon": -77.036368, "name": "7d174357c8fa9a68a1b5137ab86269b7"}, {"bike_id": "c9d8d3e308c86659c9db2cee0618d8a8", "type": "electric_scooter", "is_disabled": 0, "lat": 38.917146333333335, "rental_uris": {"ios": "https://dc.lft.to/lastmile_qr_scan", "android": "https://dc.lft.to/lastmile_qr_scan"}, "is_reserved": 0, "fusion_lon": 0.0, "fusion_lat": 0.0, "lon": -77.0460775, "name": "c9d8d3e308c86659c9db2cee0618d8a8"}, {"bike_id": "a5ea7a72885a38835d8e06dcf6c4b203", "type": "electric_scooter", "is_disabled": 0, "lat": 38.9138525, "rental_uris": {"ios": "https://dc.lft.to/lastmile_qr_scan", "android": "https://dc.lft.to/lastmile_qr_scan"}, "is_reserved": 0, "fusion_lon": 0.0, "fusion_lat": 0.0, "lon": -77.0170165, "name": "a5ea7a72885a38835d8e06dcf6c4b203"}, {"bike_id": "0a02770be071f56180413f237fc34c3b", "type": "electric_bike", "is_disabled": 0, "lat": 38.90861866666667, "rental_uris": {"ios": "https://dc.lft.to/lastmile_qr_scan", "android": "https://dc.lft.to/lastmile_qr_scan"}, "is_reserved": 0, "fusion_lon": 0.0, "fusion_lat": 0.0, "lon": -76.99135533333333, "name": "0a02770be071f56180413f237fc34c3b"}, {"bike_id": "66c58bb8e6fb224f44cd9db36f0551b1", "type": "electric_scooter", "is_disabled": 0, "lat": 38.87933616666667, "rental_uris": {"ios": "https://dc.lft.to/lastmile_qr_scan", "android": "https://dc.lft.to/lastmile_qr_scan"}, "is_reserved": 0, "fusion_lon": 0.0, "fusion_lat": 0.0, "lon": -77.01641916666667, "name": "66c58bb8e6fb224f44cd9db36f0551b1"}, {"bike_id": "6a5c1e0f259cee65fb3100a266840ba3", "type": "electric_scooter", "is_disabled": 0, "lat": 38.925063, "rental_uris": {"ios": "https://dc.lft.to/lastmile_qr_scan", "android": "https://dc.lft.to/lastmile_qr_scan"}, "is_reserved": 0, "fusion_lon": 0.0, "fusion_lat": 0.0, "lon": -77.0378215, "name": "6a5c1e0f259cee65fb3100a266840ba3"}, {"bike_id": "607036a4f9e706e752b9bc86ada56598", "type": "electric_scooter", "is_disabled": 0, "lat": 38.922388833333336, "rental_uris": {"ios": "https://dc.lft.to/lastmile_qr_scan", "android": "https://dc.lft.to/lastmile_qr_scan"}, "is_reserved": 0, "fusion_lon": 0.0, "fusion_lat": 0.0, "lon": -77.07309533333333, "name": "607036a4f9e706e752b9bc86ada56598"}, {"bike_id": "921349ac75ca17cee8023b6bd3f2a8ae", "type": "electric_scooter", "is_disabled": 0, "lat": 38.87812916666667, "rental_uris": {"ios": "https://dc.lft.to/lastmile_qr_scan", "android": "https://dc.lft.to/lastmile_qr_scan"}, "is_reserved": 0, "fusion_lon": 0.0, "fusion_lat": 0.0, "lon": -77.022375, "name": "921349ac75ca17cee8023b6bd3f2a8ae"}, {"bike_id": "a1787de54360fe9ae46471eb48ec3ca2", "type": "electric_scooter", "is_disabled": 0, "lat": 38.92254333333333, "rental_uris": {"ios": "https://dc.lft.to/lastmile_qr_scan", "android": "https://dc.lft.to/lastmile_qr_scan"}, "is_reserved": 0, "fusion_lon": 0.0, "fusion_lat": 0.0, "lon": -77.0195215, "name": "a1787de54360fe9ae46471eb48ec3ca2"}, {"bike_id": "4e3dc248fb24ee7e95275cb03fb558fa", "type": "electric_scooter", "is_disabled": 0, "lat": 38.87647533333333, "rental_uris": {"ios": "https://dc.lft.to/lastmile_qr_scan", "android": "https://dc.lft.to/lastmile_qr_scan"}, "is_reserved": 0, "fusion_lon": 0.0, "fusion_lat": 0.0, "lon": -76.96506466666666, "name": "4e3dc248fb24ee7e95275cb03fb558fa"}, {"bike_id": "dd03e7da203fba3236ba80c64c6e5da8", "type": "electric_scooter", "is_disabled": 0, "lat": 38.92135733333333, "rental_uris": {"ios": "https://dc.lft.to/lastmile_qr_scan", "android": "https://dc.lft.to/lastmile_qr_scan"}, "is_reserved": 0, "fusion_lon": 0.0, "fusion_lat": 0.0, "lon": -77.04127466666667, "name": "dd03e7da203fba3236ba80c64c6e5da8"}, {"bike_id": "7e191a6c56c61ec5527d9cffd19f6492", "type": "electric_scooter", "is_disabled": 0, "lat": 38.93145066666666, "rental_uris": {"ios": "https://dc.lft.to/lastmile_qr_scan", "android": "https://dc.lft.to/lastmile_qr_scan"}, "is_reserved": 0, "fusion_lon": 0.0, "fusion_lat": 0.0, "lon": -77.03575683333334, "name": "7e191a6c56c61ec5527d9cffd19f6492"}, {"bike_id": "b18975a98aef9654645a16ae37f8663b", "type": "electric_scooter", "is_disabled": 0, "lat": 38.93568366666667, "rental_uris": {"ios": "https://dc.lft.to/lastmile_qr_scan", "android": "https://dc.lft.to/lastmile_qr_scan"}, "is_reserved": 0, "fusion_lon": 0.0, "fusion_lat": 0.0, "lon": -77.03263116666666, "name": "b18975a98aef9654645a16ae37f8663b"}, {"bike_id": "a885d885d6117be57ea67fe9dd42c8af", "type": "electric_scooter", "is_disabled": 0, "lat": 38.9161415, "rental_uris": {"ios": "https://dc.lft.to/lastmile_qr_scan", "android": "https://dc.lft.to/lastmile_qr_scan"}, "is_reserved": 0, "fusion_lon": 0.0, "fusion_lat": 0.0, "lon": -77.036408, "name": "a885d885d6117be57ea67fe9dd42c8af"}, {"bike_id": "8fe266b2a53dacc84e6fdb6460cc2045", "type": "electric_scooter", "is_disabled": 0, "lat": 38.92678683333333, "rental_uris": {"ios": "https://dc.lft.to/lastmile_qr_scan", "android": "https://dc.lft.to/lastmile_qr_scan"}, "is_reserved": 0, "fusion_lon": 0.0, "fusion_lat": 0.0, "lon": -77.02971533333333, "name": "8fe266b2a53dacc84e6fdb6460cc2045"}, {"bike_id": "a2e07dce1259ea8f4284ce05a3674fad", "type": "electric_scooter", "is_disabled": 0, "lat": 38.90752166666667, "rental_uris": {"ios": "https://dc.lft.to/lastmile_qr_scan", "android": "https://dc.lft.to/lastmile_qr_scan"}, "is_reserved": 0, "fusion_lon": 0.0, "fusion_lat": 0.0, "lon": -77.03442483333333, "name": "a2e07dce1259ea8f4284ce05a3674fad"}, {"bike_id": "f9369954aeb687e4dd579f82a924a43f", "type": "electric_scooter", "is_disabled": 0, "lat": 38.91245966666666, "rental_uris": {"ios": "https://dc.lft.to/lastmile_qr_scan", "android": "https://dc.lft.to/lastmile_qr_scan"}, "is_reserved": 0, "fusion_lon": 0.0, "fusion_lat": 0.0, "lon": -77.024319, "name": "f9369954aeb687e4dd579f82a924a43f"}, {"bike_id": "3420a6d734b624313630f1ddb6f1a957", "type": "electric_scooter", "is_disabled": 0, "lat": 38.907934833333336, "rental_uris": {"ios": "https://dc.lft.to/lastmile_qr_scan", "android": "https://dc.lft.to/lastmile_qr_scan"}, "is_reserved": 0, "fusion_lon": 0.0, "fusion_lat": 0.0, "lon": -77.047951, "name": "3420a6d734b624313630f1ddb6f1a957"}, {"bike_id": "c43f720901d201fc69ca95ecd144f3a9", "type": "electric_scooter", "is_disabled": 0, "lat": 38.9235755, "rental_uris": {"ios": "https://dc.lft.to/lastmile_qr_scan", "android": "https://dc.lft.to/lastmile_qr_scan"}, "is_reserved": 0, "fusion_lon": 0.0, "fusion_lat": 0.0, "lon": -77.05240833333333, "name": "c43f720901d201fc69ca95ecd144f3a9"}, {"bike_id": "f1781fcb0886a923876f401521a7a0a5", "type": "electric_bike", "is_disabled": 0, "lat": 38.845255, "rental_uris": {"ios": "https://dc.lft.to/lastmile_qr_scan", "android": "https://dc.lft.to/lastmile_qr_scan"}, "is_reserved": 0, "fusion_lon": 0.0, "fusion_lat": 0.0, "lon": -76.97399866666666, "name": "f1781fcb0886a923876f401521a7a0a5"}, {"bike_id": "13b8a792a0adfc3a28f28613f0ede558", "type": "electric_scooter", "is_disabled": 0, "lat": 38.947135333333335, "rental_uris": {"ios": "https://dc.lft.to/lastmile_qr_scan", "android": "https://dc.lft.to/lastmile_qr_scan"}, "is_reserved": 0, "fusion_lon": 0.0, "fusion_lat": 0.0, "lon": -77.03327516666667, "name": "13b8a792a0adfc3a28f28613f0ede558"}, {"bike_id": "fef8314177e920b0e9de34aa823d5bb0", "type": "electric_scooter", "is_disabled": 0, "lat": 38.911918666666665, "rental_uris": {"ios": "https://dc.lft.to/lastmile_qr_scan", "android": "https://dc.lft.to/lastmile_qr_scan"}, "is_reserved": 0, "fusion_lon": 0.0, "fusion_lat": 0.0, "lon": -77.03860216666666, "name": "fef8314177e920b0e9de34aa823d5bb0"}, {"bike_id": "791e4a9fb454fd9c3be25676de49757c", "type": "electric_scooter", "is_disabled": 0, "lat": 38.92318483333333, "rental_uris": {"ios": "https://dc.lft.to/lastmile_qr_scan", "android": "https://dc.lft.to/lastmile_qr_scan"}, "is_reserved": 0, "fusion_lon": 0.0, "fusion_lat": 0.0, "lon": -77.02122766666666, "name": "791e4a9fb454fd9c3be25676de49757c"}, {"bike_id": "7e47f2d2a0e3d5d4e6b7caf69c8a3ce6", "type": "electric_scooter", "is_disabled": 0, "lat": 38.931499, "rental_uris": {"ios": "https://dc.lft.to/lastmile_qr_scan", "android": "https://dc.lft.to/lastmile_qr_scan"}, "is_reserved": 0, "fusion_lon": 0.0, "fusion_lat": 0.0, "lon": -77.033462, "name": "7e47f2d2a0e3d5d4e6b7caf69c8a3ce6"}, {"bike_id": "bd9702785efcf5118bf112081745f0b5", "type": "electric_scooter", "is_disabled": 0, "lat": 38.90958083333334, "rental_uris": {"ios": "https://dc.lft.to/lastmile_qr_scan", "android": "https://dc.lft.to/lastmile_qr_scan"}, "is_reserved": 0, "fusion_lon": 0.0, "fusion_lat": 0.0, "lon": -77.03221566666667, "name": "bd9702785efcf5118bf112081745f0b5"}, {"bike_id": "249e92049aef1bb71e24421134e0076d", "type": "electric_scooter", "is_disabled": 0, "lat": 38.911323, "rental_uris": {"ios": "https://dc.lft.to/lastmile_qr_scan", "android": "https://dc.lft.to/lastmile_qr_scan"}, "is_reserved": 0, "fusion_lon": 0.0, "fusion_lat": 0.0, "lon": -77.065426, "name": "249e92049aef1bb71e24421134e0076d"}, {"bike_id": "2c6b0924cb3d7785e3f7441d1c671a4d", "type": "electric_scooter", "is_disabled": 0, "lat": 38.903800833333335, "rental_uris": {"ios": "https://dc.lft.to/lastmile_qr_scan", "android": "https://dc.lft.to/lastmile_qr_scan"}, "is_reserved": 0, "fusion_lon": 0.0, "fusion_lat": 0.0, "lon": -77.06854933333334, "name": "2c6b0924cb3d7785e3f7441d1c671a4d"}, {"bike_id": "18a884b62b67dbcb0f90a26eb64a9fa3", "type": "electric_scooter", "is_disabled": 0, "lat": 38.898316666666666, "rental_uris": {"ios": "https://dc.lft.to/lastmile_qr_scan", "android": "https://dc.lft.to/lastmile_qr_scan"}, "is_reserved": 0, "fusion_lon": 0.0, "fusion_lat": 0.0, "lon": -77.0236725, "name": "18a884b62b67dbcb0f90a26eb64a9fa3"}, {"bike_id": "21921fc58f5cec387d44d2da2645ff5f", "type": "electric_scooter", "is_disabled": 0, "lat": 38.93717566666667, "rental_uris": {"ios": "https://dc.lft.to/lastmile_qr_scan", "android": "https://dc.lft.to/lastmile_qr_scan"}, "is_reserved": 0, "fusion_lon": 0.0, "fusion_lat": 0.0, "lon": -76.99049383333333, "name": "21921fc58f5cec387d44d2da2645ff5f"}, {"bike_id": "36b11a2c41940104ea25c7b4d91ac30a", "type": "electric_scooter", "is_disabled": 0, "lat": 38.91273733333333, "rental_uris": {"ios": "https://dc.lft.to/lastmile_qr_scan", "android": "https://dc.lft.to/lastmile_qr_scan"}, "is_reserved": 0, "fusion_lon": 0.0, "fusion_lat": 0.0, "lon": -77.05156883333333, "name": "36b11a2c41940104ea25c7b4d91ac30a"}, {"bike_id": "32518d2d3402a5ddd7007c64adbf5364", "type": "electric_scooter", "is_disabled": 0, "lat": 38.91694483333333, "rental_uris": {"ios": "https://dc.lft.to/lastmile_qr_scan", "android": "https://dc.lft.to/lastmile_qr_scan"}, "is_reserved": 0, "fusion_lon": 0.0, "fusion_lat": 0.0, "lon": -77.03214233333334, "name": "32518d2d3402a5ddd7007c64adbf5364"}, {"bike_id": "876f44ff906f72068ccb2f3040db3548", "type": "electric_scooter", "is_disabled": 0, "lat": 38.88268133333333, "rental_uris": {"ios": "https://dc.lft.to/lastmile_qr_scan", "android": "https://dc.lft.to/lastmile_qr_scan"}, "is_reserved": 0, "fusion_lon": 0.0, "fusion_lat": 0.0, "lon": -76.99255616666667, "name": "876f44ff906f72068ccb2f3040db3548"}, {"bike_id": "31f1e681fb43c3e103c3e264bc574060", "type": "electric_scooter", "is_disabled": 0, "lat": 38.918629833333334, "rental_uris": {"ios": "https://dc.lft.to/lastmile_qr_scan", "android": "https://dc.lft.to/lastmile_qr_scan"}, "is_reserved": 0, "fusion_lon": 0.0, "fusion_lat": 0.0, "lon": -77.0150845, "name": "31f1e681fb43c3e103c3e264bc574060"}, {"bike_id": "7b4cd203a88fb90d042e3cca16e99b7a", "type": "electric_scooter", "is_disabled": 0, "lat": 38.921497, "rental_uris": {"ios": "https://dc.lft.to/lastmile_qr_scan", "android": "https://dc.lft.to/lastmile_qr_scan"}, "is_reserved": 0, "fusion_lon": 0.0, "fusion_lat": 0.0, "lon": -77.033149, "name": "7b4cd203a88fb90d042e3cca16e99b7a"}, {"bike_id": "ccc35ef67800f60f78da2261c1514d07", "type": "electric_scooter", "is_disabled": 0, "lat": 38.94331783333333, "rental_uris": {"ios": "https://dc.lft.to/lastmile_qr_scan", "android": "https://dc.lft.to/lastmile_qr_scan"}, "is_reserved": 0, "fusion_lon": 0.0, "fusion_lat": 0.0, "lon": -77.0148455, "name": "ccc35ef67800f60f78da2261c1514d07"}, {"bike_id": "bae5b12f1427fdff166fba8037b3a602", "type": "electric_scooter", "is_disabled": 0, "lat": 38.898425, "rental_uris": {"ios": "https://dc.lft.to/lastmile_qr_scan", "android": "https://dc.lft.to/lastmile_qr_scan"}, "is_reserved": 0, "fusion_lon": 0.0, "fusion_lat": 0.0, "lon": -76.94631366666667, "name": "bae5b12f1427fdff166fba8037b3a602"}, {"bike_id": "b361076ef880e24bae4b3609134f2579", "type": "electric_bike", "is_disabled": 0, "lat": 38.815073, "rental_uris": {"ios": "https://dc.lft.to/lastmile_qr_scan", "android": "https://dc.lft.to/lastmile_qr_scan"}, "is_reserved": 0, "fusion_lon": 0.0, "fusion_lat": 0.0, "lon": -77.1266155, "name": "b361076ef880e24bae4b3609134f2579"}, {"bike_id": "79413dc82e4cabf7569d1434f0bc253a", "type": "electric_scooter", "is_disabled": 0, "lat": 38.976761333333336, "rental_uris": {"ios": "https://dc.lft.to/lastmile_qr_scan", "android": "https://dc.lft.to/lastmile_qr_scan"}, "is_reserved": 0, "fusion_lon": 0.0, "fusion_lat": 0.0, "lon": -77.0165635, "name": "79413dc82e4cabf7569d1434f0bc253a"}, {"bike_id": "d1cf5f836174759282195cc117d44a2c", "type": "electric_scooter", "is_disabled": 0, "lat": 38.9244525, "rental_uris": {"ios": "https://dc.lft.to/lastmile_qr_scan", "android": "https://dc.lft.to/lastmile_qr_scan"}, "is_reserved": 0, "fusion_lon": 0.0, "fusion_lat": 0.0, "lon": -77.03342066666667, "name": "d1cf5f836174759282195cc117d44a2c"}, {"bike_id": "b466ce4bf56300fdac37c802162d9406", "type": "electric_scooter", "is_disabled": 0, "lat": 38.923303833333335, "rental_uris": {"ios": "https://dc.lft.to/lastmile_qr_scan", "android": "https://dc.lft.to/lastmile_qr_scan"}, "is_reserved": 0, "fusion_lon": 0.0, "fusion_lat": 0.0, "lon": -77.0542355, "name": "b466ce4bf56300fdac37c802162d9406"}, {"bike_id": "3a66bf995dbea0bce0868571e975fa9d", "type": "electric_scooter", "is_disabled": 0, "lat": 38.922292166666665, "rental_uris": {"ios": "https://dc.lft.to/lastmile_qr_scan", "android": "https://dc.lft.to/lastmile_qr_scan"}, "is_reserved": 0, "fusion_lon": 0.0, "fusion_lat": 0.0, "lon": -76.97344933333333, "name": "3a66bf995dbea0bce0868571e975fa9d"}, {"bike_id": "46ce2dfdcabba6b5b9607af7b3db8d93", "type": "electric_scooter", "is_disabled": 0, "lat": 38.906832333333334, "rental_uris": {"ios": "https://dc.lft.to/lastmile_qr_scan", "android": "https://dc.lft.to/lastmile_qr_scan"}, "is_reserved": 0, "fusion_lon": 0.0, "fusion_lat": 0.0, "lon": -77.0269495, "name": "46ce2dfdcabba6b5b9607af7b3db8d93"}, {"bike_id": "ced270d72c387152bc8bc549621d3581", "type": "electric_scooter", "is_disabled": 0, "lat": 38.897526166666665, "rental_uris": {"ios": "https://dc.lft.to/lastmile_qr_scan", "android": "https://dc.lft.to/lastmile_qr_scan"}, "is_reserved": 0, "fusion_lon": 0.0, "fusion_lat": 0.0, "lon": -76.99380016666667, "name": "ced270d72c387152bc8bc549621d3581"}, {"bike_id": "a13b9440333158751bcf5b31e3138266", "type": "electric_scooter", "is_disabled": 0, "lat": 38.90476783333333, "rental_uris": {"ios": "https://dc.lft.to/lastmile_qr_scan", "android": "https://dc.lft.to/lastmile_qr_scan"}, "is_reserved": 0, "fusion_lon": 0.0, "fusion_lat": 0.0, "lon": -77.06110816666667, "name": "a13b9440333158751bcf5b31e3138266"}, {"bike_id": "8002f990c78ae21a023d57df04eec3b8", "type": "electric_bike", "is_disabled": 0, "lat": 38.7960665, "rental_uris": {"ios": "https://dc.lft.to/lastmile_qr_scan", "android": "https://dc.lft.to/lastmile_qr_scan"}, "is_reserved": 0, "fusion_lon": 0.0, "fusion_lat": 0.0, "lon": -76.99740966666667, "name": "8002f990c78ae21a023d57df04eec3b8"}, {"bike_id": "be7b510472066a4943eeb67842f997db", "type": "electric_scooter", "is_disabled": 0, "lat": 38.913326833333336, "rental_uris": {"ios": "https://dc.lft.to/lastmile_qr_scan", "android": "https://dc.lft.to/lastmile_qr_scan"}, "is_reserved": 0, "fusion_lon": 0.0, "fusion_lat": 0.0, "lon": -77.036795, "name": "be7b510472066a4943eeb67842f997db"}, {"bike_id": "40c38945a4e272db0c3a5195d2133406", "type": "electric_scooter", "is_disabled": 0, "lat": 38.90123883333333, "rental_uris": {"ios": "https://dc.lft.to/lastmile_qr_scan", "android": "https://dc.lft.to/lastmile_qr_scan"}, "is_reserved": 0, "fusion_lon": 0.0, "fusion_lat": 0.0, "lon": -77.01815816666667, "name": "40c38945a4e272db0c3a5195d2133406"}, {"bike_id": "5121de4e23eddef883c1b1f96a8cf2f1", "type": "electric_scooter", "is_disabled": 0, "lat": 38.91504183333333, "rental_uris": {"ios": "https://dc.lft.to/lastmile_qr_scan", "android": "https://dc.lft.to/lastmile_qr_scan"}, "is_reserved": 0, "fusion_lon": 0.0, "fusion_lat": 0.0, "lon": -77.0177625, "name": "5121de4e23eddef883c1b1f96a8cf2f1"}, {"bike_id": "b3a9bf9f3f04e5ceb1e1638ef0be8517", "type": "electric_scooter", "is_disabled": 0, "lat": 38.917, "rental_uris": {"ios": "https://dc.lft.to/lastmile_qr_scan", "android": "https://dc.lft.to/lastmile_qr_scan"}, "is_reserved": 0, "fusion_lon": 0.0, "fusion_lat": 0.0, "lon": -77.02380566666666, "name": "b3a9bf9f3f04e5ceb1e1638ef0be8517"}, {"bike_id": "e430eac1a43143b142c2918c397e3aa1", "type": "electric_scooter", "is_disabled": 0, "lat": 38.9110965, "rental_uris": {"ios": "https://dc.lft.to/lastmile_qr_scan", "android": "https://dc.lft.to/lastmile_qr_scan"}, "is_reserved": 0, "fusion_lon": 0.0, "fusion_lat": 0.0, "lon": -77.01145233333334, "name": "e430eac1a43143b142c2918c397e3aa1"}, {"bike_id": "ee3a6a1727dc0091c19d33f14f04814b", "type": "electric_scooter", "is_disabled": 0, "lat": 38.9051105, "rental_uris": {"ios": "https://dc.lft.to/lastmile_qr_scan", "android": "https://dc.lft.to/lastmile_qr_scan"}, "is_reserved": 0, "fusion_lon": 0.0, "fusion_lat": 0.0, "lon": -77.0691265, "name": "ee3a6a1727dc0091c19d33f14f04814b"}, {"bike_id": "e45f1106f4a7707ee1334737d1d84a24", "type": "electric_scooter", "is_disabled": 0, "lat": 38.88266866666667, "rental_uris": {"ios": "https://dc.lft.to/lastmile_qr_scan", "android": "https://dc.lft.to/lastmile_qr_scan"}, "is_reserved": 0, "fusion_lon": 0.0, "fusion_lat": 0.0, "lon": -76.993621, "name": "e45f1106f4a7707ee1334737d1d84a24"}, {"bike_id": "5837742a6982ffecb0fe0dc349cd968f", "type": "electric_scooter", "is_disabled": 0, "lat": 38.906821, "rental_uris": {"ios": "https://dc.lft.to/lastmile_qr_scan", "android": "https://dc.lft.to/lastmile_qr_scan"}, "is_reserved": 0, "fusion_lon": 0.0, "fusion_lat": 0.0, "lon": -77.02691066666667, "name": "5837742a6982ffecb0fe0dc349cd968f"}, {"bike_id": "dc2f40f1fddc9f0041067d799a863074", "type": "electric_scooter", "is_disabled": 0, "lat": 38.8923035, "rental_uris": {"ios": "https://dc.lft.to/lastmile_qr_scan", "android": "https://dc.lft.to/lastmile_qr_scan"}, "is_reserved": 0, "fusion_lon": 0.0, "fusion_lat": 0.0, "lon": -77.05002266666666, "name": "dc2f40f1fddc9f0041067d799a863074"}, {"bike_id": "f99ee9160bf2f425be43137abfb21534", "type": "electric_scooter", "is_disabled": 0, "lat": 38.880496666666666, "rental_uris": {"ios": "https://dc.lft.to/lastmile_qr_scan", "android": "https://dc.lft.to/lastmile_qr_scan"}, "is_reserved": 0, "fusion_lon": 0.0, "fusion_lat": 0.0, "lon": -77.00550116666666, "name": "f99ee9160bf2f425be43137abfb21534"}, {"bike_id": "d74ed752ea7d41412e8939e979ad0b81", "type": "electric_scooter", "is_disabled": 0, "lat": 38.93066366666667, "rental_uris": {"ios": "https://dc.lft.to/lastmile_qr_scan", "android": "https://dc.lft.to/lastmile_qr_scan"}, "is_reserved": 0, "fusion_lon": 0.0, "fusion_lat": 0.0, "lon": -77.01987916666667, "name": "d74ed752ea7d41412e8939e979ad0b81"}, {"bike_id": "2b72f0a07a60a4ff6dc102846882c34d", "type": "electric_scooter", "is_disabled": 0, "lat": 38.942017, "rental_uris": {"ios": "https://dc.lft.to/lastmile_qr_scan", "android": "https://dc.lft.to/lastmile_qr_scan"}, "is_reserved": 0, "fusion_lon": 0.0, "fusion_lat": 0.0, "lon": -77.02590516666666, "name": "2b72f0a07a60a4ff6dc102846882c34d"}, {"bike_id": "c691d06150d54d696b1186367a00d058", "type": "electric_bike", "is_disabled": 0, "lat": 38.857262666666664, "rental_uris": {"ios": "https://dc.lft.to/lastmile_qr_scan", "android": "https://dc.lft.to/lastmile_qr_scan"}, "is_reserved": 0, "fusion_lon": 0.0, "fusion_lat": 0.0, "lon": -77.07962333333333, "name": "c691d06150d54d696b1186367a00d058"}, {"bike_id": "402d6329918b3df35f4b5e7d07fe4472", "type": "electric_scooter", "is_disabled": 0, "lat": 38.93466983333333, "rental_uris": {"ios": "https://dc.lft.to/lastmile_qr_scan", "android": "https://dc.lft.to/lastmile_qr_scan"}, "is_reserved": 0, "fusion_lon": 0.0, "fusion_lat": 0.0, "lon": -77.04533883333333, "name": "402d6329918b3df35f4b5e7d07fe4472"}, {"bike_id": "6b16310db841013a6650c58ea61373a4", "type": "electric_scooter", "is_disabled": 0, "lat": 38.90226216666667, "rental_uris": {"ios": "https://dc.lft.to/lastmile_qr_scan", "android": "https://dc.lft.to/lastmile_qr_scan"}, "is_reserved": 0, "fusion_lon": 0.0, "fusion_lat": 0.0, "lon": -77.04106416666667, "name": "6b16310db841013a6650c58ea61373a4"}, {"bike_id": "7c21cb1e4cc44731d2800b18bf265263", "type": "electric_scooter", "is_disabled": 0, "lat": 38.89916316666667, "rental_uris": {"ios": "https://dc.lft.to/lastmile_qr_scan", "android": "https://dc.lft.to/lastmile_qr_scan"}, "is_reserved": 0, "fusion_lon": 0.0, "fusion_lat": 0.0, "lon": -76.93365816666666, "name": "7c21cb1e4cc44731d2800b18bf265263"}, {"bike_id": "38ca7963849bc4923426c32a05b8888c", "type": "electric_scooter", "is_disabled": 0, "lat": 38.916909, "rental_uris": {"ios": "https://dc.lft.to/lastmile_qr_scan", "android": "https://dc.lft.to/lastmile_qr_scan"}, "is_reserved": 0, "fusion_lon": 0.0, "fusion_lat": 0.0, "lon": -77.031531, "name": "38ca7963849bc4923426c32a05b8888c"}, {"bike_id": "9ea4fa5fb59544517ff124ef3469c2e4", "type": "electric_scooter", "is_disabled": 0, "lat": 38.919925, "rental_uris": {"ios": "https://dc.lft.to/lastmile_qr_scan", "android": "https://dc.lft.to/lastmile_qr_scan"}, "is_reserved": 0, "fusion_lon": 0.0, "fusion_lat": 0.0, "lon": -77.01792483333334, "name": "9ea4fa5fb59544517ff124ef3469c2e4"}, {"bike_id": "fc8220a380ccc3fb7c6ab786d51b03b8", "type": "electric_scooter", "is_disabled": 0, "lat": 38.90239616666667, "rental_uris": {"ios": "https://dc.lft.to/lastmile_qr_scan", "android": "https://dc.lft.to/lastmile_qr_scan"}, "is_reserved": 0, "fusion_lon": 0.0, "fusion_lat": 0.0, "lon": -77.0019865, "name": "fc8220a380ccc3fb7c6ab786d51b03b8"}, {"bike_id": "abdecb97f5a6d946d3feda45d76b1dd5", "type": "electric_bike", "is_disabled": 0, "lat": 38.936891333333335, "rental_uris": {"ios": "https://dc.lft.to/lastmile_qr_scan", "android": "https://dc.lft.to/lastmile_qr_scan"}, "is_reserved": 0, "fusion_lon": 0.0, "fusion_lat": 0.0, "lon": -77.0564385, "name": "abdecb97f5a6d946d3feda45d76b1dd5"}, {"bike_id": "79145f549aad39bbf16a01ef43b58be8", "type": "electric_scooter", "is_disabled": 0, "lat": 38.906276166666665, "rental_uris": {"ios": "https://dc.lft.to/lastmile_qr_scan", "android": "https://dc.lft.to/lastmile_qr_scan"}, "is_reserved": 0, "fusion_lon": 0.0, "fusion_lat": 0.0, "lon": -77.0555685, "name": "79145f549aad39bbf16a01ef43b58be8"}, {"bike_id": "c3103d9ef41502f41d2e468d5b64fdd7", "type": "electric_scooter", "is_disabled": 0, "lat": 38.928694166666666, "rental_uris": {"ios": "https://dc.lft.to/lastmile_qr_scan", "android": "https://dc.lft.to/lastmile_qr_scan"}, "is_reserved": 0, "fusion_lon": 0.0, "fusion_lat": 0.0, "lon": -77.03359666666667, "name": "c3103d9ef41502f41d2e468d5b64fdd7"}, {"bike_id": "62b718193cfeb3c81716db8835496f1a", "type": "electric_scooter", "is_disabled": 0, "lat": 38.87680783333333, "rental_uris": {"ios": "https://dc.lft.to/lastmile_qr_scan", "android": "https://dc.lft.to/lastmile_qr_scan"}, "is_reserved": 0, "fusion_lon": 0.0, "fusion_lat": 0.0, "lon": -77.0166165, "name": "62b718193cfeb3c81716db8835496f1a"}, {"bike_id": "b36049bd136d249d148160bc8cfaf759", "type": "electric_scooter", "is_disabled": 0, "lat": 38.8806035, "rental_uris": {"ios": "https://dc.lft.to/lastmile_qr_scan", "android": "https://dc.lft.to/lastmile_qr_scan"}, "is_reserved": 0, "fusion_lon": 0.0, "fusion_lat": 0.0, "lon": -77.0256105, "name": "b36049bd136d249d148160bc8cfaf759"}, {"bike_id": "d86fd100253b527c01b0fbe44ba433cd", "type": "electric_scooter", "is_disabled": 0, "lat": 38.916855166666664, "rental_uris": {"ios": "https://dc.lft.to/lastmile_qr_scan", "android": "https://dc.lft.to/lastmile_qr_scan"}, "is_reserved": 0, "fusion_lon": 0.0, "fusion_lat": 0.0, "lon": -77.03762333333333, "name": "d86fd100253b527c01b0fbe44ba433cd"}, {"bike_id": "b70f625d9de40cbffd7292f5c1078c7e", "type": "electric_scooter", "is_disabled": 0, "lat": 38.90267133333333, "rental_uris": {"ios": "https://dc.lft.to/lastmile_qr_scan", "android": "https://dc.lft.to/lastmile_qr_scan"}, "is_reserved": 0, "fusion_lon": 0.0, "fusion_lat": 0.0, "lon": -77.05480216666666, "name": "b70f625d9de40cbffd7292f5c1078c7e"}, {"bike_id": "e5aa781600e5e18a79a56e22516ee4f0", "type": "electric_scooter", "is_disabled": 0, "lat": 38.93182066666667, "rental_uris": {"ios": "https://dc.lft.to/lastmile_qr_scan", "android": "https://dc.lft.to/lastmile_qr_scan"}, "is_reserved": 0, "fusion_lon": 0.0, "fusion_lat": 0.0, "lon": -77.02542733333334, "name": "e5aa781600e5e18a79a56e22516ee4f0"}, {"bike_id": "91d84e364720640b00d4868d5ad9616f", "type": "electric_scooter", "is_disabled": 0, "lat": 38.902392166666665, "rental_uris": {"ios": "https://dc.lft.to/lastmile_qr_scan", "android": "https://dc.lft.to/lastmile_qr_scan"}, "is_reserved": 0, "fusion_lon": 0.0, "fusion_lat": 0.0, "lon": -77.01641766666667, "name": "91d84e364720640b00d4868d5ad9616f"}, {"bike_id": "5e38cc5eecd9f97d5fa6385288850b2c", "type": "electric_bike", "is_disabled": 0, "lat": 38.875506333333334, "rental_uris": {"ios": "https://dc.lft.to/lastmile_qr_scan", "android": "https://dc.lft.to/lastmile_qr_scan"}, "is_reserved": 0, "fusion_lon": 0.0, "fusion_lat": 0.0, "lon": -76.96505083333334, "name": "5e38cc5eecd9f97d5fa6385288850b2c"}, {"bike_id": "564afab4582f20016419ee781fa1124d", "type": "electric_scooter", "is_disabled": 0, "lat": 38.896193833333335, "rental_uris": {"ios": "https://dc.lft.to/lastmile_qr_scan", "android": "https://dc.lft.to/lastmile_qr_scan"}, "is_reserved": 0, "fusion_lon": 0.0, "fusion_lat": 0.0, "lon": -76.98569466666666, "name": "564afab4582f20016419ee781fa1124d"}, {"bike_id": "561ca19922b048472d8ab592236fd358", "type": "electric_scooter", "is_disabled": 0, "lat": 38.89476233333333, "rental_uris": {"ios": "https://dc.lft.to/lastmile_qr_scan", "android": "https://dc.lft.to/lastmile_qr_scan"}, "is_reserved": 0, "fusion_lon": 0.0, "fusion_lat": 0.0, "lon": -76.94859283333334, "name": "561ca19922b048472d8ab592236fd358"}, {"bike_id": "eac0db29121d60f26afc92daac5e4e0b", "type": "electric_scooter", "is_disabled": 0, "lat": 38.9077135, "rental_uris": {"ios": "https://dc.lft.to/lastmile_qr_scan", "android": "https://dc.lft.to/lastmile_qr_scan"}, "is_reserved": 0, "fusion_lon": 0.0, "fusion_lat": 0.0, "lon": -77.07150283333333, "name": "eac0db29121d60f26afc92daac5e4e0b"}, {"bike_id": "e9ef95705f5db21a962cdc910a80bdd1", "type": "electric_scooter", "is_disabled": 0, "lat": 38.907138333333336, "rental_uris": {"ios": "https://dc.lft.to/lastmile_qr_scan", "android": "https://dc.lft.to/lastmile_qr_scan"}, "is_reserved": 0, "fusion_lon": 0.0, "fusion_lat": 0.0, "lon": -77.00934633333334, "name": "e9ef95705f5db21a962cdc910a80bdd1"}, {"bike_id": "661b8fa3b7f3c43fe298afa2f58b7658", "type": "electric_scooter", "is_disabled": 0, "lat": 38.91182466666667, "rental_uris": {"ios": "https://dc.lft.to/lastmile_qr_scan", "android": "https://dc.lft.to/lastmile_qr_scan"}, "is_reserved": 0, "fusion_lon": 0.0, "fusion_lat": 0.0, "lon": -77.0403345, "name": "661b8fa3b7f3c43fe298afa2f58b7658"}, {"bike_id": "d02ca6ba0044f9ea07a69811c6792b43", "type": "electric_scooter", "is_disabled": 0, "lat": 38.9213995, "rental_uris": {"ios": "https://dc.lft.to/lastmile_qr_scan", "android": "https://dc.lft.to/lastmile_qr_scan"}, "is_reserved": 0, "fusion_lon": 0.0, "fusion_lat": 0.0, "lon": -77.03166316666666, "name": "d02ca6ba0044f9ea07a69811c6792b43"}, {"bike_id": "8a1468835ccd47e143feeef953b8e40a", "type": "electric_scooter", "is_disabled": 0, "lat": 38.897022666666665, "rental_uris": {"ios": "https://dc.lft.to/lastmile_qr_scan", "android": "https://dc.lft.to/lastmile_qr_scan"}, "is_reserved": 0, "fusion_lon": 0.0, "fusion_lat": 0.0, "lon": -77.00830633333334, "name": "8a1468835ccd47e143feeef953b8e40a"}, {"bike_id": "2b3f96da0e63d162f6ee490771a22fb7", "type": "electric_scooter", "is_disabled": 0, "lat": 38.907323, "rental_uris": {"ios": "https://dc.lft.to/lastmile_qr_scan", "android": "https://dc.lft.to/lastmile_qr_scan"}, "is_reserved": 0, "fusion_lon": 0.0, "fusion_lat": 0.0, "lon": -77.0320455, "name": "2b3f96da0e63d162f6ee490771a22fb7"}, {"bike_id": "7af3cd4127f0bbe258ad7698d0617db7", "type": "electric_scooter", "is_disabled": 0, "lat": 38.91927066666667, "rental_uris": {"ios": "https://dc.lft.to/lastmile_qr_scan", "android": "https://dc.lft.to/lastmile_qr_scan"}, "is_reserved": 0, "fusion_lon": 0.0, "fusion_lat": 0.0, "lon": -77.045024, "name": "7af3cd4127f0bbe258ad7698d0617db7"}, {"bike_id": "b9ad8c39f1ae203f7bedd35ecb7d500c", "type": "electric_scooter", "is_disabled": 0, "lat": 38.898429666666665, "rental_uris": {"ios": "https://dc.lft.to/lastmile_qr_scan", "android": "https://dc.lft.to/lastmile_qr_scan"}, "is_reserved": 0, "fusion_lon": 0.0, "fusion_lat": 0.0, "lon": -76.946313, "name": "b9ad8c39f1ae203f7bedd35ecb7d500c"}, {"bike_id": "8c2d7e1fe02568df85c68bd16804339b", "type": "electric_scooter", "is_disabled": 0, "lat": 38.92311316666667, "rental_uris": {"ios": "https://dc.lft.to/lastmile_qr_scan", "android": "https://dc.lft.to/lastmile_qr_scan"}, "is_reserved": 0, "fusion_lon": 0.0, "fusion_lat": 0.0, "lon": -77.04637366666667, "name": "8c2d7e1fe02568df85c68bd16804339b"}, {"bike_id": "d49296a2b3b7b6f2ab8d6473395f0be9", "type": "electric_scooter", "is_disabled": 0, "lat": 38.91131016666667, "rental_uris": {"ios": "https://dc.lft.to/lastmile_qr_scan", "android": "https://dc.lft.to/lastmile_qr_scan"}, "is_reserved": 0, "fusion_lon": 0.0, "fusion_lat": 0.0, "lon": -77.02195466666667, "name": "d49296a2b3b7b6f2ab8d6473395f0be9"}, {"bike_id": "809744e731a0ff26f3201c4f8b9df1fe", "type": "electric_scooter", "is_disabled": 0, "lat": 38.92222266666667, "rental_uris": {"ios": "https://dc.lft.to/lastmile_qr_scan", "android": "https://dc.lft.to/lastmile_qr_scan"}, "is_reserved": 0, "fusion_lon": 0.0, "fusion_lat": 0.0, "lon": -77.02375183333334, "name": "809744e731a0ff26f3201c4f8b9df1fe"}, {"bike_id": "f7519ce9ee030a398990767babc50ba8", "type": "electric_scooter", "is_disabled": 0, "lat": 38.90716833333333, "rental_uris": {"ios": "https://dc.lft.to/lastmile_qr_scan", "android": "https://dc.lft.to/lastmile_qr_scan"}, "is_reserved": 0, "fusion_lon": 0.0, "fusion_lat": 0.0, "lon": -77.02250133333334, "name": "f7519ce9ee030a398990767babc50ba8"}, {"bike_id": "dcff67db1b63be116ce41523f03b11f6", "type": "electric_scooter", "is_disabled": 0, "lat": 38.908453, "rental_uris": {"ios": "https://dc.lft.to/lastmile_qr_scan", "android": "https://dc.lft.to/lastmile_qr_scan"}, "is_reserved": 0, "fusion_lon": 0.0, "fusion_lat": 0.0, "lon": -77.0271475, "name": "dcff67db1b63be116ce41523f03b11f6"}, {"bike_id": "2b70900e01e641cc0b903517c850266c", "type": "electric_scooter", "is_disabled": 0, "lat": 38.89537816666667, "rental_uris": {"ios": "https://dc.lft.to/lastmile_qr_scan", "android": "https://dc.lft.to/lastmile_qr_scan"}, "is_reserved": 0, "fusion_lon": 0.0, "fusion_lat": 0.0, "lon": -76.98863233333333, "name": "2b70900e01e641cc0b903517c850266c"}, {"bike_id": "427c4e31fd4b93c000ea565af1bafd09", "type": "electric_bike", "is_disabled": 0, "lat": 38.86512116666667, "rental_uris": {"ios": "https://dc.lft.to/lastmile_qr_scan", "android": "https://dc.lft.to/lastmile_qr_scan"}, "is_reserved": 0, "fusion_lon": 0.0, "fusion_lat": 0.0, "lon": -76.9734065, "name": "427c4e31fd4b93c000ea565af1bafd09"}, {"bike_id": "6db157f265ef9f60cb4edf1827e3d814", "type": "electric_scooter", "is_disabled": 0, "lat": 38.9110935, "rental_uris": {"ios": "https://dc.lft.to/lastmile_qr_scan", "android": "https://dc.lft.to/lastmile_qr_scan"}, "is_reserved": 0, "fusion_lon": 0.0, "fusion_lat": 0.0, "lon": -77.049052, "name": "6db157f265ef9f60cb4edf1827e3d814"}, {"bike_id": "e7f19073b46f935c7311ddb88caca9f9", "type": "electric_scooter", "is_disabled": 0, "lat": 38.90707183333333, "rental_uris": {"ios": "https://dc.lft.to/lastmile_qr_scan", "android": "https://dc.lft.to/lastmile_qr_scan"}, "is_reserved": 0, "fusion_lon": 0.0, "fusion_lat": 0.0, "lon": -77.02398016666666, "name": "e7f19073b46f935c7311ddb88caca9f9"}, {"bike_id": "16feb62f85721236d5a9785633619851", "type": "electric_bike", "is_disabled": 0, "lat": 38.94795833333333, "rental_uris": {"ios": "https://dc.lft.to/lastmile_qr_scan", "android": "https://dc.lft.to/lastmile_qr_scan"}, "is_reserved": 0, "fusion_lon": 0.0, "fusion_lat": 0.0, "lon": -76.95539683333334, "name": "16feb62f85721236d5a9785633619851"}, {"bike_id": "d6d97ec6b0a93104bc9d7de56948c272", "type": "electric_scooter", "is_disabled": 0, "lat": 38.91450366666667, "rental_uris": {"ios": "https://dc.lft.to/lastmile_qr_scan", "android": "https://dc.lft.to/lastmile_qr_scan"}, "is_reserved": 0, "fusion_lon": 0.0, "fusion_lat": 0.0, "lon": -77.0459255, "name": "d6d97ec6b0a93104bc9d7de56948c272"}, {"bike_id": "1aeab143ed911c9d9003c66a4cc24dc6", "type": "electric_scooter", "is_disabled": 0, "lat": 38.8453735, "rental_uris": {"ios": "https://dc.lft.to/lastmile_qr_scan", "android": "https://dc.lft.to/lastmile_qr_scan"}, "is_reserved": 0, "fusion_lon": 0.0, "fusion_lat": 0.0, "lon": -76.98551033333334, "name": "1aeab143ed911c9d9003c66a4cc24dc6"}, {"bike_id": "9603b11e2479c5b17a8d662dfce3a824", "type": "electric_scooter", "is_disabled": 0, "lat": 38.93861283333333, "rental_uris": {"ios": "https://dc.lft.to/lastmile_qr_scan", "android": "https://dc.lft.to/lastmile_qr_scan"}, "is_reserved": 0, "fusion_lon": 0.0, "fusion_lat": 0.0, "lon": -77.07787833333333, "name": "9603b11e2479c5b17a8d662dfce3a824"}, {"bike_id": "784d04e6b50856f3dad33728282096b1", "type": "electric_scooter", "is_disabled": 0, "lat": 38.84312, "rental_uris": {"ios": "https://dc.lft.to/lastmile_qr_scan", "android": "https://dc.lft.to/lastmile_qr_scan"}, "is_reserved": 0, "fusion_lon": 0.0, "fusion_lat": 0.0, "lon": -76.9992705, "name": "784d04e6b50856f3dad33728282096b1"}, {"bike_id": "39809d0a5203b4656b22f118d2c2ca33", "type": "electric_scooter", "is_disabled": 0, "lat": 38.8308465, "rental_uris": {"ios": "https://dc.lft.to/lastmile_qr_scan", "android": "https://dc.lft.to/lastmile_qr_scan"}, "is_reserved": 0, "fusion_lon": 0.0, "fusion_lat": 0.0, "lon": -77.05160616666667, "name": "39809d0a5203b4656b22f118d2c2ca33"}, {"bike_id": "52172c00486ecd1c588b6dddf9acd91b", "type": "electric_scooter", "is_disabled": 0, "lat": 38.9441585, "rental_uris": {"ios": "https://dc.lft.to/lastmile_qr_scan", "android": "https://dc.lft.to/lastmile_qr_scan"}, "is_reserved": 0, "fusion_lon": 0.0, "fusion_lat": 0.0, "lon": -77.01780683333334, "name": "52172c00486ecd1c588b6dddf9acd91b"}, {"bike_id": "e4cd318253422e4cb6a80dcc3fdc1001", "type": "electric_scooter", "is_disabled": 0, "lat": 38.86682366666667, "rental_uris": {"ios": "https://dc.lft.to/lastmile_qr_scan", "android": "https://dc.lft.to/lastmile_qr_scan"}, "is_reserved": 0, "fusion_lon": 0.0, "fusion_lat": 0.0, "lon": -76.98576183333333, "name": "e4cd318253422e4cb6a80dcc3fdc1001"}, {"bike_id": "5adbc0221a7e2a324139a78ff4270fdc", "type": "electric_scooter", "is_disabled": 0, "lat": 38.866457833333335, "rental_uris": {"ios": "https://dc.lft.to/lastmile_qr_scan", "android": "https://dc.lft.to/lastmile_qr_scan"}, "is_reserved": 0, "fusion_lon": 0.0, "fusion_lat": 0.0, "lon": -76.98819683333333, "name": "5adbc0221a7e2a324139a78ff4270fdc"}, {"bike_id": "f24076ef45d42f40d84cbd467286599e", "type": "electric_bike", "is_disabled": 0, "lat": 38.983661833333336, "rental_uris": {"ios": "https://dc.lft.to/lastmile_qr_scan", "android": "https://dc.lft.to/lastmile_qr_scan"}, "is_reserved": 0, "fusion_lon": 0.0, "fusion_lat": 0.0, "lon": -76.972161, "name": "f24076ef45d42f40d84cbd467286599e"}, {"bike_id": "2480767739c13027e2dc02a449309476", "type": "electric_scooter", "is_disabled": 0, "lat": 38.927472, "rental_uris": {"ios": "https://dc.lft.to/lastmile_qr_scan", "android": "https://dc.lft.to/lastmile_qr_scan"}, "is_reserved": 0, "fusion_lon": 0.0, "fusion_lat": 0.0, "lon": -77.02534083333333, "name": "2480767739c13027e2dc02a449309476"}, {"bike_id": "1e821562a710b8529694d76ea654fd22", "type": "electric_scooter", "is_disabled": 0, "lat": 38.915467666666665, "rental_uris": {"ios": "https://dc.lft.to/lastmile_qr_scan", "android": "https://dc.lft.to/lastmile_qr_scan"}, "is_reserved": 0, "fusion_lon": 0.0, "fusion_lat": 0.0, "lon": -77.022025, "name": "1e821562a710b8529694d76ea654fd22"}, {"bike_id": "f64af406b78cb181fa95dc90d6773f0e", "type": "electric_scooter", "is_disabled": 0, "lat": 38.897305833333334, "rental_uris": {"ios": "https://dc.lft.to/lastmile_qr_scan", "android": "https://dc.lft.to/lastmile_qr_scan"}, "is_reserved": 0, "fusion_lon": 0.0, "fusion_lat": 0.0, "lon": -77.046069, "name": "f64af406b78cb181fa95dc90d6773f0e"}, {"bike_id": "3318f0bc319d78b16a75aba2e9713f4f", "type": "electric_scooter", "is_disabled": 0, "lat": 38.934639, "rental_uris": {"ios": "https://dc.lft.to/lastmile_qr_scan", "android": "https://dc.lft.to/lastmile_qr_scan"}, "is_reserved": 0, "fusion_lon": 0.0, "fusion_lat": 0.0, "lon": -77.02764433333333, "name": "3318f0bc319d78b16a75aba2e9713f4f"}, {"bike_id": "eac72e64b166c873c092fe8379c78c24", "type": "electric_bike", "is_disabled": 0, "lat": 38.908280166666664, "rental_uris": {"ios": "https://dc.lft.to/lastmile_qr_scan", "android": "https://dc.lft.to/lastmile_qr_scan"}, "is_reserved": 0, "fusion_lon": 0.0, "fusion_lat": 0.0, "lon": -76.94155516666666, "name": "eac72e64b166c873c092fe8379c78c24"}, {"bike_id": "fcd73a27e78c6a16ba016df21f7f3907", "type": "electric_scooter", "is_disabled": 0, "lat": 38.893436, "rental_uris": {"ios": "https://dc.lft.to/lastmile_qr_scan", "android": "https://dc.lft.to/lastmile_qr_scan"}, "is_reserved": 0, "fusion_lon": 0.0, "fusion_lat": 0.0, "lon": -76.99272783333333, "name": "fcd73a27e78c6a16ba016df21f7f3907"}, {"bike_id": "61636d037bc1b5c946bbf5fa706df79b", "type": "electric_scooter", "is_disabled": 0, "lat": 38.90965533333333, "rental_uris": {"ios": "https://dc.lft.to/lastmile_qr_scan", "android": "https://dc.lft.to/lastmile_qr_scan"}, "is_reserved": 0, "fusion_lon": 0.0, "fusion_lat": 0.0, "lon": -77.03223933333334, "name": "61636d037bc1b5c946bbf5fa706df79b"}, {"bike_id": "464a92a26ebb71c77dc48fc89076349e", "type": "electric_bike", "is_disabled": 0, "lat": 38.8813055, "rental_uris": {"ios": "https://dc.lft.to/lastmile_qr_scan", "android": "https://dc.lft.to/lastmile_qr_scan"}, "is_reserved": 0, "fusion_lon": 0.0, "fusion_lat": 0.0, "lon": -77.09350516666667, "name": "464a92a26ebb71c77dc48fc89076349e"}, {"bike_id": "cf5039b603353db8d100d38710fb72e0", "type": "electric_scooter", "is_disabled": 0, "lat": 38.87660666666667, "rental_uris": {"ios": "https://dc.lft.to/lastmile_qr_scan", "android": "https://dc.lft.to/lastmile_qr_scan"}, "is_reserved": 0, "fusion_lon": 0.0, "fusion_lat": 0.0, "lon": -77.00426466666667, "name": "cf5039b603353db8d100d38710fb72e0"}, {"bike_id": "8b863baa1d826cccb91e83a11d9b1cc3", "type": "electric_scooter", "is_disabled": 0, "lat": 38.916996, "rental_uris": {"ios": "https://dc.lft.to/lastmile_qr_scan", "android": "https://dc.lft.to/lastmile_qr_scan"}, "is_reserved": 0, "fusion_lon": 0.0, "fusion_lat": 0.0, "lon": -77.02346816666666, "name": "8b863baa1d826cccb91e83a11d9b1cc3"}, {"bike_id": "0c91a4025bcb0268974d6bbd5df729ee", "type": "electric_bike", "is_disabled": 0, "lat": 39.037399666666666, "rental_uris": {"ios": "https://dc.lft.to/lastmile_qr_scan", "android": "https://dc.lft.to/lastmile_qr_scan"}, "is_reserved": 0, "fusion_lon": 0.0, "fusion_lat": 0.0, "lon": -77.05489816666666, "name": "0c91a4025bcb0268974d6bbd5df729ee"}, {"bike_id": "d63e0ae77410b405fc328092eda380c1", "type": "electric_bike", "is_disabled": 0, "lat": 39.05494733333333, "rental_uris": {"ios": "https://dc.lft.to/lastmile_qr_scan", "android": "https://dc.lft.to/lastmile_qr_scan"}, "is_reserved": 0, "fusion_lon": 0.0, "fusion_lat": 0.0, "lon": -77.11788083333333, "name": "d63e0ae77410b405fc328092eda380c1"}, {"bike_id": "511249fd578f5088523e994038db049c", "type": "electric_scooter", "is_disabled": 0, "lat": 38.87745983333333, "rental_uris": {"ios": "https://dc.lft.to/lastmile_qr_scan", "android": "https://dc.lft.to/lastmile_qr_scan"}, "is_reserved": 0, "fusion_lon": 0.0, "fusion_lat": 0.0, "lon": -76.99721683333334, "name": "511249fd578f5088523e994038db049c"}, {"bike_id": "2a73d10f030f1b3322fb018751025c86", "type": "electric_scooter", "is_disabled": 0, "lat": 38.957054166666666, "rental_uris": {"ios": "https://dc.lft.to/lastmile_qr_scan", "android": "https://dc.lft.to/lastmile_qr_scan"}, "is_reserved": 0, "fusion_lon": 0.0, "fusion_lat": 0.0, "lon": -77.07745, "name": "2a73d10f030f1b3322fb018751025c86"}, {"bike_id": "b2cf0cdda081b40a0c8426f49c2a09a3", "type": "electric_scooter", "is_disabled": 0, "lat": 38.9085115, "rental_uris": {"ios": "https://dc.lft.to/lastmile_qr_scan", "android": "https://dc.lft.to/lastmile_qr_scan"}, "is_reserved": 0, "fusion_lon": 0.0, "fusion_lat": 0.0, "lon": -77.02195633333334, "name": "b2cf0cdda081b40a0c8426f49c2a09a3"}, {"bike_id": "08b9880e323ae83968b21b0fb7293562", "type": "electric_scooter", "is_disabled": 0, "lat": 38.920708, "rental_uris": {"ios": "https://dc.lft.to/lastmile_qr_scan", "android": "https://dc.lft.to/lastmile_qr_scan"}, "is_reserved": 0, "fusion_lon": 0.0, "fusion_lat": 0.0, "lon": -77.02841483333333, "name": "08b9880e323ae83968b21b0fb7293562"}, {"bike_id": "0655fa4ad2de6c30c081e55a127ca07a", "type": "electric_scooter", "is_disabled": 0, "lat": 38.915609833333335, "rental_uris": {"ios": "https://dc.lft.to/lastmile_qr_scan", "android": "https://dc.lft.to/lastmile_qr_scan"}, "is_reserved": 0, "fusion_lon": 0.0, "fusion_lat": 0.0, "lon": -77.02411, "name": "0655fa4ad2de6c30c081e55a127ca07a"}, {"bike_id": "b534efa39023f3d6abb652031b03ef7c", "type": "electric_scooter", "is_disabled": 0, "lat": 38.916324, "rental_uris": {"ios": "https://dc.lft.to/lastmile_qr_scan", "android": "https://dc.lft.to/lastmile_qr_scan"}, "is_reserved": 0, "fusion_lon": 0.0, "fusion_lat": 0.0, "lon": -77.04006283333334, "name": "b534efa39023f3d6abb652031b03ef7c"}, {"bike_id": "7f56452a23df61fc14249fbeb94ca155", "type": "electric_scooter", "is_disabled": 0, "lat": 38.9057675, "rental_uris": {"ios": "https://dc.lft.to/lastmile_qr_scan", "android": "https://dc.lft.to/lastmile_qr_scan"}, "is_reserved": 0, "fusion_lon": 0.0, "fusion_lat": 0.0, "lon": -76.98431266666667, "name": "7f56452a23df61fc14249fbeb94ca155"}, {"bike_id": "5a5f2c91d154e5ddca6c70281e5caf1e", "type": "electric_scooter", "is_disabled": 0, "lat": 38.9420525, "rental_uris": {"ios": "https://dc.lft.to/lastmile_qr_scan", "android": "https://dc.lft.to/lastmile_qr_scan"}, "is_reserved": 0, "fusion_lon": 0.0, "fusion_lat": 0.0, "lon": -77.017383, "name": "5a5f2c91d154e5ddca6c70281e5caf1e"}, {"bike_id": "4456b0f2134a7ccea4959ceeba3d0983", "type": "electric_scooter", "is_disabled": 0, "lat": 38.916921333333335, "rental_uris": {"ios": "https://dc.lft.to/lastmile_qr_scan", "android": "https://dc.lft.to/lastmile_qr_scan"}, "is_reserved": 0, "fusion_lon": 0.0, "fusion_lat": 0.0, "lon": -77.028728, "name": "4456b0f2134a7ccea4959ceeba3d0983"}, {"bike_id": "834c73c192f95ffda239d0bdbac78362", "type": "electric_scooter", "is_disabled": 0, "lat": 38.901189333333335, "rental_uris": {"ios": "https://dc.lft.to/lastmile_qr_scan", "android": "https://dc.lft.to/lastmile_qr_scan"}, "is_reserved": 0, "fusion_lon": 0.0, "fusion_lat": 0.0, "lon": -77.0501065, "name": "834c73c192f95ffda239d0bdbac78362"}, {"bike_id": "70868e3937a9e95d84be6f49099d0f16", "type": "electric_scooter", "is_disabled": 0, "lat": 38.93922833333333, "rental_uris": {"ios": "https://dc.lft.to/lastmile_qr_scan", "android": "https://dc.lft.to/lastmile_qr_scan"}, "is_reserved": 0, "fusion_lon": 0.0, "fusion_lat": 0.0, "lon": -77.06051283333333, "name": "70868e3937a9e95d84be6f49099d0f16"}, {"bike_id": "a6e32a3384b21ff18b59893509ed8203", "type": "electric_scooter", "is_disabled": 0, "lat": 38.91552083333333, "rental_uris": {"ios": "https://dc.lft.to/lastmile_qr_scan", "android": "https://dc.lft.to/lastmile_qr_scan"}, "is_reserved": 0, "fusion_lon": 0.0, "fusion_lat": 0.0, "lon": -77.03176716666667, "name": "a6e32a3384b21ff18b59893509ed8203"}, {"bike_id": "2336b69dc5b35d586241307272efc041", "type": "electric_scooter", "is_disabled": 0, "lat": 38.92863033333333, "rental_uris": {"ios": "https://dc.lft.to/lastmile_qr_scan", "android": "https://dc.lft.to/lastmile_qr_scan"}, "is_reserved": 0, "fusion_lon": 0.0, "fusion_lat": 0.0, "lon": -77.0371375, "name": "2336b69dc5b35d586241307272efc041"}, {"bike_id": "00415b4dc3b1668b54b21793fdbbe7b3", "type": "electric_scooter", "is_disabled": 0, "lat": 38.92034316666667, "rental_uris": {"ios": "https://dc.lft.to/lastmile_qr_scan", "android": "https://dc.lft.to/lastmile_qr_scan"}, "is_reserved": 0, "fusion_lon": 0.0, "fusion_lat": 0.0, "lon": -77.013124, "name": "00415b4dc3b1668b54b21793fdbbe7b3"}, {"bike_id": "540621a13c2d0224043516362f7bf013", "type": "electric_bike", "is_disabled": 0, "lat": 38.87296833333333, "rental_uris": {"ios": "https://dc.lft.to/lastmile_qr_scan", "android": "https://dc.lft.to/lastmile_qr_scan"}, "is_reserved": 0, "fusion_lon": 0.0, "fusion_lat": 0.0, "lon": -77.13933933333334, "name": "540621a13c2d0224043516362f7bf013"}, {"bike_id": "3610149f5b95e2b56099f4184a9c0572", "type": "electric_scooter", "is_disabled": 0, "lat": 38.88478883333333, "rental_uris": {"ios": "https://dc.lft.to/lastmile_qr_scan", "android": "https://dc.lft.to/lastmile_qr_scan"}, "is_reserved": 0, "fusion_lon": 0.0, "fusion_lat": 0.0, "lon": -76.9821955, "name": "3610149f5b95e2b56099f4184a9c0572"}, {"bike_id": "42c8f38e2dfc3ffba57de4dd0cb59d3a", "type": "electric_scooter", "is_disabled": 0, "lat": 38.89714466666667, "rental_uris": {"ios": "https://dc.lft.to/lastmile_qr_scan", "android": "https://dc.lft.to/lastmile_qr_scan"}, "is_reserved": 0, "fusion_lon": 0.0, "fusion_lat": 0.0, "lon": -77.0326125, "name": "42c8f38e2dfc3ffba57de4dd0cb59d3a"}, {"bike_id": "49d94ac34a31a3ed9b91250abfb8f9a0", "type": "electric_scooter", "is_disabled": 0, "lat": 38.918435, "rental_uris": {"ios": "https://dc.lft.to/lastmile_qr_scan", "android": "https://dc.lft.to/lastmile_qr_scan"}, "is_reserved": 0, "fusion_lon": 0.0, "fusion_lat": 0.0, "lon": -76.9655325, "name": "49d94ac34a31a3ed9b91250abfb8f9a0"}, {"bike_id": "c72e5e9f15d897ff524c0cf5efaab0ff", "type": "electric_scooter", "is_disabled": 0, "lat": 38.86623266666667, "rental_uris": {"ios": "https://dc.lft.to/lastmile_qr_scan", "android": "https://dc.lft.to/lastmile_qr_scan"}, "is_reserved": 0, "fusion_lon": 0.0, "fusion_lat": 0.0, "lon": -76.9871725, "name": "c72e5e9f15d897ff524c0cf5efaab0ff"}, {"bike_id": "057cc256d16f77ff00ca0c22f991ffbf", "type": "electric_scooter", "is_disabled": 0, "lat": 38.90909766666667, "rental_uris": {"ios": "https://dc.lft.to/lastmile_qr_scan", "android": "https://dc.lft.to/lastmile_qr_scan"}, "is_reserved": 0, "fusion_lon": 0.0, "fusion_lat": 0.0, "lon": -77.0189505, "name": "057cc256d16f77ff00ca0c22f991ffbf"}, {"bike_id": "309c22ce4a9cf53ca867a19529621391", "type": "electric_scooter", "is_disabled": 0, "lat": 38.87177233333333, "rental_uris": {"ios": "https://dc.lft.to/lastmile_qr_scan", "android": "https://dc.lft.to/lastmile_qr_scan"}, "is_reserved": 0, "fusion_lon": 0.0, "fusion_lat": 0.0, "lon": -77.0061435, "name": "309c22ce4a9cf53ca867a19529621391"}, {"bike_id": "4afe468a3a6bb38fcef566a0893716b1", "type": "electric_scooter", "is_disabled": 0, "lat": 38.90559316666667, "rental_uris": {"ios": "https://dc.lft.to/lastmile_qr_scan", "android": "https://dc.lft.to/lastmile_qr_scan"}, "is_reserved": 0, "fusion_lon": 0.0, "fusion_lat": 0.0, "lon": -77.0163435, "name": "4afe468a3a6bb38fcef566a0893716b1"}, {"bike_id": "610395aada5586d0178aa9c5f9257712", "type": "electric_scooter", "is_disabled": 0, "lat": 38.88637283333333, "rental_uris": {"ios": "https://dc.lft.to/lastmile_qr_scan", "android": "https://dc.lft.to/lastmile_qr_scan"}, "is_reserved": 0, "fusion_lon": 0.0, "fusion_lat": 0.0, "lon": -77.02139033333333, "name": "610395aada5586d0178aa9c5f9257712"}, {"bike_id": "c9c0370768aa09ff650c5e9454d8b0c5", "type": "electric_scooter", "is_disabled": 0, "lat": 38.93360166666667, "rental_uris": {"ios": "https://dc.lft.to/lastmile_qr_scan", "android": "https://dc.lft.to/lastmile_qr_scan"}, "is_reserved": 0, "fusion_lon": 0.0, "fusion_lat": 0.0, "lon": -77.08856416666667, "name": "c9c0370768aa09ff650c5e9454d8b0c5"}, {"bike_id": "2bf8c5d16ae6f880689429c686c87fe9", "type": "electric_scooter", "is_disabled": 0, "lat": 38.8919455, "rental_uris": {"ios": "https://dc.lft.to/lastmile_qr_scan", "android": "https://dc.lft.to/lastmile_qr_scan"}, "is_reserved": 0, "fusion_lon": 0.0, "fusion_lat": 0.0, "lon": -77.02506366666667, "name": "2bf8c5d16ae6f880689429c686c87fe9"}, {"bike_id": "890c7d44432cccbd2057b3a2df2c61a4", "type": "electric_scooter", "is_disabled": 0, "lat": 38.8750545, "rental_uris": {"ios": "https://dc.lft.to/lastmile_qr_scan", "android": "https://dc.lft.to/lastmile_qr_scan"}, "is_reserved": 0, "fusion_lon": 0.0, "fusion_lat": 0.0, "lon": -77.00048383333333, "name": "890c7d44432cccbd2057b3a2df2c61a4"}, {"bike_id": "9e35d6290733f24caf8ca96377375463", "type": "electric_scooter", "is_disabled": 0, "lat": 38.971950166666666, "rental_uris": {"ios": "https://dc.lft.to/lastmile_qr_scan", "android": "https://dc.lft.to/lastmile_qr_scan"}, "is_reserved": 0, "fusion_lon": 0.0, "fusion_lat": 0.0, "lon": -77.02652233333333, "name": "9e35d6290733f24caf8ca96377375463"}, {"bike_id": "d6154c2adf42e6dcbf42c7e641a1ea62", "type": "electric_scooter", "is_disabled": 0, "lat": 38.905445, "rental_uris": {"ios": "https://dc.lft.to/lastmile_qr_scan", "android": "https://dc.lft.to/lastmile_qr_scan"}, "is_reserved": 0, "fusion_lon": 0.0, "fusion_lat": 0.0, "lon": -77.04418966666667, "name": "d6154c2adf42e6dcbf42c7e641a1ea62"}, {"bike_id": "fd061bc68063883f3276c3fc325d6700", "type": "electric_scooter", "is_disabled": 0, "lat": 38.905670666666666, "rental_uris": {"ios": "https://dc.lft.to/lastmile_qr_scan", "android": "https://dc.lft.to/lastmile_qr_scan"}, "is_reserved": 0, "fusion_lon": 0.0, "fusion_lat": 0.0, "lon": -77.00574083333333, "name": "fd061bc68063883f3276c3fc325d6700"}, {"bike_id": "4c981c750dea3373870f69d51e4716f3", "type": "electric_scooter", "is_disabled": 0, "lat": 38.91622916666667, "rental_uris": {"ios": "https://dc.lft.to/lastmile_qr_scan", "android": "https://dc.lft.to/lastmile_qr_scan"}, "is_reserved": 0, "fusion_lon": 0.0, "fusion_lat": 0.0, "lon": -77.04803533333333, "name": "4c981c750dea3373870f69d51e4716f3"}, {"bike_id": "0943351d8cf1ec0fcf175ce08bb58672", "type": "electric_scooter", "is_disabled": 0, "lat": 38.8869985, "rental_uris": {"ios": "https://dc.lft.to/lastmile_qr_scan", "android": "https://dc.lft.to/lastmile_qr_scan"}, "is_reserved": 0, "fusion_lon": 0.0, "fusion_lat": 0.0, "lon": -77.013739, "name": "0943351d8cf1ec0fcf175ce08bb58672"}, {"bike_id": "801c18f383d5009eb2995d02bcd38f9b", "type": "electric_scooter", "is_disabled": 0, "lat": 38.923530166666666, "rental_uris": {"ios": "https://dc.lft.to/lastmile_qr_scan", "android": "https://dc.lft.to/lastmile_qr_scan"}, "is_reserved": 0, "fusion_lon": 0.0, "fusion_lat": 0.0, "lon": -77.03518883333334, "name": "801c18f383d5009eb2995d02bcd38f9b"}, {"bike_id": "34121d9a2d112ce45f5979d01ec9c4c4", "type": "electric_scooter", "is_disabled": 0, "lat": 38.91705183333333, "rental_uris": {"ios": "https://dc.lft.to/lastmile_qr_scan", "android": "https://dc.lft.to/lastmile_qr_scan"}, "is_reserved": 0, "fusion_lon": 0.0, "fusion_lat": 0.0, "lon": -77.02421783333334, "name": "34121d9a2d112ce45f5979d01ec9c4c4"}, {"bike_id": "5ed8e0702e2936009419efd926530c3d", "type": "electric_bike", "is_disabled": 0, "lat": 38.872966166666664, "rental_uris": {"ios": "https://dc.lft.to/lastmile_qr_scan", "android": "https://dc.lft.to/lastmile_qr_scan"}, "is_reserved": 0, "fusion_lon": 0.0, "fusion_lat": 0.0, "lon": -76.96978616666667, "name": "5ed8e0702e2936009419efd926530c3d"}, {"bike_id": "0fc25cefebb8793689e97924d0afc3fd", "type": "electric_scooter", "is_disabled": 0, "lat": 38.90691483333333, "rental_uris": {"ios": "https://dc.lft.to/lastmile_qr_scan", "android": "https://dc.lft.to/lastmile_qr_scan"}, "is_reserved": 0, "fusion_lon": 0.0, "fusion_lat": 0.0, "lon": -77.05327066666666, "name": "0fc25cefebb8793689e97924d0afc3fd"}, {"bike_id": "b612bfe0ee9f0d780efcbf0facf2cd37", "type": "electric_scooter", "is_disabled": 0, "lat": 38.930034166666665, "rental_uris": {"ios": "https://dc.lft.to/lastmile_qr_scan", "android": "https://dc.lft.to/lastmile_qr_scan"}, "is_reserved": 0, "fusion_lon": 0.0, "fusion_lat": 0.0, "lon": -77.0376615, "name": "b612bfe0ee9f0d780efcbf0facf2cd37"}, {"bike_id": "a1cfb7dca959fed05627f55926116a5a", "type": "electric_scooter", "is_disabled": 0, "lat": 38.9328855, "rental_uris": {"ios": "https://dc.lft.to/lastmile_qr_scan", "android": "https://dc.lft.to/lastmile_qr_scan"}, "is_reserved": 0, "fusion_lon": 0.0, "fusion_lat": 0.0, "lon": -77.04046866666667, "name": "a1cfb7dca959fed05627f55926116a5a"}, {"bike_id": "e962cc816e2693aa00e662a6e03243ee", "type": "electric_scooter", "is_disabled": 0, "lat": 38.89239283333333, "rental_uris": {"ios": "https://dc.lft.to/lastmile_qr_scan", "android": "https://dc.lft.to/lastmile_qr_scan"}, "is_reserved": 0, "fusion_lon": 0.0, "fusion_lat": 0.0, "lon": -77.02205483333333, "name": "e962cc816e2693aa00e662a6e03243ee"}, {"bike_id": "4d1550600a7604f01f3fb555ddcdffc5", "type": "electric_bike", "is_disabled": 0, "lat": 38.929270333333335, "rental_uris": {"ios": "https://dc.lft.to/lastmile_qr_scan", "android": "https://dc.lft.to/lastmile_qr_scan"}, "is_reserved": 0, "fusion_lon": 0.0, "fusion_lat": 0.0, "lon": -77.0367385, "name": "4d1550600a7604f01f3fb555ddcdffc5"}, {"bike_id": "4ea1ce4f2e345f1ff8891985ff017545", "type": "electric_scooter", "is_disabled": 0, "lat": 38.93730216666667, "rental_uris": {"ios": "https://dc.lft.to/lastmile_qr_scan", "android": "https://dc.lft.to/lastmile_qr_scan"}, "is_reserved": 0, "fusion_lon": 0.0, "fusion_lat": 0.0, "lon": -77.05957516666666, "name": "4ea1ce4f2e345f1ff8891985ff017545"}, {"bike_id": "a5a38271fb31c8d3e8daa25dac9bf5b5", "type": "electric_scooter", "is_disabled": 0, "lat": 38.862525833333336, "rental_uris": {"ios": "https://dc.lft.to/lastmile_qr_scan", "android": "https://dc.lft.to/lastmile_qr_scan"}, "is_reserved": 0, "fusion_lon": 0.0, "fusion_lat": 0.0, "lon": -76.992651, "name": "a5a38271fb31c8d3e8daa25dac9bf5b5"}, {"bike_id": "03e1b533c5eacd916a4de198c8f73a0f", "type": "electric_scooter", "is_disabled": 0, "lat": 38.9170885, "rental_uris": {"ios": "https://dc.lft.to/lastmile_qr_scan", "android": "https://dc.lft.to/lastmile_qr_scan"}, "is_reserved": 0, "fusion_lon": 0.0, "fusion_lat": 0.0, "lon": -77.02421133333333, "name": "03e1b533c5eacd916a4de198c8f73a0f"}, {"bike_id": "9f5cfa5ea8b7793b076556ad2df2aa9c", "type": "electric_scooter", "is_disabled": 0, "lat": 38.907275166666665, "rental_uris": {"ios": "https://dc.lft.to/lastmile_qr_scan", "android": "https://dc.lft.to/lastmile_qr_scan"}, "is_reserved": 0, "fusion_lon": 0.0, "fusion_lat": 0.0, "lon": -77.00574666666667, "name": "9f5cfa5ea8b7793b076556ad2df2aa9c"}, {"bike_id": "00a0adfc7f8721f71a420c5469b54b32", "type": "electric_scooter", "is_disabled": 0, "lat": 38.863733833333335, "rental_uris": {"ios": "https://dc.lft.to/lastmile_qr_scan", "android": "https://dc.lft.to/lastmile_qr_scan"}, "is_reserved": 0, "fusion_lon": 0.0, "fusion_lat": 0.0, "lon": -76.99055666666666, "name": "00a0adfc7f8721f71a420c5469b54b32"}, {"bike_id": "7fd35d4ee60961adc6c4f319383a56ee", "type": "electric_scooter", "is_disabled": 0, "lat": 38.9271685, "rental_uris": {"ios": "https://dc.lft.to/lastmile_qr_scan", "android": "https://dc.lft.to/lastmile_qr_scan"}, "is_reserved": 0, "fusion_lon": 0.0, "fusion_lat": 0.0, "lon": -77.02099833333334, "name": "7fd35d4ee60961adc6c4f319383a56ee"}, {"bike_id": "88db5cbef94b1fe6bcf7e70c61be4c71", "type": "electric_bike", "is_disabled": 0, "lat": 38.908266833333336, "rental_uris": {"ios": "https://dc.lft.to/lastmile_qr_scan", "android": "https://dc.lft.to/lastmile_qr_scan"}, "is_reserved": 0, "fusion_lon": 0.0, "fusion_lat": 0.0, "lon": -76.94157316666667, "name": "88db5cbef94b1fe6bcf7e70c61be4c71"}, {"bike_id": "a63498d8c03b66a5e63865fa43e8feb1", "type": "electric_scooter", "is_disabled": 0, "lat": 38.86505233333333, "rental_uris": {"ios": "https://dc.lft.to/lastmile_qr_scan", "android": "https://dc.lft.to/lastmile_qr_scan"}, "is_reserved": 0, "fusion_lon": 0.0, "fusion_lat": 0.0, "lon": -76.99002383333334, "name": "a63498d8c03b66a5e63865fa43e8feb1"}, {"bike_id": "c75328f5bd025a13fa8652a6e0b30562", "type": "electric_scooter", "is_disabled": 0, "lat": 38.907222833333336, "rental_uris": {"ios": "https://dc.lft.to/lastmile_qr_scan", "android": "https://dc.lft.to/lastmile_qr_scan"}, "is_reserved": 0, "fusion_lon": 0.0, "fusion_lat": 0.0, "lon": -77.025461, "name": "c75328f5bd025a13fa8652a6e0b30562"}, {"bike_id": "04cb3b702f3bf2ad864ca39d6f25ba3e", "type": "electric_scooter", "is_disabled": 0, "lat": 38.902323833333334, "rental_uris": {"ios": "https://dc.lft.to/lastmile_qr_scan", "android": "https://dc.lft.to/lastmile_qr_scan"}, "is_reserved": 0, "fusion_lon": 0.0, "fusion_lat": 0.0, "lon": -77.01768583333333, "name": "04cb3b702f3bf2ad864ca39d6f25ba3e"}, {"bike_id": "010ff2341bce48adeb4b41359fec1b0e", "type": "electric_scooter", "is_disabled": 0, "lat": 38.85756816666667, "rental_uris": {"ios": "https://dc.lft.to/lastmile_qr_scan", "android": "https://dc.lft.to/lastmile_qr_scan"}, "is_reserved": 0, "fusion_lon": 0.0, "fusion_lat": 0.0, "lon": -76.99299966666666, "name": "010ff2341bce48adeb4b41359fec1b0e"}, {"bike_id": "9c03c9c6d9cad8396ffae2aa51f48eba", "type": "electric_scooter", "is_disabled": 0, "lat": 38.947167666666665, "rental_uris": {"ios": "https://dc.lft.to/lastmile_qr_scan", "android": "https://dc.lft.to/lastmile_qr_scan"}, "is_reserved": 0, "fusion_lon": 0.0, "fusion_lat": 0.0, "lon": -77.027758, "name": "9c03c9c6d9cad8396ffae2aa51f48eba"}, {"bike_id": "de9085e92a6e5d96b559f7b194737a73", "type": "electric_bike", "is_disabled": 0, "lat": 38.86329333333333, "rental_uris": {"ios": "https://dc.lft.to/lastmile_qr_scan", "android": "https://dc.lft.to/lastmile_qr_scan"}, "is_reserved": 0, "fusion_lon": 0.0, "fusion_lat": 0.0, "lon": -76.98723266666667, "name": "de9085e92a6e5d96b559f7b194737a73"}, {"bike_id": "787895a2c816655fb0cba883904cd15e", "type": "electric_scooter", "is_disabled": 0, "lat": 38.899307666666665, "rental_uris": {"ios": "https://dc.lft.to/lastmile_qr_scan", "android": "https://dc.lft.to/lastmile_qr_scan"}, "is_reserved": 0, "fusion_lon": 0.0, "fusion_lat": 0.0, "lon": -77.00358066666666, "name": "787895a2c816655fb0cba883904cd15e"}, {"bike_id": "e3b7d73898d94715e6cce0b9f01bedf6", "type": "electric_scooter", "is_disabled": 0, "lat": 38.93821916666667, "rental_uris": {"ios": "https://dc.lft.to/lastmile_qr_scan", "android": "https://dc.lft.to/lastmile_qr_scan"}, "is_reserved": 0, "fusion_lon": 0.0, "fusion_lat": 0.0, "lon": -77.02714183333333, "name": "e3b7d73898d94715e6cce0b9f01bedf6"}, {"bike_id": "7ea7f153d171fbfa8641fdef30e92a6b", "type": "electric_scooter", "is_disabled": 0, "lat": 38.90820516666667, "rental_uris": {"ios": "https://dc.lft.to/lastmile_qr_scan", "android": "https://dc.lft.to/lastmile_qr_scan"}, "is_reserved": 0, "fusion_lon": 0.0, "fusion_lat": 0.0, "lon": -77.006251, "name": "7ea7f153d171fbfa8641fdef30e92a6b"}, {"bike_id": "ebcd5a2506cec77ff8a8e2f04ed2f3ab", "type": "electric_scooter", "is_disabled": 0, "lat": 38.92354666666667, "rental_uris": {"ios": "https://dc.lft.to/lastmile_qr_scan", "android": "https://dc.lft.to/lastmile_qr_scan"}, "is_reserved": 0, "fusion_lon": 0.0, "fusion_lat": 0.0, "lon": -77.03533166666666, "name": "ebcd5a2506cec77ff8a8e2f04ed2f3ab"}, {"bike_id": "39dceb6c5235980a843ceb77188c838f", "type": "electric_bike", "is_disabled": 0, "lat": 38.95349316666667, "rental_uris": {"ios": "https://dc.lft.to/lastmile_qr_scan", "android": "https://dc.lft.to/lastmile_qr_scan"}, "is_reserved": 0, "fusion_lon": 0.0, "fusion_lat": 0.0, "lon": -77.03649566666667, "name": "39dceb6c5235980a843ceb77188c838f"}, {"bike_id": "e7758ed02362cd86db4f700c410a1486", "type": "electric_bike", "is_disabled": 0, "lat": 38.829489833333334, "rental_uris": {"ios": "https://dc.lft.to/lastmile_qr_scan", "android": "https://dc.lft.to/lastmile_qr_scan"}, "is_reserved": 0, "fusion_lon": 0.0, "fusion_lat": 0.0, "lon": -77.1235925, "name": "e7758ed02362cd86db4f700c410a1486"}, {"bike_id": "3f5fd8b96698d47049084d2be518ddc3", "type": "electric_scooter", "is_disabled": 0, "lat": 38.91351783333333, "rental_uris": {"ios": "https://dc.lft.to/lastmile_qr_scan", "android": "https://dc.lft.to/lastmile_qr_scan"}, "is_reserved": 0, "fusion_lon": 0.0, "fusion_lat": 0.0, "lon": -77.031901, "name": "3f5fd8b96698d47049084d2be518ddc3"}, {"bike_id": "c74be3bbd0de9390f56df49613bfcde2", "type": "electric_scooter", "is_disabled": 0, "lat": 38.91695633333333, "rental_uris": {"ios": "https://dc.lft.to/lastmile_qr_scan", "android": "https://dc.lft.to/lastmile_qr_scan"}, "is_reserved": 0, "fusion_lon": 0.0, "fusion_lat": 0.0, "lon": -77.0259715, "name": "c74be3bbd0de9390f56df49613bfcde2"}, {"bike_id": "bb112fd734596f0bab46375fb68fd4fe", "type": "electric_scooter", "is_disabled": 0, "lat": 38.89481966666666, "rental_uris": {"ios": "https://dc.lft.to/lastmile_qr_scan", "android": "https://dc.lft.to/lastmile_qr_scan"}, "is_reserved": 0, "fusion_lon": 0.0, "fusion_lat": 0.0, "lon": -76.99518316666666, "name": "bb112fd734596f0bab46375fb68fd4fe"}, {"bike_id": "0a5ba36f3d0bdad20fe0f18a4b569a9a", "type": "electric_scooter", "is_disabled": 0, "lat": 38.93131266666666, "rental_uris": {"ios": "https://dc.lft.to/lastmile_qr_scan", "android": "https://dc.lft.to/lastmile_qr_scan"}, "is_reserved": 0, "fusion_lon": 0.0, "fusion_lat": 0.0, "lon": -77.05730366666667, "name": "0a5ba36f3d0bdad20fe0f18a4b569a9a"}, {"bike_id": "762e74f4d43d43b742b29e1c08b7c730", "type": "electric_scooter", "is_disabled": 0, "lat": 38.93372183333334, "rental_uris": {"ios": "https://dc.lft.to/lastmile_qr_scan", "android": "https://dc.lft.to/lastmile_qr_scan"}, "is_reserved": 0, "fusion_lon": 0.0, "fusion_lat": 0.0, "lon": -77.05729, "name": "762e74f4d43d43b742b29e1c08b7c730"}, {"bike_id": "92135d22f2a76386239dc0c67025da6b", "type": "electric_scooter", "is_disabled": 0, "lat": 38.92263366666667, "rental_uris": {"ios": "https://dc.lft.to/lastmile_qr_scan", "android": "https://dc.lft.to/lastmile_qr_scan"}, "is_reserved": 0, "fusion_lon": 0.0, "fusion_lat": 0.0, "lon": -77.01877983333334, "name": "92135d22f2a76386239dc0c67025da6b"}, {"bike_id": "5bf4fc01560550f0bd97febae082fea6", "type": "electric_scooter", "is_disabled": 0, "lat": 38.921585, "rental_uris": {"ios": "https://dc.lft.to/lastmile_qr_scan", "android": "https://dc.lft.to/lastmile_qr_scan"}, "is_reserved": 0, "fusion_lon": 0.0, "fusion_lat": 0.0, "lon": -77.03845866666667, "name": "5bf4fc01560550f0bd97febae082fea6"}, {"bike_id": "8f39fa3b38421d64f0b398f3eda9b321", "type": "electric_scooter", "is_disabled": 0, "lat": 38.905263166666664, "rental_uris": {"ios": "https://dc.lft.to/lastmile_qr_scan", "android": "https://dc.lft.to/lastmile_qr_scan"}, "is_reserved": 0, "fusion_lon": 0.0, "fusion_lat": 0.0, "lon": -76.98624166666667, "name": "8f39fa3b38421d64f0b398f3eda9b321"}, {"bike_id": "cba624ea40e87faf5a07e80b64621976", "type": "electric_scooter", "is_disabled": 0, "lat": 38.86694216666667, "rental_uris": {"ios": "https://dc.lft.to/lastmile_qr_scan", "android": "https://dc.lft.to/lastmile_qr_scan"}, "is_reserved": 0, "fusion_lon": 0.0, "fusion_lat": 0.0, "lon": -76.9871235, "name": "cba624ea40e87faf5a07e80b64621976"}, {"bike_id": "fbf7894085d1bf3606c4b56566e924ec", "type": "electric_scooter", "is_disabled": 0, "lat": 38.862113666666666, "rental_uris": {"ios": "https://dc.lft.to/lastmile_qr_scan", "android": "https://dc.lft.to/lastmile_qr_scan"}, "is_reserved": 0, "fusion_lon": 0.0, "fusion_lat": 0.0, "lon": -76.99471166666666, "name": "fbf7894085d1bf3606c4b56566e924ec"}, {"bike_id": "9c13ff0a66bf3c84710db38eb2b63a17", "type": "electric_scooter", "is_disabled": 0, "lat": 38.910395333333334, "rental_uris": {"ios": "https://dc.lft.to/lastmile_qr_scan", "android": "https://dc.lft.to/lastmile_qr_scan"}, "is_reserved": 0, "fusion_lon": 0.0, "fusion_lat": 0.0, "lon": -77.0434975, "name": "9c13ff0a66bf3c84710db38eb2b63a17"}, {"bike_id": "1f034072f37b94882665f3bf2b54487d", "type": "electric_bike", "is_disabled": 0, "lat": 38.90621816666667, "rental_uris": {"ios": "https://dc.lft.to/lastmile_qr_scan", "android": "https://dc.lft.to/lastmile_qr_scan"}, "is_reserved": 0, "fusion_lon": 0.0, "fusion_lat": 0.0, "lon": -76.9860175, "name": "1f034072f37b94882665f3bf2b54487d"}, {"bike_id": "2904e71f018a70909f44636422aeadb5", "type": "electric_scooter", "is_disabled": 0, "lat": 38.86626366666667, "rental_uris": {"ios": "https://dc.lft.to/lastmile_qr_scan", "android": "https://dc.lft.to/lastmile_qr_scan"}, "is_reserved": 0, "fusion_lon": 0.0, "fusion_lat": 0.0, "lon": -76.98717733333334, "name": "2904e71f018a70909f44636422aeadb5"}, {"bike_id": "4846d580ac458f5bb15482d0cb303741", "type": "electric_scooter", "is_disabled": 0, "lat": 38.93977533333333, "rental_uris": {"ios": "https://dc.lft.to/lastmile_qr_scan", "android": "https://dc.lft.to/lastmile_qr_scan"}, "is_reserved": 0, "fusion_lon": 0.0, "fusion_lat": 0.0, "lon": -77.02867933333333, "name": "4846d580ac458f5bb15482d0cb303741"}, {"bike_id": "fcb6cbe0e4b55a56bfc924988ba12278", "type": "electric_scooter", "is_disabled": 0, "lat": 38.923257, "rental_uris": {"ios": "https://dc.lft.to/lastmile_qr_scan", "android": "https://dc.lft.to/lastmile_qr_scan"}, "is_reserved": 0, "fusion_lon": 0.0, "fusion_lat": 0.0, "lon": -77.00050883333333, "name": "fcb6cbe0e4b55a56bfc924988ba12278"}, {"bike_id": "5a67861ee643715a8c21ccc33050e9cc", "type": "electric_scooter", "is_disabled": 0, "lat": 38.89476066666667, "rental_uris": {"ios": "https://dc.lft.to/lastmile_qr_scan", "android": "https://dc.lft.to/lastmile_qr_scan"}, "is_reserved": 0, "fusion_lon": 0.0, "fusion_lat": 0.0, "lon": -76.98773966666667, "name": "5a67861ee643715a8c21ccc33050e9cc"}, {"bike_id": "607d8111ebe9ef650a789cd22445a269", "type": "electric_bike", "is_disabled": 0, "lat": 38.943658, "rental_uris": {"ios": "https://dc.lft.to/lastmile_qr_scan", "android": "https://dc.lft.to/lastmile_qr_scan"}, "is_reserved": 0, "fusion_lon": 0.0, "fusion_lat": 0.0, "lon": -77.0035255, "name": "607d8111ebe9ef650a789cd22445a269"}, {"bike_id": "4b3d5a103b7ea57a6044c9eabc521204", "type": "electric_scooter", "is_disabled": 0, "lat": 38.892851666666665, "rental_uris": {"ios": "https://dc.lft.to/lastmile_qr_scan", "android": "https://dc.lft.to/lastmile_qr_scan"}, "is_reserved": 0, "fusion_lon": 0.0, "fusion_lat": 0.0, "lon": -77.02022533333333, "name": "4b3d5a103b7ea57a6044c9eabc521204"}, {"bike_id": "ed1a58db9f14c311b3295060653f42f1", "type": "electric_scooter", "is_disabled": 0, "lat": 38.91724383333333, "rental_uris": {"ios": "https://dc.lft.to/lastmile_qr_scan", "android": "https://dc.lft.to/lastmile_qr_scan"}, "is_reserved": 0, "fusion_lon": 0.0, "fusion_lat": 0.0, "lon": -77.00814483333333, "name": "ed1a58db9f14c311b3295060653f42f1"}, {"bike_id": "731f1bd687c39f1aee985bda304c5ca9", "type": "electric_bike", "is_disabled": 0, "lat": 38.80751683333333, "rental_uris": {"ios": "https://dc.lft.to/lastmile_qr_scan", "android": "https://dc.lft.to/lastmile_qr_scan"}, "is_reserved": 0, "fusion_lon": 0.0, "fusion_lat": 0.0, "lon": -77.09451433333334, "name": "731f1bd687c39f1aee985bda304c5ca9"}, {"bike_id": "5cfaec97420a7c83c10960cb730819a8", "type": "electric_scooter", "is_disabled": 0, "lat": 38.870647, "rental_uris": {"ios": "https://dc.lft.to/lastmile_qr_scan", "android": "https://dc.lft.to/lastmile_qr_scan"}, "is_reserved": 0, "fusion_lon": 0.0, "fusion_lat": 0.0, "lon": -76.981308, "name": "5cfaec97420a7c83c10960cb730819a8"}, {"bike_id": "bb8520c17cb359eb68c84360aa384386", "type": "electric_bike", "is_disabled": 0, "lat": 38.86479033333333, "rental_uris": {"ios": "https://dc.lft.to/lastmile_qr_scan", "android": "https://dc.lft.to/lastmile_qr_scan"}, "is_reserved": 0, "fusion_lon": 0.0, "fusion_lat": 0.0, "lon": -76.97732333333333, "name": "bb8520c17cb359eb68c84360aa384386"}, {"bike_id": "b238cf86b9ff1689107c19865027f466", "type": "electric_scooter", "is_disabled": 0, "lat": 38.8919795, "rental_uris": {"ios": "https://dc.lft.to/lastmile_qr_scan", "android": "https://dc.lft.to/lastmile_qr_scan"}, "is_reserved": 0, "fusion_lon": 0.0, "fusion_lat": 0.0, "lon": -77.02504316666666, "name": "b238cf86b9ff1689107c19865027f466"}, {"bike_id": "c0ae7315f3b11f9afe380109a05a0ebe", "type": "electric_scooter", "is_disabled": 0, "lat": 38.858073, "rental_uris": {"ios": "https://dc.lft.to/lastmile_qr_scan", "android": "https://dc.lft.to/lastmile_qr_scan"}, "is_reserved": 0, "fusion_lon": 0.0, "fusion_lat": 0.0, "lon": -76.9892265, "name": "c0ae7315f3b11f9afe380109a05a0ebe"}, {"bike_id": "074af64c47748e127b42b1e38099a0d1", "type": "electric_scooter", "is_disabled": 0, "lat": 38.924850166666666, "rental_uris": {"ios": "https://dc.lft.to/lastmile_qr_scan", "android": "https://dc.lft.to/lastmile_qr_scan"}, "is_reserved": 0, "fusion_lon": 0.0, "fusion_lat": 0.0, "lon": -77.02960266666666, "name": "074af64c47748e127b42b1e38099a0d1"}, {"bike_id": "e7529c3e6f538af8a89389340ac9a773", "type": "electric_scooter", "is_disabled": 0, "lat": 38.9141395, "rental_uris": {"ios": "https://dc.lft.to/lastmile_qr_scan", "android": "https://dc.lft.to/lastmile_qr_scan"}, "is_reserved": 0, "fusion_lon": 0.0, "fusion_lat": 0.0, "lon": -77.0395655, "name": "e7529c3e6f538af8a89389340ac9a773"}, {"bike_id": "4d16a4d8737e28ac49de2906998c70a2", "type": "electric_scooter", "is_disabled": 0, "lat": 38.91685, "rental_uris": {"ios": "https://dc.lft.to/lastmile_qr_scan", "android": "https://dc.lft.to/lastmile_qr_scan"}, "is_reserved": 0, "fusion_lon": 0.0, "fusion_lat": 0.0, "lon": -77.02884233333333, "name": "4d16a4d8737e28ac49de2906998c70a2"}, {"bike_id": "0cd0fb9bed3e27ae807d68a0bedbf8d6", "type": "electric_scooter", "is_disabled": 0, "lat": 38.9389735, "rental_uris": {"ios": "https://dc.lft.to/lastmile_qr_scan", "android": "https://dc.lft.to/lastmile_qr_scan"}, "is_reserved": 0, "fusion_lon": 0.0, "fusion_lat": 0.0, "lon": -77.03318366666667, "name": "0cd0fb9bed3e27ae807d68a0bedbf8d6"}, {"bike_id": "5dbfd1945561109017f98b717dc5acc7", "type": "electric_scooter", "is_disabled": 0, "lat": 38.941998, "rental_uris": {"ios": "https://dc.lft.to/lastmile_qr_scan", "android": "https://dc.lft.to/lastmile_qr_scan"}, "is_reserved": 0, "fusion_lon": 0.0, "fusion_lat": 0.0, "lon": -77.02543433333334, "name": "5dbfd1945561109017f98b717dc5acc7"}, {"bike_id": "e4f8f28cf232d94b52f4353add637026", "type": "electric_scooter", "is_disabled": 0, "lat": 38.89967683333333, "rental_uris": {"ios": "https://dc.lft.to/lastmile_qr_scan", "android": "https://dc.lft.to/lastmile_qr_scan"}, "is_reserved": 0, "fusion_lon": 0.0, "fusion_lat": 0.0, "lon": -76.9830295, "name": "e4f8f28cf232d94b52f4353add637026"}, {"bike_id": "f0e529566a38a6c5f63da3309d617a00", "type": "electric_scooter", "is_disabled": 0, "lat": 38.907876333333334, "rental_uris": {"ios": "https://dc.lft.to/lastmile_qr_scan", "android": "https://dc.lft.to/lastmile_qr_scan"}, "is_reserved": 0, "fusion_lon": 0.0, "fusion_lat": 0.0, "lon": -76.9943515, "name": "f0e529566a38a6c5f63da3309d617a00"}, {"bike_id": "4a1aaaa659d5d0b131371f6b84dd695d", "type": "electric_scooter", "is_disabled": 0, "lat": 38.88705783333333, "rental_uris": {"ios": "https://dc.lft.to/lastmile_qr_scan", "android": "https://dc.lft.to/lastmile_qr_scan"}, "is_reserved": 0, "fusion_lon": 0.0, "fusion_lat": 0.0, "lon": -77.02206316666667, "name": "4a1aaaa659d5d0b131371f6b84dd695d"}, {"bike_id": "7a0587230b9f0cee00a83a289d27d206", "type": "electric_scooter", "is_disabled": 0, "lat": 38.86503016666666, "rental_uris": {"ios": "https://dc.lft.to/lastmile_qr_scan", "android": "https://dc.lft.to/lastmile_qr_scan"}, "is_reserved": 0, "fusion_lon": 0.0, "fusion_lat": 0.0, "lon": -76.99001333333334, "name": "7a0587230b9f0cee00a83a289d27d206"}, {"bike_id": "45925368d2eb6e05de0fa318348e2faf", "type": "electric_scooter", "is_disabled": 0, "lat": 38.91606266666667, "rental_uris": {"ios": "https://dc.lft.to/lastmile_qr_scan", "android": "https://dc.lft.to/lastmile_qr_scan"}, "is_reserved": 0, "fusion_lon": 0.0, "fusion_lat": 0.0, "lon": -77.03389116666666, "name": "45925368d2eb6e05de0fa318348e2faf"}, {"bike_id": "60d8c301236aede420ed14c1aad72d88", "type": "electric_scooter", "is_disabled": 0, "lat": 38.919926833333335, "rental_uris": {"ios": "https://dc.lft.to/lastmile_qr_scan", "android": "https://dc.lft.to/lastmile_qr_scan"}, "is_reserved": 0, "fusion_lon": 0.0, "fusion_lat": 0.0, "lon": -77.01792766666667, "name": "60d8c301236aede420ed14c1aad72d88"}, {"bike_id": "f6942680f7ecddbbc85834881587faa7", "type": "electric_scooter", "is_disabled": 0, "lat": 38.9226235, "rental_uris": {"ios": "https://dc.lft.to/lastmile_qr_scan", "android": "https://dc.lft.to/lastmile_qr_scan"}, "is_reserved": 0, "fusion_lon": 0.0, "fusion_lat": 0.0, "lon": -77.03523533333333, "name": "f6942680f7ecddbbc85834881587faa7"}, {"bike_id": "1ef8c7eecfd2da594eaccd52d628482a", "type": "electric_scooter", "is_disabled": 0, "lat": 38.91327016666666, "rental_uris": {"ios": "https://dc.lft.to/lastmile_qr_scan", "android": "https://dc.lft.to/lastmile_qr_scan"}, "is_reserved": 0, "fusion_lon": 0.0, "fusion_lat": 0.0, "lon": -77.03983866666667, "name": "1ef8c7eecfd2da594eaccd52d628482a"}, {"bike_id": "130d0d0c4349abcc51040c8abd2552e8", "type": "electric_scooter", "is_disabled": 0, "lat": 38.923872, "rental_uris": {"ios": "https://dc.lft.to/lastmile_qr_scan", "android": "https://dc.lft.to/lastmile_qr_scan"}, "is_reserved": 0, "fusion_lon": 0.0, "fusion_lat": 0.0, "lon": -77.04471266666667, "name": "130d0d0c4349abcc51040c8abd2552e8"}, {"bike_id": "57b61619031af4dd6da196e372639eb4", "type": "electric_scooter", "is_disabled": 0, "lat": 38.916921, "rental_uris": {"ios": "https://dc.lft.to/lastmile_qr_scan", "android": "https://dc.lft.to/lastmile_qr_scan"}, "is_reserved": 0, "fusion_lon": 0.0, "fusion_lat": 0.0, "lon": -77.032154, "name": "57b61619031af4dd6da196e372639eb4"}, {"bike_id": "b75cc63b89ed84cf66f31d6b49bb1dc8", "type": "electric_bike", "is_disabled": 0, "lat": 38.908496166666666, "rental_uris": {"ios": "https://dc.lft.to/lastmile_qr_scan", "android": "https://dc.lft.to/lastmile_qr_scan"}, "is_reserved": 0, "fusion_lon": 0.0, "fusion_lat": 0.0, "lon": -77.0557775, "name": "b75cc63b89ed84cf66f31d6b49bb1dc8"}, {"bike_id": "833966050075f660053627136f0638c4", "type": "electric_scooter", "is_disabled": 0, "lat": 38.9072885, "rental_uris": {"ios": "https://dc.lft.to/lastmile_qr_scan", "android": "https://dc.lft.to/lastmile_qr_scan"}, "is_reserved": 0, "fusion_lon": 0.0, "fusion_lat": 0.0, "lon": -77.0321025, "name": "833966050075f660053627136f0638c4"}, {"bike_id": "b76f20dc16d8317feb85200971ef73d5", "type": "electric_scooter", "is_disabled": 0, "lat": 38.90970016666667, "rental_uris": {"ios": "https://dc.lft.to/lastmile_qr_scan", "android": "https://dc.lft.to/lastmile_qr_scan"}, "is_reserved": 0, "fusion_lon": 0.0, "fusion_lat": 0.0, "lon": -77.04652416666667, "name": "b76f20dc16d8317feb85200971ef73d5"}, {"bike_id": "694a11fc40429514b9924931151c225e", "type": "electric_scooter", "is_disabled": 0, "lat": 38.91700616666667, "rental_uris": {"ios": "https://dc.lft.to/lastmile_qr_scan", "android": "https://dc.lft.to/lastmile_qr_scan"}, "is_reserved": 0, "fusion_lon": 0.0, "fusion_lat": 0.0, "lon": -77.00657833333334, "name": "694a11fc40429514b9924931151c225e"}, {"bike_id": "f2d40e610f014ce9378a46cc08078203", "type": "electric_scooter", "is_disabled": 0, "lat": 38.93098616666666, "rental_uris": {"ios": "https://dc.lft.to/lastmile_qr_scan", "android": "https://dc.lft.to/lastmile_qr_scan"}, "is_reserved": 0, "fusion_lon": 0.0, "fusion_lat": 0.0, "lon": -77.024809, "name": "f2d40e610f014ce9378a46cc08078203"}, {"bike_id": "1db6603b1b22185004a6f65cd5b77f51", "type": "electric_scooter", "is_disabled": 0, "lat": 38.90178016666667, "rental_uris": {"ios": "https://dc.lft.to/lastmile_qr_scan", "android": "https://dc.lft.to/lastmile_qr_scan"}, "is_reserved": 0, "fusion_lon": 0.0, "fusion_lat": 0.0, "lon": -76.98078166666667, "name": "1db6603b1b22185004a6f65cd5b77f51"}, {"bike_id": "55e3ad690c35285b40afbc6bf345fbca", "type": "electric_scooter", "is_disabled": 0, "lat": 38.8669545, "rental_uris": {"ios": "https://dc.lft.to/lastmile_qr_scan", "android": "https://dc.lft.to/lastmile_qr_scan"}, "is_reserved": 0, "fusion_lon": 0.0, "fusion_lat": 0.0, "lon": -76.987111, "name": "55e3ad690c35285b40afbc6bf345fbca"}, {"bike_id": "1336be55ddf49008238db37176399fbf", "type": "electric_scooter", "is_disabled": 0, "lat": 38.931283, "rental_uris": {"ios": "https://dc.lft.to/lastmile_qr_scan", "android": "https://dc.lft.to/lastmile_qr_scan"}, "is_reserved": 0, "fusion_lon": 0.0, "fusion_lat": 0.0, "lon": -76.99574983333333, "name": "1336be55ddf49008238db37176399fbf"}, {"bike_id": "d092f37284e5d1055640ab88175a3fa9", "type": "electric_scooter", "is_disabled": 0, "lat": 38.8813185, "rental_uris": {"ios": "https://dc.lft.to/lastmile_qr_scan", "android": "https://dc.lft.to/lastmile_qr_scan"}, "is_reserved": 0, "fusion_lon": 0.0, "fusion_lat": 0.0, "lon": -76.98350916666666, "name": "d092f37284e5d1055640ab88175a3fa9"}, {"bike_id": "e7fc9d1611db71ee005e8143be9f6615", "type": "electric_scooter", "is_disabled": 0, "lat": 38.90711533333333, "rental_uris": {"ios": "https://dc.lft.to/lastmile_qr_scan", "android": "https://dc.lft.to/lastmile_qr_scan"}, "is_reserved": 0, "fusion_lon": 0.0, "fusion_lat": 0.0, "lon": -77.0239455, "name": "e7fc9d1611db71ee005e8143be9f6615"}, {"bike_id": "3e784ee6b6ca8dc8788a0c8dd565fc49", "type": "electric_scooter", "is_disabled": 0, "lat": 38.94741033333333, "rental_uris": {"ios": "https://dc.lft.to/lastmile_qr_scan", "android": "https://dc.lft.to/lastmile_qr_scan"}, "is_reserved": 0, "fusion_lon": 0.0, "fusion_lat": 0.0, "lon": -77.0758995, "name": "3e784ee6b6ca8dc8788a0c8dd565fc49"}, {"bike_id": "eb5aa4c88ac6cdcf29301ed149d2f0b0", "type": "electric_scooter", "is_disabled": 0, "lat": 38.898361, "rental_uris": {"ios": "https://dc.lft.to/lastmile_qr_scan", "android": "https://dc.lft.to/lastmile_qr_scan"}, "is_reserved": 0, "fusion_lon": 0.0, "fusion_lat": 0.0, "lon": -77.0285015, "name": "eb5aa4c88ac6cdcf29301ed149d2f0b0"}, {"bike_id": "c99f2a5e61445f1d326020d62508dd23", "type": "electric_scooter", "is_disabled": 0, "lat": 38.91263383333333, "rental_uris": {"ios": "https://dc.lft.to/lastmile_qr_scan", "android": "https://dc.lft.to/lastmile_qr_scan"}, "is_reserved": 0, "fusion_lon": 0.0, "fusion_lat": 0.0, "lon": -77.02273733333334, "name": "c99f2a5e61445f1d326020d62508dd23"}, {"bike_id": "41f31828cef8e8f2a1b672da56d4ed4f", "type": "electric_bike", "is_disabled": 0, "lat": 39.05279766666666, "rental_uris": {"ios": "https://dc.lft.to/lastmile_qr_scan", "android": "https://dc.lft.to/lastmile_qr_scan"}, "is_reserved": 0, "fusion_lon": 0.0, "fusion_lat": 0.0, "lon": -77.08066516666666, "name": "41f31828cef8e8f2a1b672da56d4ed4f"}, {"bike_id": "f14a019943f74d2023a30536c1f51379", "type": "electric_scooter", "is_disabled": 0, "lat": 38.933397666666664, "rental_uris": {"ios": "https://dc.lft.to/lastmile_qr_scan", "android": "https://dc.lft.to/lastmile_qr_scan"}, "is_reserved": 0, "fusion_lon": 0.0, "fusion_lat": 0.0, "lon": -77.02056083333333, "name": "f14a019943f74d2023a30536c1f51379"}, {"bike_id": "8cf64636c0ce08d02948449ac64a79a7", "type": "electric_scooter", "is_disabled": 0, "lat": 38.918198333333336, "rental_uris": {"ios": "https://dc.lft.to/lastmile_qr_scan", "android": "https://dc.lft.to/lastmile_qr_scan"}, "is_reserved": 0, "fusion_lon": 0.0, "fusion_lat": 0.0, "lon": -77.04940466666666, "name": "8cf64636c0ce08d02948449ac64a79a7"}, {"bike_id": "5bb8521490c6dd1a4912419ee9dc1218", "type": "electric_scooter", "is_disabled": 0, "lat": 38.916328, "rental_uris": {"ios": "https://dc.lft.to/lastmile_qr_scan", "android": "https://dc.lft.to/lastmile_qr_scan"}, "is_reserved": 0, "fusion_lon": 0.0, "fusion_lat": 0.0, "lon": -77.02550883333333, "name": "5bb8521490c6dd1a4912419ee9dc1218"}, {"bike_id": "eee6e1b50c1263f05410eeb7ba719d03", "type": "electric_scooter", "is_disabled": 0, "lat": 38.9236005, "rental_uris": {"ios": "https://dc.lft.to/lastmile_qr_scan", "android": "https://dc.lft.to/lastmile_qr_scan"}, "is_reserved": 0, "fusion_lon": 0.0, "fusion_lat": 0.0, "lon": -77.03892083333334, "name": "eee6e1b50c1263f05410eeb7ba719d03"}, {"bike_id": "384092292e2ec5da5bd62626e1ad1e73", "type": "electric_scooter", "is_disabled": 0, "lat": 38.964395833333334, "rental_uris": {"ios": "https://dc.lft.to/lastmile_qr_scan", "android": "https://dc.lft.to/lastmile_qr_scan"}, "is_reserved": 0, "fusion_lon": 0.0, "fusion_lat": 0.0, "lon": -77.02065416666667, "name": "384092292e2ec5da5bd62626e1ad1e73"}, {"bike_id": "73978d41988b2b03f6b73c0511d10f58", "type": "electric_scooter", "is_disabled": 0, "lat": 38.952206, "rental_uris": {"ios": "https://dc.lft.to/lastmile_qr_scan", "android": "https://dc.lft.to/lastmile_qr_scan"}, "is_reserved": 0, "fusion_lon": 0.0, "fusion_lat": 0.0, "lon": -77.070674, "name": "73978d41988b2b03f6b73c0511d10f58"}, {"bike_id": "8aeb0ec3ee77ef58ac121cbcf0dd02eb", "type": "electric_scooter", "is_disabled": 0, "lat": 38.890035, "rental_uris": {"ios": "https://dc.lft.to/lastmile_qr_scan", "android": "https://dc.lft.to/lastmile_qr_scan"}, "is_reserved": 0, "fusion_lon": 0.0, "fusion_lat": 0.0, "lon": -76.93746166666666, "name": "8aeb0ec3ee77ef58ac121cbcf0dd02eb"}, {"bike_id": "11c38fc7fc74ac086396bb4d9626218f", "type": "electric_scooter", "is_disabled": 0, "lat": 38.89798116666667, "rental_uris": {"ios": "https://dc.lft.to/lastmile_qr_scan", "android": "https://dc.lft.to/lastmile_qr_scan"}, "is_reserved": 0, "fusion_lon": 0.0, "fusion_lat": 0.0, "lon": -77.02202666666666, "name": "11c38fc7fc74ac086396bb4d9626218f"}, {"bike_id": "49c843f208f492545b2b0230f1cbe452", "type": "electric_scooter", "is_disabled": 0, "lat": 38.9286385, "rental_uris": {"ios": "https://dc.lft.to/lastmile_qr_scan", "android": "https://dc.lft.to/lastmile_qr_scan"}, "is_reserved": 0, "fusion_lon": 0.0, "fusion_lat": 0.0, "lon": -77.0217715, "name": "49c843f208f492545b2b0230f1cbe452"}, {"bike_id": "a9662b33014d495900c22d5032443fc4", "type": "electric_scooter", "is_disabled": 0, "lat": 38.911163333333334, "rental_uris": {"ios": "https://dc.lft.to/lastmile_qr_scan", "android": "https://dc.lft.to/lastmile_qr_scan"}, "is_reserved": 0, "fusion_lon": 0.0, "fusion_lat": 0.0, "lon": -77.042195, "name": "a9662b33014d495900c22d5032443fc4"}, {"bike_id": "96ac70cdfd95d34162c80fd316b46298", "type": "electric_scooter", "is_disabled": 0, "lat": 38.905147, "rental_uris": {"ios": "https://dc.lft.to/lastmile_qr_scan", "android": "https://dc.lft.to/lastmile_qr_scan"}, "is_reserved": 0, "fusion_lon": 0.0, "fusion_lat": 0.0, "lon": -77.06773783333334, "name": "96ac70cdfd95d34162c80fd316b46298"}, {"bike_id": "81815179398925c84db010cb6b8404f5", "type": "electric_scooter", "is_disabled": 0, "lat": 38.917449833333336, "rental_uris": {"ios": "https://dc.lft.to/lastmile_qr_scan", "android": "https://dc.lft.to/lastmile_qr_scan"}, "is_reserved": 0, "fusion_lon": 0.0, "fusion_lat": 0.0, "lon": -77.03186483333333, "name": "81815179398925c84db010cb6b8404f5"}, {"bike_id": "e4469648e3d9a49a4193fa6d5460f915", "type": "electric_scooter", "is_disabled": 0, "lat": 38.881794166666666, "rental_uris": {"ios": "https://dc.lft.to/lastmile_qr_scan", "android": "https://dc.lft.to/lastmile_qr_scan"}, "is_reserved": 0, "fusion_lon": 0.0, "fusion_lat": 0.0, "lon": -77.03739983333334, "name": "e4469648e3d9a49a4193fa6d5460f915"}, {"bike_id": "fb1e865ae7dea5010db7d8055fddb622", "type": "electric_scooter", "is_disabled": 0, "lat": 38.90182383333333, "rental_uris": {"ios": "https://dc.lft.to/lastmile_qr_scan", "android": "https://dc.lft.to/lastmile_qr_scan"}, "is_reserved": 0, "fusion_lon": 0.0, "fusion_lat": 0.0, "lon": -77.03955383333333, "name": "fb1e865ae7dea5010db7d8055fddb622"},