{"data": {"bikes": [{"rental_uris": {"android": "https://dc.lft.to/lastmile_qr_scan", "ios": "https://dc.lft.to/lastmile_qr_scan"}, "lon": -76.98726, "name": "c5eb8f5fef9380b1dc7f3ebea50e463e", "lat": 38.835537333333335, "is_reserved": 0, "fusion_lat": 0.0, "bike_id": "c5eb8f5fef9380b1dc7f3ebea50e463e", "type": "electric_bike", "is_disabled": 0, "fusion_lon": 0.0}, {"rental_uris": {"android": "https://dc.lft.to/lastmile_qr_scan", "ios": "https://dc.lft.to/lastmile_qr_scan"}, "lon": -77.04196, "name": "b233119f528776e558521809ed67bf7a", "lat": 38.892241166666665, "is_reserved": 0, "fusion_lat": 0.0, "bike_id": "b233119f528776e558521809ed67bf7a", "type": "electric_scooter", "is_disabled": 0, "fusion_lon": 0.0}, {"rental_uris": {"android": "https://dc.lft.to/lastmile_qr_scan", "ios": "https://dc.lft.to/lastmile_qr_scan"}, "lon": -77.012239, "name": "fae472d7d21fbdf7c9e06ac204dee9d7", "lat": 38.9168155, "is_reserved": 0, "fusion_lat": 0.0, "bike_id": "fae472d7d21fbdf7c9e06ac204dee9d7", "type": "electric_scooter", "is_disabled": 0, "fusion_lon": 0.0}, {"rental_uris": {"android": "https://dc.lft.to/lastmile_qr_scan", "ios": "https://dc.lft.to/lastmile_qr_scan"}, "lon": -76.925936, "name": "539d77ccdc4c60d72104eb88f9502356", "lat": 38.8935885, "is_reserved": 0, "fusion_lat": 0.0, "bike_id": "539d77ccdc4c60d72104eb88f9502356", "type": "electric_scooter", "is_disabled": 0, "fusion_lon": 0.0}, {"rental_uris": {"android": "https://dc.lft.to/lastmile_qr_scan", "ios": "https://dc.lft.to/lastmile_qr_scan"}, "lon": -77.02700333333334, "name": "edc76554072dec80b40a27c34c70fa8b", "lat": 38.949847, "is_reserved": 0, "fusion_lat": 0.0, "bike_id": "edc76554072dec80b40a27c34c70fa8b", "type": "electric_scooter", "is_disabled": 0, "fusion_lon": 0.0}, {"rental_uris": {"android": "https://dc.lft.to/lastmile_qr_scan", "ios": "https://dc.lft.to/lastmile_qr_scan"}, "lon": -77.0022715, "name": "d70183bd645ab99230f7610657df0baa", "lat": 38.907762, "is_reserved": 0, "fusion_lat": 0.0, "bike_id": "d70183bd645ab99230f7610657df0baa", "type": "electric_scooter", "is_disabled": 0, "fusion_lon": 0.0}, {"rental_uris": {"android": "https://dc.lft.to/lastmile_qr_scan", "ios": "https://dc.lft.to/lastmile_qr_scan"}, "lon": -77.04230433333333, "name": "1de1692814e5c5fde922b58af158c065", "lat": 38.902332, "is_reserved": 0, "fusion_lat": 0.0, "bike_id": "1de1692814e5c5fde922b58af158c065", "type": "electric_scooter", "is_disabled": 0, "fusion_lon": 0.0}, {"rental_uris": {"android": "https://dc.lft.to/lastmile_qr_scan", "ios": "https://dc.lft.to/lastmile_qr_scan"}, "lon": -77.02383333333333, "name": "33ca3805ce53751dc2451a1819d06ee8", "lat": 38.892241, "is_reserved": 0, "fusion_lat": 0.0, "bike_id": "33ca3805ce53751dc2451a1819d06ee8", "type": "electric_scooter", "is_disabled": 0, "fusion_lon": 0.0}, {"rental_uris": {"android": "https://dc.lft.to/lastmile_qr_scan", "ios": "https://dc.lft.to/lastmile_qr_scan"}, "lon": -77.01773466666667, "name": "a258d1cfc37c10ab8abee8c2408a6c0e", "lat": 38.8871345, "is_reserved": 0, "fusion_lat": 0.0, "bike_id": "a258d1cfc37c10ab8abee8c2408a6c0e", "type": "electric_scooter", "is_disabled": 0, "fusion_lon": 0.0}, {"rental_uris": {"android": "https://dc.lft.to/lastmile_qr_scan", "ios": "https://dc.lft.to/lastmile_qr_scan"}, "lon": -76.965616, "name": "f27462e751192318764da79920126100", "lat": 38.91849083333334, "is_reserved": 0, "fusion_lat": 0.0, "bike_id": "f27462e751192318764da79920126100", "type": "electric_scooter", "is_disabled": 0, "fusion_lon": 0.0}, {"rental_uris": {"android": "https://dc.lft.to/lastmile_qr_scan", "ios": "https://dc.lft.to/lastmile_qr_scan"}, "lon": -77.038703, "name": "177957236cf4f225961b88a8b23a2033", "lat": 38.990601, "is_reserved": 0, "fusion_lat": 0.0, "bike_id": "177957236cf4f225961b88a8b23a2033", "type": "electric_bike", "is_disabled": 0, "fusion_lon": 0.0}, {"rental_uris": {"android": "https://dc.lft.to/lastmile_qr_scan", "ios": "https://dc.lft.to/lastmile_qr_scan"}, "lon": -77.04882266666667, "name": "a351f23572e6b1b117843d8335e37db1", "lat": 38.89866333333333, "is_reserved": 0, "fusion_lat": 0.0, "bike_id": "a351f23572e6b1b117843d8335e37db1", "type": "electric_scooter", "is_disabled": 0, "fusion_lon": 0.0}, {"rental_uris": {"android": "https://dc.lft.to/lastmile_qr_scan", "ios": "https://dc.lft.to/lastmile_qr_scan"}, "lon": -77.04365466666667, "name": "1deb8b3eea610d7d759a5f31919369d5", "lat": 38.90126, "is_reserved": 0, "fusion_lat": 0.0, "bike_id": "1deb8b3eea610d7d759a5f31919369d5", "type": "electric_scooter", "is_disabled": 0, "fusion_lon": 0.0}, {"rental_uris": {"android": "https://dc.lft.to/lastmile_qr_scan", "ios": "https://dc.lft.to/lastmile_qr_scan"}, "lon": -77.02697116666667, "name": "70179a7fd562aee4fd2197ae90794e34", "lat": 38.9068855, "is_reserved": 0, "fusion_lat": 0.0, "bike_id": "70179a7fd562aee4fd2197ae90794e34", "type": "electric_scooter", "is_disabled": 0, "fusion_lon": 0.0}, {"rental_uris": {"android": "https://dc.lft.to/lastmile_qr_scan", "ios": "https://dc.lft.to/lastmile_qr_scan"}, "lon": -77.01189283333333, "name": "a6ed0d84b0c5c2af7f601746cee0d676", "lat": 38.90036633333333, "is_reserved": 0, "fusion_lat": 0.0, "bike_id": "a6ed0d84b0c5c2af7f601746cee0d676", "type": "electric_scooter", "is_disabled": 0, "fusion_lon": 0.0}, {"rental_uris": {"android": "https://dc.lft.to/lastmile_qr_scan", "ios": "https://dc.lft.to/lastmile_qr_scan"}, "lon": -77.04325133333333, "name": "e16194446371f68501a640c0aa2da66d", "lat": 38.892311, "is_reserved": 0, "fusion_lat": 0.0, "bike_id": "e16194446371f68501a640c0aa2da66d", "type": "electric_scooter", "is_disabled": 0, "fusion_lon": 0.0}, {"rental_uris": {"android": "https://dc.lft.to/lastmile_qr_scan", "ios": "https://dc.lft.to/lastmile_qr_scan"}, "lon": -77.0789585, "name": "0860affa60f9e9dc00f45a1b18bc666b", "lat": 38.84826366666667, "is_reserved": 0, "fusion_lat": 0.0, "bike_id": "0860affa60f9e9dc00f45a1b18bc666b", "type": "electric_bike", "is_disabled": 0, "fusion_lon": 0.0}, {"rental_uris": {"android": "https://dc.lft.to/lastmile_qr_scan", "ios": "https://dc.lft.to/lastmile_qr_scan"}, "lon": -77.01061716666666, "name": "9da12246547dcbebdac8bfaad2558b3a", "lat": 38.907911, "is_reserved": 0, "fusion_lat": 0.0, "bike_id": "9da12246547dcbebdac8bfaad2558b3a", "type": "electric_scooter", "is_disabled": 0, "fusion_lon": 0.0}, {"rental_uris": {"android": "https://dc.lft.to/lastmile_qr_scan", "ios": "https://dc.lft.to/lastmile_qr_scan"}, "lon": -77.02821083333333, "name": "79c94f95b4dfa8a9fb727ca493d3457b", "lat": 38.965686166666664, "is_reserved": 0, "fusion_lat": 0.0, "bike_id": "79c94f95b4dfa8a9fb727ca493d3457b", "type": "electric_bike", "is_disabled": 0, "fusion_lon": 0.0}, {"rental_uris": {"android": "https://dc.lft.to/lastmile_qr_scan", "ios": "https://dc.lft.to/lastmile_qr_scan"}, "lon": -77.02825533333333, "name": "265b7d47e0a4e74c767fad27bdfd0bb1", "lat": 38.88651466666666, "is_reserved": 0, "fusion_lat": 0.0, "bike_id": "265b7d47e0a4e74c767fad27bdfd0bb1", "type": "electric_bike", "is_disabled": 0, "fusion_lon": 0.0}, {"rental_uris": {"android": "https://dc.lft.to/lastmile_qr_scan", "ios": "https://dc.lft.to/lastmile_qr_scan"}, "lon": -76.93075566666667, "name": "5d885600871cb218de71d6c83dae6e7b", "lat": 38.901670833333334, "is_reserved": 0, "fusion_lat": 0.0, "bike_id": "5d885600871cb218de71d6c83dae6e7b", "type": "electric_scooter", "is_disabled": 0, "fusion_lon": 0.0}, {"rental_uris": {"android": "https://dc.lft.to/lastmile_qr_scan", "ios": "https://dc.lft.to/lastmile_qr_scan"}, "lon": -76.95427333333333, "name": "727888c153ee31ba74fe6321962e8d34", "lat": 38.88551, "is_reserved": 0, "fusion_lat": 0.0, "bike_id": "727888c153ee31ba74fe6321962e8d34", "type": "electric_bike", "is_disabled": 0, "fusion_lon": 0.0}, {"rental_uris": {"android": "https://dc.lft.to/lastmile_qr_scan", "ios": "https://dc.lft.to/lastmile_qr_scan"}, "lon": -77.00921183333334, "name": "992c5e1bb49d23a45261972094c988b3", "lat": 38.92341233333333, "is_reserved": 0, "fusion_lat": 0.0, "bike_id": "992c5e1bb49d23a45261972094c988b3", "type": "electric_scooter", "is_disabled": 0, "fusion_lon": 0.0}, {"rental_uris": {"android": "https://dc.lft.to/lastmile_qr_scan", "ios": "https://dc.lft.to/lastmile_qr_scan"}, "lon": -77.02842633333333, "name": "f3fb87bee0ea7083004b0bddc3d6a4c9", "lat": 38.91701116666667, "is_reserved": 0, "fusion_lat": 0.0, "bike_id": "f3fb87bee0ea7083004b0bddc3d6a4c9", "type": "electric_scooter", "is_disabled": 0, "fusion_lon": 0.0}, {"rental_uris": {"android": "https://dc.lft.to/lastmile_qr_scan", "ios": "https://dc.lft.to/lastmile_qr_scan"}, "lon": -77.0269315, "name": "195ce96931ea5bbc180e05c401433cb9", "lat": 38.949833, "is_reserved": 0, "fusion_lat": 0.0, "bike_id": "195ce96931ea5bbc180e05c401433cb9", "type": "electric_scooter", "is_disabled": 0, "fusion_lon": 0.0}, {"rental_uris": {"android": "https://dc.lft.to/lastmile_qr_scan", "ios": "https://dc.lft.to/lastmile_qr_scan"}, "lon": -77.02221066666667, "name": "b4fb3e99448a2d0aec52ba0fc206af69", "lat": 38.935516, "is_reserved": 0, "fusion_lat": 0.0, "bike_id": "b4fb3e99448a2d0aec52ba0fc206af69", "type": "electric_scooter", "is_disabled": 0, "fusion_lon": 0.0}, {"rental_uris": {"android": "https://dc.lft.to/lastmile_qr_scan", "ios": "https://dc.lft.to/lastmile_qr_scan"}, "lon": -77.03130983333334, "name": "4486716b23af9f89bdf71eb2f062dba2", "lat": 38.916972, "is_reserved": 0, "fusion_lat": 0.0, "bike_id": "4486716b23af9f89bdf71eb2f062dba2", "type": "electric_scooter", "is_disabled": 0, "fusion_lon": 0.0}, {"rental_uris": {"android": "https://dc.lft.to/lastmile_qr_scan", "ios": "https://dc.lft.to/lastmile_qr_scan"}, "lon": -77.01430966666666, "name": "20593f1857fa8acc4cc283213d8b3e99", "lat": 38.97222033333333, "is_reserved": 0, "fusion_lat": 0.0, "bike_id": "20593f1857fa8acc4cc283213d8b3e99", "type": "electric_bike", "is_disabled": 0, "fusion_lon": 0.0}, {"rental_uris": {"android": "https://dc.lft.to/lastmile_qr_scan", "ios": "https://dc.lft.to/lastmile_qr_scan"}, "lon": -77.02408316666667, "name": "6c1458df0a3f598cf4bde5fea2d6d1b8", "lat": 38.90848616666667, "is_reserved": 0, "fusion_lat": 0.0, "bike_id": "6c1458df0a3f598cf4bde5fea2d6d1b8", "type": "electric_scooter", "is_disabled": 0, "fusion_lon": 0.0}, {"rental_uris": {"android": "https://dc.lft.to/lastmile_qr_scan", "ios": "https://dc.lft.to/lastmile_qr_scan"}, "lon": -77.02199883333333, "name": "736016520e5429216d7ad6ab76a6ca41", "lat": 38.919821166666665, "is_reserved": 0, "fusion_lat": 0.0, "bike_id": "736016520e5429216d7ad6ab76a6ca41", "type": "electric_scooter", "is_disabled": 0, "fusion_lon": 0.0}, {"rental_uris": {"android": "https://dc.lft.to/lastmile_qr_scan", "ios": "https://dc.lft.to/lastmile_qr_scan"}, "lon": -76.983911, "name": "6d410e2a0e53b406e8d3ded87b4b02da", "lat": 38.8667205, "is_reserved": 0, "fusion_lat": 0.0, "bike_id": "6d410e2a0e53b406e8d3ded87b4b02da", "type": "electric_scooter", "is_disabled": 0, "fusion_lon": 0.0}, {"rental_uris": {"android": "https://dc.lft.to/lastmile_qr_scan", "ios": "https://dc.lft.to/lastmile_qr_scan"}, "lon": -77.054686, "name": "dca14046de763e833e6fc9ee2cd652df", "lat": 38.89670616666667, "is_reserved": 0, "fusion_lat": 0.0, "bike_id": "dca14046de763e833e6fc9ee2cd652df", "type": "electric_scooter", "is_disabled": 0, "fusion_lon": 0.0}, {"rental_uris": {"android": "https://dc.lft.to/lastmile_qr_scan", "ios": "https://dc.lft.to/lastmile_qr_scan"}, "lon": -77.033467, "name": "ef13ca4153879fea9e1e0b2825cd4c2b", "lat": 38.935115833333334, "is_reserved": 0, "fusion_lat": 0.0, "bike_id": "ef13ca4153879fea9e1e0b2825cd4c2b", "type": "electric_scooter", "is_disabled": 0, "fusion_lon": 0.0}, {"rental_uris": {"android": "https://dc.lft.to/lastmile_qr_scan", "ios": "https://dc.lft.to/lastmile_qr_scan"}, "lon": -76.985444, "name": "e2cc42bfa5a8dbad6a242a4aaae6e23b", "lat": 38.866901666666664, "is_reserved": 0, "fusion_lat": 0.0, "bike_id": "e2cc42bfa5a8dbad6a242a4aaae6e23b", "type": "electric_scooter", "is_disabled": 0, "fusion_lon": 0.0}, {"rental_uris": {"android": "https://dc.lft.to/lastmile_qr_scan", "ios": "https://dc.lft.to/lastmile_qr_scan"}, "lon": -76.9924955, "name": "24670968484dc56f92324446f9d5e937", "lat": 38.7947075, "is_reserved": 0, "fusion_lat": 0.0, "bike_id": "24670968484dc56f92324446f9d5e937", "type": "electric_bike", "is_disabled": 0, "fusion_lon": 0.0}, {"rental_uris": {"android": "https://dc.lft.to/lastmile_qr_scan", "ios": "https://dc.lft.to/lastmile_qr_scan"}, "lon": -77.022002, "name": "bd070d572c83c2229fbd91cf4c34d1d5", "lat": 38.91046466666667, "is_reserved": 0, "fusion_lat": 0.0, "bike_id": "bd070d572c83c2229fbd91cf4c34d1d5", "type": "electric_scooter", "is_disabled": 0, "fusion_lon": 0.0}, {"rental_uris": {"android": "https://dc.lft.to/lastmile_qr_scan", "ios": "https://dc.lft.to/lastmile_qr_scan"}, "lon": -77.00925333333333, "name": "d944f6597804e9577f35ad49c163eb9e", "lat": 38.89605616666667, "is_reserved": 0, "fusion_lat": 0.0, "bike_id": "d944f6597804e9577f35ad49c163eb9e", "type": "electric_scooter", "is_disabled": 0, "fusion_lon": 0.0}, {"rental_uris": {"android": "https://dc.lft.to/lastmile_qr_scan", "ios": "https://dc.lft.to/lastmile_qr_scan"}, "lon": -77.03455733333334, "name": "b97ae14ccebbf5b71e9cee08f65567eb", "lat": 38.90652383333333, "is_reserved": 0, "fusion_lat": 0.0, "bike_id": "b97ae14ccebbf5b71e9cee08f65567eb", "type": "electric_scooter", "is_disabled": 0, "fusion_lon": 0.0}, {"rental_uris": {"android": "https://dc.lft.to/lastmile_qr_scan", "ios": "https://dc.lft.to/lastmile_qr_scan"}, "lon": -77.0770155, "name": "dbbba6d1597091f5b2e7e81658be87f4", "lat": 38.943838666666664, "is_reserved": 0, "fusion_lat": 0.0, "bike_id": "dbbba6d1597091f5b2e7e81658be87f4", "type": "electric_scooter", "is_disabled": 0, "fusion_lon": 0.0}, {"rental_uris": {"android": "https://dc.lft.to/lastmile_qr_scan", "ios": "https://dc.lft.to/lastmile_qr_scan"}, "lon": -76.982439, "name": "b9e47ac606677b5bbbbba1a9ecee8f3d", "lat": 38.89992083333333, "is_reserved": 0, "fusion_lat": 0.0, "bike_id": "b9e47ac606677b5bbbbba1a9ecee8f3d", "type": "electric_scooter", "is_disabled": 0, "fusion_lon": 0.0}, {"rental_uris": {"android": "https://dc.lft.to/lastmile_qr_scan", "ios": "https://dc.lft.to/lastmile_qr_scan"}, "lon": -77.06829216666667, "name": "081915e585ef9c69bc69519aa15725e8", "lat": 38.918077, "is_reserved": 0, "fusion_lat": 0.0, "bike_id": "081915e585ef9c69bc69519aa15725e8", "type": "electric_scooter", "is_disabled": 0, "fusion_lon": 0.0}, {"rental_uris": {"android": "https://dc.lft.to/lastmile_qr_scan", "ios": "https://dc.lft.to/lastmile_qr_scan"}, "lon": -77.01143033333334, "name": "44b2251bd92287a48636cd41ad1617a7", "lat": 38.8999205, "is_reserved": 0, "fusion_lat": 0.0, "bike_id": "44b2251bd92287a48636cd41ad1617a7", "type": "electric_scooter", "is_disabled": 0, "fusion_lon": 0.0}, {"rental_uris": {"android": "https://dc.lft.to/lastmile_qr_scan", "ios": "https://dc.lft.to/lastmile_qr_scan"}, "lon": -77.06401333333334, "name": "9bc2031e11de03cf0356d332b868bfa6", "lat": 38.84345716666667, "is_reserved": 0, "fusion_lat": 0.0, "bike_id": "9bc2031e11de03cf0356d332b868bfa6", "type": "electric_bike", "is_disabled": 0, "fusion_lon": 0.0}, {"rental_uris": {"android": "https://dc.lft.to/lastmile_qr_scan", "ios": "https://dc.lft.to/lastmile_qr_scan"}, "lon": -77.038246, "name": "593ad89ef428ed8dd3780fca64340414", "lat": 38.9125425, "is_reserved": 0, "fusion_lat": 0.0, "bike_id": "593ad89ef428ed8dd3780fca64340414", "type": "electric_scooter", "is_disabled": 0, "fusion_lon": 0.0}, {"rental_uris": {"android": "https://dc.lft.to/lastmile_qr_scan", "ios": "https://dc.lft.to/lastmile_qr_scan"}, "lon": -77.02485966666667, "name": "e52938b2e6fcd2368c515656170f80ef", "lat": 38.941873, "is_reserved": 0, "fusion_lat": 0.0, "bike_id": "e52938b2e6fcd2368c515656170f80ef", "type": "electric_scooter", "is_disabled": 0, "fusion_lon": 0.0}, {"rental_uris": {"android": "https://dc.lft.to/lastmile_qr_scan", "ios": "https://dc.lft.to/lastmile_qr_scan"}, "lon": -77.022817, "name": "c9cab013129b83a665b3e15e7f83921e", "lat": 38.916588833333336, "is_reserved": 0, "fusion_lat": 0.0, "bike_id": "c9cab013129b83a665b3e15e7f83921e", "type": "electric_scooter", "is_disabled": 0, "fusion_lon": 0.0}, {"rental_uris": {"android": "https://dc.lft.to/lastmile_qr_scan", "ios": "https://dc.lft.to/lastmile_qr_scan"}, "lon": -77.04035816666666, "name": "c84354007dd2a6b32f08d8974611d4ca", "lat": 38.92467533333333, "is_reserved": 0, "fusion_lat": 0.0, "bike_id": "c84354007dd2a6b32f08d8974611d4ca", "type": "electric_scooter", "is_disabled": 0, "fusion_lon": 0.0}, {"rental_uris": {"android": "https://dc.lft.to/lastmile_qr_scan", "ios": "https://dc.lft.to/lastmile_qr_scan"}, "lon": -77.03259616666666, "name": "b63b5868689dbbbc58421cc2bd2511d2", "lat": 38.93570316666667, "is_reserved": 0, "fusion_lat": 0.0, "bike_id": "b63b5868689dbbbc58421cc2bd2511d2", "type": "electric_scooter", "is_disabled": 0, "fusion_lon": 0.0}, {"rental_uris": {"android": "https://dc.lft.to/lastmile_qr_scan", "ios": "https://dc.lft.to/lastmile_qr_scan"}, "lon": -76.92882316666666, "name": "48e888d59690f7cb0dfd77f58a7c2a04", "lat": 38.883770166666665, "is_reserved": 0, "fusion_lat": 0.0, "bike_id": "48e888d59690f7cb0dfd77f58a7c2a04", "type": "electric_scooter", "is_disabled": 0, "fusion_lon": 0.0}, {"rental_uris": {"android": "https://dc.lft.to/lastmile_qr_scan", "ios": "https://dc.lft.to/lastmile_qr_scan"}, "lon": -77.05019316666667, "name": "4ba9f60474723e24590fc4f047c91fa2", "lat": 38.81706333333333, "is_reserved": 0, "fusion_lat": 0.0, "bike_id": "4ba9f60474723e24590fc4f047c91fa2", "type": "electric_bike", "is_disabled": 0, "fusion_lon": 0.0}, {"rental_uris": {"android": "https://dc.lft.to/lastmile_qr_scan", "ios": "https://dc.lft.to/lastmile_qr_scan"}, "lon": -77.1330615, "name": "cc287331e89885b2f93ed762d31b9858", "lat": 38.887182833333334, "is_reserved": 0, "fusion_lat": 0.0, "bike_id": "cc287331e89885b2f93ed762d31b9858", "type": "electric_bike", "is_disabled": 0, "fusion_lon": 0.0}, {"rental_uris": {"android": "https://dc.lft.to/lastmile_qr_scan", "ios": "https://dc.lft.to/lastmile_qr_scan"}, "lon": -77.01415066666667, "name": "1351e5e09244ea61279cd928d8124f1f", "lat": 38.92803416666667, "is_reserved": 0, "fusion_lat": 0.0, "bike_id": "1351e5e09244ea61279cd928d8124f1f", "type": "electric_scooter", "is_disabled": 0, "fusion_lon": 0.0}, {"rental_uris": {"android": "https://dc.lft.to/lastmile_qr_scan", "ios": "https://dc.lft.to/lastmile_qr_scan"}, "lon": -77.02736116666667, "name": "73df7ab457efa607321f7afbe64dbdc3", "lat": 38.92772216666667, "is_reserved": 0, "fusion_lat": 0.0, "bike_id": "73df7ab457efa607321f7afbe64dbdc3", "type": "electric_scooter", "is_disabled": 0, "fusion_lon": 0.0}, {"rental_uris": {"android": "https://dc.lft.to/lastmile_qr_scan", "ios": "https://dc.lft.to/lastmile_qr_scan"}, "lon": -77.039676, "name": "3ffa9ec1b000d56d7cb2986966105c31", "lat": 38.90238466666667, "is_reserved": 0, "fusion_lat": 0.0, "bike_id": "3ffa9ec1b000d56d7cb2986966105c31", "type": "electric_scooter", "is_disabled": 0, "fusion_lon": 0.0}, {"rental_uris": {"android": "https://dc.lft.to/lastmile_qr_scan", "ios": "https://dc.lft.to/lastmile_qr_scan"}, "lon": -77.00110316666667, "name": "01027d7d2e1d1bcf6fb3104b0ebd0502", "lat": 38.900049833333334, "is_reserved": 0, "fusion_lat": 0.0, "bike_id": "01027d7d2e1d1bcf6fb3104b0ebd0502", "type": "electric_scooter", "is_disabled": 0, "fusion_lon": 0.0}, {"rental_uris": {"android": "https://dc.lft.to/lastmile_qr_scan", "ios": "https://dc.lft.to/lastmile_qr_scan"}, "lon": -76.950743, "name": "401fd35b9d572fe8d1da2b5d052dfc95", "lat": 38.90524716666667, "is_reserved": 0, "fusion_lat": 0.0, "bike_id": "401fd35b9d572fe8d1da2b5d052dfc95", "type": "electric_scooter", "is_disabled": 0, "fusion_lon": 0.0}, {"rental_uris": {"android": "https://dc.lft.to/lastmile_qr_scan", "ios": "https://dc.lft.to/lastmile_qr_scan"}, "lon": -77.02483533333333, "name": "c758053ec36ea8ace269cfc27c2c2101", "lat": 38.938912333333334, "is_reserved": 0, "fusion_lat": 0.0, "bike_id": "c758053ec36ea8ace269cfc27c2c2101", "type": "electric_scooter", "is_disabled": 0, "fusion_lon": 0.0}, {"rental_uris": {"android": "https://dc.lft.to/lastmile_qr_scan", "ios": "https://dc.lft.to/lastmile_qr_scan"}, "lon": -77.0319135, "name": "0fc793547e5e033e3adc59b5516fef3b", "lat": 38.898401166666666, "is_reserved": 0, "fusion_lat": 0.0, "bike_id": "0fc793547e5e033e3adc59b5516fef3b", "type": "electric_scooter", "is_disabled": 0, "fusion_lon": 0.0}, {"rental_uris": {"android": "https://dc.lft.to/lastmile_qr_scan", "ios": "https://dc.lft.to/lastmile_qr_scan"}, "lon": -76.97543416666667, "name": "97a227bbe1f2c93cfd9b9e11757ec4fe", "lat": 38.903258, "is_reserved": 0, "fusion_lat": 0.0, "bike_id": "97a227bbe1f2c93cfd9b9e11757ec4fe", "type": "electric_scooter", "is_disabled": 0, "fusion_lon": 0.0}, {"rental_uris": {"android": "https://dc.lft.to/lastmile_qr_scan", "ios": "https://dc.lft.to/lastmile_qr_scan"}, "lon": -76.99032283333334, "name": "ef7366bc4101f805298bca5a980bc798", "lat": 38.938844833333334, "is_reserved": 0, "fusion_lat": 0.0, "bike_id": "ef7366bc4101f805298bca5a980bc798", "type": "electric_bike", "is_disabled": 0, "fusion_lon": 0.0}, {"rental_uris": {"android": "https://dc.lft.to/lastmile_qr_scan", "ios": "https://dc.lft.to/lastmile_qr_scan"}, "lon": -77.02951783333333, "name": "defd08682c881dd4f1237d364b99b2ae", "lat": 38.916817333333334, "is_reserved": 0, "fusion_lat": 0.0, "bike_id": "defd08682c881dd4f1237d364b99b2ae", "type": "electric_scooter", "is_disabled": 0, "fusion_lon": 0.0}, {"rental_uris": {"android": "https://dc.lft.to/lastmile_qr_scan", "ios": "https://dc.lft.to/lastmile_qr_scan"}, "lon": -77.012689, "name": "7c0d87ef9c992b1642b4fd1584bb9649", "lat": 38.864627, "is_reserved": 0, "fusion_lat": 0.0, "bike_id": "7c0d87ef9c992b1642b4fd1584bb9649", "type": "electric_bike", "is_disabled": 0, "fusion_lon": 0.0}, {"rental_uris": {"android": "https://dc.lft.to/lastmile_qr_scan", "ios": "https://dc.lft.to/lastmile_qr_scan"}, "lon": -77.034459, "name": "e70b12cc4fd1649a9e5bd8870f998693", "lat": 38.90950016666667, "is_reserved": 0, "fusion_lat": 0.0, "bike_id": "e70b12cc4fd1649a9e5bd8870f998693", "type": "electric_scooter", "is_disabled": 0, "fusion_lon": 0.0}, {"rental_uris": {"android": "https://dc.lft.to/lastmile_qr_scan", "ios": "https://dc.lft.to/lastmile_qr_scan"}, "lon": -77.03644933333334, "name": "b0cc6b5dbf22c91a4e5cd89c10780853", "lat": 38.91620316666667, "is_reserved": 0, "fusion_lat": 0.0, "bike_id": "b0cc6b5dbf22c91a4e5cd89c10780853", "type": "electric_scooter", "is_disabled": 0, "fusion_lon": 0.0}, {"rental_uris": {"android": "https://dc.lft.to/lastmile_qr_scan", "ios": "https://dc.lft.to/lastmile_qr_scan"}, "lon": -77.00760366666667, "name": "b06ff1ef5f514c80d5d556b6e61904ef", "lat": 38.9978385, "is_reserved": 0, "fusion_lat": 0.0, "bike_id": "b06ff1ef5f514c80d5d556b6e61904ef", "type": "electric_bike", "is_disabled": 0, "fusion_lon": 0.0}, {"rental_uris": {"android": "https://dc.lft.to/lastmile_qr_scan", "ios": "https://dc.lft.to/lastmile_qr_scan"}, "lon": -77.0215465, "name": "14486f11bc715c5580fc3f7d96f12417", "lat": 38.9413585, "is_reserved": 0, "fusion_lat": 0.0, "bike_id": "14486f11bc715c5580fc3f7d96f12417", "type": "electric_scooter", "is_disabled": 0, "fusion_lon": 0.0}, {"rental_uris": {"android": "https://dc.lft.to/lastmile_qr_scan", "ios": "https://dc.lft.to/lastmile_qr_scan"}, "lon": -77.0683665, "name": "b9906988afe63665489667dce26c53cb", "lat": 38.91723433333333, "is_reserved": 0, "fusion_lat": 0.0, "bike_id": "b9906988afe63665489667dce26c53cb", "type": "electric_scooter", "is_disabled": 0, "fusion_lon": 0.0}, {"rental_uris": {"android": "https://dc.lft.to/lastmile_qr_scan", "ios": "https://dc.lft.to/lastmile_qr_scan"}, "lon": -77.02693616666667, "name": "a7f0e6501e59f4ab735f6c92b2540528", "lat": 38.91840033333333, "is_reserved": 0, "fusion_lat": 0.0, "bike_id": "a7f0e6501e59f4ab735f6c92b2540528", "type": "electric_scooter", "is_disabled": 0, "fusion_lon": 0.0}, {"rental_uris": {"android": "https://dc.lft.to/lastmile_qr_scan", "ios": "https://dc.lft.to/lastmile_qr_scan"}, "lon": -76.98373666666667, "name": "b70f21b1089574fbdc4d8d2b8b409846", "lat": 38.915059666666664, "is_reserved": 0, "fusion_lat": 0.0, "bike_id": "b70f21b1089574fbdc4d8d2b8b409846", "type": "electric_scooter", "is_disabled": 0, "fusion_lon": 0.0}, {"rental_uris": {"android": "https://dc.lft.to/lastmile_qr_scan", "ios": "https://dc.lft.to/lastmile_qr_scan"}, "lon": -77.00597466666666, "name": "91d15eae37a40e7462682b026e88faad", "lat": 38.87565333333333, "is_reserved": 0, "fusion_lat": 0.0, "bike_id": "91d15eae37a40e7462682b026e88faad", "type": "electric_scooter", "is_disabled": 0, "fusion_lon": 0.0}, {"rental_uris": {"android": "https://dc.lft.to/lastmile_qr_scan", "ios": "https://dc.lft.to/lastmile_qr_scan"}, "lon": -77.03262766666667, "name": "04a6c0fe68ffe0779141fb70a5d920b1", "lat": 38.9388605, "is_reserved": 0, "fusion_lat": 0.0, "bike_id": "04a6c0fe68ffe0779141fb70a5d920b1", "type": "electric_scooter", "is_disabled": 0, "fusion_lon": 0.0}, {"rental_uris": {"android": "https://dc.lft.to/lastmile_qr_scan", "ios": "https://dc.lft.to/lastmile_qr_scan"}, "lon": -76.99802283333334, "name": "ddb93ca861da10c882a493bb9ec16c90", "lat": 38.819973166666664, "is_reserved": 0, "fusion_lat": 0.0, "bike_id": "ddb93ca861da10c882a493bb9ec16c90", "type": "electric_bike", "is_disabled": 0, "fusion_lon": 0.0}, {"rental_uris": {"android": "https://dc.lft.to/lastmile_qr_scan", "ios": "https://dc.lft.to/lastmile_qr_scan"}, "lon": -77.03658716666666, "name": "1a2ff068a90a612ce02e3426c15aec20", "lat": 38.931697, "is_reserved": 0, "fusion_lat": 0.0, "bike_id": "1a2ff068a90a612ce02e3426c15aec20", "type": "electric_scooter", "is_disabled": 0, "fusion_lon": 0.0}, {"rental_uris": {"android": "https://dc.lft.to/lastmile_qr_scan", "ios": "https://dc.lft.to/lastmile_qr_scan"}, "lon": -76.94961583333334, "name": "dcb9c8d4614b8036354b5b1323aa751b", "lat": 38.894649, "is_reserved": 0, "fusion_lat": 0.0, "bike_id": "dcb9c8d4614b8036354b5b1323aa751b", "type": "electric_scooter", "is_disabled": 0, "fusion_lon": 0.0}, {"rental_uris": {"android": "https://dc.lft.to/lastmile_qr_scan", "ios": "https://dc.lft.to/lastmile_qr_scan"}, "lon": -77.03803466666666, "name": "68acf01a5072422dd68d529489e10c5c", "lat": 38.925068833333334, "is_reserved": 0, "fusion_lat": 0.0, "bike_id": "68acf01a5072422dd68d529489e10c5c", "type": "electric_scooter", "is_disabled": 0, "fusion_lon": 0.0}, {"rental_uris": {"android": "https://dc.lft.to/lastmile_qr_scan", "ios": "https://dc.lft.to/lastmile_qr_scan"}, "lon": -76.98721916666666, "name": "f5a89ec98c3c50125b944ffc2215a802", "lat": 38.86624466666667, "is_reserved": 0, "fusion_lat": 0.0, "bike_id": "f5a89ec98c3c50125b944ffc2215a802", "type": "electric_scooter", "is_disabled": 0, "fusion_lon": 0.0}, {"rental_uris": {"android": "https://dc.lft.to/lastmile_qr_scan", "ios": "https://dc.lft.to/lastmile_qr_scan"}, "lon": -77.00209383333333, "name": "80a58fa9bd329def1de790a6a3b47463", "lat": 38.90243516666666, "is_reserved": 0, "fusion_lat": 0.0, "bike_id": "80a58fa9bd329def1de790a6a3b47463", "type": "electric_scooter", "is_disabled": 0, "fusion_lon": 0.0}, {"rental_uris": {"android": "https://dc.lft.to/lastmile_qr_scan", "ios": "https://dc.lft.to/lastmile_qr_scan"}, "lon": -77.00000633333333, "name": "951e65ec579b1031ca36c7355cf06ba6", "lat": 38.833222666666664, "is_reserved": 0, "fusion_lat": 0.0, "bike_id": "951e65ec579b1031ca36c7355cf06ba6", "type": "electric_bike", "is_disabled": 0, "fusion_lon": 0.0}, {"rental_uris": {"android": "https://dc.lft.to/lastmile_qr_scan", "ios": "https://dc.lft.to/lastmile_qr_scan"}, "lon": -77.020272, "name": "1eff1e767d577398644d1f13d2eda1bc", "lat": 38.913120666666664, "is_reserved": 0, "fusion_lat": 0.0, "bike_id": "1eff1e767d577398644d1f13d2eda1bc", "type": "electric_scooter", "is_disabled": 0, "fusion_lon": 0.0}, {"rental_uris": {"android": "https://dc.lft.to/lastmile_qr_scan", "ios": "https://dc.lft.to/lastmile_qr_scan"}, "lon": -77.04004366666666, "name": "1bb2679fa165682e48d1e12ee4db113c", "lat": 38.934313, "is_reserved": 0, "fusion_lat": 0.0, "bike_id": "1bb2679fa165682e48d1e12ee4db113c", "type": "electric_scooter", "is_disabled": 0, "fusion_lon": 0.0}, {"rental_uris": {"android": "https://dc.lft.to/lastmile_qr_scan", "ios": "https://dc.lft.to/lastmile_qr_scan"}, "lon": -77.18436183333333, "name": "5b684c1ec2a17edd7ea7a3704e9c0e1e", "lat": 38.890679, "is_reserved": 0, "fusion_lat": 0.0, "bike_id": "5b684c1ec2a17edd7ea7a3704e9c0e1e", "type": "electric_bike", "is_disabled": 0, "fusion_lon": 0.0}, {"rental_uris": {"android": "https://dc.lft.to/lastmile_qr_scan", "ios": "https://dc.lft.to/lastmile_qr_scan"}, "lon": -76.974398, "name": "5d63cbb40220d9a3cc8352a9c94fdf0c", "lat": 38.86414416666667, "is_reserved": 0, "fusion_lat": 0.0, "bike_id": "5d63cbb40220d9a3cc8352a9c94fdf0c", "type": "electric_scooter", "is_disabled": 0, "fusion_lon": 0.0}, {"rental_uris": {"android": "https://dc.lft.to/lastmile_qr_scan", "ios": "https://dc.lft.to/lastmile_qr_scan"}, "lon": -77.0215015, "name": "446ede008edae2209e63aaa37e6d4b5c", "lat": 38.9247115, "is_reserved": 0, "fusion_lat": 0.0, "bike_id": "446ede008edae2209e63aaa37e6d4b5c", "type": "electric_scooter", "is_disabled": 0, "fusion_lon": 0.0}, {"rental_uris": {"android": "https://dc.lft.to/lastmile_qr_scan", "ios": "https://dc.lft.to/lastmile_qr_scan"}, "lon": -77.03932933333333, "name": "be7ce2ddc664adba3deb9de65a2007f5", "lat": 38.91258933333334, "is_reserved": 0, "fusion_lat": 0.0, "bike_id": "be7ce2ddc664adba3deb9de65a2007f5", "type": "electric_scooter", "is_disabled": 0, "fusion_lon": 0.0}, {"rental_uris": {"android": "https://dc.lft.to/lastmile_qr_scan", "ios": "https://dc.lft.to/lastmile_qr_scan"}, "lon": -77.02935016666666, "name": "113f765ef542e8a0bb82fbdb7d36019a", "lat": 38.8983825, "is_reserved": 0, "fusion_lat": 0.0, "bike_id": "113f765ef542e8a0bb82fbdb7d36019a", "type": "electric_scooter", "is_disabled": 0, "fusion_lon": 0.0}, {"rental_uris": {"android": "https://dc.lft.to/lastmile_qr_scan", "ios": "https://dc.lft.to/lastmile_qr_scan"}, "lon": -76.949729, "name": "7bb511a4a0d3b8b2cb128d376caef401", "lat": 38.884916, "is_reserved": 0, "fusion_lat": 0.0, "bike_id": "7bb511a4a0d3b8b2cb128d376caef401", "type": "electric_scooter", "is_disabled": 0, "fusion_lon": 0.0}, {"rental_uris": {"android": "https://dc.lft.to/lastmile_qr_scan", "ios": "https://dc.lft.to/lastmile_qr_scan"}, "lon": -77.02815666666666, "name": "f93760156cc183b94a83a8c664c2d141", "lat": 38.8990325, "is_reserved": 0, "fusion_lat": 0.0, "bike_id": "f93760156cc183b94a83a8c664c2d141", "type": "electric_scooter", "is_disabled": 0, "fusion_lon": 0.0}, {"rental_uris": {"android": "https://dc.lft.to/lastmile_qr_scan", "ios": "https://dc.lft.to/lastmile_qr_scan"}, "lon": -77.07495266666666, "name": "587c0f40be3cb30e079e7b730f631ae9", "lat": 38.906922333333334, "is_reserved": 0, "fusion_lat": 0.0, "bike_id": "587c0f40be3cb30e079e7b730f631ae9", "type": "electric_scooter", "is_disabled": 0, "fusion_lon": 0.0}, {"rental_uris": {"android": "https://dc.lft.to/lastmile_qr_scan", "ios": "https://dc.lft.to/lastmile_qr_scan"}, "lon": -77.02328866666667, "name": "56274ddcad68ed29cacd4624ba6e636d", "lat": 38.9287595, "is_reserved": 0, "fusion_lat": 0.0, "bike_id": "56274ddcad68ed29cacd4624ba6e636d", "type": "electric_scooter", "is_disabled": 0, "fusion_lon": 0.0}, {"rental_uris": {"android": "https://dc.lft.to/lastmile_qr_scan", "ios": "https://dc.lft.to/lastmile_qr_scan"}, "lon": -77.02360933333334, "name": "d564b1cc93f417f9653a85e460f69527", "lat": 38.920713166666665, "is_reserved": 0, "fusion_lat": 0.0, "bike_id": "d564b1cc93f417f9653a85e460f69527", "type": "electric_scooter", "is_disabled": 0, "fusion_lon": 0.0}, {"rental_uris": {"android": "https://dc.lft.to/lastmile_qr_scan", "ios": "https://dc.lft.to/lastmile_qr_scan"}, "lon": -77.0407735, "name": "59297ce2d41c99bc7910dfccddb0375b", "lat": 38.917064833333335, "is_reserved": 0, "fusion_lat": 0.0, "bike_id": "59297ce2d41c99bc7910dfccddb0375b", "type": "electric_scooter", "is_disabled": 0, "fusion_lon": 0.0}, {"rental_uris": {"android": "https://dc.lft.to/lastmile_qr_scan", "ios": "https://dc.lft.to/lastmile_qr_scan"}, "lon": -77.02405766666666, "name": "e62e396d2b9bf9ff7530b16b53314af5", "lat": 38.919198333333334, "is_reserved": 0, "fusion_lat": 0.0, "bike_id": "e62e396d2b9bf9ff7530b16b53314af5", "type": "electric_scooter", "is_disabled": 0, "fusion_lon": 0.0}, {"rental_uris": {"android": "https://dc.lft.to/lastmile_qr_scan", "ios": "https://dc.lft.to/lastmile_qr_scan"}, "lon": -77.01005033333334, "name": "e66a0c37e787083a1fadcc2340301bca", "lat": 38.91562016666666, "is_reserved": 0, "fusion_lat": 0.0, "bike_id": "e66a0c37e787083a1fadcc2340301bca", "type": "electric_scooter", "is_disabled": 0, "fusion_lon": 0.0}, {"rental_uris": {"android": "https://dc.lft.to/lastmile_qr_scan", "ios": "https://dc.lft.to/lastmile_qr_scan"}, "lon": -77.01366233333333, "name": "d0931bb9a8411997b8b0737762985663", "lat": 38.911185333333336, "is_reserved": 0, "fusion_lat": 0.0, "bike_id": "d0931bb9a8411997b8b0737762985663", "type": "electric_scooter", "is_disabled": 0, "fusion_lon": 0.0}, {"rental_uris": {"android": "https://dc.lft.to/lastmile_qr_scan", "ios": "https://dc.lft.to/lastmile_qr_scan"}, "lon": -77.03659416666666, "name": "7b3758497b6c135d2cfa20d27394c096", "lat": 38.910100666666665, "is_reserved": 0, "fusion_lat": 0.0, "bike_id": "7b3758497b6c135d2cfa20d27394c096", "type": "electric_scooter", "is_disabled": 0, "fusion_lon": 0.0}, {"rental_uris": {"android": "https://dc.lft.to/lastmile_qr_scan", "ios": "https://dc.lft.to/lastmile_qr_scan"}, "lon": -76.99810066666667, "name": "a55d89506e798b66fb1164dba4bad2c5", "lat": 38.93232966666667, "is_reserved": 0, "fusion_lat": 0.0, "bike_id": "a55d89506e798b66fb1164dba4bad2c5", "type": "electric_scooter", "is_disabled": 0, "fusion_lon": 0.0}, {"rental_uris": {"android": "https://dc.lft.to/lastmile_qr_scan", "ios": "https://dc.lft.to/lastmile_qr_scan"}, "lon": -76.9984435, "name": "8e66749ab5757d7a32f421cd4fe675ac", "lat": 38.884613, "is_reserved": 0, "fusion_lat": 0.0, "bike_id": "8e66749ab5757d7a32f421cd4fe675ac", "type": "electric_scooter", "is_disabled": 0, "fusion_lon": 0.0}, {"rental_uris": {"android": "https://dc.lft.to/lastmile_qr_scan", "ios": "https://dc.lft.to/lastmile_qr_scan"}, "lon": -77.051266, "name": "903c4e95e9c3f7a54618b5b859fd4316", "lat": 38.92519733333334, "is_reserved": 0, "fusion_lat": 0.0, "bike_id": "903c4e95e9c3f7a54618b5b859fd4316", "type": "electric_scooter", "is_disabled": 0, "fusion_lon": 0.0}, {"rental_uris": {"android": "https://dc.lft.to/lastmile_qr_scan", "ios": "https://dc.lft.to/lastmile_qr_scan"}, "lon": -77.0248025, "name": "8790a29d435b3c5843419612baee0cf3", "lat": 38.92653116666666, "is_reserved": 0, "fusion_lat": 0.0, "bike_id": "8790a29d435b3c5843419612baee0cf3", "type": "electric_scooter", "is_disabled": 0, "fusion_lon": 0.0}, {"rental_uris": {"android": "https://dc.lft.to/lastmile_qr_scan", "ios": "https://dc.lft.to/lastmile_qr_scan"}, "lon": -77.02586866666667, "name": "0434aea345e266aa4bd8e3486ebe8ac2", "lat": 38.943109666666665, "is_reserved": 0, "fusion_lat": 0.0, "bike_id": "0434aea345e266aa4bd8e3486ebe8ac2", "type": "electric_scooter", "is_disabled": 0, "fusion_lon": 0.0}, {"rental_uris": {"android": "https://dc.lft.to/lastmile_qr_scan", "ios": "https://dc.lft.to/lastmile_qr_scan"}, "lon": -77.03921416666667, "name": "29122a12ccdf2de2a042b7f31a72aadd", "lat": 38.90146683333333, "is_reserved": 0, "fusion_lat": 0.0, "bike_id": "29122a12ccdf2de2a042b7f31a72aadd", "type": "electric_scooter", "is_disabled": 0, "fusion_lon": 0.0}, {"rental_uris": {"android": "https://dc.lft.to/lastmile_qr_scan", "ios": "https://dc.lft.to/lastmile_qr_scan"}, "lon": -76.9463695, "name": "67b4ba16369196e45b501e2e980218cf", "lat": 38.89870833333333, "is_reserved": 0, "fusion_lat": 0.0, "bike_id": "67b4ba16369196e45b501e2e980218cf", "type": "electric_scooter", "is_disabled": 0, "fusion_lon": 0.0}, {"rental_uris": {"android": "https://dc.lft.to/lastmile_qr_scan", "ios": "https://dc.lft.to/lastmile_qr_scan"}, "lon": -77.02129116666667, "name": "0aacbca6ce3d7266ab1c529f018035ad", "lat": 38.92317366666666, "is_reserved": 0, "fusion_lat": 0.0, "bike_id": "0aacbca6ce3d7266ab1c529f018035ad", "type": "electric_scooter", "is_disabled": 0, "fusion_lon": 0.0}, {"rental_uris": {"android": "https://dc.lft.to/lastmile_qr_scan", "ios": "https://dc.lft.to/lastmile_qr_scan"}, "lon": -77.043757, "name": "60c00d240add443e81857dd5063a638d", "lat": 38.8922295, "is_reserved": 0, "fusion_lat": 0.0, "bike_id": "60c00d240add443e81857dd5063a638d", "type": "electric_scooter", "is_disabled": 0, "fusion_lon": 0.0}, {"rental_uris": {"android": "https://dc.lft.to/lastmile_qr_scan", "ios": "https://dc.lft.to/lastmile_qr_scan"}, "lon": -76.95759733333334, "name": "9bc49b4825489132dded1996b181f4d7", "lat": 38.884303, "is_reserved": 0, "fusion_lat": 0.0, "bike_id": "9bc49b4825489132dded1996b181f4d7", "type": "electric_scooter", "is_disabled": 0, "fusion_lon": 0.0}, {"rental_uris": {"android": "https://dc.lft.to/lastmile_qr_scan", "ios": "https://dc.lft.to/lastmile_qr_scan"}, "lon": -77.0272055, "name": "91b96bd1f4f4cc933eb788700a25ecad", "lat": 38.95191783333333, "is_reserved": 0, "fusion_lat": 0.0, "bike_id": "91b96bd1f4f4cc933eb788700a25ecad", "type": "electric_scooter", "is_disabled": 0, "fusion_lon": 0.0}, {"rental_uris": {"android": "https://dc.lft.to/lastmile_qr_scan", "ios": "https://dc.lft.to/lastmile_qr_scan"}, "lon": -77.02854683333334, "name": "60c017af9c43cf3c3b8f142f2b2d4b8c", "lat": 38.9169665, "is_reserved": 0, "fusion_lat": 0.0, "bike_id": "60c017af9c43cf3c3b8f142f2b2d4b8c", "type": "electric_scooter", "is_disabled": 0, "fusion_lon": 0.0}, {"rental_uris": {"android": "https://dc.lft.to/lastmile_qr_scan", "ios": "https://dc.lft.to/lastmile_qr_scan"}, "lon": -77.03444016666667, "name": "435adc0dbbffe03edf93985699923d57", "lat": 38.902843833333336, "is_reserved": 0, "fusion_lat": 0.0, "bike_id": "435adc0dbbffe03edf93985699923d57", "type": "electric_scooter", "is_disabled": 0, "fusion_lon": 0.0}, {"rental_uris": {"android": "https://dc.lft.to/lastmile_qr_scan", "ios": "https://dc.lft.to/lastmile_qr_scan"}, "lon": -77.03749233333333, "name": "1e5d323f8d7523d1ac3c41c1244b6393", "lat": 38.916899666666666, "is_reserved": 0, "fusion_lat": 0.0, "bike_id": "1e5d323f8d7523d1ac3c41c1244b6393", "type": "electric_scooter", "is_disabled": 0, "fusion_lon": 0.0}, {"rental_uris": {"android": "https://dc.lft.to/lastmile_qr_scan", "ios": "https://dc.lft.to/lastmile_qr_scan"}, "lon": -77.0210975, "name": "2d9e2d02570501969ace9ee73051b53c", "lat": 38.9275395, "is_reserved": 0, "fusion_lat": 0.0, "bike_id": "2d9e2d02570501969ace9ee73051b53c", "type": "electric_scooter", "is_disabled": 0, "fusion_lon": 0.0}, {"rental_uris": {"android": "https://dc.lft.to/lastmile_qr_scan", "ios": "https://dc.lft.to/lastmile_qr_scan"}, "lon": -77.03200283333334, "name": "b7c5edeeda9cbbbfc93ddc0f4a630bfc", "lat": 38.9012535, "is_reserved": 0, "fusion_lat": 0.0, "bike_id": "b7c5edeeda9cbbbfc93ddc0f4a630bfc", "type": "electric_scooter", "is_disabled": 0, "fusion_lon": 0.0}, {"rental_uris": {"android": "https://dc.lft.to/lastmile_qr_scan", "ios": "https://dc.lft.to/lastmile_qr_scan"}, "lon": -77.07185716666666, "name": "81782ef7d320c0ff0d3ee8ab9ad84fe5", "lat": 38.90914766666667, "is_reserved": 0, "fusion_lat": 0.0, "bike_id": "81782ef7d320c0ff0d3ee8ab9ad84fe5", "type": "electric_scooter", "is_disabled": 0, "fusion_lon": 0.0}, {"rental_uris": {"android": "https://dc.lft.to/lastmile_qr_scan", "ios": "https://dc.lft.to/lastmile_qr_scan"}, "lon": -77.04522916666667, "name": "cdce7035e593e8f8dc0b910f3c8d43f5", "lat": 38.923252166666664, "is_reserved": 0, "fusion_lat": 0.0, "bike_id": "cdce7035e593e8f8dc0b910f3c8d43f5", "type": "electric_scooter", "is_disabled": 0, "fusion_lon": 0.0}, {"rental_uris": {"android": "https://dc.lft.to/lastmile_qr_scan", "ios": "https://dc.lft.to/lastmile_qr_scan"}, "lon": -77.02250583333333, "name": "8f7f85c38ff8141a1207a889517cf7e7", "lat": 38.896131, "is_reserved": 0, "fusion_lat": 0.0, "bike_id": "8f7f85c38ff8141a1207a889517cf7e7", "type": "electric_scooter", "is_disabled": 0, "fusion_lon": 0.0}, {"rental_uris": {"android": "https://dc.lft.to/lastmile_qr_scan", "ios": "https://dc.lft.to/lastmile_qr_scan"}, "lon": -76.94246716666666, "name": "b56e8133387ac475314a83feca86ef6c", "lat": 38.893057166666665, "is_reserved": 0, "fusion_lat": 0.0, "bike_id": "b56e8133387ac475314a83feca86ef6c", "type": "electric_scooter", "is_disabled": 0, "fusion_lon": 0.0}, {"rental_uris": {"android": "https://dc.lft.to/lastmile_qr_scan", "ios": "https://dc.lft.to/lastmile_qr_scan"}, "lon": -77.03212833333333, "name": "cea1e0dba7f281b701046d38ccfcbf48", "lat": 38.91698516666666, "is_reserved": 0, "fusion_lat": 0.0, "bike_id": "cea1e0dba7f281b701046d38ccfcbf48", "type": "electric_scooter", "is_disabled": 0, "fusion_lon": 0.0}, {"rental_uris": {"android": "https://dc.lft.to/lastmile_qr_scan", "ios": "https://dc.lft.to/lastmile_qr_scan"}, "lon": -77.036608, "name": "680f48bb14dacdbca77afeb53a5e5ea1", "lat": 38.923876, "is_reserved": 0, "fusion_lat": 0.0, "bike_id": "680f48bb14dacdbca77afeb53a5e5ea1", "type": "electric_scooter", "is_disabled": 0, "fusion_lon": 0.0}, {"rental_uris": {"android": "https://dc.lft.to/lastmile_qr_scan", "ios": "https://dc.lft.to/lastmile_qr_scan"}, "lon": -77.00489366666666, "name": "d0d89e37f9c4cbef8012537b88583f46", "lat": 38.87461533333333, "is_reserved": 0, "fusion_lat": 0.0, "bike_id": "d0d89e37f9c4cbef8012537b88583f46", "type": "electric_scooter", "is_disabled": 0, "fusion_lon": 0.0}, {"rental_uris": {"android": "https://dc.lft.to/lastmile_qr_scan", "ios": "https://dc.lft.to/lastmile_qr_scan"}, "lon": -77.039572, "name": "c49f05a264bb01c00131cb0991af6569", "lat": 38.892435, "is_reserved": 0, "fusion_lat": 0.0, "bike_id": "c49f05a264bb01c00131cb0991af6569", "type": "electric_scooter", "is_disabled": 0, "fusion_lon": 0.0}, {"rental_uris": {"android": "https://dc.lft.to/lastmile_qr_scan", "ios": "https://dc.lft.to/lastmile_qr_scan"}, "lon": -77.05486433333333, "name": "f7358e938dd771cf551693860c4af6a0", "lat": 38.901630833333336, "is_reserved": 0, "fusion_lat": 0.0, "bike_id": "f7358e938dd771cf551693860c4af6a0", "type": "electric_scooter", "is_disabled": 0, "fusion_lon": 0.0}, {"rental_uris": {"android": "https://dc.lft.to/lastmile_qr_scan", "ios": "https://dc.lft.to/lastmile_qr_scan"}, "lon": -77.03994083333333, "name": "7716c45619f7f53a22cda39ff2ce7986", "lat": 38.917662666666665, "is_reserved": 0, "fusion_lat": 0.0, "bike_id": "7716c45619f7f53a22cda39ff2ce7986", "type": "electric_scooter", "is_disabled": 0, "fusion_lon": 0.0}, {"rental_uris": {"android": "https://dc.lft.to/lastmile_qr_scan", "ios": "https://dc.lft.to/lastmile_qr_scan"}, "lon": -77.01766616666667, "name": "cdf2e7dc689e63f7dace900f8c58f3c9", "lat": 38.872235, "is_reserved": 0, "fusion_lat": 0.0, "bike_id": "cdf2e7dc689e63f7dace900f8c58f3c9", "type": "electric_scooter", "is_disabled": 0, "fusion_lon": 0.0}, {"rental_uris": {"android": "https://dc.lft.to/lastmile_qr_scan", "ios": "https://dc.lft.to/lastmile_qr_scan"}, "lon": -77.02564866666667, "name": "fbb0a03225540c70463305db9b259be6", "lat": 38.92789583333333, "is_reserved": 0, "fusion_lat": 0.0, "bike_id": "fbb0a03225540c70463305db9b259be6", "type": "electric_scooter", "is_disabled": 0, "fusion_lon": 0.0}, {"rental_uris": {"android": "https://dc.lft.to/lastmile_qr_scan", "ios": "https://dc.lft.to/lastmile_qr_scan"}, "lon": -77.02412416666667, "name": "f5c603b278a6c66f6833a8ee99025724", "lat": 38.892254, "is_reserved": 0, "fusion_lat": 0.0, "bike_id": "f5c603b278a6c66f6833a8ee99025724", "type": "electric_scooter", "is_disabled": 0, "fusion_lon": 0.0}, {"rental_uris": {"android": "https://dc.lft.to/lastmile_qr_scan", "ios": "https://dc.lft.to/lastmile_qr_scan"}, "lon": -77.036362, "name": "b6f2353985e99e7585389d5da4943484", "lat": 38.932895333333335, "is_reserved": 0, "fusion_lat": 0.0, "bike_id": "b6f2353985e99e7585389d5da4943484", "type": "electric_bike", "is_disabled": 0, "fusion_lon": 0.0}, {"rental_uris": {"android": "https://dc.lft.to/lastmile_qr_scan", "ios": "https://dc.lft.to/lastmile_qr_scan"}, "lon": -77.0189155, "name": "caa17f0c0ddcb1aa22d10009def96859", "lat": 38.90061016666667, "is_reserved": 0, "fusion_lat": 0.0, "bike_id": "caa17f0c0ddcb1aa22d10009def96859", "type": "electric_scooter", "is_disabled": 0, "fusion_lon": 0.0}, {"rental_uris": {"android": "https://dc.lft.to/lastmile_qr_scan", "ios": "https://dc.lft.to/lastmile_qr_scan"}, "lon": -77.003971, "name": "3b75d2b1af0de01e3a9ef93c258106f3", "lat": 38.8769875, "is_reserved": 0, "fusion_lat": 0.0, "bike_id": "3b75d2b1af0de01e3a9ef93c258106f3", "type": "electric_scooter", "is_disabled": 0, "fusion_lon": 0.0}, {"rental_uris": {"android": "https://dc.lft.to/lastmile_qr_scan", "ios": "https://dc.lft.to/lastmile_qr_scan"}, "lon": -77.02204283333333, "name": "477595dff5175432e16370553ef8827d", "lat": 38.89229566666667, "is_reserved": 0, "fusion_lat": 0.0, "bike_id": "477595dff5175432e16370553ef8827d", "type": "electric_scooter", "is_disabled": 0, "fusion_lon": 0.0}, {"rental_uris": {"android": "https://dc.lft.to/lastmile_qr_scan", "ios": "https://dc.lft.to/lastmile_qr_scan"}, "lon": -77.02666533333333, "name": "34ef50188c3c062d4adc804cb00db437", "lat": 38.93104916666667, "is_reserved": 0, "fusion_lat": 0.0, "bike_id": "34ef50188c3c062d4adc804cb00db437", "type": "electric_scooter", "is_disabled": 0, "fusion_lon": 0.0}, {"rental_uris": {"android": "https://dc.lft.to/lastmile_qr_scan", "ios": "https://dc.lft.to/lastmile_qr_scan"}, "lon": -77.0332585, "name": "d1da3bf5693ad9027edb067adb4fae1c", "lat": 38.89828466666667, "is_reserved": 0, "fusion_lat": 0.0, "bike_id": "d1da3bf5693ad9027edb067adb4fae1c", "type": "electric_scooter", "is_disabled": 0, "fusion_lon": 0.0}, {"rental_uris": {"android": "https://dc.lft.to/lastmile_qr_scan", "ios": "https://dc.lft.to/lastmile_qr_scan"}, "lon": -77.014587, "name": "37f1ec7c7337c7ce06639225ddf965ea", "lat": 38.97509183333333, "is_reserved": 0, "fusion_lat": 0.0, "bike_id": "37f1ec7c7337c7ce06639225ddf965ea", "type": "electric_scooter", "is_disabled": 0, "fusion_lon": 0.0}, {"rental_uris": {"android": "https://dc.lft.to/lastmile_qr_scan", "ios": "https://dc.lft.to/lastmile_qr_scan"}, "lon": -76.98193283333333, "name": "4953705eca5a54101c7502631edaecc0", "lat": 38.9205875, "is_reserved": 0, "fusion_lat": 0.0, "bike_id": "4953705eca5a54101c7502631edaecc0", "type": "electric_scooter", "is_disabled": 0, "fusion_lon": 0.0}, {"rental_uris": {"android": "https://dc.lft.to/lastmile_qr_scan", "ios": "https://dc.lft.to/lastmile_qr_scan"}, "lon": -77.01718616666666, "name": "79c45e7e3d25217e8a36167913a3c0d4", "lat": 38.900786333333336, "is_reserved": 0, "fusion_lat": 0.0, "bike_id": "79c45e7e3d25217e8a36167913a3c0d4", "type": "electric_scooter", "is_disabled": 0, "fusion_lon": 0.0}, {"rental_uris": {"android": "https://dc.lft.to/lastmile_qr_scan", "ios": "https://dc.lft.to/lastmile_qr_scan"}, "lon": -77.02493983333333, "name": "1bd2daea701d334351def59f6424e7cc", "lat": 38.9418655, "is_reserved": 0, "fusion_lat": 0.0, "bike_id": "1bd2daea701d334351def59f6424e7cc", "type": "electric_bike", "is_disabled": 0, "fusion_lon": 0.0}, {"rental_uris": {"android": "https://dc.lft.to/lastmile_qr_scan", "ios": "https://dc.lft.to/lastmile_qr_scan"}, "lon": -77.00055583333334, "name": "5f2b754c693c55156adff17e8414a32b", "lat": 38.894352, "is_reserved": 0, "fusion_lat": 0.0, "bike_id": "5f2b754c693c55156adff17e8414a32b", "type": "electric_scooter", "is_disabled": 0, "fusion_lon": 0.0}, {"rental_uris": {"android": "https://dc.lft.to/lastmile_qr_scan", "ios": "https://dc.lft.to/lastmile_qr_scan"}, "lon": -76.96558033333334, "name": "c088f5d48ef8a7d74fc669d711df1861", "lat": 38.918453666666665, "is_reserved": 0, "fusion_lat": 0.0, "bike_id": "c088f5d48ef8a7d74fc669d711df1861", "type": "electric_scooter", "is_disabled": 0, "fusion_lon": 0.0}, {"rental_uris": {"android": "https://dc.lft.to/lastmile_qr_scan", "ios": "https://dc.lft.to/lastmile_qr_scan"}, "lon": -76.99371783333333, "name": "eedc43b57dea369eb1aa8a7c8c713511", "lat": 38.990986666666664, "is_reserved": 0, "fusion_lat": 0.0, "bike_id": "eedc43b57dea369eb1aa8a7c8c713511", "type": "electric_bike", "is_disabled": 0, "fusion_lon": 0.0}, {"rental_uris": {"android": "https://dc.lft.to/lastmile_qr_scan", "ios": "https://dc.lft.to/lastmile_qr_scan"}, "lon": -77.024841, "name": "8aa6e52e5bbdf583cbfa317f1083083d", "lat": 38.9389005, "is_reserved": 0, "fusion_lat": 0.0, "bike_id": "8aa6e52e5bbdf583cbfa317f1083083d", "type": "electric_scooter", "is_disabled": 0, "fusion_lon": 0.0}, {"rental_uris": {"android": "https://dc.lft.to/lastmile_qr_scan", "ios": "https://dc.lft.to/lastmile_qr_scan"}, "lon": -76.98562733333333, "name": "62e7a1609f43501c86777cc25e7bfd2e", "lat": 38.8668535, "is_reserved": 0, "fusion_lat": 0.0, "bike_id": "62e7a1609f43501c86777cc25e7bfd2e", "type": "electric_scooter", "is_disabled": 0, "fusion_lon": 0.0}, {"rental_uris": {"android": "https://dc.lft.to/lastmile_qr_scan", "ios": "https://dc.lft.to/lastmile_qr_scan"}, "lon": -76.98053866666666, "name": "9a6aa8f5a16d3137c3f90df780ce3ab6", "lat": 38.88531666666667, "is_reserved": 0, "fusion_lat": 0.0, "bike_id": "9a6aa8f5a16d3137c3f90df780ce3ab6", "type": "electric_scooter", "is_disabled": 0, "fusion_lon": 0.0}, {"rental_uris": {"android": "https://dc.lft.to/lastmile_qr_scan", "ios": "https://dc.lft.to/lastmile_qr_scan"}, "lon": -77.021867, "name": "0ab7ec97c15bb60570574624806e99fa", "lat": 38.909664, "is_reserved": 0, "fusion_lat": 0.0, "bike_id": "0ab7ec97c15bb60570574624806e99fa", "type": "electric_scooter", "is_disabled": 0, "fusion_lon": 0.0}, {"rental_uris": {"android": "https://dc.lft.to/lastmile_qr_scan", "ios": "https://dc.lft.to/lastmile_qr_scan"}, "lon": -77.04735416666666, "name": "63148e436be0a9b4a556ef922b71a88e", "lat": 38.89734966666666, "is_reserved": 0, "fusion_lat": 0.0, "bike_id": "63148e436be0a9b4a556ef922b71a88e", "type": "electric_scooter", "is_disabled": 0, "fusion_lon": 0.0}, {"rental_uris": {"android": "https://dc.lft.to/lastmile_qr_scan", "ios": "https://dc.lft.to/lastmile_qr_scan"}, "lon": -77.08017566666666, "name": "76cde0d18039d916838399b3302bb13a", "lat": 38.94802633333333, "is_reserved": 0, "fusion_lat": 0.0, "bike_id": "76cde0d18039d916838399b3302bb13a", "type": "electric_scooter", "is_disabled": 0, "fusion_lon": 0.0}, {"rental_uris": {"android": "https://dc.lft.to/lastmile_qr_scan", "ios": "https://dc.lft.to/lastmile_qr_scan"}, "lon": -77.03884016666666, "name": "d8164f8ae727afdf8265a2d79572ccfb", "lat": 38.9184795, "is_reserved": 0, "fusion_lat": 0.0, "bike_id": "d8164f8ae727afdf8265a2d79572ccfb", "type": "electric_scooter", "is_disabled": 0, "fusion_lon": 0.0}, {"rental_uris": {"android": "https://dc.lft.to/lastmile_qr_scan", "ios": "https://dc.lft.to/lastmile_qr_scan"}, "lon": -77.02202783333334, "name": "9b9091cc0f44520513502790e706a1ed", "lat": 38.8923205, "is_reserved": 0, "fusion_lat": 0.0, "bike_id": "9b9091cc0f44520513502790e706a1ed", "type": "electric_scooter", "is_disabled": 0, "fusion_lon": 0.0}, {"rental_uris": {"android": "https://dc.lft.to/lastmile_qr_scan", "ios": "https://dc.lft.to/lastmile_qr_scan"}, "lon": -77.04161316666666, "name": "50ea8e985c618a06565f1ca9ab144cb6", "lat": 38.901136666666666, "is_reserved": 0, "fusion_lat": 0.0, "bike_id": "50ea8e985c618a06565f1ca9ab144cb6", "type": "electric_scooter", "is_disabled": 0, "fusion_lon": 0.0}, {"rental_uris": {"android": "https://dc.lft.to/lastmile_qr_scan", "ios": "https://dc.lft.to/lastmile_qr_scan"}, "lon": -77.02406983333333, "name": "9c6127c407a1336132ffe260ef4c6576", "lat": 38.941906833333334, "is_reserved": 0, "fusion_lat": 0.0, "bike_id": "9c6127c407a1336132ffe260ef4c6576", "type": "electric_scooter", "is_disabled": 0, "fusion_lon": 0.0}, {"rental_uris": {"android": "https://dc.lft.to/lastmile_qr_scan", "ios": "https://dc.lft.to/lastmile_qr_scan"}, "lon": -77.03867466666667, "name": "aefbd0db37fc01e982cbbc2bcee2976c", "lat": 38.932696, "is_reserved": 0, "fusion_lat": 0.0, "bike_id": "aefbd0db37fc01e982cbbc2bcee2976c", "type": "electric_scooter", "is_disabled": 0, "fusion_lon": 0.0}, {"rental_uris": {"android": "https://dc.lft.to/lastmile_qr_scan", "ios": "https://dc.lft.to/lastmile_qr_scan"}, "lon": -77.0727595, "name": "7afb2b583e326f879c02eb35f45a329d", "lat": 38.909074, "is_reserved": 0, "fusion_lat": 0.0, "bike_id": "7afb2b583e326f879c02eb35f45a329d", "type": "electric_scooter", "is_disabled": 0, "fusion_lon": 0.0}, {"rental_uris": {"android": "https://dc.lft.to/lastmile_qr_scan", "ios": "https://dc.lft.to/lastmile_qr_scan"}, "lon": -77.02197466666667, "name": "5eb0161e7801b3bbdcb26e62a12d0433", "lat": 38.930770833333334, "is_reserved": 0, "fusion_lat": 0.0, "bike_id": "5eb0161e7801b3bbdcb26e62a12d0433", "type": "electric_scooter", "is_disabled": 0, "fusion_lon": 0.0}, {"rental_uris": {"android": "https://dc.lft.to/lastmile_qr_scan", "ios": "https://dc.lft.to/lastmile_qr_scan"}, "lon": -77.03562866666667, "name": "2d851685160460a3ad0c7b7641fdfc2d", "lat": 38.90158616666667, "is_reserved": 0, "fusion_lat": 0.0, "bike_id": "2d851685160460a3ad0c7b7641fdfc2d", "type": "electric_scooter", "is_disabled": 0, "fusion_lon": 0.0}, {"rental_uris": {"android": "https://dc.lft.to/lastmile_qr_scan", "ios": "https://dc.lft.to/lastmile_qr_scan"}, "lon": -77.02227983333333, "name": "9fd0e76587ba24f90b67d6e7d3b2713c", "lat": 38.956916, "is_reserved": 0, "fusion_lat": 0.0, "bike_id": "9fd0e76587ba24f90b67d6e7d3b2713c", "type": "electric_bike", "is_disabled": 0, "fusion_lon": 0.0}, {"rental_uris": {"android": "https://dc.lft.to/lastmile_qr_scan", "ios": "https://dc.lft.to/lastmile_qr_scan"}, "lon": -77.02111283333333, "name": "2d4ffb1872224e91f386250184f0d461", "lat": 38.927521166666665, "is_reserved": 0, "fusion_lat": 0.0, "bike_id": "2d4ffb1872224e91f386250184f0d461", "type": "electric_scooter", "is_disabled": 0, "fusion_lon": 0.0}, {"rental_uris": {"android": "https://dc.lft.to/lastmile_qr_scan", "ios": "https://dc.lft.to/lastmile_qr_scan"}, "lon": -77.00886216666666, "name": "c55f99ffd847fc244856c0e4af6f0608", "lat": 38.91472783333333, "is_reserved": 0, "fusion_lat": 0.0, "bike_id": "c55f99ffd847fc244856c0e4af6f0608", "type": "electric_scooter", "is_disabled": 0, "fusion_lon": 0.0}, {"rental_uris": {"android": "https://dc.lft.to/lastmile_qr_scan", "ios": "https://dc.lft.to/lastmile_qr_scan"}, "lon": -77.02379283333333, "name": "8c1a4617bbc314ee5f955fdd6dd6eee3", "lat": 38.906878666666664, "is_reserved": 0, "fusion_lat": 0.0, "bike_id": "8c1a4617bbc314ee5f955fdd6dd6eee3", "type": "electric_scooter", "is_disabled": 0, "fusion_lon": 0.0}, {"rental_uris": {"android": "https://dc.lft.to/lastmile_qr_scan", "ios": "https://dc.lft.to/lastmile_qr_scan"}, "lon": -76.929021, "name": "7890b25a1988a9ba015592686485ddab", "lat": 38.9019225, "is_reserved": 0, "fusion_lat": 0.0, "bike_id": "7890b25a1988a9ba015592686485ddab", "type": "electric_scooter", "is_disabled": 0, "fusion_lon": 0.0}, {"rental_uris": {"android": "https://dc.lft.to/lastmile_qr_scan", "ios": "https://dc.lft.to/lastmile_qr_scan"}, "lon": -77.042685, "name": "fbced31b7f80479d74c49182277213e7", "lat": 38.831017333333335, "is_reserved": 0, "fusion_lat": 0.0, "bike_id": "fbced31b7f80479d74c49182277213e7", "type": "electric_bike", "is_disabled": 0, "fusion_lon": 0.0}, {"rental_uris": {"android": "https://dc.lft.to/lastmile_qr_scan", "ios": "https://dc.lft.to/lastmile_qr_scan"}, "lon": -77.00348233333334, "name": "cbdb58301a3176bd84b89ca73259c514", "lat": 38.88703683333333, "is_reserved": 0, "fusion_lat": 0.0, "bike_id": "cbdb58301a3176bd84b89ca73259c514", "type": "electric_scooter", "is_disabled": 0, "fusion_lon": 0.0}, {"rental_uris": {"android": "https://dc.lft.to/lastmile_qr_scan", "ios": "https://dc.lft.to/lastmile_qr_scan"}, "lon": -77.041285, "name": "ec53c4dce7c3722ec79fc2da2b457616", "lat": 38.9219575, "is_reserved": 0, "fusion_lat": 0.0, "bike_id": "ec53c4dce7c3722ec79fc2da2b457616", "type": "electric_scooter", "is_disabled": 0, "fusion_lon": 0.0}, {"rental_uris": {"android": "https://dc.lft.to/lastmile_qr_scan", "ios": "https://dc.lft.to/lastmile_qr_scan"}, "lon": -77.0431675, "name": "97da7f13167f1efe46e04363fcf9eda8", "lat": 38.9140925, "is_reserved": 0, "fusion_lat": 0.0, "bike_id": "97da7f13167f1efe46e04363fcf9eda8", "type": "electric_scooter", "is_disabled": 0, "fusion_lon": 0.0}, {"rental_uris": {"android": "https://dc.lft.to/lastmile_qr_scan", "ios": "https://dc.lft.to/lastmile_qr_scan"}, "lon": -77.02383016666667, "name": "e70a42456527ac12799ea9d0d88966e0", "lat": 38.89229666666667, "is_reserved": 0, "fusion_lat": 0.0, "bike_id": "e70a42456527ac12799ea9d0d88966e0", "type": "electric_scooter", "is_disabled": 0, "fusion_lon": 0.0}, {"rental_uris": {"android": "https://dc.lft.to/lastmile_qr_scan", "ios": "https://dc.lft.to/lastmile_qr_scan"}, "lon": -77.023815, "name": "68795a29baf0c5accaaa22b8c3b5a985", "lat": 38.89201216666667, "is_reserved": 0, "fusion_lat": 0.0, "bike_id": "68795a29baf0c5accaaa22b8c3b5a985", "type": "electric_scooter", "is_disabled": 0, "fusion_lon": 0.0}, {"rental_uris": {"android": "https://dc.lft.to/lastmile_qr_scan", "ios": "https://dc.lft.to/lastmile_qr_scan"}, "lon": -77.00196683333333, "name": "c0092f741200e95246c70a122b5f184d", "lat": 38.94157916666666, "is_reserved": 0, "fusion_lat": 0.0, "bike_id": "c0092f741200e95246c70a122b5f184d", "type": "electric_bike", "is_disabled": 0, "fusion_lon": 0.0}, {"rental_uris": {"android": "https://dc.lft.to/lastmile_qr_scan", "ios": "https://dc.lft.to/lastmile_qr_scan"}, "lon": -77.0434775, "name": "28857357a7064139fcc3d31c22f17ba9", "lat": 38.903991833333336, "is_reserved": 0, "fusion_lat": 0.0, "bike_id": "28857357a7064139fcc3d31c22f17ba9", "type": "electric_scooter", "is_disabled": 0, "fusion_lon": 0.0}, {"rental_uris": {"android": "https://dc.lft.to/lastmile_qr_scan", "ios": "https://dc.lft.to/lastmile_qr_scan"}, "lon": -77.0619125, "name": "84666087b70974995fc283316b21bee7", "lat": 38.918526666666665, "is_reserved": 0, "fusion_lat": 0.0, "bike_id": "84666087b70974995fc283316b21bee7", "type": "electric_scooter", "is_disabled": 0, "fusion_lon": 0.0}, {"rental_uris": {"android": "https://dc.lft.to/lastmile_qr_scan", "ios": "https://dc.lft.to/lastmile_qr_scan"}, "lon": -77.03159066666667, "name": "fde59600d7ad9b50daeff6163a23a7dc", "lat": 38.90470366666667, "is_reserved": 0, "fusion_lat": 0.0, "bike_id": "fde59600d7ad9b50daeff6163a23a7dc", "type": "electric_scooter", "is_disabled": 0, "fusion_lon": 0.0}, {"rental_uris": {"android": "https://dc.lft.to/lastmile_qr_scan", "ios": "https://dc.lft.to/lastmile_qr_scan"}, "lon": -77.02041383333334, "name": "ff5cdb9cf96b5ad28aaf9ac78258bf86", "lat": 38.920882166666665, "is_reserved": 0, "fusion_lat": 0.0, "bike_id": "ff5cdb9cf96b5ad28aaf9ac78258bf86", "type": "electric_scooter", "is_disabled": 0, "fusion_lon": 0.0}, {"rental_uris": {"android": "https://dc.lft.to/lastmile_qr_scan", "ios": "https://dc.lft.to/lastmile_qr_scan"}, "lon": -77.04082233333334, "name": "8cd9d805b8c1eaca93cecbb7856dd64a", "lat": 38.907126833333336, "is_reserved": 0, "fusion_lat": 0.0, "bike_id": "8cd9d805b8c1eaca93cecbb7856dd64a", "type": "electric_scooter", "is_disabled": 0, "fusion_lon": 0.0}, {"rental_uris": {"android": "https://dc.lft.to/lastmile_qr_scan", "ios": "https://dc.lft.to/lastmile_qr_scan"}, "lon": -77.090569, "name": "cb480fccf6514b53b940b215708f90aa", "lat": 38.94254933333333, "is_reserved": 0, "fusion_lat": 0.0, "bike_id": "cb480fccf6514b53b940b215708f90aa", "type": "electric_scooter", "is_disabled": 0, "fusion_lon": 0.0}, {"rental_uris": {"android": "https://dc.lft.to/lastmile_qr_scan", "ios": "https://dc.lft.to/lastmile_qr_scan"}, "lon": -77.03865716666667, "name": "a7b7c6373419ce1d84cfe2ec6517c7c3", "lat": 38.912631833333336, "is_reserved": 0, "fusion_lat": 0.0, "bike_id": "a7b7c6373419ce1d84cfe2ec6517c7c3", "type": "electric_scooter", "is_disabled": 0, "fusion_lon": 0.0}, {"rental_uris": {"android": "https://dc.lft.to/lastmile_qr_scan", "ios": "https://dc.lft.to/lastmile_qr_scan"}, "lon": -76.9977775, "name": "c40e3a63ed023e3d93b0a5c9ee0fd225", "lat": 38.9615515, "is_reserved": 0, "fusion_lat": 0.0, "bike_id": "c40e3a63ed023e3d93b0a5c9ee0fd225", "type": "electric_scooter", "is_disabled": 0, "fusion_lon": 0.0}, {"rental_uris": {"android": "https://dc.lft.to/lastmile_qr_scan", "ios": "https://dc.lft.to/lastmile_qr_scan"}, "lon": -76.98545833333333, "name": "0f1cf68ff3c1dac2cb505a6b84c0c921", "lat": 38.86688383333333, "is_reserved": 0, "fusion_lat": 0.0, "bike_id": "0f1cf68ff3c1dac2cb505a6b84c0c921", "type": "electric_scooter", "is_disabled": 0, "fusion_lon": 0.0}, {"rental_uris": {"android": "https://dc.lft.to/lastmile_qr_scan", "ios": "https://dc.lft.to/lastmile_qr_scan"}, "lon": -76.99918366666667, "name": "1328b03a15b4a06fc4a2a9ad756cedf6", "lat": 38.9092255, "is_reserved": 0, "fusion_lat": 0.0, "bike_id": "1328b03a15b4a06fc4a2a9ad756cedf6", "type": "electric_scooter", "is_disabled": 0, "fusion_lon": 0.0}, {"rental_uris": {"android": "https://dc.lft.to/lastmile_qr_scan", "ios": "https://dc.lft.to/lastmile_qr_scan"}, "lon": -77.01187516666667, "name": "1d5f53333b5ec7b7002a0e198bbeac15", "lat": 38.90023733333334, "is_reserved": 0, "fusion_lat": 0.0, "bike_id": "1d5f53333b5ec7b7002a0e198bbeac15", "type": "electric_scooter", "is_disabled": 0, "fusion_lon": 0.0}, {"rental_uris": {"android": "https://dc.lft.to/lastmile_qr_scan", "ios": "https://dc.lft.to/lastmile_qr_scan"}, "lon": -76.9655875, "name": "284b72e66a4b0555e5184a6c3228e4d0", "lat": 38.918494833333334, "is_reserved": 0, "fusion_lat": 0.0, "bike_id": "284b72e66a4b0555e5184a6c3228e4d0", "type": "electric_scooter", "is_disabled": 0, "fusion_lon": 0.0}, {"rental_uris": {"android": "https://dc.lft.to/lastmile_qr_scan", "ios": "https://dc.lft.to/lastmile_qr_scan"}, "lon": -77.002288, "name": "8d7802d61877dc83e0e1b05a3f5a3a15", "lat": 38.91191333333333, "is_reserved": 0, "fusion_lat": 0.0, "bike_id": "8d7802d61877dc83e0e1b05a3f5a3a15", "type": "electric_scooter", "is_disabled": 0, "fusion_lon": 0.0}, {"rental_uris": {"android": "https://dc.lft.to/lastmile_qr_scan", "ios": "https://dc.lft.to/lastmile_qr_scan"}, "lon": -77.011793, "name": "b12fa714e4671f8e32de614a25ecfc1e", "lat": 38.90023883333333, "is_reserved": 0, "fusion_lat": 0.0, "bike_id": "b12fa714e4671f8e32de614a25ecfc1e", "type": "electric_scooter", "is_disabled": 0, "fusion_lon": 0.0}, {"rental_uris": {"android": "https://dc.lft.to/lastmile_qr_scan", "ios": "https://dc.lft.to/lastmile_qr_scan"}, "lon": -76.99897633333333, "name": "e6b7064fb1652a1809901fda187075f2", "lat": 38.92461816666667, "is_reserved": 0, "fusion_lat": 0.0, "bike_id": "e6b7064fb1652a1809901fda187075f2", "type": "electric_scooter", "is_disabled": 0, "fusion_lon": 0.0}, {"rental_uris": {"android": "https://dc.lft.to/lastmile_qr_scan", "ios": "https://dc.lft.to/lastmile_qr_scan"}, "lon": -77.03189733333333, "name": "c051133d9b76051a43b8daa08baffdbc", "lat": 38.91956, "is_reserved": 0, "fusion_lat": 0.0, "bike_id": "c051133d9b76051a43b8daa08baffdbc", "type": "electric_scooter", "is_disabled": 0, "fusion_lon": 0.0}, {"rental_uris": {"android": "https://dc.lft.to/lastmile_qr_scan", "ios": "https://dc.lft.to/lastmile_qr_scan"}, "lon": -77.03947983333333, "name": "34df786119ced12865b2e01b0bd0ce72", "lat": 38.92466966666667, "is_reserved": 0, "fusion_lat": 0.0, "bike_id": "34df786119ced12865b2e01b0bd0ce72", "type": "electric_scooter", "is_disabled": 0, "fusion_lon": 0.0}, {"rental_uris": {"android": "https://dc.lft.to/lastmile_qr_scan", "ios": "https://dc.lft.to/lastmile_qr_scan"}, "lon": -77.02663216666667, "name": "a22990de28c99e05dbab4fff15aca5af", "lat": 38.89736116666667, "is_reserved": 0, "fusion_lat": 0.0, "bike_id": "a22990de28c99e05dbab4fff15aca5af", "type": "electric_scooter", "is_disabled": 0, "fusion_lon": 0.0}, {"rental_uris": {"android": "https://dc.lft.to/lastmile_qr_scan", "ios": "https://dc.lft.to/lastmile_qr_scan"}, "lon": -77.03617583333333, "name": "6fd492f70e16b09c7ee40b18254d8521", "lat": 38.937554166666665, "is_reserved": 0, "fusion_lat": 0.0, "bike_id": "6fd492f70e16b09c7ee40b18254d8521", "type": "electric_scooter", "is_disabled": 0, "fusion_lon": 0.0}, {"rental_uris": {"android": "https://dc.lft.to/lastmile_qr_scan", "ios": "https://dc.lft.to/lastmile_qr_scan"}, "lon": -77.032046, "name": "6830266d88a79f4e151b9d9aff02a636", "lat": 38.92784966666667, "is_reserved": 0, "fusion_lat": 0.0, "bike_id": "6830266d88a79f4e151b9d9aff02a636", "type": "electric_scooter", "is_disabled": 0, "fusion_lon": 0.0}, {"rental_uris": {"android": "https://dc.lft.to/lastmile_qr_scan", "ios": "https://dc.lft.to/lastmile_qr_scan"}, "lon": -77.02692516666667, "name": "f0fc98ff3008a6b5eaf81fe871d71c17", "lat": 38.906869, "is_reserved": 0, "fusion_lat": 0.0, "bike_id": "f0fc98ff3008a6b5eaf81fe871d71c17", "type": "electric_scooter", "is_disabled": 0, "fusion_lon": 0.0}, {"rental_uris": {"android": "https://dc.lft.to/lastmile_qr_scan", "ios": "https://dc.lft.to/lastmile_qr_scan"}, "lon": -76.9890315, "name": "ba749aee021469686b28320fbd196d8c", "lat": 38.9002995, "is_reserved": 0, "fusion_lat": 0.0, "bike_id": "ba749aee021469686b28320fbd196d8c", "type": "electric_scooter", "is_disabled": 0, "fusion_lon": 0.0}, {"rental_uris": {"android": "https://dc.lft.to/lastmile_qr_scan", "ios": "https://dc.lft.to/lastmile_qr_scan"}, "lon": -77.05127166666666, "name": "aded10ec4dab5307b4a6350808fc60e1", "lat": 38.92518783333333, "is_reserved": 0, "fusion_lat": 0.0, "bike_id": "aded10ec4dab5307b4a6350808fc60e1", "type": "electric_scooter", "is_disabled": 0, "fusion_lon": 0.0}, {"rental_uris": {"android": "https://dc.lft.to/lastmile_qr_scan", "ios": "https://dc.lft.to/lastmile_qr_scan"}, "lon": -77.02820233333334, "name": "3ff5f97d82f85d9405b1e19b9112da18", "lat": 38.90938, "is_reserved": 0, "fusion_lat": 0.0, "bike_id": "3ff5f97d82f85d9405b1e19b9112da18", "type": "electric_scooter", "is_disabled": 0, "fusion_lon": 0.0}, {"rental_uris": {"android": "https://dc.lft.to/lastmile_qr_scan", "ios": "https://dc.lft.to/lastmile_qr_scan"}, "lon": -77.0314705, "name": "0f505f70d311f81ab6af03b5a23f833e", "lat": 38.941756, "is_reserved": 0, "fusion_lat": 0.0, "bike_id": "0f505f70d311f81ab6af03b5a23f833e", "type": "electric_scooter", "is_disabled": 0, "fusion_lon": 0.0}, {"rental_uris": {"android": "https://dc.lft.to/lastmile_qr_scan", "ios": "https://dc.lft.to/lastmile_qr_scan"}, "lon": -77.02312233333333, "name": "08f87a6d6a4b1f6a30b241518fa79114", "lat": 38.89584966666666, "is_reserved": 0, "fusion_lat": 0.0, "bike_id": "08f87a6d6a4b1f6a30b241518fa79114", "type": "electric_scooter", "is_disabled": 0, "fusion_lon": 0.0}, {"rental_uris": {"android": "https://dc.lft.to/lastmile_qr_scan", "ios": "https://dc.lft.to/lastmile_qr_scan"}, "lon": -77.0148025, "name": "25a792597d6dca57597c52a8afbaa335", "lat": 38.91851466666667, "is_reserved": 0, "fusion_lat": 0.0, "bike_id": "25a792597d6dca57597c52a8afbaa335", "type": "electric_scooter", "is_disabled": 0, "fusion_lon": 0.0}, {"rental_uris": {"android": "https://dc.lft.to/lastmile_qr_scan", "ios": "https://dc.lft.to/lastmile_qr_scan"}, "lon": -77.022199, "name": "1cf37df78a733be63525ce79e285e144", "lat": 38.8957385, "is_reserved": 0, "fusion_lat": 0.0, "bike_id": "1cf37df78a733be63525ce79e285e144", "type": "electric_scooter", "is_disabled": 0, "fusion_lon": 0.0}, {"rental_uris": {"android": "https://dc.lft.to/lastmile_qr_scan", "ios": "https://dc.lft.to/lastmile_qr_scan"}, "lon": -76.94723833333333, "name": "aee986c8b195660fcdf7b0ecaa012471", "lat": 38.89742716666667, "is_reserved": 0, "fusion_lat": 0.0, "bike_id": "aee986c8b195660fcdf7b0ecaa012471", "type": "electric_scooter", "is_disabled": 0, "fusion_lon": 0.0}, {"rental_uris": {"android": "https://dc.lft.to/lastmile_qr_scan", "ios": "https://dc.lft.to/lastmile_qr_scan"}, "lon": -77.01206333333333, "name": "4fc95359f0a47efe7f0371987e60961d", "lat": 38.91830433333333, "is_reserved": 0, "fusion_lat": 0.0, "bike_id": "4fc95359f0a47efe7f0371987e60961d", "type": "electric_scooter", "is_disabled": 0, "fusion_lon": 0.0}, {"rental_uris": {"android": "https://dc.lft.to/lastmile_qr_scan", "ios": "https://dc.lft.to/lastmile_qr_scan"}, "lon": -77.0219625, "name": "c39fb528607ac300ad18dc3175973437", "lat": 38.89266533333333, "is_reserved": 0, "fusion_lat": 0.0, "bike_id": "c39fb528607ac300ad18dc3175973437", "type": "electric_scooter", "is_disabled": 0, "fusion_lon": 0.0}, {"rental_uris": {"android": "https://dc.lft.to/lastmile_qr_scan", "ios": "https://dc.lft.to/lastmile_qr_scan"}, "lon": -77.04338666666666, "name": "f6aa7cec7adb2e421ecbf8ca5edc45e9", "lat": 38.9132625, "is_reserved": 0, "fusion_lat": 0.0, "bike_id": "f6aa7cec7adb2e421ecbf8ca5edc45e9", "type": "electric_scooter", "is_disabled": 0, "fusion_lon": 0.0}, {"rental_uris": {"android": "https://dc.lft.to/lastmile_qr_scan", "ios": "https://dc.lft.to/lastmile_qr_scan"}, "lon": -77.02361816666667, "name": "75172280a6db2602a3c68075e05a59a2", "lat": 38.9326955, "is_reserved": 0, "fusion_lat": 0.0, "bike_id": "75172280a6db2602a3c68075e05a59a2", "type": "electric_scooter", "is_disabled": 0, "fusion_lon": 0.0}, {"rental_uris": {"android": "https://dc.lft.to/lastmile_qr_scan", "ios": "https://dc.lft.to/lastmile_qr_scan"}, "lon": -77.0468725, "name": "08fba97e3d707ba07e03a3ca6e6636aa", "lat": 38.89224333333333, "is_reserved": 0, "fusion_lat": 0.0, "bike_id": "08fba97e3d707ba07e03a3ca6e6636aa", "type": "electric_scooter", "is_disabled": 0, "fusion_lon": 0.0}, {"rental_uris": {"android": "https://dc.lft.to/lastmile_qr_scan", "ios": "https://dc.lft.to/lastmile_qr_scan"}, "lon": -76.98681016666667, "name": "c43ebc9e27c1d5554034dad3cc90564a", "lat": 38.89367466666667, "is_reserved": 0, "fusion_lat": 0.0, "bike_id": "c43ebc9e27c1d5554034dad3cc90564a", "type": "electric_scooter", "is_disabled": 0, "fusion_lon": 0.0}, {"rental_uris": {"android": "https://dc.lft.to/lastmile_qr_scan", "ios": "https://dc.lft.to/lastmile_qr_scan"}, "lon": -77.03749516666667, "name": "7089d58a993c48b55f568ab803351ca5", "lat": 38.916206, "is_reserved": 0, "fusion_lat": 0.0, "bike_id": "7089d58a993c48b55f568ab803351ca5", "type": "electric_scooter", "is_disabled": 0, "fusion_lon": 0.0}, {"rental_uris": {"android": "https://dc.lft.to/lastmile_qr_scan", "ios": "https://dc.lft.to/lastmile_qr_scan"}, "lon": -77.0094665, "name": "01cf985eef2d5af0a5718acc64c8845d", "lat": 38.92125683333333, "is_reserved": 0, "fusion_lat": 0.0, "bike_id": "01cf985eef2d5af0a5718acc64c8845d", "type": "electric_bike", "is_disabled": 0, "fusion_lon": 0.0}, {"rental_uris": {"android": "https://dc.lft.to/lastmile_qr_scan", "ios": "https://dc.lft.to/lastmile_qr_scan"}, "lon": -76.98821533333333, "name": "0e01753030a9c763f2483a48e98ca37d", "lat": 38.890822, "is_reserved": 0, "fusion_lat": 0.0, "bike_id": "0e01753030a9c763f2483a48e98ca37d", "type": "electric_scooter", "is_disabled": 0, "fusion_lon": 0.0}, {"rental_uris": {"android": "https://dc.lft.to/lastmile_qr_scan", "ios": "https://dc.lft.to/lastmile_qr_scan"}, "lon": -77.03785416666666, "name": "465742afe54751e88adec9fea1ce5558", "lat": 38.927025666666665, "is_reserved": 0, "fusion_lat": 0.0, "bike_id": "465742afe54751e88adec9fea1ce5558", "type": "electric_scooter", "is_disabled": 0, "fusion_lon": 0.0}, {"rental_uris": {"android": "https://dc.lft.to/lastmile_qr_scan", "ios": "https://dc.lft.to/lastmile_qr_scan"}, "lon": -76.98416283333333, "name": "8bed3561113339aee550662dad1bab05", "lat": 38.908225333333334, "is_reserved": 0, "fusion_lat": 0.0, "bike_id": "8bed3561113339aee550662dad1bab05", "type": "electric_scooter", "is_disabled": 0, "fusion_lon": 0.0}, {"rental_uris": {"android": "https://dc.lft.to/lastmile_qr_scan", "ios": "https://dc.lft.to/lastmile_qr_scan"}, "lon": -77.036517, "name": "d0607ad3dc1445848a236d58908b803b", "lat": 38.901242333333336, "is_reserved": 0, "fusion_lat": 0.0, "bike_id": "d0607ad3dc1445848a236d58908b803b", "type": "electric_scooter", "is_disabled": 0, "fusion_lon": 0.0}, {"rental_uris": {"android": "https://dc.lft.to/lastmile_qr_scan", "ios": "https://dc.lft.to/lastmile_qr_scan"}, "lon": -76.99739383333333, "name": "0e41ede106df1dd5b41d4008485bdf74", "lat": 38.86158416666667, "is_reserved": 0, "fusion_lat": 0.0, "bike_id": "0e41ede106df1dd5b41d4008485bdf74", "type": "electric_scooter", "is_disabled": 0, "fusion_lon": 0.0}, {"rental_uris": {"android": "https://dc.lft.to/lastmile_qr_scan", "ios": "https://dc.lft.to/lastmile_qr_scan"}, "lon": -77.07283533333333, "name": "4ca1d787319d17b64988495288cd23fc", "lat": 38.93466133333333, "is_reserved": 0, "fusion_lat": 0.0, "bike_id": "4ca1d787319d17b64988495288cd23fc", "type": "electric_scooter", "is_disabled": 0, "fusion_lon": 0.0}, {"rental_uris": {"android": "https://dc.lft.to/lastmile_qr_scan", "ios": "https://dc.lft.to/lastmile_qr_scan"}, "lon": -76.94144783333333, "name": "ede799daf95fb038122823b0bdae516c", "lat": 38.9017945, "is_reserved": 0, "fusion_lat": 0.0, "bike_id": "ede799daf95fb038122823b0bdae516c", "type": "electric_scooter", "is_disabled": 0, "fusion_lon": 0.0}, {"rental_uris": {"android": "https://dc.lft.to/lastmile_qr_scan", "ios": "https://dc.lft.to/lastmile_qr_scan"}, "lon": -77.00224516666667, "name": "23edd16c179cbefca6143e34861843bd", "lat": 38.894883166666666, "is_reserved": 0, "fusion_lat": 0.0, "bike_id": "23edd16c179cbefca6143e34861843bd", "type": "electric_scooter", "is_disabled": 0, "fusion_lon": 0.0}, {"rental_uris": {"android": "https://dc.lft.to/lastmile_qr_scan", "ios": "https://dc.lft.to/lastmile_qr_scan"}, "lon": -77.0218595, "name": "3a4059a5c5cf48ac3c56e46afc9fb3bd", "lat": 38.909654833333335, "is_reserved": 0, "fusion_lat": 0.0, "bike_id": "3a4059a5c5cf48ac3c56e46afc9fb3bd", "type": "electric_scooter", "is_disabled": 0, "fusion_lon": 0.0}, {"rental_uris": {"android": "https://dc.lft.to/lastmile_qr_scan", "ios": "https://dc.lft.to/lastmile_qr_scan"}, "lon": -77.02489333333334, "name": "806d39f668cf56e287c00f285ee6efc6", "lat": 38.941871666666664, "is_reserved": 0, "fusion_lat": 0.0, "bike_id": "806d39f668cf56e287c00f285ee6efc6", "type": "electric_scooter", "is_disabled": 0, "fusion_lon": 0.0}, {"rental_uris": {"android": "https://dc.lft.to/lastmile_qr_scan", "ios": "https://dc.lft.to/lastmile_qr_scan"}, "lon": -76.98230283333334, "name": "892633a47a94f5d48044c1b2db580a3a", "lat": 38.86474166666667, "is_reserved": 0, "fusion_lat": 0.0, "bike_id": "892633a47a94f5d48044c1b2db580a3a", "type": "electric_scooter", "is_disabled": 0, "fusion_lon": 0.0}, {"rental_uris": {"android": "https://dc.lft.to/lastmile_qr_scan", "ios": "https://dc.lft.to/lastmile_qr_scan"}, "lon": -77.04030183333333, "name": "915615867bee373c077452f550a73c1e", "lat": 38.9216785, "is_reserved": 0, "fusion_lat": 0.0, "bike_id": "915615867bee373c077452f550a73c1e", "type": "electric_scooter", "is_disabled": 0, "fusion_lon": 0.0}, {"rental_uris": {"android": "https://dc.lft.to/lastmile_qr_scan", "ios": "https://dc.lft.to/lastmile_qr_scan"}, "lon": -77.02352533333334, "name": "1858a9af03207cb132b301da1dfbe056", "lat": 38.92068833333333, "is_reserved": 0, "fusion_lat": 0.0, "bike_id": "1858a9af03207cb132b301da1dfbe056", "type": "electric_scooter", "is_disabled": 0, "fusion_lon": 0.0}, {"rental_uris": {"android": "https://dc.lft.to/lastmile_qr_scan", "ios": "https://dc.lft.to/lastmile_qr_scan"}, "lon": -77.00755766666667, "name": "17bd0130d23bdc9b1a26b5b1267a3022", "lat": 38.8983965, "is_reserved": 0, "fusion_lat": 0.0, "bike_id": "17bd0130d23bdc9b1a26b5b1267a3022", "type": "electric_scooter", "is_disabled": 0, "fusion_lon": 0.0}, {"rental_uris": {"android": "https://dc.lft.to/lastmile_qr_scan", "ios": "https://dc.lft.to/lastmile_qr_scan"}, "lon": -77.00202766666666, "name": "ff2d9fcf6270cbd1ae1b5cd857499263", "lat": 38.90034, "is_reserved": 0, "fusion_lat": 0.0, "bike_id": "ff2d9fcf6270cbd1ae1b5cd857499263", "type": "electric_scooter", "is_disabled": 0, "fusion_lon": 0.0}, {"rental_uris": {"android": "https://dc.lft.to/lastmile_qr_scan", "ios": "https://dc.lft.to/lastmile_qr_scan"}, "lon": -77.06883483333333, "name": "286558636f62402620adbe45144eecc6", "lat": 38.90501966666667, "is_reserved": 0, "fusion_lat": 0.0, "bike_id": "286558636f62402620adbe45144eecc6", "type": "electric_scooter", "is_disabled": 0, "fusion_lon": 0.0}, {"rental_uris": {"android": "https://dc.lft.to/lastmile_qr_scan", "ios": "https://dc.lft.to/lastmile_qr_scan"}, "lon": -77.02685766666667, "name": "6a042b1f3de0460209ec29915358bdf3", "lat": 38.9000195, "is_reserved": 0, "fusion_lat": 0.0, "bike_id": "6a042b1f3de0460209ec29915358bdf3", "type": "electric_scooter", "is_disabled": 0, "fusion_lon": 0.0}, {"rental_uris": {"android": "https://dc.lft.to/lastmile_qr_scan", "ios": "https://dc.lft.to/lastmile_qr_scan"}, "lon": -77.05790166666667, "name": "1367f2bd812136feee858fd3f84dcb92", "lat": 38.900979, "is_reserved": 0, "fusion_lat": 0.0, "bike_id": "1367f2bd812136feee858fd3f84dcb92", "type": "electric_scooter", "is_disabled": 0, "fusion_lon": 0.0}, {"rental_uris": {"android": "https://dc.lft.to/lastmile_qr_scan", "ios": "https://dc.lft.to/lastmile_qr_scan"}, "lon": -77.00123533333333, "name": "70e9135cf9a4892ae2cb726dee1dfd58", "lat": 38.8779365, "is_reserved": 0, "fusion_lat": 0.0, "bike_id": "70e9135cf9a4892ae2cb726dee1dfd58", "type": "electric_scooter", "is_disabled": 0, "fusion_lon": 0.0}, {"rental_uris": {"android": "https://dc.lft.to/lastmile_qr_scan", "ios": "https://dc.lft.to/lastmile_qr_scan"}, "lon": -77.0426525, "name": "eba5986940e83a16f7c815e78563001e", "lat": 38.908653, "is_reserved": 0, "fusion_lat": 0.0, "bike_id": "eba5986940e83a16f7c815e78563001e", "type": "electric_scooter", "is_disabled": 0, "fusion_lon": 0.0}, {"rental_uris": {"android": "https://dc.lft.to/lastmile_qr_scan", "ios": "https://dc.lft.to/lastmile_qr_scan"}, "lon": -77.01094883333333, "name": "97b016cff6320dc9661d020b77a458df", "lat": 38.89543916666667, "is_reserved": 0, "fusion_lat": 0.0, "bike_id": "97b016cff6320dc9661d020b77a458df", "type": "electric_scooter", "is_disabled": 0, "fusion_lon": 0.0}, {"rental_uris": {"android": "https://dc.lft.to/lastmile_qr_scan", "ios": "https://dc.lft.to/lastmile_qr_scan"}, "lon": -77.00071883333334, "name": "44b06d72e161455918cb34cc2ee38e70", "lat": 38.925522666666666, "is_reserved": 0, "fusion_lat": 0.0, "bike_id": "44b06d72e161455918cb34cc2ee38e70", "type": "electric_scooter", "is_disabled": 0, "fusion_lon": 0.0}, {"rental_uris": {"android": "https://dc.lft.to/lastmile_qr_scan", "ios": "https://dc.lft.to/lastmile_qr_scan"}, "lon": -76.9994395, "name": "60fb7e46792838a0967b18a471a7d112", "lat": 38.842974166666664, "is_reserved": 0, "fusion_lat": 0.0, "bike_id": "60fb7e46792838a0967b18a471a7d112", "type": "electric_scooter", "is_disabled": 0, "fusion_lon": 0.0}, {"rental_uris": {"android": "https://dc.lft.to/lastmile_qr_scan", "ios": "https://dc.lft.to/lastmile_qr_scan"}, "lon": -77.04910683333334, "name": "74fb9c5cf711188b3fe5613539304378", "lat": 38.89687833333333, "is_reserved": 0, "fusion_lat": 0.0, "bike_id": "74fb9c5cf711188b3fe5613539304378", "type": "electric_scooter", "is_disabled": 0, "fusion_lon": 0.0}, {"rental_uris": {"android": "https://dc.lft.to/lastmile_qr_scan", "ios": "https://dc.lft.to/lastmile_qr_scan"}, "lon": -77.01209, "name": "32c2b2bfc95ff25e8a5d6493ba97caaa", "lat": 38.919187, "is_reserved": 0, "fusion_lat": 0.0, "bike_id": "32c2b2bfc95ff25e8a5d6493ba97caaa", "type": "electric_scooter", "is_disabled": 0, "fusion_lon": 0.0}, {"rental_uris": {"android": "https://dc.lft.to/lastmile_qr_scan", "ios": "https://dc.lft.to/lastmile_qr_scan"}, "lon": -77.04472, "name": "a8a45212d97104ca841f3c3762f6fe1a", "lat": 38.91871616666667, "is_reserved": 0, "fusion_lat": 0.0, "bike_id": "a8a45212d97104ca841f3c3762f6fe1a", "type": "electric_scooter", "is_disabled": 0, "fusion_lon": 0.0}, {"rental_uris": {"android": "https://dc.lft.to/lastmile_qr_scan", "ios": "https://dc.lft.to/lastmile_qr_scan"}, "lon": -77.04689016666667, "name": "d653c56101060ecc50b5ec83c3bffb7d", "lat": 38.92108066666667, "is_reserved": 0, "fusion_lat": 0.0, "bike_id": "d653c56101060ecc50b5ec83c3bffb7d", "type": "electric_scooter", "is_disabled": 0, "fusion_lon": 0.0}, {"rental_uris": {"android": "https://dc.lft.to/lastmile_qr_scan", "ios": "https://dc.lft.to/lastmile_qr_scan"}, "lon": -77.03189683333333, "name": "e48039bd520fec7d31c63668fd3118e4", "lat": 38.89246816666667, "is_reserved": 0, "fusion_lat": 0.0, "bike_id": "e48039bd520fec7d31c63668fd3118e4", "type": "electric_scooter", "is_disabled": 0, "fusion_lon": 0.0}, {"rental_uris": {"android": "https://dc.lft.to/lastmile_qr_scan", "ios": "https://dc.lft.to/lastmile_qr_scan"}, "lon": -76.94775083333333, "name": "f57fdfc07edad2efbe51503deb95cb4c", "lat": 38.896151333333336, "is_reserved": 0, "fusion_lat": 0.0, "bike_id": "f57fdfc07edad2efbe51503deb95cb4c", "type": "electric_scooter", "is_disabled": 0, "fusion_lon": 0.0}, {"rental_uris": {"android": "https://dc.lft.to/lastmile_qr_scan", "ios": "https://dc.lft.to/lastmile_qr_scan"}, "lon": -76.95163716666667, "name": "ddb08477d01c937328a45738adbdab52", "lat": 38.88524783333333, "is_reserved": 0, "fusion_lat": 0.0, "bike_id": "ddb08477d01c937328a45738adbdab52", "type": "electric_bike", "is_disabled": 0, "fusion_lon": 0.0}, {"rental_uris": {"android": "https://dc.lft.to/lastmile_qr_scan", "ios": "https://dc.lft.to/lastmile_qr_scan"}, "lon": -76.94860183333333, "name": "e78505bfb4d8a9c29461e292a6c2caeb", "lat": 38.883056833333335, "is_reserved": 0, "fusion_lat": 0.0, "bike_id": "e78505bfb4d8a9c29461e292a6c2caeb", "type": "electric_scooter", "is_disabled": 0, "fusion_lon": 0.0}, {"rental_uris": {"android": "https://dc.lft.to/lastmile_qr_scan", "ios": "https://dc.lft.to/lastmile_qr_scan"}, "lon": -76.94892833333333, "name": "23e9c9e90ddeaf9249bdc090a44a81c8", "lat": 38.89532633333334, "is_reserved": 0, "fusion_lat": 0.0, "bike_id": "23e9c9e90ddeaf9249bdc090a44a81c8", "type": "electric_scooter", "is_disabled": 0, "fusion_lon": 0.0}, {"rental_uris": {"android": "https://dc.lft.to/lastmile_qr_scan", "ios": "https://dc.lft.to/lastmile_qr_scan"}, "lon": -76.9899985, "name": "ac4e3be112e2655b22c49a3a6b5e6048", "lat": 38.865077666666664, "is_reserved": 0, "fusion_lat": 0.0, "bike_id": "ac4e3be112e2655b22c49a3a6b5e6048", "type": "electric_scooter", "is_disabled": 0, "fusion_lon": 0.0}, {"rental_uris": {"android": "https://dc.lft.to/lastmile_qr_scan", "ios": "https://dc.lft.to/lastmile_qr_scan"}, "lon": -77.02429716666667, "name": "897f4cfca334e0b5ccea1912d18b7640", "lat": 38.92054383333333, "is_reserved": 0, "fusion_lat": 0.0, "bike_id": "897f4cfca334e0b5ccea1912d18b7640", "type": "electric_scooter", "is_disabled": 0, "fusion_lon": 0.0}, {"rental_uris": {"android": "https://dc.lft.to/lastmile_qr_scan", "ios": "https://dc.lft.to/lastmile_qr_scan"}, "lon": -76.98821066666666, "name": "4f93e169831a985db677f30ee87de556", "lat": 38.900340666666665, "is_reserved": 0, "fusion_lat": 0.0, "bike_id": "4f93e169831a985db677f30ee87de556", "type": "electric_scooter", "is_disabled": 0, "fusion_lon": 0.0}, {"rental_uris": {"android": "https://dc.lft.to/lastmile_qr_scan", "ios": "https://dc.lft.to/lastmile_qr_scan"}, "lon": -77.0317865, "name": "45266c9b46b1bffc9765fb2ddc331ce4", "lat": 38.90374283333333, "is_reserved": 0, "fusion_lat": 0.0, "bike_id": "45266c9b46b1bffc9765fb2ddc331ce4", "type": "electric_scooter", "is_disabled": 0, "fusion_lon": 0.0}, {"rental_uris": {"android": "https://dc.lft.to/lastmile_qr_scan", "ios": "https://dc.lft.to/lastmile_qr_scan"}, "lon": -77.04162983333333, "name": "f887d364addbd7300a6d85fec789ddbb", "lat": 38.892343, "is_reserved": 0, "fusion_lat": 0.0, "bike_id": "f887d364addbd7300a6d85fec789ddbb", "type": "electric_scooter", "is_disabled": 0, "fusion_lon": 0.0}, {"rental_uris": {"android": "https://dc.lft.to/lastmile_qr_scan", "ios": "https://dc.lft.to/lastmile_qr_scan"}, "lon": -77.02183316666667, "name": "80cab3269ddf8dda321d9dd8a6722d31", "lat": 38.915712666666664, "is_reserved": 0, "fusion_lat": 0.0, "bike_id": "80cab3269ddf8dda321d9dd8a6722d31", "type": "electric_scooter", "is_disabled": 0, "fusion_lon": 0.0}, {"rental_uris": {"android": "https://dc.lft.to/lastmile_qr_scan", "ios": "https://dc.lft.to/lastmile_qr_scan"}, "lon": -77.03280216666667, "name": "3fd1290f4b4fdbbbeb131de245822cc0", "lat": 38.9369065, "is_reserved": 0, "fusion_lat": 0.0, "bike_id": "3fd1290f4b4fdbbbeb131de245822cc0", "type": "electric_scooter", "is_disabled": 0, "fusion_lon": 0.0}, {"rental_uris": {"android": "https://dc.lft.to/lastmile_qr_scan", "ios": "https://dc.lft.to/lastmile_qr_scan"}, "lon": -77.02159383333333, "name": "afacfd39e42dfa124af571c0ba1a0141", "lat": 38.914188, "is_reserved": 0, "fusion_lat": 0.0, "bike_id": "afacfd39e42dfa124af571c0ba1a0141", "type": "electric_scooter", "is_disabled": 0, "fusion_lon": 0.0}, {"rental_uris": {"android": "https://dc.lft.to/lastmile_qr_scan", "ios": "https://dc.lft.to/lastmile_qr_scan"}, "lon": -77.0265615, "name": "6202750fa3c1292e9545c08fe2ff3554", "lat": 38.925794, "is_reserved": 0, "fusion_lat": 0.0, "bike_id": "6202750fa3c1292e9545c08fe2ff3554", "type": "electric_scooter", "is_disabled": 0, "fusion_lon": 0.0}, {"rental_uris": {"android": "https://dc.lft.to/lastmile_qr_scan", "ios": "https://dc.lft.to/lastmile_qr_scan"}, "lon": -76.98842483333334, "name": "c5865b1f267c50033bdeed8e401fd48f", "lat": 38.84279883333333, "is_reserved": 0, "fusion_lat": 0.0, "bike_id": "c5865b1f267c50033bdeed8e401fd48f", "type": "electric_bike", "is_disabled": 0, "fusion_lon": 0.0}, {"rental_uris": {"android": "https://dc.lft.to/lastmile_qr_scan", "ios": "https://dc.lft.to/lastmile_qr_scan"}, "lon": -77.031239, "name": "bae4e465f354b14b32fe705976c1cd9f", "lat": 38.959369333333335, "is_reserved": 0, "fusion_lat": 0.0, "bike_id": "bae4e465f354b14b32fe705976c1cd9f", "type": "electric_scooter", "is_disabled": 0, "fusion_lon": 0.0}, {"rental_uris": {"android": "https://dc.lft.to/lastmile_qr_scan", "ios": "https://dc.lft.to/lastmile_qr_scan"}, "lon": -76.990134, "name": "250c20f6474ff772fe20751947bd5782", "lat": 38.886041166666665, "is_reserved": 0, "fusion_lat": 0.0, "bike_id": "250c20f6474ff772fe20751947bd5782", "type": "electric_scooter", "is_disabled": 0, "fusion_lon": 0.0}, {"rental_uris": {"android": "https://dc.lft.to/lastmile_qr_scan", "ios": "https://dc.lft.to/lastmile_qr_scan"}, "lon": -77.04664716666667, "name": "f10f0add56c44c90418a79cc61505846", "lat": 38.91004616666667, "is_reserved": 0, "fusion_lat": 0.0, "bike_id": "f10f0add56c44c90418a79cc61505846", "type": "electric_scooter", "is_disabled": 0, "fusion_lon": 0.0}, {"rental_uris": {"android": "https://dc.lft.to/lastmile_qr_scan", "ios": "https://dc.lft.to/lastmile_qr_scan"}, "lon": -77.04830433333333, "name": "f3337cf68f9eb226b486b14415545745", "lat": 38.918614833333336, "is_reserved": 0, "fusion_lat": 0.0, "bike_id": "f3337cf68f9eb226b486b14415545745", "type": "electric_scooter", "is_disabled": 0, "fusion_lon": 0.0}, {"rental_uris": {"android": "https://dc.lft.to/lastmile_qr_scan", "ios": "https://dc.lft.to/lastmile_qr_scan"}, "lon": -77.03242283333333, "name": "abbbfc388a96b0bf0d90b199202b49ae", "lat": 38.90147133333333, "is_reserved": 0, "fusion_lat": 0.0, "bike_id": "abbbfc388a96b0bf0d90b199202b49ae", "type": "electric_scooter", "is_disabled": 0, "fusion_lon": 0.0}, {"rental_uris": {"android": "https://dc.lft.to/lastmile_qr_scan", "ios": "https://dc.lft.to/lastmile_qr_scan"}, "lon": -77.07755733333333, "name": "58fb872781ebd8239cb427def7313672", "lat": 38.911676666666665, "is_reserved": 0, "fusion_lat": 0.0, "bike_id": "58fb872781ebd8239cb427def7313672", "type": "electric_scooter", "is_disabled": 0, "fusion_lon": 0.0}, {"rental_uris": {"android": "https://dc.lft.to/lastmile_qr_scan", "ios": "https://dc.lft.to/lastmile_qr_scan"}, "lon": -77.02282516666666, "name": "2cad33cfaa3a76d690204c8efbe5d0fe", "lat": 38.90874483333333, "is_reserved": 0, "fusion_lat": 0.0, "bike_id": "2cad33cfaa3a76d690204c8efbe5d0fe", "type": "electric_scooter", "is_disabled": 0, "fusion_lon": 0.0}, {"rental_uris": {"android": "https://dc.lft.to/lastmile_qr_scan", "ios": "https://dc.lft.to/lastmile_qr_scan"}, "lon": -77.0450825, "name": "4f74423e3eb59888cc3cba41f881d0d5", "lat": 38.91593966666667, "is_reserved": 0, "fusion_lat": 0.0, "bike_id": "4f74423e3eb59888cc3cba41f881d0d5", "type": "electric_scooter", "is_disabled": 0, "fusion_lon": 0.0}, {"rental_uris": {"android": "https://dc.lft.to/lastmile_qr_scan", "ios": "https://dc.lft.to/lastmile_qr_scan"}, "lon": -76.907417, "name": "b6015d7a96a3ba94719698fadcb91548", "lat": 38.89616783333334, "is_reserved": 0, "fusion_lat": 0.0, "bike_id": "b6015d7a96a3ba94719698fadcb91548", "type": "electric_bike", "is_disabled": 0, "fusion_lon": 0.0}, {"rental_uris": {"android": "https://dc.lft.to/lastmile_qr_scan", "ios": "https://dc.lft.to/lastmile_qr_scan"}, "lon": -77.05390866666667, "name": "ec4753a8d1892ee7ce88f11a3f3cd86c", "lat": 38.804554833333334, "is_reserved": 0, "fusion_lat": 0.0, "bike_id": "ec4753a8d1892ee7ce88f11a3f3cd86c", "type": "electric_bike", "is_disabled": 0, "fusion_lon": 0.0}, {"rental_uris": {"android": "https://dc.lft.to/lastmile_qr_scan", "ios": "https://dc.lft.to/lastmile_qr_scan"}, "lon": -77.0315545, "name": "7793624eae12eb2df0d62f03163ef238", "lat": 38.89544733333334, "is_reserved": 0, "fusion_lat": 0.0, "bike_id": "7793624eae12eb2df0d62f03163ef238", "type": "electric_scooter", "is_disabled": 0, "fusion_lon": 0.0}, {"rental_uris": {"android": "https://dc.lft.to/lastmile_qr_scan", "ios": "https://dc.lft.to/lastmile_qr_scan"}, "lon": -77.03839483333333, "name": "8204c4328a2faabeede514945a78758c", "lat": 38.909740166666666, "is_reserved": 0, "fusion_lat": 0.0, "bike_id": "8204c4328a2faabeede514945a78758c", "type": "electric_scooter", "is_disabled": 0, "fusion_lon": 0.0}, {"rental_uris": {"android": "https://dc.lft.to/lastmile_qr_scan", "ios": "https://dc.lft.to/lastmile_qr_scan"}, "lon": -76.98464466666667, "name": "4363551b3db88e11dd3ee7a6c43810fc", "lat": 38.9039675, "is_reserved": 0, "fusion_lat": 0.0, "bike_id": "4363551b3db88e11dd3ee7a6c43810fc", "type": "electric_scooter", "is_disabled": 0, "fusion_lon": 0.0}, {"rental_uris": {"android": "https://dc.lft.to/lastmile_qr_scan", "ios": "https://dc.lft.to/lastmile_qr_scan"}, "lon": -77.03441383333333, "name": "0638d7caeab61f0f59b772d5528867d6", "lat": 38.909822166666665, "is_reserved": 0, "fusion_lat": 0.0, "bike_id": "0638d7caeab61f0f59b772d5528867d6", "type": "electric_scooter", "is_disabled": 0, "fusion_lon": 0.0}, {"rental_uris": {"android": "https://dc.lft.to/lastmile_qr_scan", "ios": "https://dc.lft.to/lastmile_qr_scan"}, "lon": -76.97951816666667, "name": "17c68a4360cddff496eb5b295ecf5326", "lat": 38.9043715, "is_reserved": 0, "fusion_lat": 0.0, "bike_id": "17c68a4360cddff496eb5b295ecf5326", "type": "electric_scooter", "is_disabled": 0, "fusion_lon": 0.0}, {"rental_uris": {"android": "https://dc.lft.to/lastmile_qr_scan", "ios": "https://dc.lft.to/lastmile_qr_scan"}, "lon": -77.04159283333334, "name": "447a5fbe7279231f80717260794e0118", "lat": 38.8984595, "is_reserved": 0, "fusion_lat": 0.0, "bike_id": "447a5fbe7279231f80717260794e0118", "type": "electric_scooter", "is_disabled": 0, "fusion_lon": 0.0}, {"rental_uris": {"android": "https://dc.lft.to/lastmile_qr_scan", "ios": "https://dc.lft.to/lastmile_qr_scan"}, "lon": -77.01476766666667, "name": "1ca18bf275165151c32584311925954c", "lat": 38.92671283333333, "is_reserved": 0, "fusion_lat": 0.0, "bike_id": "1ca18bf275165151c32584311925954c", "type": "electric_scooter", "is_disabled": 0, "fusion_lon": 0.0}, {"rental_uris": {"android": "https://dc.lft.to/lastmile_qr_scan", "ios": "https://dc.lft.to/lastmile_qr_scan"}, "lon": -77.04267666666667, "name": "fd516018d916cfbf167d2b93a2b849be", "lat": 38.9074615, "is_reserved": 0, "fusion_lat": 0.0, "bike_id": "fd516018d916cfbf167d2b93a2b849be", "type": "electric_scooter", "is_disabled": 0, "fusion_lon": 0.0}, {"rental_uris": {"android": "https://dc.lft.to/lastmile_qr_scan", "ios": "https://dc.lft.to/lastmile_qr_scan"}, "lon": -77.034471, "name": "4ea6fd40d80d0e82eaf145099008457f", "lat": 38.909499, "is_reserved": 0, "fusion_lat": 0.0, "bike_id": "4ea6fd40d80d0e82eaf145099008457f", "type": "electric_scooter", "is_disabled": 0, "fusion_lon": 0.0}, {"rental_uris": {"android": "https://dc.lft.to/lastmile_qr_scan", "ios": "https://dc.lft.to/lastmile_qr_scan"}, "lon": -77.022154, "name": "8997041f8224ff5885f3fe7e519010fe", "lat": 38.912709166666666, "is_reserved": 0, "fusion_lat": 0.0, "bike_id": "8997041f8224ff5885f3fe7e519010fe", "type": "electric_scooter", "is_disabled": 0, "fusion_lon": 0.0}, {"rental_uris": {"android": "https://dc.lft.to/lastmile_qr_scan", "ios": "https://dc.lft.to/lastmile_qr_scan"}, "lon": -77.035672, "name": "36a26f62a7fc0601ee4443d7a079a136", "lat": 38.92702, "is_reserved": 0, "fusion_lat": 0.0, "bike_id": "36a26f62a7fc0601ee4443d7a079a136", "type": "electric_scooter", "is_disabled": 0, "fusion_lon": 0.0}, {"rental_uris": {"android": "https://dc.lft.to/lastmile_qr_scan", "ios": "https://dc.lft.to/lastmile_qr_scan"}, "lon": -77.02692866666666, "name": "0262f42a91e09fa470826c75568f2bd1", "lat": 38.909517666666666, "is_reserved": 0, "fusion_lat": 0.0, "bike_id": "0262f42a91e09fa470826c75568f2bd1", "type": "electric_scooter", "is_disabled": 0, "fusion_lon": 0.0}, {"rental_uris": {"android": "https://dc.lft.to/lastmile_qr_scan", "ios": "https://dc.lft.to/lastmile_qr_scan"}, "lon": -77.02980833333334, "name": "1140914e45727fecab7012a014890aea", "lat": 38.946074833333334, "is_reserved": 0, "fusion_lat": 0.0, "bike_id": "1140914e45727fecab7012a014890aea", "type": "electric_scooter", "is_disabled": 0, "fusion_lon": 0.0}, {"rental_uris": {"android": "https://dc.lft.to/lastmile_qr_scan", "ios": "https://dc.lft.to/lastmile_qr_scan"}, "lon": -76.98729533333334, "name": "05932e0319fa7e5c457794c451ea23b1", "lat": 38.863363, "is_reserved": 0, "fusion_lat": 0.0, "bike_id": "05932e0319fa7e5c457794c451ea23b1", "type": "electric_bike", "is_disabled": 0, "fusion_lon": 0.0}, {"rental_uris": {"android": "https://dc.lft.to/lastmile_qr_scan", "ios": "https://dc.lft.to/lastmile_qr_scan"}, "lon": -77.0788455, "name": "a163b32992a7257dc4ac30713163742b", "lat": 38.84257516666667, "is_reserved": 0, "fusion_lat": 0.0, "bike_id": "a163b32992a7257dc4ac30713163742b", "type": "electric_bike", "is_disabled": 0, "fusion_lon": 0.0}, {"rental_uris": {"android": "https://dc.lft.to/lastmile_qr_scan", "ios": "https://dc.lft.to/lastmile_qr_scan"}, "lon": -76.98655716666667, "name": "d78d1b4afb067744dee140b064e72cbe", "lat": 38.858088, "is_reserved": 0, "fusion_lat": 0.0, "bike_id": "d78d1b4afb067744dee140b064e72cbe", "type": "electric_scooter", "is_disabled": 0, "fusion_lon": 0.0}, {"rental_uris": {"android": "https://dc.lft.to/lastmile_qr_scan", "ios": "https://dc.lft.to/lastmile_qr_scan"}, "lon": -77.03186466666666, "name": "e939dfe41241923378855e6d9cca80ab", "lat": 38.91749566666667, "is_reserved": 0, "fusion_lat": 0.0, "bike_id": "e939dfe41241923378855e6d9cca80ab", "type": "electric_scooter", "is_disabled": 0, "fusion_lon": 0.0}, {"rental_uris": {"android": "https://dc.lft.to/lastmile_qr_scan", "ios": "https://dc.lft.to/lastmile_qr_scan"}, "lon": -77.049452, "name": "dfce3c09d84b2266dbd3697a1861006b", "lat": 38.90551966666666, "is_reserved": 0, "fusion_lat": 0.0, "bike_id": "dfce3c09d84b2266dbd3697a1861006b", "type": "electric_scooter", "is_disabled": 0, "fusion_lon": 0.0}, {"rental_uris": {"android": "https://dc.lft.to/lastmile_qr_scan", "ios": "https://dc.lft.to/lastmile_qr_scan"}, "lon": -77.00373233333333, "name": "41a84384677fe8b175c7bddcabfa1c75", "lat": 38.87639033333333, "is_reserved": 0, "fusion_lat": 0.0, "bike_id": "41a84384677fe8b175c7bddcabfa1c75", "type": "electric_scooter", "is_disabled": 0, "fusion_lon": 0.0}, {"rental_uris": {"android": "https://dc.lft.to/lastmile_qr_scan", "ios": "https://dc.lft.to/lastmile_qr_scan"}, "lon": -77.00710316666667, "name": "8a421fe0b038150c7b31a5c13af630ac", "lat": 38.884893166666664, "is_reserved": 0, "fusion_lat": 0.0, "bike_id": "8a421fe0b038150c7b31a5c13af630ac", "type": "electric_scooter", "is_disabled": 0, "fusion_lon": 0.0}, {"rental_uris": {"android": "https://dc.lft.to/lastmile_qr_scan", "ios": "https://dc.lft.to/lastmile_qr_scan"}, "lon": -76.96708533333333, "name": "41a7905c0c1579a9d60ca226b179d578", "lat": 38.8603735, "is_reserved": 0, "fusion_lat": 0.0, "bike_id": "41a7905c0c1579a9d60ca226b179d578", "type": "electric_scooter", "is_disabled": 0, "fusion_lon": 0.0}, {"rental_uris": {"android": "https://dc.lft.to/lastmile_qr_scan", "ios": "https://dc.lft.to/lastmile_qr_scan"}, "lon": -77.09714766666667, "name": "cd73f348f5cdd3326b18bd5313a1beb3", "lat": 38.95101666666667, "is_reserved": 0, "fusion_lat": 0.0, "bike_id": "cd73f348f5cdd3326b18bd5313a1beb3", "type": "electric_scooter", "is_disabled": 0, "fusion_lon": 0.0}, {"rental_uris": {"android": "https://dc.lft.to/lastmile_qr_scan", "ios": "https://dc.lft.to/lastmile_qr_scan"}, "lon": -77.02312716666667, "name": "3f805fbdde8f0355987f0c94bcb8e52e", "lat": 38.9184055, "is_reserved": 0, "fusion_lat": 0.0, "bike_id": "3f805fbdde8f0355987f0c94bcb8e52e", "type": "electric_scooter", "is_disabled": 0, "fusion_lon": 0.0}, {"rental_uris": {"android": "https://dc.lft.to/lastmile_qr_scan", "ios": "https://dc.lft.to/lastmile_qr_scan"}, "lon": -77.05593333333333, "name": "b2924f3c981b206bc874569f67b23736", "lat": 38.937071833333334, "is_reserved": 0, "fusion_lat": 0.0, "bike_id": "b2924f3c981b206bc874569f67b23736", "type": "electric_scooter", "is_disabled": 0, "fusion_lon": 0.0}, {"rental_uris": {"android": "https://dc.lft.to/lastmile_qr_scan", "ios": "https://dc.lft.to/lastmile_qr_scan"}, "lon": -77.02373833333333, "name": "752bb500d84ddb009f25a3ab3f15930a", "lat": 38.90680533333333, "is_reserved": 0, "fusion_lat": 0.0, "bike_id": "752bb500d84ddb009f25a3ab3f15930a", "type": "electric_scooter", "is_disabled": 0, "fusion_lon": 0.0}, {"rental_uris": {"android": "https://dc.lft.to/lastmile_qr_scan", "ios": "https://dc.lft.to/lastmile_qr_scan"}, "lon": -76.99703416666667, "name": "3e7ce2bf8e0af1e2bfb3d20103dbc4ab", "lat": 38.88483566666667, "is_reserved": 0, "fusion_lat": 0.0, "bike_id": "3e7ce2bf8e0af1e2bfb3d20103dbc4ab", "type": "electric_bike", "is_disabled": 0, "fusion_lon": 0.0}, {"rental_uris": {"android": "https://dc.lft.to/lastmile_qr_scan", "ios": "https://dc.lft.to/lastmile_qr_scan"}, "lon": -77.0280515, "name": "2cdc8b9db69ca0b76f162623995946f7", "lat": 38.909128, "is_reserved": 0, "fusion_lat": 0.0, "bike_id": "2cdc8b9db69ca0b76f162623995946f7", "type": "electric_scooter", "is_disabled": 0, "fusion_lon": 0.0}, {"rental_uris": {"android": "https://dc.lft.to/lastmile_qr_scan", "ios": "https://dc.lft.to/lastmile_qr_scan"}, "lon": -77.03266983333333, "name": "5a2acca12dd98c400fd71af124a39a7b", "lat": 38.932155, "is_reserved": 0, "fusion_lat": 0.0, "bike_id": "5a2acca12dd98c400fd71af124a39a7b", "type": "electric_scooter", "is_disabled": 0, "fusion_lon": 0.0}, {"rental_uris": {"android": "https://dc.lft.to/lastmile_qr_scan", "ios": "https://dc.lft.to/lastmile_qr_scan"}, "lon": -77.02347533333334, "name": "17033f0f6d85941615fcec9035140861", "lat": 38.902405333333334, "is_reserved": 0, "fusion_lat": 0.0, "bike_id": "17033f0f6d85941615fcec9035140861", "type": "electric_scooter", "is_disabled": 0, "fusion_lon": 0.0}, {"rental_uris": {"android": "https://dc.lft.to/lastmile_qr_scan", "ios": "https://dc.lft.to/lastmile_qr_scan"}, "lon": -77.01566033333333, "name": "4397d6fb543b03724b328227aaa408cb", "lat": 38.90044066666667, "is_reserved": 0, "fusion_lat": 0.0, "bike_id": "4397d6fb543b03724b328227aaa408cb", "type": "electric_scooter", "is_disabled": 0, "fusion_lon": 0.0}, {"rental_uris": {"android": "https://dc.lft.to/lastmile_qr_scan", "ios": "https://dc.lft.to/lastmile_qr_scan"},