{"data": {"bikes": [{"lon": -77.02215183333334, "fusion_lon": 0.0, "bike_id": "e0f9ab2406b00c41b06398a4b66e7a2e", "type": "electric_scooter", "name": "e0f9ab2406b00c41b06398a4b66e7a2e", "rental_uris": {"android": "https://dc.lft.to/lastmile_qr_scan", "ios": "https://dc.lft.to/lastmile_qr_scan"}, "is_disabled": 0, "fusion_lat": 0.0, "lat": 38.927957666666664, "is_reserved": 0}, {"lon": -77.02479066666666, "fusion_lon": 0.0, "bike_id": "1ab8c683547c667343a1690c79398f28", "type": "electric_scooter", "name": "1ab8c683547c667343a1690c79398f28", "rental_uris": {"android": "https://dc.lft.to/lastmile_qr_scan", "ios": "https://dc.lft.to/lastmile_qr_scan"}, "is_disabled": 0, "fusion_lat": 0.0, "lat": 38.939667, "is_reserved": 0}, {"lon": -76.98542733333333, "fusion_lon": 0.0, "bike_id": "86a422733b98482f8484384183df2056", "type": "electric_scooter", "name": "86a422733b98482f8484384183df2056", "rental_uris": {"android": "https://dc.lft.to/lastmile_qr_scan", "ios": "https://dc.lft.to/lastmile_qr_scan"}, "is_disabled": 0, "fusion_lat": 0.0, "lat": 38.86688683333333, "is_reserved": 0}, {"lon": -77.03592383333333, "fusion_lon": 0.0, "bike_id": "83c1d5d0cd0b4f314b2de5720352226e", "type": "electric_scooter", "name": "83c1d5d0cd0b4f314b2de5720352226e", "rental_uris": {"android": "https://dc.lft.to/lastmile_qr_scan", "ios": "https://dc.lft.to/lastmile_qr_scan"}, "is_disabled": 0, "fusion_lat": 0.0, "lat": 38.90402983333333, "is_reserved": 0}, {"lon": -76.99923283333334, "fusion_lon": 0.0, "bike_id": "eafd97c4b32367761a180db2916fe587", "type": "electric_scooter", "name": "eafd97c4b32367761a180db2916fe587", "rental_uris": {"android": "https://dc.lft.to/lastmile_qr_scan", "ios": "https://dc.lft.to/lastmile_qr_scan"}, "is_disabled": 0, "fusion_lat": 0.0, "lat": 38.90927416666667, "is_reserved": 0}, {"lon": -77.00956733333334, "fusion_lon": 0.0, "bike_id": "3753561a6bd30b2245f5c1ae0653b348", "type": "electric_scooter", "name": "3753561a6bd30b2245f5c1ae0653b348", "rental_uris": {"android": "https://dc.lft.to/lastmile_qr_scan", "ios": "https://dc.lft.to/lastmile_qr_scan"}, "is_disabled": 0, "fusion_lat": 0.0, "lat": 38.897386833333336, "is_reserved": 0}, {"lon": -77.031413, "fusion_lon": 0.0, "bike_id": "a7d84f2fbcb94f3791f2c673d8d48c3e", "type": "electric_scooter", "name": "a7d84f2fbcb94f3791f2c673d8d48c3e", "rental_uris": {"android": "https://dc.lft.to/lastmile_qr_scan", "ios": "https://dc.lft.to/lastmile_qr_scan"}, "is_disabled": 0, "fusion_lat": 0.0, "lat": 38.90472033333333, "is_reserved": 0}, {"lon": -77.08486366666666, "fusion_lon": 0.0, "bike_id": "830d44db6eb981e2e66a702c4e57e154", "type": "electric_scooter", "name": "830d44db6eb981e2e66a702c4e57e154", "rental_uris": {"android": "https://dc.lft.to/lastmile_qr_scan", "ios": "https://dc.lft.to/lastmile_qr_scan"}, "is_disabled": 0, "fusion_lat": 0.0, "lat": 38.939023666666664, "is_reserved": 0}, {"lon": -77.03664633333334, "fusion_lon": 0.0, "bike_id": "de9138d74dc4c5d973b64c026726305d", "type": "electric_scooter", "name": "de9138d74dc4c5d973b64c026726305d", "rental_uris": {"android": "https://dc.lft.to/lastmile_qr_scan", "ios": "https://dc.lft.to/lastmile_qr_scan"}, "is_disabled": 0, "fusion_lat": 0.0, "lat": 38.915449833333334, "is_reserved": 0}, {"lon": -77.02692983333333, "fusion_lon": 0.0, "bike_id": "8e088b8bdf55ee479165144698747720", "type": "electric_scooter", "name": "8e088b8bdf55ee479165144698747720", "rental_uris": {"android": "https://dc.lft.to/lastmile_qr_scan", "ios": "https://dc.lft.to/lastmile_qr_scan"}, "is_disabled": 0, "fusion_lat": 0.0, "lat": 38.9267325, "is_reserved": 0}, {"lon": -77.00493383333334, "fusion_lon": 0.0, "bike_id": "60e5d1cc99063b4a6c7f5fc4fda0e297", "type": "electric_scooter", "name": "60e5d1cc99063b4a6c7f5fc4fda0e297", "rental_uris": {"android": "https://dc.lft.to/lastmile_qr_scan", "ios": "https://dc.lft.to/lastmile_qr_scan"}, "is_disabled": 0, "fusion_lat": 0.0, "lat": 38.874686, "is_reserved": 0}, {"lon": -77.0161665, "fusion_lon": 0.0, "bike_id": "d59869dc8e11a5c7869a27fb334616e9", "type": "electric_scooter", "name": "d59869dc8e11a5c7869a27fb334616e9", "rental_uris": {"android": "https://dc.lft.to/lastmile_qr_scan", "ios": "https://dc.lft.to/lastmile_qr_scan"}, "is_disabled": 0, "fusion_lat": 0.0, "lat": 38.90336683333334, "is_reserved": 0}, {"lon": -77.02157866666667, "fusion_lon": 0.0, "bike_id": "8544a00d4feb32330488f568a0f00246", "type": "electric_scooter", "name": "8544a00d4feb32330488f568a0f00246", "rental_uris": {"android": "https://dc.lft.to/lastmile_qr_scan", "ios": "https://dc.lft.to/lastmile_qr_scan"}, "is_disabled": 0, "fusion_lat": 0.0, "lat": 38.92604216666667, "is_reserved": 0}, {"lon": -77.04190816666667, "fusion_lon": 0.0, "bike_id": "03f4e65b7f770e7754e3b693e13f99fe", "type": "electric_scooter", "name": "03f4e65b7f770e7754e3b693e13f99fe", "rental_uris": {"android": "https://dc.lft.to/lastmile_qr_scan", "ios": "https://dc.lft.to/lastmile_qr_scan"}, "is_disabled": 0, "fusion_lat": 0.0, "lat": 38.92050166666667, "is_reserved": 0}, {"lon": -77.0023505, "fusion_lon": 0.0, "bike_id": "a5022eb35e455214f9605ad7be42ecee", "type": "electric_scooter", "name": "a5022eb35e455214f9605ad7be42ecee", "rental_uris": {"android": "https://dc.lft.to/lastmile_qr_scan", "ios": "https://dc.lft.to/lastmile_qr_scan"}, "is_disabled": 0, "fusion_lat": 0.0, "lat": 38.88513833333333, "is_reserved": 0}, {"lon": -77.04024316666667, "fusion_lon": 0.0, "bike_id": "d5a9063ace19a32cd1706ab0b47d6e02", "type": "electric_scooter", "name": "d5a9063ace19a32cd1706ab0b47d6e02", "rental_uris": {"android": "https://dc.lft.to/lastmile_qr_scan", "ios": "https://dc.lft.to/lastmile_qr_scan"}, "is_disabled": 0, "fusion_lat": 0.0, "lat": 38.896678, "is_reserved": 0}, {"lon": -77.02487866666667, "fusion_lon": 0.0, "bike_id": "1f3df41ffe8c285af33f041ec5ca988a", "type": "electric_scooter", "name": "1f3df41ffe8c285af33f041ec5ca988a", "rental_uris": {"android": "https://dc.lft.to/lastmile_qr_scan", "ios": "https://dc.lft.to/lastmile_qr_scan"}, "is_disabled": 0, "fusion_lat": 0.0, "lat": 38.916975666666666, "is_reserved": 0}, {"lon": -77.04407, "fusion_lon": 0.0, "bike_id": "23b884d6fd868afe68941afb43bef47e", "type": "electric_scooter", "name": "23b884d6fd868afe68941afb43bef47e", "rental_uris": {"android": "https://dc.lft.to/lastmile_qr_scan", "ios": "https://dc.lft.to/lastmile_qr_scan"}, "is_disabled": 0, "fusion_lat": 0.0, "lat": 38.911090333333334, "is_reserved": 0}, {"lon": -77.0413455, "fusion_lon": 0.0, "bike_id": "161b8dd0460f352674bd3f545d3ba609", "type": "electric_bike", "name": "161b8dd0460f352674bd3f545d3ba609", "rental_uris": {"android": "https://dc.lft.to/lastmile_qr_scan", "ios": "https://dc.lft.to/lastmile_qr_scan"}, "is_disabled": 0, "fusion_lat": 0.0, "lat": 38.92370283333333, "is_reserved": 0}, {"lon": -77.04259383333333, "fusion_lon": 0.0, "bike_id": "672b8ac9fa52981c4bbf6ddae69d586f", "type": "electric_scooter", "name": "672b8ac9fa52981c4bbf6ddae69d586f", "rental_uris": {"android": "https://dc.lft.to/lastmile_qr_scan", "ios": "https://dc.lft.to/lastmile_qr_scan"}, "is_disabled": 0, "fusion_lat": 0.0, "lat": 38.922444166666665, "is_reserved": 0}, {"lon": -77.04957166666667, "fusion_lon": 0.0, "bike_id": "9a0ed1a4f2e35ceae3952fafbe1d2647", "type": "electric_bike", "name": "9a0ed1a4f2e35ceae3952fafbe1d2647", "rental_uris": {"android": "https://dc.lft.to/lastmile_qr_scan", "ios": "https://dc.lft.to/lastmile_qr_scan"}, "is_disabled": 0, "fusion_lat": 0.0, "lat": 38.854713, "is_reserved": 0}, {"lon": -77.04343666666666, "fusion_lon": 0.0, "bike_id": "192c6e8259a608a3cabc5a4b2af320ff", "type": "electric_scooter", "name": "192c6e8259a608a3cabc5a4b2af320ff", "rental_uris": {"android": "https://dc.lft.to/lastmile_qr_scan", "ios": "https://dc.lft.to/lastmile_qr_scan"}, "is_disabled": 0, "fusion_lat": 0.0, "lat": 38.90822, "is_reserved": 0}, {"lon": -77.03211266666666, "fusion_lon": 0.0, "bike_id": "e2dd1d8a26faec6ad3d28169fb8cef25", "type": "electric_scooter", "name": "e2dd1d8a26faec6ad3d28169fb8cef25", "rental_uris": {"android": "https://dc.lft.to/lastmile_qr_scan", "ios": "https://dc.lft.to/lastmile_qr_scan"}, "is_disabled": 0, "fusion_lat": 0.0, "lat": 38.9277885, "is_reserved": 0}, {"lon": -77.02497383333333, "fusion_lon": 0.0, "bike_id": "222cefb493afd02c8c6b87da48db1f6d", "type": "electric_scooter", "name": "222cefb493afd02c8c6b87da48db1f6d", "rental_uris": {"android": "https://dc.lft.to/lastmile_qr_scan", "ios": "https://dc.lft.to/lastmile_qr_scan"}, "is_disabled": 0, "fusion_lat": 0.0, "lat": 38.94090966666667, "is_reserved": 0}, {"lon": -77.02364666666666, "fusion_lon": 0.0, "bike_id": "100650d4279769429b2d5aea9332f42a", "type": "electric_scooter", "name": "100650d4279769429b2d5aea9332f42a", "rental_uris": {"android": "https://dc.lft.to/lastmile_qr_scan", "ios": "https://dc.lft.to/lastmile_qr_scan"}, "is_disabled": 0, "fusion_lat": 0.0, "lat": 38.937379, "is_reserved": 0}, {"lon": -77.03910916666666, "fusion_lon": 0.0, "bike_id": "aa5fd5f9f86736f89d52d1d7ffa910b3", "type": "electric_scooter", "name": "aa5fd5f9f86736f89d52d1d7ffa910b3", "rental_uris": {"android": "https://dc.lft.to/lastmile_qr_scan", "ios": "https://dc.lft.to/lastmile_qr_scan"}, "is_disabled": 0, "fusion_lat": 0.0, "lat": 38.9047435, "is_reserved": 0}, {"lon": -76.97349316666667, "fusion_lon": 0.0, "bike_id": "54034a95a8e73cf94daef502b9abc066", "type": "electric_bike", "name": "54034a95a8e73cf94daef502b9abc066", "rental_uris": {"android": "https://dc.lft.to/lastmile_qr_scan", "ios": "https://dc.lft.to/lastmile_qr_scan"}, "is_disabled": 0, "fusion_lat": 0.0, "lat": 38.897308833333334, "is_reserved": 0}, {"lon": -77.0123725, "fusion_lon": 0.0, "bike_id": "0d8775890d1e99a8e48d0ddc6a4720c0", "type": "electric_scooter", "name": "0d8775890d1e99a8e48d0ddc6a4720c0", "rental_uris": {"android": "https://dc.lft.to/lastmile_qr_scan", "ios": "https://dc.lft.to/lastmile_qr_scan"}, "is_disabled": 0, "fusion_lat": 0.0, "lat": 38.87208866666667, "is_reserved": 0}, {"lon": -77.03852916666666, "fusion_lon": 0.0, "bike_id": "657c86025a778be930e884cf96329758", "type": "electric_scooter", "name": "657c86025a778be930e884cf96329758", "rental_uris": {"android": "https://dc.lft.to/lastmile_qr_scan", "ios": "https://dc.lft.to/lastmile_qr_scan"}, "is_disabled": 0, "fusion_lat": 0.0, "lat": 38.91551966666667, "is_reserved": 0}, {"lon": -77.00798583333334, "fusion_lon": 0.0, "bike_id": "a15e34650ce356af213c3928cded3b7f", "type": "electric_scooter", "name": "a15e34650ce356af213c3928cded3b7f", "rental_uris": {"android": "https://dc.lft.to/lastmile_qr_scan", "ios": "https://dc.lft.to/lastmile_qr_scan"}, "is_disabled": 0, "fusion_lat": 0.0, "lat": 38.89716683333333, "is_reserved": 0}, {"lon": -77.03893216666667, "fusion_lon": 0.0, "bike_id": "19bb080ad5354f92b16e53acbaea4aee", "type": "electric_scooter", "name": "19bb080ad5354f92b16e53acbaea4aee", "rental_uris": {"android": "https://dc.lft.to/lastmile_qr_scan", "ios": "https://dc.lft.to/lastmile_qr_scan"}, "is_disabled": 0, "fusion_lat": 0.0, "lat": 38.92253133333333, "is_reserved": 0}, {"lon": -76.98625183333333, "fusion_lon": 0.0, "bike_id": "d8a3a8fcb0dfe167e66a87653fc9c1a0", "type": "electric_scooter", "name": "d8a3a8fcb0dfe167e66a87653fc9c1a0", "rental_uris": {"android": "https://dc.lft.to/lastmile_qr_scan", "ios": "https://dc.lft.to/lastmile_qr_scan"}, "is_disabled": 0, "fusion_lat": 0.0, "lat": 38.932895333333335, "is_reserved": 0}, {"lon": -76.970582, "fusion_lon": 0.0, "bike_id": "277789aa897264cef5dd168372552d6f", "type": "electric_bike", "name": "277789aa897264cef5dd168372552d6f", "rental_uris": {"android": "https://dc.lft.to/lastmile_qr_scan", "ios": "https://dc.lft.to/lastmile_qr_scan"}, "is_disabled": 0, "fusion_lat": 0.0, "lat": 38.9846385, "is_reserved": 0}, {"lon": -77.0349705, "fusion_lon": 0.0, "bike_id": "82ebe6b12f2d211917fa2b244957e845", "type": "electric_scooter", "name": "82ebe6b12f2d211917fa2b244957e845", "rental_uris": {"android": "https://dc.lft.to/lastmile_qr_scan", "ios": "https://dc.lft.to/lastmile_qr_scan"}, "is_disabled": 0, "fusion_lat": 0.0, "lat": 38.900443833333334, "is_reserved": 0}, {"lon": -77.03663233333333, "fusion_lon": 0.0, "bike_id": "15b90aa19b621cdf8bcdf08821b7d720", "type": "electric_scooter", "name": "15b90aa19b621cdf8bcdf08821b7d720", "rental_uris": {"android": "https://dc.lft.to/lastmile_qr_scan", "ios": "https://dc.lft.to/lastmile_qr_scan"}, "is_disabled": 0, "fusion_lat": 0.0, "lat": 38.91000916666667, "is_reserved": 0}, {"lon": -77.0854, "fusion_lon": 0.0, "bike_id": "aaae7a3ae4dee8a2145c2ea63da602dd", "type": "electric_scooter", "name": "aaae7a3ae4dee8a2145c2ea63da602dd", "rental_uris": {"android": "https://dc.lft.to/lastmile_qr_scan", "ios": "https://dc.lft.to/lastmile_qr_scan"}, "is_disabled": 0, "fusion_lat": 0.0, "lat": 38.91610816666667, "is_reserved": 0}, {"lon": -77.03828916666667, "fusion_lon": 0.0, "bike_id": "60098722e28dc8338b88e77b9eb6297b", "type": "electric_scooter", "name": "60098722e28dc8338b88e77b9eb6297b", "rental_uris": {"android": "https://dc.lft.to/lastmile_qr_scan", "ios": "https://dc.lft.to/lastmile_qr_scan"}, "is_disabled": 0, "fusion_lat": 0.0, "lat": 38.902750833333336, "is_reserved": 0}, {"lon": -77.00536783333334, "fusion_lon": 0.0, "bike_id": "012c549bf3f8b3648fde701015eff5a3", "type": "electric_scooter", "name": "012c549bf3f8b3648fde701015eff5a3", "rental_uris": {"android": "https://dc.lft.to/lastmile_qr_scan", "ios": "https://dc.lft.to/lastmile_qr_scan"}, "is_disabled": 0, "fusion_lat": 0.0, "lat": 38.8464725, "is_reserved": 0}, {"lon": -77.03716466666667, "fusion_lon": 0.0, "bike_id": "c1bd76dff4326509c427891148249baf", "type": "electric_scooter", "name": "c1bd76dff4326509c427891148249baf", "rental_uris": {"android": "https://dc.lft.to/lastmile_qr_scan", "ios": "https://dc.lft.to/lastmile_qr_scan"}, "is_disabled": 0, "fusion_lat": 0.0, "lat": 38.927947333333336, "is_reserved": 0}, {"lon": -76.93729516666667, "fusion_lon": 0.0, "bike_id": "ba19c29aa7ade705f50df098caea1dfc", "type": "electric_scooter", "name": "ba19c29aa7ade705f50df098caea1dfc", "rental_uris": {"android": "https://dc.lft.to/lastmile_qr_scan", "ios": "https://dc.lft.to/lastmile_qr_scan"}, "is_disabled": 0, "fusion_lat": 0.0, "lat": 38.89024366666666, "is_reserved": 0}, {"lon": -77.03307783333334, "fusion_lon": 0.0, "bike_id": "d499fedc108281ddfd7f16a0eb5b7fc9", "type": "electric_scooter", "name": "d499fedc108281ddfd7f16a0eb5b7fc9", "rental_uris": {"android": "https://dc.lft.to/lastmile_qr_scan", "ios": "https://dc.lft.to/lastmile_qr_scan"}, "is_disabled": 0, "fusion_lat": 0.0, "lat": 38.956354, "is_reserved": 0}, {"lon": -76.969167, "fusion_lon": 0.0, "bike_id": "9b3278d4b4bd8969aed106c6e899d73d", "type": "electric_scooter", "name": "9b3278d4b4bd8969aed106c6e899d73d", "rental_uris": {"android": "https://dc.lft.to/lastmile_qr_scan", "ios": "https://dc.lft.to/lastmile_qr_scan"}, "is_disabled": 0, "fusion_lat": 0.0, "lat": 38.85526866666667, "is_reserved": 0}, {"lon": -77.0025775, "fusion_lon": 0.0, "bike_id": "2fa026926c066e3469fac487634d709d", "type": "electric_scooter", "name": "2fa026926c066e3469fac487634d709d", "rental_uris": {"android": "https://dc.lft.to/lastmile_qr_scan", "ios": "https://dc.lft.to/lastmile_qr_scan"}, "is_disabled": 0, "fusion_lat": 0.0, "lat": 38.894908, "is_reserved": 0}, {"lon": -77.040946, "fusion_lon": 0.0, "bike_id": "df0f67fcb6497011a31b08051a7acd11", "type": "electric_scooter", "name": "df0f67fcb6497011a31b08051a7acd11", "rental_uris": {"android": "https://dc.lft.to/lastmile_qr_scan", "ios": "https://dc.lft.to/lastmile_qr_scan"}, "is_disabled": 0, "fusion_lat": 0.0, "lat": 38.910476333333335, "is_reserved": 0}, {"lon": -77.01097083333333, "fusion_lon": 0.0, "bike_id": "30be402d8455764f8283630505096348", "type": "electric_bike", "name": "30be402d8455764f8283630505096348", "rental_uris": {"android": "https://dc.lft.to/lastmile_qr_scan", "ios": "https://dc.lft.to/lastmile_qr_scan"}, "is_disabled": 0, "fusion_lat": 0.0, "lat": 38.8729975, "is_reserved": 0}, {"lon": -77.0476015, "fusion_lon": 0.0, "bike_id": "2f8891d8759107def5c9faaafd0d36eb", "type": "electric_scooter", "name": "2f8891d8759107def5c9faaafd0d36eb", "rental_uris": {"android": "https://dc.lft.to/lastmile_qr_scan", "ios": "https://dc.lft.to/lastmile_qr_scan"}, "is_disabled": 0, "fusion_lat": 0.0, "lat": 38.917493, "is_reserved": 0}, {"lon": -77.01411133333333, "fusion_lon": 0.0, "bike_id": "aafed28bf9cd77291d152d697199bc6e", "type": "electric_scooter", "name": "aafed28bf9cd77291d152d697199bc6e", "rental_uris": {"android": "https://dc.lft.to/lastmile_qr_scan", "ios": "https://dc.lft.to/lastmile_qr_scan"}, "is_disabled": 0, "fusion_lat": 0.0, "lat": 38.92855433333333, "is_reserved": 0}, {"lon": -77.04872466666667, "fusion_lon": 0.0, "bike_id": "f2b8a5e3a14c693b012ed1819f1dd172", "type": "electric_scooter", "name": "f2b8a5e3a14c693b012ed1819f1dd172", "rental_uris": {"android": "https://dc.lft.to/lastmile_qr_scan", "ios": "https://dc.lft.to/lastmile_qr_scan"}, "is_disabled": 0, "fusion_lat": 0.0, "lat": 38.909765166666666, "is_reserved": 0}, {"lon": -77.04047316666667, "fusion_lon": 0.0, "bike_id": "cebb921ec25decd199c036b41a722931", "type": "electric_scooter", "name": "cebb921ec25decd199c036b41a722931", "rental_uris": {"android": "https://dc.lft.to/lastmile_qr_scan", "ios": "https://dc.lft.to/lastmile_qr_scan"}, "is_disabled": 0, "fusion_lat": 0.0, "lat": 38.9059035, "is_reserved": 0}, {"lon": -77.11085116666666, "fusion_lon": 0.0, "bike_id": "a1634026e97be9e97935c29ec58d508f", "type": "electric_bike", "name": "a1634026e97be9e97935c29ec58d508f", "rental_uris": {"android": "https://dc.lft.to/lastmile_qr_scan", "ios": "https://dc.lft.to/lastmile_qr_scan"}, "is_disabled": 0, "fusion_lat": 0.0, "lat": 39.012253666666666, "is_reserved": 0}, {"lon": -77.03587383333333, "fusion_lon": 0.0, "bike_id": "70b837e9cbd91ad537843f4fec0f602c", "type": "electric_scooter", "name": "70b837e9cbd91ad537843f4fec0f602c", "rental_uris": {"android": "https://dc.lft.to/lastmile_qr_scan", "ios": "https://dc.lft.to/lastmile_qr_scan"}, "is_disabled": 0, "fusion_lat": 0.0, "lat": 38.939815333333335, "is_reserved": 0}, {"lon": -77.04911733333333, "fusion_lon": 0.0, "bike_id": "dec8fc467f7b75ca7cad9eb5524aa3c2", "type": "electric_scooter", "name": "dec8fc467f7b75ca7cad9eb5524aa3c2", "rental_uris": {"android": "https://dc.lft.to/lastmile_qr_scan", "ios": "https://dc.lft.to/lastmile_qr_scan"}, "is_disabled": 0, "fusion_lat": 0.0, "lat": 38.9160245, "is_reserved": 0}, {"lon": -77.02536216666667, "fusion_lon": 0.0, "bike_id": "b9682689efd9d2e646e3933d033604ca", "type": "electric_scooter", "name": "b9682689efd9d2e646e3933d033604ca", "rental_uris": {"android": "https://dc.lft.to/lastmile_qr_scan", "ios": "https://dc.lft.to/lastmile_qr_scan"}, "is_disabled": 0, "fusion_lat": 0.0, "lat": 38.945559333333335, "is_reserved": 0}, {"lon": -77.04247033333333, "fusion_lon": 0.0, "bike_id": "8899c623bae1868d0d05e647668a5d4a", "type": "electric_scooter", "name": "8899c623bae1868d0d05e647668a5d4a", "rental_uris": {"android": "https://dc.lft.to/lastmile_qr_scan", "ios": "https://dc.lft.to/lastmile_qr_scan"}, "is_disabled": 0, "fusion_lat": 0.0, "lat": 38.90855666666667, "is_reserved": 0}, {"lon": -77.017828, "fusion_lon": 0.0, "bike_id": "b58171b29a520005186a25cbc8f1b830", "type": "electric_scooter", "name": "b58171b29a520005186a25cbc8f1b830", "rental_uris": {"android": "https://dc.lft.to/lastmile_qr_scan", "ios": "https://dc.lft.to/lastmile_qr_scan"}, "is_disabled": 0, "fusion_lat": 0.0, "lat": 38.90392383333333, "is_reserved": 0}, {"lon": -77.00677733333333, "fusion_lon": 0.0, "bike_id": "1ef909b717683b853dc146f47e76fb0d", "type": "electric_scooter", "name": "1ef909b717683b853dc146f47e76fb0d", "rental_uris": {"android": "https://dc.lft.to/lastmile_qr_scan", "ios": "https://dc.lft.to/lastmile_qr_scan"}, "is_disabled": 0, "fusion_lat": 0.0, "lat": 38.871647333333335, "is_reserved": 0}, {"lon": -77.06008366666667, "fusion_lon": 0.0, "bike_id": "b770548c5bc5dc51cde5c0983f689a41", "type": "electric_scooter", "name": "b770548c5bc5dc51cde5c0983f689a41", "rental_uris": {"android": "https://dc.lft.to/lastmile_qr_scan", "ios": "https://dc.lft.to/lastmile_qr_scan"}, "is_disabled": 0, "fusion_lat": 0.0, "lat": 38.936343666666666, "is_reserved": 0}, {"lon": -77.0216105, "fusion_lon": 0.0, "bike_id": "46697a9e97cf7c6d5980658c245c2ab2", "type": "electric_scooter", "name": "46697a9e97cf7c6d5980658c245c2ab2", "rental_uris": {"android": "https://dc.lft.to/lastmile_qr_scan", "ios": "https://dc.lft.to/lastmile_qr_scan"}, "is_disabled": 0, "fusion_lat": 0.0, "lat": 38.92610233333333, "is_reserved": 0}, {"lon": -76.97959783333333, "fusion_lon": 0.0, "bike_id": "0c3faea6527c9e8b73e17933b4c12ad5", "type": "electric_scooter", "name": "0c3faea6527c9e8b73e17933b4c12ad5", "rental_uris": {"android": "https://dc.lft.to/lastmile_qr_scan", "ios": "https://dc.lft.to/lastmile_qr_scan"}, "is_disabled": 0, "fusion_lat": 0.0, "lat": 38.90507616666667, "is_reserved": 0}, {"lon": -77.0282945, "fusion_lon": 0.0, "bike_id": "c2ca8c791754b53cfd88b89d8299e4c2", "type": "electric_scooter", "name": "c2ca8c791754b53cfd88b89d8299e4c2", "rental_uris": {"android": "https://dc.lft.to/lastmile_qr_scan", "ios": "https://dc.lft.to/lastmile_qr_scan"}, "is_disabled": 0, "fusion_lat": 0.0, "lat": 38.90470933333334, "is_reserved": 0}, {"lon": -76.996332, "fusion_lon": 0.0, "bike_id": "9e2667b1563a04fb374b0da870e6291c", "type": "electric_scooter", "name": "9e2667b1563a04fb374b0da870e6291c", "rental_uris": {"android": "https://dc.lft.to/lastmile_qr_scan", "ios": "https://dc.lft.to/lastmile_qr_scan"}, "is_disabled": 0, "fusion_lat": 0.0, "lat": 38.90060966666667, "is_reserved": 0}, {"lon": -77.0399595, "fusion_lon": 0.0, "bike_id": "c860d9f1af74b5018c8a062403a01450", "type": "electric_scooter", "name": "c860d9f1af74b5018c8a062403a01450", "rental_uris": {"android": "https://dc.lft.to/lastmile_qr_scan", "ios": "https://dc.lft.to/lastmile_qr_scan"}, "is_disabled": 0, "fusion_lat": 0.0, "lat": 38.9244485, "is_reserved": 0}, {"lon": -76.97347716666667, "fusion_lon": 0.0, "bike_id": "a88a149981ffb2c6d4ff5d178b910b02", "type": "electric_scooter", "name": "a88a149981ffb2c6d4ff5d178b910b02", "rental_uris": {"android": "https://dc.lft.to/lastmile_qr_scan", "ios": "https://dc.lft.to/lastmile_qr_scan"}, "is_disabled": 0, "fusion_lat": 0.0, "lat": 38.86512316666666, "is_reserved": 0}, {"lon": -77.0135125, "fusion_lon": 0.0, "bike_id": "c3bf6151645e633801a859c75d282e2d", "type": "electric_scooter", "name": "c3bf6151645e633801a859c75d282e2d", "rental_uris": {"android": "https://dc.lft.to/lastmile_qr_scan", "ios": "https://dc.lft.to/lastmile_qr_scan"}, "is_disabled": 0, "fusion_lat": 0.0, "lat": 38.871581166666665, "is_reserved": 0}, {"lon": -77.03213033333333, "fusion_lon": 0.0, "bike_id": "d6cedf515eb8d27e1eb8fe8c53583776", "type": "electric_scooter", "name": "d6cedf515eb8d27e1eb8fe8c53583776", "rental_uris": {"android": "https://dc.lft.to/lastmile_qr_scan", "ios": "https://dc.lft.to/lastmile_qr_scan"}, "is_disabled": 0, "fusion_lat": 0.0, "lat": 38.914306, "is_reserved": 0}, {"lon": -77.043782, "fusion_lon": 0.0, "bike_id": "bb7b390d2fd449b9225593f69cbb2b7e", "type": "electric_scooter", "name": "bb7b390d2fd449b9225593f69cbb2b7e", "rental_uris": {"android": "https://dc.lft.to/lastmile_qr_scan", "ios": "https://dc.lft.to/lastmile_qr_scan"}, "is_disabled": 0, "fusion_lat": 0.0, "lat": 38.919140666666664, "is_reserved": 0}, {"lon": -76.984658, "fusion_lon": 0.0, "bike_id": "a27286e6c95d7e3260c7b1be4161e486", "type": "electric_scooter", "name": "a27286e6c95d7e3260c7b1be4161e486", "rental_uris": {"android": "https://dc.lft.to/lastmile_qr_scan", "ios": "https://dc.lft.to/lastmile_qr_scan"}, "is_disabled": 0, "fusion_lat": 0.0, "lat": 38.903963833333336, "is_reserved": 0}, {"lon": -77.0116505, "fusion_lon": 0.0, "bike_id": "d1ecf451fbf30f19c8c889bb77ef608b", "type": "electric_scooter", "name": "d1ecf451fbf30f19c8c889bb77ef608b", "rental_uris": {"android": "https://dc.lft.to/lastmile_qr_scan", "ios": "https://dc.lft.to/lastmile_qr_scan"}, "is_disabled": 0, "fusion_lat": 0.0, "lat": 38.9125495, "is_reserved": 0}, {"lon": -77.022842, "fusion_lon": 0.0, "bike_id": "70d2220f9fa2785ab18de0bf731d63d2", "type": "electric_scooter", "name": "70d2220f9fa2785ab18de0bf731d63d2", "rental_uris": {"android": "https://dc.lft.to/lastmile_qr_scan", "ios": "https://dc.lft.to/lastmile_qr_scan"}, "is_disabled": 0, "fusion_lat": 0.0, "lat": 38.91593533333333, "is_reserved": 0}, {"lon": -77.03644083333333, "fusion_lon": 0.0, "bike_id": "73ba591b732e05159ef2e920acb9b5c2", "type": "electric_scooter", "name": "73ba591b732e05159ef2e920acb9b5c2", "rental_uris": {"android": "https://dc.lft.to/lastmile_qr_scan", "ios": "https://dc.lft.to/lastmile_qr_scan"}, "is_disabled": 0, "fusion_lat": 0.0, "lat": 38.9181995, "is_reserved": 0}, {"lon": -77.01366883333333, "fusion_lon": 0.0, "bike_id": "03fdf69678f5139b116a690dc3c32f58", "type": "electric_scooter", "name": "03fdf69678f5139b116a690dc3c32f58", "rental_uris": {"android": "https://dc.lft.to/lastmile_qr_scan", "ios": "https://dc.lft.to/lastmile_qr_scan"}, "is_disabled": 0, "fusion_lat": 0.0, "lat": 38.91908516666667, "is_reserved": 0}, {"lon": -76.99737066666667, "fusion_lon": 0.0, "bike_id": "8ccacac39f2e9ff663976924b86b45d4", "type": "electric_bike", "name": "8ccacac39f2e9ff663976924b86b45d4", "rental_uris": {"android": "https://dc.lft.to/lastmile_qr_scan", "ios": "https://dc.lft.to/lastmile_qr_scan"}, "is_disabled": 0, "fusion_lat": 0.0, "lat": 39.0422915, "is_reserved": 0}, {"lon": -77.09674766666667, "fusion_lon": 0.0, "bike_id": "1aca0dd0682f08a50ba92a13432e7780", "type": "electric_bike", "name": "1aca0dd0682f08a50ba92a13432e7780", "rental_uris": {"android": "https://dc.lft.to/lastmile_qr_scan", "ios": "https://dc.lft.to/lastmile_qr_scan"}, "is_disabled": 0, "fusion_lat": 0.0, "lat": 38.94617866666667, "is_reserved": 0}, {"lon": -77.02592383333334, "fusion_lon": 0.0, "bike_id": "8c92de6e9558dcb06fe74c74c36cfb8e", "type": "electric_scooter", "name": "8c92de6e9558dcb06fe74c74c36cfb8e", "rental_uris": {"android": "https://dc.lft.to/lastmile_qr_scan", "ios": "https://dc.lft.to/lastmile_qr_scan"}, "is_disabled": 0, "fusion_lat": 0.0, "lat": 38.963904166666666, "is_reserved": 0}, {"lon": -77.023836, "fusion_lon": 0.0, "bike_id": "a096f01a1b5e1d29f7de43e98f534467", "type": "electric_scooter", "name": "a096f01a1b5e1d29f7de43e98f534467", "rental_uris": {"android": "https://dc.lft.to/lastmile_qr_scan", "ios": "https://dc.lft.to/lastmile_qr_scan"}, "is_disabled": 0, "fusion_lat": 0.0, "lat": 38.892237, "is_reserved": 0}, {"lon": -77.076999, "fusion_lon": 0.0, "bike_id": "49bd0e89f637ebbc64a7735c12052aa8", "type": "electric_scooter", "name": "49bd0e89f637ebbc64a7735c12052aa8", "rental_uris": {"android": "https://dc.lft.to/lastmile_qr_scan", "ios": "https://dc.lft.to/lastmile_qr_scan"}, "is_disabled": 0, "fusion_lat": 0.0, "lat": 38.931232333333334, "is_reserved": 0}, {"lon": -77.012748, "fusion_lon": 0.0, "bike_id": "c8cbab653bcd1edae2ec9ca416477be5", "type": "electric_scooter", "name": "c8cbab653bcd1edae2ec9ca416477be5", "rental_uris": {"android": "https://dc.lft.to/lastmile_qr_scan", "ios": "https://dc.lft.to/lastmile_qr_scan"}, "is_disabled": 0, "fusion_lat": 0.0, "lat": 38.873026, "is_reserved": 0}, {"lon": -76.997704, "fusion_lon": 0.0, "bike_id": "f31b9d8974676276ed22cface84a73e9", "type": "electric_scooter", "name": "f31b9d8974676276ed22cface84a73e9", "rental_uris": {"android": "https://dc.lft.to/lastmile_qr_scan", "ios": "https://dc.lft.to/lastmile_qr_scan"}, "is_disabled": 0, "fusion_lat": 0.0, "lat": 38.911121333333334, "is_reserved": 0}, {"lon": -77.01816883333333, "fusion_lon": 0.0, "bike_id": "e3e8693e64e7e12acea7c14b2d811dda", "type": "electric_scooter", "name": "e3e8693e64e7e12acea7c14b2d811dda", "rental_uris": {"android": "https://dc.lft.to/lastmile_qr_scan", "ios": "https://dc.lft.to/lastmile_qr_scan"}, "is_disabled": 0, "fusion_lat": 0.0, "lat": 38.901089166666665, "is_reserved": 0}, {"lon": -77.03917383333334, "fusion_lon": 0.0, "bike_id": "7b7e942e409f2d3c5b70a2db3ca9ebcd", "type": "electric_scooter", "name": "7b7e942e409f2d3c5b70a2db3ca9ebcd", "rental_uris": {"android": "https://dc.lft.to/lastmile_qr_scan", "ios": "https://dc.lft.to/lastmile_qr_scan"}, "is_disabled": 0, "fusion_lat": 0.0, "lat": 38.911073, "is_reserved": 0}, {"lon": -77.0385405, "fusion_lon": 0.0, "bike_id": "b45980b85d655ab889a4d0c83253eed8", "type": "electric_scooter", "name": "b45980b85d655ab889a4d0c83253eed8", "rental_uris": {"android": "https://dc.lft.to/lastmile_qr_scan", "ios": "https://dc.lft.to/lastmile_qr_scan"}, "is_disabled": 0, "fusion_lat": 0.0, "lat": 38.917664333333335, "is_reserved": 0}, {"lon": -77.05727733333333, "fusion_lon": 0.0, "bike_id": "f091bef71c0bbdc7733f863d2085b303", "type": "electric_scooter", "name": "f091bef71c0bbdc7733f863d2085b303", "rental_uris": {"android": "https://dc.lft.to/lastmile_qr_scan", "ios": "https://dc.lft.to/lastmile_qr_scan"}, "is_disabled": 0, "fusion_lat": 0.0, "lat": 38.933619666666665, "is_reserved": 0}, {"lon": -77.0177685, "fusion_lon": 0.0, "bike_id": "a6a99c167da834401969b15b392bc36d", "type": "electric_scooter", "name": "a6a99c167da834401969b15b392bc36d", "rental_uris": {"android": "https://dc.lft.to/lastmile_qr_scan", "ios": "https://dc.lft.to/lastmile_qr_scan"}, "is_disabled": 0, "fusion_lat": 0.0, "lat": 38.8871355, "is_reserved": 0}, {"lon": -76.9259205, "fusion_lon": 0.0, "bike_id": "74182562f1491289af8d0b8ccb51b251", "type": "electric_scooter", "name": "74182562f1491289af8d0b8ccb51b251", "rental_uris": {"android": "https://dc.lft.to/lastmile_qr_scan", "ios": "https://dc.lft.to/lastmile_qr_scan"}, "is_disabled": 0, "fusion_lat": 0.0, "lat": 38.893553833333335, "is_reserved": 0}, {"lon": -77.03150016666666, "fusion_lon": 0.0, "bike_id": "1c3133f2dcae04514be50cf4e6619baf", "type": "electric_scooter", "name": "1c3133f2dcae04514be50cf4e6619baf", "rental_uris": {"android": "https://dc.lft.to/lastmile_qr_scan", "ios": "https://dc.lft.to/lastmile_qr_scan"}, "is_disabled": 0, "fusion_lat": 0.0, "lat": 38.91119616666667, "is_reserved": 0}, {"lon": -77.0287865, "fusion_lon": 0.0, "bike_id": "cb6eb4f044bcdac89673fc60348ff483", "type": "electric_scooter", "name": "cb6eb4f044bcdac89673fc60348ff483", "rental_uris": {"android": "https://dc.lft.to/lastmile_qr_scan", "ios": "https://dc.lft.to/lastmile_qr_scan"}, "is_disabled": 0, "fusion_lat": 0.0, "lat": 38.91558333333333, "is_reserved": 0}, {"lon": -77.06398233333333, "fusion_lon": 0.0, "bike_id": "6849c2907e04698ae7953e96cef89469", "type": "electric_scooter", "name": "6849c2907e04698ae7953e96cef89469", "rental_uris": {"android": "https://dc.lft.to/lastmile_qr_scan", "ios": "https://dc.lft.to/lastmile_qr_scan"}, "is_disabled": 0, "fusion_lat": 0.0, "lat": 38.944153666666665, "is_reserved": 0}, {"lon": -77.02699816666667, "fusion_lon": 0.0, "bike_id": "8f7a5240a1e750df8b0b22c325fdfad3", "type": "electric_scooter", "name": "8f7a5240a1e750df8b0b22c325fdfad3", "rental_uris": {"android": "https://dc.lft.to/lastmile_qr_scan", "ios": "https://dc.lft.to/lastmile_qr_scan"}, "is_disabled": 0, "fusion_lat": 0.0, "lat": 38.908408333333334, "is_reserved": 0}, {"lon": -77.043399, "fusion_lon": 0.0, "bike_id": "87477a6d955ecf6923f3e93fa5176fcc", "type": "electric_scooter", "name": "87477a6d955ecf6923f3e93fa5176fcc", "rental_uris": {"android": "https://dc.lft.to/lastmile_qr_scan", "ios": "https://dc.lft.to/lastmile_qr_scan"}, "is_disabled": 0, "fusion_lat": 0.0, "lat": 38.90826833333333, "is_reserved": 0}, {"lon": -77.00675483333333, "fusion_lon": 0.0, "bike_id": "56b8fc3d68510ad39c1948d93a0c7b69", "type": "electric_bike", "name": "56b8fc3d68510ad39c1948d93a0c7b69", "rental_uris": {"android": "https://dc.lft.to/lastmile_qr_scan", "ios": "https://dc.lft.to/lastmile_qr_scan"}, "is_disabled": 0, "fusion_lat": 0.0, "lat": 38.94514683333333, "is_reserved": 0}, {"lon": -77.02237383333333, "fusion_lon": 0.0, "bike_id": "6865b85c9d1e9e612086aca30bc7dc58", "type": "electric_scooter", "name": "6865b85c9d1e9e612086aca30bc7dc58", "rental_uris": {"android": "https://dc.lft.to/lastmile_qr_scan", "ios": "https://dc.lft.to/lastmile_qr_scan"}, "is_disabled": 0, "fusion_lat": 0.0, "lat": 38.9221725, "is_reserved": 0}, {"lon": -77.07228683333334, "fusion_lon": 0.0, "bike_id": "17a1ed9fbd205ac7fb62cb39eed86246", "type": "electric_scooter", "name": "17a1ed9fbd205ac7fb62cb39eed86246", "rental_uris": {"android": "https://dc.lft.to/lastmile_qr_scan", "ios": "https://dc.lft.to/lastmile_qr_scan"}, "is_disabled": 0, "fusion_lat": 0.0, "lat": 38.93185016666666, "is_reserved": 0}, {"lon": -76.9997895, "fusion_lon": 0.0, "bike_id": "1e66027829ef4166ad0deefcbbba5ae3", "type": "electric_scooter", "name": "1e66027829ef4166ad0deefcbbba5ae3", "rental_uris": {"android": "https://dc.lft.to/lastmile_qr_scan", "ios": "https://dc.lft.to/lastmile_qr_scan"}, "is_disabled": 0, "fusion_lat": 0.0, "lat": 38.87913133333333, "is_reserved": 0}, {"lon": -77.04236833333333, "fusion_lon": 0.0, "bike_id": "ed80b74a2c195a7d710721bd331396ea", "type": "electric_scooter", "name": "ed80b74a2c195a7d710721bd331396ea", "rental_uris": {"android": "https://dc.lft.to/lastmile_qr_scan", "ios": "https://dc.lft.to/lastmile_qr_scan"}, "is_disabled": 0, "fusion_lat": 0.0, "lat": 38.920708833333336, "is_reserved": 0}, {"lon": -76.99863216666667, "fusion_lon": 0.0, "bike_id": "44d86feafd4cf3b431b7a423295b270a", "type": "electric_scooter", "name": "44d86feafd4cf3b431b7a423295b270a", "rental_uris": {"android": "https://dc.lft.to/lastmile_qr_scan", "ios": "https://dc.lft.to/lastmile_qr_scan"}, "is_disabled": 0, "fusion_lat": 0.0, "lat": 38.90881616666667, "is_reserved": 0}, {"lon": -77.01418366666667, "fusion_lon": 0.0, "bike_id": "e0c1fa00a54c66ea7d0aa124af90e4c9", "type": "electric_scooter", "name": "e0c1fa00a54c66ea7d0aa124af90e4c9", "rental_uris": {"android": "https://dc.lft.to/lastmile_qr_scan", "ios": "https://dc.lft.to/lastmile_qr_scan"}, "is_disabled": 0, "fusion_lat": 0.0, "lat": 38.892224, "is_reserved": 0}, {"lon": -77.027058, "fusion_lon": 0.0, "bike_id": "2d294d86d7c421cb51f614933c284c34", "type": "electric_scooter", "name": "2d294d86d7c421cb51f614933c284c34", "rental_uris": {"android": "https://dc.lft.to/lastmile_qr_scan", "ios": "https://dc.lft.to/lastmile_qr_scan"}, "is_disabled": 0, "fusion_lat": 0.0, "lat": 38.906705333333335, "is_reserved": 0}, {"lon": -76.985762, "fusion_lon": 0.0, "bike_id": "e4894aee8cace1d8761e36a1e09535b2", "type": "electric_scooter", "name": "e4894aee8cace1d8761e36a1e09535b2", "rental_uris": {"android": "https://dc.lft.to/lastmile_qr_scan", "ios": "https://dc.lft.to/lastmile_qr_scan"}, "is_disabled": 0, "fusion_lat": 0.0, "lat": 38.866830666666665, "is_reserved": 0}, {"lon": -76.9797765, "fusion_lon": 0.0, "bike_id": "7c13dc1a4640a1a7a66a28bf6e1645d2", "type": "electric_scooter", "name": "7c13dc1a4640a1a7a66a28bf6e1645d2", "rental_uris": {"android": "https://dc.lft.to/lastmile_qr_scan", "ios": "https://dc.lft.to/lastmile_qr_scan"}, "is_disabled": 0, "fusion_lat": 0.0, "lat": 38.89742416666667, "is_reserved": 0}, {"lon": -77.02708733333333, "fusion_lon": 0.0, "bike_id": "a0db86316147674e02583734dc98f00d", "type": "electric_scooter", "name": "a0db86316147674e02583734dc98f00d", "rental_uris": {"android": "https://dc.lft.to/lastmile_qr_scan", "ios": "https://dc.lft.to/lastmile_qr_scan"}, "is_disabled": 0, "fusion_lat": 0.0, "lat": 38.917198, "is_reserved": 0}, {"lon": -77.03442566666666, "fusion_lon": 0.0, "bike_id": "4471b1b75ade628a894c2a36f4b52298", "type": "electric_scooter", "name": "4471b1b75ade628a894c2a36f4b52298", "rental_uris": {"android": "https://dc.lft.to/lastmile_qr_scan", "ios": "https://dc.lft.to/lastmile_qr_scan"}, "is_disabled": 0, "fusion_lat": 0.0, "lat": 38.90829766666667, "is_reserved": 0}, {"lon": -77.081892, "fusion_lon": 0.0, "bike_id": "97dfd75a4d3b456bbca9fdda602216cf", "type": "electric_scooter", "name": "97dfd75a4d3b456bbca9fdda602216cf", "rental_uris": {"android": "https://dc.lft.to/lastmile_qr_scan", "ios": "https://dc.lft.to/lastmile_qr_scan"}, "is_disabled": 0, "fusion_lat": 0.0, "lat": 38.93553683333333, "is_reserved": 0}, {"lon": -77.04176966666667, "fusion_lon": 0.0, "bike_id": "6e2772bcdc999da4d2b6a72dc36f8d0f", "type": "electric_scooter", "name": "6e2772bcdc999da4d2b6a72dc36f8d0f", "rental_uris": {"android": "https://dc.lft.to/lastmile_qr_scan", "ios": "https://dc.lft.to/lastmile_qr_scan"}, "is_disabled": 0, "fusion_lat": 0.0, "lat": 38.91858366666666, "is_reserved": 0}, {"lon": -77.02187516666666, "fusion_lon": 0.0, "bike_id": "6bb2eee77608b4dfe09982009b090629", "type": "electric_scooter", "name": "6bb2eee77608b4dfe09982009b090629", "rental_uris": {"android": "https://dc.lft.to/lastmile_qr_scan", "ios": "https://dc.lft.to/lastmile_qr_scan"}, "is_disabled": 0, "fusion_lat": 0.0, "lat": 38.89613933333333, "is_reserved": 0}, {"lon": -77.05069583333334, "fusion_lon": 0.0, "bike_id": "ef2ac822a929dd9a82dee70a53904c4a", "type": "electric_scooter", "name": "ef2ac822a929dd9a82dee70a53904c4a", "rental_uris": {"android": "https://dc.lft.to/lastmile_qr_scan", "ios": "https://dc.lft.to/lastmile_qr_scan"}, "is_disabled": 0, "fusion_lat": 0.0, "lat": 38.925286, "is_reserved": 0}, {"lon": -77.046573, "fusion_lon": 0.0, "bike_id": "0a957a49d9db633bcb9d495fb7af423d", "type": "electric_scooter", "name": "0a957a49d9db633bcb9d495fb7af423d", "rental_uris": {"android": "https://dc.lft.to/lastmile_qr_scan", "ios": "https://dc.lft.to/lastmile_qr_scan"}, "is_disabled": 0, "fusion_lat": 0.0, "lat": 38.901341333333335, "is_reserved": 0}, {"lon": -77.03440366666666, "fusion_lon": 0.0, "bike_id": "b07544f5316bab6cf90c5b11fa0a3737", "type": "electric_scooter", "name": "b07544f5316bab6cf90c5b11fa0a3737", "rental_uris": {"android": "https://dc.lft.to/lastmile_qr_scan", "ios": "https://dc.lft.to/lastmile_qr_scan"}, "is_disabled": 0, "fusion_lat": 0.0, "lat": 38.90732966666667, "is_reserved": 0}, {"lon": -77.00912816666667, "fusion_lon": 0.0, "bike_id": "fdac964be0ce94c80fb1cdc2bf626a92", "type": "electric_scooter", "name": "fdac964be0ce94c80fb1cdc2bf626a92", "rental_uris": {"android": "https://dc.lft.to/lastmile_qr_scan", "ios": "https://dc.lft.to/lastmile_qr_scan"}, "is_disabled": 0, "fusion_lat": 0.0, "lat": 38.896346333333334, "is_reserved": 0}, {"lon": -77.05344716666667, "fusion_lon": 0.0, "bike_id": "4a8d2d436ecb57654835f0545c0875c6", "type": "electric_scooter", "name": "4a8d2d436ecb57654835f0545c0875c6", "rental_uris": {"android": "https://dc.lft.to/lastmile_qr_scan", "ios": "https://dc.lft.to/lastmile_qr_scan"}, "is_disabled": 0, "fusion_lat": 0.0, "lat": 38.90228616666667, "is_reserved": 0}, {"lon": -76.98360133333334, "fusion_lon": 0.0, "bike_id": "c9c50ba6b7fc4cc6575b23b66402e077", "type": "electric_scooter", "name": "c9c50ba6b7fc4cc6575b23b66402e077", "rental_uris": {"android": "https://dc.lft.to/lastmile_qr_scan", "ios": "https://dc.lft.to/lastmile_qr_scan"}, "is_disabled": 0, "fusion_lat": 0.0, "lat": 38.91479483333333, "is_reserved": 0}, {"lon": -77.05503433333334, "fusion_lon": 0.0, "bike_id": "da16c53cfabca4e74048374ff8d88ed1", "type": "electric_scooter", "name": "da16c53cfabca4e74048374ff8d88ed1", "rental_uris": {"android": "https://dc.lft.to/lastmile_qr_scan", "ios": "https://dc.lft.to/lastmile_qr_scan"}, "is_disabled": 0, "fusion_lat": 0.0, "lat": 38.92939833333333, "is_reserved": 0}, {"lon": -77.04157933333333, "fusion_lon": 0.0, "bike_id": "269330a0e433537541b6716b65d154a0", "type": "electric_scooter", "name": "269330a0e433537541b6716b65d154a0", "rental_uris": {"android": "https://dc.lft.to/lastmile_qr_scan", "ios": "https://dc.lft.to/lastmile_qr_scan"}, "is_disabled": 0, "fusion_lat": 0.0, "lat": 38.91948416666666, "is_reserved": 0}, {"lon": -77.01733966666667, "fusion_lon": 0.0, "bike_id": "20e17b3c03a7e05948d1dd6fbf23923d", "type": "electric_scooter", "name": "20e17b3c03a7e05948d1dd6fbf23923d", "rental_uris": {"android": "https://dc.lft.to/lastmile_qr_scan", "ios": "https://dc.lft.to/lastmile_qr_scan"}, "is_disabled": 0, "fusion_lat": 0.0, "lat": 38.9160955, "is_reserved": 0}, {"lon": -77.00071666666666, "fusion_lon": 0.0, "bike_id": "d5db06f5f3c024d44a4a6c4d098d17c7", "type": "electric_scooter", "name": "d5db06f5f3c024d44a4a6c4d098d17c7", "rental_uris": {"android": "https://dc.lft.to/lastmile_qr_scan", "ios": "https://dc.lft.to/lastmile_qr_scan"}, "is_disabled": 0, "fusion_lat": 0.0, "lat": 38.87365333333333, "is_reserved": 0}, {"lon": -77.02407983333333, "fusion_lon": 0.0, "bike_id": "ffee792065e89f5bf3d48c82fa5e6d3b", "type": "electric_scooter", "name": "ffee792065e89f5bf3d48c82fa5e6d3b", "rental_uris": {"android": "https://dc.lft.to/lastmile_qr_scan", "ios": "https://dc.lft.to/lastmile_qr_scan"}, "is_disabled": 0, "fusion_lat": 0.0, "lat": 38.905704, "is_reserved": 0}, {"lon": -77.00597016666667, "fusion_lon": 0.0, "bike_id": "f02801fe627ea5cee9ce68d48db3e4dc", "type": "electric_scooter", "name": "f02801fe627ea5cee9ce68d48db3e4dc", "rental_uris": {"android": "https://dc.lft.to/lastmile_qr_scan", "ios": "https://dc.lft.to/lastmile_qr_scan"}, "is_disabled": 0, "fusion_lat": 0.0, "lat": 38.8756045, "is_reserved": 0}, {"lon": -77.04387033333333, "fusion_lon": 0.0, "bike_id": "a094637328e6552273d4d8fe99aa64b6", "type": "electric_scooter", "name": "a094637328e6552273d4d8fe99aa64b6", "rental_uris": {"android": "https://dc.lft.to/lastmile_qr_scan", "ios": "https://dc.lft.to/lastmile_qr_scan"}, "is_disabled": 0, "fusion_lat": 0.0, "lat": 38.91037383333333, "is_reserved": 0}, {"lon": -77.01667866666666, "fusion_lon": 0.0, "bike_id": "8ca103abb4a14b9fc7173b58c2fdad0a", "type": "electric_scooter", "name": "8ca103abb4a14b9fc7173b58c2fdad0a", "rental_uris": {"android": "https://dc.lft.to/lastmile_qr_scan", "ios": "https://dc.lft.to/lastmile_qr_scan"}, "is_disabled": 0, "fusion_lat": 0.0, "lat": 38.88113516666667, "is_reserved": 0}, {"lon": -77.036329, "fusion_lon": 0.0, "bike_id": "ea8a0a94fb2d4b709e34a27b05c7c38c", "type": "electric_scooter", "name": "ea8a0a94fb2d4b709e34a27b05c7c38c", "rental_uris": {"android": "https://dc.lft.to/lastmile_qr_scan", "ios": "https://dc.lft.to/lastmile_qr_scan"}, "is_disabled": 0, "fusion_lat": 0.0, "lat": 38.92739733333333, "is_reserved": 0}, {"lon": -77.0304215, "fusion_lon": 0.0, "bike_id": "539f7420430b6e523c4de069a77be705", "type": "electric_scooter", "name": "539f7420430b6e523c4de069a77be705", "rental_uris": {"android": "https://dc.lft.to/lastmile_qr_scan", "ios": "https://dc.lft.to/lastmile_qr_scan"}, "is_disabled": 0, "fusion_lat": 0.0, "lat": 38.916153666666666, "is_reserved": 0}, {"lon": -77.03406916666667, "fusion_lon": 0.0, "bike_id": "ac068b481746a09a152e3f8309eaceeb", "type": "electric_scooter", "name": "ac068b481746a09a152e3f8309eaceeb", "rental_uris": {"android": "https://dc.lft.to/lastmile_qr_scan", "ios": "https://dc.lft.to/lastmile_qr_scan"}, "is_disabled": 0, "fusion_lat": 0.0, "lat": 38.92203333333333, "is_reserved": 0}, {"lon": -77.02302433333334, "fusion_lon": 0.0, "bike_id": "b67e999cd5a9bf976a0f78fa7c23e1b2", "type": "electric_scooter", "name": "b67e999cd5a9bf976a0f78fa7c23e1b2", "rental_uris": {"android": "https://dc.lft.to/lastmile_qr_scan", "ios": "https://dc.lft.to/lastmile_qr_scan"}, "is_disabled": 0, "fusion_lat": 0.0, "lat": 38.91705433333333, "is_reserved": 0}, {"lon": -77.03638833333333, "fusion_lon": 0.0, "bike_id": "9b198c77da01bd7c41b6a5b785376c76", "type": "electric_scooter", "name": "9b198c77da01bd7c41b6a5b785376c76", "rental_uris": {"android": "https://dc.lft.to/lastmile_qr_scan", "ios": "https://dc.lft.to/lastmile_qr_scan"}, "is_disabled": 0, "fusion_lat": 0.0, "lat": 38.9240745, "is_reserved": 0}, {"lon": -77.027162, "fusion_lon": 0.0, "bike_id": "19f8282dfdc78507d4e64c746a7da974", "type": "electric_scooter", "name": "19f8282dfdc78507d4e64c746a7da974", "rental_uris": {"android": "https://dc.lft.to/lastmile_qr_scan", "ios": "https://dc.lft.to/lastmile_qr_scan"}, "is_disabled": 0, "fusion_lat": 0.0, "lat": 38.918117333333335, "is_reserved": 0}, {"lon": -77.00380116666666, "fusion_lon": 0.0, "bike_id": "86cbadb64f7d8006eff0ff0b8164e348", "type": "electric_scooter", "name": "86cbadb64f7d8006eff0ff0b8164e348", "rental_uris": {"android": "https://dc.lft.to/lastmile_qr_scan", "ios": "https://dc.lft.to/lastmile_qr_scan"}, "is_disabled": 0, "fusion_lat": 0.0, "lat": 38.87631483333333, "is_reserved": 0}, {"lon": -77.02562766666667, "fusion_lon": 0.0, "bike_id": "f800f81352939ba95e83a82cdd1c8aaf", "type": "electric_scooter", "name": "f800f81352939ba95e83a82cdd1c8aaf", "rental_uris": {"android": "https://dc.lft.to/lastmile_qr_scan", "ios": "https://dc.lft.to/lastmile_qr_scan"}, "is_disabled": 0, "fusion_lat": 0.0, "lat": 38.9191745, "is_reserved": 0}, {"lon": -76.99755566666667, "fusion_lon": 0.0, "bike_id": "124c29db5f8b521904988829f5dd850a", "type": "electric_scooter", "name": "124c29db5f8b521904988829f5dd850a", "rental_uris": {"android": "https://dc.lft.to/lastmile_qr_scan", "ios": "https://dc.lft.to/lastmile_qr_scan"}, "is_disabled": 0, "fusion_lat": 0.0, "lat": 38.900368, "is_reserved": 0}, {"lon": -77.0021, "fusion_lon": 0.0, "bike_id": "58db65eb5d0bb5f16970da7ee1dc7d85", "type": "electric_scooter", "name": "58db65eb5d0bb5f16970da7ee1dc7d85", "rental_uris": {"android": "https://dc.lft.to/lastmile_qr_scan", "ios": "https://dc.lft.to/lastmile_qr_scan"}, "is_disabled": 0, "fusion_lat": 0.0, "lat": 38.9110185, "is_reserved": 0}, {"lon": -77.01547366666667, "fusion_lon": 0.0, "bike_id": "f5eab4fe22fc6f6b80b8f40b6759f021", "type": "electric_scooter", "name": "f5eab4fe22fc6f6b80b8f40b6759f021", "rental_uris": {"android": "https://dc.lft.to/lastmile_qr_scan", "ios": "https://dc.lft.to/lastmile_qr_scan"}, "is_disabled": 0, "fusion_lat": 0.0, "lat": 38.885747333333335, "is_reserved": 0}, {"lon": -77.00180116666667, "fusion_lon": 0.0, "bike_id": "69837f9897d8d5fef20c1f38e6d56382", "type": "electric_bike", "name": "69837f9897d8d5fef20c1f38e6d56382", "rental_uris": {"android": "https://dc.lft.to/lastmile_qr_scan", "ios": "https://dc.lft.to/lastmile_qr_scan"}, "is_disabled": 0, "fusion_lat": 0.0, "lat": 38.84461266666667, "is_reserved": 0}, {"lon": -77.01074066666666, "fusion_lon": 0.0, "bike_id": "5775a01a2a0a0f391215f26946b83238", "type": "electric_scooter", "name": "5775a01a2a0a0f391215f26946b83238", "rental_uris": {"android": "https://dc.lft.to/lastmile_qr_scan", "ios": "https://dc.lft.to/lastmile_qr_scan"}, "is_disabled": 0, "fusion_lat": 0.0, "lat": 38.9163065, "is_reserved": 0}, {"lon": -77.015601, "fusion_lon": 0.0, "bike_id": "38563a35cb23034bf57d8cf74d6d1b83", "type": "electric_scooter", "name": "38563a35cb23034bf57d8cf74d6d1b83", "rental_uris": {"android": "https://dc.lft.to/lastmile_qr_scan", "ios": "https://dc.lft.to/lastmile_qr_scan"}, "is_disabled": 0, "fusion_lat": 0.0, "lat": 38.91411766666667, "is_reserved": 0}, {"lon": -77.04305483333333, "fusion_lon": 0.0, "bike_id": "4e42981a89699b3304784780c9f1509b", "type": "electric_scooter", "name": "4e42981a89699b3304784780c9f1509b", "rental_uris": {"android": "https://dc.lft.to/lastmile_qr_scan", "ios": "https://dc.lft.to/lastmile_qr_scan"}, "is_disabled": 0, "fusion_lat": 0.0, "lat": 38.9318785, "is_reserved": 0}, {"lon": -77.04546966666666, "fusion_lon": 0.0, "bike_id": "10f1b3cbe83fa765f8dbcc61d094a870", "type": "electric_scooter", "name": "10f1b3cbe83fa765f8dbcc61d094a870", "rental_uris": {"android": "https://dc.lft.to/lastmile_qr_scan", "ios": "https://dc.lft.to/lastmile_qr_scan"}, "is_disabled": 0, "fusion_lat": 0.0, "lat": 38.89728483333333, "is_reserved": 0}, {"lon": -77.02793433333333, "fusion_lon": 0.0, "bike_id": "aaa8ef0cd0450d9464483239de09b1f6", "type": "electric_scooter", "name": "aaa8ef0cd0450d9464483239de09b1f6", "rental_uris": {"android": "https://dc.lft.to/lastmile_qr_scan", "ios": "https://dc.lft.to/lastmile_qr_scan"}, "is_disabled": 0, "fusion_lat": 0.0, "lat": 38.96041916666667, "is_reserved": 0}, {"lon": -77.07284166666666, "fusion_lon": 0.0, "bike_id": "43703e3f00ea097ecbd8ecd449d18edc", "type": "electric_scooter", "name": "43703e3f00ea097ecbd8ecd449d18edc", "rental_uris": {"android": "https://dc.lft.to/lastmile_qr_scan", "ios": "https://dc.lft.to/lastmile_qr_scan"}, "is_disabled": 0, "fusion_lat": 0.0, "lat": 38.934732333333336, "is_reserved": 0}, {"lon": -76.950991, "fusion_lon": 0.0, "bike_id": "e4c148f6c43ac7d72f32ff631697b70f", "type": "electric_scooter", "name": "e4c148f6c43ac7d72f32ff631697b70f", "rental_uris": {"android": "https://dc.lft.to/lastmile_qr_scan", "ios": "https://dc.lft.to/lastmile_qr_scan"}, "is_disabled": 0, "fusion_lat": 0.0, "lat": 38.88450183333333, "is_reserved": 0}, {"lon": -77.044958, "fusion_lon": 0.0, "bike_id": "4cb16417dc249fab4ad4cb9debb94648", "type": "electric_scooter", "name": "4cb16417dc249fab4ad4cb9debb94648", "rental_uris": {"android": "https://dc.lft.to/lastmile_qr_scan", "ios": "https://dc.lft.to/lastmile_qr_scan"}, "is_disabled": 0, "fusion_lat": 0.0, "lat": 38.899520833333334, "is_reserved": 0}, {"lon": -76.93374, "fusion_lon": 0.0, "bike_id": "c9a14704896d79b0e8548a3116b61d11", "type": "electric_scooter", "name": "c9a14704896d79b0e8548a3116b61d11", "rental_uris": {"android": "https://dc.lft.to/lastmile_qr_scan", "ios": "https://dc.lft.to/lastmile_qr_scan"}, "is_disabled": 0, "fusion_lat": 0.0, "lat": 38.899159833333336, "is_reserved": 0}, {"lon": -77.03183683333333, "fusion_lon": 0.0, "bike_id": "714a0fe894005000a484175ef7779284", "type": "electric_scooter", "name": "714a0fe894005000a484175ef7779284", "rental_uris": {"android": "https://dc.lft.to/lastmile_qr_scan", "ios": "https://dc.lft.to/lastmile_qr_scan"}, "is_disabled": 0, "fusion_lat": 0.0, "lat": 38.91760516666667, "is_reserved": 0}, {"lon": -76.9865735, "fusion_lon": 0.0, "bike_id": "b381bc1df807794846c16657846da9fb", "type": "electric_scooter", "name": "b381bc1df807794846c16657846da9fb", "rental_uris": {"android": "https://dc.lft.to/lastmile_qr_scan", "ios": "https://dc.lft.to/lastmile_qr_scan"}, "is_disabled": 0, "fusion_lat": 0.0, "lat": 38.858043333333335, "is_reserved": 0}, {"lon": -76.983797, "fusion_lon": 0.0, "bike_id": "a97d07f4572783140f24f1210620f190", "type": "electric_scooter", "name": "a97d07f4572783140f24f1210620f190", "rental_uris": {"android": "https://dc.lft.to/lastmile_qr_scan", "ios": "https://dc.lft.to/lastmile_qr_scan"}, "is_disabled": 0, "fusion_lat": 0.0, "lat": 38.90648266666667, "is_reserved": 0}, {"lon": -77.0788775, "fusion_lon": 0.0, "bike_id": "cdc519b7eee3663d4e336fb8915ba70f", "type": "electric_bike", "name": "cdc519b7eee3663d4e336fb8915ba70f", "rental_uris": {"android": "https://dc.lft.to/lastmile_qr_scan", "ios": "https://dc.lft.to/lastmile_qr_scan"}, "is_disabled": 0, "fusion_lat": 0.0, "lat": 38.84252716666667, "is_reserved": 0}, {"lon": -77.05001566666667, "fusion_lon": 0.0, "bike_id": "e44fe217db86279b6a299ef5055c1be2", "type": "electric_scooter", "name": "e44fe217db86279b6a299ef5055c1be2", "rental_uris": {"android": "https://dc.lft.to/lastmile_qr_scan", "ios": "https://dc.lft.to/lastmile_qr_scan"}, "is_disabled": 0, "fusion_lat": 0.0, "lat": 38.897528, "is_reserved": 0}, {"lon": -76.96261316666667, "fusion_lon": 0.0, "bike_id": "46b31989a7d698be7fa752ea31bcfb43", "type": "electric_bike", "name": "46b31989a7d698be7fa752ea31bcfb43", "rental_uris": {"android": "https://dc.lft.to/lastmile_qr_scan", "ios": "https://dc.lft.to/lastmile_qr_scan"}, "is_disabled": 0, "fusion_lat": 0.0, "lat": 38.882452, "is_reserved": 0}, {"lon": -76.9776945, "fusion_lon": 0.0, "bike_id": "0dbce2dc31b1853bbda7658231eaa821", "type": "electric_scooter", "name": "0dbce2dc31b1853bbda7658231eaa821", "rental_uris": {"android": "https://dc.lft.to/lastmile_qr_scan", "ios": "https://dc.lft.to/lastmile_qr_scan"}, "is_disabled": 0, "fusion_lat": 0.0, "lat": 38.92865716666667, "is_reserved": 0}, {"lon": -77.0427665, "fusion_lon": 0.0, "bike_id": "fd3af92df52fbee89899546ae2d2f778", "type": "electric_scooter", "name": "fd3af92df52fbee89899546ae2d2f778", "rental_uris": {"android": "https://dc.lft.to/lastmile_qr_scan", "ios": "https://dc.lft.to/lastmile_qr_scan"}, "is_disabled": 0, "fusion_lat": 0.0, "lat": 38.907371166666664, "is_reserved": 0}, {"lon": -77.03567133333334, "fusion_lon": 0.0, "bike_id": "c5129b7343fd010511412e82c67a57d1", "type": "electric_scooter", "name": "c5129b7343fd010511412e82c67a57d1", "rental_uris": {"android": "https://dc.lft.to/lastmile_qr_scan", "ios": "https://dc.lft.to/lastmile_qr_scan"}, "is_disabled": 0, "fusion_lat": 0.0, "lat": 38.92694783333334, "is_reserved": 0}, {"lon": -77.04689066666667, "fusion_lon": 0.0, "bike_id": "a44ba30e549eac541741c49ee4b666a1", "type": "electric_scooter", "name": "a44ba30e549eac541741c49ee4b666a1", "rental_uris": {"android": "https://dc.lft.to/lastmile_qr_scan", "ios": "https://dc.lft.to/lastmile_qr_scan"}, "is_disabled": 0, "fusion_lat": 0.0, "lat": 38.8922065, "is_reserved": 0}, {"lon": -76.9473, "fusion_lon": 0.0, "bike_id": "81bf6668d1f0e6a0dcfc6bc1f4389626", "type": "electric_scooter", "name": "81bf6668d1f0e6a0dcfc6bc1f4389626", "rental_uris": {"android": "https://dc.lft.to/lastmile_qr_scan", "ios": "https://dc.lft.to/lastmile_qr_scan"}, "is_disabled": 0, "fusion_lat": 0.0, "lat": 38.897391, "is_reserved": 0}, {"lon": -77.03866983333333, "fusion_lon": 0.0, "bike_id": "08a71806afd1e23de2996606a87d58eb", "type": "electric_scooter", "name": "08a71806afd1e23de2996606a87d58eb", "rental_uris": {"android": "https://dc.lft.to/lastmile_qr_scan", "ios": "https://dc.lft.to/lastmile_qr_scan"}, "is_disabled": 0, "fusion_lat": 0.0, "lat": 38.921462166666664, "is_reserved": 0}, {"lon": -77.03638433333333, "fusion_lon": 0.0, "bike_id": "1bd0a598393cacb6c0a7bb43c5934d79", "type": "electric_scooter", "name": "1bd0a598393cacb6c0a7bb43c5934d79", "rental_uris": {"android": "https://dc.lft.to/lastmile_qr_scan", "ios": "https://dc.lft.to/lastmile_qr_scan"}, "is_disabled": 0, "fusion_lat": 0.0, "lat": 38.91862616666667, "is_reserved": 0}, {"lon": -77.0202785, "fusion_lon": 0.0, "bike_id": "5da59026b29cc35233648586de48ab88", "type": "electric_scooter", "name": "5da59026b29cc35233648586de48ab88", "rental_uris": {"android": "https://dc.lft.to/lastmile_qr_scan", "ios": "https://dc.lft.to/lastmile_qr_scan"}, "is_disabled": 0, "fusion_lat": 0.0, "lat": 38.9017995, "is_reserved": 0}, {"lon": -77.014748, "fusion_lon": 0.0, "bike_id": "2d7ca1a4ae25ff1ffd455c9b26859842", "type": "electric_scooter", "name": "2d7ca1a4ae25ff1ffd455c9b26859842", "rental_uris": {"android": "https://dc.lft.to/lastmile_qr_scan", "ios": "https://dc.lft.to/lastmile_qr_scan"}, "is_disabled": 0, "fusion_lat": 0.0, "lat": 38.918695166666666, "is_reserved": 0}, {"lon": -77.05598133333334, "fusion_lon": 0.0, "bike_id": "3c6627a1f2f2e0bb96dcbb32c047d9fb", "type": "electric_scooter", "name": "3c6627a1f2f2e0bb96dcbb32c047d9fb", "rental_uris": {"android": "https://dc.lft.to/lastmile_qr_scan", "ios": "https://dc.lft.to/lastmile_qr_scan"}, "is_disabled": 0, "fusion_lat": 0.0, "lat": 38.936996666666666, "is_reserved": 0}, {"lon": -77.03362933333334, "fusion_lon": 0.0, "bike_id": "eecb8b792e9708c379300996065d2bd0", "type": "electric_scooter", "name": "eecb8b792e9708c379300996065d2bd0", "rental_uris": {"android": "https://dc.lft.to/lastmile_qr_scan", "ios": "https://dc.lft.to/lastmile_qr_scan"}, "is_disabled": 0, "fusion_lat": 0.0, "lat": 38.9275595, "is_reserved": 0}, {"lon": -77.03171883333333, "fusion_lon": 0.0, "bike_id": "66d7a32c145acb4ec39a9552c7eb50b6", "type": "electric_scooter", "name": "66d7a32c145acb4ec39a9552c7eb50b6", "rental_uris": {"android": "https://dc.lft.to/lastmile_qr_scan", "ios": "https://dc.lft.to/lastmile_qr_scan"}, "is_disabled": 0, "fusion_lat": 0.0, "lat": 38.9141475, "is_reserved": 0}, {"lon": -77.05230866666666, "fusion_lon": 0.0, "bike_id": "5caefc249b17a7e7f47e81405d1a9ab7", "type": "electric_scooter", "name": "5caefc249b17a7e7f47e81405d1a9ab7", "rental_uris": {"android": "https://dc.lft.to/lastmile_qr_scan", "ios": "https://dc.lft.to/lastmile_qr_scan"}, "is_disabled": 0, "fusion_lat": 0.0, "lat": 38.92444233333333, "is_reserved": 0}, {"lon": -76.98337133333334, "fusion_lon": 0.0, "bike_id": "3996bdf6ed57b471df1ef7da6b8e4152", "type": "electric_scooter", "name": "3996bdf6ed57b471df1ef7da6b8e4152", "rental_uris": {"android": "https://dc.lft.to/lastmile_qr_scan", "ios": "https://dc.lft.to/lastmile_qr_scan"}, "is_disabled": 0, "fusion_lat": 0.0, "lat": 38.86563866666667, "is_reserved": 0}, {"lon": -77.03722166666667, "fusion_lon": 0.0, "bike_id": "eb10704d1632db5601875ba17cb80f10", "type": "electric_scooter", "name": "eb10704d1632db5601875ba17cb80f10", "rental_uris": {"android": "https://dc.lft.to/lastmile_qr_scan", "ios": "https://dc.lft.to/lastmile_qr_scan"}, "is_disabled": 0, "fusion_lat": 0.0, "lat": 38.90251833333333, "is_reserved": 0}, {"lon": -77.05858666666667, "fusion_lon": 0.0, "bike_id": "c88bbf004c060f5147d9d47bf2dafa67", "type": "electric_scooter", "name": "c88bbf004c060f5147d9d47bf2dafa67", "rental_uris": {"android": "https://dc.lft.to/lastmile_qr_scan", "ios": "https://dc.lft.to/lastmile_qr_scan"}, "is_disabled": 0, "fusion_lat": 0.0, "lat": 38.93602166666667, "is_reserved": 0}, {"lon": -76.999836, "fusion_lon": 0.0, "bike_id": "0a114d6a1c5e7d5462fffc92aaa96e29", "type": "electric_scooter", "name": "0a114d6a1c5e7d5462fffc92aaa96e29", "rental_uris": {"android": "https://dc.lft.to/lastmile_qr_scan", "ios": "https://dc.lft.to/lastmile_qr_scan"}, "is_disabled": 0, "fusion_lat": 0.0, "lat": 38.874804166666664, "is_reserved": 0}, {"lon": -77.00451983333333, "fusion_lon": 0.0, "bike_id": "55b9904974dc53343ee8b7927419133a", "type": "electric_scooter", "name": "55b9904974dc53343ee8b7927419133a", "rental_uris": {"android": "https://dc.lft.to/lastmile_qr_scan", "ios": "https://dc.lft.to/lastmile_qr_scan"}, "is_disabled": 0, "fusion_lat": 0.0, "lat": 38.911722166666664, "is_reserved": 0}, {"lon": -77.0199345, "fusion_lon": 0.0, "bike_id": "82a9e9097bcc94efe0c38cb2364a305d", "type": "electric_scooter", "name": "82a9e9097bcc94efe0c38cb2364a305d", "rental_uris": {"android": "https://dc.lft.to/lastmile_qr_scan", "ios": "https://dc.lft.to/lastmile_qr_scan"}, "is_disabled": 0, "fusion_lat": 0.0, "lat": 38.90512, "is_reserved": 0}, {"lon": -77.02052116666667, "fusion_lon": 0.0, "bike_id": "d67469f83fa27978f33887717a6ee3cb", "type": "electric_scooter", "name": "d67469f83fa27978f33887717a6ee3cb", "rental_uris": {"android": "https://dc.lft.to/lastmile_qr_scan", "ios": "https://dc.lft.to/lastmile_qr_scan"}, "is_disabled": 0, "fusion_lat": 0.0, "lat": 38.92332666666667, "is_reserved": 0}, {"lon": -77.03220316666666, "fusion_lon": 0.0, "bike_id": "5961225cf02d6cf55cbff5eb20afec62", "type": "electric_scooter", "name": "5961225cf02d6cf55cbff5eb20afec62", "rental_uris": {"android": "https://dc.lft.to/lastmile_qr_scan", "ios": "https://dc.lft.to/lastmile_qr_scan"}, "is_disabled": 0, "fusion_lat": 0.0, "lat": 38.9140385, "is_reserved": 0}, {"lon": -77.013882, "fusion_lon": 0.0, "bike_id": "c16f89fc1ff387392e5f0521f845540b", "type": "electric_scooter", "name": "c16f89fc1ff387392e5f0521f845540b", "rental_uris": {"android": "https://dc.lft.to/lastmile_qr_scan", "ios": "https://dc.lft.to/lastmile_qr_scan"}, "is_disabled": 0, "fusion_lat": 0.0, "lat": 38.928420833333334, "is_reserved": 0}, {"lon": -77.031009, "fusion_lon": 0.0, "bike_id": "0c80ca20c53b3ed768188c03ad89dc9b", "type": "electric_scooter", "name": "0c80ca20c53b3ed768188c03ad89dc9b", "rental_uris": {"android": "https://dc.lft.to/lastmile_qr_scan", "ios": "https://dc.lft.to/lastmile_qr_scan"}, "is_disabled": 0, "fusion_lat": 0.0, "lat": 38.923852, "is_reserved": 0}, {"lon": -77.02716666666667, "fusion_lon": 0.0, "bike_id": "103dc54001c7ec1e419ce6efcfe92f79", "type": "electric_scooter", "name": "103dc54001c7ec1e419ce6efcfe92f79", "rental_uris": {"android": "https://dc.lft.to/lastmile_qr_scan", "ios": "https://dc.lft.to/lastmile_qr_scan"}, "is_disabled": 0, "fusion_lat": 0.0, "lat": 38.92457916666667, "is_reserved": 0}, {"lon": -76.97825616666667, "fusion_lon": 0.0, "bike_id": "7b0d80b1271fecb7c4eba38c24d64516", "type": "electric_scooter", "name": "7b0d80b1271fecb7c4eba38c24d64516", "rental_uris": {"android": "https://dc.lft.to/lastmile_qr_scan", "ios": "https://dc.lft.to/lastmile_qr_scan"}, "is_disabled": 0, "fusion_lat": 0.0, "lat": 38.89845916666667, "is_reserved": 0}, {"lon": -76.98881866666666, "fusion_lon": 0.0, "bike_id": "d9f37e7a6a97142b51b265e962925b5e", "type": "electric_scooter", "name": "d9f37e7a6a97142b51b265e962925b5e", "rental_uris": {"android": "https://dc.lft.to/lastmile_qr_scan", "ios": "https://dc.lft.to/lastmile_qr_scan"}, "is_disabled": 0, "fusion_lat": 0.0, "lat": 38.86660233333333, "is_reserved": 0}, {"lon": -77.02965583333334, "fusion_lon": 0.0, "bike_id": "98313663887c11fa94379a8fca58428c", "type": "electric_scooter", "name": "98313663887c11fa94379a8fca58428c", "rental_uris": {"android": "https://dc.lft.to/lastmile_qr_scan", "ios": "https://dc.lft.to/lastmile_qr_scan"}, "is_disabled": 0, "fusion_lat": 0.0, "lat": 38.92331333333333, "is_reserved": 0}, {"lon": -77.228925, "fusion_lon": 0.0, "bike_id": "13f8362a622f724f4b575fce10bac941", "type": "electric_bike", "name": "13f8362a622f724f4b575fce10bac941", "rental_uris": {"android": "https://dc.lft.to/lastmile_qr_scan", "ios": "https://dc.lft.to/lastmile_qr_scan"}, "is_disabled": 0, "fusion_lat": 0.0, "lat": 38.909577, "is_reserved": 0}, {"lon": -77.03273866666666, "fusion_lon": 0.0, "bike_id": "154ee92f03d1581aeb4d1a92682cf1a2", "type": "electric_scooter", "name": "154ee92f03d1581aeb4d1a92682cf1a2", "rental_uris": {"android": "https://dc.lft.to/lastmile_qr_scan", "ios": "https://dc.lft.to/lastmile_qr_scan"}, "is_disabled": 0, "fusion_lat": 0.0, "lat": 38.93768133333333, "is_reserved": 0}, {"lon": -77.033891, "fusion_lon": 0.0, "bike_id": "1e20f631885c17c59705c5fad27ab78f", "type": "electric_scooter", "name": "1e20f631885c17c59705c5fad27ab78f", "rental_uris": {"android": "https://dc.lft.to/lastmile_qr_scan", "ios": "https://dc.lft.to/lastmile_qr_scan"}, "is_disabled": 0, "fusion_lat": 0.0, "lat": 38.923584, "is_reserved": 0}, {"lon": -77.02338133333333, "fusion_lon": 0.0, "bike_id": "b00a7acbaeca5c56a983e400f2499ceb", "type": "electric_scooter", "name": "b00a7acbaeca5c56a983e400f2499ceb", "rental_uris": {"android": "https://dc.lft.to/lastmile_qr_scan", "ios": "https://dc.lft.to/lastmile_qr_scan"}, "is_disabled": 0, "fusion_lat": 0.0, "lat": 38.908502166666665, "is_reserved": 0}, {"lon": -77.03342466666666, "fusion_lon": 0.0, "bike_id": "af86c11b93c252699345b3cb0cf52c0f", "type": "electric_scooter", "name": "af86c11b93c252699345b3cb0cf52c0f", "rental_uris": {"android": "https://dc.lft.to/lastmile_qr_scan", "ios": "https://dc.lft.to/lastmile_qr_scan"}, "is_disabled": 0, "fusion_lat": 0.0, "lat": 38.9389335, "is_reserved": 0}, {"lon": -77.00710866666667, "fusion_lon": 0.0, "bike_id": "ac9078fe7d2c2565be2340c84eb689a9", "type": "electric_scooter", "name": "ac9078fe7d2c2565be2340c84eb689a9", "rental_uris": {"android": "https://dc.lft.to/lastmile_qr_scan", "ios": "https://dc.lft.to/lastmile_qr_scan"}, "is_disabled": 0, "fusion_lat": 0.0, "lat": 38.88493483333333, "is_reserved": 0}, {"lon": -77.0340445, "fusion_lon": 0.0, "bike_id": "b132859095553bf45092f83199aef3e2", "type": "electric_scooter", "name": "b132859095553bf45092f83199aef3e2", "rental_uris": {"android": "https://dc.lft.to/lastmile_qr_scan", "ios": "https://dc.lft.to/lastmile_qr_scan"}, "is_disabled": 0, "fusion_lat": 0.0, "lat": 38.900244, "is_reserved": 0}, {"lon": -77.0336545, "fusion_lon": 0.0, "bike_id": "0e1deedfa6a01341337f13cda0e9671c", "type": "electric_scooter", "name": "0e1deedfa6a01341337f13cda0e9671c", "rental_uris": {"android": "https://dc.lft.to/lastmile_qr_scan", "ios": "https://dc.lft.to/lastmile_qr_scan"}, "is_disabled": 0, "fusion_lat": 0.0, "lat": 38.89863666666667, "is_reserved": 0}, {"lon": -77.04411683333333, "fusion_lon": 0.0, "bike_id": "f85a5c059aacc6fd934d5214351fb55f", "type": "electric_scooter", "name": "f85a5c059aacc6fd934d5214351fb55f", "rental_uris": {"android": "https://dc.lft.to/lastmile_qr_scan", "ios": "https://dc.lft.to/lastmile_qr_scan"}, "is_disabled": 0, "fusion_lat": 0.0, "lat": 38.934242833333336, "is_reserved": 0}, {"lon": -76.94794366666666, "fusion_lon": 0.0, "bike_id": "f1ce8c0ce2adce0fd448a86ac1c34946", "type": "electric_scooter", "name": "f1ce8c0ce2adce0fd448a86ac1c34946", "rental_uris": {"android": "https://dc.lft.to/lastmile_qr_scan", "ios": "https://dc.lft.to/lastmile_qr_scan"}, "is_disabled": 0, "fusion_lat": 0.0, "lat": 38.89633283333333, "is_reserved": 0}, {"lon": -76.98256083333334, "fusion_lon": 0.0, "bike_id": "6bbd98b6e02d373574241a6d860ac3b7", "type": "electric_bike", "name": "6bbd98b6e02d373574241a6d860ac3b7", "rental_uris": {"android": "https://dc.lft.to/lastmile_qr_scan", "ios": "https://dc.lft.to/lastmile_qr_scan"}, "is_disabled": 0, "fusion_lat": 0.0, "lat": 38.953314166666665, "is_reserved": 0}, {"lon": -77.03853983333333, "fusion_lon": 0.0, "bike_id": "f647ff5d86db052e72b56461e8b002ca", "type": "electric_scooter", "name": "f647ff5d86db052e72b56461e8b002ca", "rental_uris": {"android": "https://dc.lft.to/lastmile_qr_scan", "ios": "https://dc.lft.to/lastmile_qr_scan"}, "is_disabled": 0, "fusion_lat": 0.0, "lat": 38.915466333333335, "is_reserved": 0}, {"lon": -77.04534766666667, "fusion_lon": 0.0, "bike_id": "d99d7df4f9275f586614bc8837fa0511", "type": "electric_scooter", "name": "d99d7df4f9275f586614bc8837fa0511", "rental_uris": {"android": "https://dc.lft.to/lastmile_qr_scan", "ios": "https://dc.lft.to/lastmile_qr_scan"}, "is_disabled": 0, "fusion_lat": 0.0, "lat": 38.934589, "is_reserved": 0}, {"lon": -77.0353875, "fusion_lon": 0.0, "bike_id": "90cbc51f52bdeaa05ff56c9b028ca0ff", "type": "electric_scooter", "name": "90cbc51f52bdeaa05ff56c9b028ca0ff", "rental_uris": {"android": "https://dc.lft.to/lastmile_qr_scan", "ios": "https://dc.lft.to/lastmile_qr_scan"}, "is_disabled": 0, "fusion_lat": 0.0, "lat": 38.924084, "is_reserved": 0}, {"lon": -77.034973, "fusion_lon": 0.0, "bike_id": "e1ac7503b1552b653095f91586573dc1", "type": "electric_scooter", "name": "e1ac7503b1552b653095f91586573dc1", "rental_uris": {"android": "https://dc.lft.to/lastmile_qr_scan", "ios": "https://dc.lft.to/lastmile_qr_scan"}, "is_disabled": 0, "fusion_lat": 0.0, "lat": 38.923134, "is_reserved": 0}, {"lon": -76.97227083333334, "fusion_lon": 0.0, "bike_id": "eaf17e328eb531f56ddcf64b54b29fc2", "type": "electric_bike", "name": "eaf17e328eb531f56ddcf64b54b29fc2", "rental_uris": {"android": "https://dc.lft.to/lastmile_qr_scan", "ios": "https://dc.lft.to/lastmile_qr_scan"}, "is_disabled": 0, "fusion_lat": 0.0, "lat": 38.90032733333334, "is_reserved": 0}, {"lon": -77.04212666666666, "fusion_lon": 0.0, "bike_id": "6ea87f61b2b0dab5e7e4669f5ea36282", "type": "electric_scooter", "name": "6ea87f61b2b0dab5e7e4669f5ea36282", "rental_uris": {"android": "https://dc.lft.to/lastmile_qr_scan", "ios": "https://dc.lft.to/lastmile_qr_scan"}, "is_disabled": 0, "fusion_lat": 0.0, "lat": 38.903923, "is_reserved": 0}, {"lon": -77.01437033333333, "fusion_lon": 0.0, "bike_id": "0564146abba028acbd11aba0639ced3e", "type": "electric_scooter", "name": "0564146abba028acbd11aba0639ced3e", "rental_uris": {"android": "https://dc.lft.to/lastmile_qr_scan", "ios": "https://dc.lft.to/lastmile_qr_scan"}, "is_disabled": 0, "fusion_lat": 0.0, "lat": 38.9131195, "is_reserved": 0}, {"lon": -77.05633633333333, "fusion_lon": 0.0, "bike_id": "4fe3f1e810477b578fa735e0a7141aeb", "type": "electric_scooter", "name": "4fe3f1e810477b578fa735e0a7141aeb", "rental_uris": {"android": "https://dc.lft.to/lastmile_qr_scan", "ios": "https://dc.lft.to/lastmile_qr_scan"}, "is_disabled": 0, "fusion_lat": 0.0, "lat": 38.92330716666667, "is_reserved": 0}, {"lon": -77.02807533333333, "fusion_lon": 0.0, "bike_id": "6038f3221dc8ef665de0aa9369552ca9", "type": "electric_scooter", "name": "6038f3221dc8ef665de0aa9369552ca9", "rental_uris": {"android": "https://dc.lft.to/lastmile_qr_scan", "ios": "https://dc.lft.to/lastmile_qr_scan"}, "is_disabled": 0, "fusion_lat": 0.0, "lat": 38.8962885, "is_reserved": 0}, {"lon": -77.04443833333333, "fusion_lon": 0.0, "bike_id": "4cb1392870bed63dbfebcb067dee922c", "type": "electric_scooter", "name": "4cb1392870bed63dbfebcb067dee922c", "rental_uris": {"android": "https://dc.lft.to/lastmile_qr_scan", "ios": "https://dc.lft.to/lastmile_qr_scan"}, "is_disabled": 0, "fusion_lat": 0.0, "lat": 38.89621916666667, "is_reserved": 0}, {"lon": -77.01389783333333, "fusion_lon": 0.0, "bike_id": "ac625b40677438eea4790a52423d8e54", "type": "electric_scooter", "name": "ac625b40677438eea4790a52423d8e54", "rental_uris": {"android": "https://dc.lft.to/lastmile_qr_scan", "ios": "https://dc.lft.to/lastmile_qr_scan"}, "is_disabled": 0, "fusion_lat": 0.0, "lat": 38.9422775, "is_reserved": 0}, {"lon": -77.0271395, "fusion_lon": 0.0, "bike_id": "00eafd4c16f215e8d05cc8784fb1f0e9", "type": "electric_scooter", "name": "00eafd4c16f215e8d05cc8784fb1f0e9", "rental_uris": {"android": "https://dc.lft.to/lastmile_qr_scan", "ios": "https://dc.lft.to/lastmile_qr_scan"}, "is_disabled": 0, "fusion_lat": 0.0, "lat": 38.90670983333333, "is_reserved": 0}, {"lon": -76.963787, "fusion_lon": 0.0, "bike_id": "510e3c39ba7d8f2b21fd86b5d17cf196", "type": "electric_bike", "name": "510e3c39ba7d8f2b21fd86b5d17cf196", "rental_uris": {"android": "https://dc.lft.to/lastmile_qr_scan", "ios": "https://dc.lft.to/lastmile_qr_scan"}, "is_disabled": 0, "fusion_lat": 0.0, "lat": 38.94900533333333, "is_reserved": 0}, {"lon": -77.02826316666666, "fusion_lon": 0.0, "bike_id": "08add628686624e9c6bbd455def61cb1", "type": "electric_scooter", "name": "08add628686624e9c6bbd455def61cb1", "rental_uris": {"android": "https://dc.lft.to/lastmile_qr_scan", "ios": "https://dc.lft.to/lastmile_qr_scan"}, "is_disabled": 0, "fusion_lat": 0.0, "lat": 38.9223135, "is_reserved": 0}, {"lon": -77.02281366666666, "fusion_lon": 0.0, "bike_id": "20efe3329a0528736fd7b858ff80c192", "type": "electric_scooter", "name": "20efe3329a0528736fd7b858ff80c192", "rental_uris": {"android": "https://dc.lft.to/lastmile_qr_scan", "ios": "https://dc.lft.to/lastmile_qr_scan"}, "is_disabled": 0, "fusion_lat": 0.0, "lat": 38.91562, "is_reserved": 0}, {"lon": -76.9541395, "fusion_lon": 0.0, "bike_id": "0d4385fe94abcfa2c992219bb50f80f4", "type": "electric_scooter", "name": "0d4385fe94abcfa2c992219bb50f80f4", "rental_uris": {"android": "https://dc.lft.to/lastmile_qr_scan", "ios": "https://dc.lft.to/lastmile_qr_scan"}, "is_disabled": 0, "fusion_lat": 0.0, "lat": 38.890021, "is_reserved": 0}, {"lon": -77.02943466666666, "fusion_lon": 0.0, "bike_id": "6fe7e2135cf74695d865ea9c4763788a", "type": "electric_scooter", "name": "6fe7e2135cf74695d865ea9c4763788a", "rental_uris": {"android": "https://dc.lft.to/lastmile_qr_scan", "ios": "https://dc.lft.to/lastmile_qr_scan"}, "is_disabled": 0, "fusion_lat": 0.0, "lat": 38.905174, "is_reserved": 0}, {"lon": -77.02352483333334, "fusion_lon": 0.0, "bike_id": "56a9fcb8cd2c8ab8d89fff394a46c334", "type": "electric_scooter", "name": "56a9fcb8cd2c8ab8d89fff394a46c334", "rental_uris": {"android": "https://dc.lft.to/lastmile_qr_scan", "ios": "https://dc.lft.to/lastmile_qr_scan"}, "is_disabled": 0, "fusion_lat": 0.0, "lat": 38.930507, "is_reserved": 0}, {"lon": -77.044712, "fusion_lon": 0.0, "bike_id": "806f5204c62e11e72b01756e76cb7917", "type": "electric_scooter", "name": "806f5204c62e11e72b01756e76cb7917", "rental_uris": {"android": "https://dc.lft.to/lastmile_qr_scan", "ios": "https://dc.lft.to/lastmile_qr_scan"}, "is_disabled": 0, "fusion_lat": 0.0, "lat": 38.90862533333333, "is_reserved": 0}, {"lon": -77.02333016666667, "fusion_lon": 0.0, "bike_id": "89f341c44d549f8c0c00d4d11738ab12", "type": "electric_scooter", "name": "89f341c44d549f8c0c00d4d11738ab12", "rental_uris": {"android": "https://dc.lft.to/lastmile_qr_scan", "ios": "https://dc.lft.to/lastmile_qr_scan"}, "is_disabled": 0, "fusion_lat": 0.0, "lat": 38.92230983333334, "is_reserved": 0}, {"lon": -77.03164116666666, "fusion_lon": 0.0, "bike_id": "3ae3e03fabb7b712d88ac579fe401c20", "type": "electric_scooter", "name": "3ae3e03fabb7b712d88ac579fe401c20", "rental_uris": {"android": "https://dc.lft.to/lastmile_qr_scan", "ios": "https://dc.lft.to/lastmile_qr_scan"}, "is_disabled": 0, "fusion_lat": 0.0, "lat": 38.920200666666666, "is_reserved": 0}, {"lon": -77.03300066666667, "fusion_lon": 0.0, "bike_id": "a8722490517cf326101544f20e7c7a7d", "type": "electric_scooter", "name": "a8722490517cf326101544f20e7c7a7d", "rental_uris": {"android": "https://dc.lft.to/lastmile_qr_scan", "ios": "https://dc.lft.to/lastmile_qr_scan"}, "is_disabled": 0, "fusion_lat": 0.0, "lat": 38.92445283333333, "is_reserved": 0}, {"lon": -77.04222466666667, "fusion_lon": 0.0, "bike_id": "c7c435f820e714232efcf3143c0c1fc1", "type": "electric_scooter", "name": "c7c435f820e714232efcf3143c0c1fc1", "rental_uris": {"android": "https://dc.lft.to/lastmile_qr_scan", "ios": "https://dc.lft.to/lastmile_qr_scan"}, "is_disabled": 0, "fusion_lat": 0.0, "lat": 38.923098, "is_reserved": 0}, {"lon": -77.04835483333333, "fusion_lon": 0.0, "bike_id": "b8a4d215aa7ff93f821a5935f4f53684", "type": "electric_scooter", "name": "b8a4d215aa7ff93f821a5935f4f53684", "rental_uris": {"android": "https://dc.lft.to/lastmile_qr_scan", "ios": "https://dc.lft.to/lastmile_qr_scan"}, "is_disabled": 0, "fusion_lat": 0.0, "lat": 38.91846133333333, "is_reserved": 0}, {"lon": -77.03788566666667, "fusion_lon": 0.0, "bike_id": "c91734b00192c8478d38f33b60bca8d4", "type": "electric_bike", "name": "c91734b00192c8478d38f33b60bca8d4", "rental_uris": {"android": "https://dc.lft.to/lastmile_qr_scan", "ios": "https://dc.lft.to/lastmile_qr_scan"}, "is_disabled": 0, "fusion_lat": 0.0, "lat": 38.99684033333333, "is_reserved": 0}, {"lon": -77.03172916666666, "fusion_lon": 0.0, "bike_id": "d9ab37fa828e9a36c14306cf7a7986e8", "type": "electric_scooter", "name": "d9ab37fa828e9a36c14306cf7a7986e8", "rental_uris": {"android": "https://dc.lft.to/lastmile_qr_scan", "ios": "https://dc.lft.to/lastmile_qr_scan"}, "is_disabled": 0, "fusion_lat": 0.0, "lat": 38.896200666666665, "is_reserved": 0}, {"lon": -77.04342483333333, "fusion_lon": 0.0, "bike_id": "717a0fa534d713109f0de8b9eac994d0", "type": "electric_scooter", "name": "717a0fa534d713109f0de8b9eac994d0", "rental_uris": {"android": "https://dc.lft.to/lastmile_qr_scan", "ios": "https://dc.lft.to/lastmile_qr_scan"}, "is_disabled": 0, "fusion_lat": 0.0, "lat": 38.90805566666667, "is_reserved": 0}, {"lon": -77.0243665, "fusion_lon": 0.0, "bike_id": "ef53110432807c9ed4441448aa92aee3", "type": "electric_scooter", "name": "ef53110432807c9ed4441448aa92aee3", "rental_uris": {"android": "https://dc.lft.to/lastmile_qr_scan", "ios": "https://dc.lft.to/lastmile_qr_scan"}, "is_disabled": 0, "fusion_lat": 0.0, "lat": 38.92061783333333, "is_reserved": 0}, {"lon": -77.0419565, "fusion_lon": 0.0, "bike_id": "edb340aa0567428a2116cdf3fb71ed38", "type": "electric_scooter", "name": "edb340aa0567428a2116cdf3fb71ed38", "rental_uris": {"android": "https://dc.lft.to/lastmile_qr_scan", "ios": "https://dc.lft.to/lastmile_qr_scan"}, "is_disabled": 0, "fusion_lat": 0.0, "lat": 38.926157833333335, "is_reserved": 0}, {"lon": -77.03050716666667, "fusion_lon": 0.0, "bike_id": "54f0bee3c95e5e988e4e2f19e50ffa2b", "type": "electric_scooter", "name": "54f0bee3c95e5e988e4e2f19e50ffa2b", "rental_uris": {"android": "https://dc.lft.to/lastmile_qr_scan", "ios": "https://dc.lft.to/lastmile_qr_scan"}, "is_disabled": 0, "fusion_lat": 0.0, "lat": 38.916873333333335, "is_reserved": 0}, {"lon": -77.0092875, "fusion_lon": 0.0, "bike_id": "066d3f6c2ac70734392b66274d87719d", "type": "electric_scooter", "name": "066d3f6c2ac70734392b66274d87719d", "rental_uris": {"android": "https://dc.lft.to/lastmile_qr_scan", "ios": "https://dc.lft.to/lastmile_qr_scan"}, "is_disabled": 0, "fusion_lat": 0.0, "lat": 38.8960615, "is_reserved": 0}, {"lon": -76.93735933333333, "fusion_lon": 0.0, "bike_id": "cd962850dcb336c691c41daa56e4fc50", "type": "electric_scooter", "name": "cd962850dcb336c691c41daa56e4fc50", "rental_uris": {"android": "https://dc.lft.to/lastmile_qr_scan", "ios": "https://dc.lft.to/lastmile_qr_scan"}, "is_disabled": 0, "fusion_lat": 0.0, "lat": 38.890150166666665, "is_reserved": 0}, {"lon": -77.02531166666667, "fusion_lon": 0.0, "bike_id": "7f8841cb2905f360cbdf38bf510a44ec", "type": "electric_scooter", "name": "7f8841cb2905f360cbdf38bf510a44ec", "rental_uris": {"android": "https://dc.lft.to/lastmile_qr_scan", "ios": "https://dc.lft.to/lastmile_qr_scan"}, "is_disabled": 0, "fusion_lat": 0.0, "lat": 38.91850866666667, "is_reserved": 0}, {"lon": -77.02801933333333, "fusion_lon": 0.0, "bike_id": "33f5da4f006e13aac79512ba832f9eb6", "type": "electric_scooter", "name": "33f5da4f006e13aac79512ba832f9eb6", "rental_uris": {"android": "https://dc.lft.to/lastmile_qr_scan", "ios": "https://dc.lft.to/lastmile_qr_scan"}, "is_disabled": 0, "fusion_lat": 0.0, "lat": 38.898836, "is_reserved": 0}, {"lon": -76.9949595, "fusion_lon": 0.0, "bike_id": "03d7ff13691a0158621d15adc989318a", "type": "electric_scooter", "name": "03d7ff13691a0158621d15adc989318a", "rental_uris": {"android": "https://dc.lft.to/lastmile_qr_scan", "ios": "https://dc.lft.to/lastmile_qr_scan"}, "is_disabled": 0, "fusion_lat": 0.0, "lat": 38.8624545, "is_reserved": 0}, {"lon": -76.96115433333334, "fusion_lon": 0.0, "bike_id": "b76e880d4a32e9f22b87f71ad20aa91d", "type": "electric_scooter", "name": "b76e880d4a32e9f22b87f71ad20aa91d", "rental_uris": {"android": "https://dc.lft.to/lastmile_qr_scan", "ios": "https://dc.lft.to/lastmile_qr_scan"}, "is_disabled": 0, "fusion_lat": 0.0, "lat": 38.88432483333333, "is_reserved": 0}, {"lon": -77.035902, "fusion_lon": 0.0, "bike_id": "8cb09dd9f490a597a46ded6bb5b7274f", "type": "electric_scooter", "name": "8cb09dd9f490a597a46ded6bb5b7274f", "rental_uris": {"android": "https://dc.lft.to/lastmile_qr_scan", "ios": "https://dc.lft.to/lastmile_qr_scan"}, "is_disabled": 0, "fusion_lat": 0.0, "lat": 38.9314445, "is_reserved": 0}, {"lon": -77.0487075, "fusion_lon": 0.0, "bike_id": "009d12cd340d3941766844b75da0843b", "type": "electric_scooter", "name": "009d12cd340d3941766844b75da0843b", "rental_uris": {"android": "https://dc.lft.to/lastmile_qr_scan", "ios": "https://dc.lft.to/lastmile_qr_scan"}, "is_disabled": 0, "fusion_lat": 0.0, "lat": 38.909739, "is_reserved": 0}, {"lon": -77.01790716666666, "fusion_lon": 0.0, "bike_id": "049d7ee311e237b899847581b304a71a", "type": "electric_scooter", "name": "049d7ee311e237b899847581b304a71a", "rental_uris": {"android": "https://dc.lft.to/lastmile_qr_scan", "ios": "https://dc.lft.to/lastmile_qr_scan"}, "is_disabled": 0, "fusion_lat": 0.0, "lat": 38.9203265, "is_reserved": 0}, {"lon": -77.0308265, "fusion_lon": 0.0, "bike_id": "9384a39391c2680ae56ba5d492f4ddb4", "type": "electric_scooter", "name": "9384a39391c2680ae56ba5d492f4ddb4", "rental_uris": {"android": "https://dc.lft.to/lastmile_qr_scan", "ios": "https://dc.lft.to/lastmile_qr_scan"}, "is_disabled": 0, "fusion_lat": 0.0, "lat": 38.92868, "is_reserved": 0}, {"lon": -77.0142805, "fusion_lon": 0.0, "bike_id": "dc9c199678a0cc7744e985b084ea9163", "type": "electric_bike", "name": "dc9c199678a0cc7744e985b084ea9163", "rental_uris": {"android": "https://dc.lft.to/lastmile_qr_scan", "ios": "https://dc.lft.to/lastmile_qr_scan"}, "is_disabled": 0, "fusion_lat": 0.0, "lat": 38.972166666666666, "is_reserved": 0}, {"lon": -76.98183383333334, "fusion_lon": 0.0, "bike_id": "81b9ca68c332b6cecbd076abaa436583", "type": "electric_scooter", "name": "81b9ca68c332b6cecbd076abaa436583", "rental_uris": {"android": "https://dc.lft.to/lastmile_qr_scan", "ios": "https://dc.lft.to/lastmile_qr_scan"}, "is_disabled": 0, "fusion_lat": 0.0, "lat": 38.895811333333334, "is_reserved": 0}, {"lon": -77.02138466666666, "fusion_lon": 0.0, "bike_id": "ab1c4ff8c18051ae37695763c2a52dd2", "type": "electric_scooter", "name": "ab1c4ff8c18051ae37695763c2a52dd2", "rental_uris": {"android": "https://dc.lft.to/lastmile_qr_scan", "ios": "https://dc.lft.to/lastmile_qr_scan"}, "is_disabled": 0, "fusion_lat": 0.0, "lat": 38.8774225, "is_reserved": 0}, {"lon": -77.03166733333333, "fusion_lon": 0.0, "bike_id": "347af5e7e059450dbceb737917ec97ae", "type": "electric_scooter", "name": "347af5e7e059450dbceb737917ec97ae", "rental_uris": {"android": "https://dc.lft.to/lastmile_qr_scan", "ios": "https://dc.lft.to/lastmile_qr_scan"}, "is_disabled": 0, "fusion_lat": 0.0, "lat": 38.893766, "is_reserved": 0}, {"lon": -77.01152783333333, "fusion_lon": 0.0, "bike_id": "22c3a1698ffce2f9b6bad966f6daabef", "type": "electric_scooter", "name": "22c3a1698ffce2f9b6bad966f6daabef", "rental_uris": {"android": "https://dc.lft.to/lastmile_qr_scan", "ios": "https://dc.lft.to/lastmile_qr_scan"}, "is_disabled": 0, "fusion_lat": 0.0, "lat": 38.90010783333334, "is_reserved": 0}, {"lon": -77.12657033333333, "fusion_lon": 0.0, "bike_id": "f557c4d6c34a21d298e3cab849638c96", "type": "electric_bike", "name": "f557c4d6c34a21d298e3cab849638c96", "rental_uris": {"android": "https://dc.lft.to/lastmile_qr_scan", "ios": "https://dc.lft.to/lastmile_qr_scan"}, "is_disabled": 0, "fusion_lat": 0.0, "lat": 38.815099000000004, "is_reserved": 0}, {"lon": -76.985446, "fusion_lon": 0.0, "bike_id": "ac4bc27b375d26c21ce29d5d73d0a604", "type": "electric_scooter", "name": "ac4bc27b375d26c21ce29d5d73d0a604", "rental_uris": {"android": "https://dc.lft.to/lastmile_qr_scan", "ios": "https://dc.lft.to/lastmile_qr_scan"}, "is_disabled": 0, "fusion_lat": 0.0, "lat": 38.86688316666667, "is_reserved": 0}, {"lon": -77.0318045, "fusion_lon": 0.0, "bike_id": "ba95692a25b01ce0bec82c7402eac635", "type": "electric_scooter", "name": "ba95692a25b01ce0bec82c7402eac635", "rental_uris": {"android": "https://dc.lft.to/lastmile_qr_scan", "ios": "https://dc.lft.to/lastmile_qr_scan"}, "is_disabled": 0, "fusion_lat": 0.0, "lat": 38.915645833333336, "is_reserved": 0}, {"lon": -77.020881, "fusion_lon": 0.0, "bike_id": "b37467c5a2642615372cf3b0873151f9", "type": "electric_scooter", "name": "b37467c5a2642615372cf3b0873151f9", "rental_uris": {"android": "https://dc.lft.to/lastmile_qr_scan", "ios": "https://dc.lft.to/lastmile_qr_scan"}, "is_disabled": 0, "fusion_lat": 0.0, "lat": 38.927061, "is_reserved": 0}, {"lon": -76.99248233333333, "fusion_lon": 0.0, "bike_id": "b80b2d3faafb8350d03ca5d5b7e52bda", "type": "electric_bike", "name": "b80b2d3faafb8350d03ca5d5b7e52bda", "rental_uris": {"android": "https://dc.lft.to/lastmile_qr_scan", "ios": "https://dc.lft.to/lastmile_qr_scan"}, "is_disabled": 0, "fusion_lat": 0.0, "lat": 38.794688666666666, "is_reserved": 0}, {"lon": -77.07699116666667, "fusion_lon": 0.0, "bike_id": "52144d3428bda85a048155028345d59c", "type": "electric_scooter", "name": "52144d3428bda85a048155028345d59c", "rental_uris": {"android": "https://dc.lft.to/lastmile_qr_scan", "ios": "https://dc.lft.to/lastmile_qr_scan"}, "is_disabled": 0, "fusion_lat": 0.0, "lat": 38.943739666666666, "is_reserved": 0}, {"lon": -77.02227333333333, "fusion_lon": 0.0, "bike_id": "903db61486a4fb2d2f8a5374e07d2941", "type": "electric_scooter", "name": "903db61486a4fb2d2f8a5374e07d2941", "rental_uris": {"android": "https://dc.lft.to/lastmile_qr_scan", "ios": "https://dc.lft.to/lastmile_qr_scan"}, "is_disabled": 0, "fusion_lat": 0.0, "lat": 38.924707, "is_reserved": 0}, {"lon": -77.03423733333334, "fusion_lon": 0.0, "bike_id": "62f68b61dfa8fd96f5254b6efc12b9df", "type": "electric_scooter", "name": "62f68b61dfa8fd96f5254b6efc12b9df", "rental_uris": {"android": "https://dc.lft.to/lastmile_qr_scan", "ios": "https://dc.lft.to/lastmile_qr_scan"}, "is_disabled": 0, "fusion_lat": 0.0, "lat": 38.903674, "is_reserved": 0}, {"lon": -77.024897, "fusion_lon": 0.0, "bike_id": "6d8cd80eb02505ea59913c0bd78410dd", "type": "electric_scooter", "name": "6d8cd80eb02505ea59913c0bd78410dd", "rental_uris": {"android": "https://dc.lft.to/lastmile_qr_scan", "ios": "https://dc.lft.to/lastmile_qr_scan"}, "is_disabled": 0, "fusion_lat": 0.0, "lat": 38.941849833333336, "is_reserved": 0}, {"lon": -77.024085, "fusion_lon": 0.0, "bike_id": "42b66619d9d75fa911cc4154101baa8b", "type": "electric_scooter", "name": "42b66619d9d75fa911cc4154101baa8b", "rental_uris": {"android": "https://dc.lft.to/lastmile_qr_scan", "ios": "https://dc.lft.to/lastmile_qr_scan"}, "is_disabled": 0, "fusion_lat": 0.0, "lat": 38.9369585, "is_reserved": 0}, {"lon": -76.9877265, "fusion_lon": 0.0, "bike_id": "3584d1d0a4e8371d4b9d733424e710b1", "type": "electric_scooter", "name": "3584d1d0a4e8371d4b9d733424e710b1", "rental_uris": {"android": "https://dc.lft.to/lastmile_qr_scan", "ios": "https://dc.lft.to/lastmile_qr_scan"}, "is_disabled": 0, "fusion_lat": 0.0, "lat": 38.900119833333335, "is_reserved": 0}, {"lon": -76.99778083333334, "fusion_lon": 0.0, "bike_id": "665c26ee64307d7b7a58a729ddd90e60", "type": "electric_scooter", "name": "665c26ee64307d7b7a58a729ddd90e60", "rental_uris": {"android": "https://dc.lft.to/lastmile_qr_scan", "ios": "https://dc.lft.to/lastmile_qr_scan"}, "is_disabled": 0, "fusion_lat": 0.0, "lat": 38.8443765, "is_reserved": 0}, {"lon": -77.0464855, "fusion_lon": 0.0, "bike_id": "93faec5cc96d6930a961bfecb9f7d14d", "type": "electric_scooter", "name": "93faec5cc96d6930a961bfecb9f7d14d", "rental_uris": {"android": "https://dc.lft.to/lastmile_qr_scan", "ios": "https://dc.lft.to/lastmile_qr_scan"}, "is_disabled": 0, "fusion_lat": 0.0, "lat": 38.89884333333333, "is_reserved": 0}, {"lon": -77.02475033333333, "fusion_lon": 0.0, "bike_id": "59d1f07d85d8ed984aaa688adcf96ae7", "type": "electric_scooter", "name": "59d1f07d85d8ed984aaa688adcf96ae7", "rental_uris": {"android": "https://dc.lft.to/lastmile_qr_scan", "ios": "https://dc.lft.to/lastmile_qr_scan"}, "is_disabled": 0, "fusion_lat": 0.0, "lat": 38.930971, "is_reserved": 0}, {"lon": -77.04183666666667, "fusion_lon": 0.0, "bike_id": "057e515f18eeb63ba17a7459e1546bd1", "type": "electric_scooter", "name": "057e515f18eeb63ba17a7459e1546bd1", "rental_uris": {"android": "https://dc.lft.to/lastmile_qr_scan", "ios": "https://dc.lft.to/lastmile_qr_scan"}, "is_disabled": 0, "fusion_lat": 0.0, "lat": 38.919043, "is_reserved": 0}, {"lon": -77.00066716666667, "fusion_lon": 0.0, "bike_id": "7bbf939c16f0e6f851d51e6e87dfbfdc", "type": "electric_scooter", "name": "7bbf939c16f0e6f851d51e6e87dfbfdc", "rental_uris": {"android": "https://dc.lft.to/lastmile_qr_scan", "ios": "https://dc.lft.to/lastmile_qr_scan"}, "is_disabled": 0, "fusion_lat": 0.0, "lat": 38.838880333333336, "is_reserved": 0}, {"lon": -77.069494, "fusion_lon": 0.0, "bike_id": "2ccbdbfe2fcd96515cfe2184ccde8d02", "type": "electric_bike", "name": "2ccbdbfe2fcd96515cfe2184ccde8d02", "rental_uris": {"android": "https://dc.lft.to/lastmile_qr_scan", "ios": "https://dc.lft.to/lastmile_qr_scan"}, "is_disabled": 0, "fusion_lat": 0.0, "lat": 38.9952945, "is_reserved": 0}, {"lon": -77.02708416666667, "fusion_lon": 0.0, "bike_id": "2fa3202d8d0ea18a936d11f34f1f34e2", "type": "electric_scooter", "name": "2fa3202d8d0ea18a936d11f34f1f34e2", "rental_uris": {"android": "https://dc.lft.to/lastmile_qr_scan", "ios": "https://dc.lft.to/lastmile_qr_scan"}, "is_disabled": 0, "fusion_lat": 0.0, "lat": 38.91717083333333, "is_reserved": 0}, {"lon": -77.04253433333334, "fusion_lon": 0.0, "bike_id": "9c4e4e6b2f05a7d9d38db0f2577d434a", "type": "electric_scooter", "name": "9c4e4e6b2f05a7d9d38db0f2577d434a", "rental_uris": {"android": "https://dc.lft.to/lastmile_qr_scan", "ios": "https://dc.lft.to/lastmile_qr_scan"}, "is_disabled": 0, "fusion_lat": 0.0, "lat": 38.922463, "is_reserved": 0}, {"lon": -77.02976116666666, "fusion_lon": 0.0, "bike_id": "c0de9049777e9425b4a751a77a0833ae", "type": "electric_scooter", "name": "c0de9049777e9425b4a751a77a0833ae", "rental_uris": {"android": "https://dc.lft.to/lastmile_qr_scan", "ios": "https://dc.lft.to/lastmile_qr_scan"}, "is_disabled": 0, "fusion_lat": 0.0, "lat": 38.91783183333333, "is_reserved": 0}, {"lon": -76.93400266666667, "fusion_lon": 0.0, "bike_id": "d88b9bd9c9ff70aecb61bea377e8b4ef", "type": "electric_scooter", "name": "d88b9bd9c9ff70aecb61bea377e8b4ef", "rental_uris": {"android": "https://dc.lft.to/lastmile_qr_scan", "ios": "https://dc.lft.to/lastmile_qr_scan"}, "is_disabled": 0, "fusion_lat": 0.0, "lat": 38.89897916666666, "is_reserved": 0}, {"lon": -77.03442616666666, "fusion_lon": 0.0, "bike_id": "cd18587b67f92af484e6374feac9c789", "type": "electric_scooter", "name": "cd18587b67f92af484e6374feac9c789", "rental_uris": {"android": "https://dc.lft.to/lastmile_qr_scan", "ios": "https://dc.lft.to/lastmile_qr_scan"}, "is_disabled": 0, "fusion_lat": 0.0, "lat": 38.9098015, "is_reserved": 0}, {"lon": -77.02822833333333, "fusion_lon": 0.0, "bike_id": "c3d187a45eb1241372284f8965dbe157", "type": "electric_scooter", "name": "c3d187a45eb1241372284f8965dbe157", "rental_uris": {"android": "https://dc.lft.to/lastmile_qr_scan", "ios": "https://dc.lft.to/lastmile_qr_scan"}, "is_disabled": 0, "fusion_lat": 0.0, "lat": 38.930648833333336, "is_reserved": 0}, {"lon": -76.98698533333334, "fusion_lon": 0.0, "bike_id": "ffa47c372c2e9c82d0ebf976d97c6cc8", "type": "electric_scooter", "name": "ffa47c372c2e9c82d0ebf976d97c6cc8", "rental_uris": {"android": "https://dc.lft.to/lastmile_qr_scan", "ios": "https://dc.lft.to/lastmile_qr_scan"}, "is_disabled": 0, "fusion_lat": 0.0, "lat": 38.8672045, "is_reserved": 0}, {"lon": -77.002857, "fusion_lon": 0.0, "bike_id": "1b707fd50d0089f0d4e0cb1bdb0fbb44", "type": "electric_scooter", "name": "1b707fd50d0089f0d4e0cb1bdb0fbb44", "rental_uris": {"android": "https://dc.lft.to/lastmile_qr_scan", "ios": "https://dc.lft.to/lastmile_qr_scan"}, "is_disabled": 0, "fusion_lat": 0.0, "lat": 38.87720816666667, "is_reserved": 0}, {"lon": -76.98191316666667, "fusion_lon": 0.0, "bike_id": "e6e76ef7ec96f1c44e1a8f85b4cb57fd", "type": "electric_scooter", "name": "e6e76ef7ec96f1c44e1a8f85b4cb57fd", "rental_uris": {"android": "https://dc.lft.to/lastmile_qr_scan", "ios": "https://dc.lft.to/lastmile_qr_scan"}, "is_disabled": 0, "fusion_lat": 0.0, "lat": 38.86207383333333, "is_reserved": 0}, {"lon": -77.044203, "fusion_lon": 0.0, "bike_id": "e0e5463bc118f8363631d6bd8c2a7a77", "type": "electric_scooter", "name": "e0e5463bc118f8363631d6bd8c2a7a77", "rental_uris": {"android": "https://dc.lft.to/lastmile_qr_scan", "ios": "https://dc.lft.to/lastmile_qr_scan"}, "is_disabled": 0, "fusion_lat": 0.0, "lat": 38.90234566666667, "is_reserved": 0}, {"lon": -77.03833016666667, "fusion_lon": 0.0, "bike_id": "c7237e9164c7a0c5fdee5f55c509ae8a", "type": "electric_scooter", "name": "c7237e9164c7a0c5fdee5f55c509ae8a", "rental_uris": {"android": "https://dc.lft.to/lastmile_qr_scan", "ios": "https://dc.lft.to/lastmile_qr_scan"}, "is_disabled": 0, "fusion_lat": 0.0, "lat": 38.90488333333333, "is_reserved": 0}, {"lon": -77.03189866666666, "fusion_lon": 0.0, "bike_id": "fcc8b1ee4d77f46804136c48fd3081b7", "type": "electric_scooter", "name": "fcc8b1ee4d77f46804136c48fd3081b7", "rental_uris": {"android": "https://dc.lft.to/lastmile_qr_scan", "ios": "https://dc.lft.to/lastmile_qr_scan"}, "is_disabled": 0, "fusion_lat": 0.0, "lat": 38.918446333333335, "is_reserved": 0}, {"lon": -77.03498466666667, "fusion_lon": 0.0, "bike_id": "40965920421d8ac386fe6858dc430b45", "type": "electric_scooter", "name": "40965920421d8ac386fe6858dc430b45", "rental_uris": {"android": "https://dc.lft.to/lastmile_qr_scan", "ios": "https://dc.lft.to/lastmile_qr_scan"}, "is_disabled": 0, "fusion_lat": 0.0, "lat": 38.923273333333334, "is_reserved": 0}, {"lon": -77.0221045, "fusion_lon": 0.0, "bike_id": "9b705da3a4d79bd33e8d548293371a25", "type": "electric_scooter", "name": "9b705da3a4d79bd33e8d548293371a25", "rental_uris": {"android": "https://dc.lft.to/lastmile_qr_scan", "ios": "https://dc.lft.to/lastmile_qr_scan"}, "is_disabled": 0, "fusion_lat": 0.0, "lat": 38.915510166666664, "is_reserved": 0}, {"lon": -77.04610466666666, "fusion_lon": 0.0, "bike_id": "fc6b77fd744addde843886ac77d7ef0c", "type": "electric_scooter", "name": "fc6b77fd744addde843886ac77d7ef0c", "rental_uris": {"android": "https://dc.lft.to/lastmile_qr_scan", "ios": "https://dc.lft.to/lastmile_qr_scan"}, "is_disabled": 0, "fusion_lat": 0.0, "lat": 38.902686833333334, "is_reserved": 0}, {"lon": -76.98685483333334, "fusion_lon": 0.0, "bike_id": "e41781007a58257f3ea090a8791639b8", "type": "electric_scooter", "name": "e41781007a58257f3ea090a8791639b8", "rental_uris": {"android": "https://dc.lft.to/lastmile_qr_scan", "ios": "https://dc.lft.to/lastmile_qr_scan"}, "is_disabled": 0, "fusion_lat": 0.0, "lat": 38.91292216666667, "is_reserved": 0}, {"lon": -77.04809933333334, "fusion_lon": 0.0, "bike_id": "ec6bcb4ed42cc04d5062635e9c2c54f4", "type": "electric_scooter", "name": "ec6bcb4ed42cc04d5062635e9c2c54f4", "rental_uris": {"android": "https://dc.lft.to/lastmile_qr_scan", "ios": "https://dc.lft.to/lastmile_qr_scan"}, "is_disabled": 0, "fusion_lat": 0.0, "lat": 38.896096166666666, "is_reserved": 0}, {"lon": -76.9856115, "fusion_lon": 0.0, "bike_id": "fe0add2e2dc75e7b149e326ce90f40d9", "type": "electric_scooter", "name": "fe0add2e2dc75e7b149e326ce90f40d9", "rental_uris": {"android": "https://dc.lft.to/lastmile_qr_scan", "ios": "https://dc.lft.to/lastmile_qr_scan"}, "is_disabled": 0, "fusion_lat": 0.0, "lat": 38.88352416666667, "is_reserved": 0}, {"lon": -77.0280185, "fusion_lon": 0.0, "bike_id": "8ef905dafc699855de13af16513867be", "type": "electric_scooter", "name": "8ef905dafc699855de13af16513867be", "rental_uris": {"android": "https://dc.lft.to/lastmile_qr_scan", "ios": "https://dc.lft.to/lastmile_qr_scan"}, "is_disabled": 0, "fusion_lat": 0.0, "lat": 38.8988445, "is_reserved": 0}, {"lon": -77.05021166666667, "fusion_lon": 0.0, "bike_id": "1700141ad84723caeb5a386ab1d04df2", "type": "electric_scooter", "name": "1700141ad84723caeb5a386ab1d04df2", "rental_uris": {"android": "https://dc.lft.to/lastmile_qr_scan", "ios": "https://dc.lft.to/lastmile_qr_scan"}, "is_disabled": 0, "fusion_lat": 0.0, "lat": 38.8979235, "is_reserved": 0}, {"lon": -77.03243783333333, "fusion_lon": 0.0, "bike_id": "5934cee7ef53e05b92a681d78f2c4ff2", "type": "electric_scooter", "name": "5934cee7ef53e05b92a681d78f2c4ff2", "rental_uris": {"android": "https://dc.lft.to/lastmile_qr_scan", "ios": "https://dc.lft.to/lastmile_qr_scan"}, "is_disabled": 0, "fusion_lat": 0.0, "lat": 38.923922166666664, "is_reserved": 0}, {"lon": -77.0228455, "fusion_lon": 0.0, "bike_id": "3855423c34aa9aaebd3d078fa3ef0ea2", "type": "electric_scooter", "name": "3855423c34aa9aaebd3d078fa3ef0ea2", "rental_uris": {"android": "https://dc.lft.to/lastmile_qr_scan", "ios": "https://dc.lft.to/lastmile_qr_scan"}, "is_disabled": 0, "fusion_lat": 0.0, "lat": 38.917874, "is_reserved": 0}, {"lon": -77.05741633333334, "fusion_lon": 0.0, "bike_id": "c92600dbf452c28f8fe3ba1e7d5878f3", "type": "electric_scooter", "name": "c92600dbf452c28f8fe3ba1e7d5878f3", "rental_uris": {"android": "https://dc.lft.to/lastmile_qr_scan", "ios": "https://dc.lft.to/lastmile_qr_scan"}, "is_disabled": 0, "fusion_lat": 0.0, "lat": 38.9339025, "is_reserved": 0}, {"lon": -77.02476733333333, "fusion_lon": 0.0, "bike_id": "c42ba33c48b042234c36d724b5b0a731", "type": "electric_scooter", "name": "c42ba33c48b042234c36d724b5b0a731", "rental_uris": {"android": "https://dc.lft.to/lastmile_qr_scan", "ios": "https://dc.lft.to/lastmile_qr_scan"}, "is_disabled": 0, "fusion_lat": 0.0, "lat": 38.9310205, "is_reserved": 0}, {"lon": -77.03188133333333, "fusion_lon": 0.0, "bike_id": "f41786dcfcfdeee0140ecf6152e8d134", "type": "electric_scooter", "name": "f41786dcfcfdeee0140ecf6152e8d134", "rental_uris": {"android": "https://dc.lft.to/lastmile_qr_scan", "ios": "https://dc.lft.to/lastmile_qr_scan"}, "is_disabled": 0, "fusion_lat": 0.0, "lat": 38.909917166666666, "is_reserved": 0}, {"lon": -76.9960075, "fusion_lon": 0.0, "bike_id": "5f085e11a0c0c3daacdd0c27fc84167f", "type": "electric_scooter", "name": "5f085e11a0c0c3daacdd0c27fc84167f", "rental_uris": {"android": "https://dc.lft.to/lastmile_qr_scan", "ios": "https://dc.lft.to/lastmile_qr_scan"}, "is_disabled": 0, "fusion_lat": 0.0, "lat": 38.85688716666667, "is_reserved": 0}, {"lon": -77.02347016666667, "fusion_lon": 0.0, "bike_id": "c4c168d7928075121d001098f01097af", "type": "electric_scooter", "name": "c4c168d7928075121d001098f01097af", "rental_uris": {"android": "https://dc.lft.to/lastmile_qr_scan", "ios": "https://dc.lft.to/lastmile_qr_scan"}, "is_disabled": 0, "fusion_lat": 0.0, "lat": 38.8939135, "is_reserved": 0}, {"lon": -76.93368766666667, "fusion_lon": 0.0, "bike_id": "2090beae1c8e66516c0e7ff73d86bd71", "type": "electric_scooter", "name": "2090beae1c8e66516c0e7ff73d86bd71", "rental_uris": {"android": "https://dc.lft.to/lastmile_qr_scan", "ios": "https://dc.lft.to/lastmile_qr_scan"}, "is_disabled": 0, "fusion_lat": 0.0, "lat": 38.89902416666666, "is_reserved": 0}, {"lon": -77.00460433333333, "fusion_lon": 0.0, "bike_id": "34e98ee97f785c9c66e4cbaa6005823b", "type": "electric_bike", "name": "34e98ee97f785c9c66e4cbaa6005823b", "rental_uris": {"android": "https://dc.lft.to/lastmile_qr_scan", "ios": "https://dc.lft.to/lastmile_qr_scan"}, "is_disabled": 0, "fusion_lat": 0.0, "lat": 38.91197733333333, "is_reserved": 0}, {"lon": -77.00796033333333, "fusion_lon": 0.0, "bike_id": "5112b1c0e448b65d1efd0488b5be41a8", "type": "electric_scooter", "name": "5112b1c0e448b65d1efd0488b5be41a8", "rental_uris": {"android": "https://dc.lft.to/lastmile_qr_scan", "ios": "https://dc.lft.to/lastmile_qr_scan"}, "is_disabled": 0, "fusion_lat": 0.0, "lat": 38.90738483333333, "is_reserved": 0}, {"lon": -76.98089883333333, "fusion_lon": 0.0, "bike_id": "8485f78a0da8668817ac2e0980ce3ee6", "type": "electric_scooter", "name": "8485f78a0da8668817ac2e0980ce3ee6", "rental_uris": {"android": "https://dc.lft.to/lastmile_qr_scan", "ios": "https://dc.lft.to/lastmile_qr_scan"}, "is_disabled": 0, "fusion_lat": 0.0, "lat": 38.922447, "is_reserved": 0}, {"lon": -77.032657, "fusion_lon": 0.0, "bike_id": "a5d6b35d5599b079d128bf3db4394f93", "type": "electric_scooter", "name": "a5d6b35d5599b079d128bf3db4394f93", "rental_uris": {"android": "https://dc.lft.to/lastmile_qr_scan", "ios": "https://dc.lft.to/lastmile_qr_scan"}, "is_disabled": 0, "fusion_lat": 0.0, "lat": 38.90163033333333, "is_reserved": 0}, {"lon": -76.9950095, "fusion_lon": 0.0, "bike_id": "5379bbfbec4c92fe126f192dae38ad26", "type": "electric_scooter", "name": "5379bbfbec4c92fe126f192dae38ad26", "rental_uris": {"android": "https://dc.lft.to/lastmile_qr_scan", "ios": "https://dc.lft.to/lastmile_qr_scan"}, "is_disabled": 0, "fusion_lat": 0.0, "lat": 38.909830166666666, "is_reserved": 0}, {"lon": -77.03381766666666, "fusion_lon": 0.0, "bike_id": "6788837cc52137b49b80b28c5a86cb79", "type": "electric_scooter", "name": "6788837cc52137b49b80b28c5a86cb79", "rental_uris": {"android": "https://dc.lft.to/lastmile_qr_scan", "ios": "https://dc.lft.to/lastmile_qr_scan"}, "is_disabled": 0, "fusion_lat": 0.0, "lat": 38.92163816666667, "is_reserved": 0}, {"lon": -77.034385, "fusion_lon": 0.0, "bike_id": "e09a5f5d3b728c3c5f6e623e7570b6b8", "type": "electric_scooter", "name": "e09a5f5d3b728c3c5f6e623e7570b6b8", "rental_uris": {"android": "https://dc.lft.to/lastmile_qr_scan", "ios": "https://dc.lft.to/lastmile_qr_scan"}, "is_disabled": 0, "fusion_lat": 0.0, "lat": 38.902714333333336, "is_reserved": 0}, {"lon": -77.04332866666667, "fusion_lon": 0.0, "bike_id": "2e43062fa007b163c2e1dec7674723c8", "type": "electric_scooter", "name": "2e43062fa007b163c2e1dec7674723c8", "rental_uris": {"android": "https://dc.lft.to/lastmile_qr_scan", "ios": "https://dc.lft.to/lastmile_qr_scan"}, "is_disabled": 0, "fusion_lat": 0.0, "lat": 38.90407483333333, "is_reserved": 0}, {"lon": -77.02746166666667, "fusion_lon": 0.0, "bike_id": "6deefb73dedde1a49381e046a3d0b6aa", "type": "electric_scooter", "name": "6deefb73dedde1a49381e046a3d0b6aa", "rental_uris": {"android": "https://dc.lft.to/lastmile_qr_scan", "ios": "https://dc.lft.to/lastmile_qr_scan"}, "is_disabled": 0, "fusion_lat": 0.0, "lat": 38.9523385, "is_reserved": 0},