{"data": {"bikes": [{"rental_uris": {"ios": "https://dc.lft.to/lastmile_qr_scan", "android": "https://dc.lft.to/lastmile_qr_scan"}, "type": "electric_scooter", "name": "6ac846ba36f5bef59ad7f274ce715713", "is_reserved": 0, "lon": -77.021541, "is_disabled": 0, "fusion_lat": 0.0, "lat": 38.887473666666665, "bike_id": "6ac846ba36f5bef59ad7f274ce715713", "fusion_lon": 0.0}, {"rental_uris": {"ios": "https://dc.lft.to/lastmile_qr_scan", "android": "https://dc.lft.to/lastmile_qr_scan"}, "type": "electric_scooter", "name": "3b9c2ae471292b483e41ebd4893aad26", "is_reserved": 0, "lon": -77.04168, "is_disabled": 0, "fusion_lat": 0.0, "lat": 38.919398, "bike_id": "3b9c2ae471292b483e41ebd4893aad26", "fusion_lon": 0.0}, {"rental_uris": {"ios": "https://dc.lft.to/lastmile_qr_scan", "android": "https://dc.lft.to/lastmile_qr_scan"}, "type": "electric_scooter", "name": "e713bedeb9fbb5b70407ba15d23eaf2e", "is_reserved": 0, "lon": -77.00305566666667, "is_disabled": 0, "fusion_lat": 0.0, "lat": 38.907236, "bike_id": "e713bedeb9fbb5b70407ba15d23eaf2e", "fusion_lon": 0.0}, {"rental_uris": {"ios": "https://dc.lft.to/lastmile_qr_scan", "android": "https://dc.lft.to/lastmile_qr_scan"}, "type": "electric_scooter", "name": "b33b7dd3ef70030dc385dccf9141b669", "is_reserved": 0, "lon": -77.04865916666667, "is_disabled": 0, "fusion_lat": 0.0, "lat": 38.91263333333333, "bike_id": "b33b7dd3ef70030dc385dccf9141b669", "fusion_lon": 0.0}, {"rental_uris": {"ios": "https://dc.lft.to/lastmile_qr_scan", "android": "https://dc.lft.to/lastmile_qr_scan"}, "type": "electric_bike", "name": "e0b551a4bffe4064c419bd9448810f1e", "is_reserved": 0, "lon": -76.99443416666666, "is_disabled": 0, "fusion_lat": 0.0, "lat": 38.831065, "bike_id": "e0b551a4bffe4064c419bd9448810f1e", "fusion_lon": 0.0}, {"rental_uris": {"ios": "https://dc.lft.to/lastmile_qr_scan", "android": "https://dc.lft.to/lastmile_qr_scan"}, "type": "electric_scooter", "name": "eb40c62039a8b7f132f337a9ac1457cd", "is_reserved": 0, "lon": -77.00245316666667, "is_disabled": 0, "fusion_lat": 0.0, "lat": 38.90057266666667, "bike_id": "eb40c62039a8b7f132f337a9ac1457cd", "fusion_lon": 0.0}, {"rental_uris": {"ios": "https://dc.lft.to/lastmile_qr_scan", "android": "https://dc.lft.to/lastmile_qr_scan"}, "type": "electric_scooter", "name": "7509ac7f2ce8a5962515061b2b9929de", "is_reserved": 0, "lon": -77.020491, "is_disabled": 0, "fusion_lat": 0.0, "lat": 38.92925, "bike_id": "7509ac7f2ce8a5962515061b2b9929de", "fusion_lon": 0.0}, {"rental_uris": {"ios": "https://dc.lft.to/lastmile_qr_scan", "android": "https://dc.lft.to/lastmile_qr_scan"}, "type": "electric_scooter", "name": "5948e9da1d3e7af44b295c2e260408f3", "is_reserved": 0, "lon": -77.02531733333333, "is_disabled": 0, "fusion_lat": 0.0, "lat": 38.9453655, "bike_id": "5948e9da1d3e7af44b295c2e260408f3", "fusion_lon": 0.0}, {"rental_uris": {"ios": "https://dc.lft.to/lastmile_qr_scan", "android": "https://dc.lft.to/lastmile_qr_scan"}, "type": "electric_scooter", "name": "70cda7ae8ea81d7d711542c7efa546e8", "is_reserved": 0, "lon": -76.93372966666666, "is_disabled": 0, "fusion_lat": 0.0, "lat": 38.898717500000004, "bike_id": "70cda7ae8ea81d7d711542c7efa546e8", "fusion_lon": 0.0}, {"rental_uris": {"ios": "https://dc.lft.to/lastmile_qr_scan", "android": "https://dc.lft.to/lastmile_qr_scan"}, "type": "electric_scooter", "name": "5ce980f51683af3d987261f7b474e447", "is_reserved": 0, "lon": -77.0346345, "is_disabled": 0, "fusion_lat": 0.0, "lat": 38.91184483333333, "bike_id": "5ce980f51683af3d987261f7b474e447", "fusion_lon": 0.0}, {"rental_uris": {"ios": "https://dc.lft.to/lastmile_qr_scan", "android": "https://dc.lft.to/lastmile_qr_scan"}, "type": "electric_scooter", "name": "7e8f14d72711e84bacb6356fb49c900c", "is_reserved": 0, "lon": -77.04274966666667, "is_disabled": 0, "fusion_lat": 0.0, "lat": 38.908276, "bike_id": "7e8f14d72711e84bacb6356fb49c900c", "fusion_lon": 0.0}, {"rental_uris": {"ios": "https://dc.lft.to/lastmile_qr_scan", "android": "https://dc.lft.to/lastmile_qr_scan"}, "type": "electric_scooter", "name": "4ee1dbe46a5eee12319e304b028cb9a1", "is_reserved": 0, "lon": -76.98899216666666, "is_disabled": 0, "fusion_lat": 0.0, "lat": 38.90656283333333, "bike_id": "4ee1dbe46a5eee12319e304b028cb9a1", "fusion_lon": 0.0}, {"rental_uris": {"ios": "https://dc.lft.to/lastmile_qr_scan", "android": "https://dc.lft.to/lastmile_qr_scan"}, "type": "electric_scooter", "name": "7268cabf6280afa7c21cce85673c2f1c", "is_reserved": 0, "lon": -77.0338795, "is_disabled": 0, "fusion_lat": 0.0, "lat": 38.92875166666666, "bike_id": "7268cabf6280afa7c21cce85673c2f1c", "fusion_lon": 0.0}, {"rental_uris": {"ios": "https://dc.lft.to/lastmile_qr_scan", "android": "https://dc.lft.to/lastmile_qr_scan"}, "type": "electric_scooter", "name": "8664d186af008cb49d417e7fc5732614", "is_reserved": 0, "lon": -77.04229183333334, "is_disabled": 0, "fusion_lat": 0.0, "lat": 38.921348, "bike_id": "8664d186af008cb49d417e7fc5732614", "fusion_lon": 0.0}, {"rental_uris": {"ios": "https://dc.lft.to/lastmile_qr_scan", "android": "https://dc.lft.to/lastmile_qr_scan"}, "type": "electric_bike", "name": "bb58c04ea31a2159c5e81b672a731a9c", "is_reserved": 0, "lon": -77.00404483333334, "is_disabled": 0, "fusion_lat": 0.0, "lat": 38.92124066666667, "bike_id": "bb58c04ea31a2159c5e81b672a731a9c", "fusion_lon": 0.0}, {"rental_uris": {"ios": "https://dc.lft.to/lastmile_qr_scan", "android": "https://dc.lft.to/lastmile_qr_scan"}, "type": "electric_bike", "name": "98a2d294ba20525c86d0104487c2c5b3", "is_reserved": 0, "lon": -77.02421666666666, "is_disabled": 0, "fusion_lat": 0.0, "lat": 38.949115666666664, "bike_id": "98a2d294ba20525c86d0104487c2c5b3", "fusion_lon": 0.0}, {"rental_uris": {"ios": "https://dc.lft.to/lastmile_qr_scan", "android": "https://dc.lft.to/lastmile_qr_scan"}, "type": "electric_scooter", "name": "25168f3256dc0bc7242c40d1c3d6efaf", "is_reserved": 0, "lon": -77.00476483333334, "is_disabled": 0, "fusion_lat": 0.0, "lat": 38.87452783333333, "bike_id": "25168f3256dc0bc7242c40d1c3d6efaf", "fusion_lon": 0.0}, {"rental_uris": {"ios": "https://dc.lft.to/lastmile_qr_scan", "android": "https://dc.lft.to/lastmile_qr_scan"}, "type": "electric_bike", "name": "c98cd4ea010836689b3762bbf9d1a241", "is_reserved": 0, "lon": -76.9806045, "is_disabled": 0, "fusion_lat": 0.0, "lat": 38.972560666666666, "bike_id": "c98cd4ea010836689b3762bbf9d1a241", "fusion_lon": 0.0}, {"rental_uris": {"ios": "https://dc.lft.to/lastmile_qr_scan", "android": "https://dc.lft.to/lastmile_qr_scan"}, "type": "electric_scooter", "name": "e80be821be512ed49d819864efc163a2", "is_reserved": 0, "lon": -77.02382, "is_disabled": 0, "fusion_lat": 0.0, "lat": 38.9173245, "bike_id": "e80be821be512ed49d819864efc163a2", "fusion_lon": 0.0}, {"rental_uris": {"ios": "https://dc.lft.to/lastmile_qr_scan", "android": "https://dc.lft.to/lastmile_qr_scan"}, "type": "electric_scooter", "name": "3e37960d38756cf2b5c059a9b8fb6f59", "is_reserved": 0, "lon": -77.036731, "is_disabled": 0, "fusion_lat": 0.0, "lat": 38.939252333333336, "bike_id": "3e37960d38756cf2b5c059a9b8fb6f59", "fusion_lon": 0.0}, {"rental_uris": {"ios": "https://dc.lft.to/lastmile_qr_scan", "android": "https://dc.lft.to/lastmile_qr_scan"}, "type": "electric_scooter", "name": "b7553e836875db8000fbf37f273524ec", "is_reserved": 0, "lon": -77.03988433333333, "is_disabled": 0, "fusion_lat": 0.0, "lat": 38.93403216666667, "bike_id": "b7553e836875db8000fbf37f273524ec", "fusion_lon": 0.0}, {"rental_uris": {"ios": "https://dc.lft.to/lastmile_qr_scan", "android": "https://dc.lft.to/lastmile_qr_scan"}, "type": "electric_scooter", "name": "e27191c85c4d6e0e287884b9158710a7", "is_reserved": 0, "lon": -76.99866066666667, "is_disabled": 0, "fusion_lat": 0.0, "lat": 38.90719816666667, "bike_id": "e27191c85c4d6e0e287884b9158710a7", "fusion_lon": 0.0}, {"rental_uris": {"ios": "https://dc.lft.to/lastmile_qr_scan", "android": "https://dc.lft.to/lastmile_qr_scan"}, "type": "electric_scooter", "name": "c83d8f3bfde3c8907fc19cf2b2714561", "is_reserved": 0, "lon": -77.03978366666666, "is_disabled": 0, "fusion_lat": 0.0, "lat": 38.89225233333333, "bike_id": "c83d8f3bfde3c8907fc19cf2b2714561", "fusion_lon": 0.0}, {"rental_uris": {"ios": "https://dc.lft.to/lastmile_qr_scan", "android": "https://dc.lft.to/lastmile_qr_scan"}, "type": "electric_scooter", "name": "1e49aa471e2b96be86f8e27f7eba04e5", "is_reserved": 0, "lon": -77.024074, "is_disabled": 0, "fusion_lat": 0.0, "lat": 38.945111, "bike_id": "1e49aa471e2b96be86f8e27f7eba04e5", "fusion_lon": 0.0}, {"rental_uris": {"ios": "https://dc.lft.to/lastmile_qr_scan", "android": "https://dc.lft.to/lastmile_qr_scan"}, "type": "electric_bike", "name": "1ad2419fa64458d63980cb522237ee24", "is_reserved": 0, "lon": -77.02447483333333, "is_disabled": 0, "fusion_lat": 0.0, "lat": 38.957351, "bike_id": "1ad2419fa64458d63980cb522237ee24", "fusion_lon": 0.0}, {"rental_uris": {"ios": "https://dc.lft.to/lastmile_qr_scan", "android": "https://dc.lft.to/lastmile_qr_scan"}, "type": "electric_scooter", "name": "ca0caa18a6c094b5b91e24ba312a3e6b", "is_reserved": 0, "lon": -77.0319595, "is_disabled": 0, "fusion_lat": 0.0, "lat": 38.915727, "bike_id": "ca0caa18a6c094b5b91e24ba312a3e6b", "fusion_lon": 0.0}, {"rental_uris": {"ios": "https://dc.lft.to/lastmile_qr_scan", "android": "https://dc.lft.to/lastmile_qr_scan"}, "type": "electric_scooter", "name": "18880eaa723ac5d7995002e0ed58c335", "is_reserved": 0, "lon": -77.01389666666667, "is_disabled": 0, "fusion_lat": 0.0, "lat": 38.910993500000004, "bike_id": "18880eaa723ac5d7995002e0ed58c335", "fusion_lon": 0.0}, {"rental_uris": {"ios": "https://dc.lft.to/lastmile_qr_scan", "android": "https://dc.lft.to/lastmile_qr_scan"}, "type": "electric_scooter", "name": "6db85281fb530771a22260322a2e3e48", "is_reserved": 0, "lon": -77.037778, "is_disabled": 0, "fusion_lat": 0.0, "lat": 38.903462166666664, "bike_id": "6db85281fb530771a22260322a2e3e48", "fusion_lon": 0.0}, {"rental_uris": {"ios": "https://dc.lft.to/lastmile_qr_scan", "android": "https://dc.lft.to/lastmile_qr_scan"}, "type": "electric_scooter", "name": "a19fe2b9ccad5aa3e91e5dc250f8ef6a", "is_reserved": 0, "lon": -77.0331845, "is_disabled": 0, "fusion_lat": 0.0, "lat": 38.90006916666667, "bike_id": "a19fe2b9ccad5aa3e91e5dc250f8ef6a", "fusion_lon": 0.0}, {"rental_uris": {"ios": "https://dc.lft.to/lastmile_qr_scan", "android": "https://dc.lft.to/lastmile_qr_scan"}, "type": "electric_bike", "name": "5328c1a1416f8c0d5ded11fcec5e1f31", "is_reserved": 0, "lon": -76.971373, "is_disabled": 0, "fusion_lat": 0.0, "lat": 38.9235535, "bike_id": "5328c1a1416f8c0d5ded11fcec5e1f31", "fusion_lon": 0.0}, {"rental_uris": {"ios": "https://dc.lft.to/lastmile_qr_scan", "android": "https://dc.lft.to/lastmile_qr_scan"}, "type": "electric_scooter", "name": "667bd5938e6184364dd57b1f2f7db0a4", "is_reserved": 0, "lon": -76.98800916666667, "is_disabled": 0, "fusion_lat": 0.0, "lat": 38.893601, "bike_id": "667bd5938e6184364dd57b1f2f7db0a4", "fusion_lon": 0.0}, {"rental_uris": {"ios": "https://dc.lft.to/lastmile_qr_scan", "android": "https://dc.lft.to/lastmile_qr_scan"}, "type": "electric_bike", "name": "b8e44dd9e57de6500abd5280199aa8e8", "is_reserved": 0, "lon": -76.95247666666667, "is_disabled": 0, "fusion_lat": 0.0, "lat": 38.9069965, "bike_id": "b8e44dd9e57de6500abd5280199aa8e8", "fusion_lon": 0.0}, {"rental_uris": {"ios": "https://dc.lft.to/lastmile_qr_scan", "android": "https://dc.lft.to/lastmile_qr_scan"}, "type": "electric_scooter", "name": "4bbc98b609622b2d584b3f292149408e", "is_reserved": 0, "lon": -76.931858, "is_disabled": 0, "fusion_lat": 0.0, "lat": 38.898768833333335, "bike_id": "4bbc98b609622b2d584b3f292149408e", "fusion_lon": 0.0}, {"rental_uris": {"ios": "https://dc.lft.to/lastmile_qr_scan", "android": "https://dc.lft.to/lastmile_qr_scan"}, "type": "electric_scooter", "name": "489aaf16ab702a5bff40461a744726c9", "is_reserved": 0, "lon": -77.03818183333334, "is_disabled": 0, "fusion_lat": 0.0, "lat": 38.931179, "bike_id": "489aaf16ab702a5bff40461a744726c9", "fusion_lon": 0.0}, {"rental_uris": {"ios": "https://dc.lft.to/lastmile_qr_scan", "android": "https://dc.lft.to/lastmile_qr_scan"}, "type": "electric_scooter", "name": "66b188fd3001661dcb01489fe6aecd6d", "is_reserved": 0, "lon": -76.97647916666666, "is_disabled": 0, "fusion_lat": 0.0, "lat": 38.88752, "bike_id": "66b188fd3001661dcb01489fe6aecd6d", "fusion_lon": 0.0}, {"rental_uris": {"ios": "https://dc.lft.to/lastmile_qr_scan", "android": "https://dc.lft.to/lastmile_qr_scan"}, "type": "electric_scooter", "name": "f83c97bef8ab1daf1e174a38fa9dbff5", "is_reserved": 0, "lon": -77.00627633333333, "is_disabled": 0, "fusion_lat": 0.0, "lat": 38.871739833333336, "bike_id": "f83c97bef8ab1daf1e174a38fa9dbff5", "fusion_lon": 0.0}, {"rental_uris": {"ios": "https://dc.lft.to/lastmile_qr_scan", "android": "https://dc.lft.to/lastmile_qr_scan"}, "type": "electric_scooter", "name": "a80226bd014d0d4cb36abfbd83b50fcc", "is_reserved": 0, "lon": -77.06372116666667, "is_disabled": 0, "fusion_lat": 0.0, "lat": 38.935598166666665, "bike_id": "a80226bd014d0d4cb36abfbd83b50fcc", "fusion_lon": 0.0}, {"rental_uris": {"ios": "https://dc.lft.to/lastmile_qr_scan", "android": "https://dc.lft.to/lastmile_qr_scan"}, "type": "electric_bike", "name": "e49472ecc75acb4e0fb06ebdec6c4f73", "is_reserved": 0, "lon": -77.12645983333333, "is_disabled": 0, "fusion_lat": 0.0, "lat": 38.81908833333333, "bike_id": "e49472ecc75acb4e0fb06ebdec6c4f73", "fusion_lon": 0.0}, {"rental_uris": {"ios": "https://dc.lft.to/lastmile_qr_scan", "android": "https://dc.lft.to/lastmile_qr_scan"}, "type": "electric_scooter", "name": "d8701cb87a593fcf37218b1239a40c50", "is_reserved": 0, "lon": -77.03585383333333, "is_disabled": 0, "fusion_lat": 0.0, "lat": 38.927860333333335, "bike_id": "d8701cb87a593fcf37218b1239a40c50", "fusion_lon": 0.0}, {"rental_uris": {"ios": "https://dc.lft.to/lastmile_qr_scan", "android": "https://dc.lft.to/lastmile_qr_scan"}, "type": "electric_scooter", "name": "ace2e9165b424507963112f5303fc90a", "is_reserved": 0, "lon": -77.04487416666667, "is_disabled": 0, "fusion_lat": 0.0, "lat": 38.91602816666666, "bike_id": "ace2e9165b424507963112f5303fc90a", "fusion_lon": 0.0}, {"rental_uris": {"ios": "https://dc.lft.to/lastmile_qr_scan", "android": "https://dc.lft.to/lastmile_qr_scan"}, "type": "electric_scooter", "name": "b4a877a15a518cded01fc8ebe97e2a15", "is_reserved": 0, "lon": -77.02298516666667, "is_disabled": 0, "fusion_lat": 0.0, "lat": 38.8984785, "bike_id": "b4a877a15a518cded01fc8ebe97e2a15", "fusion_lon": 0.0}, {"rental_uris": {"ios": "https://dc.lft.to/lastmile_qr_scan", "android": "https://dc.lft.to/lastmile_qr_scan"}, "type": "electric_scooter", "name": "5d228affd623e14d7b5f42611a08c8da", "is_reserved": 0, "lon": -77.03176816666667, "is_disabled": 0, "fusion_lat": 0.0, "lat": 38.9291585, "bike_id": "5d228affd623e14d7b5f42611a08c8da", "fusion_lon": 0.0}, {"rental_uris": {"ios": "https://dc.lft.to/lastmile_qr_scan", "android": "https://dc.lft.to/lastmile_qr_scan"}, "type": "electric_scooter", "name": "9bb09343b971787f2017ad139fca5009", "is_reserved": 0, "lon": -77.00421033333333, "is_disabled": 0, "fusion_lat": 0.0, "lat": 38.87759883333333, "bike_id": "9bb09343b971787f2017ad139fca5009", "fusion_lon": 0.0}, {"rental_uris": {"ios": "https://dc.lft.to/lastmile_qr_scan", "android": "https://dc.lft.to/lastmile_qr_scan"}, "type": "electric_scooter", "name": "ca3f8b87eed0fdfffa50810ca4b776b5", "is_reserved": 0, "lon": -76.985342, "is_disabled": 0, "fusion_lat": 0.0, "lat": 38.85854966666667, "bike_id": "ca3f8b87eed0fdfffa50810ca4b776b5", "fusion_lon": 0.0}, {"rental_uris": {"ios": "https://dc.lft.to/lastmile_qr_scan", "android": "https://dc.lft.to/lastmile_qr_scan"}, "type": "electric_scooter", "name": "fa6a8d8c2e2c17946e6d6d9048ee69e8", "is_reserved": 0, "lon": -77.04528483333333, "is_disabled": 0, "fusion_lat": 0.0, "lat": 38.911064333333336, "bike_id": "fa6a8d8c2e2c17946e6d6d9048ee69e8", "fusion_lon": 0.0}, {"rental_uris": {"ios": "https://dc.lft.to/lastmile_qr_scan", "android": "https://dc.lft.to/lastmile_qr_scan"}, "type": "electric_scooter", "name": "9547589eb7a8f7e0c4372fea586a875e", "is_reserved": 0, "lon": -77.002179, "is_disabled": 0, "fusion_lat": 0.0, "lat": 38.89454383333333, "bike_id": "9547589eb7a8f7e0c4372fea586a875e", "fusion_lon": 0.0}, {"rental_uris": {"ios": "https://dc.lft.to/lastmile_qr_scan", "android": "https://dc.lft.to/lastmile_qr_scan"}, "type": "electric_scooter", "name": "4af0959d08dc6bd1297866834e8a971d", "is_reserved": 0, "lon": -77.03168766666667, "is_disabled": 0, "fusion_lat": 0.0, "lat": 38.8943195, "bike_id": "4af0959d08dc6bd1297866834e8a971d", "fusion_lon": 0.0}, {"rental_uris": {"ios": "https://dc.lft.to/lastmile_qr_scan", "android": "https://dc.lft.to/lastmile_qr_scan"}, "type": "electric_bike", "name": "909162d920ea37ea46a416fb59d9ed12", "is_reserved": 0, "lon": -76.97304966666667, "is_disabled": 0, "fusion_lat": 0.0, "lat": 38.864954, "bike_id": "909162d920ea37ea46a416fb59d9ed12", "fusion_lon": 0.0}, {"rental_uris": {"ios": "https://dc.lft.to/lastmile_qr_scan", "android": "https://dc.lft.to/lastmile_qr_scan"}, "type": "electric_scooter", "name": "ca8e06e34015d23f1492de4b32e3862d", "is_reserved": 0, "lon": -77.03151066666666, "is_disabled": 0, "fusion_lat": 0.0, "lat": 38.90589083333333, "bike_id": "ca8e06e34015d23f1492de4b32e3862d", "fusion_lon": 0.0}, {"rental_uris": {"ios": "https://dc.lft.to/lastmile_qr_scan", "android": "https://dc.lft.to/lastmile_qr_scan"}, "type": "electric_scooter", "name": "ab2609190136fd49163aa077a7b041ea", "is_reserved": 0, "lon": -77.03375, "is_disabled": 0, "fusion_lat": 0.0, "lat": 38.938619833333334, "bike_id": "ab2609190136fd49163aa077a7b041ea", "fusion_lon": 0.0}, {"rental_uris": {"ios": "https://dc.lft.to/lastmile_qr_scan", "android": "https://dc.lft.to/lastmile_qr_scan"}, "type": "electric_bike", "name": "d04ef5ece01303d8fc919f482fc2e20f", "is_reserved": 0, "lon": -77.1007635, "is_disabled": 0, "fusion_lat": 0.0, "lat": 38.85741433333333, "bike_id": "d04ef5ece01303d8fc919f482fc2e20f", "fusion_lon": 0.0}, {"rental_uris": {"ios": "https://dc.lft.to/lastmile_qr_scan", "android": "https://dc.lft.to/lastmile_qr_scan"}, "type": "electric_scooter", "name": "00d93d4f7df2de5a4fcbf1a172269505", "is_reserved": 0, "lon": -77.002748, "is_disabled": 0, "fusion_lat": 0.0, "lat": 38.88766016666667, "bike_id": "00d93d4f7df2de5a4fcbf1a172269505", "fusion_lon": 0.0}, {"rental_uris": {"ios": "https://dc.lft.to/lastmile_qr_scan", "android": "https://dc.lft.to/lastmile_qr_scan"}, "type": "electric_scooter", "name": "af76b42ffc526d27c1af374511f8655b", "is_reserved": 0, "lon": -77.0495225, "is_disabled": 0, "fusion_lat": 0.0, "lat": 38.915807666666666, "bike_id": "af76b42ffc526d27c1af374511f8655b", "fusion_lon": 0.0}, {"rental_uris": {"ios": "https://dc.lft.to/lastmile_qr_scan", "android": "https://dc.lft.to/lastmile_qr_scan"}, "type": "electric_scooter", "name": "deb2582d0e86dc9ba102414a964957a1", "is_reserved": 0, "lon": -77.05731816666666, "is_disabled": 0, "fusion_lat": 0.0, "lat": 38.933597166666665, "bike_id": "deb2582d0e86dc9ba102414a964957a1", "fusion_lon": 0.0}, {"rental_uris": {"ios": "https://dc.lft.to/lastmile_qr_scan", "android": "https://dc.lft.to/lastmile_qr_scan"}, "type": "electric_scooter", "name": "e3e4abd3022aff1d5052c0d8a37554f1", "is_reserved": 0, "lon": -77.0005985, "is_disabled": 0, "fusion_lat": 0.0, "lat": 38.877006, "bike_id": "e3e4abd3022aff1d5052c0d8a37554f1", "fusion_lon": 0.0}, {"rental_uris": {"ios": "https://dc.lft.to/lastmile_qr_scan", "android": "https://dc.lft.to/lastmile_qr_scan"}, "type": "electric_scooter", "name": "51a60065111d6a2c14ee5e42eb96db2d", "is_reserved": 0, "lon": -76.9321975, "is_disabled": 0, "fusion_lat": 0.0, "lat": 38.880735333333334, "bike_id": "51a60065111d6a2c14ee5e42eb96db2d", "fusion_lon": 0.0}, {"rental_uris": {"ios": "https://dc.lft.to/lastmile_qr_scan", "android": "https://dc.lft.to/lastmile_qr_scan"}, "type": "electric_scooter", "name": "620f271792f84919b135a81b94f9da50", "is_reserved": 0, "lon": -77.025084, "is_disabled": 0, "fusion_lat": 0.0, "lat": 38.920224166666664, "bike_id": "620f271792f84919b135a81b94f9da50", "fusion_lon": 0.0}, {"rental_uris": {"ios": "https://dc.lft.to/lastmile_qr_scan", "android": "https://dc.lft.to/lastmile_qr_scan"}, "type": "electric_scooter", "name": "0a2dd36df3a4b2b5046fcf104d886f13", "is_reserved": 0, "lon": -77.04139616666667, "is_disabled": 0, "fusion_lat": 0.0, "lat": 38.893496166666665, "bike_id": "0a2dd36df3a4b2b5046fcf104d886f13", "fusion_lon": 0.0}, {"rental_uris": {"ios": "https://dc.lft.to/lastmile_qr_scan", "android": "https://dc.lft.to/lastmile_qr_scan"}, "type": "electric_scooter", "name": "4e95d6a6f15372d277c829c58a0b7c3e", "is_reserved": 0, "lon": -77.03448066666667, "is_disabled": 0, "fusion_lat": 0.0, "lat": 38.907360833333335, "bike_id": "4e95d6a6f15372d277c829c58a0b7c3e", "fusion_lon": 0.0}, {"rental_uris": {"ios": "https://dc.lft.to/lastmile_qr_scan", "android": "https://dc.lft.to/lastmile_qr_scan"}, "type": "electric_bike", "name": "e9003583c8dc547fde8c28a323e02dc6", "is_reserved": 0, "lon": -77.0438555, "is_disabled": 0, "fusion_lat": 0.0, "lat": 38.907387666666665, "bike_id": "e9003583c8dc547fde8c28a323e02dc6", "fusion_lon": 0.0}, {"rental_uris": {"ios": "https://dc.lft.to/lastmile_qr_scan", "android": "https://dc.lft.to/lastmile_qr_scan"}, "type": "electric_scooter", "name": "15116542d582794252da1187693735b4", "is_reserved": 0, "lon": -77.06401116666666, "is_disabled": 0, "fusion_lat": 0.0, "lat": 38.908708833333336, "bike_id": "15116542d582794252da1187693735b4", "fusion_lon": 0.0}, {"rental_uris": {"ios": "https://dc.lft.to/lastmile_qr_scan", "android": "https://dc.lft.to/lastmile_qr_scan"}, "type": "electric_bike", "name": "2be0a0ebd2b3b3373297b9944a9c794f", "is_reserved": 0, "lon": -76.9732035, "is_disabled": 0, "fusion_lat": 0.0, "lat": 38.85785533333333, "bike_id": "2be0a0ebd2b3b3373297b9944a9c794f", "fusion_lon": 0.0}, {"rental_uris": {"ios": "https://dc.lft.to/lastmile_qr_scan", "android": "https://dc.lft.to/lastmile_qr_scan"}, "type": "electric_scooter", "name": "59e0fc896320e9585a2a68cd3384f1c0", "is_reserved": 0, "lon": -77.04300466666666, "is_disabled": 0, "fusion_lat": 0.0, "lat": 38.92336916666667, "bike_id": "59e0fc896320e9585a2a68cd3384f1c0", "fusion_lon": 0.0}, {"rental_uris": {"ios": "https://dc.lft.to/lastmile_qr_scan", "android": "https://dc.lft.to/lastmile_qr_scan"}, "type": "electric_scooter", "name": "8e8bc6070e5e69e21e26540abf82784d", "is_reserved": 0, "lon": -77.05990933333334, "is_disabled": 0, "fusion_lat": 0.0, "lat": 38.90240083333333, "bike_id": "8e8bc6070e5e69e21e26540abf82784d", "fusion_lon": 0.0}, {"rental_uris": {"ios": "https://dc.lft.to/lastmile_qr_scan", "android": "https://dc.lft.to/lastmile_qr_scan"}, "type": "electric_scooter", "name": "2a7b37f7fdaa9e67574dca637478eee8", "is_reserved": 0, "lon": -77.0170325, "is_disabled": 0, "fusion_lat": 0.0, "lat": 38.90471216666667, "bike_id": "2a7b37f7fdaa9e67574dca637478eee8", "fusion_lon": 0.0}, {"rental_uris": {"ios": "https://dc.lft.to/lastmile_qr_scan", "android": "https://dc.lft.to/lastmile_qr_scan"}, "type": "electric_scooter", "name": "3ea94a6aff667ea26bbae0f718153b21", "is_reserved": 0, "lon": -76.99337633333333, "is_disabled": 0, "fusion_lat": 0.0, "lat": 38.9203675, "bike_id": "3ea94a6aff667ea26bbae0f718153b21", "fusion_lon": 0.0}, {"rental_uris": {"ios": "https://dc.lft.to/lastmile_qr_scan", "android": "https://dc.lft.to/lastmile_qr_scan"}, "type": "electric_scooter", "name": "6c164e608aafa67029e99f3c943df2be", "is_reserved": 0, "lon": -77.04468566666667, "is_disabled": 0, "fusion_lat": 0.0, "lat": 38.9143815, "bike_id": "6c164e608aafa67029e99f3c943df2be", "fusion_lon": 0.0}, {"rental_uris": {"ios": "https://dc.lft.to/lastmile_qr_scan", "android": "https://dc.lft.to/lastmile_qr_scan"}, "type": "electric_scooter", "name": "6cb3b3a3da6168250a9f3cc2caf66fc0", "is_reserved": 0, "lon": -77.0786135, "is_disabled": 0, "fusion_lat": 0.0, "lat": 38.924635, "bike_id": "6cb3b3a3da6168250a9f3cc2caf66fc0", "fusion_lon": 0.0}, {"rental_uris": {"ios": "https://dc.lft.to/lastmile_qr_scan", "android": "https://dc.lft.to/lastmile_qr_scan"}, "type": "electric_scooter", "name": "5198466e5b3d725e04c57f1cd89b6656", "is_reserved": 0, "lon": -77.0442585, "is_disabled": 0, "fusion_lat": 0.0, "lat": 38.91248566666667, "bike_id": "5198466e5b3d725e04c57f1cd89b6656", "fusion_lon": 0.0}, {"rental_uris": {"ios": "https://dc.lft.to/lastmile_qr_scan", "android": "https://dc.lft.to/lastmile_qr_scan"}, "type": "electric_scooter", "name": "d85eabfa6652fecf7a3dde3dbf6e9875", "is_reserved": 0, "lon": -77.05652283333333, "is_disabled": 0, "fusion_lat": 0.0, "lat": 38.936161166666665, "bike_id": "d85eabfa6652fecf7a3dde3dbf6e9875", "fusion_lon": 0.0}, {"rental_uris": {"ios": "https://dc.lft.to/lastmile_qr_scan", "android": "https://dc.lft.to/lastmile_qr_scan"}, "type": "electric_scooter", "name": "041e0ae9e857f84f975a6842c89b2f32", "is_reserved": 0, "lon": -77.00018016666667, "is_disabled": 0, "fusion_lat": 0.0, "lat": 38.90014583333333, "bike_id": "041e0ae9e857f84f975a6842c89b2f32", "fusion_lon": 0.0}, {"rental_uris": {"ios": "https://dc.lft.to/lastmile_qr_scan", "android": "https://dc.lft.to/lastmile_qr_scan"}, "type": "electric_scooter", "name": "f22e0906a69bf2eb3b64cc8d939ae037", "is_reserved": 0, "lon": -77.04685266666667, "is_disabled": 0, "fusion_lat": 0.0, "lat": 38.89732383333333, "bike_id": "f22e0906a69bf2eb3b64cc8d939ae037", "fusion_lon": 0.0}, {"rental_uris": {"ios": "https://dc.lft.to/lastmile_qr_scan", "android": "https://dc.lft.to/lastmile_qr_scan"}, "type": "electric_scooter", "name": "db43f1af095f1647951c213fe38ae484", "is_reserved": 0, "lon": -77.03287366666666, "is_disabled": 0, "fusion_lat": 0.0, "lat": 38.920133166666666, "bike_id": "db43f1af095f1647951c213fe38ae484", "fusion_lon": 0.0}, {"rental_uris": {"ios": "https://dc.lft.to/lastmile_qr_scan", "android": "https://dc.lft.to/lastmile_qr_scan"}, "type": "electric_scooter", "name": "45120b756aef54a2456016c3ddc942a8", "is_reserved": 0, "lon": -77.03957166666666, "is_disabled": 0, "fusion_lat": 0.0, "lat": 38.892502, "bike_id": "45120b756aef54a2456016c3ddc942a8", "fusion_lon": 0.0}, {"rental_uris": {"ios": "https://dc.lft.to/lastmile_qr_scan", "android": "https://dc.lft.to/lastmile_qr_scan"}, "type": "electric_scooter", "name": "9fe50c61b30fd9c821ccbf91c4766032", "is_reserved": 0, "lon": -77.03638133333334, "is_disabled": 0, "fusion_lat": 0.0, "lat": 38.925967666666665, "bike_id": "9fe50c61b30fd9c821ccbf91c4766032", "fusion_lon": 0.0}, {"rental_uris": {"ios": "https://dc.lft.to/lastmile_qr_scan", "android": "https://dc.lft.to/lastmile_qr_scan"}, "type": "electric_scooter", "name": "cf8901c0edd2c1c8294e8e1ea4ead198", "is_reserved": 0, "lon": -77.02014083333333, "is_disabled": 0, "fusion_lat": 0.0, "lat": 38.9233055, "bike_id": "cf8901c0edd2c1c8294e8e1ea4ead198", "fusion_lon": 0.0}, {"rental_uris": {"ios": "https://dc.lft.to/lastmile_qr_scan", "android": "https://dc.lft.to/lastmile_qr_scan"}, "type": "electric_scooter", "name": "59a0400040780c1ba98dcaa3e39f8898", "is_reserved": 0, "lon": -77.036436, "is_disabled": 0, "fusion_lat": 0.0, "lat": 38.92484616666667, "bike_id": "59a0400040780c1ba98dcaa3e39f8898", "fusion_lon": 0.0}, {"rental_uris": {"ios": "https://dc.lft.to/lastmile_qr_scan", "android": "https://dc.lft.to/lastmile_qr_scan"}, "type": "electric_scooter", "name": "ea3cb483484ce87147a58bba2ac69be8", "is_reserved": 0, "lon": -77.01063733333334, "is_disabled": 0, "fusion_lat": 0.0, "lat": 38.9119405, "bike_id": "ea3cb483484ce87147a58bba2ac69be8", "fusion_lon": 0.0}, {"rental_uris": {"ios": "https://dc.lft.to/lastmile_qr_scan", "android": "https://dc.lft.to/lastmile_qr_scan"}, "type": "electric_scooter", "name": "fd0a2beb8094ece3268fb5ee2725bc2d", "is_reserved": 0, "lon": -77.0030005, "is_disabled": 0, "fusion_lat": 0.0, "lat": 38.909241, "bike_id": "fd0a2beb8094ece3268fb5ee2725bc2d", "fusion_lon": 0.0}, {"rental_uris": {"ios": "https://dc.lft.to/lastmile_qr_scan", "android": "https://dc.lft.to/lastmile_qr_scan"}, "type": "electric_scooter", "name": "d2806522187b2f10531c7af262b1c8bb", "is_reserved": 0, "lon": -77.04217016666666, "is_disabled": 0, "fusion_lat": 0.0, "lat": 38.922496833333334, "bike_id": "d2806522187b2f10531c7af262b1c8bb", "fusion_lon": 0.0}, {"rental_uris": {"ios": "https://dc.lft.to/lastmile_qr_scan", "android": "https://dc.lft.to/lastmile_qr_scan"}, "type": "electric_scooter", "name": "c2665cb0c83f7dfea3a4f368ad438a86", "is_reserved": 0, "lon": -77.0270055, "is_disabled": 0, "fusion_lat": 0.0, "lat": 38.917283166666664, "bike_id": "c2665cb0c83f7dfea3a4f368ad438a86", "fusion_lon": 0.0}, {"rental_uris": {"ios": "https://dc.lft.to/lastmile_qr_scan", "android": "https://dc.lft.to/lastmile_qr_scan"}, "type": "electric_scooter", "name": "7f4e3703a73641bb4ea59ffa405cded9", "is_reserved": 0, "lon": -77.04181283333334, "is_disabled": 0, "fusion_lat": 0.0, "lat": 38.914138333333334, "bike_id": "7f4e3703a73641bb4ea59ffa405cded9", "fusion_lon": 0.0}, {"rental_uris": {"ios": "https://dc.lft.to/lastmile_qr_scan", "android": "https://dc.lft.to/lastmile_qr_scan"}, "type": "electric_scooter", "name": "dd181c022ff7713b8656971b6ddd5e16", "is_reserved": 0, "lon": -76.99618066666666, "is_disabled": 0, "fusion_lat": 0.0, "lat": 38.899978, "bike_id": "dd181c022ff7713b8656971b6ddd5e16", "fusion_lon": 0.0}, {"rental_uris": {"ios": "https://dc.lft.to/lastmile_qr_scan", "android": "https://dc.lft.to/lastmile_qr_scan"}, "type": "electric_scooter", "name": "2b2be11c1249617d0df95e9baad2bd81", "is_reserved": 0, "lon": -77.03199683333334, "is_disabled": 0, "fusion_lat": 0.0, "lat": 38.912362, "bike_id": "2b2be11c1249617d0df95e9baad2bd81", "fusion_lon": 0.0}, {"rental_uris": {"ios": "https://dc.lft.to/lastmile_qr_scan", "android": "https://dc.lft.to/lastmile_qr_scan"}, "type": "electric_scooter", "name": "a368c065787f52fb33c975700106d50e", "is_reserved": 0, "lon": -77.0239165, "is_disabled": 0, "fusion_lat": 0.0, "lat": 38.92084533333333, "bike_id": "a368c065787f52fb33c975700106d50e", "fusion_lon": 0.0}, {"rental_uris": {"ios": "https://dc.lft.to/lastmile_qr_scan", "android": "https://dc.lft.to/lastmile_qr_scan"}, "type": "electric_scooter", "name": "f9ff6d1b9f4c0e755b7852d6453b55c1", "is_reserved": 0, "lon": -76.98840266666667, "is_disabled": 0, "fusion_lat": 0.0, "lat": 38.84295316666667, "bike_id": "f9ff6d1b9f4c0e755b7852d6453b55c1", "fusion_lon": 0.0}, {"rental_uris": {"ios": "https://dc.lft.to/lastmile_qr_scan", "android": "https://dc.lft.to/lastmile_qr_scan"}, "type": "electric_scooter", "name": "45af5b77ce26284d422d49487234d7ad", "is_reserved": 0, "lon": -77.032257, "is_disabled": 0, "fusion_lat": 0.0, "lat": 38.892252666666664, "bike_id": "45af5b77ce26284d422d49487234d7ad", "fusion_lon": 0.0}, {"rental_uris": {"ios": "https://dc.lft.to/lastmile_qr_scan", "android": "https://dc.lft.to/lastmile_qr_scan"}, "type": "electric_scooter", "name": "39d23141deb3960ca2440d90e0e7dad7", "is_reserved": 0, "lon": -77.0215485, "is_disabled": 0, "fusion_lat": 0.0, "lat": 38.887514, "bike_id": "39d23141deb3960ca2440d90e0e7dad7", "fusion_lon": 0.0}, {"rental_uris": {"ios": "https://dc.lft.to/lastmile_qr_scan", "android": "https://dc.lft.to/lastmile_qr_scan"}, "type": "electric_scooter", "name": "4bd195642589000ff0cc83d8724adcb6", "is_reserved": 0, "lon": -77.02110666666667, "is_disabled": 0, "fusion_lat": 0.0, "lat": 38.906007333333335, "bike_id": "4bd195642589000ff0cc83d8724adcb6", "fusion_lon": 0.0}, {"rental_uris": {"ios": "https://dc.lft.to/lastmile_qr_scan", "android": "https://dc.lft.to/lastmile_qr_scan"}, "type": "electric_scooter", "name": "4a650ae88d0255d114776d656b4ae8f7", "is_reserved": 0, "lon": -77.0314465, "is_disabled": 0, "fusion_lat": 0.0, "lat": 38.909588, "bike_id": "4a650ae88d0255d114776d656b4ae8f7", "fusion_lon": 0.0}, {"rental_uris": {"ios": "https://dc.lft.to/lastmile_qr_scan", "android": "https://dc.lft.to/lastmile_qr_scan"}, "type": "electric_scooter", "name": "54ace245960308cef56c0331357843bb", "is_reserved": 0, "lon": -77.04656316666667, "is_disabled": 0, "fusion_lat": 0.0, "lat": 38.9094245, "bike_id": "54ace245960308cef56c0331357843bb", "fusion_lon": 0.0}, {"rental_uris": {"ios": "https://dc.lft.to/lastmile_qr_scan", "android": "https://dc.lft.to/lastmile_qr_scan"}, "type": "electric_scooter", "name": "e6f8f44696c2a414ad7491b4b2b3ad57", "is_reserved": 0, "lon": -77.03191616666666, "is_disabled": 0, "fusion_lat": 0.0, "lat": 38.904596166666664, "bike_id": "e6f8f44696c2a414ad7491b4b2b3ad57", "fusion_lon": 0.0}, {"rental_uris": {"ios": "https://dc.lft.to/lastmile_qr_scan", "android": "https://dc.lft.to/lastmile_qr_scan"}, "type": "electric_scooter", "name": "251faa958ef94be8e9e26b861abfceae", "is_reserved": 0, "lon": -77.02196666666667, "is_disabled": 0, "fusion_lat": 0.0, "lat": 38.911235166666664, "bike_id": "251faa958ef94be8e9e26b861abfceae", "fusion_lon": 0.0}, {"rental_uris": {"ios": "https://dc.lft.to/lastmile_qr_scan", "android": "https://dc.lft.to/lastmile_qr_scan"}, "type": "electric_scooter", "name": "782bf2111702388f36eadf24c6f919cc", "is_reserved": 0, "lon": -77.02401966666666, "is_disabled": 0, "fusion_lat": 0.0, "lat": 38.935427, "bike_id": "782bf2111702388f36eadf24c6f919cc", "fusion_lon": 0.0}, {"rental_uris": {"ios": "https://dc.lft.to/lastmile_qr_scan", "android": "https://dc.lft.to/lastmile_qr_scan"}, "type": "electric_bike", "name": "ed61135d50cb604766133e54868376ed", "is_reserved": 0, "lon": -77.034386, "is_disabled": 0, "fusion_lat": 0.0, "lat": 38.928708, "bike_id": "ed61135d50cb604766133e54868376ed", "fusion_lon": 0.0}, {"rental_uris": {"ios": "https://dc.lft.to/lastmile_qr_scan", "android": "https://dc.lft.to/lastmile_qr_scan"}, "type": "electric_scooter", "name": "58e447181e1b13bf491147707a531caf", "is_reserved": 0, "lon": -77.02833316666667, "is_disabled": 0, "fusion_lat": 0.0, "lat": 38.8922245, "bike_id": "58e447181e1b13bf491147707a531caf", "fusion_lon": 0.0}, {"rental_uris": {"ios": "https://dc.lft.to/lastmile_qr_scan", "android": "https://dc.lft.to/lastmile_qr_scan"}, "type": "electric_scooter", "name": "08c51ea60a0ea47b065e98c48a27b9cf", "is_reserved": 0, "lon": -76.99474583333334, "is_disabled": 0, "fusion_lat": 0.0, "lat": 38.86217116666667, "bike_id": "08c51ea60a0ea47b065e98c48a27b9cf", "fusion_lon": 0.0}, {"rental_uris": {"ios": "https://dc.lft.to/lastmile_qr_scan", "android": "https://dc.lft.to/lastmile_qr_scan"}, "type": "electric_scooter", "name": "720ad823b4013a487d423dd9840ca7f1", "is_reserved": 0, "lon": -76.99028983333334, "is_disabled": 0, "fusion_lat": 0.0, "lat": 38.898573666666664, "bike_id": "720ad823b4013a487d423dd9840ca7f1", "fusion_lon": 0.0}, {"rental_uris": {"ios": "https://dc.lft.to/lastmile_qr_scan", "android": "https://dc.lft.to/lastmile_qr_scan"}, "type": "electric_scooter", "name": "f6f4b989bee7b8c97b3bb55d67cda065", "is_reserved": 0, "lon": -77.01776366666667, "is_disabled": 0, "fusion_lat": 0.0, "lat": 38.92106783333333, "bike_id": "f6f4b989bee7b8c97b3bb55d67cda065", "fusion_lon": 0.0}, {"rental_uris": {"ios": "https://dc.lft.to/lastmile_qr_scan", "android": "https://dc.lft.to/lastmile_qr_scan"}, "type": "electric_scooter", "name": "e511e6c3b5b7720cb9967aa8fcc2425c", "is_reserved": 0, "lon": -77.02641783333333, "is_disabled": 0, "fusion_lat": 0.0, "lat": 38.930934666666666, "bike_id": "e511e6c3b5b7720cb9967aa8fcc2425c", "fusion_lon": 0.0}, {"rental_uris": {"ios": "https://dc.lft.to/lastmile_qr_scan", "android": "https://dc.lft.to/lastmile_qr_scan"}, "type": "electric_bike", "name": "cd7152cb6abd3e83eace1cd3066f883b", "is_reserved": 0, "lon": -77.1029135, "is_disabled": 0, "fusion_lat": 0.0, "lat": 38.85258733333333, "bike_id": "cd7152cb6abd3e83eace1cd3066f883b", "fusion_lon": 0.0}, {"rental_uris": {"ios": "https://dc.lft.to/lastmile_qr_scan", "android": "https://dc.lft.to/lastmile_qr_scan"}, "type": "electric_bike", "name": "1a44f2ba8c76a1e5530f9c9ab7cb9bf8", "is_reserved": 0, "lon": -76.97952483333333, "is_disabled": 0, "fusion_lat": 0.0, "lat": 38.92038933333333, "bike_id": "1a44f2ba8c76a1e5530f9c9ab7cb9bf8", "fusion_lon": 0.0}, {"rental_uris": {"ios": "https://dc.lft.to/lastmile_qr_scan", "android": "https://dc.lft.to/lastmile_qr_scan"}, "type": "electric_scooter", "name": "77653c974a14033bd5a3185bd29fe755", "is_reserved": 0, "lon": -77.02566883333333, "is_disabled": 0, "fusion_lat": 0.0, "lat": 38.948481666666666, "bike_id": "77653c974a14033bd5a3185bd29fe755", "fusion_lon": 0.0}, {"rental_uris": {"ios": "https://dc.lft.to/lastmile_qr_scan", "android": "https://dc.lft.to/lastmile_qr_scan"}, "type": "electric_scooter", "name": "2e6ddd28f04e418c745a7bfe835c1612", "is_reserved": 0, "lon": -77.03843316666666, "is_disabled": 0, "fusion_lat": 0.0, "lat": 38.910364333333334, "bike_id": "2e6ddd28f04e418c745a7bfe835c1612", "fusion_lon": 0.0}, {"rental_uris": {"ios": "https://dc.lft.to/lastmile_qr_scan", "android": "https://dc.lft.to/lastmile_qr_scan"}, "type": "electric_scooter", "name": "b51245e4f490e3cbe9affc6ebe94d31f", "is_reserved": 0, "lon": -76.9463875, "is_disabled": 0, "fusion_lat": 0.0, "lat": 38.8986835, "bike_id": "b51245e4f490e3cbe9affc6ebe94d31f", "fusion_lon": 0.0}, {"rental_uris": {"ios": "https://dc.lft.to/lastmile_qr_scan", "android": "https://dc.lft.to/lastmile_qr_scan"}, "type": "electric_scooter", "name": "ed955bfe3152f35dbed0cee6704d711a", "is_reserved": 0, "lon": -77.03410666666667, "is_disabled": 0, "fusion_lat": 0.0, "lat": 38.901636333333336, "bike_id": "ed955bfe3152f35dbed0cee6704d711a", "fusion_lon": 0.0}, {"rental_uris": {"ios": "https://dc.lft.to/lastmile_qr_scan", "android": "https://dc.lft.to/lastmile_qr_scan"}, "type": "electric_scooter", "name": "030783b40263a35c38790371184644e5", "is_reserved": 0, "lon": -77.04482666666667, "is_disabled": 0, "fusion_lat": 0.0, "lat": 38.913677, "bike_id": "030783b40263a35c38790371184644e5", "fusion_lon": 0.0}, {"rental_uris": {"ios": "https://dc.lft.to/lastmile_qr_scan", "android": "https://dc.lft.to/lastmile_qr_scan"}, "type": "electric_scooter", "name": "a77772f70863cb55251cefe0d2d19816", "is_reserved": 0, "lon": -77.0149755, "is_disabled": 0, "fusion_lat": 0.0, "lat": 38.90657183333333, "bike_id": "a77772f70863cb55251cefe0d2d19816", "fusion_lon": 0.0}, {"rental_uris": {"ios": "https://dc.lft.to/lastmile_qr_scan", "android": "https://dc.lft.to/lastmile_qr_scan"}, "type": "electric_scooter", "name": "743b129e4e16cfce05e3d4f01b26c752", "is_reserved": 0, "lon": -76.92304733333333, "is_disabled": 0, "fusion_lat": 0.0, "lat": 38.8938945, "bike_id": "743b129e4e16cfce05e3d4f01b26c752", "fusion_lon": 0.0}, {"rental_uris": {"ios": "https://dc.lft.to/lastmile_qr_scan", "android": "https://dc.lft.to/lastmile_qr_scan"}, "type": "electric_scooter", "name": "5f2daf91de130daf94acd73b57406b1e", "is_reserved": 0, "lon": -77.06389216666666, "is_disabled": 0, "fusion_lat": 0.0, "lat": 38.905139166666665, "bike_id": "5f2daf91de130daf94acd73b57406b1e", "fusion_lon": 0.0}, {"rental_uris": {"ios": "https://dc.lft.to/lastmile_qr_scan", "android": "https://dc.lft.to/lastmile_qr_scan"}, "type": "electric_scooter", "name": "c7f7d03ecf6bcb781584fd058001ccfe", "is_reserved": 0, "lon": -77.02231066666667, "is_disabled": 0, "fusion_lat": 0.0, "lat": 38.89223233333333, "bike_id": "c7f7d03ecf6bcb781584fd058001ccfe", "fusion_lon": 0.0}, {"rental_uris": {"ios": "https://dc.lft.to/lastmile_qr_scan", "android": "https://dc.lft.to/lastmile_qr_scan"}, "type": "electric_bike", "name": "1d8df0b15460e4801c6ab4a9185c6aa4", "is_reserved": 0, "lon": -77.02503, "is_disabled": 0, "fusion_lat": 0.0, "lat": 38.934178, "bike_id": "1d8df0b15460e4801c6ab4a9185c6aa4", "fusion_lon": 0.0}, {"rental_uris": {"ios": "https://dc.lft.to/lastmile_qr_scan", "android": "https://dc.lft.to/lastmile_qr_scan"}, "type": "electric_scooter", "name": "84bdfd6d2d384d97a035064a8e23e816", "is_reserved": 0, "lon": -77.014678, "is_disabled": 0, "fusion_lat": 0.0, "lat": 38.9266725, "bike_id": "84bdfd6d2d384d97a035064a8e23e816", "fusion_lon": 0.0}, {"rental_uris": {"ios": "https://dc.lft.to/lastmile_qr_scan", "android": "https://dc.lft.to/lastmile_qr_scan"}, "type": "electric_scooter", "name": "d8a218316dd2f6018a6ee6fbf991529f", "is_reserved": 0, "lon": -77.00587983333334, "is_disabled": 0, "fusion_lat": 0.0, "lat": 38.876732, "bike_id": "d8a218316dd2f6018a6ee6fbf991529f", "fusion_lon": 0.0}, {"rental_uris": {"ios": "https://dc.lft.to/lastmile_qr_scan", "android": "https://dc.lft.to/lastmile_qr_scan"}, "type": "electric_scooter", "name": "818a7c990e0496fa68aa5a327d5e627b", "is_reserved": 0, "lon": -77.0260395, "is_disabled": 0, "fusion_lat": 0.0, "lat": 38.90690216666667, "bike_id": "818a7c990e0496fa68aa5a327d5e627b", "fusion_lon": 0.0}, {"rental_uris": {"ios": "https://dc.lft.to/lastmile_qr_scan", "android": "https://dc.lft.to/lastmile_qr_scan"}, "type": "electric_scooter", "name": "cf174a7a1335429fdb5c817568c66bb2", "is_reserved": 0, "lon": -77.02711966666666, "is_disabled": 0, "fusion_lat": 0.0, "lat": 38.906045166666665, "bike_id": "cf174a7a1335429fdb5c817568c66bb2", "fusion_lon": 0.0}, {"rental_uris": {"ios": "https://dc.lft.to/lastmile_qr_scan", "android": "https://dc.lft.to/lastmile_qr_scan"}, "type": "electric_bike", "name": "62e7e72ca2811a749483b2a31e427b44", "is_reserved": 0, "lon": -77.23177333333334, "is_disabled": 0, "fusion_lat": 0.0, "lat": 38.92896733333333, "bike_id": "62e7e72ca2811a749483b2a31e427b44", "fusion_lon": 0.0}, {"rental_uris": {"ios": "https://dc.lft.to/lastmile_qr_scan", "android": "https://dc.lft.to/lastmile_qr_scan"}, "type": "electric_scooter", "name": "00233b21db35d8f629bbbc40ccefd9a1", "is_reserved": 0, "lon": -77.02005733333333, "is_disabled": 0, "fusion_lat": 0.0, "lat": 38.928043333333335, "bike_id": "00233b21db35d8f629bbbc40ccefd9a1", "fusion_lon": 0.0}, {"rental_uris": {"ios": "https://dc.lft.to/lastmile_qr_scan", "android": "https://dc.lft.to/lastmile_qr_scan"}, "type": "electric_scooter", "name": "442926614fd24ad17d68dc1ae15863bb", "is_reserved": 0, "lon": -76.98700316666667, "is_disabled": 0, "fusion_lat": 0.0, "lat": 38.906987666666666, "bike_id": "442926614fd24ad17d68dc1ae15863bb", "fusion_lon": 0.0}, {"rental_uris": {"ios": "https://dc.lft.to/lastmile_qr_scan", "android": "https://dc.lft.to/lastmile_qr_scan"}, "type": "electric_scooter", "name": "7bd150bb07e59c1333eb1bd09754a8c6", "is_reserved": 0, "lon": -77.02862383333333, "is_disabled": 0, "fusion_lat": 0.0, "lat": 38.9326615, "bike_id": "7bd150bb07e59c1333eb1bd09754a8c6", "fusion_lon": 0.0}, {"rental_uris": {"ios": "https://dc.lft.to/lastmile_qr_scan", "android": "https://dc.lft.to/lastmile_qr_scan"}, "type": "electric_bike", "name": "d9b3f5d394ce8c098a3a126e269a1aae", "is_reserved": 0, "lon": -77.02436783333333, "is_disabled": 0, "fusion_lat": 0.0, "lat": 38.923334833333335, "bike_id": "d9b3f5d394ce8c098a3a126e269a1aae", "fusion_lon": 0.0}, {"rental_uris": {"ios": "https://dc.lft.to/lastmile_qr_scan", "android": "https://dc.lft.to/lastmile_qr_scan"}, "type": "electric_scooter", "name": "bba2d651b20e7ca6ea4fe79a2a8b027c", "is_reserved": 0, "lon": -77.00760016666666, "is_disabled": 0, "fusion_lat": 0.0, "lat": 38.907669166666665, "bike_id": "bba2d651b20e7ca6ea4fe79a2a8b027c", "fusion_lon": 0.0}, {"rental_uris": {"ios": "https://dc.lft.to/lastmile_qr_scan", "android": "https://dc.lft.to/lastmile_qr_scan"}, "type": "electric_scooter", "name": "51e972a335d56d4f94ec5bb1a2c74a08", "is_reserved": 0, "lon": -77.03214416666667, "is_disabled": 0, "fusion_lat": 0.0, "lat": 38.91683583333333, "bike_id": "51e972a335d56d4f94ec5bb1a2c74a08", "fusion_lon": 0.0}, {"rental_uris": {"ios": "https://dc.lft.to/lastmile_qr_scan", "android": "https://dc.lft.to/lastmile_qr_scan"}, "type": "electric_scooter", "name": "8580e201a69587f57b054ca337deed18", "is_reserved": 0, "lon": -77.02121266666667, "is_disabled": 0, "fusion_lat": 0.0, "lat": 38.9140505, "bike_id": "8580e201a69587f57b054ca337deed18", "fusion_lon": 0.0}, {"rental_uris": {"ios": "https://dc.lft.to/lastmile_qr_scan", "android": "https://dc.lft.to/lastmile_qr_scan"}, "type": "electric_scooter", "name": "bcf8ea50db9663e7ad64dd9ea98ef6a9", "is_reserved": 0, "lon": -77.01865616666667, "is_disabled": 0, "fusion_lat": 0.0, "lat": 38.95151466666667, "bike_id": "bcf8ea50db9663e7ad64dd9ea98ef6a9", "fusion_lon": 0.0}, {"rental_uris": {"ios": "https://dc.lft.to/lastmile_qr_scan", "android": "https://dc.lft.to/lastmile_qr_scan"}, "type": "electric_scooter", "name": "3c1bbd1c85d604e9bce6c95ab162dc55", "is_reserved": 0, "lon": -77.021016, "is_disabled": 0, "fusion_lat": 0.0, "lat": 38.916426666666666, "bike_id": "3c1bbd1c85d604e9bce6c95ab162dc55", "fusion_lon": 0.0}, {"rental_uris": {"ios": "https://dc.lft.to/lastmile_qr_scan", "android": "https://dc.lft.to/lastmile_qr_scan"}, "type": "electric_scooter", "name": "01f07426b744a3e8a83993222ddc7ef5", "is_reserved": 0, "lon": -77.036465, "is_disabled": 0, "fusion_lat": 0.0, "lat": 38.918161, "bike_id": "01f07426b744a3e8a83993222ddc7ef5", "fusion_lon": 0.0}, {"rental_uris": {"ios": "https://dc.lft.to/lastmile_qr_scan", "android": "https://dc.lft.to/lastmile_qr_scan"}, "type": "electric_bike", "name": "cbd06b9bca2b1b2de394bf3b18ce530a", "is_reserved": 0, "lon": -76.98351516666666, "is_disabled": 0, "fusion_lat": 0.0, "lat": 38.86262416666667, "bike_id": "cbd06b9bca2b1b2de394bf3b18ce530a", "fusion_lon": 0.0}, {"rental_uris": {"ios": "https://dc.lft.to/lastmile_qr_scan", "android": "https://dc.lft.to/lastmile_qr_scan"}, "type": "electric_scooter", "name": "5150c44408ccf67e195bdac2ed7d5b54", "is_reserved": 0, "lon": -77.0420115, "is_disabled": 0, "fusion_lat": 0.0, "lat": 38.9206675, "bike_id": "5150c44408ccf67e195bdac2ed7d5b54", "fusion_lon": 0.0}, {"rental_uris": {"ios": "https://dc.lft.to/lastmile_qr_scan", "android": "https://dc.lft.to/lastmile_qr_scan"}, "type": "electric_scooter", "name": "8925aae19ba6bb4da846263ec2d14afe", "is_reserved": 0, "lon": -77.01087416666667, "is_disabled": 0, "fusion_lat": 0.0, "lat": 38.90334033333333, "bike_id": "8925aae19ba6bb4da846263ec2d14afe", "fusion_lon": 0.0}, {"rental_uris": {"ios": "https://dc.lft.to/lastmile_qr_scan", "android": "https://dc.lft.to/lastmile_qr_scan"}, "type": "electric_scooter", "name": "1d4299a88893331a00e26202ff0f6ca4", "is_reserved": 0, "lon": -77.03220483333334, "is_disabled": 0, "fusion_lat": 0.0, "lat": 38.9140505, "bike_id": "1d4299a88893331a00e26202ff0f6ca4", "fusion_lon": 0.0}, {"rental_uris": {"ios": "https://dc.lft.to/lastmile_qr_scan", "android": "https://dc.lft.to/lastmile_qr_scan"}, "type": "electric_bike", "name": "1ab3465b8faf6eae6e7690659baefd15", "is_reserved": 0, "lon": -77.08976833333334, "is_disabled": 0, "fusion_lat": 0.0, "lat": 38.911717833333334, "bike_id": "1ab3465b8faf6eae6e7690659baefd15", "fusion_lon": 0.0}, {"rental_uris": {"ios": "https://dc.lft.to/lastmile_qr_scan", "android": "https://dc.lft.to/lastmile_qr_scan"}, "type": "electric_scooter", "name": "2731915a724a10f1781e46a1a6045a92", "is_reserved": 0, "lon": -77.02972983333333, "is_disabled": 0, "fusion_lat": 0.0, "lat": 38.9071985, "bike_id": "2731915a724a10f1781e46a1a6045a92", "fusion_lon": 0.0}, {"rental_uris": {"ios": "https://dc.lft.to/lastmile_qr_scan", "android": "https://dc.lft.to/lastmile_qr_scan"}, "type": "electric_scooter", "name": "f699c259f445a456cbb396a933f6c145", "is_reserved": 0, "lon": -77.04139583333334, "is_disabled": 0, "fusion_lat": 0.0, "lat": 38.92263033333333, "bike_id": "f699c259f445a456cbb396a933f6c145", "fusion_lon": 0.0}, {"rental_uris": {"ios": "https://dc.lft.to/lastmile_qr_scan", "android": "https://dc.lft.to/lastmile_qr_scan"}, "type": "electric_scooter", "name": "d1a920b1c966676ddc8616b2801c0a16", "is_reserved": 0, "lon": -77.02384583333334, "is_disabled": 0, "fusion_lat": 0.0, "lat": 38.908507, "bike_id": "d1a920b1c966676ddc8616b2801c0a16", "fusion_lon": 0.0}, {"rental_uris": {"ios": "https://dc.lft.to/lastmile_qr_scan", "android": "https://dc.lft.to/lastmile_qr_scan"}, "type": "electric_scooter", "name": "14eced191596c6a3dc0b5176bc6fd20c", "is_reserved": 0, "lon": -77.01625916666667, "is_disabled": 0, "fusion_lat": 0.0, "lat": 38.903793666666665, "bike_id": "14eced191596c6a3dc0b5176bc6fd20c", "fusion_lon": 0.0}, {"rental_uris": {"ios": "https://dc.lft.to/lastmile_qr_scan", "android": "https://dc.lft.to/lastmile_qr_scan"}, "type": "electric_scooter", "name": "2760a3e8176cbf0ec108152ebbd382e2", "is_reserved": 0, "lon": -77.01629566666666, "is_disabled": 0, "fusion_lat": 0.0, "lat": 38.887424833333334, "bike_id": "2760a3e8176cbf0ec108152ebbd382e2", "fusion_lon": 0.0}, {"rental_uris": {"ios": "https://dc.lft.to/lastmile_qr_scan", "android": "https://dc.lft.to/lastmile_qr_scan"}, "type": "electric_scooter", "name": "c1f3fd6253450d7f6fa9c0de92c354c3", "is_reserved": 0, "lon": -77.03607733333334, "is_disabled": 0, "fusion_lat": 0.0, "lat": 38.90347766666667, "bike_id": "c1f3fd6253450d7f6fa9c0de92c354c3", "fusion_lon": 0.0}, {"rental_uris": {"ios": "https://dc.lft.to/lastmile_qr_scan", "android": "https://dc.lft.to/lastmile_qr_scan"}, "type": "electric_scooter", "name": "3bf0cc2746b161b4d7a9a5a7dff54a8e", "is_reserved": 0, "lon": -77.04442133333333, "is_disabled": 0, "fusion_lat": 0.0, "lat": 38.91897783333334, "bike_id": "3bf0cc2746b161b4d7a9a5a7dff54a8e", "fusion_lon": 0.0}, {"rental_uris": {"ios": "https://dc.lft.to/lastmile_qr_scan", "android": "https://dc.lft.to/lastmile_qr_scan"}, "type": "electric_scooter", "name": "5ad34545773a37e3ad13c1ddf041f1ad", "is_reserved": 0, "lon": -77.03840216666667, "is_disabled": 0, "fusion_lat": 0.0, "lat": 38.9099435, "bike_id": "5ad34545773a37e3ad13c1ddf041f1ad", "fusion_lon": 0.0}, {"rental_uris": {"ios": "https://dc.lft.to/lastmile_qr_scan", "android": "https://dc.lft.to/lastmile_qr_scan"}, "type": "electric_scooter", "name": "3f9893335278b33dac6093d5baf070f6", "is_reserved": 0, "lon": -77.034652, "is_disabled": 0, "fusion_lat": 0.0, "lat": 38.905703833333334, "bike_id": "3f9893335278b33dac6093d5baf070f6", "fusion_lon": 0.0}, {"rental_uris": {"ios": "https://dc.lft.to/lastmile_qr_scan", "android": "https://dc.lft.to/lastmile_qr_scan"}, "type": "electric_scooter", "name": "6d4b2666c9627ff8d3fa0cbca2b0afd6", "is_reserved": 0, "lon": -77.00215333333334, "is_disabled": 0, "fusion_lat": 0.0, "lat": 38.89818616666667, "bike_id": "6d4b2666c9627ff8d3fa0cbca2b0afd6", "fusion_lon": 0.0}, {"rental_uris": {"ios": "https://dc.lft.to/lastmile_qr_scan", "android": "https://dc.lft.to/lastmile_qr_scan"}, "type": "electric_scooter", "name": "b47ab0dfd4cf42563a715d0aafc68b7e", "is_reserved": 0, "lon": -77.0316125, "is_disabled": 0, "fusion_lat": 0.0, "lat": 38.90606, "bike_id": "b47ab0dfd4cf42563a715d0aafc68b7e", "fusion_lon": 0.0}, {"rental_uris": {"ios": "https://dc.lft.to/lastmile_qr_scan", "android": "https://dc.lft.to/lastmile_qr_scan"}, "type": "electric_bike", "name": "f8c4342fdb87d292ce3be20f5e8d9ed8", "is_reserved": 0, "lon": -77.2218175, "is_disabled": 0, "fusion_lat": 0.0, "lat": 38.8717905, "bike_id": "f8c4342fdb87d292ce3be20f5e8d9ed8", "fusion_lon": 0.0}, {"rental_uris": {"ios": "https://dc.lft.to/lastmile_qr_scan", "android": "https://dc.lft.to/lastmile_qr_scan"}, "type": "electric_scooter", "name": "c12977019ada3942e17b455253aead30", "is_reserved": 0, "lon": -77.00049933333334, "is_disabled": 0, "fusion_lat": 0.0, "lat": 38.907714666666664, "bike_id": "c12977019ada3942e17b455253aead30", "fusion_lon": 0.0}, {"rental_uris": {"ios": "https://dc.lft.to/lastmile_qr_scan", "android": "https://dc.lft.to/lastmile_qr_scan"}, "type": "electric_scooter", "name": "38c1163583d5771ba2ba096efc85ca18", "is_reserved": 0, "lon": -77.05114466666667, "is_disabled": 0, "fusion_lat": 0.0, "lat": 38.897674333333335, "bike_id": "38c1163583d5771ba2ba096efc85ca18", "fusion_lon": 0.0}, {"rental_uris": {"ios": "https://dc.lft.to/lastmile_qr_scan", "android": "https://dc.lft.to/lastmile_qr_scan"}, "type": "electric_scooter", "name": "764d351ca48c32d00074e51525bf6d55", "is_reserved": 0, "lon": -76.9854495, "is_disabled": 0, "fusion_lat": 0.0, "lat": 38.91289966666667, "bike_id": "764d351ca48c32d00074e51525bf6d55", "fusion_lon": 0.0}, {"rental_uris": {"ios": "https://dc.lft.to/lastmile_qr_scan", "android": "https://dc.lft.to/lastmile_qr_scan"}, "type": "electric_scooter", "name": "e77a6bb6b6da32e8ca79a79577e4056a", "is_reserved": 0, "lon": -77.02611416666667, "is_disabled": 0, "fusion_lat": 0.0, "lat": 38.9241375, "bike_id": "e77a6bb6b6da32e8ca79a79577e4056a", "fusion_lon": 0.0}, {"rental_uris": {"ios": "https://dc.lft.to/lastmile_qr_scan", "android": "https://dc.lft.to/lastmile_qr_scan"}, "type": "electric_scooter", "name": "408ae64be60ba3221b32b8aa330e0c81", "is_reserved": 0, "lon": -76.95742683333333, "is_disabled": 0, "fusion_lat": 0.0, "lat": 38.88396933333333, "bike_id": "408ae64be60ba3221b32b8aa330e0c81", "fusion_lon": 0.0}, {"rental_uris": {"ios": "https://dc.lft.to/lastmile_qr_scan", "android": "https://dc.lft.to/lastmile_qr_scan"}, "type": "electric_scooter", "name": "3dacdbe22f30a51079c89716b0fc68f9", "is_reserved": 0, "lon": -77.025098, "is_disabled": 0, "fusion_lat": 0.0, "lat": 38.91949866666667, "bike_id": "3dacdbe22f30a51079c89716b0fc68f9", "fusion_lon": 0.0}, {"rental_uris": {"ios": "https://dc.lft.to/lastmile_qr_scan", "android": "https://dc.lft.to/lastmile_qr_scan"}, "type": "electric_scooter", "name": "b61564a9a0ae546673b8ac096bf98060", "is_reserved": 0, "lon": -77.03440366666666, "is_disabled": 0, "fusion_lat": 0.0, "lat": 38.91798883333333, "bike_id": "b61564a9a0ae546673b8ac096bf98060", "fusion_lon": 0.0}, {"rental_uris": {"ios": "https://dc.lft.to/lastmile_qr_scan", "android": "https://dc.lft.to/lastmile_qr_scan"}, "type": "electric_scooter", "name": "19d6369829eabb04b7c479404b69aea8", "is_reserved": 0, "lon": -77.062797, "is_disabled": 0, "fusion_lat": 0.0, "lat": 38.912416666666665, "bike_id": "19d6369829eabb04b7c479404b69aea8", "fusion_lon": 0.0}, {"rental_uris": {"ios": "https://dc.lft.to/lastmile_qr_scan", "android": "https://dc.lft.to/lastmile_qr_scan"}, "type": "electric_scooter", "name": "2d553794baf4679908052cddef0b4741", "is_reserved": 0, "lon": -77.0295425, "is_disabled": 0, "fusion_lat": 0.0, "lat": 38.9042625, "bike_id": "2d553794baf4679908052cddef0b4741", "fusion_lon": 0.0}, {"rental_uris": {"ios": "https://dc.lft.to/lastmile_qr_scan", "android": "https://dc.lft.to/lastmile_qr_scan"}, "type": "electric_scooter", "name": "e79538d1f2fdab8baa2b05282080444e", "is_reserved": 0, "lon": -77.02798533333333, "is_disabled": 0, "fusion_lat": 0.0, "lat": 38.899135, "bike_id": "e79538d1f2fdab8baa2b05282080444e", "fusion_lon": 0.0}, {"rental_uris": {"ios": "https://dc.lft.to/lastmile_qr_scan", "android": "https://dc.lft.to/lastmile_qr_scan"}, "type": "electric_scooter", "name": "5b3f7e9515b9011de9905bc9e44bf09e", "is_reserved": 0, "lon": -77.0280415, "is_disabled": 0, "fusion_lat": 0.0, "lat": 38.90127366666667, "bike_id": "5b3f7e9515b9011de9905bc9e44bf09e", "fusion_lon": 0.0}, {"rental_uris": {"ios": "https://dc.lft.to/lastmile_qr_scan", "android": "https://dc.lft.to/lastmile_qr_scan"}, "type": "electric_scooter", "name": "f235c9c318ec8b8e766877351356896b", "is_reserved": 0, "lon": -77.04691033333333, "is_disabled": 0, "fusion_lat": 0.0, "lat": 38.905674166666664, "bike_id": "f235c9c318ec8b8e766877351356896b", "fusion_lon": 0.0}, {"rental_uris": {"ios": "https://dc.lft.to/lastmile_qr_scan", "android": "https://dc.lft.to/lastmile_qr_scan"}, "type": "electric_scooter", "name": "205ef8abedafc42cc68daf4aefffef3f", "is_reserved": 0, "lon": -77.021124, "is_disabled": 0, "fusion_lat": 0.0, "lat": 38.926911833333335, "bike_id": "205ef8abedafc42cc68daf4aefffef3f", "fusion_lon": 0.0}, {"rental_uris": {"ios": "https://dc.lft.to/lastmile_qr_scan", "android": "https://dc.lft.to/lastmile_qr_scan"}, "type": "electric_scooter", "name": "2f497686617b6432ac47280fde5c7c62", "is_reserved": 0, "lon": -77.04345466666666, "is_disabled": 0, "fusion_lat": 0.0, "lat": 38.9130865, "bike_id": "2f497686617b6432ac47280fde5c7c62", "fusion_lon": 0.0}, {"rental_uris": {"ios": "https://dc.lft.to/lastmile_qr_scan", "android": "https://dc.lft.to/lastmile_qr_scan"}, "type": "electric_scooter", "name": "5a17f94e7ad467b0188e7fc972249e88", "is_reserved": 0, "lon": -77.03868933333334, "is_disabled": 0, "fusion_lat": 0.0, "lat": 38.90809466666666, "bike_id": "5a17f94e7ad467b0188e7fc972249e88", "fusion_lon": 0.0}, {"rental_uris": {"ios": "https://dc.lft.to/lastmile_qr_scan", "android": "https://dc.lft.to/lastmile_qr_scan"}, "type": "electric_scooter", "name": "d8bc352cd68651ccb22b8ec2500eff2f", "is_reserved": 0, "lon": -77.01618933333333, "is_disabled": 0, "fusion_lat": 0.0, "lat": 38.90607033333333, "bike_id": "d8bc352cd68651ccb22b8ec2500eff2f", "fusion_lon": 0.0}, {"rental_uris": {"ios": "https://dc.lft.to/lastmile_qr_scan", "android": "https://dc.lft.to/lastmile_qr_scan"}, "type": "electric_scooter", "name": "b2a71416c24f3b34a43b720ad1b91789", "is_reserved": 0, "lon": -77.03601933333333, "is_disabled": 0, "fusion_lat": 0.0, "lat": 38.907551833333336, "bike_id": "b2a71416c24f3b34a43b720ad1b91789", "fusion_lon": 0.0}, {"rental_uris": {"ios": "https://dc.lft.to/lastmile_qr_scan", "android": "https://dc.lft.to/lastmile_qr_scan"}, "type": "electric_scooter", "name": "d81918fe37788b0bffacff729befa69e", "is_reserved": 0, "lon": -76.99514183333334, "is_disabled": 0, "fusion_lat": 0.0, "lat": 38.8879085, "bike_id": "d81918fe37788b0bffacff729befa69e", "fusion_lon": 0.0}, {"rental_uris": {"ios": "https://dc.lft.to/lastmile_qr_scan", "android": "https://dc.lft.to/lastmile_qr_scan"}, "type": "electric_scooter", "name": "6cb43d7403a00b5405b14f86fd6b41cd", "is_reserved": 0, "lon": -77.033912, "is_disabled": 0, "fusion_lat": 0.0, "lat": 38.92875466666667, "bike_id": "6cb43d7403a00b5405b14f86fd6b41cd", "fusion_lon": 0.0}, {"rental_uris": {"ios": "https://dc.lft.to/lastmile_qr_scan", "android": "https://dc.lft.to/lastmile_qr_scan"}, "type": "electric_scooter", "name": "8a7996eddd071fa44f6f9c22c5c3618d", "is_reserved": 0, "lon": -76.9948005, "is_disabled": 0, "fusion_lat": 0.0, "lat": 38.86216433333333, "bike_id": "8a7996eddd071fa44f6f9c22c5c3618d", "fusion_lon": 0.0}, {"rental_uris": {"ios": "https://dc.lft.to/lastmile_qr_scan", "android": "https://dc.lft.to/lastmile_qr_scan"}, "type": "electric_scooter", "name": "cb18838aab7b5c68bd748a9ed29979c2", "is_reserved": 0, "lon": -77.05591433333333, "is_disabled": 0, "fusion_lat": 0.0, "lat": 38.90535716666667, "bike_id": "cb18838aab7b5c68bd748a9ed29979c2", "fusion_lon": 0.0}, {"rental_uris": {"ios": "https://dc.lft.to/lastmile_qr_scan", "android": "https://dc.lft.to/lastmile_qr_scan"}, "type": "electric_scooter", "name": "2553c8b039327a24a126501d58ed8eca", "is_reserved": 0, "lon": -77.03785266666667, "is_disabled": 0, "fusion_lat": 0.0, "lat": 38.9253805, "bike_id": "2553c8b039327a24a126501d58ed8eca", "fusion_lon": 0.0}, {"rental_uris": {"ios": "https://dc.lft.to/lastmile_qr_scan", "android": "https://dc.lft.to/lastmile_qr_scan"}, "type": "electric_scooter", "name": "5909525261dd040fcfdf8df495b72480", "is_reserved": 0, "lon": -77.00072866666666, "is_disabled": 0, "fusion_lat": 0.0, "lat": 38.894881833333336, "bike_id": "5909525261dd040fcfdf8df495b72480", "fusion_lon": 0.0}, {"rental_uris": {"ios": "https://dc.lft.to/lastmile_qr_scan", "android": "https://dc.lft.to/lastmile_qr_scan"}, "type": "electric_scooter", "name": "ab6cbdabef959441336dfb924634e562", "is_reserved": 0, "lon": -77.01763816666667, "is_disabled": 0, "fusion_lat": 0.0, "lat": 38.87684516666667, "bike_id": "ab6cbdabef959441336dfb924634e562", "fusion_lon": 0.0}, {"rental_uris": {"ios": "https://dc.lft.to/lastmile_qr_scan", "android": "https://dc.lft.to/lastmile_qr_scan"}, "type": "electric_scooter", "name": "890019076dd88ee01533e8e222ec0390", "is_reserved": 0, "lon": -77.06417783333333, "is_disabled": 0, "fusion_lat": 0.0, "lat": 38.909136333333336, "bike_id": "890019076dd88ee01533e8e222ec0390", "fusion_lon": 0.0}, {"rental_uris": {"ios": "https://dc.lft.to/lastmile_qr_scan", "android": "https://dc.lft.to/lastmile_qr_scan"}, "type": "electric_scooter", "name": "efd1c1e00626a208b56a2d0f67a7bc2b", "is_reserved": 0, "lon": -77.0242365, "is_disabled": 0, "fusion_lat": 0.0, "lat": 38.918201833333335, "bike_id": "efd1c1e00626a208b56a2d0f67a7bc2b", "fusion_lon": 0.0}, {"rental_uris": {"ios": "https://dc.lft.to/lastmile_qr_scan", "android": "https://dc.lft.to/lastmile_qr_scan"}, "type": "electric_scooter", "name": "3c727fa737032027b349c4ccbb9496f6", "is_reserved": 0, "lon": -77.0296825, "is_disabled": 0, "fusion_lat": 0.0, "lat": 38.9356025, "bike_id": "3c727fa737032027b349c4ccbb9496f6", "fusion_lon": 0.0}, {"rental_uris": {"ios": "https://dc.lft.to/lastmile_qr_scan", "android": "https://dc.lft.to/lastmile_qr_scan"}, "type": "electric_scooter", "name": "94b51cdd1c4965c630952e9a3507a009", "is_reserved": 0, "lon": -77.044358, "is_disabled": 0, "fusion_lat": 0.0, "lat": 38.9212425, "bike_id": "94b51cdd1c4965c630952e9a3507a009", "fusion_lon": 0.0}, {"rental_uris": {"ios": "https://dc.lft.to/lastmile_qr_scan", "android": "https://dc.lft.to/lastmile_qr_scan"}, "type": "electric_scooter", "name": "9c12b803977380892a79ff6aad28f834", "is_reserved": 0, "lon": -77.03063066666667, "is_disabled": 0, "fusion_lat": 0.0, "lat": 38.92374933333333, "bike_id": "9c12b803977380892a79ff6aad28f834", "fusion_lon": 0.0}, {"rental_uris": {"ios": "https://dc.lft.to/lastmile_qr_scan", "android": "https://dc.lft.to/lastmile_qr_scan"}, "type": "electric_scooter", "name": "7dd6e5e7817a61c4d8182c368544d77a", "is_reserved": 0, "lon": -77.00483783333334, "is_disabled": 0, "fusion_lat": 0.0, "lat": 38.874577, "bike_id": "7dd6e5e7817a61c4d8182c368544d77a", "fusion_lon": 0.0}, {"rental_uris": {"ios": "https://dc.lft.to/lastmile_qr_scan", "android": "https://dc.lft.to/lastmile_qr_scan"}, "type": "electric_scooter", "name": "82de1dd38a82e6a72c6b0b0d63dfbf87", "is_reserved": 0, "lon": -77.0238915, "is_disabled": 0, "fusion_lat": 0.0, "lat": 38.920812166666664, "bike_id": "82de1dd38a82e6a72c6b0b0d63dfbf87", "fusion_lon": 0.0}, {"rental_uris": {"ios": "https://dc.lft.to/lastmile_qr_scan", "android": "https://dc.lft.to/lastmile_qr_scan"}, "type": "electric_scooter", "name": "64860ecc5e563d38d498d536796a4212", "is_reserved": 0, "lon": -77.04144466666666, "is_disabled": 0, "fusion_lat": 0.0, "lat": 38.907356166666666, "bike_id": "64860ecc5e563d38d498d536796a4212", "fusion_lon": 0.0}, {"rental_uris": {"ios": "https://dc.lft.to/lastmile_qr_scan", "android": "https://dc.lft.to/lastmile_qr_scan"}, "type": "electric_scooter", "name": "c9c08d0632b12048b8cc673b702fa0a6", "is_reserved": 0, "lon": -77.03966966666667, "is_disabled": 0, "fusion_lat": 0.0, "lat": 38.9246245, "bike_id": "c9c08d0632b12048b8cc673b702fa0a6", "fusion_lon": 0.0}, {"rental_uris": {"ios": "https://dc.lft.to/lastmile_qr_scan", "android": "https://dc.lft.to/lastmile_qr_scan"}, "type": "electric_bike", "name": "ad34fab2e156c39817ca67c67a963325", "is_reserved": 0, "lon": -76.938638, "is_disabled": 0, "fusion_lat": 0.0, "lat": 38.977761666666666, "bike_id": "ad34fab2e156c39817ca67c67a963325", "fusion_lon": 0.0}, {"rental_uris": {"ios": "https://dc.lft.to/lastmile_qr_scan", "android": "https://dc.lft.to/lastmile_qr_scan"}, "type": "electric_scooter", "name": "e6320b63e364af1d602284096f08e69a", "is_reserved": 0, "lon": -77.09369566666666, "is_disabled": 0, "fusion_lat": 0.0, "lat": 38.884035, "bike_id": "e6320b63e364af1d602284096f08e69a", "fusion_lon": 0.0}, {"rental_uris": {"ios": "https://dc.lft.to/lastmile_qr_scan", "android": "https://dc.lft.to/lastmile_qr_scan"}, "type": "electric_scooter", "name": "3ffa18d0cf813a478f9c6b77ca128f12", "is_reserved": 0, "lon": -77.01870983333333, "is_disabled": 0, "fusion_lat": 0.0, "lat": 38.93047283333333, "bike_id": "3ffa18d0cf813a478f9c6b77ca128f12", "fusion_lon": 0.0}, {"rental_uris": {"ios": "https://dc.lft.to/lastmile_qr_scan", "android": "https://dc.lft.to/lastmile_qr_scan"}, "type": "electric_scooter", "name": "21e3f7cc865d786bcd5e98e88ad2d502", "is_reserved": 0, "lon": -77.035201, "is_disabled": 0, "fusion_lat": 0.0, "lat": 38.92242783333333, "bike_id": "21e3f7cc865d786bcd5e98e88ad2d502", "fusion_lon": 0.0}, {"rental_uris": {"ios": "https://dc.lft.to/lastmile_qr_scan", "android": "https://dc.lft.to/lastmile_qr_scan"}, "type": "electric_scooter", "name": "9e53d5b4fe7e08ce66fc725412a85762", "is_reserved": 0, "lon": -77.04089416666666, "is_disabled": 0, "fusion_lat": 0.0, "lat": 38.9104745, "bike_id": "9e53d5b4fe7e08ce66fc725412a85762", "fusion_lon": 0.0}, {"rental_uris": {"ios": "https://dc.lft.to/lastmile_qr_scan", "android": "https://dc.lft.to/lastmile_qr_scan"}, "type": "electric_scooter", "name": "68d3aa7cbd3b9487acb8f4e9b0b17735", "is_reserved": 0, "lon": -77.01890683333333, "is_disabled": 0, "fusion_lat": 0.0, "lat": 38.89750016666667, "bike_id": "68d3aa7cbd3b9487acb8f4e9b0b17735", "fusion_lon": 0.0}, {"rental_uris": {"ios": "https://dc.lft.to/lastmile_qr_scan", "android": "https://dc.lft.to/lastmile_qr_scan"}, "type": "electric_scooter", "name": "c66ecd672083245acadc0a5b23576fc3", "is_reserved": 0, "lon": -77.04267866666666, "is_disabled": 0, "fusion_lat": 0.0, "lat": 38.9229895, "bike_id": "c66ecd672083245acadc0a5b23576fc3", "fusion_lon": 0.0}, {"rental_uris": {"ios": "https://dc.lft.to/lastmile_qr_scan", "android": "https://dc.lft.to/lastmile_qr_scan"}, "type": "electric_scooter", "name": "d8f2163f6aff9e14f0123b007bdc3b0f", "is_reserved": 0, "lon": -77.0384185, "is_disabled": 0, "fusion_lat": 0.0, "lat": 38.907203833333334, "bike_id": "d8f2163f6aff9e14f0123b007bdc3b0f", "fusion_lon": 0.0}, {"rental_uris": {"ios": "https://dc.lft.to/lastmile_qr_scan", "android": "https://dc.lft.to/lastmile_qr_scan"}, "type": "electric_scooter", "name": "f4b5f620d81c0b9044d06256323a2640", "is_reserved": 0, "lon": -77.03800466666667, "is_disabled": 0, "fusion_lat": 0.0, "lat": 38.91037266666667, "bike_id": "f4b5f620d81c0b9044d06256323a2640", "fusion_lon": 0.0}, {"rental_uris": {"ios": "https://dc.lft.to/lastmile_qr_scan", "android": "https://dc.lft.to/lastmile_qr_scan"}, "type": "electric_scooter", "name": "309168f23ad5c5a5ccab08e1f546db0f", "is_reserved": 0, "lon": -77.04236016666667, "is_disabled": 0, "fusion_lat": 0.0, "lat": 38.92274116666667, "bike_id": "309168f23ad5c5a5ccab08e1f546db0f", "fusion_lon": 0.0}, {"rental_uris": {"ios": "https://dc.lft.to/lastmile_qr_scan", "android": "https://dc.lft.to/lastmile_qr_scan"}, "type": "electric_scooter", "name": "7fe74bc68f1448f3add65e0f941e2363", "is_reserved": 0, "lon": -77.00896416666667, "is_disabled": 0, "fusion_lat": 0.0, "lat": 38.89606633333333, "bike_id": "7fe74bc68f1448f3add65e0f941e2363", "fusion_lon": 0.0}, {"rental_uris": {"ios": "https://dc.lft.to/lastmile_qr_scan", "android": "https://dc.lft.to/lastmile_qr_scan"}, "type": "electric_bike", "name": "4799cdc3cad86ae12383e502c3387bf0", "is_reserved": 0, "lon": -77.07242583333333, "is_disabled": 0, "fusion_lat": 0.0, "lat": 38.81361883333334, "bike_id": "4799cdc3cad86ae12383e502c3387bf0", "fusion_lon": 0.0}, {"rental_uris": {"ios": "https://dc.lft.to/lastmile_qr_scan", "android": "https://dc.lft.to/lastmile_qr_scan"}, "type": "electric_scooter", "name": "eda96f1e2c1c83c6be2747ba9206f94e", "is_reserved": 0, "lon": -77.03216966666666, "is_disabled": 0, "fusion_lat": 0.0, "lat": 38.924909666666665, "bike_id": "eda96f1e2c1c83c6be2747ba9206f94e", "fusion_lon": 0.0}, {"rental_uris": {"ios": "https://dc.lft.to/lastmile_qr_scan", "android": "https://dc.lft.to/lastmile_qr_scan"}, "type": "electric_scooter", "name": "bf92c770f297c69929ec0985acf687c8", "is_reserved": 0, "lon": -77.00049016666667, "is_disabled": 0, "fusion_lat": 0.0, "lat": 38.87683366666667, "bike_id": "bf92c770f297c69929ec0985acf687c8", "fusion_lon": 0.0}, {"rental_uris": {"ios": "https://dc.lft.to/lastmile_qr_scan", "android": "https://dc.lft.to/lastmile_qr_scan"}, "type": "electric_scooter", "name": "70e3e5a45ea2e0bb2a2daee20d6a62dc", "is_reserved": 0, "lon": -77.05210166666667, "is_disabled": 0, "fusion_lat": 0.0, "lat": 38.9246045, "bike_id": "70e3e5a45ea2e0bb2a2daee20d6a62dc", "fusion_lon": 0.0}, {"rental_uris": {"ios": "https://dc.lft.to/lastmile_qr_scan", "android": "https://dc.lft.to/lastmile_qr_scan"}, "type": "electric_scooter", "name": "e658e3a3b0bf8464c22794f81f11d0bb", "is_reserved": 0, "lon": -77.03769983333333, "is_disabled": 0, "fusion_lat": 0.0, "lat": 38.9256285, "bike_id": "e658e3a3b0bf8464c22794f81f11d0bb", "fusion_lon": 0.0}, {"rental_uris": {"ios": "https://dc.lft.to/lastmile_qr_scan", "android": "https://dc.lft.to/lastmile_qr_scan"}, "type": "electric_scooter", "name": "927d3fff4257a7f38827e9b55d079652", "is_reserved": 0, "lon": -76.99010766666666, "is_disabled": 0, "fusion_lat": 0.0, "lat": 38.903908333333334, "bike_id": "927d3fff4257a7f38827e9b55d079652", "fusion_lon": 0.0}, {"rental_uris": {"ios": "https://dc.lft.to/lastmile_qr_scan", "android": "https://dc.lft.to/lastmile_qr_scan"}, "type": "electric_scooter", "name": "ab5482ed2444a457f363c8fba5d016cc", "is_reserved": 0, "lon": -77.04241133333333, "is_disabled": 0, "fusion_lat": 0.0, "lat": 38.910652166666665, "bike_id": "ab5482ed2444a457f363c8fba5d016cc", "fusion_lon": 0.0}, {"rental_uris": {"ios": "https://dc.lft.to/lastmile_qr_scan", "android": "https://dc.lft.to/lastmile_qr_scan"}, "type": "electric_scooter", "name": "ff60cd9fc5c94ad6b5a688ef294972a2", "is_reserved": 0, "lon": -77.02584633333333, "is_disabled": 0, "fusion_lat": 0.0, "lat": 38.90175416666666, "bike_id": "ff60cd9fc5c94ad6b5a688ef294972a2", "fusion_lon": 0.0}, {"rental_uris": {"ios": "https://dc.lft.to/lastmile_qr_scan", "android": "https://dc.lft.to/lastmile_qr_scan"}, "type": "electric_scooter", "name": "f8b28b2335a10e369d5622418d360e47", "is_reserved": 0, "lon": -76.93744933333333, "is_disabled": 0, "fusion_lat": 0.0, "lat": 38.890075333333336, "bike_id": "f8b28b2335a10e369d5622418d360e47", "fusion_lon": 0.0}, {"rental_uris": {"ios": "https://dc.lft.to/lastmile_qr_scan", "android": "https://dc.lft.to/lastmile_qr_scan"}, "type": "electric_scooter", "name": "d4e4cb22cc0e0ed280e78070fdadab81", "is_reserved": 0, "lon": -76.99960333333334, "is_disabled": 0, "fusion_lat": 0.0, "lat": 38.908610333333336, "bike_id": "d4e4cb22cc0e0ed280e78070fdadab81", "fusion_lon": 0.0}, {"rental_uris": {"ios": "https://dc.lft.to/lastmile_qr_scan", "android": "https://dc.lft.to/lastmile_qr_scan"}, "type": "electric_scooter", "name": "9434bf27cf4c9cb327055e11707a00b5", "is_reserved": 0, "lon": -77.01898533333333, "is_disabled": 0, "fusion_lat": 0.0, "lat": 38.87711766666666, "bike_id": "9434bf27cf4c9cb327055e11707a00b5", "fusion_lon": 0.0}, {"rental_uris": {"ios": "https://dc.lft.to/lastmile_qr_scan", "android": "https://dc.lft.to/lastmile_qr_scan"}, "type": "electric_bike", "name": "7abd79b626f4083b360e165f68b1a561", "is_reserved": 0, "lon": -76.973163, "is_disabled": 0, "fusion_lat": 0.0, "lat": 38.917632, "bike_id": "7abd79b626f4083b360e165f68b1a561", "fusion_lon": 0.0}, {"rental_uris": {"ios": "https://dc.lft.to/lastmile_qr_scan", "android": "https://dc.lft.to/lastmile_qr_scan"}, "type": "electric_scooter", "name": "439f088bafd9f785775365dd2acaf4c3", "is_reserved": 0, "lon": -77.03441316666667, "is_disabled": 0, "fusion_lat": 0.0, "lat": 38.907977833333334, "bike_id": "439f088bafd9f785775365dd2acaf4c3", "fusion_lon": 0.0}, {"rental_uris": {"ios": "https://dc.lft.to/lastmile_qr_scan", "android": "https://dc.lft.to/lastmile_qr_scan"}, "type": "electric_bike", "name": "2bb155468da2a377e076f6f0779021d7", "is_reserved": 0, "lon": -77.07748883333333, "is_disabled": 0, "fusion_lat": 0.0, "lat": 38.841894, "bike_id": "2bb155468da2a377e076f6f0779021d7", "fusion_lon": 0.0}, {"rental_uris": {"ios": "https://dc.lft.to/lastmile_qr_scan", "android": "https://dc.lft.to/lastmile_qr_scan"}, "type": "electric_scooter", "name": "6953b9438e90459f8d6b14822ffcec50", "is_reserved": 0, "lon": -77.0356875, "is_disabled": 0, "fusion_lat": 0.0, "lat": 38.90966, "bike_id": "6953b9438e90459f8d6b14822ffcec50", "fusion_lon": 0.0}, {"rental_uris": {"ios": "https://dc.lft.to/lastmile_qr_scan", "android": "https://dc.lft.to/lastmile_qr_scan"}, "type": "electric_scooter", "name": "4c56c77b5e6d974770c5fcd21d3d8e86", "is_reserved": 0, "lon": -76.99247383333334, "is_disabled": 0, "fusion_lat": 0.0, "lat": 38.94065533333333, "bike_id": "4c56c77b5e6d974770c5fcd21d3d8e86", "fusion_lon": 0.0}, {"rental_uris": {"ios": "https://dc.lft.to/lastmile_qr_scan", "android": "https://dc.lft.to/lastmile_qr_scan"}, "type": "electric_scooter", "name": "88b1dddc68384e653c872c2425a5ef24", "is_reserved": 0, "lon": -77.032359, "is_disabled": 0, "fusion_lat": 0.0, "lat": 38.91561766666667, "bike_id": "88b1dddc68384e653c872c2425a5ef24", "fusion_lon": 0.0}, {"rental_uris": {"ios": "https://dc.lft.to/lastmile_qr_scan", "android": "https://dc.lft.to/lastmile_qr_scan"}, "type": "electric_scooter", "name": "0b29940eb0eb8a894d3bef11539cfafd", "is_reserved": 0, "lon": -76.96525983333333, "is_disabled": 0, "fusion_lat": 0.0, "lat": 38.87631983333333, "bike_id": "0b29940eb0eb8a894d3bef11539cfafd", "fusion_lon": 0.0}, {"rental_uris": {"ios": "https://dc.lft.to/lastmile_qr_scan", "android": "https://dc.lft.to/lastmile_qr_scan"}, "type": "electric_bike", "name": "1c69a0cebab2d817f1b905b53d753c1c", "is_reserved": 0, "lon": -76.96084466666667, "is_disabled": 0, "fusion_lat": 0.0, "lat": 38.918522833333334, "bike_id": "1c69a0cebab2d817f1b905b53d753c1c", "fusion_lon": 0.0}, {"rental_uris": {"ios": "https://dc.lft.to/lastmile_qr_scan", "android": "https://dc.lft.to/lastmile_qr_scan"}, "type": "electric_scooter", "name": "4c70620242b7018942c75885ca709b41", "is_reserved": 0, "lon": -77.048836, "is_disabled": 0, "fusion_lat": 0.0, "lat": 38.90720916666667, "bike_id": "4c70620242b7018942c75885ca709b41", "fusion_lon": 0.0}, {"rental_uris": {"ios": "https://dc.lft.to/lastmile_qr_scan", "android": "https://dc.lft.to/lastmile_qr_scan"}, "type": "electric_scooter", "name": "d06e236fcd5f053244123b9a346d914d", "is_reserved": 0, "lon": -77.02553566666667, "is_disabled": 0, "fusion_lat": 0.0, "lat": 38.953985333333335, "bike_id": "d06e236fcd5f053244123b9a346d914d", "fusion_lon": 0.0}, {"rental_uris": {"ios": "https://dc.lft.to/lastmile_qr_scan", "android": "https://dc.lft.to/lastmile_qr_scan"}, "type": "electric_scooter", "name": "e4975b85b240964331e5f4dea14136af", "is_reserved": 0, "lon": -77.05090066666666, "is_disabled": 0, "fusion_lat": 0.0, "lat": 38.903789, "bike_id": "e4975b85b240964331e5f4dea14136af", "fusion_lon": 0.0}, {"rental_uris": {"ios": "https://dc.lft.to/lastmile_qr_scan", "android": "https://dc.lft.to/lastmile_qr_scan"}, "type": "electric_scooter", "name": "e4e64995ddfa1cdb87be51eb4e4c6092", "is_reserved": 0, "lon": -77.00634616666666, "is_disabled": 0, "fusion_lat": 0.0, "lat": 38.87862233333333, "bike_id": "e4e64995ddfa1cdb87be51eb4e4c6092", "fusion_lon": 0.0}, {"rental_uris": {"ios": "https://dc.lft.to/lastmile_qr_scan", "android": "https://dc.lft.to/lastmile_qr_scan"}, "type": "electric_scooter", "name": "16894a57a7769b746587bfb62e941186", "is_reserved": 0, "lon": -77.02962633333334, "is_disabled": 0, "fusion_lat": 0.0, "lat": 38.916754166666664, "bike_id": "16894a57a7769b746587bfb62e941186", "fusion_lon": 0.0}, {"rental_uris": {"ios": "https://dc.lft.to/lastmile_qr_scan", "android": "https://dc.lft.to/lastmile_qr_scan"}, "type": "electric_scooter", "name": "c471789918a7474a5f461df20f11a017", "is_reserved": 0, "lon": -77.04556416666667, "is_disabled": 0, "fusion_lat": 0.0, "lat": 38.9007595, "bike_id": "c471789918a7474a5f461df20f11a017", "fusion_lon": 0.0}, {"rental_uris": {"ios": "https://dc.lft.to/lastmile_qr_scan", "android": "https://dc.lft.to/lastmile_qr_scan"}, "type": "electric_scooter", "name": "29fec967953bc9c603d9c92d83aa0f1b", "is_reserved": 0, "lon": -77.02801666666667, "is_disabled": 0, "fusion_lat": 0.0, "lat": 38.89224883333333, "bike_id": "29fec967953bc9c603d9c92d83aa0f1b", "fusion_lon": 0.0}, {"rental_uris": {"ios": "https://dc.lft.to/lastmile_qr_scan", "android": "https://dc.lft.to/lastmile_qr_scan"}, "type": "electric_scooter", "name": "bb02de3dd52b78b64edaf295d92ecec1", "is_reserved": 0, "lon": -77.0381925, "is_disabled": 0, "fusion_lat": 0.0, "lat": 38.931141, "bike_id": "bb02de3dd52b78b64edaf295d92ecec1", "fusion_lon": 0.0}, {"rental_uris": {"ios": "https://dc.lft.to/lastmile_qr_scan", "android": "https://dc.lft.to/lastmile_qr_scan"}, "type": "electric_scooter", "name": "9f0ff3a25a79343181873a407bd8e784", "is_reserved": 0, "lon": -77.07166383333333, "is_disabled": 0, "fusion_lat": 0.0, "lat": 38.907663, "bike_id": "9f0ff3a25a79343181873a407bd8e784", "fusion_lon": 0.0}, {"rental_uris": {"ios": "https://dc.lft.to/lastmile_qr_scan", "android": "https://dc.lft.to/lastmile_qr_scan"}, "type": "electric_bike", "name": "1269523992f76e807747ffdf337483c5", "is_reserved": 0, "lon": -77.02709816666666, "is_disabled": 0, "fusion_lat": 0.0, "lat": 38.8980005, "bike_id": "1269523992f76e807747ffdf337483c5", "fusion_lon": 0.0}, {"rental_uris": {"ios": "https://dc.lft.to/lastmile_qr_scan", "android": "https://dc.lft.to/lastmile_qr_scan"}, "type": "electric_scooter", "name": "bf7ed553bd115d8fd2265e3178c590e4", "is_reserved": 0, "lon": -76.929468, "is_disabled": 0, "fusion_lat": 0.0, "lat": 38.903320666666666, "bike_id": "bf7ed553bd115d8fd2265e3178c590e4", "fusion_lon": 0.0}, {"rental_uris": {"ios": "https://dc.lft.to/lastmile_qr_scan", "android": "https://dc.lft.to/lastmile_qr_scan"}, "type": "electric_scooter", "name": "5d393ed0ee442c12b1cf5964d5ebf57e", "is_reserved": 0, "lon": -77.0629235, "is_disabled": 0, "fusion_lat": 0.0, "lat": 38.94372966666667, "bike_id": "5d393ed0ee442c12b1cf5964d5ebf57e", "fusion_lon": 0.0}, {"rental_uris": {"ios": "https://dc.lft.to/lastmile_qr_scan", "android": "https://dc.lft.to/lastmile_qr_scan"}, "type": "electric_scooter", "name": "69b005beb08104761c913201364fe398", "is_reserved": 0, "lon": -77.0238615, "is_disabled": 0, "fusion_lat": 0.0, "lat": 38.90649533333333, "bike_id": "69b005beb08104761c913201364fe398", "fusion_lon": 0.0}, {"rental_uris": {"ios": "https://dc.lft.to/lastmile_qr_scan", "android": "https://dc.lft.to/lastmile_qr_scan"}, "type": "electric_bike", "name": "ecfc14738cfe109b52a1047365ca6cc8", "is_reserved": 0, "lon": -76.9630465, "is_disabled": 0, "fusion_lat": 0.0, "lat": 38.8970165, "bike_id": "ecfc14738cfe109b52a1047365ca6cc8", "fusion_lon": 0.0}, {"rental_uris": {"ios": "https://dc.lft.to/lastmile_qr_scan", "android": "https://dc.lft.to/lastmile_qr_scan"}, "type": "electric_scooter", "name": "7fa24fd41ce6093af489207d6b3a713a", "is_reserved": 0, "lon": -77.0401505, "is_disabled": 0, "fusion_lat": 0.0, "lat": 38.92251433333333, "bike_id": "7fa24fd41ce6093af489207d6b3a713a", "fusion_lon": 0.0}, {"rental_uris": {"ios": "https://dc.lft.to/lastmile_qr_scan", "android": "https://dc.lft.to/lastmile_qr_scan"}, "type": "electric_bike", "name": "4319e8c1c0344b3c935c6925bd24e084", "is_reserved": 0, "lon": -77.08934366666666, "is_disabled": 0, "fusion_lat": 0.0, "lat": 38.8409675, "bike_id": "4319e8c1c0344b3c935c6925bd24e084", "fusion_lon": 0.0}, {"rental_uris": {"ios": "https://dc.lft.to/lastmile_qr_scan", "android": "https://dc.lft.to/lastmile_qr_scan"}, "type": "electric_scooter", "name": "7ff5f4ef3b668a295260d2a8146f7f40", "is_reserved": 0, "lon": -77.03509383333333, "is_disabled": 0, "fusion_lat": 0.0, "lat": 38.917078833333335, "bike_id": "7ff5f4ef3b668a295260d2a8146f7f40", "fusion_lon": 0.0}, {"rental_uris": {"ios": "https://dc.lft.to/lastmile_qr_scan", "android": "https://dc.lft.to/lastmile_qr_scan"}, "type": "electric_scooter", "name": "62cc72ef080abcd75a295e0240db4512", "is_reserved": 0, "lon": -77.02772916666666, "is_disabled": 0, "fusion_lat": 0.0, "lat": 38.96587683333333, "bike_id": "62cc72ef080abcd75a295e0240db4512", "fusion_lon": 0.0}, {"rental_uris": {"ios": "https://dc.lft.to/lastmile_qr_scan", "android": "https://dc.lft.to/lastmile_qr_scan"}, "type": "electric_scooter", "name": "7b5165b70588a85fe907f995bedd9185", "is_reserved": 0, "lon": -77.04096, "is_disabled": 0, "fusion_lat": 0.0, "lat": 38.92053333333333, "bike_id": "7b5165b70588a85fe907f995bedd9185", "fusion_lon": 0.0}, {"rental_uris": {"ios": "https://dc.lft.to/lastmile_qr_scan", "android": "https://dc.lft.to/lastmile_qr_scan"}, "type": "electric_scooter", "name": "db6cfaef8958a781952ee21fbc63f30a", "is_reserved": 0, "lon": -77.0385265, "is_disabled": 0, "fusion_lat": 0.0, "lat": 38.903939666666666, "bike_id": "db6cfaef8958a781952ee21fbc63f30a", "fusion_lon": 0.0}, {"rental_uris": {"ios": "https://dc.lft.to/lastmile_qr_scan", "android": "https://dc.lft.to/lastmile_qr_scan"}, "type": "electric_scooter", "name": "b12a693d4c3d3f78b0f3c0efa5985935", "is_reserved": 0, "lon": -77.00754916666666, "is_disabled": 0, "fusion_lat": 0.0, "lat": 38.87117633333333, "bike_id": "b12a693d4c3d3f78b0f3c0efa5985935", "fusion_lon": 0.0}, {"rental_uris": {"ios": "https://dc.lft.to/lastmile_qr_scan", "android": "https://dc.lft.to/lastmile_qr_scan"}, "type": "electric_bike", "name": "0e70868479fb8b910811f3421838147d", "is_reserved": 0, "lon": -77.00401883333333, "is_disabled": 0, "fusion_lat": 0.0, "lat": 38.9854475, "bike_id": "0e70868479fb8b910811f3421838147d", "fusion_lon": 0.0}, {"rental_uris": {"ios": "https://dc.lft.to/lastmile_qr_scan", "android": "https://dc.lft.to/lastmile_qr_scan"}, "type": "electric_scooter", "name": "c0b93f13d059312d160c4a092ff12a28", "is_reserved": 0, "lon": -77.0440145, "is_disabled": 0, "fusion_lat": 0.0, "lat": 38.929521, "bike_id": "c0b93f13d059312d160c4a092ff12a28", "fusion_lon": 0.0}, {"rental_uris": {"ios": "https://dc.lft.to/lastmile_qr_scan", "android": "https://dc.lft.to/lastmile_qr_scan"}, "type": "electric_scooter", "name": "075800f448b90893448a015d2db4541f", "is_reserved": 0, "lon": -77.02139083333333, "is_disabled": 0, "fusion_lat": 0.0, "lat": 38.89764366666667, "bike_id": "075800f448b90893448a015d2db4541f", "fusion_lon": 0.0}, {"rental_uris": {"ios": "https://dc.lft.to/lastmile_qr_scan", "android": "https://dc.lft.to/lastmile_qr_scan"}, "type": "electric_scooter", "name": "b213ef9294c0c22a288439bdfb8334b2", "is_reserved": 0, "lon": -77.01350133333334, "is_disabled": 0, "fusion_lat": 0.0, "lat": 38.89613266666667, "bike_id": "b213ef9294c0c22a288439bdfb8334b2", "fusion_lon": 0.0}, {"rental_uris": {"ios": "https://dc.lft.to/lastmile_qr_scan", "android": "https://dc.lft.to/lastmile_qr_scan"}, "type": "electric_scooter", "name": "3a5d3558dfe8a8120a4a4f859739e96f", "is_reserved": 0, "lon": -76.9994015, "is_disabled": 0, "fusion_lat": 0.0, "lat": 38.891715166666664, "bike_id": "3a5d3558dfe8a8120a4a4f859739e96f", "fusion_lon": 0.0}, {"rental_uris": {"ios": "https://dc.lft.to/lastmile_qr_scan", "android": "https://dc.lft.to/lastmile_qr_scan"}, "type": "electric_bike", "name": "2c1f596489ca906275a044aa96cf5edb", "is_reserved": 0, "lon": -77.09810866666666, "is_disabled": 0, "fusion_lat": 0.0, "lat": 38.8502085, "bike_id": "2c1f596489ca906275a044aa96cf5edb", "fusion_lon": 0.0}, {"rental_uris": {"ios": "https://dc.lft.to/lastmile_qr_scan", "android": "https://dc.lft.to/lastmile_qr_scan"}, "type": "electric_scooter", "name": "5fdbf0f577f2ed5b49f7e52387d24db4", "is_reserved": 0, "lon": -76.93813616666667, "is_disabled": 0, "fusion_lat": 0.0, "lat": 38.8984115, "bike_id": "5fdbf0f577f2ed5b49f7e52387d24db4", "fusion_lon": 0.0}, {"rental_uris": {"ios": "https://dc.lft.to/lastmile_qr_scan", "android": "https://dc.lft.to/lastmile_qr_scan"}, "type": "electric_scooter", "name": "9fb9268c10c1c8e262840cef3f17c9ac", "is_reserved": 0, "lon": -77.04639766666666, "is_disabled": 0, "fusion_lat": 0.0, "lat": 38.90643883333333, "bike_id": "9fb9268c10c1c8e262840cef3f17c9ac", "fusion_lon": 0.0}, {"rental_uris": {"ios": "https://dc.lft.to/lastmile_qr_scan", "android": "https://dc.lft.to/lastmile_qr_scan"}, "type": "electric_scooter", "name": "b25c5a6a573a87f4eac3c01aae896c97", "is_reserved": 0, "lon": -77.03863366666667, "is_disabled": 0, "fusion_lat": 0.0, "lat": 38.91111866666667, "bike_id": "b25c5a6a573a87f4eac3c01aae896c97", "fusion_lon": 0.0}, {"rental_uris": {"ios": "https://dc.lft.to/lastmile_qr_scan", "android": "https://dc.lft.to/lastmile_qr_scan"}, "type": "electric_scooter", "name": "46f706413d5d71fda15856d4808d285e", "is_reserved": 0, "lon": -77.0425585, "is_disabled": 0, "fusion_lat": 0.0, "lat": 38.904298833333335, "bike_id": "46f706413d5d71fda15856d4808d285e", "fusion_lon": 0.0}, {"rental_uris": {"ios": "https://dc.lft.to/lastmile_qr_scan", "android": "https://dc.lft.to/lastmile_qr_scan"}, "type": "electric_scooter", "name": "a73eaacf96ec91f3dd3f9fbba7c8767c", "is_reserved": 0, "lon": -77.02233033333333, "is_disabled": 0, "fusion_lat": 0.0, "lat": 38.89845066666667, "bike_id": "a73eaacf96ec91f3dd3f9fbba7c8767c", "fusion_lon": 0.0}, {"rental_uris": {"ios": "https://dc.lft.to/lastmile_qr_scan", "android": "https://dc.lft.to/lastmile_qr_scan"}, "type": "electric_bike", "name": "0b54cdd4797dea4be802f1a11f6ba63b", "is_reserved": 0, "lon": -76.99917183333334, "is_disabled": 0, "fusion_lat": 0.0, "lat": 38.994639666666664, "bike_id": "0b54cdd4797dea4be802f1a11f6ba63b", "fusion_lon": 0.0}, {"rental_uris": {"ios": "https://dc.lft.to/lastmile_qr_scan", "android": "https://dc.lft.to/lastmile_qr_scan"}, "type": "electric_scooter", "name": "3296707451045df81a862e29aa33f43a", "is_reserved": 0, "lon": -77.045958, "is_disabled": 0, "fusion_lat": 0.0, "lat": 38.9232785, "bike_id": "3296707451045df81a862e29aa33f43a", "fusion_lon": 0.0}, {"rental_uris": {"ios": "https://dc.lft.to/lastmile_qr_scan", "android": "https://dc.lft.to/lastmile_qr_scan"}, "type": "electric_scooter", "name": "d4f030e4f5ca476b1c59ced17af59dfa", "is_reserved": 0, "lon": -77.03262166666667, "is_disabled": 0, "fusion_lat": 0.0, "lat": 38.904404166666666, "bike_id": "d4f030e4f5ca476b1c59ced17af59dfa", "fusion_lon": 0.0}, {"rental_uris": {"ios": "https://dc.lft.to/lastmile_qr_scan", "android": "https://dc.lft.to/lastmile_qr_scan"}, "type": "electric_scooter", "name": "e4e37a79f3ea740707397030f4bc122c", "is_reserved": 0, "lon": -77.04752683333334, "is_disabled": 0, "fusion_lat": 0.0, "lat": 38.895911, "bike_id": "e4e37a79f3ea740707397030f4bc122c", "fusion_lon": 0.0}, {"rental_uris": {"ios": "https://dc.lft.to/lastmile_qr_scan", "android": "https://dc.lft.to/lastmile_qr_scan"}, "type": "electric_scooter", "name": "98c08a4a9765a07efc9dc06b65949a21", "is_reserved": 0, "lon": -77.06864966666667, "is_disabled": 0, "fusion_lat": 0.0, "lat": 38.95298366666667, "bike_id": "98c08a4a9765a07efc9dc06b65949a21", "fusion_lon": 0.0}, {"rental_uris": {"ios": "https://dc.lft.to/lastmile_qr_scan", "android": "https://dc.lft.to/lastmile_qr_scan"}, "type": "electric_scooter", "name": "161a9082b692c9413ac947e66a018583", "is_reserved": 0, "lon": -77.03658133333333, "is_disabled": 0, "fusion_lat": 0.0, "lat": 38.92097616666667, "bike_id": "161a9082b692c9413ac947e66a018583", "fusion_lon": 0.0}, {"rental_uris": {"ios": "https://dc.lft.to/lastmile_qr_scan", "android": "https://dc.lft.to/lastmile_qr_scan"}, "type": "electric_scooter", "name": "66db5c512d27dd5a28b18d7df70c5f6e", "is_reserved": 0, "lon": -77.06607466666667, "is_disabled": 0, "fusion_lat": 0.0, "lat": 38.91116183333333, "bike_id": "66db5c512d27dd5a28b18d7df70c5f6e", "fusion_lon": 0.0}, {"rental_uris": {"ios": "https://dc.lft.to/lastmile_qr_scan", "android": "https://dc.lft.to/lastmile_qr_scan"}, "type": "electric_scooter", "name": "67c01f36141fa1b2cc6630cf46859143", "is_reserved": 0, "lon": -77.01751116666667, "is_disabled": 0, "fusion_lat": 0.0, "lat": 38.9141935, "bike_id": "67c01f36141fa1b2cc6630cf46859143", "fusion_lon": 0.0}, {"rental_uris": {"ios": "https://dc.lft.to/lastmile_qr_scan", "android": "https://dc.lft.to/lastmile_qr_scan"}, "type": "electric_scooter", "name": "c7e2386b0747d77045e164b31d771e2b", "is_reserved": 0, "lon": -77.00017583333333, "is_disabled": 0, "fusion_lat": 0.0, "lat": 38.907969333333334, "bike_id": "c7e2386b0747d77045e164b31d771e2b", "fusion_lon": 0.0}, {"rental_uris": {"ios": "https://dc.lft.to/lastmile_qr_scan", "android": "https://dc.lft.to/lastmile_qr_scan"}, "type": "electric_scooter", "name": "63a45bea46777835564b7dec4123b57c", "is_reserved": 0, "lon": -77.00075866666667, "is_disabled": 0, "fusion_lat": 0.0, "lat": 38.874, "bike_id": "63a45bea46777835564b7dec4123b57c", "fusion_lon": 0.0}, {"rental_uris": {"ios": "https://dc.lft.to/lastmile_qr_scan", "android": "https://dc.lft.to/lastmile_qr_scan"}, "type": "electric_bike", "name": "6928e8ad342cd0e486e03f9fac1235bc", "is_reserved": 0, "lon": -76.96059866666667, "is_disabled": 0, "fusion_lat": 0.0, "lat": 38.8840335, "bike_id": "6928e8ad342cd0e486e03f9fac1235bc", "fusion_lon": 0.0}, {"rental_uris": {"ios": "https://dc.lft.to/lastmile_qr_scan", "android": "https://dc.lft.to/lastmile_qr_scan"}, "type": "electric_scooter", "name": "e262eaaa415959e4a61351784eb56e0f", "is_reserved": 0, "lon": -77.006038, "is_disabled": 0, "fusion_lat": 0.0, "lat": 38.90669833333333, "bike_id": "e262eaaa415959e4a61351784eb56e0f", "fusion_lon": 0.0}, {"rental_uris": {"ios": "https://dc.lft.to/lastmile_qr_scan", "android": "https://dc.lft.to/lastmile_qr_scan"}, "type": "electric_scooter", "name": "747dc3dd62e26e6a078d045b0b54d9ac", "is_reserved": 0, "lon": -76.92895566666667, "is_disabled": 0, "fusion_lat": 0.0, "lat": 38.879439833333336, "bike_id": "747dc3dd62e26e6a078d045b0b54d9ac", "fusion_lon": 0.0}, {"rental_uris": {"ios": "https://dc.lft.to/lastmile_qr_scan", "android": "https://dc.lft.to/lastmile_qr_scan"}, "type": "electric_scooter", "name": "21995b4f86dd3beda9f48810742a9ce2", "is_reserved": 0, "lon": -77.00041083333333, "is_disabled": 0, "fusion_lat": 0.0, "lat": 38.9001365, "bike_id": "21995b4f86dd3beda9f48810742a9ce2", "fusion_lon": 0.0}, {"rental_uris": {"ios": "https://dc.lft.to/lastmile_qr_scan", "android": "https://dc.lft.to/lastmile_qr_scan"}, "type": "electric_scooter", "name": "94859de79cc3a6c2f178a6d20fae5357", "is_reserved": 0, "lon": -77.02609833333334, "is_disabled": 0, "fusion_lat": 0.0, "lat": 38.900001833333334, "bike_id": "94859de79cc3a6c2f178a6d20fae5357", "fusion_lon": 0.0}, {"rental_uris": {"ios": "https://dc.lft.to/lastmile_qr_scan", "android": "https://dc.lft.to/lastmile_qr_scan"}, "type": "electric_scooter", "name": "1f3feede29e71b0ab89d4149f90e2829", "is_reserved": 0, "lon": -77.02972916666667, "is_disabled": 0, "fusion_lat": 0.0, "lat": 38.9072125, "bike_id": "1f3feede29e71b0ab89d4149f90e2829", "fusion_lon": 0.0}, {"rental_uris": {"ios": "https://dc.lft.to/lastmile_qr_scan", "android": "https://dc.lft.to/lastmile_qr_scan"}, "type": "electric_scooter", "name": "ca0bf94644103caa7504f697dad14caa", "is_reserved": 0, "lon": -76.98500516666667, "is_disabled": 0, "fusion_lat": 0.0, "lat": 38.903669, "bike_id": "ca0bf94644103caa7504f697dad14caa", "fusion_lon": 0.0}, {"rental_uris": {"ios": "https://dc.lft.to/lastmile_qr_scan", "android": "https://dc.lft.to/lastmile_qr_scan"}, "type": "electric_scooter", "name": "0e15ee827da6d0c5c5e7b0891f07ec36", "is_reserved": 0, "lon": -77.02355283333333, "is_disabled": 0, "fusion_lat": 0.0, "lat": 38.9420175, "bike_id": "0e15ee827da6d0c5c5e7b0891f07ec36", "fusion_lon": 0.0}, {"rental_uris": {"ios": "https://dc.lft.to/lastmile_qr_scan", "android": "https://dc.lft.to/lastmile_qr_scan"}, "type": "electric_scooter", "name": "f4405bf5be4bf4b6302a6aab07919f95", "is_reserved": 0, "lon": -77.01142166666666, "is_disabled": 0, "fusion_lat": 0.0, "lat": 38.906421, "bike_id": "f4405bf5be4bf4b6302a6aab07919f95", "fusion_lon": 0.0}, {"rental_uris": {"ios": "https://dc.lft.to/lastmile_qr_scan", "android": "https://dc.lft.to/lastmile_qr_scan"}, "type": "electric_scooter", "name": "6a6a2e133eefcd302f435bf725b4193a", "is_reserved": 0, "lon": -77.03661933333333, "is_disabled": 0, "fusion_lat": 0.0, "lat": 38.92357166666667, "bike_id": "6a6a2e133eefcd302f435bf725b4193a", "fusion_lon": 0.0}, {"rental_uris": {"ios": "https://dc.lft.to/lastmile_qr_scan", "android": "https://dc.lft.to/lastmile_qr_scan"}, "type": "electric_scooter", "name": "7de90c3b4f0a10eba6e9f30dedd38cf2", "is_reserved": 0, "lon": -77.0407225, "is_disabled": 0, "fusion_lat": 0.0, "lat": 38.92380516666667, "bike_id": "7de90c3b4f0a10eba6e9f30dedd38cf2", "fusion_lon": 0.0}, {"rental_uris": {"ios": "https://dc.lft.to/lastmile_qr_scan", "android": "https://dc.lft.to/lastmile_qr_scan"}, "type": "electric_scooter", "name": "6af5720a8956fb50858d0173715dbf3c", "is_reserved": 0, "lon": -77.03365, "is_disabled": 0, "fusion_lat": 0.0, "lat": 38.91064566666667, "bike_id": "6af5720a8956fb50858d0173715dbf3c", "fusion_lon": 0.0}, {"rental_uris": {"ios": "https://dc.lft.to/lastmile_qr_scan", "android": "https://dc.lft.to/lastmile_qr_scan"}, "type": "electric_scooter", "name": "bfc2f94ac90f99393e81dfed16e262f0", "is_reserved": 0, "lon": -77.031816, "is_disabled": 0, "fusion_lat": 0.0, "lat": 38.906961, "bike_id": "bfc2f94ac90f99393e81dfed16e262f0", "fusion_lon": 0.0}, {"rental_uris": {"ios": "https://dc.lft.to/lastmile_qr_scan", "android": "https://dc.lft.to/lastmile_qr_scan"}, "type": "electric_scooter", "name": "6c396a33ce1bd1938fbbb441eab92929", "is_reserved": 0, "lon": -77.03862116666667, "is_disabled": 0, "fusion_lat": 0.0, "lat": 38.92148866666667, "bike_id": "6c396a33ce1bd1938fbbb441eab92929", "fusion_lon": 0.0}, {"rental_uris": {"ios": "https://dc.lft.to/lastmile_qr_scan", "android": "https://dc.lft.to/lastmile_qr_scan"}, "type": "electric_scooter", "name": "c3b85aa9c40a27341edbf83fa7a874f6", "is_reserved": 0, "lon": -76.98033966666667, "is_disabled": 0, "fusion_lat": 0.0, "lat": 38.916801166666666, "bike_id": "c3b85aa9c40a27341edbf83fa7a874f6", "fusion_lon": 0.0}, {"rental_uris": {"ios": "https://dc.lft.to/lastmile_qr_scan", "android": "https://dc.lft.to/lastmile_qr_scan"}, "type": "electric_scooter", "name": "b17f1db5df9ff1ab2c61c8d95855bd45", "is_reserved": 0, "lon": -77.0173545, "is_disabled": 0, "fusion_lat": 0.0, "lat": 38.91243516666667, "bike_id": "b17f1db5df9ff1ab2c61c8d95855bd45", "fusion_lon": 0.0}, {"rental_uris": {"ios": "https://dc.lft.to/lastmile_qr_scan", "android": "https://dc.lft.to/lastmile_qr_scan"}, "type": "electric_scooter", "name": "329920a53f8308eeced77516dee2b3cd", "is_reserved": 0, "lon": -77.04392566666667, "is_disabled": 0, "fusion_lat": 0.0, "lat": 38.923589666666665, "bike_id": "329920a53f8308eeced77516dee2b3cd", "fusion_lon": 0.0}, {"rental_uris": {"ios": "https://dc.lft.to/lastmile_qr_scan", "android": "https://dc.lft.to/lastmile_qr_scan"}, "type": "electric_scooter", "name": "273e83551ffef7144c628e81860d2bc6", "is_reserved": 0, "lon": -77.00989333333334, "is_disabled": 0, "fusion_lat": 0.0, "lat": 38.87292633333333, "bike_id": "273e83551ffef7144c628e81860d2bc6", "fusion_lon": 0.0}, {"rental_uris": {"ios": "https://dc.lft.to/lastmile_qr_scan", "android": "https://dc.lft.to/lastmile_qr_scan"}, "type": "electric_bike", "name": "f2a76236aa33aaf1faf94eeebda6c33d", "is_reserved": 0, "lon": -76.99993783333333, "is_disabled": 0, "fusion_lat": 0.0, "lat": 38.923898666666666, "bike_id": "f2a76236aa33aaf1faf94eeebda6c33d", "fusion_lon": 0.0}, {"rental_uris": {"ios": "https://dc.lft.to/lastmile_qr_scan", "android": "https://dc.lft.to/lastmile_qr_scan"}, "type": "electric_scooter", "name": "66d4e8640b61a4620030c012e43a6cd7", "is_reserved": 0, "lon": -77.04910966666667, "is_disabled": 0, "fusion_lat": 0.0, "lat": 38.9193775, "bike_id": "66d4e8640b61a4620030c012e43a6cd7", "fusion_lon": 0.0}, {"rental_uris": {"ios": "https://dc.lft.to/lastmile_qr_scan", "android": "https://dc.lft.to/lastmile_qr_scan"}, "type": "electric_bike", "name": "36753e747e3ddb74bf6947d75baaa165", "is_reserved": 0, "lon": -76.94164066666667, "is_disabled": 0, "fusion_lat": 0.0, "lat": 38.865584, "bike_id": "36753e747e3ddb74bf6947d75baaa165", "fusion_lon": 0.0}, {"rental_uris": {"ios": "https://dc.lft.to/lastmile_qr_scan", "android": "https://dc.lft.to/lastmile_qr_scan"}, "type": "electric_scooter", "name": "02e8d762c61fd3e99cf7ca18f24d2f0a", "is_reserved": 0, "lon": -77.0347205, "is_disabled": 0, "fusion_lat": 0.0, "lat": 38.90737216666667, "bike_id": "02e8d762c61fd3e99cf7ca18f24d2f0a", "fusion_lon": 0.0}, {"rental_uris": {"ios": "https://dc.lft.to/lastmile_qr_scan", "android": "https://dc.lft.to/lastmile_qr_scan"}, "type": "electric_scooter", "name": "079000a5d3a3524d18d8077fba9cb55d", "is_reserved": 0, "lon": -77.01840116666666, "is_disabled": 0, "fusion_lat": 0.0, "lat": 38.90960916666667, "bike_id": "079000a5d3a3524d18d8077fba9cb55d", "fusion_lon": 0.0}, {"rental_uris": {"ios": "https://dc.lft.to/lastmile_qr_scan", "android": "https://dc.lft.to/lastmile_qr_scan"}, "type": "electric_scooter", "name": "6c0f7171409c76d9a5428645522d7e73", "is_reserved": 0, "lon": -77.03968833333333, "is_disabled": 0, "fusion_lat": 0.0, "lat": 38.90714883333333, "bike_id": "6c0f7171409c76d9a5428645522d7e73", "fusion_lon": 0.0}, {"rental_uris": {"ios": "https://dc.lft.to/lastmile_qr_scan", "android": "https://dc.lft.to/lastmile_qr_scan"}, "type": "electric_bike", "name": "164fd74666d583e80b7844837f619cc6", "is_reserved": 0, "lon": -76.99699333333334, "is_disabled": 0, "fusion_lat": 0.0, "lat": 38.83869266666667, "bike_id": "164fd74666d583e80b7844837f619cc6", "fusion_lon": 0.0}, {"rental_uris": {"ios": "https://dc.lft.to/lastmile_qr_scan", "android": "https://dc.lft.to/lastmile_qr_scan"}, "type": "electric_scooter", "name": "b9d47b78a6c3e39481509dc45b9f14c2", "is_reserved": 0, "lon": -77.00540816666667, "is_disabled": 0, "fusion_lat": 0.0, "lat": 38.874748833333335, "bike_id": "b9d47b78a6c3e39481509dc45b9f14c2", "fusion_lon": 0.0}, {"rental_uris": {"ios": "https://dc.lft.to/lastmile_qr_scan", "android": "https://dc.lft.to/lastmile_qr_scan"}, "type": "electric_scooter", "name": "5987014ee3f1d8b5961122efa50db6ff", "is_reserved": 0, "lon": -76.991506, "is_disabled": 0, "fusion_lat": 0.0, "lat": 38.900321166666664, "bike_id": "5987014ee3f1d8b5961122efa50db6ff", "fusion_lon": 0.0}, {"rental_uris": {"ios": "https://dc.lft.to/lastmile_qr_scan", "android": "https://dc.lft.to/lastmile_qr_scan"}, "type": "electric_scooter", "name": "55122f0faeea4da0e638807014686e59", "is_reserved": 0, "lon": -77.013733, "is_disabled": 0, "fusion_lat": 0.0, "lat": 38.869682166666664, "bike_id": "55122f0faeea4da0e638807014686e59", "fusion_lon": 0.0}, {"rental_uris": {"ios": "https://dc.lft.to/lastmile_qr_scan", "android": "https://dc.lft.to/lastmile_qr_scan"}, "type": "electric_scooter", "name": "d2e6dcf887085a5b144ba3fd1cdac9a1", "is_reserved": 0, "lon": -77.03577366666667, "is_disabled": 0, "fusion_lat": 0.0, "lat": 38.917658833333334, "bike_id": "d2e6dcf887085a5b144ba3fd1cdac9a1", "fusion_lon": 0.0}, {"rental_uris": {"ios": "https://dc.lft.to/lastmile_qr_scan", "android": "https://dc.lft.to/lastmile_qr_scan"}, "type": "electric_scooter", "name": "fbb53c0c6c200a95c2f1747e7ba9934d", "is_reserved": 0, "lon": -76.98076066666667, "is_disabled": 0, "fusion_lat": 0.0, "lat": 38.901755, "bike_id": "fbb53c0c6c200a95c2f1747e7ba9934d", "fusion_lon": 0.0}, {"rental_uris": {"ios": "https://dc.lft.to/lastmile_qr_scan", "android": "https://dc.lft.to/lastmile_qr_scan"}, "type": "electric_scooter", "name": "7dee096dcfdc25695ba5d302a1746f92", "is_reserved": 0, "lon": -77.05218483333333, "is_disabled": 0, "fusion_lat": 0.0, "lat": 38.924896833333335, "bike_id": "7dee096dcfdc25695ba5d302a1746f92", "fusion_lon": 0.0}, {"rental_uris": {"ios": "https://dc.lft.to/lastmile_qr_scan", "android": "https://dc.lft.to/lastmile_qr_scan"}, "type": "electric_scooter", "name": "a6b1249df6545ecfd9ae02f69ec893e3", "is_reserved": 0, "lon": -77.02405966666667, "is_disabled": 0, "fusion_lat": 0.0, "lat": 38.938073333333335, "bike_id": "a6b1249df6545ecfd9ae02f69ec893e3", "fusion_lon": 0.0}, {"rental_uris": {"ios": "https://dc.lft.to/lastmile_qr_scan", "android": "https://dc.lft.to/lastmile_qr_scan"}, "type": "electric_scooter", "name": "346756dead21bae219e0ad153f11d847", "is_reserved": 0, "lon": -77.04029266666667, "is_disabled": 0, "fusion_lat": 0.0, "lat": 38.911880333333336, "bike_id": "346756dead21bae219e0ad153f11d847", "fusion_lon": 0.0}, {"rental_uris": {"ios": "https://dc.lft.to/lastmile_qr_scan", "android": "https://dc.lft.to/lastmile_qr_scan"},