{"data": {"bikes": [{"bike_id": "c50e2e7bda013ae96859f56664bd4709", "type": "electric_scooter", "is_disabled": 0, "lat": 38.878784333333336, "rental_uris": {"ios": "https://dc.lft.to/lastmile_qr_scan", "android": "https://dc.lft.to/lastmile_qr_scan"}, "is_reserved": 0, "fusion_lon": 0.0, "fusion_lat": 0.0, "lon": -77.0231225, "name": "c50e2e7bda013ae96859f56664bd4709"}, {"bike_id": "64212646dc3b1b122d462f71ca196098", "type": "electric_scooter", "is_disabled": 0, "lat": 38.91106033333333, "rental_uris": {"ios": "https://dc.lft.to/lastmile_qr_scan", "android": "https://dc.lft.to/lastmile_qr_scan"}, "is_reserved": 0, "fusion_lon": 0.0, "fusion_lat": 0.0, "lon": -77.02135133333333, "name": "64212646dc3b1b122d462f71ca196098"}, {"bike_id": "2f786a42c3928739cbc2b6f469415511", "type": "electric_scooter", "is_disabled": 0, "lat": 38.923170666666664, "rental_uris": {"ios": "https://dc.lft.to/lastmile_qr_scan", "android": "https://dc.lft.to/lastmile_qr_scan"}, "is_reserved": 0, "fusion_lon": 0.0, "fusion_lat": 0.0, "lon": -77.03909933333334, "name": "2f786a42c3928739cbc2b6f469415511"}, {"bike_id": "06a09417dc6dd9a9812d6d0c9e245b3e", "type": "electric_scooter", "is_disabled": 0, "lat": 38.88623, "rental_uris": {"ios": "https://dc.lft.to/lastmile_qr_scan", "android": "https://dc.lft.to/lastmile_qr_scan"}, "is_reserved": 0, "fusion_lon": 0.0, "fusion_lat": 0.0, "lon": -76.99609866666667, "name": "06a09417dc6dd9a9812d6d0c9e245b3e"}, {"bike_id": "97373f660e79a2011b152999bfb65603", "type": "electric_scooter", "is_disabled": 0, "lat": 38.86777933333333, "rental_uris": {"ios": "https://dc.lft.to/lastmile_qr_scan", "android": "https://dc.lft.to/lastmile_qr_scan"}, "is_reserved": 0, "fusion_lon": 0.0, "fusion_lat": 0.0, "lon": -76.98848183333334, "name": "97373f660e79a2011b152999bfb65603"}, {"bike_id": "e054b6b941d058ceafba488b202f18ac", "type": "electric_scooter", "is_disabled": 0, "lat": 38.90228666666667, "rental_uris": {"ios": "https://dc.lft.to/lastmile_qr_scan", "android": "https://dc.lft.to/lastmile_qr_scan"}, "is_reserved": 0, "fusion_lon": 0.0, "fusion_lat": 0.0, "lon": -77.04130016666667, "name": "e054b6b941d058ceafba488b202f18ac"}, {"bike_id": "154e20dd14d1cb38bba4ce963b726d10", "type": "electric_scooter", "is_disabled": 0, "lat": 38.950007, "rental_uris": {"ios": "https://dc.lft.to/lastmile_qr_scan", "android": "https://dc.lft.to/lastmile_qr_scan"}, "is_reserved": 0, "fusion_lon": 0.0, "fusion_lat": 0.0, "lon": -77.01556833333333, "name": "154e20dd14d1cb38bba4ce963b726d10"}, {"bike_id": "0f36de757d88219edc31524784f2bb14", "type": "electric_scooter", "is_disabled": 0, "lat": 38.86242333333333, "rental_uris": {"ios": "https://dc.lft.to/lastmile_qr_scan", "android": "https://dc.lft.to/lastmile_qr_scan"}, "is_reserved": 0, "fusion_lon": 0.0, "fusion_lat": 0.0, "lon": -76.994946, "name": "0f36de757d88219edc31524784f2bb14"}, {"bike_id": "e6b0d435644f4019ac0830ffbe5d3b7e", "type": "electric_scooter", "is_disabled": 0, "lat": 38.90250016666667, "rental_uris": {"ios": "https://dc.lft.to/lastmile_qr_scan", "android": "https://dc.lft.to/lastmile_qr_scan"}, "is_reserved": 0, "fusion_lon": 0.0, "fusion_lat": 0.0, "lon": -77.017439, "name": "e6b0d435644f4019ac0830ffbe5d3b7e"}, {"bike_id": "32effa27710205538d047edbf9124303", "type": "electric_scooter", "is_disabled": 0, "lat": 38.9141005, "rental_uris": {"ios": "https://dc.lft.to/lastmile_qr_scan", "android": "https://dc.lft.to/lastmile_qr_scan"}, "is_reserved": 0, "fusion_lon": 0.0, "fusion_lat": 0.0, "lon": -77.02425016666666, "name": "32effa27710205538d047edbf9124303"}, {"bike_id": "0b1413bfd78052a7e7d94198eaecc788", "type": "electric_scooter", "is_disabled": 0, "lat": 38.901594333333335, "rental_uris": {"ios": "https://dc.lft.to/lastmile_qr_scan", "android": "https://dc.lft.to/lastmile_qr_scan"}, "is_reserved": 0, "fusion_lon": 0.0, "fusion_lat": 0.0, "lon": -77.02204133333333, "name": "0b1413bfd78052a7e7d94198eaecc788"}, {"bike_id": "1b631e2b95efaa65816b46170c88b50c", "type": "electric_scooter", "is_disabled": 0, "lat": 38.8853115, "rental_uris": {"ios": "https://dc.lft.to/lastmile_qr_scan", "android": "https://dc.lft.to/lastmile_qr_scan"}, "is_reserved": 0, "fusion_lon": 0.0, "fusion_lat": 0.0, "lon": -76.998242, "name": "1b631e2b95efaa65816b46170c88b50c"}, {"bike_id": "fd01a7585e59e5a227e24698dee3a186", "type": "electric_scooter", "is_disabled": 0, "lat": 38.9012675, "rental_uris": {"ios": "https://dc.lft.to/lastmile_qr_scan", "android": "https://dc.lft.to/lastmile_qr_scan"}, "is_reserved": 0, "fusion_lon": 0.0, "fusion_lat": 0.0, "lon": -77.01837466666667, "name": "fd01a7585e59e5a227e24698dee3a186"}, {"bike_id": "7b7d98328aa596c834b6ea01b7b1e7c5", "type": "electric_scooter", "is_disabled": 0, "lat": 38.89007983333333, "rental_uris": {"ios": "https://dc.lft.to/lastmile_qr_scan", "android": "https://dc.lft.to/lastmile_qr_scan"}, "is_reserved": 0, "fusion_lon": 0.0, "fusion_lat": 0.0, "lon": -76.93748116666667, "name": "7b7d98328aa596c834b6ea01b7b1e7c5"}, {"bike_id": "4e32052b3275a63d2ba86a06088c5c94", "type": "electric_scooter", "is_disabled": 0, "lat": 38.90440983333333, "rental_uris": {"ios": "https://dc.lft.to/lastmile_qr_scan", "android": "https://dc.lft.to/lastmile_qr_scan"}, "is_reserved": 0, "fusion_lon": 0.0, "fusion_lat": 0.0, "lon": -77.03464583333333, "name": "4e32052b3275a63d2ba86a06088c5c94"}, {"bike_id": "8f97620270a49473d75ac5712c258047", "type": "electric_scooter", "is_disabled": 0, "lat": 38.884080166666664, "rental_uris": {"ios": "https://dc.lft.to/lastmile_qr_scan", "android": "https://dc.lft.to/lastmile_qr_scan"}, "is_reserved": 0, "fusion_lon": 0.0, "fusion_lat": 0.0, "lon": -77.03185566666667, "name": "8f97620270a49473d75ac5712c258047"}, {"bike_id": "87a7834daaeb697669890aac3418cd68", "type": "electric_scooter", "is_disabled": 0, "lat": 38.932919166666665, "rental_uris": {"ios": "https://dc.lft.to/lastmile_qr_scan", "android": "https://dc.lft.to/lastmile_qr_scan"}, "is_reserved": 0, "fusion_lon": 0.0, "fusion_lat": 0.0, "lon": -77.04122633333333, "name": "87a7834daaeb697669890aac3418cd68"}, {"bike_id": "f97d4ddaa8310284b9a3e2ecbcdd8d32", "type": "electric_scooter", "is_disabled": 0, "lat": 38.90208616666666, "rental_uris": {"ios": "https://dc.lft.to/lastmile_qr_scan", "android": "https://dc.lft.to/lastmile_qr_scan"}, "is_reserved": 0, "fusion_lon": 0.0, "fusion_lat": 0.0, "lon": -77.02375533333333, "name": "f97d4ddaa8310284b9a3e2ecbcdd8d32"}, {"bike_id": "fc59cbef66cee10f22b7396475ba0c78", "type": "electric_scooter", "is_disabled": 0, "lat": 38.8954785, "rental_uris": {"ios": "https://dc.lft.to/lastmile_qr_scan", "android": "https://dc.lft.to/lastmile_qr_scan"}, "is_reserved": 0, "fusion_lon": 0.0, "fusion_lat": 0.0, "lon": -76.92950666666667, "name": "fc59cbef66cee10f22b7396475ba0c78"}, {"bike_id": "5c04a6d7094e0a31fc322458c27d6149", "type": "electric_bike", "is_disabled": 0, "lat": 38.85786683333333, "rental_uris": {"ios": "https://dc.lft.to/lastmile_qr_scan", "android": "https://dc.lft.to/lastmile_qr_scan"}, "is_reserved": 0, "fusion_lon": 0.0, "fusion_lat": 0.0, "lon": -77.12020266666667, "name": "5c04a6d7094e0a31fc322458c27d6149"}, {"bike_id": "9458542b2c7ce51bd51d383e1a480587", "type": "electric_scooter", "is_disabled": 0, "lat": 38.905617666666664, "rental_uris": {"ios": "https://dc.lft.to/lastmile_qr_scan", "android": "https://dc.lft.to/lastmile_qr_scan"}, "is_reserved": 0, "fusion_lon": 0.0, "fusion_lat": 0.0, "lon": -76.98143533333334, "name": "9458542b2c7ce51bd51d383e1a480587"}, {"bike_id": "8f27595cbf0d6833f14648a26f592144", "type": "electric_scooter", "is_disabled": 0, "lat": 38.926741666666665, "rental_uris": {"ios": "https://dc.lft.to/lastmile_qr_scan", "android": "https://dc.lft.to/lastmile_qr_scan"}, "is_reserved": 0, "fusion_lon": 0.0, "fusion_lat": 0.0, "lon": -77.0435205, "name": "8f27595cbf0d6833f14648a26f592144"}, {"bike_id": "c602136e06b657e8b368a7841c1d23f2", "type": "electric_scooter", "is_disabled": 0, "lat": 38.911318, "rental_uris": {"ios": "https://dc.lft.to/lastmile_qr_scan", "android": "https://dc.lft.to/lastmile_qr_scan"}, "is_reserved": 0, "fusion_lon": 0.0, "fusion_lat": 0.0, "lon": -77.06538283333333, "name": "c602136e06b657e8b368a7841c1d23f2"}, {"bike_id": "7a1591f5ccbe45d9487db22817379d0b", "type": "electric_scooter", "is_disabled": 0, "lat": 38.91459433333333, "rental_uris": {"ios": "https://dc.lft.to/lastmile_qr_scan", "android": "https://dc.lft.to/lastmile_qr_scan"}, "is_reserved": 0, "fusion_lon": 0.0, "fusion_lat": 0.0, "lon": -77.00213, "name": "7a1591f5ccbe45d9487db22817379d0b"}, {"bike_id": "d06fa3411ea1a2a71dc5fd0072b511e1", "type": "electric_scooter", "is_disabled": 0, "lat": 38.8996685, "rental_uris": {"ios": "https://dc.lft.to/lastmile_qr_scan", "android": "https://dc.lft.to/lastmile_qr_scan"}, "is_reserved": 0, "fusion_lon": 0.0, "fusion_lat": 0.0, "lon": -76.98299733333333, "name": "d06fa3411ea1a2a71dc5fd0072b511e1"}, {"bike_id": "9473b41c61b2bc1b4db5c78eb710d490", "type": "electric_scooter", "is_disabled": 0, "lat": 38.90851983333334, "rental_uris": {"ios": "https://dc.lft.to/lastmile_qr_scan", "android": "https://dc.lft.to/lastmile_qr_scan"}, "is_reserved": 0, "fusion_lon": 0.0, "fusion_lat": 0.0, "lon": -77.04769633333333, "name": "9473b41c61b2bc1b4db5c78eb710d490"}, {"bike_id": "1b9838a8c2097b76fde48b71d54e4fdd", "type": "electric_scooter", "is_disabled": 0, "lat": 38.90231216666667, "rental_uris": {"ios": "https://dc.lft.to/lastmile_qr_scan", "android": "https://dc.lft.to/lastmile_qr_scan"}, "is_reserved": 0, "fusion_lon": 0.0, "fusion_lat": 0.0, "lon": -77.002018, "name": "1b9838a8c2097b76fde48b71d54e4fdd"}, {"bike_id": "6f3ad71861576b44e88b5a5c08fb521d", "type": "electric_bike", "is_disabled": 0, "lat": 38.870968, "rental_uris": {"ios": "https://dc.lft.to/lastmile_qr_scan", "android": "https://dc.lft.to/lastmile_qr_scan"}, "is_reserved": 0, "fusion_lon": 0.0, "fusion_lat": 0.0, "lon": -77.0120785, "name": "6f3ad71861576b44e88b5a5c08fb521d"}, {"bike_id": "7f3850d6c8f6a7acdf5e4b4cff40bd4d", "type": "electric_scooter", "is_disabled": 0, "lat": 38.900068, "rental_uris": {"ios": "https://dc.lft.to/lastmile_qr_scan", "android": "https://dc.lft.to/lastmile_qr_scan"}, "is_reserved": 0, "fusion_lon": 0.0, "fusion_lat": 0.0, "lon": -77.0020215, "name": "7f3850d6c8f6a7acdf5e4b4cff40bd4d"}, {"bike_id": "495098066f97d591f9b1979172b0d3d7", "type": "electric_bike", "is_disabled": 0, "lat": 38.85890916666666, "rental_uris": {"ios": "https://dc.lft.to/lastmile_qr_scan", "android": "https://dc.lft.to/lastmile_qr_scan"}, "is_reserved": 0, "fusion_lon": 0.0, "fusion_lat": 0.0, "lon": -77.11861183333333, "name": "495098066f97d591f9b1979172b0d3d7"}, {"bike_id": "69280df0a987d1d7c0ea0ba792f40ce5", "type": "electric_scooter", "is_disabled": 0, "lat": 38.945570333333336, "rental_uris": {"ios": "https://dc.lft.to/lastmile_qr_scan", "android": "https://dc.lft.to/lastmile_qr_scan"}, "is_reserved": 0, "fusion_lon": 0.0, "fusion_lat": 0.0, "lon": -77.07125616666667, "name": "69280df0a987d1d7c0ea0ba792f40ce5"}, {"bike_id": "a256d01e13a0f427e792ac85aa110325", "type": "electric_scooter", "is_disabled": 0, "lat": 38.884466833333335, "rental_uris": {"ios": "https://dc.lft.to/lastmile_qr_scan", "android": "https://dc.lft.to/lastmile_qr_scan"}, "is_reserved": 0, "fusion_lon": 0.0, "fusion_lat": 0.0, "lon": -76.95098266666666, "name": "a256d01e13a0f427e792ac85aa110325"}, {"bike_id": "c8e25d10bbbb65f1d3652359aaf1a595", "type": "electric_scooter", "is_disabled": 0, "lat": 38.9233, "rental_uris": {"ios": "https://dc.lft.to/lastmile_qr_scan", "android": "https://dc.lft.to/lastmile_qr_scan"}, "is_reserved": 0, "fusion_lon": 0.0, "fusion_lat": 0.0, "lon": -77.05373466666667, "name": "c8e25d10bbbb65f1d3652359aaf1a595"}, {"bike_id": "e2062f86767c3303dee22abcef0b6f08", "type": "electric_scooter", "is_disabled": 0, "lat": 38.917888166666664, "rental_uris": {"ios": "https://dc.lft.to/lastmile_qr_scan", "android": "https://dc.lft.to/lastmile_qr_scan"}, "is_reserved": 0, "fusion_lon": 0.0, "fusion_lat": 0.0, "lon": -77.027128, "name": "e2062f86767c3303dee22abcef0b6f08"}, {"bike_id": "97ec2a9b55128e6c6f9e98d02c7e4537", "type": "electric_scooter", "is_disabled": 0, "lat": 38.910569833333334, "rental_uris": {"ios": "https://dc.lft.to/lastmile_qr_scan", "android": "https://dc.lft.to/lastmile_qr_scan"}, "is_reserved": 0, "fusion_lon": 0.0, "fusion_lat": 0.0, "lon": -77.0309115, "name": "97ec2a9b55128e6c6f9e98d02c7e4537"}, {"bike_id": "0d6110709701061a756eba35dbb0e0c3", "type": "electric_scooter", "is_disabled": 0, "lat": 38.929601166666664, "rental_uris": {"ios": "https://dc.lft.to/lastmile_qr_scan", "android": "https://dc.lft.to/lastmile_qr_scan"}, "is_reserved": 0, "fusion_lon": 0.0, "fusion_lat": 0.0, "lon": -77.03776666666667, "name": "0d6110709701061a756eba35dbb0e0c3"}, {"bike_id": "552069b85003d14fe772ade129a30dcf", "type": "electric_scooter", "is_disabled": 0, "lat": 38.90597116666667, "rental_uris": {"ios": "https://dc.lft.to/lastmile_qr_scan", "android": "https://dc.lft.to/lastmile_qr_scan"}, "is_reserved": 0, "fusion_lon": 0.0, "fusion_lat": 0.0, "lon": -76.9926245, "name": "552069b85003d14fe772ade129a30dcf"}, {"bike_id": "d5889fb7ad6c602b32b2ae50b5379ceb", "type": "electric_scooter", "is_disabled": 0, "lat": 38.90316883333333, "rental_uris": {"ios": "https://dc.lft.to/lastmile_qr_scan", "android": "https://dc.lft.to/lastmile_qr_scan"}, "is_reserved": 0, "fusion_lon": 0.0, "fusion_lat": 0.0, "lon": -76.97803033333334, "name": "d5889fb7ad6c602b32b2ae50b5379ceb"}, {"bike_id": "864f03eb411bfc393b2ee8eaa1693764", "type": "electric_scooter", "is_disabled": 0, "lat": 38.89201533333333, "rental_uris": {"ios": "https://dc.lft.to/lastmile_qr_scan", "android": "https://dc.lft.to/lastmile_qr_scan"}, "is_reserved": 0, "fusion_lon": 0.0, "fusion_lat": 0.0, "lon": -76.99934266666666, "name": "864f03eb411bfc393b2ee8eaa1693764"}, {"bike_id": "0cdb79affe588b77126f53e95b80f08f", "type": "electric_scooter", "is_disabled": 0, "lat": 38.924444333333334, "rental_uris": {"ios": "https://dc.lft.to/lastmile_qr_scan", "android": "https://dc.lft.to/lastmile_qr_scan"}, "is_reserved": 0, "fusion_lon": 0.0, "fusion_lat": 0.0, "lon": -77.0411195, "name": "0cdb79affe588b77126f53e95b80f08f"}, {"bike_id": "a9e536caf4157897bc9f957fc8e485c5", "type": "electric_scooter", "is_disabled": 0, "lat": 38.923264333333336, "rental_uris": {"ios": "https://dc.lft.to/lastmile_qr_scan", "android": "https://dc.lft.to/lastmile_qr_scan"}, "is_reserved": 0, "fusion_lon": 0.0, "fusion_lat": 0.0, "lon": -77.00052816666667, "name": "a9e536caf4157897bc9f957fc8e485c5"}, {"bike_id": "7948e06b00604f7ae5a8e99f020e8c2b", "type": "electric_scooter", "is_disabled": 0, "lat": 38.900094833333334, "rental_uris": {"ios": "https://dc.lft.to/lastmile_qr_scan", "android": "https://dc.lft.to/lastmile_qr_scan"}, "is_reserved": 0, "fusion_lon": 0.0, "fusion_lat": 0.0, "lon": -77.00593266666667, "name": "7948e06b00604f7ae5a8e99f020e8c2b"}, {"bike_id": "0c06c3936b09d810b38967b148442984", "type": "electric_scooter", "is_disabled": 0, "lat": 38.919304833333335, "rental_uris": {"ios": "https://dc.lft.to/lastmile_qr_scan", "android": "https://dc.lft.to/lastmile_qr_scan"}, "is_reserved": 0, "fusion_lon": 0.0, "fusion_lat": 0.0, "lon": -77.045023, "name": "0c06c3936b09d810b38967b148442984"}, {"bike_id": "5e9c83b1a209433ea84338a89fc7cb32", "type": "electric_scooter", "is_disabled": 0, "lat": 38.928845833333334, "rental_uris": {"ios": "https://dc.lft.to/lastmile_qr_scan", "android": "https://dc.lft.to/lastmile_qr_scan"}, "is_reserved": 0, "fusion_lon": 0.0, "fusion_lat": 0.0, "lon": -77.03232633333333, "name": "5e9c83b1a209433ea84338a89fc7cb32"}, {"bike_id": "2e8ff70fff69660e8bbf0293a77b755f", "type": "electric_scooter", "is_disabled": 0, "lat": 38.90565, "rental_uris": {"ios": "https://dc.lft.to/lastmile_qr_scan", "android": "https://dc.lft.to/lastmile_qr_scan"}, "is_reserved": 0, "fusion_lon": 0.0, "fusion_lat": 0.0, "lon": -77.005869, "name": "2e8ff70fff69660e8bbf0293a77b755f"}, {"bike_id": "844bb733257ce8fac3c001426a6cedae", "type": "electric_scooter", "is_disabled": 0, "lat": 38.92736816666667, "rental_uris": {"ios": "https://dc.lft.to/lastmile_qr_scan", "android": "https://dc.lft.to/lastmile_qr_scan"}, "is_reserved": 0, "fusion_lon": 0.0, "fusion_lat": 0.0, "lon": -77.03560616666667, "name": "844bb733257ce8fac3c001426a6cedae"}, {"bike_id": "3e0830431b9cef0bb22a8c0ad40cc2ec", "type": "electric_scooter", "is_disabled": 0, "lat": 38.8953575, "rental_uris": {"ios": "https://dc.lft.to/lastmile_qr_scan", "android": "https://dc.lft.to/lastmile_qr_scan"}, "is_reserved": 0, "fusion_lon": 0.0, "fusion_lat": 0.0, "lon": -76.9493405, "name": "3e0830431b9cef0bb22a8c0ad40cc2ec"}, {"bike_id": "0c77c8c219c40a21a82e14e4f1624888", "type": "electric_scooter", "is_disabled": 0, "lat": 38.936497333333335, "rental_uris": {"ios": "https://dc.lft.to/lastmile_qr_scan", "android": "https://dc.lft.to/lastmile_qr_scan"}, "is_reserved": 0, "fusion_lon": 0.0, "fusion_lat": 0.0, "lon": -77.02637483333334, "name": "0c77c8c219c40a21a82e14e4f1624888"}, {"bike_id": "e172e9335c9917ab3a4cc3e1c1b9c8ee", "type": "electric_scooter", "is_disabled": 0, "lat": 38.892258, "rental_uris": {"ios": "https://dc.lft.to/lastmile_qr_scan", "android": "https://dc.lft.to/lastmile_qr_scan"}, "is_reserved": 0, "fusion_lon": 0.0, "fusion_lat": 0.0, "lon": -77.03371983333334, "name": "e172e9335c9917ab3a4cc3e1c1b9c8ee"}, {"bike_id": "e902204d795bf5ac80bdb6186869eb7b", "type": "electric_scooter", "is_disabled": 0, "lat": 38.95732783333333, "rental_uris": {"ios": "https://dc.lft.to/lastmile_qr_scan", "android": "https://dc.lft.to/lastmile_qr_scan"}, "is_reserved": 0, "fusion_lon": 0.0, "fusion_lat": 0.0, "lon": -77.02418816666666, "name": "e902204d795bf5ac80bdb6186869eb7b"}, {"bike_id": "225e53d5fb0ea669321e28e65bee240b", "type": "electric_scooter", "is_disabled": 0, "lat": 38.9143935, "rental_uris": {"ios": "https://dc.lft.to/lastmile_qr_scan", "android": "https://dc.lft.to/lastmile_qr_scan"}, "is_reserved": 0, "fusion_lon": 0.0, "fusion_lat": 0.0, "lon": -77.02285666666667, "name": "225e53d5fb0ea669321e28e65bee240b"}, {"bike_id": "6096548fc7ce066ca733ac5a5e4d0a3e", "type": "electric_bike", "is_disabled": 0, "lat": 38.8693665, "rental_uris": {"ios": "https://dc.lft.to/lastmile_qr_scan", "android": "https://dc.lft.to/lastmile_qr_scan"}, "is_reserved": 0, "fusion_lon": 0.0, "fusion_lat": 0.0, "lon": -77.09468983333333, "name": "6096548fc7ce066ca733ac5a5e4d0a3e"}, {"bike_id": "951312b70bb2882b1f92ad63a2fd23f7", "type": "electric_scooter", "is_disabled": 0, "lat": 38.8884935, "rental_uris": {"ios": "https://dc.lft.to/lastmile_qr_scan", "android": "https://dc.lft.to/lastmile_qr_scan"}, "is_reserved": 0, "fusion_lon": 0.0, "fusion_lat": 0.0, "lon": -76.926827, "name": "951312b70bb2882b1f92ad63a2fd23f7"}, {"bike_id": "51b78fc1d88bf2a715cdf87279c28424", "type": "electric_scooter", "is_disabled": 0, "lat": 38.883942, "rental_uris": {"ios": "https://dc.lft.to/lastmile_qr_scan", "android": "https://dc.lft.to/lastmile_qr_scan"}, "is_reserved": 0, "fusion_lon": 0.0, "fusion_lat": 0.0, "lon": -76.99548716666666, "name": "51b78fc1d88bf2a715cdf87279c28424"}, {"bike_id": "ebbb09e7672226f42a4bf22e8d75d7d4", "type": "electric_scooter", "is_disabled": 0, "lat": 38.930623, "rental_uris": {"ios": "https://dc.lft.to/lastmile_qr_scan", "android": "https://dc.lft.to/lastmile_qr_scan"}, "is_reserved": 0, "fusion_lon": 0.0, "fusion_lat": 0.0, "lon": -77.02982133333333, "name": "ebbb09e7672226f42a4bf22e8d75d7d4"}, {"bike_id": "d6948866fa2b5a7d4f7eaa95de717f11", "type": "electric_scooter", "is_disabled": 0, "lat": 38.91822966666667, "rental_uris": {"ios": "https://dc.lft.to/lastmile_qr_scan", "android": "https://dc.lft.to/lastmile_qr_scan"}, "is_reserved": 0, "fusion_lon": 0.0, "fusion_lat": 0.0, "lon": -77.02422916666667, "name": "d6948866fa2b5a7d4f7eaa95de717f11"}, {"bike_id": "cee36cef0851b425fac9e71ed2512060", "type": "electric_scooter", "is_disabled": 0, "lat": 38.866912666666664, "rental_uris": {"ios": "https://dc.lft.to/lastmile_qr_scan", "android": "https://dc.lft.to/lastmile_qr_scan"}, "is_reserved": 0, "fusion_lon": 0.0, "fusion_lat": 0.0, "lon": -76.9871065, "name": "cee36cef0851b425fac9e71ed2512060"}, {"bike_id": "6116b4687239b7c24223c81342cfdec6", "type": "electric_scooter", "is_disabled": 0, "lat": 38.919281166666664, "rental_uris": {"ios": "https://dc.lft.to/lastmile_qr_scan", "android": "https://dc.lft.to/lastmile_qr_scan"}, "is_reserved": 0, "fusion_lon": 0.0, "fusion_lat": 0.0, "lon": -77.07382133333333, "name": "6116b4687239b7c24223c81342cfdec6"}, {"bike_id": "a77b1451387a2022bfb5b9ba677e4588", "type": "electric_scooter", "is_disabled": 0, "lat": 38.93308283333333, "rental_uris": {"ios": "https://dc.lft.to/lastmile_qr_scan", "android": "https://dc.lft.to/lastmile_qr_scan"}, "is_reserved": 0, "fusion_lon": 0.0, "fusion_lat": 0.0, "lon": -77.0344865, "name": "a77b1451387a2022bfb5b9ba677e4588"}, {"bike_id": "ea6d0ba1021e768f0a32cf8c78e9bd26", "type": "electric_scooter", "is_disabled": 0, "lat": 38.915493, "rental_uris": {"ios": "https://dc.lft.to/lastmile_qr_scan", "android": "https://dc.lft.to/lastmile_qr_scan"}, "is_reserved": 0, "fusion_lon": 0.0, "fusion_lat": 0.0, "lon": -77.023387, "name": "ea6d0ba1021e768f0a32cf8c78e9bd26"}, {"bike_id": "934a8081aba7e5b8e3349d0aaf6428ad", "type": "electric_scooter", "is_disabled": 0, "lat": 38.929681333333335, "rental_uris": {"ios": "https://dc.lft.to/lastmile_qr_scan", "android": "https://dc.lft.to/lastmile_qr_scan"}, "is_reserved": 0, "fusion_lon": 0.0, "fusion_lat": 0.0, "lon": -77.0282735, "name": "934a8081aba7e5b8e3349d0aaf6428ad"}, {"bike_id": "d54510904a7cf6f2077413fd49b8e017", "type": "electric_scooter", "is_disabled": 0, "lat": 38.92676683333333, "rental_uris": {"ios": "https://dc.lft.to/lastmile_qr_scan", "android": "https://dc.lft.to/lastmile_qr_scan"}, "is_reserved": 0, "fusion_lon": 0.0, "fusion_lat": 0.0, "lon": -77.02784716666666, "name": "d54510904a7cf6f2077413fd49b8e017"}, {"bike_id": "1cf7fbbdd11810dd98e955872549a183", "type": "electric_scooter", "is_disabled": 0, "lat": 38.914154833333335, "rental_uris": {"ios": "https://dc.lft.to/lastmile_qr_scan", "android": "https://dc.lft.to/lastmile_qr_scan"}, "is_reserved": 0, "fusion_lon": 0.0, "fusion_lat": 0.0, "lon": -77.04460333333333, "name": "1cf7fbbdd11810dd98e955872549a183"}, {"bike_id": "02447d843b535c49539e0f78fbca61ea", "type": "electric_scooter", "is_disabled": 0, "lat": 38.88430983333333, "rental_uris": {"ios": "https://dc.lft.to/lastmile_qr_scan", "android": "https://dc.lft.to/lastmile_qr_scan"}, "is_reserved": 0, "fusion_lon": 0.0, "fusion_lat": 0.0, "lon": -76.95748383333333, "name": "02447d843b535c49539e0f78fbca61ea"}, {"bike_id": "7e451e24d980881e7825aee861bde50f", "type": "electric_scooter", "is_disabled": 0, "lat": 38.93111566666666, "rental_uris": {"ios": "https://dc.lft.to/lastmile_qr_scan", "android": "https://dc.lft.to/lastmile_qr_scan"}, "is_reserved": 0, "fusion_lon": 0.0, "fusion_lat": 0.0, "lon": -77.03807766666667, "name": "7e451e24d980881e7825aee861bde50f"}, {"bike_id": "c07c2d2fe378278d780977031973dbdc", "type": "electric_scooter", "is_disabled": 0, "lat": 38.8922385, "rental_uris": {"ios": "https://dc.lft.to/lastmile_qr_scan", "android": "https://dc.lft.to/lastmile_qr_scan"}, "is_reserved": 0, "fusion_lon": 0.0, "fusion_lat": 0.0, "lon": -77.02581983333333, "name": "c07c2d2fe378278d780977031973dbdc"}, {"bike_id": "82e5d1a5349141d0bf8e1ca772d75802", "type": "electric_scooter", "is_disabled": 0, "lat": 38.91330166666667, "rental_uris": {"ios": "https://dc.lft.to/lastmile_qr_scan", "android": "https://dc.lft.to/lastmile_qr_scan"}, "is_reserved": 0, "fusion_lon": 0.0, "fusion_lat": 0.0, "lon": -77.04733116666667, "name": "82e5d1a5349141d0bf8e1ca772d75802"}, {"bike_id": "876da26eb67b8e185fc59525eed5d691", "type": "electric_scooter", "is_disabled": 0, "lat": 38.912683666666666, "rental_uris": {"ios": "https://dc.lft.to/lastmile_qr_scan", "android": "https://dc.lft.to/lastmile_qr_scan"}, "is_reserved": 0, "fusion_lon": 0.0, "fusion_lat": 0.0, "lon": -77.03826966666666, "name": "876da26eb67b8e185fc59525eed5d691"}, {"bike_id": "cae7bb41ba9f8b47705708ffc9e4c331", "type": "electric_scooter", "is_disabled": 0, "lat": 38.91123233333333, "rental_uris": {"ios": "https://dc.lft.to/lastmile_qr_scan", "android": "https://dc.lft.to/lastmile_qr_scan"}, "is_reserved": 0, "fusion_lon": 0.0, "fusion_lat": 0.0, "lon": -77.04364583333333, "name": "cae7bb41ba9f8b47705708ffc9e4c331"}, {"bike_id": "cd51a3556905f7ad78e9e9ce54302d8e", "type": "electric_scooter", "is_disabled": 0, "lat": 38.924054, "rental_uris": {"ios": "https://dc.lft.to/lastmile_qr_scan", "android": "https://dc.lft.to/lastmile_qr_scan"}, "is_reserved": 0, "fusion_lon": 0.0, "fusion_lat": 0.0, "lon": -77.020207, "name": "cd51a3556905f7ad78e9e9ce54302d8e"}, {"bike_id": "4804e47fa7ee39cfd9ac96b44cd7c3f5", "type": "electric_scooter", "is_disabled": 0, "lat": 38.91750316666667, "rental_uris": {"ios": "https://dc.lft.to/lastmile_qr_scan", "android": "https://dc.lft.to/lastmile_qr_scan"}, "is_reserved": 0, "fusion_lon": 0.0, "fusion_lat": 0.0, "lon": -77.0385855, "name": "4804e47fa7ee39cfd9ac96b44cd7c3f5"}, {"bike_id": "9bc92a782ce4aad5f362e67714bf991b", "type": "electric_scooter", "is_disabled": 0, "lat": 38.9063525, "rental_uris": {"ios": "https://dc.lft.to/lastmile_qr_scan", "android": "https://dc.lft.to/lastmile_qr_scan"}, "is_reserved": 0, "fusion_lon": 0.0, "fusion_lat": 0.0, "lon": -77.05309216666667, "name": "9bc92a782ce4aad5f362e67714bf991b"}, {"bike_id": "89f97a2d3542eef1605459306feaa223", "type": "electric_scooter", "is_disabled": 0, "lat": 38.916739, "rental_uris": {"ios": "https://dc.lft.to/lastmile_qr_scan", "android": "https://dc.lft.to/lastmile_qr_scan"}, "is_reserved": 0, "fusion_lon": 0.0, "fusion_lat": 0.0, "lon": -77.03208766666667, "name": "89f97a2d3542eef1605459306feaa223"}, {"bike_id": "66ac144f79d5a7b557ff2e9956606a90", "type": "electric_scooter", "is_disabled": 0, "lat": 38.936036, "rental_uris": {"ios": "https://dc.lft.to/lastmile_qr_scan", "android": "https://dc.lft.to/lastmile_qr_scan"}, "is_reserved": 0, "fusion_lon": 0.0, "fusion_lat": 0.0, "lon": -77.05859566666666, "name": "66ac144f79d5a7b557ff2e9956606a90"}, {"bike_id": "f2f39f1e1aa5f04fe71ba50b0403491f", "type": "electric_scooter", "is_disabled": 0, "lat": 38.944602, "rental_uris": {"ios": "https://dc.lft.to/lastmile_qr_scan", "android": "https://dc.lft.to/lastmile_qr_scan"}, "is_reserved": 0, "fusion_lon": 0.0, "fusion_lat": 0.0, "lon": -77.00656933333333, "name": "f2f39f1e1aa5f04fe71ba50b0403491f"}, {"bike_id": "c27faf061d05a410804e84af491bdabb", "type": "electric_scooter", "is_disabled": 0, "lat": 38.92605116666667, "rental_uris": {"ios": "https://dc.lft.to/lastmile_qr_scan", "android": "https://dc.lft.to/lastmile_qr_scan"}, "is_reserved": 0, "fusion_lon": 0.0, "fusion_lat": 0.0, "lon": -77.024131, "name": "c27faf061d05a410804e84af491bdabb"}, {"bike_id": "61eb5a980706d853b07974099a6691c6", "type": "electric_scooter", "is_disabled": 0, "lat": 38.8773805, "rental_uris": {"ios": "https://dc.lft.to/lastmile_qr_scan", "android": "https://dc.lft.to/lastmile_qr_scan"}, "is_reserved": 0, "fusion_lon": 0.0, "fusion_lat": 0.0, "lon": -77.0177145, "name": "61eb5a980706d853b07974099a6691c6"}, {"bike_id": "ef397758c651ac25a40e7948442c3dc9", "type": "electric_scooter", "is_disabled": 0, "lat": 38.90554916666667, "rental_uris": {"ios": "https://dc.lft.to/lastmile_qr_scan", "android": "https://dc.lft.to/lastmile_qr_scan"}, "is_reserved": 0, "fusion_lon": 0.0, "fusion_lat": 0.0, "lon": -77.03446783333334, "name": "ef397758c651ac25a40e7948442c3dc9"}, {"bike_id": "6be24486b8b2871e87ec510e2442f9c8", "type": "electric_scooter", "is_disabled": 0, "lat": 38.90806883333333, "rental_uris": {"ios": "https://dc.lft.to/lastmile_qr_scan", "android": "https://dc.lft.to/lastmile_qr_scan"}, "is_reserved": 0, "fusion_lon": 0.0, "fusion_lat": 0.0, "lon": -77.04336183333334, "name": "6be24486b8b2871e87ec510e2442f9c8"}, {"bike_id": "0966a8f7b197d559ffc89e62cf2b8ef9", "type": "electric_scooter", "is_disabled": 0, "lat": 38.928492166666665, "rental_uris": {"ios": "https://dc.lft.to/lastmile_qr_scan", "android": "https://dc.lft.to/lastmile_qr_scan"}, "is_reserved": 0, "fusion_lon": 0.0, "fusion_lat": 0.0, "lon": -77.01953216666666, "name": "0966a8f7b197d559ffc89e62cf2b8ef9"}, {"bike_id": "e4acdfa60c3f6b592900513380f1c6c5", "type": "electric_scooter", "is_disabled": 0, "lat": 38.928531666666665, "rental_uris": {"ios": "https://dc.lft.to/lastmile_qr_scan", "android": "https://dc.lft.to/lastmile_qr_scan"}, "is_reserved": 0, "fusion_lon": 0.0, "fusion_lat": 0.0, "lon": -77.01387866666667, "name": "e4acdfa60c3f6b592900513380f1c6c5"}, {"bike_id": "56f88ba2ca7b76b06a5dcfcc241d9988", "type": "electric_scooter", "is_disabled": 0, "lat": 38.902895666666666, "rental_uris": {"ios": "https://dc.lft.to/lastmile_qr_scan", "android": "https://dc.lft.to/lastmile_qr_scan"}, "is_reserved": 0, "fusion_lon": 0.0, "fusion_lat": 0.0, "lon": -77.04396983333334, "name": "56f88ba2ca7b76b06a5dcfcc241d9988"}, {"bike_id": "187288d0e5f9199e694f79fba920fe25", "type": "electric_scooter", "is_disabled": 0, "lat": 38.90510783333333, "rental_uris": {"ios": "https://dc.lft.to/lastmile_qr_scan", "android": "https://dc.lft.to/lastmile_qr_scan"}, "is_reserved": 0, "fusion_lon": 0.0, "fusion_lat": 0.0, "lon": -77.0407745, "name": "187288d0e5f9199e694f79fba920fe25"}, {"bike_id": "52a83e78d66d1c34bae82f309e296464", "type": "electric_scooter", "is_disabled": 0, "lat": 38.936031666666665, "rental_uris": {"ios": "https://dc.lft.to/lastmile_qr_scan", "android": "https://dc.lft.to/lastmile_qr_scan"}, "is_reserved": 0, "fusion_lon": 0.0, "fusion_lat": 0.0, "lon": -77.037962, "name": "52a83e78d66d1c34bae82f309e296464"}, {"bike_id": "2ab87a3967abf5a980cc1b58de98ee58", "type": "electric_scooter", "is_disabled": 0, "lat": 38.94112483333333, "rental_uris": {"ios": "https://dc.lft.to/lastmile_qr_scan", "android": "https://dc.lft.to/lastmile_qr_scan"}, "is_reserved": 0, "fusion_lon": 0.0, "fusion_lat": 0.0, "lon": -77.02549766666667, "name": "2ab87a3967abf5a980cc1b58de98ee58"}, {"bike_id": "19382ae957500d64656d7b9c55b9517d", "type": "electric_scooter", "is_disabled": 0, "lat": 38.862195166666666, "rental_uris": {"ios": "https://dc.lft.to/lastmile_qr_scan", "android": "https://dc.lft.to/lastmile_qr_scan"}, "is_reserved": 0, "fusion_lon": 0.0, "fusion_lat": 0.0, "lon": -76.994903, "name": "19382ae957500d64656d7b9c55b9517d"}, {"bike_id": "8465010f4a810a0f42d9ab24c378c6ff", "type": "electric_scooter", "is_disabled": 0, "lat": 38.90493133333333, "rental_uris": {"ios": "https://dc.lft.to/lastmile_qr_scan", "android": "https://dc.lft.to/lastmile_qr_scan"}, "is_reserved": 0, "fusion_lon": 0.0, "fusion_lat": 0.0, "lon": -76.94961716666667, "name": "8465010f4a810a0f42d9ab24c378c6ff"}, {"bike_id": "69c3a3410ff3f1a348572f9af60ae298", "type": "electric_bike", "is_disabled": 0, "lat": 38.951729, "rental_uris": {"ios": "https://dc.lft.to/lastmile_qr_scan", "android": "https://dc.lft.to/lastmile_qr_scan"}, "is_reserved": 0, "fusion_lon": 0.0, "fusion_lat": 0.0, "lon": -76.9773305, "name": "69c3a3410ff3f1a348572f9af60ae298"}, {"bike_id": "afa778f45c6d1907297c1e1b42dff393", "type": "electric_scooter", "is_disabled": 0, "lat": 38.902629833333336, "rental_uris": {"ios": "https://dc.lft.to/lastmile_qr_scan", "android": "https://dc.lft.to/lastmile_qr_scan"}, "is_reserved": 0, "fusion_lon": 0.0, "fusion_lat": 0.0, "lon": -77.03385366666667, "name": "afa778f45c6d1907297c1e1b42dff393"}, {"bike_id": "2c9fe9f63242e51343b33488d926043f", "type": "electric_scooter", "is_disabled": 0, "lat": 38.900688333333335, "rental_uris": {"ios": "https://dc.lft.to/lastmile_qr_scan", "android": "https://dc.lft.to/lastmile_qr_scan"}, "is_reserved": 0, "fusion_lon": 0.0, "fusion_lat": 0.0, "lon": -77.03086216666667, "name": "2c9fe9f63242e51343b33488d926043f"}, {"bike_id": "2999705e4df18309c03b4a3d2a31babe", "type": "electric_scooter", "is_disabled": 0, "lat": 38.914014333333334, "rental_uris": {"ios": "https://dc.lft.to/lastmile_qr_scan", "android": "https://dc.lft.to/lastmile_qr_scan"}, "is_reserved": 0, "fusion_lon": 0.0, "fusion_lat": 0.0, "lon": -77.03146266666667, "name": "2999705e4df18309c03b4a3d2a31babe"}, {"bike_id": "43a01a2b717dc5a6ad4830a7752f5388", "type": "electric_scooter", "is_disabled": 0, "lat": 38.90736916666667, "rental_uris": {"ios": "https://dc.lft.to/lastmile_qr_scan", "android": "https://dc.lft.to/lastmile_qr_scan"}, "is_reserved": 0, "fusion_lon": 0.0, "fusion_lat": 0.0, "lon": -77.02983916666666, "name": "43a01a2b717dc5a6ad4830a7752f5388"}, {"bike_id": "c1bbb7487bef7a669a1c4ed640008031", "type": "electric_scooter", "is_disabled": 0, "lat": 38.9187955, "rental_uris": {"ios": "https://dc.lft.to/lastmile_qr_scan", "android": "https://dc.lft.to/lastmile_qr_scan"}, "is_reserved": 0, "fusion_lon": 0.0, "fusion_lat": 0.0, "lon": -77.02958233333334, "name": "c1bbb7487bef7a669a1c4ed640008031"}, {"bike_id": "b4c73d9097fbfd44dbaf45f70049c5f2", "type": "electric_scooter", "is_disabled": 0, "lat": 38.92461216666667, "rental_uris": {"ios": "https://dc.lft.to/lastmile_qr_scan", "android": "https://dc.lft.to/lastmile_qr_scan"}, "is_reserved": 0, "fusion_lon": 0.0, "fusion_lat": 0.0, "lon": -77.0296185, "name": "b4c73d9097fbfd44dbaf45f70049c5f2"}, {"bike_id": "67750ca74da2bb04578acbef1c73fe13", "type": "electric_scooter", "is_disabled": 0, "lat": 38.934779, "rental_uris": {"ios": "https://dc.lft.to/lastmile_qr_scan", "android": "https://dc.lft.to/lastmile_qr_scan"}, "is_reserved": 0, "fusion_lon": 0.0, "fusion_lat": 0.0, "lon": -77.02613233333334, "name": "67750ca74da2bb04578acbef1c73fe13"}, {"bike_id": "d84bbabc0bded4f1d374bcd7c3617692", "type": "electric_bike", "is_disabled": 0, "lat": 38.9245315, "rental_uris": {"ios": "https://dc.lft.to/lastmile_qr_scan", "android": "https://dc.lft.to/lastmile_qr_scan"}, "is_reserved": 0, "fusion_lon": 0.0, "fusion_lat": 0.0, "lon": -77.22561216666666, "name": "d84bbabc0bded4f1d374bcd7c3617692"}, {"bike_id": "4c3cdb1ae698208a9a93889327888bd1", "type": "electric_scooter", "is_disabled": 0, "lat": 38.9167825, "rental_uris": {"ios": "https://dc.lft.to/lastmile_qr_scan", "android": "https://dc.lft.to/lastmile_qr_scan"}, "is_reserved": 0, "fusion_lon": 0.0, "fusion_lat": 0.0, "lon": -77.02971816666667, "name": "4c3cdb1ae698208a9a93889327888bd1"}, {"bike_id": "7be123c37d38766356ed759b1f821dd1", "type": "electric_scooter", "is_disabled": 0, "lat": 38.9043525, "rental_uris": {"ios": "https://dc.lft.to/lastmile_qr_scan", "android": "https://dc.lft.to/lastmile_qr_scan"}, "is_reserved": 0, "fusion_lon": 0.0, "fusion_lat": 0.0, "lon": -77.03456916666667, "name": "7be123c37d38766356ed759b1f821dd1"}, {"bike_id": "381c1b54cc05af2237d65ae5c2afd190", "type": "electric_scooter", "is_disabled": 0, "lat": 38.9124095, "rental_uris": {"ios": "https://dc.lft.to/lastmile_qr_scan", "android": "https://dc.lft.to/lastmile_qr_scan"}, "is_reserved": 0, "fusion_lon": 0.0, "fusion_lat": 0.0, "lon": -77.03859666666666, "name": "381c1b54cc05af2237d65ae5c2afd190"}, {"bike_id": "9e74570c20398f76f0230a4eef50c4b1", "type": "electric_scooter", "is_disabled": 0, "lat": 38.93543583333334, "rental_uris": {"ios": "https://dc.lft.to/lastmile_qr_scan", "android": "https://dc.lft.to/lastmile_qr_scan"}, "is_reserved": 0, "fusion_lon": 0.0, "fusion_lat": 0.0, "lon": -77.05827833333333, "name": "9e74570c20398f76f0230a4eef50c4b1"}, {"bike_id": "540ac1c3707534ca0edc732b19466252", "type": "electric_scooter", "is_disabled": 0, "lat": 38.90642966666667, "rental_uris": {"ios": "https://dc.lft.to/lastmile_qr_scan", "android": "https://dc.lft.to/lastmile_qr_scan"}, "is_reserved": 0, "fusion_lon": 0.0, "fusion_lat": 0.0, "lon": -77.017296, "name": "540ac1c3707534ca0edc732b19466252"}, {"bike_id": "05923a654a6e341738d788ca6d48a062", "type": "electric_bike", "is_disabled": 0, "lat": 38.836723666666664, "rental_uris": {"ios": "https://dc.lft.to/lastmile_qr_scan", "android": "https://dc.lft.to/lastmile_qr_scan"}, "is_reserved": 0, "fusion_lon": 0.0, "fusion_lat": 0.0, "lon": -76.99361433333334, "name": "05923a654a6e341738d788ca6d48a062"}, {"bike_id": "9337cbd6b2e6868299b6a70b3f6abebd", "type": "electric_scooter", "is_disabled": 0, "lat": 38.89934733333333, "rental_uris": {"ios": "https://dc.lft.to/lastmile_qr_scan", "android": "https://dc.lft.to/lastmile_qr_scan"}, "is_reserved": 0, "fusion_lon": 0.0, "fusion_lat": 0.0, "lon": -77.047784, "name": "9337cbd6b2e6868299b6a70b3f6abebd"}, {"bike_id": "942fd9fb29c43c8ab096d4d0fb5044d5", "type": "electric_scooter", "is_disabled": 0, "lat": 38.8886955, "rental_uris": {"ios": "https://dc.lft.to/lastmile_qr_scan", "android": "https://dc.lft.to/lastmile_qr_scan"}, "is_reserved": 0, "fusion_lon": 0.0, "fusion_lat": 0.0, "lon": -77.03996433333333, "name": "942fd9fb29c43c8ab096d4d0fb5044d5"}, {"bike_id": "17845c19850d7aafa629399b3e4376ae", "type": "electric_scooter", "is_disabled": 0, "lat": 38.893242, "rental_uris": {"ios": "https://dc.lft.to/lastmile_qr_scan", "android": "https://dc.lft.to/lastmile_qr_scan"}, "is_reserved": 0, "fusion_lon": 0.0, "fusion_lat": 0.0, "lon": -77.04876983333334, "name": "17845c19850d7aafa629399b3e4376ae"}, {"bike_id": "74b4a882c978387b75a4d1e4d56c6660", "type": "electric_scooter", "is_disabled": 0, "lat": 38.899067333333335, "rental_uris": {"ios": "https://dc.lft.to/lastmile_qr_scan", "android": "https://dc.lft.to/lastmile_qr_scan"}, "is_reserved": 0, "fusion_lon": 0.0, "fusion_lat": 0.0, "lon": -77.01519966666666, "name": "74b4a882c978387b75a4d1e4d56c6660"}, {"bike_id": "c926a17696b515e3269fcf1e2befa4f5", "type": "electric_scooter", "is_disabled": 0, "lat": 38.9515015, "rental_uris": {"ios": "https://dc.lft.to/lastmile_qr_scan", "android": "https://dc.lft.to/lastmile_qr_scan"}, "is_reserved": 0, "fusion_lon": 0.0, "fusion_lat": 0.0, "lon": -77.018677, "name": "c926a17696b515e3269fcf1e2befa4f5"}, {"bike_id": "26bf432c04907cb9292b98c7f0e50161", "type": "electric_scooter", "is_disabled": 0, "lat": 38.895324333333335, "rental_uris": {"ios": "https://dc.lft.to/lastmile_qr_scan", "android": "https://dc.lft.to/lastmile_qr_scan"}, "is_reserved": 0, "fusion_lon": 0.0, "fusion_lat": 0.0, "lon": -76.94890583333333, "name": "26bf432c04907cb9292b98c7f0e50161"}, {"bike_id": "593ef85b364f7e62b0bd00e44be39406", "type": "electric_scooter", "is_disabled": 0, "lat": 38.87732616666667, "rental_uris": {"ios": "https://dc.lft.to/lastmile_qr_scan", "android": "https://dc.lft.to/lastmile_qr_scan"}, "is_reserved": 0, "fusion_lon": 0.0, "fusion_lat": 0.0, "lon": -77.01765883333333, "name": "593ef85b364f7e62b0bd00e44be39406"}, {"bike_id": "f9550a75705853822687413f9ebb7919", "type": "electric_scooter", "is_disabled": 0, "lat": 38.89008116666667, "rental_uris": {"ios": "https://dc.lft.to/lastmile_qr_scan", "android": "https://dc.lft.to/lastmile_qr_scan"}, "is_reserved": 0, "fusion_lon": 0.0, "fusion_lat": 0.0, "lon": -76.93743083333334, "name": "f9550a75705853822687413f9ebb7919"}, {"bike_id": "fb6cb4b87d1825e55d4e2f432f334560", "type": "electric_scooter", "is_disabled": 0, "lat": 38.898407, "rental_uris": {"ios": "https://dc.lft.to/lastmile_qr_scan", "android": "https://dc.lft.to/lastmile_qr_scan"}, "is_reserved": 0, "fusion_lon": 0.0, "fusion_lat": 0.0, "lon": -77.043319, "name": "fb6cb4b87d1825e55d4e2f432f334560"}, {"bike_id": "7b664a93d190086dfbc1ed3a1eb0c500", "type": "electric_scooter", "is_disabled": 0, "lat": 38.935382833333335, "rental_uris": {"ios": "https://dc.lft.to/lastmile_qr_scan", "android": "https://dc.lft.to/lastmile_qr_scan"}, "is_reserved": 0, "fusion_lon": 0.0, "fusion_lat": 0.0, "lon": -77.05441033333334, "name": "7b664a93d190086dfbc1ed3a1eb0c500"}, {"bike_id": "936d2a775d3f358a28d099bc4a19678c", "type": "electric_scooter", "is_disabled": 0, "lat": 38.91195066666667, "rental_uris": {"ios": "https://dc.lft.to/lastmile_qr_scan", "android": "https://dc.lft.to/lastmile_qr_scan"}, "is_reserved": 0, "fusion_lon": 0.0, "fusion_lat": 0.0, "lon": -77.01910383333333, "name": "936d2a775d3f358a28d099bc4a19678c"}, {"bike_id": "bc901f29fb99879ab34b785ac5ac1244", "type": "electric_scooter", "is_disabled": 0, "lat": 38.925372833333334, "rental_uris": {"ios": "https://dc.lft.to/lastmile_qr_scan", "android": "https://dc.lft.to/lastmile_qr_scan"}, "is_reserved": 0, "fusion_lon": 0.0, "fusion_lat": 0.0, "lon": -77.0335715, "name": "bc901f29fb99879ab34b785ac5ac1244"}, {"bike_id": "ca1a664bf57a39a371c0061aea96aad9", "type": "electric_bike", "is_disabled": 0, "lat": 38.892055666666664, "rental_uris": {"ios": "https://dc.lft.to/lastmile_qr_scan", "android": "https://dc.lft.to/lastmile_qr_scan"}, "is_reserved": 0, "fusion_lon": 0.0, "fusion_lat": 0.0, "lon": -76.9768065, "name": "ca1a664bf57a39a371c0061aea96aad9"}, {"bike_id": "50a31d6e5402331c0ca9cbf16341ee4b", "type": "electric_scooter", "is_disabled": 0, "lat": 38.951105, "rental_uris": {"ios": "https://dc.lft.to/lastmile_qr_scan", "android": "https://dc.lft.to/lastmile_qr_scan"}, "is_reserved": 0, "fusion_lon": 0.0, "fusion_lat": 0.0, "lon": -77.01433283333333, "name": "50a31d6e5402331c0ca9cbf16341ee4b"}, {"bike_id": "93433c5d0af636cc5174b7d57a084e91", "type": "electric_bike", "is_disabled": 0, "lat": 38.85871683333333, "rental_uris": {"ios": "https://dc.lft.to/lastmile_qr_scan", "android": "https://dc.lft.to/lastmile_qr_scan"}, "is_reserved": 0, "fusion_lon": 0.0, "fusion_lat": 0.0, "lon": -77.09555766666666, "name": "93433c5d0af636cc5174b7d57a084e91"}, {"bike_id": "1359b1be83e7ac0656e241fe3579ef60", "type": "electric_scooter", "is_disabled": 0, "lat": 38.926181666666665, "rental_uris": {"ios": "https://dc.lft.to/lastmile_qr_scan", "android": "https://dc.lft.to/lastmile_qr_scan"}, "is_reserved": 0, "fusion_lon": 0.0, "fusion_lat": 0.0, "lon": -77.04327383333333, "name": "1359b1be83e7ac0656e241fe3579ef60"}, {"bike_id": "02be6d6762c0334c4580858d56bf2f1e", "type": "electric_scooter", "is_disabled": 0, "lat": 38.900673833333336, "rental_uris": {"ios": "https://dc.lft.to/lastmile_qr_scan", "android": "https://dc.lft.to/lastmile_qr_scan"}, "is_reserved": 0, "fusion_lon": 0.0, "fusion_lat": 0.0, "lon": -77.05125633333333, "name": "02be6d6762c0334c4580858d56bf2f1e"}, {"bike_id": "9dd6315c027297a86afbb0e8f52333e1", "type": "electric_scooter", "is_disabled": 0, "lat": 38.866864, "rental_uris": {"ios": "https://dc.lft.to/lastmile_qr_scan", "android": "https://dc.lft.to/lastmile_qr_scan"}, "is_reserved": 0, "fusion_lon": 0.0, "fusion_lat": 0.0, "lon": -76.98567316666667, "name": "9dd6315c027297a86afbb0e8f52333e1"}, {"bike_id": "f7d69e44246a98f53ebefbb161d6208c", "type": "electric_bike", "is_disabled": 0, "lat": 38.99531, "rental_uris": {"ios": "https://dc.lft.to/lastmile_qr_scan", "android": "https://dc.lft.to/lastmile_qr_scan"}, "is_reserved": 0, "fusion_lon": 0.0, "fusion_lat": 0.0, "lon": -77.06951916666667, "name": "f7d69e44246a98f53ebefbb161d6208c"}, {"bike_id": "82db476255f3b0b745fe7973a9c2e287", "type": "electric_bike", "is_disabled": 0, "lat": 38.9086285, "rental_uris": {"ios": "https://dc.lft.to/lastmile_qr_scan", "android": "https://dc.lft.to/lastmile_qr_scan"}, "is_reserved": 0, "fusion_lon": 0.0, "fusion_lat": 0.0, "lon": -76.999564, "name": "82db476255f3b0b745fe7973a9c2e287"}, {"bike_id": "594ef97aca6f569a68e415be3a79e508", "type": "electric_scooter", "is_disabled": 0, "lat": 38.89500983333333, "rental_uris": {"ios": "https://dc.lft.to/lastmile_qr_scan", "android": "https://dc.lft.to/lastmile_qr_scan"}, "is_reserved": 0, "fusion_lon": 0.0, "fusion_lat": 0.0, "lon": -76.93480566666666, "name": "594ef97aca6f569a68e415be3a79e508"}, {"bike_id": "33e5c6d0b4007820eaaa23ca377a3c07", "type": "electric_scooter", "is_disabled": 0, "lat": 38.91513666666667, "rental_uris": {"ios": "https://dc.lft.to/lastmile_qr_scan", "android": "https://dc.lft.to/lastmile_qr_scan"}, "is_reserved": 0, "fusion_lon": 0.0, "fusion_lat": 0.0, "lon": -77.02283616666666, "name": "33e5c6d0b4007820eaaa23ca377a3c07"}, {"bike_id": "f8cc5c00a5bf5926745109d12f7e121a", "type": "electric_bike", "is_disabled": 0, "lat": 38.942672, "rental_uris": {"ios": "https://dc.lft.to/lastmile_qr_scan", "android": "https://dc.lft.to/lastmile_qr_scan"}, "is_reserved": 0, "fusion_lon": 0.0, "fusion_lat": 0.0, "lon": -76.9907665, "name": "f8cc5c00a5bf5926745109d12f7e121a"}, {"bike_id": "68febae07b4b688b83cdea0c384d97ae", "type": "electric_bike", "is_disabled": 0, "lat": 38.92408116666667, "rental_uris": {"ios": "https://dc.lft.to/lastmile_qr_scan", "android": "https://dc.lft.to/lastmile_qr_scan"}, "is_reserved": 0, "fusion_lon": 0.0, "fusion_lat": 0.0, "lon": -77.03548183333334, "name": "68febae07b4b688b83cdea0c384d97ae"}, {"bike_id": "a08dc36d2f023dbfa866e6d5cba7007b", "type": "electric_scooter", "is_disabled": 0, "lat": 38.91824966666667, "rental_uris": {"ios": "https://dc.lft.to/lastmile_qr_scan", "android": "https://dc.lft.to/lastmile_qr_scan"}, "is_reserved": 0, "fusion_lon": 0.0, "fusion_lat": 0.0, "lon": -77.03204866666667, "name": "a08dc36d2f023dbfa866e6d5cba7007b"}, {"bike_id": "f871ae33b63dc9a171bf61255265552b", "type": "electric_scooter", "is_disabled": 0, "lat": 38.89874066666667, "rental_uris": {"ios": "https://dc.lft.to/lastmile_qr_scan", "android": "https://dc.lft.to/lastmile_qr_scan"}, "is_reserved": 0, "fusion_lon": 0.0, "fusion_lat": 0.0, "lon": -76.93186166666666, "name": "f871ae33b63dc9a171bf61255265552b"}, {"bike_id": "ace3a21ab9d6090727bcb615322f8266", "type": "electric_scooter", "is_disabled": 0, "lat": 38.903590666666666, "rental_uris": {"ios": "https://dc.lft.to/lastmile_qr_scan", "android": "https://dc.lft.to/lastmile_qr_scan"}, "is_reserved": 0, "fusion_lon": 0.0, "fusion_lat": 0.0, "lon": -77.045028, "name": "ace3a21ab9d6090727bcb615322f8266"}, {"bike_id": "ae98bb3893879473a52b0baa6a0ae613", "type": "electric_scooter", "is_disabled": 0, "lat": 38.902155666666665, "rental_uris": {"ios": "https://dc.lft.to/lastmile_qr_scan", "android": "https://dc.lft.to/lastmile_qr_scan"}, "is_reserved": 0, "fusion_lon": 0.0, "fusion_lat": 0.0, "lon": -77.02215766666667, "name": "ae98bb3893879473a52b0baa6a0ae613"}, {"bike_id": "5774dfef1f4b44fcbb1ea23202d40d8b", "type": "electric_scooter", "is_disabled": 0, "lat": 38.92483683333333, "rental_uris": {"ios": "https://dc.lft.to/lastmile_qr_scan", "android": "https://dc.lft.to/lastmile_qr_scan"}, "is_reserved": 0, "fusion_lon": 0.0, "fusion_lat": 0.0, "lon": -77.05756383333333, "name": "5774dfef1f4b44fcbb1ea23202d40d8b"}, {"bike_id": "ce15edd37532f8beda71c331743eea73", "type": "electric_scooter", "is_disabled": 0, "lat": 38.90391, "rental_uris": {"ios": "https://dc.lft.to/lastmile_qr_scan", "android": "https://dc.lft.to/lastmile_qr_scan"}, "is_reserved": 0, "fusion_lon": 0.0, "fusion_lat": 0.0, "lon": -77.06313283333333, "name": "ce15edd37532f8beda71c331743eea73"}, {"bike_id": "e5e583c0b4633a8c7bf864aa92218b30", "type": "electric_scooter", "is_disabled": 0, "lat": 38.936376333333335, "rental_uris": {"ios": "https://dc.lft.to/lastmile_qr_scan", "android": "https://dc.lft.to/lastmile_qr_scan"}, "is_reserved": 0, "fusion_lon": 0.0, "fusion_lat": 0.0, "lon": -77.05886183333334, "name": "e5e583c0b4633a8c7bf864aa92218b30"}, {"bike_id": "dde548de178738e0f2899367d0f9c5a5", "type": "electric_scooter", "is_disabled": 0, "lat": 38.906398, "rental_uris": {"ios": "https://dc.lft.to/lastmile_qr_scan", "android": "https://dc.lft.to/lastmile_qr_scan"}, "is_reserved": 0, "fusion_lon": 0.0, "fusion_lat": 0.0, "lon": -77.01439033333334, "name": "dde548de178738e0f2899367d0f9c5a5"}, {"bike_id": "40faf4c10c3be9432b6fce4a50c5a756", "type": "electric_scooter", "is_disabled": 0, "lat": 38.90558566666667, "rental_uris": {"ios": "https://dc.lft.to/lastmile_qr_scan", "android": "https://dc.lft.to/lastmile_qr_scan"}, "is_reserved": 0, "fusion_lon": 0.0, "fusion_lat": 0.0, "lon": -77.03835666666667, "name": "40faf4c10c3be9432b6fce4a50c5a756"}, {"bike_id": "1ccef81434cc2ae90788b35553bfe1e7", "type": "electric_scooter", "is_disabled": 0, "lat": 38.9106995, "rental_uris": {"ios": "https://dc.lft.to/lastmile_qr_scan", "android": "https://dc.lft.to/lastmile_qr_scan"}, "is_reserved": 0, "fusion_lon": 0.0, "fusion_lat": 0.0, "lon": -77.03719183333334, "name": "1ccef81434cc2ae90788b35553bfe1e7"}, {"bike_id": "1d0964c34c750321a4dddd271db0d957", "type": "electric_scooter", "is_disabled": 0, "lat": 38.942087, "rental_uris": {"ios": "https://dc.lft.to/lastmile_qr_scan", "android": "https://dc.lft.to/lastmile_qr_scan"}, "is_reserved": 0, "fusion_lon": 0.0, "fusion_lat": 0.0, "lon": -77.02585333333333, "name": "1d0964c34c750321a4dddd271db0d957"}, {"bike_id": "0492c2a0719041ce30ef950634c0aafc", "type": "electric_scooter", "is_disabled": 0, "lat": 38.906681666666664, "rental_uris": {"ios": "https://dc.lft.to/lastmile_qr_scan", "android": "https://dc.lft.to/lastmile_qr_scan"}, "is_reserved": 0, "fusion_lon": 0.0, "fusion_lat": 0.0, "lon": -77.02717333333334, "name": "0492c2a0719041ce30ef950634c0aafc"}, {"bike_id": "83a5332f46d2ba73cea6c1102b631538", "type": "electric_scooter", "is_disabled": 0, "lat": 38.905605666666666, "rental_uris": {"ios": "https://dc.lft.to/lastmile_qr_scan", "android": "https://dc.lft.to/lastmile_qr_scan"}, "is_reserved": 0, "fusion_lon": 0.0, "fusion_lat": 0.0, "lon": -77.04652533333334, "name": "83a5332f46d2ba73cea6c1102b631538"}, {"bike_id": "5843aab8fba2a58cd9181c0073d6e79e", "type": "electric_scooter", "is_disabled": 0, "lat": 38.90972633333333, "rental_uris": {"ios": "https://dc.lft.to/lastmile_qr_scan", "android": "https://dc.lft.to/lastmile_qr_scan"}, "is_reserved": 0, "fusion_lon": 0.0, "fusion_lat": 0.0, "lon": -77.0319995, "name": "5843aab8fba2a58cd9181c0073d6e79e"}, {"bike_id": "deb1a8c14f77e7a915ad5e67755894ea", "type": "electric_scooter", "is_disabled": 0, "lat": 38.891485, "rental_uris": {"ios": "https://dc.lft.to/lastmile_qr_scan", "android": "https://dc.lft.to/lastmile_qr_scan"}, "is_reserved": 0, "fusion_lon": 0.0, "fusion_lat": 0.0, "lon": -76.994659, "name": "deb1a8c14f77e7a915ad5e67755894ea"}, {"bike_id": "000e484dcc7b6de4f65719ce4a9eccdd", "type": "electric_scooter", "is_disabled": 0, "lat": 38.92382966666667, "rental_uris": {"ios": "https://dc.lft.to/lastmile_qr_scan", "android": "https://dc.lft.to/lastmile_qr_scan"}, "is_reserved": 0, "fusion_lon": 0.0, "fusion_lat": 0.0, "lon": -77.03665683333334, "name": "000e484dcc7b6de4f65719ce4a9eccdd"}, {"bike_id": "d26243b4439b1410711316dc9a6db1bb", "type": "electric_scooter", "is_disabled": 0, "lat": 38.928511666666665, "rental_uris": {"ios": "https://dc.lft.to/lastmile_qr_scan", "android": "https://dc.lft.to/lastmile_qr_scan"}, "is_reserved": 0, "fusion_lon": 0.0, "fusion_lat": 0.0, "lon": -77.032912, "name": "d26243b4439b1410711316dc9a6db1bb"}, {"bike_id": "b4966a5c132af812100a94769e70ca2a", "type": "electric_scooter", "is_disabled": 0, "lat": 38.922856333333335, "rental_uris": {"ios": "https://dc.lft.to/lastmile_qr_scan", "android": "https://dc.lft.to/lastmile_qr_scan"}, "is_reserved": 0, "fusion_lon": 0.0, "fusion_lat": 0.0, "lon": -76.99457466666667, "name": "b4966a5c132af812100a94769e70ca2a"}, {"bike_id": "9bf811c2fa3fc521463aac5e0fca6404", "type": "electric_scooter", "is_disabled": 0, "lat": 38.921550333333336, "rental_uris": {"ios": "https://dc.lft.to/lastmile_qr_scan", "android": "https://dc.lft.to/lastmile_qr_scan"}, "is_reserved": 0, "fusion_lon": 0.0, "fusion_lat": 0.0, "lon": -77.03534166666667, "name": "9bf811c2fa3fc521463aac5e0fca6404"}, {"bike_id": "ea6d942b8e1abd3c6b84648cca326fe8", "type": "electric_scooter", "is_disabled": 0, "lat": 38.93462266666667, "rental_uris": {"ios": "https://dc.lft.to/lastmile_qr_scan", "android": "https://dc.lft.to/lastmile_qr_scan"}, "is_reserved": 0, "fusion_lon": 0.0, "fusion_lat": 0.0, "lon": -76.97512933333333, "name": "ea6d942b8e1abd3c6b84648cca326fe8"}, {"bike_id": "7051e4c8725ae64287e59eaa92480d5f", "type": "electric_scooter", "is_disabled": 0, "lat": 38.92747716666667, "rental_uris": {"ios": "https://dc.lft.to/lastmile_qr_scan", "android": "https://dc.lft.to/lastmile_qr_scan"}, "is_reserved": 0, "fusion_lon": 0.0, "fusion_lat": 0.0, "lon": -77.02533883333334, "name": "7051e4c8725ae64287e59eaa92480d5f"}, {"bike_id": "e1d4324b7b868abec5c97eadcf411fec", "type": "electric_scooter", "is_disabled": 0, "lat": 38.905682166666665, "rental_uris": {"ios": "https://dc.lft.to/lastmile_qr_scan", "android": "https://dc.lft.to/lastmile_qr_scan"}, "is_reserved": 0, "fusion_lon": 0.0, "fusion_lat": 0.0, "lon": -77.04347866666667, "name": "e1d4324b7b868abec5c97eadcf411fec"}, {"bike_id": "80f12fab979010615bc4ab74da4f9d6a", "type": "electric_bike", "is_disabled": 0, "lat": 38.8535295, "rental_uris": {"ios": "https://dc.lft.to/lastmile_qr_scan", "android": "https://dc.lft.to/lastmile_qr_scan"}, "is_reserved": 0, "fusion_lon": 0.0, "fusion_lat": 0.0, "lon": -77.134651, "name": "80f12fab979010615bc4ab74da4f9d6a"}, {"bike_id": "b4a4d27c0ac353727152c9789b427ad4", "type": "electric_scooter", "is_disabled": 0, "lat": 38.912646333333335, "rental_uris": {"ios": "https://dc.lft.to/lastmile_qr_scan", "android": "https://dc.lft.to/lastmile_qr_scan"}, "is_reserved": 0, "fusion_lon": 0.0, "fusion_lat": 0.0, "lon": -77.012463, "name": "b4a4d27c0ac353727152c9789b427ad4"}, {"bike_id": "38e184a8fd271e0de38f26d078ab2d2f", "type": "electric_scooter", "is_disabled": 0, "lat": 38.905579333333336, "rental_uris": {"ios": "https://dc.lft.to/lastmile_qr_scan", "android": "https://dc.lft.to/lastmile_qr_scan"}, "is_reserved": 0, "fusion_lon": 0.0, "fusion_lat": 0.0, "lon": -77.03447616666666, "name": "38e184a8fd271e0de38f26d078ab2d2f"}, {"bike_id": "95858684744905daef1671d4bb068b32", "type": "electric_scooter", "is_disabled": 0, "lat": 38.94290783333334, "rental_uris": {"ios": "https://dc.lft.to/lastmile_qr_scan", "android": "https://dc.lft.to/lastmile_qr_scan"}, "is_reserved": 0, "fusion_lon": 0.0, "fusion_lat": 0.0, "lon": -77.0217075, "name": "95858684744905daef1671d4bb068b32"}, {"bike_id": "97b3e4315a68a4de1a8bc444e2b01197", "type": "electric_scooter", "is_disabled": 0, "lat": 38.934514, "rental_uris": {"ios": "https://dc.lft.to/lastmile_qr_scan", "android": "https://dc.lft.to/lastmile_qr_scan"}, "is_reserved": 0, "fusion_lon": 0.0, "fusion_lat": 0.0, "lon": -77.07265716666667, "name": "97b3e4315a68a4de1a8bc444e2b01197"}, {"bike_id": "de2ec753b324715ed7db46138744d53f", "type": "electric_scooter", "is_disabled": 0, "lat": 38.9028295, "rental_uris": {"ios": "https://dc.lft.to/lastmile_qr_scan", "android": "https://dc.lft.to/lastmile_qr_scan"}, "is_reserved": 0, "fusion_lon": 0.0, "fusion_lat": 0.0, "lon": -77.00333333333333, "name": "de2ec753b324715ed7db46138744d53f"}, {"bike_id": "9447ad5fc903d93eb51c392d1252fd09", "type": "electric_scooter", "is_disabled": 0, "lat": 38.90683216666667, "rental_uris": {"ios": "https://dc.lft.to/lastmile_qr_scan", "android": "https://dc.lft.to/lastmile_qr_scan"}, "is_reserved": 0, "fusion_lon": 0.0, "fusion_lat": 0.0, "lon": -77.05319866666666, "name": "9447ad5fc903d93eb51c392d1252fd09"}, {"bike_id": "ba9223d74fd7d71abe3766b19e8c5977", "type": "electric_bike", "is_disabled": 0, "lat": 38.910143166666664, "rental_uris": {"ios": "https://dc.lft.to/lastmile_qr_scan", "android": "https://dc.lft.to/lastmile_qr_scan"}, "is_reserved": 0, "fusion_lon": 0.0, "fusion_lat": 0.0, "lon": -77.02717483333333, "name": "ba9223d74fd7d71abe3766b19e8c5977"}, {"bike_id": "25e8d8159f44a90c0babf9f3cc3ca7d5", "type": "electric_scooter", "is_disabled": 0, "lat": 38.956535, "rental_uris": {"ios": "https://dc.lft.to/lastmile_qr_scan", "android": "https://dc.lft.to/lastmile_qr_scan"}, "is_reserved": 0, "fusion_lon": 0.0, "fusion_lat": 0.0, "lon": -77.01032116666667, "name": "25e8d8159f44a90c0babf9f3cc3ca7d5"}, {"bike_id": "e4fe596d34bcc57c845f56c510a95909", "type": "electric_scooter", "is_disabled": 0, "lat": 38.901493333333335, "rental_uris": {"ios": "https://dc.lft.to/lastmile_qr_scan", "android": "https://dc.lft.to/lastmile_qr_scan"}, "is_reserved": 0, "fusion_lon": 0.0, "fusion_lat": 0.0, "lon": -77.01505533333334, "name": "e4fe596d34bcc57c845f56c510a95909"}, {"bike_id": "958b9c557d0d9ea216e18cf285a9a13a", "type": "electric_scooter", "is_disabled": 0, "lat": 38.91119583333333, "rental_uris": {"ios": "https://dc.lft.to/lastmile_qr_scan", "android": "https://dc.lft.to/lastmile_qr_scan"}, "is_reserved": 0, "fusion_lon": 0.0, "fusion_lat": 0.0, "lon": -77.02240533333334, "name": "958b9c557d0d9ea216e18cf285a9a13a"}, {"bike_id": "e67ef11ac243aec058ab81310fc76053", "type": "electric_scooter", "is_disabled": 0, "lat": 38.917798, "rental_uris": {"ios": "https://dc.lft.to/lastmile_qr_scan", "android": "https://dc.lft.to/lastmile_qr_scan"}, "is_reserved": 0, "fusion_lon": 0.0, "fusion_lat": 0.0, "lon": -77.023284, "name": "e67ef11ac243aec058ab81310fc76053"}, {"bike_id": "7556de801df1a1fe8285e15389642a29", "type": "electric_bike", "is_disabled": 0, "lat": 38.809053166666665, "rental_uris": {"ios": "https://dc.lft.to/lastmile_qr_scan", "android": "https://dc.lft.to/lastmile_qr_scan"}, "is_reserved": 0, "fusion_lon": 0.0, "fusion_lat": 0.0, "lon": -77.08661333333333, "name": "7556de801df1a1fe8285e15389642a29"}, {"bike_id": "a2b730128f4ec5b4af0b26d8dafbca40", "type": "electric_scooter", "is_disabled": 0, "lat": 38.92340433333333, "rental_uris": {"ios": "https://dc.lft.to/lastmile_qr_scan", "android": "https://dc.lft.to/lastmile_qr_scan"}, "is_reserved": 0, "fusion_lon": 0.0, "fusion_lat": 0.0, "lon": -77.019869, "name": "a2b730128f4ec5b4af0b26d8dafbca40"}, {"bike_id": "4a7f369ef95761366d62fb35bd831801", "type": "electric_scooter", "is_disabled": 0, "lat": 38.92151783333333, "rental_uris": {"ios": "https://dc.lft.to/lastmile_qr_scan", "android": "https://dc.lft.to/lastmile_qr_scan"}, "is_reserved": 0, "fusion_lon": 0.0, "fusion_lat": 0.0, "lon": -77.03530716666667, "name": "4a7f369ef95761366d62fb35bd831801"}, {"bike_id": "26d67011e953aff8f339cd04ab45f453", "type": "electric_scooter", "is_disabled": 0, "lat": 38.92857766666667, "rental_uris": {"ios": "https://dc.lft.to/lastmile_qr_scan", "android": "https://dc.lft.to/lastmile_qr_scan"}, "is_reserved": 0, "fusion_lon": 0.0, "fusion_lat": 0.0, "lon": -77.01950433333333, "name": "26d67011e953aff8f339cd04ab45f453"}, {"bike_id": "dcbf2e11143617da40702d07e69a0497", "type": "electric_scooter", "is_disabled": 0, "lat": 38.92086583333333, "rental_uris": {"ios": "https://dc.lft.to/lastmile_qr_scan", "android": "https://dc.lft.to/lastmile_qr_scan"}, "is_reserved": 0, "fusion_lon": 0.0, "fusion_lat": 0.0, "lon": -77.02536416666666, "name": "dcbf2e11143617da40702d07e69a0497"}, {"bike_id": "7face7ce1df7a14d9787ece38ea7cb1f", "type": "electric_scooter", "is_disabled": 0, "lat": 38.90500816666667, "rental_uris": {"ios": "https://dc.lft.to/lastmile_qr_scan", "android": "https://dc.lft.to/lastmile_qr_scan"}, "is_reserved": 0, "fusion_lon": 0.0, "fusion_lat": 0.0, "lon": -77.01979816666666, "name": "7face7ce1df7a14d9787ece38ea7cb1f"}, {"bike_id": "d6d622cbcd8970686b1f543928233892", "type": "electric_scooter", "is_disabled": 0, "lat": 38.91984583333333, "rental_uris": {"ios": "https://dc.lft.to/lastmile_qr_scan", "android": "https://dc.lft.to/lastmile_qr_scan"}, "is_reserved": 0, "fusion_lon": 0.0, "fusion_lat": 0.0, "lon": -77.032633, "name": "d6d622cbcd8970686b1f543928233892"}, {"bike_id": "b890e9fae4a6bd719fcc65f865b0fa39", "type": "electric_scooter", "is_disabled": 0, "lat": 38.932035166666665, "rental_uris": {"ios": "https://dc.lft.to/lastmile_qr_scan", "android": "https://dc.lft.to/lastmile_qr_scan"}, "is_reserved": 0, "fusion_lon": 0.0, "fusion_lat": 0.0, "lon": -77.0366665, "name": "b890e9fae4a6bd719fcc65f865b0fa39"}, {"bike_id": "e8b6b273fa1d7a7d23e2a7d4b07ebf7c", "type": "electric_scooter", "is_disabled": 0, "lat": 38.92086716666667, "rental_uris": {"ios": "https://dc.lft.to/lastmile_qr_scan", "android": "https://dc.lft.to/lastmile_qr_scan"}, "is_reserved": 0, "fusion_lon": 0.0, "fusion_lat": 0.0, "lon": -77.025357, "name": "e8b6b273fa1d7a7d23e2a7d4b07ebf7c"}, {"bike_id": "8fc2a1c2b6ffb3e1b5a33029a8cc5575", "type": "electric_scooter", "is_disabled": 0, "lat": 38.901231, "rental_uris": {"ios": "https://dc.lft.to/lastmile_qr_scan", "android": "https://dc.lft.to/lastmile_qr_scan"}, "is_reserved": 0, "fusion_lon": 0.0, "fusion_lat": 0.0, "lon": -77.04525716666667, "name": "8fc2a1c2b6ffb3e1b5a33029a8cc5575"}, {"bike_id": "a1c26ba7c9a7ad4ed9844db59109694c", "type": "electric_bike", "is_disabled": 0, "lat": 38.878822166666666, "rental_uris": {"ios": "https://dc.lft.to/lastmile_qr_scan", "android": "https://dc.lft.to/lastmile_qr_scan"}, "is_reserved": 0, "fusion_lon": 0.0, "fusion_lat": 0.0, "lon": -77.09614233333333, "name": "a1c26ba7c9a7ad4ed9844db59109694c"}, {"bike_id": "307db1862993f631b481f174412f0ddc", "type": "electric_scooter", "is_disabled": 0, "lat": 38.90275166666667, "rental_uris": {"ios": "https://dc.lft.to/lastmile_qr_scan", "android": "https://dc.lft.to/lastmile_qr_scan"}, "is_reserved": 0, "fusion_lon": 0.0, "fusion_lat": 0.0, "lon": -77.03849333333334, "name": "307db1862993f631b481f174412f0ddc"}, {"bike_id": "99d17714ebc659a7d37bd9938ddf64ef", "type": "electric_scooter", "is_disabled": 0, "lat": 38.9157355, "rental_uris": {"ios": "https://dc.lft.to/lastmile_qr_scan", "android": "https://dc.lft.to/lastmile_qr_scan"}, "is_reserved": 0, "fusion_lon": 0.0, "fusion_lat": 0.0, "lon": -77.01997883333334, "name": "99d17714ebc659a7d37bd9938ddf64ef"}, {"bike_id": "b82280cac0da67f70177a73d2b56ce51", "type": "electric_scooter", "is_disabled": 0, "lat": 38.908953333333336, "rental_uris": {"ios": "https://dc.lft.to/lastmile_qr_scan", "android": "https://dc.lft.to/lastmile_qr_scan"}, "is_reserved": 0, "fusion_lon": 0.0, "fusion_lat": 0.0, "lon": -77.04298483333334, "name": "b82280cac0da67f70177a73d2b56ce51"}, {"bike_id": "3356d6e88005ae537bf0757d3642c0d6", "type": "electric_scooter", "is_disabled": 0, "lat": 38.917457, "rental_uris": {"ios": "https://dc.lft.to/lastmile_qr_scan", "android": "https://dc.lft.to/lastmile_qr_scan"}, "is_reserved": 0, "fusion_lon": 0.0, "fusion_lat": 0.0, "lon": -77.02805016666667, "name": "3356d6e88005ae537bf0757d3642c0d6"}, {"bike_id": "775a23bf602f45b7b0642d25433de74e", "type": "electric_scooter", "is_disabled": 0, "lat": 38.90258166666667, "rental_uris": {"ios": "https://dc.lft.to/lastmile_qr_scan", "android": "https://dc.lft.to/lastmile_qr_scan"}, "is_reserved": 0, "fusion_lon": 0.0, "fusion_lat": 0.0, "lon": -77.0033055, "name": "775a23bf602f45b7b0642d25433de74e"}, {"bike_id": "fb8121bc0ea8de2d81a51f69b0455b5c", "type": "electric_scooter", "is_disabled": 0, "lat": 38.911218833333336, "rental_uris": {"ios": "https://dc.lft.to/lastmile_qr_scan", "android": "https://dc.lft.to/lastmile_qr_scan"}, "is_reserved": 0, "fusion_lon": 0.0, "fusion_lat": 0.0, "lon": -77.00534416666666, "name": "fb8121bc0ea8de2d81a51f69b0455b5c"}, {"bike_id": "dcf3844b67078f33041803dc9bdf0f05", "type": "electric_scooter", "is_disabled": 0, "lat": 38.931302, "rental_uris": {"ios": "https://dc.lft.to/lastmile_qr_scan", "android": "https://dc.lft.to/lastmile_qr_scan"}, "is_reserved": 0, "fusion_lon": 0.0, "fusion_lat": 0.0, "lon": -77.0385505, "name": "dcf3844b67078f33041803dc9bdf0f05"}, {"bike_id": "218b38a90340f89cf13193f0ed02d1df", "type": "electric_scooter", "is_disabled": 0, "lat": 38.91110833333333, "rental_uris": {"ios": "https://dc.lft.to/lastmile_qr_scan", "android": "https://dc.lft.to/lastmile_qr_scan"}, "is_reserved": 0, "fusion_lon": 0.0, "fusion_lat": 0.0, "lon": -77.03289366666667, "name": "218b38a90340f89cf13193f0ed02d1df"}, {"bike_id": "c9bea83e81ad0568bbb05adcefaaa4be", "type": "electric_scooter", "is_disabled": 0, "lat": 38.91238883333333, "rental_uris": {"ios": "https://dc.lft.to/lastmile_qr_scan", "android": "https://dc.lft.to/lastmile_qr_scan"}, "is_reserved": 0, "fusion_lon": 0.0, "fusion_lat": 0.0, "lon": -77.00917, "name": "c9bea83e81ad0568bbb05adcefaaa4be"}, {"bike_id": "e85169cb2280053822e976c3a5409fc9", "type": "electric_scooter", "is_disabled": 0, "lat": 38.88851533333333, "rental_uris": {"ios": "https://dc.lft.to/lastmile_qr_scan", "android": "https://dc.lft.to/lastmile_qr_scan"}, "is_reserved": 0, "fusion_lon": 0.0, "fusion_lat": 0.0, "lon": -77.00050816666666, "name": "e85169cb2280053822e976c3a5409fc9"}, {"bike_id": "ce56313d0c95b0a7c108caf5943b5278", "type": "electric_scooter", "is_disabled": 0, "lat": 38.91655883333333, "rental_uris": {"ios": "https://dc.lft.to/lastmile_qr_scan", "android": "https://dc.lft.to/lastmile_qr_scan"}, "is_reserved": 0, "fusion_lon": 0.0, "fusion_lat": 0.0, "lon": -77.02884833333333, "name": "ce56313d0c95b0a7c108caf5943b5278"}, {"bike_id": "d2866f267f1aec9e78c6392fc884c87c", "type": "electric_scooter", "is_disabled": 0, "lat": 38.92404766666667, "rental_uris": {"ios": "https://dc.lft.to/lastmile_qr_scan", "android": "https://dc.lft.to/lastmile_qr_scan"}, "is_reserved": 0, "fusion_lon": 0.0, "fusion_lat": 0.0, "lon": -77.02980916666667, "name": "d2866f267f1aec9e78c6392fc884c87c"}, {"bike_id": "62718e8c1e2fcbd3b75343829d6d8d95", "type": "electric_scooter", "is_disabled": 0, "lat": 38.906599666666665, "rental_uris": {"ios": "https://dc.lft.to/lastmile_qr_scan", "android": "https://dc.lft.to/lastmile_qr_scan"}, "is_reserved": 0, "fusion_lon": 0.0, "fusion_lat": 0.0, "lon": -77.05321433333333, "name": "62718e8c1e2fcbd3b75343829d6d8d95"}, {"bike_id": "cd6edde778b554117693ff5d8ffe0e72", "type": "electric_scooter", "is_disabled": 0, "lat": 38.9227785, "rental_uris": {"ios": "https://dc.lft.to/lastmile_qr_scan", "android": "https://dc.lft.to/lastmile_qr_scan"}, "is_reserved": 0, "fusion_lon": 0.0, "fusion_lat": 0.0, "lon": -77.041861, "name": "cd6edde778b554117693ff5d8ffe0e72"}, {"bike_id": "1e2d6f4238156e336f34ca1b2466f436", "type": "electric_scooter", "is_disabled": 0, "lat": 38.880524333333334, "rental_uris": {"ios": "https://dc.lft.to/lastmile_qr_scan", "android": "https://dc.lft.to/lastmile_qr_scan"}, "is_reserved": 0, "fusion_lon": 0.0, "fusion_lat": 0.0, "lon": -76.932139, "name": "1e2d6f4238156e336f34ca1b2466f436"}, {"bike_id": "788c819800ab9dead7e8f5e06a149888", "type": "electric_scooter", "is_disabled": 0, "lat": 38.908625, "rental_uris": {"ios": "https://dc.lft.to/lastmile_qr_scan", "android": "https://dc.lft.to/lastmile_qr_scan"}, "is_reserved": 0, "fusion_lon": 0.0, "fusion_lat": 0.0, "lon": -77.02824883333334, "name": "788c819800ab9dead7e8f5e06a149888"}, {"bike_id": "33637bb22010f45c428607c87ca7d3bb", "type": "electric_scooter", "is_disabled": 0, "lat": 38.924614166666665, "rental_uris": {"ios": "https://dc.lft.to/lastmile_qr_scan", "android": "https://dc.lft.to/lastmile_qr_scan"}, "is_reserved": 0, "fusion_lon": 0.0, "fusion_lat": 0.0, "lon": -77.05239866666666, "name": "33637bb22010f45c428607c87ca7d3bb"}, {"bike_id": "a4504a5bdba7ccc5bf244f8507e72ccf", "type": "electric_scooter", "is_disabled": 0, "lat": 38.917848166666666, "rental_uris": {"ios": "https://dc.lft.to/lastmile_qr_scan", "android": "https://dc.lft.to/lastmile_qr_scan"}, "is_reserved": 0, "fusion_lon": 0.0, "fusion_lat": 0.0, "lon": -77.02711666666667, "name": "a4504a5bdba7ccc5bf244f8507e72ccf"}, {"bike_id": "5e838cda034437b4af1a4ad72accc13f", "type": "electric_scooter", "is_disabled": 0, "lat": 38.92153533333333, "rental_uris": {"ios": "https://dc.lft.to/lastmile_qr_scan", "android": "https://dc.lft.to/lastmile_qr_scan"}, "is_reserved": 0, "fusion_lon": 0.0, "fusion_lat": 0.0, "lon": -77.03379733333334, "name": "5e838cda034437b4af1a4ad72accc13f"}, {"bike_id": "fb69947b434c2ebd05c33fac1543ad51", "type": "electric_scooter", "is_disabled": 0, "lat": 38.91563816666667, "rental_uris": {"ios": "https://dc.lft.to/lastmile_qr_scan", "android": "https://dc.lft.to/lastmile_qr_scan"}, "is_reserved": 0, "fusion_lon": 0.0, "fusion_lat": 0.0, "lon": -77.042766, "name": "fb69947b434c2ebd05c33fac1543ad51"}, {"bike_id": "f5c1a77cb7b753125cd7de94b43f58dd", "type": "electric_bike", "is_disabled": 0, "lat": 38.883517499999996, "rental_uris": {"ios": "https://dc.lft.to/lastmile_qr_scan", "android": "https://dc.lft.to/lastmile_qr_scan"}, "is_reserved": 0, "fusion_lon": 0.0, "fusion_lat": 0.0, "lon": -76.93630566666667, "name": "f5c1a77cb7b753125cd7de94b43f58dd"}, {"bike_id": "0ca14c260b1376d2c6bbefff74731553", "type": "electric_scooter", "is_disabled": 0, "lat": 38.95211316666666, "rental_uris": {"ios": "https://dc.lft.to/lastmile_qr_scan", "android": "https://dc.lft.to/lastmile_qr_scan"}, "is_reserved": 0, "fusion_lon": 0.0, "fusion_lat": 0.0, "lon": -77.0025725, "name": "0ca14c260b1376d2c6bbefff74731553"}, {"bike_id": "b7d3f10eda05d3bc8daeabe0a6d48ab1", "type": "electric_scooter", "is_disabled": 0, "lat": 38.87063366666667, "rental_uris": {"ios": "https://dc.lft.to/lastmile_qr_scan", "android": "https://dc.lft.to/lastmile_qr_scan"}, "is_reserved": 0, "fusion_lon": 0.0, "fusion_lat": 0.0, "lon": -76.98131266666667, "name": "b7d3f10eda05d3bc8daeabe0a6d48ab1"}, {"bike_id": "070838f6b0d6d3453d95646511957199", "type": "electric_bike", "is_disabled": 0, "lat": 38.92964533333333, "rental_uris": {"ios": "https://dc.lft.to/lastmile_qr_scan", "android": "https://dc.lft.to/lastmile_qr_scan"}, "is_reserved": 0, "fusion_lon": 0.0, "fusion_lat": 0.0, "lon": -77.185639, "name": "070838f6b0d6d3453d95646511957199"}, {"bike_id": "c58992f5067c051bdbaae324722d8b5e", "type": "electric_scooter", "is_disabled": 0, "lat": 38.912445166666664, "rental_uris": {"ios": "https://dc.lft.to/lastmile_qr_scan", "android": "https://dc.lft.to/lastmile_qr_scan"}, "is_reserved": 0, "fusion_lon": 0.0, "fusion_lat": 0.0, "lon": -77.02231216666667, "name": "c58992f5067c051bdbaae324722d8b5e"}, {"bike_id": "6dc3b903fb2f994c2f0ff7a9fc3ad2dd", "type": "electric_scooter", "is_disabled": 0, "lat": 38.92150183333333, "rental_uris": {"ios": "https://dc.lft.to/lastmile_qr_scan", "android": "https://dc.lft.to/lastmile_qr_scan"}, "is_reserved": 0, "fusion_lon": 0.0, "fusion_lat": 0.0, "lon": -77.03871916666667, "name": "6dc3b903fb2f994c2f0ff7a9fc3ad2dd"}, {"bike_id": "901c66f8402201d3f8e578beb2c4f4b9", "type": "electric_scooter", "is_disabled": 0, "lat": 38.916823666666666, "rental_uris": {"ios": "https://dc.lft.to/lastmile_qr_scan", "android": "https://dc.lft.to/lastmile_qr_scan"}, "is_reserved": 0, "fusion_lon": 0.0, "fusion_lat": 0.0, "lon": -77.02972183333333, "name": "901c66f8402201d3f8e578beb2c4f4b9"}, {"bike_id": "6dc2221c9fb9b6efeafcf1f0404c2706", "type": "electric_scooter", "is_disabled": 0, "lat": 38.939513833333336, "rental_uris": {"ios": "https://dc.lft.to/lastmile_qr_scan", "android": "https://dc.lft.to/lastmile_qr_scan"}, "is_reserved": 0, "fusion_lon": 0.0, "fusion_lat": 0.0, "lon": -77.03663766666666, "name": "6dc2221c9fb9b6efeafcf1f0404c2706"}, {"bike_id": "a112ae448d939975f59bcf360fa510e3", "type": "electric_scooter", "is_disabled": 0, "lat": 38.93319733333333, "rental_uris": {"ios": "https://dc.lft.to/lastmile_qr_scan", "android": "https://dc.lft.to/lastmile_qr_scan"}, "is_reserved": 0, "fusion_lon": 0.0, "fusion_lat": 0.0, "lon": -77.07226333333334, "name": "a112ae448d939975f59bcf360fa510e3"}, {"bike_id": "ce41742f289a7ae9ffb450c1db39fad2", "type": "electric_scooter", "is_disabled": 0, "lat": 38.93249816666667, "rental_uris": {"ios": "https://dc.lft.to/lastmile_qr_scan", "android": "https://dc.lft.to/lastmile_qr_scan"}, "is_reserved": 0, "fusion_lon": 0.0, "fusion_lat": 0.0, "lon": -77.02005283333334, "name": "ce41742f289a7ae9ffb450c1db39fad2"}, {"bike_id": "b45f88ca44489ca4ee065a5305e34b75", "type": "electric_scooter", "is_disabled": 0, "lat": 38.93519966666667, "rental_uris": {"ios": "https://dc.lft.to/lastmile_qr_scan", "android": "https://dc.lft.to/lastmile_qr_scan"}, "is_reserved": 0, "fusion_lon": 0.0, "fusion_lat": 0.0, "lon": -77.0308405, "name": "b45f88ca44489ca4ee065a5305e34b75"}, {"bike_id": "9446346c9ac0f2c1151f86b3e78fa6a7", "type": "electric_scooter", "is_disabled": 0, "lat": 38.92611316666667, "rental_uris": {"ios": "https://dc.lft.to/lastmile_qr_scan", "android": "https://dc.lft.to/lastmile_qr_scan"}, "is_reserved": 0, "fusion_lon": 0.0, "fusion_lat": 0.0, "lon": -77.02163683333333, "name": "9446346c9ac0f2c1151f86b3e78fa6a7"}, {"bike_id": "7c7d8899c02f9e8f4785d0812bb55288", "type": "electric_scooter", "is_disabled": 0, "lat": 38.9028015, "rental_uris": {"ios": "https://dc.lft.to/lastmile_qr_scan", "android": "https://dc.lft.to/lastmile_qr_scan"}, "is_reserved": 0, "fusion_lon": 0.0, "fusion_lat": 0.0, "lon": -77.05811283333334, "name": "7c7d8899c02f9e8f4785d0812bb55288"}, {"bike_id": "8493b305aac25c2673b26c042022ef54", "type": "electric_scooter", "is_disabled": 0, "lat": 38.902628166666666, "rental_uris": {"ios": "https://dc.lft.to/lastmile_qr_scan", "android": "https://dc.lft.to/lastmile_qr_scan"}, "is_reserved": 0, "fusion_lon": 0.0, "fusion_lat": 0.0, "lon": -77.03382183333333, "name": "8493b305aac25c2673b26c042022ef54"}, {"bike_id": "509d527238ce2a597ad7c05c6a05b51b", "type": "electric_bike", "is_disabled": 0, "lat": 39.05498216666667, "rental_uris": {"ios": "https://dc.lft.to/lastmile_qr_scan", "android": "https://dc.lft.to/lastmile_qr_scan"}, "is_reserved": 0, "fusion_lon": 0.0, "fusion_lat": 0.0, "lon": -77.046488, "name": "509d527238ce2a597ad7c05c6a05b51b"}, {"bike_id": "08391d269e28958591846e7753437217", "type": "electric_scooter", "is_disabled": 0, "lat": 38.903908, "rental_uris": {"ios": "https://dc.lft.to/lastmile_qr_scan", "android": "https://dc.lft.to/lastmile_qr_scan"}, "is_reserved": 0, "fusion_lon": 0.0, "fusion_lat": 0.0, "lon": -77.005686, "name": "08391d269e28958591846e7753437217"}, {"bike_id": "dcf6b369d367ebc790b7e92310606cbe", "type": "electric_scooter", "is_disabled": 0, "lat": 38.901695333333336, "rental_uris": {"ios": "https://dc.lft.to/lastmile_qr_scan", "android": "https://dc.lft.to/lastmile_qr_scan"}, "is_reserved": 0, "fusion_lon": 0.0, "fusion_lat": 0.0, "lon": -76.9302615, "name": "dcf6b369d367ebc790b7e92310606cbe"}, {"bike_id": "8c5ccd5eb0afb2379fd3c021c4b2d6e0", "type": "electric_scooter", "is_disabled": 0, "lat": 38.924142333333336, "rental_uris": {"ios": "https://dc.lft.to/lastmile_qr_scan", "android": "https://dc.lft.to/lastmile_qr_scan"}, "is_reserved": 0, "fusion_lon": 0.0, "fusion_lat": 0.0, "lon": -77.05065966666666, "name": "8c5ccd5eb0afb2379fd3c021c4b2d6e0"}, {"bike_id": "db7ce0c95afb10489cd62dd403a30ecd", "type": "electric_scooter", "is_disabled": 0, "lat": 38.90224283333333, "rental_uris": {"ios": "https://dc.lft.to/lastmile_qr_scan", "android": "https://dc.lft.to/lastmile_qr_scan"}, "is_reserved": 0, "fusion_lon": 0.0, "fusion_lat": 0.0, "lon": -77.0209955, "name": "db7ce0c95afb10489cd62dd403a30ecd"}, {"bike_id": "cc4464cbf16b7ff38afa4c9ff42721ba", "type": "electric_scooter", "is_disabled": 0, "lat": 38.907342666666665, "rental_uris": {"ios": "https://dc.lft.to/lastmile_qr_scan", "android": "https://dc.lft.to/lastmile_qr_scan"}, "is_reserved": 0, "fusion_lon": 0.0, "fusion_lat": 0.0, "lon": -77.02806466666667, "name": "cc4464cbf16b7ff38afa4c9ff42721ba"}, {"bike_id": "4828baaf62a32367d64b7f089737fcd3", "type": "electric_bike", "is_disabled": 0, "lat": 38.8130865, "rental_uris": {"ios": "https://dc.lft.to/lastmile_qr_scan", "android": "https://dc.lft.to/lastmile_qr_scan"}, "is_reserved": 0, "fusion_lon": 0.0, "fusion_lat": 0.0, "lon": -77.10967483333333, "name": "4828baaf62a32367d64b7f089737fcd3"}, {"bike_id": "d27134047859f997fdfcb27707995c9f", "type": "electric_scooter", "is_disabled": 0, "lat": 38.89729533333333, "rental_uris": {"ios": "https://dc.lft.to/lastmile_qr_scan", "android": "https://dc.lft.to/lastmile_qr_scan"}, "is_reserved": 0, "fusion_lon": 0.0, "fusion_lat": 0.0, "lon": -77.04851433333333, "name": "d27134047859f997fdfcb27707995c9f"}, {"bike_id": "db5789ce18e17cf775d82c98627f6cdf", "type": "electric_scooter", "is_disabled": 0, "lat": 38.89221783333333, "rental_uris": {"ios": "https://dc.lft.to/lastmile_qr_scan", "android": "https://dc.lft.to/lastmile_qr_scan"}, "is_reserved": 0, "fusion_lon": 0.0, "fusion_lat": 0.0, "lon": -77.01557366666667, "name": "db5789ce18e17cf775d82c98627f6cdf"}, {"bike_id": "a4d346c07c7a4c2378c4c8f3728614a1", "type": "electric_scooter", "is_disabled": 0, "lat": 38.876320666666665, "rental_uris": {"ios": "https://dc.lft.to/lastmile_qr_scan", "android": "https://dc.lft.to/lastmile_qr_scan"}, "is_reserved": 0, "fusion_lon": 0.0, "fusion_lat": 0.0, "lon": -77.01694383333333, "name": "a4d346c07c7a4c2378c4c8f3728614a1"}, {"bike_id": "a4f7e4391b60d44e987e9ae920ae0323", "type": "electric_scooter", "is_disabled": 0, "lat": 38.88698216666667, "rental_uris": {"ios": "https://dc.lft.to/lastmile_qr_scan", "android": "https://dc.lft.to/lastmile_qr_scan"}, "is_reserved": 0, "fusion_lon": 0.0, "fusion_lat": 0.0, "lon": -76.99611483333334, "name": "a4f7e4391b60d44e987e9ae920ae0323"}, {"bike_id": "2b7af653d3b4cc7f9fd930bbf7dae4f9", "type": "electric_scooter", "is_disabled": 0, "lat": 38.9333085, "rental_uris": {"ios": "https://dc.lft.to/lastmile_qr_scan", "android": "https://dc.lft.to/lastmile_qr_scan"}, "is_reserved": 0, "fusion_lon": 0.0, "fusion_lat": 0.0, "lon": -77.04547833333334, "name": "2b7af653d3b4cc7f9fd930bbf7dae4f9"}, {"bike_id": "8052f42106e4799a775c32bdf54c90fe", "type": "electric_scooter", "is_disabled": 0, "lat": 38.88736383333333, "rental_uris": {"ios": "https://dc.lft.to/lastmile_qr_scan", "android": "https://dc.lft.to/lastmile_qr_scan"}, "is_reserved": 0, "fusion_lon": 0.0, "fusion_lat": 0.0, "lon": -77.01532566666667, "name": "8052f42106e4799a775c32bdf54c90fe"}, {"bike_id": "fba5e24c48282a331b92309fabaa15dc", "type": "electric_scooter", "is_disabled": 0, "lat": 38.9052255, "rental_uris": {"ios": "https://dc.lft.to/lastmile_qr_scan", "android": "https://dc.lft.to/lastmile_qr_scan"}, "is_reserved": 0, "fusion_lon": 0.0, "fusion_lat": 0.0, "lon": -77.0600675, "name": "fba5e24c48282a331b92309fabaa15dc"}, {"bike_id": "4ffd64a01469deca898c80455277388f", "type": "electric_scooter", "is_disabled": 0, "lat": 38.956316666666666, "rental_uris": {"ios": "https://dc.lft.to/lastmile_qr_scan", "android": "https://dc.lft.to/lastmile_qr_scan"}, "is_reserved": 0, "fusion_lon": 0.0, "fusion_lat": 0.0, "lon": -77.01156783333333, "name": "4ffd64a01469deca898c80455277388f"}, {"bike_id": "f127f4cfa04fa7a01f2958d0d4d8c3f0", "type": "electric_scooter", "is_disabled": 0, "lat": 38.92053133333334, "rental_uris": {"ios": "https://dc.lft.to/lastmile_qr_scan", "android": "https://dc.lft.to/lastmile_qr_scan"}, "is_reserved": 0, "fusion_lon": 0.0, "fusion_lat": 0.0, "lon": -76.99884266666666, "name": "f127f4cfa04fa7a01f2958d0d4d8c3f0"}, {"bike_id": "ee363718ffbcd01fe54162ee6e96df28", "type": "electric_bike", "is_disabled": 0, "lat": 38.874740833333334, "rental_uris": {"ios": "https://dc.lft.to/lastmile_qr_scan", "android": "https://dc.lft.to/lastmile_qr_scan"}, "is_reserved": 0, "fusion_lon": 0.0, "fusion_lat": 0.0, "lon": -76.96534283333334, "name": "ee363718ffbcd01fe54162ee6e96df28"}, {"bike_id": "4647ae1080d9accd13ff36151e36d9e6", "type": "electric_scooter", "is_disabled": 0, "lat": 38.917134833333336, "rental_uris": {"ios": "https://dc.lft.to/lastmile_qr_scan", "android": "https://dc.lft.to/lastmile_qr_scan"}, "is_reserved": 0, "fusion_lon": 0.0, "fusion_lat": 0.0, "lon": -77.03662033333333, "name": "4647ae1080d9accd13ff36151e36d9e6"}, {"bike_id": "70d5e57607d7534098aded21a21f921a", "type": "electric_scooter", "is_disabled": 0, "lat": 38.90864033333333, "rental_uris": {"ios": "https://dc.lft.to/lastmile_qr_scan", "android": "https://dc.lft.to/lastmile_qr_scan"}, "is_reserved": 0, "fusion_lon": 0.0, "fusion_lat": 0.0, "lon": -77.02690166666666, "name": "70d5e57607d7534098aded21a21f921a"}, {"bike_id": "24a3e053660c066e5159a152d247db5f", "type": "electric_scooter", "is_disabled": 0, "lat": 38.88735483333333, "rental_uris": {"ios": "https://dc.lft.to/lastmile_qr_scan", "android": "https://dc.lft.to/lastmile_qr_scan"}, "is_reserved": 0, "fusion_lon": 0.0, "fusion_lat": 0.0, "lon": -77.01533716666667, "name": "24a3e053660c066e5159a152d247db5f"}, {"bike_id": "400086c7e2a95e84908a43df68e23019", "type": "electric_scooter", "is_disabled": 0, "lat": 38.90023716666666, "rental_uris": {"ios": "https://dc.lft.to/lastmile_qr_scan", "android": "https://dc.lft.to/lastmile_qr_scan"}, "is_reserved": 0, "fusion_lon": 0.0, "fusion_lat": 0.0, "lon": -77.0219125, "name": "400086c7e2a95e84908a43df68e23019"}, {"bike_id": "cdec70fae2a5bca572f468d021146234", "type": "electric_scooter", "is_disabled": 0, "lat": 38.92580233333333, "rental_uris": {"ios": "https://dc.lft.to/lastmile_qr_scan", "android": "https://dc.lft.to/lastmile_qr_scan"}, "is_reserved": 0, "fusion_lon": 0.0, "fusion_lat": 0.0, "lon": -77.02757433333333, "name": "cdec70fae2a5bca572f468d021146234"}, {"bike_id": "9cc128336f3b369cb4707102460d0052", "type": "electric_scooter", "is_disabled": 0, "lat": 38.917003, "rental_uris": {"ios": "https://dc.lft.to/lastmile_qr_scan", "android": "https://dc.lft.to/lastmile_qr_scan"}, "is_reserved": 0, "fusion_lon": 0.0, "fusion_lat": 0.0, "lon": -77.008026, "name": "9cc128336f3b369cb4707102460d0052"}, {"bike_id": "0135a22b884cdc6497e5402a2a221fff", "type": "electric_scooter", "is_disabled": 0, "lat": 38.90601983333333, "rental_uris": {"ios": "https://dc.lft.to/lastmile_qr_scan", "android": "https://dc.lft.to/lastmile_qr_scan"}, "is_reserved": 0, "fusion_lon": 0.0, "fusion_lat": 0.0, "lon": -77.06295966666667, "name": "0135a22b884cdc6497e5402a2a221fff"}, {"bike_id": "a5880e81005eeffbe4155e12d03ddb15", "type": "electric_scooter", "is_disabled": 0, "lat": 38.922651333333334, "rental_uris": {"ios": "https://dc.lft.to/lastmile_qr_scan", "android": "https://dc.lft.to/lastmile_qr_scan"}, "is_reserved": 0, "fusion_lon": 0.0, "fusion_lat": 0.0, "lon": -77.03267416666667, "name": "a5880e81005eeffbe4155e12d03ddb15"}, {"bike_id": "d3f84e55cce0196fca8f6c1c16342cf8", "type": "electric_scooter", "is_disabled": 0, "lat": 38.914197333333334, "rental_uris": {"ios": "https://dc.lft.to/lastmile_qr_scan", "android": "https://dc.lft.to/lastmile_qr_scan"}, "is_reserved": 0, "fusion_lon": 0.0, "fusion_lat": 0.0, "lon": -77.022542, "name": "d3f84e55cce0196fca8f6c1c16342cf8"}, {"bike_id": "40539fee78f74834172799c8fb51d30e", "type": "electric_scooter", "is_disabled": 0, "lat": 38.926555666666665, "rental_uris": {"ios": "https://dc.lft.to/lastmile_qr_scan", "android": "https://dc.lft.to/lastmile_qr_scan"}, "is_reserved": 0, "fusion_lon": 0.0, "fusion_lat": 0.0, "lon": -77.03728133333334, "name": "40539fee78f74834172799c8fb51d30e"}, {"bike_id": "5bbe7ab5d2b240c0f4223ed7f7af0158", "type": "electric_scooter", "is_disabled": 0, "lat": 38.90570916666667, "rental_uris": {"ios": "https://dc.lft.to/lastmile_qr_scan", "android": "https://dc.lft.to/lastmile_qr_scan"}, "is_reserved": 0, "fusion_lon": 0.0, "fusion_lat": 0.0, "lon": -76.97629966666666, "name": "5bbe7ab5d2b240c0f4223ed7f7af0158"}, {"bike_id": "16fce8337e2637f96f110d46f026331a", "type": "electric_scooter", "is_disabled": 0, "lat": 38.903219166666666, "rental_uris": {"ios": "https://dc.lft.to/lastmile_qr_scan", "android": "https://dc.lft.to/lastmile_qr_scan"}, "is_reserved": 0, "fusion_lon": 0.0, "fusion_lat": 0.0, "lon": -76.994219, "name": "16fce8337e2637f96f110d46f026331a"}, {"bike_id": "1478a973f5c0658de7e495c3eaade14f", "type": "electric_scooter", "is_disabled": 0, "lat": 38.9092075, "rental_uris": {"ios": "https://dc.lft.to/lastmile_qr_scan", "android": "https://dc.lft.to/lastmile_qr_scan"}, "is_reserved": 0, "fusion_lon": 0.0, "fusion_lat": 0.0, "lon": -77.04503466666667, "name": "1478a973f5c0658de7e495c3eaade14f"}, {"bike_id": "98fe962a765e63770a9291d42d7e37d8", "type": "electric_scooter", "is_disabled": 0, "lat": 38.928631833333334, "rental_uris": {"ios": "https://dc.lft.to/lastmile_qr_scan", "android": "https://dc.lft.to/lastmile_qr_scan"}, "is_reserved": 0, "fusion_lon": 0.0, "fusion_lat": 0.0, "lon": -77.0544225, "name": "98fe962a765e63770a9291d42d7e37d8"}, {"bike_id": "e8f617ecc7463dd925ac94870a13d750", "type": "electric_scooter", "is_disabled": 0, "lat": 38.9169605, "rental_uris": {"ios": "https://dc.lft.to/lastmile_qr_scan", "android": "https://dc.lft.to/lastmile_qr_scan"}, "is_reserved": 0, "fusion_lon": 0.0, "fusion_lat": 0.0, "lon": -77.03180683333333, "name": "e8f617ecc7463dd925ac94870a13d750"}, {"bike_id": "f917cf1605d2e815c1eeaf1539fc553d", "type": "electric_scooter", "is_disabled": 0, "lat": 38.9024415, "rental_uris": {"ios": "https://dc.lft.to/lastmile_qr_scan", "android": "https://dc.lft.to/lastmile_qr_scan"}, "is_reserved": 0, "fusion_lon": 0.0, "fusion_lat": 0.0, "lon": -77.01861183333334, "name": "f917cf1605d2e815c1eeaf1539fc553d"}, {"bike_id": "e00abbfcee76fc2ece0ac95c273a054e", "type": "electric_scooter", "is_disabled": 0, "lat": 38.92269483333333, "rental_uris": {"ios": "https://dc.lft.to/lastmile_qr_scan", "android": "https://dc.lft.to/lastmile_qr_scan"}, "is_reserved": 0, "fusion_lon": 0.0, "fusion_lat": 0.0, "lon": -77.03279766666667, "name": "e00abbfcee76fc2ece0ac95c273a054e"}, {"bike_id": "b25ad895f5778117deb2dc6474199799", "type": "electric_scooter", "is_disabled": 0, "lat": 38.9072885, "rental_uris": {"ios": "https://dc.lft.to/lastmile_qr_scan", "android": "https://dc.lft.to/lastmile_qr_scan"}, "is_reserved": 0, "fusion_lon": 0.0, "fusion_lat": 0.0, "lon": -77.029535, "name": "b25ad895f5778117deb2dc6474199799"}, {"bike_id": "78a1e7eb8d80f0f03334efa23bdd26ea", "type": "electric_bike", "is_disabled": 0, "lat": 38.90835883333333, "rental_uris": {"ios": "https://dc.lft.to/lastmile_qr_scan", "android": "https://dc.lft.to/lastmile_qr_scan"}, "is_reserved": 0, "fusion_lon": 0.0, "fusion_lat": 0.0, "lon": -76.93305416666666, "name": "78a1e7eb8d80f0f03334efa23bdd26ea"}, {"bike_id": "f7c51e8f3a15420187f6156c545d588b", "type": "electric_scooter", "is_disabled": 0, "lat": 38.870932833333335, "rental_uris": {"ios": "https://dc.lft.to/lastmile_qr_scan", "android": "https://dc.lft.to/lastmile_qr_scan"}, "is_reserved": 0, "fusion_lon": 0.0, "fusion_lat": 0.0, "lon": -77.01208533333333, "name": "f7c51e8f3a15420187f6156c545d588b"}, {"bike_id": "d57c7a522d51b2d842591e99b7ad7966", "type": "electric_scooter", "is_disabled": 0, "lat": 38.909827166666666, "rental_uris": {"ios": "https://dc.lft.to/lastmile_qr_scan", "android": "https://dc.lft.to/lastmile_qr_scan"}, "is_reserved": 0, "fusion_lon": 0.0, "fusion_lat": 0.0, "lon": -77.03177966666667, "name": "d57c7a522d51b2d842591e99b7ad7966"}, {"bike_id": "53aef0281dae7c793b8373d5b6969031", "type": "electric_scooter", "is_disabled": 0, "lat": 38.884040666666664, "rental_uris": {"ios": "https://dc.lft.to/lastmile_qr_scan", "android": "https://dc.lft.to/lastmile_qr_scan"}, "is_reserved": 0, "fusion_lon": 0.0, "fusion_lat": 0.0, "lon": -76.95396133333334, "name": "53aef0281dae7c793b8373d5b6969031"}, {"bike_id": "3e9b39c7219a41fae2230960569e713c", "type": "electric_scooter", "is_disabled": 0, "lat": 38.9142025, "rental_uris": {"ios": "https://dc.lft.to/lastmile_qr_scan", "android": "https://dc.lft.to/lastmile_qr_scan"}, "is_reserved": 0, "fusion_lon": 0.0, "fusion_lat": 0.0, "lon": -77.021835, "name": "3e9b39c7219a41fae2230960569e713c"}, {"bike_id": "a5022a3252a87d994a546660fde11f17", "type": "electric_scooter", "is_disabled": 0, "lat": 38.907368166666664, "rental_uris": {"ios": "https://dc.lft.to/lastmile_qr_scan", "android": "https://dc.lft.to/lastmile_qr_scan"}, "is_reserved": 0, "fusion_lon": 0.0, "fusion_lat": 0.0, "lon": -77.00762833333333, "name": "a5022a3252a87d994a546660fde11f17"}, {"bike_id": "e45889076c16f843c1d11d9b578070fd", "type": "electric_scooter", "is_disabled": 0, "lat": 38.92025116666667, "rental_uris": {"ios": "https://dc.lft.to/lastmile_qr_scan", "android": "https://dc.lft.to/lastmile_qr_scan"}, "is_reserved": 0, "fusion_lon": 0.0, "fusion_lat": 0.0, "lon": -77.01834333333333, "name": "e45889076c16f843c1d11d9b578070fd"}, {"bike_id": "b2ac489259de3579592f3f0a6258e6eb", "type": "electric_scooter", "is_disabled": 0, "lat": 38.92325316666667, "rental_uris": {"ios": "https://dc.lft.to/lastmile_qr_scan", "android": "https://dc.lft.to/lastmile_qr_scan"}, "is_reserved": 0, "fusion_lon": 0.0, "fusion_lat": 0.0, "lon": -77.04617316666666, "name": "b2ac489259de3579592f3f0a6258e6eb"}, {"bike_id": "f96d3664fe22f3ac69fe9f38cff0d9c2", "type": "electric_scooter", "is_disabled": 0, "lat": 38.952326166666666, "rental_uris": {"ios": "https://dc.lft.to/lastmile_qr_scan", "android": "https://dc.lft.to/lastmile_qr_scan"}, "is_reserved": 0, "fusion_lon": 0.0, "fusion_lat": 0.0, "lon": -77.00956333333333, "name": "f96d3664fe22f3ac69fe9f38cff0d9c2"}, {"bike_id": "d1bdff8dc07593dc7cbea30c6b86003c", "type": "electric_scooter", "is_disabled": 0, "lat": 38.90081266666667, "rental_uris": {"ios": "https://dc.lft.to/lastmile_qr_scan", "android": "https://dc.lft.to/lastmile_qr_scan"}, "is_reserved": 0, "fusion_lon": 0.0, "fusion_lat": 0.0, "lon": -77.05003316666667, "name": "d1bdff8dc07593dc7cbea30c6b86003c"}, {"bike_id": "f35ad06d0a84bb7923444e5774c871ca", "type": "electric_scooter", "is_disabled": 0, "lat": 38.900117333333334, "rental_uris": {"ios": "https://dc.lft.to/lastmile_qr_scan", "android": "https://dc.lft.to/lastmile_qr_scan"}, "is_reserved": 0, "fusion_lon": 0.0, "fusion_lat": 0.0, "lon": -77.01264716666667, "name": "f35ad06d0a84bb7923444e5774c871ca"}, {"bike_id": "172e1fe1d672c2bb9a2623779a5dec8f", "type": "electric_scooter", "is_disabled": 0, "lat": 38.913699333333334, "rental_uris": {"ios": "https://dc.lft.to/lastmile_qr_scan", "android": "https://dc.lft.to/lastmile_qr_scan"}, "is_reserved": 0, "fusion_lon": 0.0, "fusion_lat": 0.0, "lon": -77.04560033333334, "name": "172e1fe1d672c2bb9a2623779a5dec8f"}, {"bike_id": "6f93e58d02bddbcf2dd6b9078fd9e5f5", "type": "electric_scooter", "is_disabled": 0, "lat": 38.9234455, "rental_uris": {"ios": "https://dc.lft.to/lastmile_qr_scan", "android": "https://dc.lft.to/lastmile_qr_scan"}, "is_reserved": 0, "fusion_lon": 0.0, "fusion_lat": 0.0, "lon": -77.05429216666667, "name": "6f93e58d02bddbcf2dd6b9078fd9e5f5"}, {"bike_id": "86815e24be6f0e4b91a22ef56a657102", "type": "electric_scooter", "is_disabled": 0, "lat": 38.90192916666667, "rental_uris": {"ios": "https://dc.lft.to/lastmile_qr_scan", "android": "https://dc.lft.to/lastmile_qr_scan"}, "is_reserved": 0, "fusion_lon": 0.0, "fusion_lat": 0.0, "lon": -76.98846833333333, "name": "86815e24be6f0e4b91a22ef56a657102"}, {"bike_id": "d36f0786bbe556541da647b068f2eaa3", "type": "electric_scooter", "is_disabled": 0, "lat": 38.91110066666667, "rental_uris": {"ios": "https://dc.lft.to/lastmile_qr_scan", "android": "https://dc.lft.to/lastmile_qr_scan"}, "is_reserved": 0, "fusion_lon": 0.0, "fusion_lat": 0.0, "lon": -77.0383105, "name": "d36f0786bbe556541da647b068f2eaa3"}, {"bike_id": "4a798e821e5c868e0d38c477b88fac6a", "type": "electric_scooter", "is_disabled": 0, "lat": 38.925981666666665, "rental_uris": {"ios": "https://dc.lft.to/lastmile_qr_scan", "android": "https://dc.lft.to/lastmile_qr_scan"}, "is_reserved": 0, "fusion_lon": 0.0, "fusion_lat": 0.0, "lon": -77.02154833333333, "name": "4a798e821e5c868e0d38c477b88fac6a"}, {"bike_id": "4a16daee6cd613b4941e56bec2452415", "type": "electric_scooter", "is_disabled": 0, "lat": 38.94071133333333, "rental_uris": {"ios": "https://dc.lft.to/lastmile_qr_scan", "android": "https://dc.lft.to/lastmile_qr_scan"}, "is_reserved": 0, "fusion_lon": 0.0, "fusion_lat": 0.0, "lon": -77.05252283333333, "name": "4a16daee6cd613b4941e56bec2452415"}, {"bike_id": "b830ca392217ed28e299b75bd891c898", "type": "electric_scooter", "is_disabled": 0, "lat": 38.90431266666667, "rental_uris": {"ios": "https://dc.lft.to/lastmile_qr_scan", "android": "https://dc.lft.to/lastmile_qr_scan"}, "is_reserved": 0, "fusion_lon": 0.0, "fusion_lat": 0.0, "lon": -77.02892016666667, "name": "b830ca392217ed28e299b75bd891c898"}, {"bike_id": "be4a04c6bbf170b06485ad68dc39a625", "type": "electric_scooter", "is_disabled": 0, "lat": 38.90978283333333, "rental_uris": {"ios": "https://dc.lft.to/lastmile_qr_scan", "android": "https://dc.lft.to/lastmile_qr_scan"}, "is_reserved": 0, "fusion_lon": 0.0, "fusion_lat": 0.0, "lon": -77.03180816666666, "name": "be4a04c6bbf170b06485ad68dc39a625"}, {"bike_id": "ee51748fb913895bd7b2db3d5bc1c547", "type": "electric_scooter", "is_disabled": 0, "lat": 38.89232, "rental_uris": {"ios": "https://dc.lft.to/lastmile_qr_scan", "android": "https://dc.lft.to/lastmile_qr_scan"}, "is_reserved": 0, "fusion_lon": 0.0, "fusion_lat": 0.0, "lon": -77.023818, "name": "ee51748fb913895bd7b2db3d5bc1c547"}, {"bike_id": "952e77961d310769ed40efef53e06c78", "type": "electric_scooter", "is_disabled": 0, "lat": 38.879256833333336, "rental_uris": {"ios": "https://dc.lft.to/lastmile_qr_scan", "android": "https://dc.lft.to/lastmile_qr_scan"}, "is_reserved": 0, "fusion_lon": 0.0, "fusion_lat": 0.0, "lon": -77.00535466666666, "name": "952e77961d310769ed40efef53e06c78"}, {"bike_id": "be95d42f8251c754fbbe07db7de33655", "type": "electric_scooter", "is_disabled": 0, "lat": 38.898426, "rental_uris": {"ios": "https://dc.lft.to/lastmile_qr_scan", "android": "https://dc.lft.to/lastmile_qr_scan"}, "is_reserved": 0, "fusion_lon": 0.0, "fusion_lat": 0.0, "lon": -76.94630833333333, "name": "be95d42f8251c754fbbe07db7de33655"}, {"bike_id": "d78ec40bac5adb105d60622316dc13b7", "type": "electric_scooter", "is_disabled": 0, "lat": 38.918799666666665, "rental_uris": {"ios": "https://dc.lft.to/lastmile_qr_scan", "android": "https://dc.lft.to/lastmile_qr_scan"}, "is_reserved": 0, "fusion_lon": 0.0, "fusion_lat": 0.0, "lon": -77.04464483333334, "name": "d78ec40bac5adb105d60622316dc13b7"}, {"bike_id": "ddd64736789a6e85d11af63acd00cb73", "type": "electric_scooter", "is_disabled": 0, "lat": 38.908639, "rental_uris": {"ios": "https://dc.lft.to/lastmile_qr_scan", "android": "https://dc.lft.to/lastmile_qr_scan"}, "is_reserved": 0, "fusion_lon": 0.0, "fusion_lat": 0.0, "lon": -77.04273233333333, "name": "ddd64736789a6e85d11af63acd00cb73"}, {"bike_id": "789cf3e7d0029e9bba75a099800adca8", "type": "electric_scooter", "is_disabled": 0, "lat": 38.906829, "rental_uris": {"ios": "https://dc.lft.to/lastmile_qr_scan", "android": "https://dc.lft.to/lastmile_qr_scan"}, "is_reserved": 0, "fusion_lon": 0.0, "fusion_lat": 0.0, "lon": -77.06341266666666, "name": "789cf3e7d0029e9bba75a099800adca8"}, {"bike_id": "00fea65a479bf3e8142f9bf4a2ee4a60", "type": "electric_scooter", "is_disabled": 0, "lat": 38.91912516666667, "rental_uris": {"ios": "https://dc.lft.to/lastmile_qr_scan", "android": "https://dc.lft.to/lastmile_qr_scan"}, "is_reserved": 0, "fusion_lon": 0.0, "fusion_lat": 0.0, "lon": -77.03419233333334, "name": "00fea65a479bf3e8142f9bf4a2ee4a60"}, {"bike_id": "d24b407d43acbc44e24d3fe48c8b11af", "type": "electric_scooter", "is_disabled": 0, "lat": 38.9386675, "rental_uris": {"ios": "https://dc.lft.to/lastmile_qr_scan", "android": "https://dc.lft.to/lastmile_qr_scan"}, "is_reserved": 0, "fusion_lon": 0.0, "fusion_lat": 0.0, "lon": -77.02454983333334, "name": "d24b407d43acbc44e24d3fe48c8b11af"}, {"bike_id": "9f20dd9ea1a0b6477a99107bc3bd5b34", "type": "electric_scooter", "is_disabled": 0, "lat": 38.907312, "rental_uris": {"ios": "https://dc.lft.to/lastmile_qr_scan", "android": "https://dc.lft.to/lastmile_qr_scan"}, "is_reserved": 0, "fusion_lon": 0.0, "fusion_lat": 0.0, "lon": -77.04328783333334, "name": "9f20dd9ea1a0b6477a99107bc3bd5b34"}, {"bike_id": "0362f9abdf25944d285ad2405efc9837", "type": "electric_scooter", "is_disabled": 0, "lat": 38.91405016666667, "rental_uris": {"ios": "https://dc.lft.to/lastmile_qr_scan", "android": "https://dc.lft.to/lastmile_qr_scan"}, "is_reserved": 0, "fusion_lon": 0.0, "fusion_lat": 0.0, "lon": -77.02100716666666, "name": "0362f9abdf25944d285ad2405efc9837"}, {"bike_id": "c77fc8fa2bb8c423ef546b59a39aa327", "type": "electric_scooter", "is_disabled": 0, "lat": 38.88265533333333, "rental_uris": {"ios": "https://dc.lft.to/lastmile_qr_scan", "android": "https://dc.lft.to/lastmile_qr_scan"}, "is_reserved": 0, "fusion_lon": 0.0, "fusion_lat": 0.0, "lon": -76.9925125, "name": "c77fc8fa2bb8c423ef546b59a39aa327"}, {"bike_id": "316cd17b08af944ff8c9188889f580ab", "type": "electric_scooter", "is_disabled": 0, "lat": 38.9036325, "rental_uris": {"ios": "https://dc.lft.to/lastmile_qr_scan", "android": "https://dc.lft.to/lastmile_qr_scan"}, "is_reserved": 0, "fusion_lon": 0.0, "fusion_lat": 0.0, "lon": -77.00739083333333, "name": "316cd17b08af944ff8c9188889f580ab"}, {"bike_id": "d8e66819934a9da1dba20c05506b101b", "type": "electric_scooter", "is_disabled": 0, "lat": 38.92756, "rental_uris": {"ios": "https://dc.lft.to/lastmile_qr_scan", "android": "https://dc.lft.to/lastmile_qr_scan"}, "is_reserved": 0, "fusion_lon": 0.0, "fusion_lat": 0.0, "lon": -77.02313616666666, "name": "d8e66819934a9da1dba20c05506b101b"}, {"bike_id": "cb841ba9fcb01d2db05ac10e56d8c002", "type": "electric_scooter", "is_disabled": 0, "lat": 38.90513416666667, "rental_uris": {"ios": "https://dc.lft.to/lastmile_qr_scan", "android": "https://dc.lft.to/lastmile_qr_scan"}, "is_reserved": 0, "fusion_lon": 0.0, "fusion_lat": 0.0, "lon": -77.063762, "name": "cb841ba9fcb01d2db05ac10e56d8c002"}, {"bike_id": "526742cc9d8df10e229bba5b05a3f217", "type": "electric_scooter", "is_disabled": 0, "lat": 38.90961133333333, "rental_uris": {"ios": "https://dc.lft.to/lastmile_qr_scan", "android": "https://dc.lft.to/lastmile_qr_scan"}, "is_reserved": 0, "fusion_lon": 0.0, "fusion_lat": 0.0, "lon": -77.022838, "name": "526742cc9d8df10e229bba5b05a3f217"}, {"bike_id": "7c7fb9db87fac2ccc3035c8c40cfbe2a", "type": "electric_scooter", "is_disabled": 0, "lat": 38.908462166666666, "rental_uris": {"ios": "https://dc.lft.to/lastmile_qr_scan", "android": "https://dc.lft.to/lastmile_qr_scan"}, "is_reserved": 0, "fusion_lon": 0.0, "fusion_lat": 0.0, "lon": -77.055659, "name": "7c7fb9db87fac2ccc3035c8c40cfbe2a"}, {"bike_id": "7fe128acf4e487fcfa79ac065976bc2f", "type": "electric_scooter", "is_disabled": 0, "lat": 38.908211, "rental_uris": {"ios": "https://dc.lft.to/lastmile_qr_scan", "android": "https://dc.lft.to/lastmile_qr_scan"}, "is_reserved": 0, "fusion_lon": 0.0, "fusion_lat": 0.0, "lon": -77.02400716666666, "name": "7fe128acf4e487fcfa79ac065976bc2f"}, {"bike_id": "3b96899fd98e74bc3059671af4a4c387", "type": "electric_scooter", "is_disabled": 0, "lat": 38.899998833333335, "rental_uris": {"ios": "https://dc.lft.to/lastmile_qr_scan", "android": "https://dc.lft.to/lastmile_qr_scan"}, "is_reserved": 0, "fusion_lon": 0.0, "fusion_lat": 0.0, "lon": -77.00211366666667, "name": "3b96899fd98e74bc3059671af4a4c387"}, {"bike_id": "972369f1703685c242dc454579f67d0b", "type": "electric_scooter", "is_disabled": 0, "lat": 38.905687, "rental_uris": {"ios": "https://dc.lft.to/lastmile_qr_scan", "android": "https://dc.lft.to/lastmile_qr_scan"}, "is_reserved": 0, "fusion_lon": 0.0, "fusion_lat": 0.0, "lon": -77.00576616666666, "name": "972369f1703685c242dc454579f67d0b"}, {"bike_id": "24942be3a10140f192cdd7e156891c94", "type": "electric_scooter", "is_disabled": 0, "lat": 38.91906783333334, "rental_uris": {"ios": "https://dc.lft.to/lastmile_qr_scan", "android": "https://dc.lft.to/lastmile_qr_scan"}, "is_reserved": 0, "fusion_lon": 0.0, "fusion_lat": 0.0, "lon": -77.0343895, "name": "24942be3a10140f192cdd7e156891c94"}, {"bike_id": "add4a15855a760316de96343f4f700fa", "type": "electric_scooter", "is_disabled": 0, "lat": 38.91635933333333, "rental_uris": {"ios": "https://dc.lft.to/lastmile_qr_scan", "android": "https://dc.lft.to/lastmile_qr_scan"}, "is_reserved": 0, "fusion_lon": 0.0, "fusion_lat": 0.0, "lon": -77.0254645, "name": "add4a15855a760316de96343f4f700fa"}, {"bike_id": "7af4f068ebf68dd9f43166e4fcab6361", "type": "electric_scooter", "is_disabled": 0, "lat": 38.902822666666665, "rental_uris": {"ios": "https://dc.lft.to/lastmile_qr_scan", "android": "https://dc.lft.to/lastmile_qr_scan"}, "is_reserved": 0, "fusion_lon": 0.0, "fusion_lat": 0.0, "lon": -77.0438705, "name": "7af4f068ebf68dd9f43166e4fcab6361"}, {"bike_id": "a400a1e988bea86948b27914e56de849", "type": "electric_scooter", "is_disabled": 0, "lat": 38.90388133333333, "rental_uris": {"ios": "https://dc.lft.to/lastmile_qr_scan", "android": "https://dc.lft.to/lastmile_qr_scan"},