{"data": {"bikes": [{"name": "5ae5fb0e539017f492e55b574cea032e", "fusion_lat": 0.0, "type": "electric_scooter", "lat": 38.88428233333333, "is_reserved": 0, "is_disabled": 0, "fusion_lon": 0.0, "bike_id": "5ae5fb0e539017f492e55b574cea032e", "lon": -76.95756066666667, "rental_uris": {"ios": "https://dc.lft.to/lastmile_qr_scan", "android": "https://dc.lft.to/lastmile_qr_scan"}}, {"name": "39b1e5f38751f90c7092a585cecc506e", "fusion_lat": 0.0, "type": "electric_scooter", "lat": 38.897519833333334, "is_reserved": 0, "is_disabled": 0, "fusion_lon": 0.0, "bike_id": "39b1e5f38751f90c7092a585cecc506e", "lon": -77.03121383333334, "rental_uris": {"ios": "https://dc.lft.to/lastmile_qr_scan", "android": "https://dc.lft.to/lastmile_qr_scan"}}, {"name": "0df3076d60721c1205febe2368dede7a", "fusion_lat": 0.0, "type": "electric_scooter", "lat": 38.85710066666667, "is_reserved": 0, "is_disabled": 0, "fusion_lon": 0.0, "bike_id": "0df3076d60721c1205febe2368dede7a", "lon": -76.98133533333333, "rental_uris": {"ios": "https://dc.lft.to/lastmile_qr_scan", "android": "https://dc.lft.to/lastmile_qr_scan"}}, {"name": "08258cd94061bfa62d52dbcfb1040a5e", "fusion_lat": 0.0, "type": "electric_scooter", "lat": 38.89968183333333, "is_reserved": 0, "is_disabled": 0, "fusion_lon": 0.0, "bike_id": "08258cd94061bfa62d52dbcfb1040a5e", "lon": -77.03911166666667, "rental_uris": {"ios": "https://dc.lft.to/lastmile_qr_scan", "android": "https://dc.lft.to/lastmile_qr_scan"}}, {"name": "20021124a82f7865c16ddfdc9c6fc6ec", "fusion_lat": 0.0, "type": "electric_scooter", "lat": 38.90334566666667, "is_reserved": 0, "is_disabled": 0, "fusion_lon": 0.0, "bike_id": "20021124a82f7865c16ddfdc9c6fc6ec", "lon": -77.06563766666666, "rental_uris": {"ios": "https://dc.lft.to/lastmile_qr_scan", "android": "https://dc.lft.to/lastmile_qr_scan"}}, {"name": "67f77964090658f0e6dae7afa1b260b0", "fusion_lat": 0.0, "type": "electric_bike", "lat": 38.91131433333334, "is_reserved": 0, "is_disabled": 0, "fusion_lon": 0.0, "bike_id": "67f77964090658f0e6dae7afa1b260b0", "lon": -77.06569566666667, "rental_uris": {"ios": "https://dc.lft.to/lastmile_qr_scan", "android": "https://dc.lft.to/lastmile_qr_scan"}}, {"name": "e9050f40d3461b9f4f9c4dbf7ad0b89b", "fusion_lat": 0.0, "type": "electric_bike", "lat": 38.96281183333333, "is_reserved": 0, "is_disabled": 0, "fusion_lon": 0.0, "bike_id": "e9050f40d3461b9f4f9c4dbf7ad0b89b", "lon": -77.032532, "rental_uris": {"ios": "https://dc.lft.to/lastmile_qr_scan", "android": "https://dc.lft.to/lastmile_qr_scan"}}, {"name": "8f0985e611dae5843cbaa2b21b762e62", "fusion_lat": 0.0, "type": "electric_scooter", "lat": 38.907313333333335, "is_reserved": 0, "is_disabled": 0, "fusion_lon": 0.0, "bike_id": "8f0985e611dae5843cbaa2b21b762e62", "lon": -77.02980683333334, "rental_uris": {"ios": "https://dc.lft.to/lastmile_qr_scan", "android": "https://dc.lft.to/lastmile_qr_scan"}}, {"name": "a14119714a29f7690da4246430390fdd", "fusion_lat": 0.0, "type": "electric_scooter", "lat": 38.887411166666666, "is_reserved": 0, "is_disabled": 0, "fusion_lon": 0.0, "bike_id": "a14119714a29f7690da4246430390fdd", "lon": -77.02136866666666, "rental_uris": {"ios": "https://dc.lft.to/lastmile_qr_scan", "android": "https://dc.lft.to/lastmile_qr_scan"}}, {"name": "55051160c01257a99e3cac476aa29dd4", "fusion_lat": 0.0, "type": "electric_scooter", "lat": 38.939756333333335, "is_reserved": 0, "is_disabled": 0, "fusion_lon": 0.0, "bike_id": "55051160c01257a99e3cac476aa29dd4", "lon": -77.03560516666667, "rental_uris": {"ios": "https://dc.lft.to/lastmile_qr_scan", "android": "https://dc.lft.to/lastmile_qr_scan"}}, {"name": "056a659502d66a2131c9f06bc1c27702", "fusion_lat": 0.0, "type": "electric_scooter", "lat": 38.9253215, "is_reserved": 0, "is_disabled": 0, "fusion_lon": 0.0, "bike_id": "056a659502d66a2131c9f06bc1c27702", "lon": -77.05538133333333, "rental_uris": {"ios": "https://dc.lft.to/lastmile_qr_scan", "android": "https://dc.lft.to/lastmile_qr_scan"}}, {"name": "25562cceed6d02adc3d08323a952f0d5", "fusion_lat": 0.0, "type": "electric_bike", "lat": 38.84844966666667, "is_reserved": 0, "is_disabled": 0, "fusion_lon": 0.0, "bike_id": "25562cceed6d02adc3d08323a952f0d5", "lon": -77.08049683333333, "rental_uris": {"ios": "https://dc.lft.to/lastmile_qr_scan", "android": "https://dc.lft.to/lastmile_qr_scan"}}, {"name": "58f2f915457139fa305407fba2c12f67", "fusion_lat": 0.0, "type": "electric_scooter", "lat": 38.899680833333335, "is_reserved": 0, "is_disabled": 0, "fusion_lon": 0.0, "bike_id": "58f2f915457139fa305407fba2c12f67", "lon": -76.93965366666667, "rental_uris": {"ios": "https://dc.lft.to/lastmile_qr_scan", "android": "https://dc.lft.to/lastmile_qr_scan"}}, {"name": "a56c3bc17628201a0c2c8e065c08420a", "fusion_lat": 0.0, "type": "electric_scooter", "lat": 38.883729333333335, "is_reserved": 0, "is_disabled": 0, "fusion_lon": 0.0, "bike_id": "a56c3bc17628201a0c2c8e065c08420a", "lon": -77.02627266666667, "rental_uris": {"ios": "https://dc.lft.to/lastmile_qr_scan", "android": "https://dc.lft.to/lastmile_qr_scan"}}, {"name": "e5b009104da36c87ce78e4498d78da33", "fusion_lat": 0.0, "type": "electric_scooter", "lat": 38.91071933333333, "is_reserved": 0, "is_disabled": 0, "fusion_lon": 0.0, "bike_id": "e5b009104da36c87ce78e4498d78da33", "lon": -77.06714966666667, "rental_uris": {"ios": "https://dc.lft.to/lastmile_qr_scan", "android": "https://dc.lft.to/lastmile_qr_scan"}}, {"name": "dea22bfbad9494b7a9d690796b3314b6", "fusion_lat": 0.0, "type": "electric_scooter", "lat": 38.872897333333334, "is_reserved": 0, "is_disabled": 0, "fusion_lon": 0.0, "bike_id": "dea22bfbad9494b7a9d690796b3314b6", "lon": -77.00984, "rental_uris": {"ios": "https://dc.lft.to/lastmile_qr_scan", "android": "https://dc.lft.to/lastmile_qr_scan"}}, {"name": "c9c2c81bea0b44a4b7d7cb7b84915fd9", "fusion_lat": 0.0, "type": "electric_scooter", "lat": 38.98473716666667, "is_reserved": 0, "is_disabled": 0, "fusion_lon": 0.0, "bike_id": "c9c2c81bea0b44a4b7d7cb7b84915fd9", "lon": -77.0264135, "rental_uris": {"ios": "https://dc.lft.to/lastmile_qr_scan", "android": "https://dc.lft.to/lastmile_qr_scan"}}, {"name": "d5e95e5a1421c707f0da0f124b038cc7", "fusion_lat": 0.0, "type": "electric_scooter", "lat": 38.915577666666664, "is_reserved": 0, "is_disabled": 0, "fusion_lon": 0.0, "bike_id": "d5e95e5a1421c707f0da0f124b038cc7", "lon": -77.02946766666666, "rental_uris": {"ios": "https://dc.lft.to/lastmile_qr_scan", "android": "https://dc.lft.to/lastmile_qr_scan"}}, {"name": "a441abb4c48f237227d893b5949be2ac", "fusion_lat": 0.0, "type": "electric_bike", "lat": 38.8921805, "is_reserved": 0, "is_disabled": 0, "fusion_lon": 0.0, "bike_id": "a441abb4c48f237227d893b5949be2ac", "lon": -77.1078015, "rental_uris": {"ios": "https://dc.lft.to/lastmile_qr_scan", "android": "https://dc.lft.to/lastmile_qr_scan"}}, {"name": "56afff4e26015d0fe32f8d69cdc149f5", "fusion_lat": 0.0, "type": "electric_scooter", "lat": 38.942893, "is_reserved": 0, "is_disabled": 0, "fusion_lon": 0.0, "bike_id": "56afff4e26015d0fe32f8d69cdc149f5", "lon": -77.0217075, "rental_uris": {"ios": "https://dc.lft.to/lastmile_qr_scan", "android": "https://dc.lft.to/lastmile_qr_scan"}}, {"name": "21ba9f75a4ac16435bc4d9e6b2281c2f", "fusion_lat": 0.0, "type": "electric_bike", "lat": 38.952687, "is_reserved": 0, "is_disabled": 0, "fusion_lon": 0.0, "bike_id": "21ba9f75a4ac16435bc4d9e6b2281c2f", "lon": -77.06970833333334, "rental_uris": {"ios": "https://dc.lft.to/lastmile_qr_scan", "android": "https://dc.lft.to/lastmile_qr_scan"}}, {"name": "7b04d988e378cd3a9cafb33f8d42bea6", "fusion_lat": 0.0, "type": "electric_scooter", "lat": 38.90946233333333, "is_reserved": 0, "is_disabled": 0, "fusion_lon": 0.0, "bike_id": "7b04d988e378cd3a9cafb33f8d42bea6", "lon": -77.0268505, "rental_uris": {"ios": "https://dc.lft.to/lastmile_qr_scan", "android": "https://dc.lft.to/lastmile_qr_scan"}}, {"name": "6c0184a689fa215a5d0fa16f79b7b919", "fusion_lat": 0.0, "type": "electric_scooter", "lat": 38.90955833333334, "is_reserved": 0, "is_disabled": 0, "fusion_lon": 0.0, "bike_id": "6c0184a689fa215a5d0fa16f79b7b919", "lon": -77.038791, "rental_uris": {"ios": "https://dc.lft.to/lastmile_qr_scan", "android": "https://dc.lft.to/lastmile_qr_scan"}}, {"name": "44690454764c2e2c3b519496d9a03cf2", "fusion_lat": 0.0, "type": "electric_scooter", "lat": 38.866911333333334, "is_reserved": 0, "is_disabled": 0, "fusion_lon": 0.0, "bike_id": "44690454764c2e2c3b519496d9a03cf2", "lon": -76.98902583333333, "rental_uris": {"ios": "https://dc.lft.to/lastmile_qr_scan", "android": "https://dc.lft.to/lastmile_qr_scan"}}, {"name": "99953e4cc2a33b6c227c0536990e27bc", "fusion_lat": 0.0, "type": "electric_scooter", "lat": 38.92188316666667, "is_reserved": 0, "is_disabled": 0, "fusion_lon": 0.0, "bike_id": "99953e4cc2a33b6c227c0536990e27bc", "lon": -77.04007883333334, "rental_uris": {"ios": "https://dc.lft.to/lastmile_qr_scan", "android": "https://dc.lft.to/lastmile_qr_scan"}}, {"name": "61791a069da2ddb58fb6150bfa208745", "fusion_lat": 0.0, "type": "electric_scooter", "lat": 38.902882166666664, "is_reserved": 0, "is_disabled": 0, "fusion_lon": 0.0, "bike_id": "61791a069da2ddb58fb6150bfa208745", "lon": -77.03467, "rental_uris": {"ios": "https://dc.lft.to/lastmile_qr_scan", "android": "https://dc.lft.to/lastmile_qr_scan"}}, {"name": "2e77a4eeee182988b3ee19f1c9013c4a", "fusion_lat": 0.0, "type": "electric_bike", "lat": 38.933198, "is_reserved": 0, "is_disabled": 0, "fusion_lon": 0.0, "bike_id": "2e77a4eeee182988b3ee19f1c9013c4a", "lon": -77.03617233333334, "rental_uris": {"ios": "https://dc.lft.to/lastmile_qr_scan", "android": "https://dc.lft.to/lastmile_qr_scan"}}, {"name": "cc2609daee60f974394819f02c88df63", "fusion_lat": 0.0, "type": "electric_scooter", "lat": 38.891900166666666, "is_reserved": 0, "is_disabled": 0, "fusion_lon": 0.0, "bike_id": "cc2609daee60f974394819f02c88df63", "lon": -77.015801, "rental_uris": {"ios": "https://dc.lft.to/lastmile_qr_scan", "android": "https://dc.lft.to/lastmile_qr_scan"}}, {"name": "cf38f61a459c00ae424cc45330b705af", "fusion_lat": 0.0, "type": "electric_scooter", "lat": 38.92549916666667, "is_reserved": 0, "is_disabled": 0, "fusion_lon": 0.0, "bike_id": "cf38f61a459c00ae424cc45330b705af", "lon": -77.0322025, "rental_uris": {"ios": "https://dc.lft.to/lastmile_qr_scan", "android": "https://dc.lft.to/lastmile_qr_scan"}}, {"name": "b862d56b6dc4db1f08375b98f1acbca4", "fusion_lat": 0.0, "type": "electric_scooter", "lat": 38.911355, "is_reserved": 0, "is_disabled": 0, "fusion_lon": 0.0, "bike_id": "b862d56b6dc4db1f08375b98f1acbca4", "lon": -77.041934, "rental_uris": {"ios": "https://dc.lft.to/lastmile_qr_scan", "android": "https://dc.lft.to/lastmile_qr_scan"}}, {"name": "5ef9d606b664fac3eea2e1945f961f2e", "fusion_lat": 0.0, "type": "electric_scooter", "lat": 38.905756333333336, "is_reserved": 0, "is_disabled": 0, "fusion_lon": 0.0, "bike_id": "5ef9d606b664fac3eea2e1945f961f2e", "lon": -77.04870816666667, "rental_uris": {"ios": "https://dc.lft.to/lastmile_qr_scan", "android": "https://dc.lft.to/lastmile_qr_scan"}}, {"name": "0ae08dd0fe4fe4c004adb545f363ecd6", "fusion_lat": 0.0, "type": "electric_scooter", "lat": 38.861140166666665, "is_reserved": 0, "is_disabled": 0, "fusion_lon": 0.0, "bike_id": "0ae08dd0fe4fe4c004adb545f363ecd6", "lon": -76.9889665, "rental_uris": {"ios": "https://dc.lft.to/lastmile_qr_scan", "android": "https://dc.lft.to/lastmile_qr_scan"}}, {"name": "ad9baedbf69fd1ea479fa6410b9a1f18", "fusion_lat": 0.0, "type": "electric_bike", "lat": 38.906240833333335, "is_reserved": 0, "is_disabled": 0, "fusion_lon": 0.0, "bike_id": "ad9baedbf69fd1ea479fa6410b9a1f18", "lon": -76.98612583333333, "rental_uris": {"ios": "https://dc.lft.to/lastmile_qr_scan", "android": "https://dc.lft.to/lastmile_qr_scan"}}, {"name": "fef9c33ba9d92a214f5dd6dcdba644c0", "fusion_lat": 0.0, "type": "electric_scooter", "lat": 38.93870866666666, "is_reserved": 0, "is_disabled": 0, "fusion_lon": 0.0, "bike_id": "fef9c33ba9d92a214f5dd6dcdba644c0", "lon": -77.03256933333333, "rental_uris": {"ios": "https://dc.lft.to/lastmile_qr_scan", "android": "https://dc.lft.to/lastmile_qr_scan"}}, {"name": "56ca96ff8586a85a40d0fc0d725cbd07", "fusion_lat": 0.0, "type": "electric_scooter", "lat": 38.9001955, "is_reserved": 0, "is_disabled": 0, "fusion_lon": 0.0, "bike_id": "56ca96ff8586a85a40d0fc0d725cbd07", "lon": -77.02601883333334, "rental_uris": {"ios": "https://dc.lft.to/lastmile_qr_scan", "android": "https://dc.lft.to/lastmile_qr_scan"}}, {"name": "c4847f455ca92508500c7c40b8f85f09", "fusion_lat": 0.0, "type": "electric_scooter", "lat": 38.88037583333333, "is_reserved": 0, "is_disabled": 0, "fusion_lon": 0.0, "bike_id": "c4847f455ca92508500c7c40b8f85f09", "lon": -77.03079283333334, "rental_uris": {"ios": "https://dc.lft.to/lastmile_qr_scan", "android": "https://dc.lft.to/lastmile_qr_scan"}}, {"name": "772df41ca4e156ef86ec025feecafd09", "fusion_lat": 0.0, "type": "electric_bike", "lat": 38.960090666666666, "is_reserved": 0, "is_disabled": 0, "fusion_lon": 0.0, "bike_id": "772df41ca4e156ef86ec025feecafd09", "lon": -76.99869483333333, "rental_uris": {"ios": "https://dc.lft.to/lastmile_qr_scan", "android": "https://dc.lft.to/lastmile_qr_scan"}}, {"name": "aa6368ea11e5422da03a3bf905351e28", "fusion_lat": 0.0, "type": "electric_scooter", "lat": 38.91911616666667, "is_reserved": 0, "is_disabled": 0, "fusion_lon": 0.0, "bike_id": "aa6368ea11e5422da03a3bf905351e28", "lon": -77.03619866666666, "rental_uris": {"ios": "https://dc.lft.to/lastmile_qr_scan", "android": "https://dc.lft.to/lastmile_qr_scan"}}, {"name": "7e3a9009c5cb15391fb3a58a337ebcbd", "fusion_lat": 0.0, "type": "electric_scooter", "lat": 38.922349833333335, "is_reserved": 0, "is_disabled": 0, "fusion_lon": 0.0, "bike_id": "7e3a9009c5cb15391fb3a58a337ebcbd", "lon": -77.04709016666666, "rental_uris": {"ios": "https://dc.lft.to/lastmile_qr_scan", "android": "https://dc.lft.to/lastmile_qr_scan"}}, {"name": "49805af149b202c0a35f77c91ba9d267", "fusion_lat": 0.0, "type": "electric_scooter", "lat": 38.9282375, "is_reserved": 0, "is_disabled": 0, "fusion_lon": 0.0, "bike_id": "49805af149b202c0a35f77c91ba9d267", "lon": -77.02257633333333, "rental_uris": {"ios": "https://dc.lft.to/lastmile_qr_scan", "android": "https://dc.lft.to/lastmile_qr_scan"}}, {"name": "491d6ab71bb4e92347a2dd98c81a79c8", "fusion_lat": 0.0, "type": "electric_scooter", "lat": 38.9346365, "is_reserved": 0, "is_disabled": 0, "fusion_lon": 0.0, "bike_id": "491d6ab71bb4e92347a2dd98c81a79c8", "lon": -77.03532733333333, "rental_uris": {"ios": "https://dc.lft.to/lastmile_qr_scan", "android": "https://dc.lft.to/lastmile_qr_scan"}}, {"name": "f484bb312c94e2b6c5ead78fe1e07c27", "fusion_lat": 0.0, "type": "electric_scooter", "lat": 38.909741833333335, "is_reserved": 0, "is_disabled": 0, "fusion_lon": 0.0, "bike_id": "f484bb312c94e2b6c5ead78fe1e07c27", "lon": -77.04875766666666, "rental_uris": {"ios": "https://dc.lft.to/lastmile_qr_scan", "android": "https://dc.lft.to/lastmile_qr_scan"}}, {"name": "ca35538d2e99066a199a94d093b38252", "fusion_lat": 0.0, "type": "electric_scooter", "lat": 38.9622855, "is_reserved": 0, "is_disabled": 0, "fusion_lon": 0.0, "bike_id": "ca35538d2e99066a199a94d093b38252", "lon": -77.02977416666667, "rental_uris": {"ios": "https://dc.lft.to/lastmile_qr_scan", "android": "https://dc.lft.to/lastmile_qr_scan"}}, {"name": "f089e2793dc9754099adf15af8aaa373", "fusion_lat": 0.0, "type": "electric_scooter", "lat": 38.925785833333336, "is_reserved": 0, "is_disabled": 0, "fusion_lon": 0.0, "bike_id": "f089e2793dc9754099adf15af8aaa373", "lon": -76.994951, "rental_uris": {"ios": "https://dc.lft.to/lastmile_qr_scan", "android": "https://dc.lft.to/lastmile_qr_scan"}}, {"name": "b30af5a8fca99511a020548b248053e6", "fusion_lat": 0.0, "type": "electric_scooter", "lat": 38.88231366666667, "is_reserved": 0, "is_disabled": 0, "fusion_lon": 0.0, "bike_id": "b30af5a8fca99511a020548b248053e6", "lon": -77.02580983333333, "rental_uris": {"ios": "https://dc.lft.to/lastmile_qr_scan", "android": "https://dc.lft.to/lastmile_qr_scan"}}, {"name": "32786ebd2505151d4c1d03b54079c056", "fusion_lat": 0.0, "type": "electric_scooter", "lat": 38.89532583333333, "is_reserved": 0, "is_disabled": 0, "fusion_lon": 0.0, "bike_id": "32786ebd2505151d4c1d03b54079c056", "lon": -76.94923266666666, "rental_uris": {"ios": "https://dc.lft.to/lastmile_qr_scan", "android": "https://dc.lft.to/lastmile_qr_scan"}}, {"name": "c3f86867f207833af3c7b2cd05bdc3b0", "fusion_lat": 0.0, "type": "electric_scooter", "lat": 38.916779166666664, "is_reserved": 0, "is_disabled": 0, "fusion_lon": 0.0, "bike_id": "c3f86867f207833af3c7b2cd05bdc3b0", "lon": -77.029494, "rental_uris": {"ios": "https://dc.lft.to/lastmile_qr_scan", "android": "https://dc.lft.to/lastmile_qr_scan"}}, {"name": "0b3bfba43a927114ea161d5686b092a7", "fusion_lat": 0.0, "type": "electric_scooter", "lat": 38.89607733333333, "is_reserved": 0, "is_disabled": 0, "fusion_lon": 0.0, "bike_id": "0b3bfba43a927114ea161d5686b092a7", "lon": -77.02381783333334, "rental_uris": {"ios": "https://dc.lft.to/lastmile_qr_scan", "android": "https://dc.lft.to/lastmile_qr_scan"}}, {"name": "6cc9f2cd5f20aa9431a551a4e4646f1d", "fusion_lat": 0.0, "type": "electric_scooter", "lat": 38.896028333333334, "is_reserved": 0, "is_disabled": 0, "fusion_lon": 0.0, "bike_id": "6cc9f2cd5f20aa9431a551a4e4646f1d", "lon": -77.04116116666667, "rental_uris": {"ios": "https://dc.lft.to/lastmile_qr_scan", "android": "https://dc.lft.to/lastmile_qr_scan"}}, {"name": "c0e641326a879adf48d602a794482f00", "fusion_lat": 0.0, "type": "electric_scooter", "lat": 38.876487833333336, "is_reserved": 0, "is_disabled": 0, "fusion_lon": 0.0, "bike_id": "c0e641326a879adf48d602a794482f00", "lon": -76.96505283333333, "rental_uris": {"ios": "https://dc.lft.to/lastmile_qr_scan", "android": "https://dc.lft.to/lastmile_qr_scan"}}, {"name": "cbe93f3b02a63ffe77e98735b00647bd", "fusion_lat": 0.0, "type": "electric_scooter", "lat": 38.88432616666667, "is_reserved": 0, "is_disabled": 0, "fusion_lon": 0.0, "bike_id": "cbe93f3b02a63ffe77e98735b00647bd", "lon": -76.957585, "rental_uris": {"ios": "https://dc.lft.to/lastmile_qr_scan", "android": "https://dc.lft.to/lastmile_qr_scan"}}, {"name": "28af8702f757ee893d41d8df2b9a9d06", "fusion_lat": 0.0, "type": "electric_scooter", "lat": 38.91671616666667, "is_reserved": 0, "is_disabled": 0, "fusion_lon": 0.0, "bike_id": "28af8702f757ee893d41d8df2b9a9d06", "lon": -77.03165983333334, "rental_uris": {"ios": "https://dc.lft.to/lastmile_qr_scan", "android": "https://dc.lft.to/lastmile_qr_scan"}}, {"name": "0b10f6601129a8089426648e41770a88", "fusion_lat": 0.0, "type": "electric_bike", "lat": 38.89561633333334, "is_reserved": 0, "is_disabled": 0, "fusion_lon": 0.0, "bike_id": "0b10f6601129a8089426648e41770a88", "lon": -77.12734866666666, "rental_uris": {"ios": "https://dc.lft.to/lastmile_qr_scan", "android": "https://dc.lft.to/lastmile_qr_scan"}}, {"name": "17701be9b208dfebbc8e255bc868ccf9", "fusion_lat": 0.0, "type": "electric_bike", "lat": 39.105657, "is_reserved": 0, "is_disabled": 0, "fusion_lon": 0.0, "bike_id": "17701be9b208dfebbc8e255bc868ccf9", "lon": -77.152674, "rental_uris": {"ios": "https://dc.lft.to/lastmile_qr_scan", "android": "https://dc.lft.to/lastmile_qr_scan"}}, {"name": "a7dcb5dd94c84adb2b79b8467a08fc35", "fusion_lat": 0.0, "type": "electric_bike", "lat": 38.92297933333333, "is_reserved": 0, "is_disabled": 0, "fusion_lon": 0.0, "bike_id": "a7dcb5dd94c84adb2b79b8467a08fc35", "lon": -76.993821, "rental_uris": {"ios": "https://dc.lft.to/lastmile_qr_scan", "android": "https://dc.lft.to/lastmile_qr_scan"}}, {"name": "b5affdae3867131c0b325ac7042e8975", "fusion_lat": 0.0, "type": "electric_scooter", "lat": 38.90266583333333, "is_reserved": 0, "is_disabled": 0, "fusion_lon": 0.0, "bike_id": "b5affdae3867131c0b325ac7042e8975", "lon": -77.053876, "rental_uris": {"ios": "https://dc.lft.to/lastmile_qr_scan", "android": "https://dc.lft.to/lastmile_qr_scan"}}, {"name": "a94f8a52a5f46e38a21fcef8ba6ec901", "fusion_lat": 0.0, "type": "electric_scooter", "lat": 38.924674, "is_reserved": 0, "is_disabled": 0, "fusion_lon": 0.0, "bike_id": "a94f8a52a5f46e38a21fcef8ba6ec901", "lon": -77.027106, "rental_uris": {"ios": "https://dc.lft.to/lastmile_qr_scan", "android": "https://dc.lft.to/lastmile_qr_scan"}}, {"name": "a9ff2ef6d4dabd92c641dea26be2524e", "fusion_lat": 0.0, "type": "electric_scooter", "lat": 38.832316166666665, "is_reserved": 0, "is_disabled": 0, "fusion_lon": 0.0, "bike_id": "a9ff2ef6d4dabd92c641dea26be2524e", "lon": -76.98885716666666, "rental_uris": {"ios": "https://dc.lft.to/lastmile_qr_scan", "android": "https://dc.lft.to/lastmile_qr_scan"}}, {"name": "36df836c075c8df346a8072149db1dc2", "fusion_lat": 0.0, "type": "electric_bike", "lat": 38.843455166666665, "is_reserved": 0, "is_disabled": 0, "fusion_lon": 0.0, "bike_id": "36df836c075c8df346a8072149db1dc2", "lon": -77.0640025, "rental_uris": {"ios": "https://dc.lft.to/lastmile_qr_scan", "android": "https://dc.lft.to/lastmile_qr_scan"}}, {"name": "b9d6a877d275de1f819e0ffb2e6064c7", "fusion_lat": 0.0, "type": "electric_scooter", "lat": 38.8959015, "is_reserved": 0, "is_disabled": 0, "fusion_lon": 0.0, "bike_id": "b9d6a877d275de1f819e0ffb2e6064c7", "lon": -77.04268933333333, "rental_uris": {"ios": "https://dc.lft.to/lastmile_qr_scan", "android": "https://dc.lft.to/lastmile_qr_scan"}}, {"name": "c723454874ae568e6026fae3decae760", "fusion_lat": 0.0, "type": "electric_scooter", "lat": 38.92750383333333, "is_reserved": 0, "is_disabled": 0, "fusion_lon": 0.0, "bike_id": "c723454874ae568e6026fae3decae760", "lon": -77.02422516666667, "rental_uris": {"ios": "https://dc.lft.to/lastmile_qr_scan", "android": "https://dc.lft.to/lastmile_qr_scan"}}, {"name": "d1df244daaef0ebea797e65aaba7f832", "fusion_lat": 0.0, "type": "electric_scooter", "lat": 38.902621833333335, "is_reserved": 0, "is_disabled": 0, "fusion_lon": 0.0, "bike_id": "d1df244daaef0ebea797e65aaba7f832", "lon": -77.02996283333333, "rental_uris": {"ios": "https://dc.lft.to/lastmile_qr_scan", "android": "https://dc.lft.to/lastmile_qr_scan"}}, {"name": "d8b8170d0672ff5948c3264ee6fa47b8", "fusion_lat": 0.0, "type": "electric_bike", "lat": 38.975228333333334, "is_reserved": 0, "is_disabled": 0, "fusion_lon": 0.0, "bike_id": "d8b8170d0672ff5948c3264ee6fa47b8", "lon": -77.0168355, "rental_uris": {"ios": "https://dc.lft.to/lastmile_qr_scan", "android": "https://dc.lft.to/lastmile_qr_scan"}}, {"name": "b1f3505311bae2a9eb45ef850a63d140", "fusion_lat": 0.0, "type": "electric_scooter", "lat": 38.89949766666667, "is_reserved": 0, "is_disabled": 0, "fusion_lon": 0.0, "bike_id": "b1f3505311bae2a9eb45ef850a63d140", "lon": -76.99488216666667, "rental_uris": {"ios": "https://dc.lft.to/lastmile_qr_scan", "android": "https://dc.lft.to/lastmile_qr_scan"}}, {"name": "9cf5fdc69e6b51e7691c421765bb42f8", "fusion_lat": 0.0, "type": "electric_scooter", "lat": 38.897332166666665, "is_reserved": 0, "is_disabled": 0, "fusion_lon": 0.0, "bike_id": "9cf5fdc69e6b51e7691c421765bb42f8", "lon": -77.0474695, "rental_uris": {"ios": "https://dc.lft.to/lastmile_qr_scan", "android": "https://dc.lft.to/lastmile_qr_scan"}}, {"name": "a053c9d56caa6c9d8a0efec1e2ac8bcc", "fusion_lat": 0.0, "type": "electric_scooter", "lat": 38.898832666666664, "is_reserved": 0, "is_disabled": 0, "fusion_lon": 0.0, "bike_id": "a053c9d56caa6c9d8a0efec1e2ac8bcc", "lon": -76.9317455, "rental_uris": {"ios": "https://dc.lft.to/lastmile_qr_scan", "android": "https://dc.lft.to/lastmile_qr_scan"}}, {"name": "840f468be43da23e87a4ccc9072a6e5c", "fusion_lat": 0.0, "type": "electric_scooter", "lat": 38.879374166666665, "is_reserved": 0, "is_disabled": 0, "fusion_lon": 0.0, "bike_id": "840f468be43da23e87a4ccc9072a6e5c", "lon": -77.0210545, "rental_uris": {"ios": "https://dc.lft.to/lastmile_qr_scan", "android": "https://dc.lft.to/lastmile_qr_scan"}}, {"name": "d26f3e2aa37da19e1dbe8b65613b9596", "fusion_lat": 0.0, "type": "electric_scooter", "lat": 38.92492816666667, "is_reserved": 0, "is_disabled": 0, "fusion_lon": 0.0, "bike_id": "d26f3e2aa37da19e1dbe8b65613b9596", "lon": -77.05222016666667, "rental_uris": {"ios": "https://dc.lft.to/lastmile_qr_scan", "android": "https://dc.lft.to/lastmile_qr_scan"}}, {"name": "8191cd4b13e811a93afce1c783cfc66c", "fusion_lat": 0.0, "type": "electric_scooter", "lat": 38.9057075, "is_reserved": 0, "is_disabled": 0, "fusion_lon": 0.0, "bike_id": "8191cd4b13e811a93afce1c783cfc66c", "lon": -77.05706816666667, "rental_uris": {"ios": "https://dc.lft.to/lastmile_qr_scan", "android": "https://dc.lft.to/lastmile_qr_scan"}}, {"name": "ccdfc57dc0edd08b7e37a6631544c3f8", "fusion_lat": 0.0, "type": "electric_scooter", "lat": 38.933246, "is_reserved": 0, "is_disabled": 0, "fusion_lon": 0.0, "bike_id": "ccdfc57dc0edd08b7e37a6631544c3f8", "lon": -77.08189033333333, "rental_uris": {"ios": "https://dc.lft.to/lastmile_qr_scan", "android": "https://dc.lft.to/lastmile_qr_scan"}}, {"name": "0cfe8d99ae9d84716bba47a6419b9022", "fusion_lat": 0.0, "type": "electric_scooter", "lat": 38.8691625, "is_reserved": 0, "is_disabled": 0, "fusion_lon": 0.0, "bike_id": "0cfe8d99ae9d84716bba47a6419b9022", "lon": -76.974974, "rental_uris": {"ios": "https://dc.lft.to/lastmile_qr_scan", "android": "https://dc.lft.to/lastmile_qr_scan"}}, {"name": "15bc650a7f89187675ea7f16d40ffbfb", "fusion_lat": 0.0, "type": "electric_bike", "lat": 38.945846333333336, "is_reserved": 0, "is_disabled": 0, "fusion_lon": 0.0, "bike_id": "15bc650a7f89187675ea7f16d40ffbfb", "lon": -77.34402116666666, "rental_uris": {"ios": "https://dc.lft.to/lastmile_qr_scan", "android": "https://dc.lft.to/lastmile_qr_scan"}}, {"name": "2b3028ca31be78372c695a93a3afd958", "fusion_lat": 0.0, "type": "electric_scooter", "lat": 38.932467833333334, "is_reserved": 0, "is_disabled": 0, "fusion_lon": 0.0, "bike_id": "2b3028ca31be78372c695a93a3afd958", "lon": -77.02020733333333, "rental_uris": {"ios": "https://dc.lft.to/lastmile_qr_scan", "android": "https://dc.lft.to/lastmile_qr_scan"}}, {"name": "cf0817f945b521f33278df3129f788d6", "fusion_lat": 0.0, "type": "electric_scooter", "lat": 38.885969, "is_reserved": 0, "is_disabled": 0, "fusion_lon": 0.0, "bike_id": "cf0817f945b521f33278df3129f788d6", "lon": -77.02206233333334, "rental_uris": {"ios": "https://dc.lft.to/lastmile_qr_scan", "android": "https://dc.lft.to/lastmile_qr_scan"}}, {"name": "5c23834c4c2c20932634562088c63b05", "fusion_lat": 0.0, "type": "electric_scooter", "lat": 38.9345605, "is_reserved": 0, "is_disabled": 0, "fusion_lon": 0.0, "bike_id": "5c23834c4c2c20932634562088c63b05", "lon": -77.02916183333333, "rental_uris": {"ios": "https://dc.lft.to/lastmile_qr_scan", "android": "https://dc.lft.to/lastmile_qr_scan"}}, {"name": "4c4d01a28c5cfe28bdcd9787764c99c1", "fusion_lat": 0.0, "type": "electric_scooter", "lat": 38.92364333333333, "is_reserved": 0, "is_disabled": 0, "fusion_lon": 0.0, "bike_id": "4c4d01a28c5cfe28bdcd9787764c99c1", "lon": -77.05128616666667, "rental_uris": {"ios": "https://dc.lft.to/lastmile_qr_scan", "android": "https://dc.lft.to/lastmile_qr_scan"}}, {"name": "031d8ddab260cd07f6ae0b874e2a0d98", "fusion_lat": 0.0, "type": "electric_scooter", "lat": 38.9025925, "is_reserved": 0, "is_disabled": 0, "fusion_lon": 0.0, "bike_id": "031d8ddab260cd07f6ae0b874e2a0d98", "lon": -77.043654, "rental_uris": {"ios": "https://dc.lft.to/lastmile_qr_scan", "android": "https://dc.lft.to/lastmile_qr_scan"}}, {"name": "dc13d0c29a2041ede08ead7036481dd3", "fusion_lat": 0.0, "type": "electric_scooter", "lat": 38.86072333333333, "is_reserved": 0, "is_disabled": 0, "fusion_lon": 0.0, "bike_id": "dc13d0c29a2041ede08ead7036481dd3", "lon": -76.96721783333334, "rental_uris": {"ios": "https://dc.lft.to/lastmile_qr_scan", "android": "https://dc.lft.to/lastmile_qr_scan"}}, {"name": "f2ae6831cccda0020b7f7901eefdf447", "fusion_lat": 0.0, "type": "electric_scooter", "lat": 38.91405866666667, "is_reserved": 0, "is_disabled": 0, "fusion_lon": 0.0, "bike_id": "f2ae6831cccda0020b7f7901eefdf447", "lon": -77.01321033333333, "rental_uris": {"ios": "https://dc.lft.to/lastmile_qr_scan", "android": "https://dc.lft.to/lastmile_qr_scan"}}, {"name": "0d7a395da8f02c28cb9efbe9649a6d2e", "fusion_lat": 0.0, "type": "electric_scooter", "lat": 38.9220775, "is_reserved": 0, "is_disabled": 0, "fusion_lon": 0.0, "bike_id": "0d7a395da8f02c28cb9efbe9649a6d2e", "lon": -77.04322016666667, "rental_uris": {"ios": "https://dc.lft.to/lastmile_qr_scan", "android": "https://dc.lft.to/lastmile_qr_scan"}}, {"name": "e4207467f149fe97e44c7cc7505e4258", "fusion_lat": 0.0, "type": "electric_scooter", "lat": 38.9170715, "is_reserved": 0, "is_disabled": 0, "fusion_lon": 0.0, "bike_id": "e4207467f149fe97e44c7cc7505e4258", "lon": -77.03138166666666, "rental_uris": {"ios": "https://dc.lft.to/lastmile_qr_scan", "android": "https://dc.lft.to/lastmile_qr_scan"}}, {"name": "b5fa61fe108ec9a42a27135dc4196f7f", "fusion_lat": 0.0, "type": "electric_scooter", "lat": 38.919876, "is_reserved": 0, "is_disabled": 0, "fusion_lon": 0.0, "bike_id": "b5fa61fe108ec9a42a27135dc4196f7f", "lon": -77.02349833333334, "rental_uris": {"ios": "https://dc.lft.to/lastmile_qr_scan", "android": "https://dc.lft.to/lastmile_qr_scan"}}, {"name": "961be42379bc847e0a42a02f7298f524", "fusion_lat": 0.0, "type": "electric_scooter", "lat": 38.90123616666666, "is_reserved": 0, "is_disabled": 0, "fusion_lon": 0.0, "bike_id": "961be42379bc847e0a42a02f7298f524", "lon": -77.01787316666666, "rental_uris": {"ios": "https://dc.lft.to/lastmile_qr_scan", "android": "https://dc.lft.to/lastmile_qr_scan"}}, {"name": "59091cece8fce2c35a83559d9ad32edb", "fusion_lat": 0.0, "type": "electric_scooter", "lat": 38.905569, "is_reserved": 0, "is_disabled": 0, "fusion_lon": 0.0, "bike_id": "59091cece8fce2c35a83559d9ad32edb", "lon": -77.00517016666667, "rental_uris": {"ios": "https://dc.lft.to/lastmile_qr_scan", "android": "https://dc.lft.to/lastmile_qr_scan"}}, {"name": "576ad74beb875e6b243a6fcd80c91982", "fusion_lat": 0.0, "type": "electric_bike", "lat": 39.08902583333333, "is_reserved": 0, "is_disabled": 0, "fusion_lon": 0.0, "bike_id": "576ad74beb875e6b243a6fcd80c91982", "lon": -77.17849266666667, "rental_uris": {"ios": "https://dc.lft.to/lastmile_qr_scan", "android": "https://dc.lft.to/lastmile_qr_scan"}}, {"name": "828fc89749fa687d380aa83acb9b430d", "fusion_lat": 0.0, "type": "electric_bike", "lat": 38.84608983333333, "is_reserved": 0, "is_disabled": 0, "fusion_lon": 0.0, "bike_id": "828fc89749fa687d380aa83acb9b430d", "lon": -76.978252, "rental_uris": {"ios": "https://dc.lft.to/lastmile_qr_scan", "android": "https://dc.lft.to/lastmile_qr_scan"}}, {"name": "7e87f001860e9b56b7335c004e5c29f5", "fusion_lat": 0.0, "type": "electric_bike", "lat": 39.05812616666667, "is_reserved": 0, "is_disabled": 0, "fusion_lon": 0.0, "bike_id": "7e87f001860e9b56b7335c004e5c29f5", "lon": -77.12625383333334, "rental_uris": {"ios": "https://dc.lft.to/lastmile_qr_scan", "android": "https://dc.lft.to/lastmile_qr_scan"}}, {"name": "64604297676f7baaddadfcaebdc42e30", "fusion_lat": 0.0, "type": "electric_scooter", "lat": 38.91802083333333, "is_reserved": 0, "is_disabled": 0, "fusion_lon": 0.0, "bike_id": "64604297676f7baaddadfcaebdc42e30", "lon": -77.03997866666667, "rental_uris": {"ios": "https://dc.lft.to/lastmile_qr_scan", "android": "https://dc.lft.to/lastmile_qr_scan"}}, {"name": "d9d962e4f359cddaef9f3a78cb1ce768", "fusion_lat": 0.0, "type": "electric_bike", "lat": 38.95352883333334, "is_reserved": 0, "is_disabled": 0, "fusion_lon": 0.0, "bike_id": "d9d962e4f359cddaef9f3a78cb1ce768", "lon": -76.98090466666666, "rental_uris": {"ios": "https://dc.lft.to/lastmile_qr_scan", "android": "https://dc.lft.to/lastmile_qr_scan"}}, {"name": "22c509f30da91471653b201c6967472a", "fusion_lat": 0.0, "type": "electric_scooter", "lat": 38.92857983333333, "is_reserved": 0, "is_disabled": 0, "fusion_lon": 0.0, "bike_id": "22c509f30da91471653b201c6967472a", "lon": -77.01410433333334, "rental_uris": {"ios": "https://dc.lft.to/lastmile_qr_scan", "android": "https://dc.lft.to/lastmile_qr_scan"}}, {"name": "df5ac55adbdf9aee8ccd0ab0865d2d19", "fusion_lat": 0.0, "type": "electric_scooter", "lat": 38.88734933333333, "is_reserved": 0, "is_disabled": 0, "fusion_lon": 0.0, "bike_id": "df5ac55adbdf9aee8ccd0ab0865d2d19", "lon": -77.01766483333333, "rental_uris": {"ios": "https://dc.lft.to/lastmile_qr_scan", "android": "https://dc.lft.to/lastmile_qr_scan"}}, {"name": "20783d11222dfaf26f6f5153b44ac48a", "fusion_lat": 0.0, "type": "electric_scooter", "lat": 38.9193095, "is_reserved": 0, "is_disabled": 0, "fusion_lon": 0.0, "bike_id": "20783d11222dfaf26f6f5153b44ac48a", "lon": -77.0318275, "rental_uris": {"ios": "https://dc.lft.to/lastmile_qr_scan", "android": "https://dc.lft.to/lastmile_qr_scan"}}, {"name": "48884c296b969b1bd9b50501862d31fc", "fusion_lat": 0.0, "type": "electric_scooter", "lat": 38.8500435, "is_reserved": 0, "is_disabled": 0, "fusion_lon": 0.0, "bike_id": "48884c296b969b1bd9b50501862d31fc", "lon": -76.97333016666667, "rental_uris": {"ios": "https://dc.lft.to/lastmile_qr_scan", "android": "https://dc.lft.to/lastmile_qr_scan"}}, {"name": "3c68fcfac4c6822239593b12836dd648", "fusion_lat": 0.0, "type": "electric_scooter", "lat": 38.911403166666666, "is_reserved": 0, "is_disabled": 0, "fusion_lon": 0.0, "bike_id": "3c68fcfac4c6822239593b12836dd648", "lon": -77.0198375, "rental_uris": {"ios": "https://dc.lft.to/lastmile_qr_scan", "android": "https://dc.lft.to/lastmile_qr_scan"}}, {"name": "0feb50cbcbfaae0deb790bf3c35459e5", "fusion_lat": 0.0, "type": "electric_bike", "lat": 38.86903366666667, "is_reserved": 0, "is_disabled": 0, "fusion_lon": 0.0, "bike_id": "0feb50cbcbfaae0deb790bf3c35459e5", "lon": -77.13175066666666, "rental_uris": {"ios": "https://dc.lft.to/lastmile_qr_scan", "android": "https://dc.lft.to/lastmile_qr_scan"}}, {"name": "da33945deeb6a397c6b97c5840049f67", "fusion_lat": 0.0, "type": "electric_scooter", "lat": 38.941154833333336, "is_reserved": 0, "is_disabled": 0, "fusion_lon": 0.0, "bike_id": "da33945deeb6a397c6b97c5840049f67", "lon": -77.01788633333334, "rental_uris": {"ios": "https://dc.lft.to/lastmile_qr_scan", "android": "https://dc.lft.to/lastmile_qr_scan"}}, {"name": "74d3d020a87c0fe5e2baf9239b28d17b", "fusion_lat": 0.0, "type": "electric_scooter", "lat": 38.91198216666667, "is_reserved": 0, "is_disabled": 0, "fusion_lon": 0.0, "bike_id": "74d3d020a87c0fe5e2baf9239b28d17b", "lon": -77.03177066666667, "rental_uris": {"ios": "https://dc.lft.to/lastmile_qr_scan", "android": "https://dc.lft.to/lastmile_qr_scan"}}, {"name": "db73c9b6cdc9dfc97aae2366206be6b9", "fusion_lat": 0.0, "type": "electric_bike", "lat": 38.9245015, "is_reserved": 0, "is_disabled": 0, "fusion_lon": 0.0, "bike_id": "db73c9b6cdc9dfc97aae2366206be6b9", "lon": -76.99044916666666, "rental_uris": {"ios": "https://dc.lft.to/lastmile_qr_scan", "android": "https://dc.lft.to/lastmile_qr_scan"}}, {"name": "45f9c1f49c3845c9b8e10f48e52dd0b0", "fusion_lat": 0.0, "type": "electric_scooter", "lat": 38.9005195, "is_reserved": 0, "is_disabled": 0, "fusion_lon": 0.0, "bike_id": "45f9c1f49c3845c9b8e10f48e52dd0b0", "lon": -77.02958933333333, "rental_uris": {"ios": "https://dc.lft.to/lastmile_qr_scan", "android": "https://dc.lft.to/lastmile_qr_scan"}}, {"name": "dfa1a789247f0f2277cbe2d8c9e2d096", "fusion_lat": 0.0, "type": "electric_scooter", "lat": 38.916911666666664, "is_reserved": 0, "is_disabled": 0, "fusion_lon": 0.0, "bike_id": "dfa1a789247f0f2277cbe2d8c9e2d096", "lon": -77.03144316666666, "rental_uris": {"ios": "https://dc.lft.to/lastmile_qr_scan", "android": "https://dc.lft.to/lastmile_qr_scan"}}, {"name": "38b92c11c3f1d5e91059f4a643801b38", "fusion_lat": 0.0, "type": "electric_scooter", "lat": 38.9096945, "is_reserved": 0, "is_disabled": 0, "fusion_lon": 0.0, "bike_id": "38b92c11c3f1d5e91059f4a643801b38", "lon": -77.02176883333334, "rental_uris": {"ios": "https://dc.lft.to/lastmile_qr_scan", "android": "https://dc.lft.to/lastmile_qr_scan"}}, {"name": "aba0e6a1d26830b6037cca4f407121f4", "fusion_lat": 0.0, "type": "electric_bike", "lat": 38.91923416666667, "is_reserved": 0, "is_disabled": 0, "fusion_lon": 0.0, "bike_id": "aba0e6a1d26830b6037cca4f407121f4", "lon": -77.04591516666666, "rental_uris": {"ios": "https://dc.lft.to/lastmile_qr_scan", "android": "https://dc.lft.to/lastmile_qr_scan"}}, {"name": "d4f64bebc9f076074f3239f0c5cf5a7d", "fusion_lat": 0.0, "type": "electric_scooter", "lat": 38.893642166666666, "is_reserved": 0, "is_disabled": 0, "fusion_lon": 0.0, "bike_id": "d4f64bebc9f076074f3239f0c5cf5a7d", "lon": -76.94984433333333, "rental_uris": {"ios": "https://dc.lft.to/lastmile_qr_scan", "android": "https://dc.lft.to/lastmile_qr_scan"}}, {"name": "440046422dc44d47bd4bdaab719206e5", "fusion_lat": 0.0, "type": "electric_scooter", "lat": 38.910545, "is_reserved": 0, "is_disabled": 0, "fusion_lon": 0.0, "bike_id": "440046422dc44d47bd4bdaab719206e5", "lon": -77.0426595, "rental_uris": {"ios": "https://dc.lft.to/lastmile_qr_scan", "android": "https://dc.lft.to/lastmile_qr_scan"}}, {"name": "2cd5fdec53173f20332a0771fc1369e6", "fusion_lat": 0.0, "type": "electric_scooter", "lat": 38.9006235, "is_reserved": 0, "is_disabled": 0, "fusion_lon": 0.0, "bike_id": "2cd5fdec53173f20332a0771fc1369e6", "lon": -77.03348683333333, "rental_uris": {"ios": "https://dc.lft.to/lastmile_qr_scan", "android": "https://dc.lft.to/lastmile_qr_scan"}}, {"name": "a6ac46d5f22cbd60192ab2fc15d1313f", "fusion_lat": 0.0, "type": "electric_scooter", "lat": 38.918140666666666, "is_reserved": 0, "is_disabled": 0, "fusion_lon": 0.0, "bike_id": "a6ac46d5f22cbd60192ab2fc15d1313f", "lon": -77.027977, "rental_uris": {"ios": "https://dc.lft.to/lastmile_qr_scan", "android": "https://dc.lft.to/lastmile_qr_scan"}}, {"name": "e893cbe4909c1bd3981d18da90b41831", "fusion_lat": 0.0, "type": "electric_scooter", "lat": 38.90697466666667, "is_reserved": 0, "is_disabled": 0, "fusion_lon": 0.0, "bike_id": "e893cbe4909c1bd3981d18da90b41831", "lon": -77.0238505, "rental_uris": {"ios": "https://dc.lft.to/lastmile_qr_scan", "android": "https://dc.lft.to/lastmile_qr_scan"}}, {"name": "5c503576c28e502dda95878788dc2e7f", "fusion_lat": 0.0, "type": "electric_bike", "lat": 38.83437716666667, "is_reserved": 0, "is_disabled": 0, "fusion_lon": 0.0, "bike_id": "5c503576c28e502dda95878788dc2e7f", "lon": -77.00825883333333, "rental_uris": {"ios": "https://dc.lft.to/lastmile_qr_scan", "android": "https://dc.lft.to/lastmile_qr_scan"}}, {"name": "ba9fab30136d0017729d97e28006b3e1", "fusion_lat": 0.0, "type": "electric_scooter", "lat": 38.917071, "is_reserved": 0, "is_disabled": 0, "fusion_lon": 0.0, "bike_id": "ba9fab30136d0017729d97e28006b3e1", "lon": -77.03215433333334, "rental_uris": {"ios": "https://dc.lft.to/lastmile_qr_scan", "android": "https://dc.lft.to/lastmile_qr_scan"}}, {"name": "4a977cef54a1c8c1ef596c3d592f8188", "fusion_lat": 0.0, "type": "electric_scooter", "lat": 38.931487, "is_reserved": 0, "is_disabled": 0, "fusion_lon": 0.0, "bike_id": "4a977cef54a1c8c1ef596c3d592f8188", "lon": -77.02966166666667, "rental_uris": {"ios": "https://dc.lft.to/lastmile_qr_scan", "android": "https://dc.lft.to/lastmile_qr_scan"}}, {"name": "d19b44a980cb3dc9b7ea39e683e4ea7c", "fusion_lat": 0.0, "type": "electric_scooter", "lat": 38.9020935, "is_reserved": 0, "is_disabled": 0, "fusion_lon": 0.0, "bike_id": "d19b44a980cb3dc9b7ea39e683e4ea7c", "lon": -77.05116183333334, "rental_uris": {"ios": "https://dc.lft.to/lastmile_qr_scan", "android": "https://dc.lft.to/lastmile_qr_scan"}}, {"name": "4d61bced4b84a547915cd3ea777c92e6", "fusion_lat": 0.0, "type": "electric_scooter", "lat": 38.904263666666665, "is_reserved": 0, "is_disabled": 0, "fusion_lon": 0.0, "bike_id": "4d61bced4b84a547915cd3ea777c92e6", "lon": -77.028703, "rental_uris": {"ios": "https://dc.lft.to/lastmile_qr_scan", "android": "https://dc.lft.to/lastmile_qr_scan"}}, {"name": "72dd33160af392cc3896e6a3f1cc7853", "fusion_lat": 0.0, "type": "electric_bike", "lat": 38.994528833333334, "is_reserved": 0, "is_disabled": 0, "fusion_lon": 0.0, "bike_id": "72dd33160af392cc3896e6a3f1cc7853", "lon": -76.9081495, "rental_uris": {"ios": "https://dc.lft.to/lastmile_qr_scan", "android": "https://dc.lft.to/lastmile_qr_scan"}}, {"name": "232c2884724202135f3f17ca545ed9a0", "fusion_lat": 0.0, "type": "electric_scooter", "lat": 38.92415183333333, "is_reserved": 0, "is_disabled": 0, "fusion_lon": 0.0, "bike_id": "232c2884724202135f3f17ca545ed9a0", "lon": -77.02273916666667, "rental_uris": {"ios": "https://dc.lft.to/lastmile_qr_scan", "android": "https://dc.lft.to/lastmile_qr_scan"}}, {"name": "893de915ef2e100ff737ccefa1aadc95", "fusion_lat": 0.0, "type": "electric_scooter", "lat": 38.9051335, "is_reserved": 0, "is_disabled": 0, "fusion_lon": 0.0, "bike_id": "893de915ef2e100ff737ccefa1aadc95", "lon": -77.05146533333334, "rental_uris": {"ios": "https://dc.lft.to/lastmile_qr_scan", "android": "https://dc.lft.to/lastmile_qr_scan"}}, {"name": "14d00ebf6a393d9ff5f87bea1fe09b14", "fusion_lat": 0.0, "type": "electric_scooter", "lat": 38.90498866666667, "is_reserved": 0, "is_disabled": 0, "fusion_lon": 0.0, "bike_id": "14d00ebf6a393d9ff5f87bea1fe09b14", "lon": -77.02760083333334, "rental_uris": {"ios": "https://dc.lft.to/lastmile_qr_scan", "android": "https://dc.lft.to/lastmile_qr_scan"}}, {"name": "454bed05683a9eca1367f81254b08dd5", "fusion_lat": 0.0, "type": "electric_scooter", "lat": 38.90039383333333, "is_reserved": 0, "is_disabled": 0, "fusion_lon": 0.0, "bike_id": "454bed05683a9eca1367f81254b08dd5", "lon": -77.00182733333334, "rental_uris": {"ios": "https://dc.lft.to/lastmile_qr_scan", "android": "https://dc.lft.to/lastmile_qr_scan"}}, {"name": "e4e12f999818b920c855a164f9ee549d", "fusion_lat": 0.0, "type": "electric_scooter", "lat": 38.925694166666666, "is_reserved": 0, "is_disabled": 0, "fusion_lon": 0.0, "bike_id": "e4e12f999818b920c855a164f9ee549d", "lon": -77.03763033333334, "rental_uris": {"ios": "https://dc.lft.to/lastmile_qr_scan", "android": "https://dc.lft.to/lastmile_qr_scan"}}, {"name": "6abfe18f8a9d5e58490bd50071d0d53e", "fusion_lat": 0.0, "type": "electric_scooter", "lat": 38.90867466666667, "is_reserved": 0, "is_disabled": 0, "fusion_lon": 0.0, "bike_id": "6abfe18f8a9d5e58490bd50071d0d53e", "lon": -76.99958766666667, "rental_uris": {"ios": "https://dc.lft.to/lastmile_qr_scan", "android": "https://dc.lft.to/lastmile_qr_scan"}}, {"name": "57c8d65fe596ffbaf21f507b1ba2eeda", "fusion_lat": 0.0, "type": "electric_scooter", "lat": 38.90679, "is_reserved": 0, "is_disabled": 0, "fusion_lon": 0.0, "bike_id": "57c8d65fe596ffbaf21f507b1ba2eeda", "lon": -77.03641616666667, "rental_uris": {"ios": "https://dc.lft.to/lastmile_qr_scan", "android": "https://dc.lft.to/lastmile_qr_scan"}}, {"name": "4fc19e4ee5b1cab1496d2fae4941cea1", "fusion_lat": 0.0, "type": "electric_scooter", "lat": 38.922491, "is_reserved": 0, "is_disabled": 0, "fusion_lon": 0.0, "bike_id": "4fc19e4ee5b1cab1496d2fae4941cea1", "lon": -77.07238166666667, "rental_uris": {"ios": "https://dc.lft.to/lastmile_qr_scan", "android": "https://dc.lft.to/lastmile_qr_scan"}}, {"name": "49e28c25fc9ee9f8bac0330fdccee571", "fusion_lat": 0.0, "type": "electric_scooter", "lat": 38.838373, "is_reserved": 0, "is_disabled": 0, "fusion_lon": 0.0, "bike_id": "49e28c25fc9ee9f8bac0330fdccee571", "lon": -76.99978916666667, "rental_uris": {"ios": "https://dc.lft.to/lastmile_qr_scan", "android": "https://dc.lft.to/lastmile_qr_scan"}}, {"name": "e2cad5294248612503aed16db9ce571f", "fusion_lat": 0.0, "type": "electric_scooter", "lat": 38.90123966666667, "is_reserved": 0, "is_disabled": 0, "fusion_lon": 0.0, "bike_id": "e2cad5294248612503aed16db9ce571f", "lon": -77.05140283333333, "rental_uris": {"ios": "https://dc.lft.to/lastmile_qr_scan", "android": "https://dc.lft.to/lastmile_qr_scan"}}, {"name": "1e117e919a5b4d30dc33b7e3e48fe0a6", "fusion_lat": 0.0, "type": "electric_bike", "lat": 38.999999833333334, "is_reserved": 0, "is_disabled": 0, "fusion_lon": 0.0, "bike_id": "1e117e919a5b4d30dc33b7e3e48fe0a6", "lon": -76.99498533333333, "rental_uris": {"ios": "https://dc.lft.to/lastmile_qr_scan", "android": "https://dc.lft.to/lastmile_qr_scan"}}, {"name": "56e57e805241f14b30ff59635fab2035", "fusion_lat": 0.0, "type": "electric_scooter", "lat": 38.95485633333333, "is_reserved": 0, "is_disabled": 0, "fusion_lon": 0.0, "bike_id": "56e57e805241f14b30ff59635fab2035", "lon": -77.069841, "rental_uris": {"ios": "https://dc.lft.to/lastmile_qr_scan", "android": "https://dc.lft.to/lastmile_qr_scan"}}, {"name": "f27dbfcd528a40a6d6c44c6222b3c4ad", "fusion_lat": 0.0, "type": "electric_scooter", "lat": 38.90238216666667, "is_reserved": 0, "is_disabled": 0, "fusion_lon": 0.0, "bike_id": "f27dbfcd528a40a6d6c44c6222b3c4ad", "lon": -77.00198933333333, "rental_uris": {"ios": "https://dc.lft.to/lastmile_qr_scan", "android": "https://dc.lft.to/lastmile_qr_scan"}}, {"name": "dd0660d182a11035e940e995d95ec62e", "fusion_lat": 0.0, "type": "electric_scooter", "lat": 38.918372166666664, "is_reserved": 0, "is_disabled": 0, "fusion_lon": 0.0, "bike_id": "dd0660d182a11035e940e995d95ec62e", "lon": -77.023041, "rental_uris": {"ios": "https://dc.lft.to/lastmile_qr_scan", "android": "https://dc.lft.to/lastmile_qr_scan"}}, {"name": "8105f1b8e8af1a8a91d23ba42c025656", "fusion_lat": 0.0, "type": "electric_scooter", "lat": 38.87866416666667, "is_reserved": 0, "is_disabled": 0, "fusion_lon": 0.0, "bike_id": "8105f1b8e8af1a8a91d23ba42c025656", "lon": -76.96522783333333, "rental_uris": {"ios": "https://dc.lft.to/lastmile_qr_scan", "android": "https://dc.lft.to/lastmile_qr_scan"}}, {"name": "0c961215f1910defe844e0a9eb9c8cf9", "fusion_lat": 0.0, "type": "electric_scooter", "lat": 38.90026966666667, "is_reserved": 0, "is_disabled": 0, "fusion_lon": 0.0, "bike_id": "0c961215f1910defe844e0a9eb9c8cf9", "lon": -77.0465755, "rental_uris": {"ios": "https://dc.lft.to/lastmile_qr_scan", "android": "https://dc.lft.to/lastmile_qr_scan"}}, {"name": "b055dec15bd1903b2b9f99d2b41319d9", "fusion_lat": 0.0, "type": "electric_scooter", "lat": 38.90040416666667, "is_reserved": 0, "is_disabled": 0, "fusion_lon": 0.0, "bike_id": "b055dec15bd1903b2b9f99d2b41319d9", "lon": -76.99652433333333, "rental_uris": {"ios": "https://dc.lft.to/lastmile_qr_scan", "android": "https://dc.lft.to/lastmile_qr_scan"}}, {"name": "9fcbbd7f68cceadc9078ed97728e60bf", "fusion_lat": 0.0, "type": "electric_scooter", "lat": 38.918054833333336, "is_reserved": 0, "is_disabled": 0, "fusion_lon": 0.0, "bike_id": "9fcbbd7f68cceadc9078ed97728e60bf", "lon": -77.02492116666667, "rental_uris": {"ios": "https://dc.lft.to/lastmile_qr_scan", "android": "https://dc.lft.to/lastmile_qr_scan"}}, {"name": "cec952c42c8e5a34691d4dcb921da125", "fusion_lat": 0.0, "type": "electric_scooter", "lat": 38.89798733333333, "is_reserved": 0, "is_disabled": 0, "fusion_lon": 0.0, "bike_id": "cec952c42c8e5a34691d4dcb921da125", "lon": -76.99164183333333, "rental_uris": {"ios": "https://dc.lft.to/lastmile_qr_scan", "android": "https://dc.lft.to/lastmile_qr_scan"}}, {"name": "56be3d4cab9ac4c7d590ddce39509f9e", "fusion_lat": 0.0, "type": "electric_scooter", "lat": 38.91124716666667, "is_reserved": 0, "is_disabled": 0, "fusion_lon": 0.0, "bike_id": "56be3d4cab9ac4c7d590ddce39509f9e", "lon": -77.021961, "rental_uris": {"ios": "https://dc.lft.to/lastmile_qr_scan", "android": "https://dc.lft.to/lastmile_qr_scan"}}, {"name": "b6bf6ec00d445fecd6740d3d8c931e75", "fusion_lat": 0.0, "type": "electric_scooter", "lat": 38.90715, "is_reserved": 0, "is_disabled": 0, "fusion_lon": 0.0, "bike_id": "b6bf6ec00d445fecd6740d3d8c931e75", "lon": -77.00763166666667, "rental_uris": {"ios": "https://dc.lft.to/lastmile_qr_scan", "android": "https://dc.lft.to/lastmile_qr_scan"}}, {"name": "e9d8da5444b65b46247c183388180455", "fusion_lat": 0.0, "type": "electric_scooter", "lat": 38.90961, "is_reserved": 0, "is_disabled": 0, "fusion_lon": 0.0, "bike_id": "e9d8da5444b65b46247c183388180455", "lon": -77.02744983333334, "rental_uris": {"ios": "https://dc.lft.to/lastmile_qr_scan", "android": "https://dc.lft.to/lastmile_qr_scan"}}, {"name": "3d6d682e1741db7f9008d85c8676cd7b", "fusion_lat": 0.0, "type": "electric_scooter", "lat": 38.90201366666667, "is_reserved": 0, "is_disabled": 0, "fusion_lon": 0.0, "bike_id": "3d6d682e1741db7f9008d85c8676cd7b", "lon": -77.021742, "rental_uris": {"ios": "https://dc.lft.to/lastmile_qr_scan", "android": "https://dc.lft.to/lastmile_qr_scan"}}, {"name": "3a614bea6191bcc3f223c18f296278a4", "fusion_lat": 0.0, "type": "electric_scooter", "lat": 38.87660866666667, "is_reserved": 0, "is_disabled": 0, "fusion_lon": 0.0, "bike_id": "3a614bea6191bcc3f223c18f296278a4", "lon": -77.008101, "rental_uris": {"ios": "https://dc.lft.to/lastmile_qr_scan", "android": "https://dc.lft.to/lastmile_qr_scan"}}, {"name": "e7da989cbba06af12ad2f89f0798896b", "fusion_lat": 0.0, "type": "electric_scooter", "lat": 38.883824, "is_reserved": 0, "is_disabled": 0, "fusion_lon": 0.0, "bike_id": "e7da989cbba06af12ad2f89f0798896b", "lon": -77.01945466666666, "rental_uris": {"ios": "https://dc.lft.to/lastmile_qr_scan", "android": "https://dc.lft.to/lastmile_qr_scan"}}, {"name": "272c563181522549a491e70ec5a13105", "fusion_lat": 0.0, "type": "electric_scooter", "lat": 38.92509066666667, "is_reserved": 0, "is_disabled": 0, "fusion_lon": 0.0, "bike_id": "272c563181522549a491e70ec5a13105", "lon": -77.02167366666667, "rental_uris": {"ios": "https://dc.lft.to/lastmile_qr_scan", "android": "https://dc.lft.to/lastmile_qr_scan"}}, {"name": "7695cfca8d740c55678d339350b86ec2", "fusion_lat": 0.0, "type": "electric_scooter", "lat": 38.899686333333335, "is_reserved": 0, "is_disabled": 0, "fusion_lon": 0.0, "bike_id": "7695cfca8d740c55678d339350b86ec2", "lon": -77.05703483333333, "rental_uris": {"ios": "https://dc.lft.to/lastmile_qr_scan", "android": "https://dc.lft.to/lastmile_qr_scan"}}, {"name": "92068726c210e3a3708197ac9f9554eb", "fusion_lat": 0.0, "type": "electric_scooter", "lat": 38.91802033333333, "is_reserved": 0, "is_disabled": 0, "fusion_lon": 0.0, "bike_id": "92068726c210e3a3708197ac9f9554eb", "lon": -77.03441883333333, "rental_uris": {"ios": "https://dc.lft.to/lastmile_qr_scan", "android": "https://dc.lft.to/lastmile_qr_scan"}}, {"name": "baebbb6dec790b77a509ca626dd9e871", "fusion_lat": 0.0, "type": "electric_scooter", "lat": 38.876438, "is_reserved": 0, "is_disabled": 0, "fusion_lon": 0.0, "bike_id": "baebbb6dec790b77a509ca626dd9e871", "lon": -77.00736883333333, "rental_uris": {"ios": "https://dc.lft.to/lastmile_qr_scan", "android": "https://dc.lft.to/lastmile_qr_scan"}}, {"name": "a76412e123fa421f41e3e0e19989c202", "fusion_lat": 0.0, "type": "electric_scooter", "lat": 38.896023, "is_reserved": 0, "is_disabled": 0, "fusion_lon": 0.0, "bike_id": "a76412e123fa421f41e3e0e19989c202", "lon": -77.04754783333334, "rental_uris": {"ios": "https://dc.lft.to/lastmile_qr_scan", "android": "https://dc.lft.to/lastmile_qr_scan"}}, {"name": "fd976be52be3844acdf17ca6ce27a6b6", "fusion_lat": 0.0, "type": "electric_scooter", "lat": 38.918052, "is_reserved": 0, "is_disabled": 0, "fusion_lon": 0.0, "bike_id": "fd976be52be3844acdf17ca6ce27a6b6", "lon": -77.039977, "rental_uris": {"ios": "https://dc.lft.to/lastmile_qr_scan", "android": "https://dc.lft.to/lastmile_qr_scan"}}, {"name": "776ebba91cc8ed6070421e969dc3fcbb", "fusion_lat": 0.0, "type": "electric_bike", "lat": 38.82875666666666, "is_reserved": 0, "is_disabled": 0, "fusion_lon": 0.0, "bike_id": "776ebba91cc8ed6070421e969dc3fcbb", "lon": -77.112215, "rental_uris": {"ios": "https://dc.lft.to/lastmile_qr_scan", "android": "https://dc.lft.to/lastmile_qr_scan"}}, {"name": "c05b222b54a62c2f8d3884c677c50852", "fusion_lat": 0.0, "type": "electric_bike", "lat": 38.990917333333336, "is_reserved": 0, "is_disabled": 0, "fusion_lon": 0.0, "bike_id": "c05b222b54a62c2f8d3884c677c50852", "lon": -76.87494583333333, "rental_uris": {"ios": "https://dc.lft.to/lastmile_qr_scan", "android": "https://dc.lft.to/lastmile_qr_scan"}}, {"name": "ab9500f5b72f5bb7eb0d489bf7b9ac17", "fusion_lat": 0.0, "type": "electric_scooter", "lat": 38.916486666666664, "is_reserved": 0, "is_disabled": 0, "fusion_lon": 0.0, "bike_id": "ab9500f5b72f5bb7eb0d489bf7b9ac17", "lon": -77.01593183333334, "rental_uris": {"ios": "https://dc.lft.to/lastmile_qr_scan", "android": "https://dc.lft.to/lastmile_qr_scan"}}, {"name": "2c38ce0fc1f0c5c84d5bad91d2abf307", "fusion_lat": 0.0, "type": "electric_scooter", "lat": 38.906454833333335, "is_reserved": 0, "is_disabled": 0, "fusion_lon": 0.0, "bike_id": "2c38ce0fc1f0c5c84d5bad91d2abf307", "lon": -77.02960016666667, "rental_uris": {"ios": "https://dc.lft.to/lastmile_qr_scan", "android": "https://dc.lft.to/lastmile_qr_scan"}}, {"name": "4dcc7f9b134de8ab4feafd4c906b5734", "fusion_lat": 0.0, "type": "electric_scooter", "lat": 38.9309395, "is_reserved": 0, "is_disabled": 0, "fusion_lon": 0.0, "bike_id": "4dcc7f9b134de8ab4feafd4c906b5734", "lon": -77.024056, "rental_uris": {"ios": "https://dc.lft.to/lastmile_qr_scan", "android": "https://dc.lft.to/lastmile_qr_scan"}}, {"name": "ba4be11e435901bb2a9ca665b03dbe7b", "fusion_lat": 0.0, "type": "electric_scooter", "lat": 38.90957433333333, "is_reserved": 0, "is_disabled": 0, "fusion_lon": 0.0, "bike_id": "ba4be11e435901bb2a9ca665b03dbe7b", "lon": -77.02379966666666, "rental_uris": {"ios": "https://dc.lft.to/lastmile_qr_scan", "android": "https://dc.lft.to/lastmile_qr_scan"}}, {"name": "a1d9313b714084a07ebc9ad94bf51c99", "fusion_lat": 0.0, "type": "electric_scooter", "lat": 38.89849483333333, "is_reserved": 0, "is_disabled": 0, "fusion_lon": 0.0, "bike_id": "a1d9313b714084a07ebc9ad94bf51c99", "lon": -77.0331865, "rental_uris": {"ios": "https://dc.lft.to/lastmile_qr_scan", "android": "https://dc.lft.to/lastmile_qr_scan"}}, {"name": "fc3e61a5df1c542dfcf141c4d829ea8b", "fusion_lat": 0.0, "type": "electric_scooter", "lat": 38.901263666666665, "is_reserved": 0, "is_disabled": 0, "fusion_lon": 0.0, "bike_id": "fc3e61a5df1c542dfcf141c4d829ea8b", "lon": -76.99181566666667, "rental_uris": {"ios": "https://dc.lft.to/lastmile_qr_scan", "android": "https://dc.lft.to/lastmile_qr_scan"}}, {"name": "c8e5d4eec46f691e6f21e052576f378c", "fusion_lat": 0.0, "type": "electric_scooter", "lat": 38.900777833333336, "is_reserved": 0, "is_disabled": 0, "fusion_lon": 0.0, "bike_id": "c8e5d4eec46f691e6f21e052576f378c", "lon": -77.05064033333333, "rental_uris": {"ios": "https://dc.lft.to/lastmile_qr_scan", "android": "https://dc.lft.to/lastmile_qr_scan"}}, {"name": "dfe3ab54c94b9e99f49034a7006978aa", "fusion_lat": 0.0, "type": "electric_scooter", "lat": 38.91562416666667, "is_reserved": 0, "is_disabled": 0, "fusion_lon": 0.0, "bike_id": "dfe3ab54c94b9e99f49034a7006978aa", "lon": -77.01415416666667, "rental_uris": {"ios": "https://dc.lft.to/lastmile_qr_scan", "android": "https://dc.lft.to/lastmile_qr_scan"}}, {"name": "8bb92c23b495671f0dcbe7910425dded", "fusion_lat": 0.0, "type": "electric_scooter", "lat": 38.895169, "is_reserved": 0, "is_disabled": 0, "fusion_lon": 0.0, "bike_id": "8bb92c23b495671f0dcbe7910425dded", "lon": -77.0236565, "rental_uris": {"ios": "https://dc.lft.to/lastmile_qr_scan", "android": "https://dc.lft.to/lastmile_qr_scan"}}, {"name": "75ea90715504b2c8f929a62334a107e3", "fusion_lat": 0.0, "type": "electric_bike", "lat": 38.8628285, "is_reserved": 0, "is_disabled": 0, "fusion_lon": 0.0, "bike_id": "75ea90715504b2c8f929a62334a107e3", "lon": -76.9800125, "rental_uris": {"ios": "https://dc.lft.to/lastmile_qr_scan", "android": "https://dc.lft.to/lastmile_qr_scan"}}, {"name": "5203c782520fe042c2327c418155b31c", "fusion_lat": 0.0, "type": "electric_bike", "lat": 38.927625, "is_reserved": 0, "is_disabled": 0, "fusion_lon": 0.0, "bike_id": "5203c782520fe042c2327c418155b31c", "lon": -77.03237616666667, "rental_uris": {"ios": "https://dc.lft.to/lastmile_qr_scan", "android": "https://dc.lft.to/lastmile_qr_scan"}}, {"name": "d9ac39329ce5185aa023f2c439961ed7", "fusion_lat": 0.0, "type": "electric_scooter", "lat": 38.901387166666666, "is_reserved": 0, "is_disabled": 0, "fusion_lon": 0.0, "bike_id": "d9ac39329ce5185aa023f2c439961ed7", "lon": -77.03945866666666, "rental_uris": {"ios": "https://dc.lft.to/lastmile_qr_scan", "android": "https://dc.lft.to/lastmile_qr_scan"}}, {"name": "303ffb01b45f70d6060e2115543dcd2c", "fusion_lat": 0.0, "type": "electric_scooter", "lat": 38.921824, "is_reserved": 0, "is_disabled": 0, "fusion_lon": 0.0, "bike_id": "303ffb01b45f70d6060e2115543dcd2c", "lon": -77.026652, "rental_uris": {"ios": "https://dc.lft.to/lastmile_qr_scan", "android": "https://dc.lft.to/lastmile_qr_scan"}}, {"name": "11e718b3ee64bd6723d89a5136438cdf", "fusion_lat": 0.0, "type": "electric_scooter", "lat": 38.91743, "is_reserved": 0, "is_disabled": 0, "fusion_lon": 0.0, "bike_id": "11e718b3ee64bd6723d89a5136438cdf", "lon": -77.03642383333333, "rental_uris": {"ios": "https://dc.lft.to/lastmile_qr_scan", "android": "https://dc.lft.to/lastmile_qr_scan"}}, {"name": "fcf38f66c9539fb1595b9d255bf0a931", "fusion_lat": 0.0, "type": "electric_scooter", "lat": 38.91407816666667, "is_reserved": 0, "is_disabled": 0, "fusion_lon": 0.0, "bike_id": "fcf38f66c9539fb1595b9d255bf0a931", "lon": -77.0080805, "rental_uris": {"ios": "https://dc.lft.to/lastmile_qr_scan", "android": "https://dc.lft.to/lastmile_qr_scan"}}, {"name": "eabd5c71002b08910b83121eaa845747", "fusion_lat": 0.0, "type": "electric_scooter", "lat": 38.913355, "is_reserved": 0, "is_disabled": 0, "fusion_lon": 0.0, "bike_id": "eabd5c71002b08910b83121eaa845747", "lon": -77.002273, "rental_uris": {"ios": "https://dc.lft.to/lastmile_qr_scan", "android": "https://dc.lft.to/lastmile_qr_scan"}}, {"name": "d78d451e1eefd8874659763833466431", "fusion_lat": 0.0, "type": "electric_scooter", "lat": 38.87653483333333, "is_reserved": 0, "is_disabled": 0, "fusion_lon": 0.0, "bike_id": "d78d451e1eefd8874659763833466431", "lon": -77.0084285, "rental_uris": {"ios": "https://dc.lft.to/lastmile_qr_scan", "android": "https://dc.lft.to/lastmile_qr_scan"}}, {"name": "84a5dac4801ebe3d8147bf20de20ddad", "fusion_lat": 0.0, "type": "electric_scooter", "lat": 38.961790666666666, "is_reserved": 0, "is_disabled": 0, "fusion_lon": 0.0, "bike_id": "84a5dac4801ebe3d8147bf20de20ddad", "lon": -77.03230866666667, "rental_uris": {"ios": "https://dc.lft.to/lastmile_qr_scan", "android": "https://dc.lft.to/lastmile_qr_scan"}}, {"name": "922cf4f05935b67f64c1335922235b3d", "fusion_lat": 0.0, "type": "electric_bike", "lat": 38.861604166666666, "is_reserved": 0, "is_disabled": 0, "fusion_lon": 0.0, "bike_id": "922cf4f05935b67f64c1335922235b3d", "lon": -77.1309275, "rental_uris": {"ios": "https://dc.lft.to/lastmile_qr_scan", "android": "https://dc.lft.to/lastmile_qr_scan"}}, {"name": "1d24bd910abb8c6bf70d1916707ea40d", "fusion_lat": 0.0, "type": "electric_bike", "lat": 38.967617, "is_reserved": 0, "is_disabled": 0, "fusion_lon": 0.0, "bike_id": "1d24bd910abb8c6bf70d1916707ea40d", "lon": -77.09161683333333, "rental_uris": {"ios": "https://dc.lft.to/lastmile_qr_scan", "android": "https://dc.lft.to/lastmile_qr_scan"}}, {"name": "311622c211ad38f9008a3f0fa7642d18", "fusion_lat": 0.0, "type": "electric_scooter", "lat": 38.905609166666665, "is_reserved": 0, "is_disabled": 0, "fusion_lon": 0.0, "bike_id": "311622c211ad38f9008a3f0fa7642d18", "lon": -77.01814583333334, "rental_uris": {"ios": "https://dc.lft.to/lastmile_qr_scan", "android": "https://dc.lft.to/lastmile_qr_scan"}}, {"name": "19fc09c2167e37289aa7f32638e662dd", "fusion_lat": 0.0, "type": "electric_scooter", "lat": 38.883415, "is_reserved": 0, "is_disabled": 0, "fusion_lon": 0.0, "bike_id": "19fc09c2167e37289aa7f32638e662dd", "lon": -77.0231405, "rental_uris": {"ios": "https://dc.lft.to/lastmile_qr_scan", "android": "https://dc.lft.to/lastmile_qr_scan"}}, {"name": "c67cfc47ba5d5445d76a25f472baaf7e", "fusion_lat": 0.0, "type": "electric_scooter", "lat": 38.909588166666666, "is_reserved": 0, "is_disabled": 0, "fusion_lon": 0.0, "bike_id": "c67cfc47ba5d5445d76a25f472baaf7e", "lon": -77.02746133333333, "rental_uris": {"ios": "https://dc.lft.to/lastmile_qr_scan", "android": "https://dc.lft.to/lastmile_qr_scan"}}, {"name": "33051a8638317df410ef185bfadc5949", "fusion_lat": 0.0, "type": "electric_scooter", "lat": 38.902393833333335, "is_reserved": 0, "is_disabled": 0, "fusion_lon": 0.0, "bike_id": "33051a8638317df410ef185bfadc5949", "lon": -76.9740715, "rental_uris": {"ios": "https://dc.lft.to/lastmile_qr_scan", "android": "https://dc.lft.to/lastmile_qr_scan"}}, {"name": "fb7a8cdbb62ebedcd961a5a056b662d9", "fusion_lat": 0.0, "type": "electric_scooter", "lat": 38.90038066666666, "is_reserved": 0, "is_disabled": 0, "fusion_lon": 0.0, "bike_id": "fb7a8cdbb62ebedcd961a5a056b662d9", "lon": -76.98833633333334, "rental_uris": {"ios": "https://dc.lft.to/lastmile_qr_scan", "android": "https://dc.lft.to/lastmile_qr_scan"}}, {"name": "9b8eaf76d470e98e2f729c729ab93641", "fusion_lat": 0.0, "type": "electric_scooter", "lat": 38.86244883333333, "is_reserved": 0, "is_disabled": 0, "fusion_lon": 0.0, "bike_id": "9b8eaf76d470e98e2f729c729ab93641", "lon": -76.99496233333333, "rental_uris": {"ios": "https://dc.lft.to/lastmile_qr_scan", "android": "https://dc.lft.to/lastmile_qr_scan"}}, {"name": "2cb0eacf1caff4d38d2550a0baa9a39a", "fusion_lat": 0.0, "type": "electric_scooter", "lat": 38.910115, "is_reserved": 0, "is_disabled": 0, "fusion_lon": 0.0, "bike_id": "2cb0eacf1caff4d38d2550a0baa9a39a", "lon": -76.996752, "rental_uris": {"ios": "https://dc.lft.to/lastmile_qr_scan", "android": "https://dc.lft.to/lastmile_qr_scan"}}, {"name": "f7f766572413eca3450e7a6979cd9ff5", "fusion_lat": 0.0, "type": "electric_scooter", "lat": 38.937025, "is_reserved": 0, "is_disabled": 0, "fusion_lon": 0.0, "bike_id": "f7f766572413eca3450e7a6979cd9ff5", "lon": -77.06099933333333, "rental_uris": {"ios": "https://dc.lft.to/lastmile_qr_scan", "android": "https://dc.lft.to/lastmile_qr_scan"}}, {"name": "3a680d0dd0c8142a58f475663490b499", "fusion_lat": 0.0, "type": "electric_scooter", "lat": 38.9002975, "is_reserved": 0, "is_disabled": 0, "fusion_lon": 0.0, "bike_id": "3a680d0dd0c8142a58f475663490b499", "lon": -77.048385, "rental_uris": {"ios": "https://dc.lft.to/lastmile_qr_scan", "android": "https://dc.lft.to/lastmile_qr_scan"}}, {"name": "92b263e4c12bbea334c8f0eb2a508cc3", "fusion_lat": 0.0, "type": "electric_scooter", "lat": 38.934352, "is_reserved": 0, "is_disabled": 0, "fusion_lon": 0.0, "bike_id": "92b263e4c12bbea334c8f0eb2a508cc3", "lon": -77.02723683333333, "rental_uris": {"ios": "https://dc.lft.to/lastmile_qr_scan", "android": "https://dc.lft.to/lastmile_qr_scan"}}, {"name": "c7555b78325a67c4eb98e4e3181a233c", "fusion_lat": 0.0, "type": "electric_bike", "lat": 38.8840485, "is_reserved": 0, "is_disabled": 0, "fusion_lon": 0.0, "bike_id": "c7555b78325a67c4eb98e4e3181a233c", "lon": -76.96054866666667, "rental_uris": {"ios": "https://dc.lft.to/lastmile_qr_scan", "android": "https://dc.lft.to/lastmile_qr_scan"}}, {"name": "b10571d4f01516d7cf01581f10ff6190", "fusion_lat": 0.0, "type": "electric_scooter", "lat": 38.927265166666665, "is_reserved": 0, "is_disabled": 0, "fusion_lon": 0.0, "bike_id": "b10571d4f01516d7cf01581f10ff6190", "lon": -77.07137516666667, "rental_uris": {"ios": "https://dc.lft.to/lastmile_qr_scan", "android": "https://dc.lft.to/lastmile_qr_scan"}}, {"name": "827fa68f1a1e34c37dc37f05e68d9717", "fusion_lat": 0.0, "type": "electric_scooter", "lat": 38.885932833333335, "is_reserved": 0, "is_disabled": 0, "fusion_lon": 0.0, "bike_id": "827fa68f1a1e34c37dc37f05e68d9717", "lon": -77.0220095, "rental_uris": {"ios": "https://dc.lft.to/lastmile_qr_scan", "android": "https://dc.lft.to/lastmile_qr_scan"}}, {"name": "b83d4e9eef2e4b9c969069c253991721", "fusion_lat": 0.0, "type": "electric_scooter", "lat": 38.9288385, "is_reserved": 0, "is_disabled": 0, "fusion_lon": 0.0, "bike_id": "b83d4e9eef2e4b9c969069c253991721", "lon": -77.03729366666667, "rental_uris": {"ios": "https://dc.lft.to/lastmile_qr_scan", "android": "https://dc.lft.to/lastmile_qr_scan"}}, {"name": "dd48e7612c0011c86261d2397406a590", "fusion_lat": 0.0, "type": "electric_bike", "lat": 38.9191205, "is_reserved": 0, "is_disabled": 0, "fusion_lon": 0.0, "bike_id": "dd48e7612c0011c86261d2397406a590", "lon": -77.0006245, "rental_uris": {"ios": "https://dc.lft.to/lastmile_qr_scan", "android": "https://dc.lft.to/lastmile_qr_scan"}}, {"name": "681c0f7f314892033a4ff90e6c096809", "fusion_lat": 0.0, "type": "electric_bike", "lat": 38.883464000000004, "is_reserved": 0, "is_disabled": 0, "fusion_lon": 0.0, "bike_id": "681c0f7f314892033a4ff90e6c096809", "lon": -77.182883, "rental_uris": {"ios": "https://dc.lft.to/lastmile_qr_scan", "android": "https://dc.lft.to/lastmile_qr_scan"}}, {"name": "032125480fc9c6893ba8e5c749f1bd22", "fusion_lat": 0.0, "type": "electric_scooter", "lat": 38.92008333333333, "is_reserved": 0, "is_disabled": 0, "fusion_lon": 0.0, "bike_id": "032125480fc9c6893ba8e5c749f1bd22", "lon": -77.08191566666666, "rental_uris": {"ios": "https://dc.lft.to/lastmile_qr_scan", "android": "https://dc.lft.to/lastmile_qr_scan"}}, {"name": "cd8bf72a6885323f97dc3ad293f4ec48", "fusion_lat": 0.0, "type": "electric_scooter", "lat": 38.8937005, "is_reserved": 0, "is_disabled": 0, "fusion_lon": 0.0, "bike_id": "cd8bf72a6885323f97dc3ad293f4ec48", "lon": -76.949963, "rental_uris": {"ios": "https://dc.lft.to/lastmile_qr_scan", "android": "https://dc.lft.to/lastmile_qr_scan"}}, {"name": "2173bbf69a2121304947a73abd4bfd77", "fusion_lat": 0.0, "type": "electric_scooter", "lat": 38.939605, "is_reserved": 0, "is_disabled": 0, "fusion_lon": 0.0, "bike_id": "2173bbf69a2121304947a73abd4bfd77", "lon": -77.02750466666667, "rental_uris": {"ios": "https://dc.lft.to/lastmile_qr_scan", "android": "https://dc.lft.to/lastmile_qr_scan"}}, {"name": "69cf378871e9fbd02ff01615ad910a18", "fusion_lat": 0.0, "type": "electric_scooter", "lat": 38.88389983333333, "is_reserved": 0, "is_disabled": 0, "fusion_lon": 0.0, "bike_id": "69cf378871e9fbd02ff01615ad910a18", "lon": -76.98539816666667, "rental_uris": {"ios": "https://dc.lft.to/lastmile_qr_scan", "android": "https://dc.lft.to/lastmile_qr_scan"}}, {"name": "fbcba6cfd0b48e09af7d8138db8a5a38", "fusion_lat": 0.0, "type": "electric_bike", "lat": 38.832365833333334, "is_reserved": 0, "is_disabled": 0, "fusion_lon": 0.0, "bike_id": "fbcba6cfd0b48e09af7d8138db8a5a38", "lon": -76.94619616666667, "rental_uris": {"ios": "https://dc.lft.to/lastmile_qr_scan", "android": "https://dc.lft.to/lastmile_qr_scan"}}, {"name": "caf8246b7d0bc3f825bcfdae7eaacb19", "fusion_lat": 0.0, "type": "electric_scooter", "lat": 38.933384333333336, "is_reserved": 0, "is_disabled": 0, "fusion_lon": 0.0, "bike_id": "caf8246b7d0bc3f825bcfdae7eaacb19", "lon": -77.04366783333333, "rental_uris": {"ios": "https://dc.lft.to/lastmile_qr_scan", "android": "https://dc.lft.to/lastmile_qr_scan"}}, {"name": "7aa92f3cc0d2929ce08c64e30da76b5e", "fusion_lat": 0.0, "type": "electric_bike", "lat": 38.95266433333333, "is_reserved": 0, "is_disabled": 0, "fusion_lon": 0.0, "bike_id": "7aa92f3cc0d2929ce08c64e30da76b5e", "lon": -77.069689, "rental_uris": {"ios": "https://dc.lft.to/lastmile_qr_scan", "android": "https://dc.lft.to/lastmile_qr_scan"}}, {"name": "b6acbcfc66936734575d8289001aefd6", "fusion_lat": 0.0, "type": "electric_scooter", "lat": 38.901641166666664, "is_reserved": 0, "is_disabled": 0, "fusion_lon": 0.0, "bike_id": "b6acbcfc66936734575d8289001aefd6", "lon": -77.01599, "rental_uris": {"ios": "https://dc.lft.to/lastmile_qr_scan", "android": "https://dc.lft.to/lastmile_qr_scan"}}, {"name": "9e0a91a443c99c30e5e290ec5f4c0cf8", "fusion_lat": 0.0, "type": "electric_scooter", "lat": 38.892978, "is_reserved": 0, "is_disabled": 0, "fusion_lon": 0.0, "bike_id": "9e0a91a443c99c30e5e290ec5f4c0cf8", "lon": -76.93927433333333, "rental_uris": {"ios": "https://dc.lft.to/lastmile_qr_scan", "android": "https://dc.lft.to/lastmile_qr_scan"}}, {"name": "07802cddb6daaa6e93c9d76751182f45", "fusion_lat": 0.0, "type": "electric_scooter", "lat": 38.918181, "is_reserved": 0, "is_disabled": 0, "fusion_lon": 0.0, "bike_id": "07802cddb6daaa6e93c9d76751182f45", "lon": -77.04022216666667, "rental_uris": {"ios": "https://dc.lft.to/lastmile_qr_scan", "android": "https://dc.lft.to/lastmile_qr_scan"}}, {"name": "0f24846448372a8f092aab8f7a403aaf", "fusion_lat": 0.0, "type": "electric_scooter", "lat": 38.909152666666664, "is_reserved": 0, "is_disabled": 0, "fusion_lon": 0.0, "bike_id": "0f24846448372a8f092aab8f7a403aaf", "lon": -77.03437716666667, "rental_uris": {"ios": "https://dc.lft.to/lastmile_qr_scan", "android": "https://dc.lft.to/lastmile_qr_scan"}}, {"name": "54879799347c11e0d99835623e90c446", "fusion_lat": 0.0, "type": "electric_bike", "lat": 38.928779166666665, "is_reserved": 0, "is_disabled": 0, "fusion_lon": 0.0, "bike_id": "54879799347c11e0d99835623e90c446", "lon": -77.042641, "rental_uris": {"ios": "https://dc.lft.to/lastmile_qr_scan", "android": "https://dc.lft.to/lastmile_qr_scan"}}, {"name": "5c927a87b2a8590441d1296966ffc548", "fusion_lat": 0.0, "type": "electric_scooter", "lat": 38.8990475, "is_reserved": 0, "is_disabled": 0, "fusion_lon": 0.0, "bike_id": "5c927a87b2a8590441d1296966ffc548", "lon": -77.039278, "rental_uris": {"ios": "https://dc.lft.to/lastmile_qr_scan", "android": "https://dc.lft.to/lastmile_qr_scan"}}, {"name": "f3dd05e606107d7f146e2005aa564153", "fusion_lat": 0.0, "type": "electric_scooter", "lat": 38.93929283333333, "is_reserved": 0, "is_disabled": 0, "fusion_lon": 0.0, "bike_id": "f3dd05e606107d7f146e2005aa564153", "lon": -77.03682066666667, "rental_uris": {"ios": "https://dc.lft.to/lastmile_qr_scan", "android": "https://dc.lft.to/lastmile_qr_scan"}}, {"name": "9285aa7b036be68a67817a38657e4fe6", "fusion_lat": 0.0, "type": "electric_scooter", "lat": 38.900756, "is_reserved": 0, "is_disabled": 0, "fusion_lon": 0.0, "bike_id": "9285aa7b036be68a67817a38657e4fe6", "lon": -77.05198283333333, "rental_uris": {"ios": "https://dc.lft.to/lastmile_qr_scan", "android": "https://dc.lft.to/lastmile_qr_scan"}}, {"name": "5ae7bb1517729929347398dbd895f952", "fusion_lat": 0.0, "type": "electric_scooter", "lat": 38.895269666666664, "is_reserved": 0, "is_disabled": 0, "fusion_lon": 0.0, "bike_id": "5ae7bb1517729929347398dbd895f952", "lon": -76.94888516666667, "rental_uris": {"ios": "https://dc.lft.to/lastmile_qr_scan", "android": "https://dc.lft.to/lastmile_qr_scan"}}, {"name": "cacab7e7f85821fbdde844e6b11741a8", "fusion_lat": 0.0, "type": "electric_scooter", "lat": 38.90958416666667, "is_reserved": 0, "is_disabled": 0, "fusion_lon": 0.0, "bike_id": "cacab7e7f85821fbdde844e6b11741a8", "lon": -77.0316725, "rental_uris": {"ios": "https://dc.lft.to/lastmile_qr_scan", "android": "https://dc.lft.to/lastmile_qr_scan"}}, {"name": "b7eb805e7e012d7751fef04840fe222b", "fusion_lat": 0.0, "type": "electric_bike", "lat": 38.81048533333333, "is_reserved": 0, "is_disabled": 0, "fusion_lon": 0.0, "bike_id": "b7eb805e7e012d7751fef04840fe222b", "lon": -77.085072, "rental_uris": {"ios": "https://dc.lft.to/lastmile_qr_scan", "android": "https://dc.lft.to/lastmile_qr_scan"}}, {"name": "ebb01b3ab08a883a9012da6d6a23a662", "fusion_lat": 0.0, "type": "electric_scooter", "lat": 38.895772666666666, "is_reserved": 0, "is_disabled": 0, "fusion_lon": 0.0, "bike_id": "ebb01b3ab08a883a9012da6d6a23a662", "lon": -76.98181866666667, "rental_uris": {"ios": "https://dc.lft.to/lastmile_qr_scan", "android": "https://dc.lft.to/lastmile_qr_scan"}}, {"name": "5ae6b92523d11bab0c8e4ec4e2e407d2", "fusion_lat": 0.0, "type": "electric_scooter", "lat": 38.937546166666664, "is_reserved": 0, "is_disabled": 0, "fusion_lon": 0.0, "bike_id": "5ae6b92523d11bab0c8e4ec4e2e407d2", "lon": -77.02492133333334, "rental_uris": {"ios": "https://dc.lft.to/lastmile_qr_scan", "android": "https://dc.lft.to/lastmile_qr_scan"}}, {"name": "28ae0d7019e0ba8419c1a1941846dd9d", "fusion_lat": 0.0, "type": "electric_scooter", "lat": 38.89232283333333, "is_reserved": 0, "is_disabled": 0, "fusion_lon": 0.0, "bike_id": "28ae0d7019e0ba8419c1a1941846dd9d", "lon": -77.04998733333333, "rental_uris": {"ios": "https://dc.lft.to/lastmile_qr_scan", "android": "https://dc.lft.to/lastmile_qr_scan"}}, {"name": "dd5fb93860c4a2fb56bbe314e1b6eedd", "fusion_lat": 0.0, "type": "electric_scooter", "lat": 38.912525333333335, "is_reserved": 0, "is_disabled": 0, "fusion_lon": 0.0, "bike_id": "dd5fb93860c4a2fb56bbe314e1b6eedd", "lon": -77.007746, "rental_uris": {"ios": "https://dc.lft.to/lastmile_qr_scan", "android": "https://dc.lft.to/lastmile_qr_scan"}}, {"name": "9dbbcb487b7fa4102bb4914df933b39d", "fusion_lat": 0.0, "type": "electric_scooter", "lat": 38.92058816666667, "is_reserved": 0, "is_disabled": 0, "fusion_lon": 0.0, "bike_id": "9dbbcb487b7fa4102bb4914df933b39d", "lon": -77.02437333333333, "rental_uris": {"ios": "https://dc.lft.to/lastmile_qr_scan", "android": "https://dc.lft.to/lastmile_qr_scan"}}, {"name": "8374734190e06413f4cdd463e4af5939", "fusion_lat": 0.0, "type": "electric_bike", "lat": 38.854411, "is_reserved": 0, "is_disabled": 0, "fusion_lon": 0.0, "bike_id": "8374734190e06413f4cdd463e4af5939", "lon": -76.909731, "rental_uris": {"ios": "https://dc.lft.to/lastmile_qr_scan", "android": "https://dc.lft.to/lastmile_qr_scan"}}, {"name": "c842110dd7a169b4b5d45e168a2ee511", "fusion_lat": 0.0, "type": "electric_scooter", "lat": 38.92119983333333, "is_reserved": 0, "is_disabled": 0, "fusion_lon": 0.0, "bike_id": "c842110dd7a169b4b5d45e168a2ee511", "lon": -77.01300316666666, "rental_uris": {"ios": "https://dc.lft.to/lastmile_qr_scan", "android": "https://dc.lft.to/lastmile_qr_scan"}}, {"name": "b823c8cb51dee25f2e058cc4a16372d8", "fusion_lat": 0.0, "type": "electric_scooter", "lat": 38.89722, "is_reserved": 0, "is_disabled": 0, "fusion_lon": 0.0, "bike_id": "b823c8cb51dee25f2e058cc4a16372d8", "lon": -77.00207766666666, "rental_uris": {"ios": "https://dc.lft.to/lastmile_qr_scan", "android": "https://dc.lft.to/lastmile_qr_scan"}}, {"name": "c64a0ab6b4bf87b6d289f15442627d93", "fusion_lat": 0.0, "type": "electric_scooter", "lat": 38.906300333333334, "is_reserved": 0, "is_disabled": 0, "fusion_lon": 0.0, "bike_id": "c64a0ab6b4bf87b6d289f15442627d93", "lon": -77.051325, "rental_uris": {"ios": "https://dc.lft.to/lastmile_qr_scan", "android": "https://dc.lft.to/lastmile_qr_scan"}}, {"name": "a62d147e40d25b44721b38de9ab05b32", "fusion_lat": 0.0, "type": "electric_bike", "lat": 38.85493433333333, "is_reserved": 0, "is_disabled": 0, "fusion_lon": 0.0, "bike_id": "a62d147e40d25b44721b38de9ab05b32", "lon": -77.11523633333333, "rental_uris": {"ios": "https://dc.lft.to/lastmile_qr_scan", "android": "https://dc.lft.to/lastmile_qr_scan"}}, {"name": "d512b9069b9b985f1604208bb7ca8a81", "fusion_lat": 0.0, "type": "electric_scooter", "lat": 38.8768775, "is_reserved": 0, "is_disabled": 0, "fusion_lon": 0.0, "bike_id": "d512b9069b9b985f1604208bb7ca8a81", "lon": -77.0073735, "rental_uris": {"ios": "https://dc.lft.to/lastmile_qr_scan", "android": "https://dc.lft.to/lastmile_qr_scan"}}, {"name": "c5641937aab53062040159ac5709343e", "fusion_lat": 0.0, "type": "electric_scooter", "lat": 38.9045655, "is_reserved": 0, "is_disabled": 0, "fusion_lon": 0.0, "bike_id": "c5641937aab53062040159ac5709343e", "lon": -76.98527033333333, "rental_uris": {"ios": "https://dc.lft.to/lastmile_qr_scan", "android": "https://dc.lft.to/lastmile_qr_scan"}}, {"name": "9d0b788ca60670c62422c3ef3b7395e1", "fusion_lat": 0.0, "type": "electric_scooter", "lat": 38.91565633333333, "is_reserved": 0, "is_disabled": 0, "fusion_lon": 0.0, "bike_id": "9d0b788ca60670c62422c3ef3b7395e1", "lon": -77.03168933333333, "rental_uris": {"ios": "https://dc.lft.to/lastmile_qr_scan", "android": "https://dc.lft.to/lastmile_qr_scan"}}, {"name": "d722b796a5581ef50a7b83501019e765", "fusion_lat": 0.0, "type": "electric_scooter", "lat": 38.92179016666667, "is_reserved": 0, "is_disabled": 0, "fusion_lon": 0.0, "bike_id": "d722b796a5581ef50a7b83501019e765", "lon": -77.02414883333333, "rental_uris": {"ios": "https://dc.lft.to/lastmile_qr_scan", "android": "https://dc.lft.to/lastmile_qr_scan"}}, {"name": "2f5447261a0c57d41aec70931ee5fa68", "fusion_lat": 0.0, "type": "electric_scooter", "lat": 38.941745833333336, "is_reserved": 0, "is_disabled": 0, "fusion_lon": 0.0, "bike_id": "2f5447261a0c57d41aec70931ee5fa68", "lon": -77.02514666666667, "rental_uris": {"ios": "https://dc.lft.to/lastmile_qr_scan", "android": "https://dc.lft.to/lastmile_qr_scan"}}, {"name": "7060ac7da331091b2c407d6273a402b1", "fusion_lat": 0.0, "type": "electric_scooter", "lat": 38.90849333333333, "is_reserved": 0, "is_disabled": 0, "fusion_lon": 0.0, "bike_id": "7060ac7da331091b2c407d6273a402b1", "lon": -77.02092133333333, "rental_uris": {"ios": "https://dc.lft.to/lastmile_qr_scan", "android": "https://dc.lft.to/lastmile_qr_scan"}}, {"name": "40737e6988f983255b9d8ee91c71da88", "fusion_lat": 0.0, "type": "electric_scooter", "lat": 38.89913466666667, "is_reserved": 0, "is_disabled": 0, "fusion_lon": 0.0, "bike_id": "40737e6988f983255b9d8ee91c71da88", "lon": -77.07095883333334, "rental_uris": {"ios": "https://dc.lft.to/lastmile_qr_scan", "android": "https://dc.lft.to/lastmile_qr_scan"}}, {"name": "2745f3b37bd6020959c1ebd0bbee2997", "fusion_lat": 0.0, "type": "electric_scooter", "lat": 38.9155915, "is_reserved": 0, "is_disabled": 0, "fusion_lon": 0.0, "bike_id": "2745f3b37bd6020959c1ebd0bbee2997", "lon": -77.017198, "rental_uris": {"ios": "https://dc.lft.to/lastmile_qr_scan", "android": "https://dc.lft.to/lastmile_qr_scan"}}, {"name": "dd5aa93d71eb876c52d76dc87a81fa41", "fusion_lat": 0.0, "type": "electric_scooter", "lat": 38.92149933333334, "is_reserved": 0, "is_disabled": 0, "fusion_lon": 0.0, "bike_id": "dd5aa93d71eb876c52d76dc87a81fa41", "lon": -77.04108766666667, "rental_uris": {"ios": "https://dc.lft.to/lastmile_qr_scan", "android": "https://dc.lft.to/lastmile_qr_scan"}}, {"name": "1d5dbf205f4a774042284100c25b19dc", "fusion_lat": 0.0, "type": "electric_scooter", "lat": 38.9261555, "is_reserved": 0, "is_disabled": 0, "fusion_lon": 0.0, "bike_id": "1d5dbf205f4a774042284100c25b19dc", "lon": -77.04410466666667, "rental_uris": {"ios": "https://dc.lft.to/lastmile_qr_scan", "android": "https://dc.lft.to/lastmile_qr_scan"}}, {"name": "d2c5c8b5e0ec5bd9fb8a68486ea6686a", "fusion_lat": 0.0, "type": "electric_scooter", "lat": 38.906019666666666, "is_reserved": 0, "is_disabled": 0, "fusion_lon": 0.0, "bike_id": "d2c5c8b5e0ec5bd9fb8a68486ea6686a", "lon": -77.04660783333334, "rental_uris": {"ios": "https://dc.lft.to/lastmile_qr_scan", "android": "https://dc.lft.to/lastmile_qr_scan"}}, {"name": "4d7fad1cc54d4d4b0a0687846d2d79ed", "fusion_lat": 0.0, "type": "electric_scooter", "lat": 38.8918115, "is_reserved": 0, "is_disabled": 0, "fusion_lon": 0.0, "bike_id": "4d7fad1cc54d4d4b0a0687846d2d79ed", "lon": -76.95734083333333, "rental_uris": {"ios": "https://dc.lft.to/lastmile_qr_scan", "android": "https://dc.lft.to/lastmile_qr_scan"}}, {"name": "2d903fc33296bdaf5434586668ddc85e", "fusion_lat": 0.0, "type": "electric_scooter", "lat": 38.93033783333333, "is_reserved": 0, "is_disabled": 0, "fusion_lon": 0.0, "bike_id": "2d903fc33296bdaf5434586668ddc85e", "lon": -77.02961583333334, "rental_uris": {"ios": "https://dc.lft.to/lastmile_qr_scan", "android": "https://dc.lft.to/lastmile_qr_scan"}}, {"name": "5a106872e10e878bb92abcc69015d16e", "fusion_lat": 0.0, "type": "electric_scooter", "lat": 38.916919, "is_reserved": 0, "is_disabled": 0, "fusion_lon": 0.0, "bike_id": "5a106872e10e878bb92abcc69015d16e", "lon": -77.03142233333334, "rental_uris": {"ios": "https://dc.lft.to/lastmile_qr_scan", "android": "https://dc.lft.to/lastmile_qr_scan"}}, {"name": "f4913cf0714e36f4f2737bf9ad0b6618", "fusion_lat": 0.0, "type": "electric_scooter", "lat": 38.926860166666664, "is_reserved": 0, "is_disabled": 0, "fusion_lon": 0.0, "bike_id": "f4913cf0714e36f4f2737bf9ad0b6618", "lon": -77.02300416666667, "rental_uris": {"ios": "https://dc.lft.to/lastmile_qr_scan", "android": "https://dc.lft.to/lastmile_qr_scan"}}, {"name": "cc3ed72dd17fc1bdd828b106a91e2d04", "fusion_lat": 0.0, "type": "electric_scooter", "lat": 38.918055833333334, "is_reserved": 0, "is_disabled": 0, "fusion_lon": 0.0, "bike_id": "cc3ed72dd17fc1bdd828b106a91e2d04", "lon": -77.04626366666666, "rental_uris": {"ios": "https://dc.lft.to/lastmile_qr_scan", "android": "https://dc.lft.to/lastmile_qr_scan"}}, {"name": "ff1adf90aec48037ccccb3c166028846", "fusion_lat": 0.0, "type": "electric_scooter", "lat": 38.890040666666664, "is_reserved": 0, "is_disabled": 0, "fusion_lon": 0.0, "bike_id": "ff1adf90aec48037ccccb3c166028846", "lon": -77.04899066666667, "rental_uris": {"ios": "https://dc.lft.to/lastmile_qr_scan", "android": "https://dc.lft.to/lastmile_qr_scan"}}, {"name": "0de6ecf9547948d4ccc8a9159473e442", "fusion_lat": 0.0, "type": "electric_scooter", "lat": 38.940620833333334, "is_reserved": 0, "is_disabled": 0, "fusion_lon": 0.0, "bike_id": "0de6ecf9547948d4ccc8a9159473e442", "lon": -77.02960733333333, "rental_uris": {"ios": "https://dc.lft.to/lastmile_qr_scan", "android": "https://dc.lft.to/lastmile_qr_scan"}}, {"name": "6260175761933fdb71dac4b5d3b29a61", "fusion_lat": 0.0, "type": "electric_scooter", "lat": 38.91928683333333, "is_reserved": 0, "is_disabled": 0, "fusion_lon": 0.0, "bike_id": "6260175761933fdb71dac4b5d3b29a61", "lon": -77.02372683333333, "rental_uris": {"ios": "https://dc.lft.to/lastmile_qr_scan", "android": "https://dc.lft.to/lastmile_qr_scan"}}, {"name": "ef98571a791f60677fb2a847b37b5e50", "fusion_lat": 0.0, "type": "electric_scooter", "lat": 38.91280783333333, "is_reserved": 0, "is_disabled": 0, "fusion_lon": 0.0, "bike_id": "ef98571a791f60677fb2a847b37b5e50", "lon": -77.04499516666667, "rental_uris": {"ios": "https://dc.lft.to/lastmile_qr_scan", "android": "https://dc.lft.to/lastmile_qr_scan"}}, {"name": "8912cd62e2476879dfd1d34b375c03d4", "fusion_lat": 0.0, "type": "electric_scooter", "lat": 38.925697, "is_reserved": 0, "is_disabled": 0, "fusion_lon": 0.0, "bike_id": "8912cd62e2476879dfd1d34b375c03d4", "lon": -77.02842866666667, "rental_uris": {"ios": "https://dc.lft.to/lastmile_qr_scan", "android": "https://dc.lft.to/lastmile_qr_scan"}}, {"name": "8ef2feb7abbf1713f85f9e634d38e7b0", "fusion_lat": 0.0, "type": "electric_scooter", "lat": 38.86230966666667, "is_reserved": 0, "is_disabled": 0, "fusion_lon": 0.0, "bike_id": "8ef2feb7abbf1713f85f9e634d38e7b0", "lon": -76.97381616666667, "rental_uris": {"ios": "https://dc.lft.to/lastmile_qr_scan", "android": "https://dc.lft.to/lastmile_qr_scan"}}, {"name": "83db3eff9d76c4159e7805757acef531", "fusion_lat": 0.0, "type": "electric_scooter", "lat": 38.931736, "is_reserved": 0, "is_disabled": 0, "fusion_lon": 0.0, "bike_id": "83db3eff9d76c4159e7805757acef531", "lon": -77.05610416666667, "rental_uris": {"ios": "https://dc.lft.to/lastmile_qr_scan", "android": "https://dc.lft.to/lastmile_qr_scan"}}, {"name": "a3b46c2509f8f60f9978ddb3d3ddf050", "fusion_lat": 0.0, "type": "electric_scooter", "lat": 38.9086155, "is_reserved": 0, "is_disabled": 0, "fusion_lon": 0.0, "bike_id": "a3b46c2509f8f60f9978ddb3d3ddf050", "lon": -77.045031, "rental_uris": {"ios": "https://dc.lft.to/lastmile_qr_scan", "android": "https://dc.lft.to/lastmile_qr_scan"}}, {"name": "9a703e79126c3302413887dfff71108e", "fusion_lat": 0.0, "type": "electric_scooter", "lat": 38.8908645, "is_reserved": 0, "is_disabled": 0, "fusion_lon": 0.0, "bike_id": "9a703e79126c3302413887dfff71108e", "lon": -76.99784133333333, "rental_uris": {"ios": "https://dc.lft.to/lastmile_qr_scan", "android": "https://dc.lft.to/lastmile_qr_scan"}}, {"name": "3738b8ee7a2f1898764a39e8198861c8", "fusion_lat": 0.0, "type": "electric_scooter", "lat": 38.900295166666666, "is_reserved": 0, "is_disabled": 0, "fusion_lon": 0.0, "bike_id": "3738b8ee7a2f1898764a39e8198861c8", "lon": -77.02982533333333, "rental_uris": {"ios": "https://dc.lft.to/lastmile_qr_scan", "android": "https://dc.lft.to/lastmile_qr_scan"}}, {"name": "f72ef1394f2e6e249085d458aaca8a46", "fusion_lat": 0.0, "type": "electric_scooter", "lat": 38.90849, "is_reserved": 0, "is_disabled": 0, "fusion_lon": 0.0, "bike_id": "f72ef1394f2e6e249085d458aaca8a46", "lon": -77.03287183333333, "rental_uris": {"ios": "https://dc.lft.to/lastmile_qr_scan", "android": "https://dc.lft.to/lastmile_qr_scan"}}, {"name": "1be4e2f3c7d7e3edf0182db4b9357a0c", "fusion_lat": 0.0, "type": "electric_bike", "lat": 38.92846483333334, "is_reserved": 0, "is_disabled": 0, "fusion_lon": 0.0, "bike_id": "1be4e2f3c7d7e3edf0182db4b9357a0c", "lon": -77.10504266666666, "rental_uris": {"ios": "https://dc.lft.to/lastmile_qr_scan", "android": "https://dc.lft.to/lastmile_qr_scan"}}, {"name": "964181b8758f91daee91248db6dcd955", "fusion_lat": 0.0, "type": "electric_scooter", "lat": 38.89731416666667, "is_reserved": 0, "is_disabled": 0, "fusion_lon": 0.0, "bike_id": "964181b8758f91daee91248db6dcd955", "lon": -77.047218, "rental_uris": {"ios": "https://dc.lft.to/lastmile_qr_scan", "android": "https://dc.lft.to/lastmile_qr_scan"}}, {"name": "72b5db6bf507e14ec259fe120d8d26e7", "fusion_lat": 0.0, "type": "electric_scooter", "lat": 38.9311655, "is_reserved": 0, "is_disabled": 0, "fusion_lon": 0.0, "bike_id": "72b5db6bf507e14ec259fe120d8d26e7", "lon": -77.01993066666667, "rental_uris": {"ios": "https://dc.lft.to/lastmile_qr_scan", "android": "https://dc.lft.to/lastmile_qr_scan"}}, {"name": "58b6218a06d87053814ff8d1836e9ade", "fusion_lat": 0.0, "type": "electric_scooter", "lat": 38.92435783333333, "is_reserved": 0, "is_disabled": 0, "fusion_lon": 0.0, "bike_id": "58b6218a06d87053814ff8d1836e9ade", "lon": -77.041302, "rental_uris": {"ios": "https://dc.lft.to/lastmile_qr_scan", "android": "https://dc.lft.to/lastmile_qr_scan"}}, {"name": "c0e6da9fbd9163b541bfaf6428034ab8", "fusion_lat": 0.0, "type": "electric_scooter", "lat": 38.920623, "is_reserved": 0, "is_disabled": 0, "fusion_lon": 0.0, "bike_id": "c0e6da9fbd9163b541bfaf6428034ab8", "lon": -77.04700866666667, "rental_uris": {"ios": "https://dc.lft.to/lastmile_qr_scan", "android": "https://dc.lft.to/lastmile_qr_scan"}}, {"name": "e5f6023a42bdfaf759f599626cc6541d", "fusion_lat": 0.0, "type": "electric_bike", "lat": 38.965494, "is_reserved": 0, "is_disabled": 0, "fusion_lon": 0.0, "bike_id": "e5f6023a42bdfaf759f599626cc6541d", "lon": -77.035125, "rental_uris": {"ios": "https://dc.lft.to/lastmile_qr_scan", "android": "https://dc.lft.to/lastmile_qr_scan"}}, {"name": "53a378b4120a456a4cc2ccaa9fdbcccf", "fusion_lat": 0.0, "type": "electric_scooter", "lat": 38.919886, "is_reserved": 0, "is_disabled": 0, "fusion_lon": 0.0, "bike_id": "53a378b4120a456a4cc2ccaa9fdbcccf", "lon": -77.03318833333333, "rental_uris": {"ios": "https://dc.lft.to/lastmile_qr_scan", "android": "https://dc.lft.to/lastmile_qr_scan"}}, {"name": "e7bda420603f601ab28d799b5d726b6c", "fusion_lat": 0.0, "type": "electric_scooter", "lat": 38.92238866666667, "is_reserved": 0, "is_disabled": 0, "fusion_lon": 0.0, "bike_id": "e7bda420603f601ab28d799b5d726b6c", "lon": -77.04480116666667, "rental_uris": {"ios": "https://dc.lft.to/lastmile_qr_scan", "android": "https://dc.lft.to/lastmile_qr_scan"}}, {"name": "bd33f493acb7ea4eab13cad3522e18bf", "fusion_lat": 0.0, "type": "electric_bike", "lat": 38.8990325, "is_reserved": 0, "is_disabled": 0, "fusion_lon": 0.0, "bike_id": "bd33f493acb7ea4eab13cad3522e18bf", "lon": -76.98960233333334, "rental_uris": {"ios": "https://dc.lft.to/lastmile_qr_scan", "android": "https://dc.lft.to/lastmile_qr_scan"}}, {"name": "79456377c0713e70f8a873b124bdfd9a", "fusion_lat": 0.0, "type": "electric_scooter", "lat": 38.924578, "is_reserved": 0, "is_disabled": 0, "fusion_lon": 0.0, "bike_id": "79456377c0713e70f8a873b124bdfd9a", "lon": -77.05230483333334, "rental_uris": {"ios": "https://dc.lft.to/lastmile_qr_scan", "android": "https://dc.lft.to/lastmile_qr_scan"}}, {"name": "6698f34d49f1ac81738c621da2fe2e60", "fusion_lat": 0.0, "type": "electric_scooter", "lat": 38.91555983333333, "is_reserved": 0, "is_disabled": 0, "fusion_lon": 0.0, "bike_id": "6698f34d49f1ac81738c621da2fe2e60", "lon": -77.038356, "rental_uris": {"ios": "https://dc.lft.to/lastmile_qr_scan", "android": "https://dc.lft.to/lastmile_qr_scan"}}, {"name": "98e058d5cbd11d10279e738268dbb4c0", "fusion_lat": 0.0, "type": "electric_scooter", "lat": 38.90033233333333, "is_reserved": 0, "is_disabled": 0, "fusion_lon": 0.0, "bike_id": "98e058d5cbd11d10279e738268dbb4c0", "lon": -76.9883185, "rental_uris": {"ios": "https://dc.lft.to/lastmile_qr_scan", "android": "https://dc.lft.to/lastmile_qr_scan"}}, {"name": "e91ab4b8233d87e109dea9fe6301a1ba", "fusion_lat": 0.0, "type": "electric_scooter", "lat": 38.92467333333333, "is_reserved": 0, "is_disabled": 0, "fusion_lon": 0.0, "bike_id": "e91ab4b8233d87e109dea9fe6301a1ba", "lon": -77.02713266666666, "rental_uris": {"ios": "https://dc.lft.to/lastmile_qr_scan", "android": "https://dc.lft.to/lastmile_qr_scan"}}, {"name": "359c65e62a58bad17758298247a2a8d6", "fusion_lat": 0.0, "type": "electric_scooter", "lat": 38.8922185, "is_reserved": 0, "is_disabled": 0, "fusion_lon": 0.0, "bike_id": "359c65e62a58bad17758298247a2a8d6", "lon": -77.03983633333333, "rental_uris": {"ios": "https://dc.lft.to/lastmile_qr_scan", "android": "https://dc.lft.to/lastmile_qr_scan"}}, {"name": "62528892370c61835c12aed41eb2a61e", "fusion_lat": 0.0, "type": "electric_bike", "lat": 38.88276166666667, "is_reserved": 0, "is_disabled": 0, "fusion_lon": 0.0, "bike_id": "62528892370c61835c12aed41eb2a61e", "lon": -76.9323365, "rental_uris": {"ios": "https://dc.lft.to/lastmile_qr_scan", "android": "https://dc.lft.to/lastmile_qr_scan"}}, {"name": "df7442a0fa4e5a370e939ffbb29b83f0", "fusion_lat": 0.0, "type": "electric_scooter", "lat": 38.897451333333336, "is_reserved": 0, "is_disabled": 0, "fusion_lon": 0.0, "bike_id": "df7442a0fa4e5a370e939ffbb29b83f0", "lon": -76.99610033333333, "rental_uris": {"ios": "https://dc.lft.to/lastmile_qr_scan", "android": "https://dc.lft.to/lastmile_qr_scan"}}, {"name": "e23227e838ea46c5db52f3d380094be0", "fusion_lat": 0.0, "type": "electric_scooter", "lat": 38.93127833333333, "is_reserved": 0, "is_disabled": 0, "fusion_lon": 0.0, "bike_id": "e23227e838ea46c5db52f3d380094be0", "lon": -77.02200066666667, "rental_uris": {"ios": "https://dc.lft.to/lastmile_qr_scan", "android": "https://dc.lft.to/lastmile_qr_scan"}}, {"name": "9a03ecbf5c9298060590e3b0f8e2284f", "fusion_lat": 0.0, "type": "electric_scooter", "lat": 38.920671666666664, "is_reserved": 0, "is_disabled": 0, "fusion_lon": 0.0, "bike_id": "9a03ecbf5c9298060590e3b0f8e2284f", "lon": -77.03222216666667, "rental_uris": {"ios": "https://dc.lft.to/lastmile_qr_scan", "android": "https://dc.lft.to/lastmile_qr_scan"}}, {"name": "889506563e80ae58554477938ba59b4e", "fusion_lat": 0.0, "type": "electric_scooter", "lat": 38.92094783333334, "is_reserved": 0, "is_disabled": 0, "fusion_lon": 0.0, "bike_id": "889506563e80ae58554477938ba59b4e", "lon": -77.042001, "rental_uris": {"ios": "https://dc.lft.to/lastmile_qr_scan", "android": "https://dc.lft.to/lastmile_qr_scan"}}, {"name": "2bded30c774ee1d26fee23deb73a1c8e", "fusion_lat": 0.0, "type": "electric_scooter", "lat": 38.901413, "is_reserved": 0, "is_disabled": 0, "fusion_lon": 0.0, "bike_id": "2bded30c774ee1d26fee23deb73a1c8e", "lon": -76.99124183333333, "rental_uris": {"ios": "https://dc.lft.to/lastmile_qr_scan", "android": "https://dc.lft.to/lastmile_qr_scan"}}, {"name": "7bc93f8f0b691e85bc59a5779493a7ff", "fusion_lat": 0.0, "type": "electric_scooter", "lat": 38.938937833333334, "is_reserved": 0, "is_disabled": 0, "fusion_lon": 0.0, "bike_id": "7bc93f8f0b691e85bc59a5779493a7ff", "lon": -77.02486766666667, "rental_uris": {"ios": "https://dc.lft.to/lastmile_qr_scan", "android": "https://dc.lft.to/lastmile_qr_scan"}}, {"name": "3bd242b27e7b9d9ac1b6df5a04e32020", "fusion_lat": 0.0, "type": "electric_scooter", "lat": 38.9169005, "is_reserved": 0, "is_disabled": 0, "fusion_lon": 0.0, "bike_id": "3bd242b27e7b9d9ac1b6df5a04e32020", "lon": -77.0349625, "rental_uris": {"ios": "https://dc.lft.to/lastmile_qr_scan", "android": "https://dc.lft.to/lastmile_qr_scan"}}, {"name": "c411eb5b4e73905d95fc830f2199cf13", "fusion_lat": 0.0, "type": "electric_scooter", "lat": 38.89716416666667, "is_reserved": 0, "is_disabled": 0, "fusion_lon": 0.0, "bike_id": "c411eb5b4e73905d95fc830f2199cf13", "lon": -77.02030583333334, "rental_uris": {"ios": "https://dc.lft.to/lastmile_qr_scan", "android": "https://dc.lft.to/lastmile_qr_scan"}}, {"name": "7927809505b9b1118d9a0a2dad533852", "fusion_lat": 0.0, "type": "electric_scooter", "lat": 38.8988155, "is_reserved": 0, "is_disabled": 0, "fusion_lon": 0.0, "bike_id": "7927809505b9b1118d9a0a2dad533852", "lon": -76.93175916666667, "rental_uris": {"ios": "https://dc.lft.to/lastmile_qr_scan", "android": "https://dc.lft.to/lastmile_qr_scan"}}, {"name": "567e0136ef78fcdec5fbea925b731197", "fusion_lat": 0.0, "type": "electric_bike", "lat": 38.856225333333335, "is_reserved": 0, "is_disabled": 0, "fusion_lon": 0.0, "bike_id": "567e0136ef78fcdec5fbea925b731197", "lon": -77.11287216666666, "rental_uris": {"ios": "https://dc.lft.to/lastmile_qr_scan", "android": "https://dc.lft.to/lastmile_qr_scan"}}, {"name": "f576b6aca73a52374809c1425b866bf0", "fusion_lat": 0.0, "type": "electric_scooter", "lat": 38.85806983333333, "is_reserved": 0, "is_disabled": 0, "fusion_lon": 0.0, "bike_id": "f576b6aca73a52374809c1425b866bf0", "lon": -76.9865075, "rental_uris": {"ios": "https://dc.lft.to/lastmile_qr_scan", "android": "https://dc.lft.to/lastmile_qr_scan"}}, {"name": "4cf3fe29c0ad7b152ad6f6febf67e71d", "fusion_lat": 0.0, "type": "electric_scooter", "lat": 38.8993485, "is_reserved": 0, "is_disabled": 0, "fusion_lon": 0.0, "bike_id": "4cf3fe29c0ad7b152ad6f6febf67e71d", "lon": -77.028015, "rental_uris": {"ios": "https://dc.lft.to/lastmile_qr_scan", "android": "https://dc.lft.to/lastmile_qr_scan"}}, {"name": "045aae53000dbfedd13ad1f86fa09aab", "fusion_lat": 0.0, "type": "electric_scooter", "lat": 38.90388383333333, "is_reserved": 0, "is_disabled": 0, "fusion_lon": 0.0, "bike_id": "045aae53000dbfedd13ad1f86fa09aab", "lon": -77.01763866666667, "rental_uris": {"ios": "https://dc.lft.to/lastmile_qr_scan", "android": "https://dc.lft.to/lastmile_qr_scan"}}, {"name": "c18a94e338b467cb76e781f4fd8517ce", "fusion_lat": 0.0, "type": "electric_scooter", "lat": 38.91257983333333, "is_reserved": 0, "is_disabled": 0, "fusion_lon": 0.0, "bike_id": "c18a94e338b467cb76e781f4fd8517ce", "lon": -77.00928066666667, "rental_uris": {"ios": "https://dc.lft.to/lastmile_qr_scan", "android": "https://dc.lft.to/lastmile_qr_scan"}}, {"name": "fc759e29563d466567034b8d0a75d664", "fusion_lat": 0.0, "type": "electric_scooter", "lat": 38.90260816666667, "is_reserved": 0, "is_disabled": 0, "fusion_lon": 0.0, "bike_id": "fc759e29563d466567034b8d0a75d664", "lon": -77.029969, "rental_uris": {"ios": "https://dc.lft.to/lastmile_qr_scan", "android": "https://dc.lft.to/lastmile_qr_scan"}}, {"name": "5220bd68c734d026f2508a056e2e9ed3", "fusion_lat": 0.0, "type": "electric_scooter", "lat": 38.9181545, "is_reserved": 0, "is_disabled": 0, "fusion_lon": 0.0, "bike_id": "5220bd68c734d026f2508a056e2e9ed3", "lon": -77.035661, "rental_uris": {"ios": "https://dc.lft.to/lastmile_qr_scan", "android": "https://dc.lft.to/lastmile_qr_scan"}}, {"name": "16880503f798fca59d82ee0b2c10b60e", "fusion_lat": 0.0, "type": "electric_scooter", "lat": 38.900395333333336, "is_reserved": 0, "is_disabled": 0, "fusion_lon": 0.0, "bike_id": "16880503f798fca59d82ee0b2c10b60e", "lon": -77.0119045, "rental_uris": {"ios": "https://dc.lft.to/lastmile_qr_scan", "android": "https://dc.lft.to/lastmile_qr_scan"}}, {"name": "fa417ca58baa378a028ce6223b06ae8e", "fusion_lat": 0.0, "type": "electric_scooter", "lat": 38.956135, "is_reserved": 0, "is_disabled": 0, "fusion_lon": 0.0, "bike_id": "fa417ca58baa378a028ce6223b06ae8e", "lon": -77.07709433333333, "rental_uris": {"ios": "https://dc.lft.to/lastmile_qr_scan", "android": "https://dc.lft.to/lastmile_qr_scan"}}, {"name": "834f082a4424f02353e9ea023e828ddd", "fusion_lat": 0.0, "type": "electric_scooter", "lat": 38.938686, "is_reserved": 0, "is_disabled": 0, "fusion_lon": 0.0, "bike_id": "834f082a4424f02353e9ea023e828ddd", "lon": -77.02670966666666, "rental_uris": {"ios": "https://dc.lft.to/lastmile_qr_scan", "android": "https://dc.lft.to/lastmile_qr_scan"}}, {"name": "ac0cb908e41527fd8df3fa46d2bb14b4", "fusion_lat": 0.0, "type": "electric_scooter", "lat": 38.92013933333333, "is_reserved": 0, "is_disabled": 0, "fusion_lon": 0.0, "bike_id": "ac0cb908e41527fd8df3fa46d2bb14b4", "lon": -77.031869, "rental_uris": {"ios": "https://dc.lft.to/lastmile_qr_scan", "android": "https://dc.lft.to/lastmile_qr_scan"}}, {"name": "82ac49182a1add85d161b70c0276559a", "fusion_lat": 0.0, "type": "electric_scooter", "lat": 38.86533766666667, "is_reserved": 0, "is_disabled": 0, "fusion_lon": 0.0, "bike_id": "82ac49182a1add85d161b70c0276559a", "lon": -76.98704983333333, "rental_uris": {"ios": "https://dc.lft.to/lastmile_qr_scan", "android": "https://dc.lft.to/lastmile_qr_scan"}}, {"name": "9b22f2e8316a9bb53293cb28a28712e1", "fusion_lat": 0.0, "type": "electric_scooter", "lat": 38.919215333333334, "is_reserved": 0, "is_disabled": 0, "fusion_lon": 0.0, "bike_id": "9b22f2e8316a9bb53293cb28a28712e1", "lon": -77.02487833333333, "rental_uris": {"ios": "https://dc.lft.to/lastmile_qr_scan", "android": "https://dc.lft.to/lastmile_qr_scan"}}, {"name": "0370c6a40824d1f38e49551031b0a736", "fusion_lat": 0.0, "type": "electric_scooter", "lat": 38.90029666666667, "is_reserved": 0, "is_disabled": 0, "fusion_lon": 0.0, "bike_id": "0370c6a40824d1f38e49551031b0a736", "lon": -76.998618, "rental_uris": {"ios": "https://dc.lft.to/lastmile_qr_scan", "android": "https://dc.lft.to/lastmile_qr_scan"}}, {"name": "efc7e93b98ffd9ac6641f2df39ea4ae8", "fusion_lat": 0.0, "type": "electric_scooter", "lat": 38.91179916666667, "is_reserved": 0, "is_disabled": 0, "fusion_lon": 0.0, "bike_id": "efc7e93b98ffd9ac6641f2df39ea4ae8", "lon": -77.0320515, "rental_uris": {"ios": "https://dc.lft.to/lastmile_qr_scan", "android": "https://dc.lft.to/lastmile_qr_scan"}}, {"name": "dafb0e4c4b39f2883ff594e23b6fc145", "fusion_lat": 0.0, "type": "electric_scooter", "lat": 38.92904383333333, "is_reserved": 0, "is_disabled": 0, "fusion_lon": 0.0, "bike_id": "dafb0e4c4b39f2883ff594e23b6fc145", "lon": -77.00524516666667, "rental_uris": {"ios": "https://dc.lft.to/lastmile_qr_scan", "android": "https://dc.lft.to/lastmile_qr_scan"}}, {"name": "43a2b333fb519b20ac584f6bc8277fb5", "fusion_lat": 0.0, "type": "electric_scooter", "lat": 38.915444, "is_reserved": 0, "is_disabled": 0, "fusion_lon": 0.0, "bike_id": "43a2b333fb519b20ac584f6bc8277fb5", "lon": -77.03852766666667, "rental_uris": {"ios": "https://dc.lft.to/lastmile_qr_scan", "android": "https://dc.lft.to/lastmile_qr_scan"}}, {"name": "3f8ce35402d3fa5b4aa2e70a11eaec22", "fusion_lat": 0.0, "type": "electric_scooter", "lat": 38.911961166666664, "is_reserved": 0, "is_disabled": 0, "fusion_lon": 0.0, "bike_id": "3f8ce35402d3fa5b4aa2e70a11eaec22", "lon": -77.03441016666666, "rental_uris": {"ios": "https://dc.lft.to/lastmile_qr_scan", "android": "https://dc.lft.to/lastmile_qr_scan"}}, {"name": "ff25f2f515945d3f5591078531c8327d", "fusion_lat": 0.0, "type": "electric_bike", "lat": 38.913115833333336, "is_reserved": 0, "is_disabled": 0, "fusion_lon": 0.0, "bike_id": "ff25f2f515945d3f5591078531c8327d", "lon": -76.97611316666666, "rental_uris": {"ios": "https://dc.lft.to/lastmile_qr_scan", "android": "https://dc.lft.to/lastmile_qr_scan"}}, {"name": "d01e13678c719a7659721c2b922f8625", "fusion_lat": 0.0, "type": "electric_scooter", "lat": 38.93874183333333, "is_reserved": 0, "is_disabled": 0, "fusion_lon": 0.0, "bike_id": "d01e13678c719a7659721c2b922f8625", "lon": -77.03259633333333, "rental_uris": {"ios": "https://dc.lft.to/lastmile_qr_scan", "android": "https://dc.lft.to/lastmile_qr_scan"}}, {"name": "61ec546b863519ae369c0acc5ed8bc7e", "fusion_lat": 0.0, "type": "electric_scooter", "lat": 38.898473333333335, "is_reserved": 0, "is_disabled": 0, "fusion_lon": 0.0, "bike_id": "61ec546b863519ae369c0acc5ed8bc7e", "lon": -77.01991333333334, "rental_uris": {"ios": "https://dc.lft.to/lastmile_qr_scan", "android": "https://dc.lft.to/lastmile_qr_scan"}},