{"data": {"bikes": [{"name": "eb6ee9e47f2c2e02724f438d9e93ce97", "fusion_lat": 0.0, "fusion_lon": 0.0, "bike_id": "eb6ee9e47f2c2e02724f438d9e93ce97", "rental_uris": {"ios": "https://dc.lft.to/lastmile_qr_scan", "android": "https://dc.lft.to/lastmile_qr_scan"}, "type": "electric_scooter", "lat": 38.91705283333334, "is_disabled": 0, "lon": -77.027762, "is_reserved": 0}, {"name": "80d1e7ddf6a0c994e14b1f205db1b3a4", "fusion_lat": 0.0, "fusion_lon": 0.0, "bike_id": "80d1e7ddf6a0c994e14b1f205db1b3a4", "rental_uris": {"ios": "https://dc.lft.to/lastmile_qr_scan", "android": "https://dc.lft.to/lastmile_qr_scan"}, "type": "electric_scooter", "lat": 38.901272, "is_disabled": 0, "lon": -77.03146266666667, "is_reserved": 0}, {"name": "207373c2231066e7e41c1bc0721423f0", "fusion_lat": 0.0, "fusion_lon": 0.0, "bike_id": "207373c2231066e7e41c1bc0721423f0", "rental_uris": {"ios": "https://dc.lft.to/lastmile_qr_scan", "android": "https://dc.lft.to/lastmile_qr_scan"}, "type": "electric_bike", "lat": 38.913569333333335, "is_disabled": 0, "lon": -77.0284965, "is_reserved": 0}, {"name": "13bfee2a0e447ab5bbe77216daaeba00", "fusion_lat": 0.0, "fusion_lon": 0.0, "bike_id": "13bfee2a0e447ab5bbe77216daaeba00", "rental_uris": {"ios": "https://dc.lft.to/lastmile_qr_scan", "android": "https://dc.lft.to/lastmile_qr_scan"}, "type": "electric_scooter", "lat": 38.967339333333335, "is_disabled": 0, "lon": -77.02761166666667, "is_reserved": 0}, {"name": "f19eab53f713511d8673f3f2d4d467a9", "fusion_lat": 0.0, "fusion_lon": 0.0, "bike_id": "f19eab53f713511d8673f3f2d4d467a9", "rental_uris": {"ios": "https://dc.lft.to/lastmile_qr_scan", "android": "https://dc.lft.to/lastmile_qr_scan"}, "type": "electric_scooter", "lat": 38.89732016666667, "is_disabled": 0, "lon": -77.0469495, "is_reserved": 0}, {"name": "872b60044075023f59c75f359c5f8af8", "fusion_lat": 0.0, "fusion_lon": 0.0, "bike_id": "872b60044075023f59c75f359c5f8af8", "rental_uris": {"ios": "https://dc.lft.to/lastmile_qr_scan", "android": "https://dc.lft.to/lastmile_qr_scan"}, "type": "electric_scooter", "lat": 38.92709266666667, "is_disabled": 0, "lon": -77.03728283333334, "is_reserved": 0}, {"name": "c613d27465ebc38b1e979236786245d5", "fusion_lat": 0.0, "fusion_lon": 0.0, "bike_id": "c613d27465ebc38b1e979236786245d5", "rental_uris": {"ios": "https://dc.lft.to/lastmile_qr_scan", "android": "https://dc.lft.to/lastmile_qr_scan"}, "type": "electric_scooter", "lat": 38.90744216666667, "is_disabled": 0, "lon": -77.0078495, "is_reserved": 0}, {"name": "bc9b79c8b1cf8c139677c9d9db4e1245", "fusion_lat": 0.0, "fusion_lon": 0.0, "bike_id": "bc9b79c8b1cf8c139677c9d9db4e1245", "rental_uris": {"ios": "https://dc.lft.to/lastmile_qr_scan", "android": "https://dc.lft.to/lastmile_qr_scan"}, "type": "electric_scooter", "lat": 38.92443316666667, "is_disabled": 0, "lon": -77.02608983333333, "is_reserved": 0}, {"name": "1a6c53e229a2b2797e75dfc9baf70530", "fusion_lat": 0.0, "fusion_lon": 0.0, "bike_id": "1a6c53e229a2b2797e75dfc9baf70530", "rental_uris": {"ios": "https://dc.lft.to/lastmile_qr_scan", "android": "https://dc.lft.to/lastmile_qr_scan"}, "type": "electric_scooter", "lat": 38.89655183333333, "is_disabled": 0, "lon": -77.05018783333334, "is_reserved": 0}, {"name": "e536d690f468df8aaa6101d34b823d27", "fusion_lat": 0.0, "fusion_lon": 0.0, "bike_id": "e536d690f468df8aaa6101d34b823d27", "rental_uris": {"ios": "https://dc.lft.to/lastmile_qr_scan", "android": "https://dc.lft.to/lastmile_qr_scan"}, "type": "electric_scooter", "lat": 38.933004, "is_disabled": 0, "lon": -77.028504, "is_reserved": 0}, {"name": "f51b2fe9add90f8af6f271a6ff20b68e", "fusion_lat": 0.0, "fusion_lon": 0.0, "bike_id": "f51b2fe9add90f8af6f271a6ff20b68e", "rental_uris": {"ios": "https://dc.lft.to/lastmile_qr_scan", "android": "https://dc.lft.to/lastmile_qr_scan"}, "type": "electric_scooter", "lat": 38.905306833333334, "is_disabled": 0, "lon": -77.05085, "is_reserved": 0}, {"name": "dad352c219d7e31b7fe0f227b296f59d", "fusion_lat": 0.0, "fusion_lon": 0.0, "bike_id": "dad352c219d7e31b7fe0f227b296f59d", "rental_uris": {"ios": "https://dc.lft.to/lastmile_qr_scan", "android": "https://dc.lft.to/lastmile_qr_scan"}, "type": "electric_scooter", "lat": 38.922362, "is_disabled": 0, "lon": -77.033498, "is_reserved": 0}, {"name": "bd0224685d274d02e66823c7a7b56088", "fusion_lat": 0.0, "fusion_lon": 0.0, "bike_id": "bd0224685d274d02e66823c7a7b56088", "rental_uris": {"ios": "https://dc.lft.to/lastmile_qr_scan", "android": "https://dc.lft.to/lastmile_qr_scan"}, "type": "electric_scooter", "lat": 38.9427735, "is_disabled": 0, "lon": -77.02941133333333, "is_reserved": 0}, {"name": "9e2ebab06841c75401da0f5aa65b3c3c", "fusion_lat": 0.0, "fusion_lon": 0.0, "bike_id": "9e2ebab06841c75401da0f5aa65b3c3c", "rental_uris": {"ios": "https://dc.lft.to/lastmile_qr_scan", "android": "https://dc.lft.to/lastmile_qr_scan"}, "type": "electric_scooter", "lat": 38.90906316666667, "is_disabled": 0, "lon": -77.04318633333334, "is_reserved": 0}, {"name": "231a118c5f2dca076c1538e14dd36119", "fusion_lat": 0.0, "fusion_lon": 0.0, "bike_id": "231a118c5f2dca076c1538e14dd36119", "rental_uris": {"ios": "https://dc.lft.to/lastmile_qr_scan", "android": "https://dc.lft.to/lastmile_qr_scan"}, "type": "electric_scooter", "lat": 38.897433, "is_disabled": 0, "lon": -77.04700433333333, "is_reserved": 0}, {"name": "1d91ae106b6f089745be36e61ea9df16", "fusion_lat": 0.0, "fusion_lon": 0.0, "bike_id": "1d91ae106b6f089745be36e61ea9df16", "rental_uris": {"ios": "https://dc.lft.to/lastmile_qr_scan", "android": "https://dc.lft.to/lastmile_qr_scan"}, "type": "electric_bike", "lat": 38.985638, "is_disabled": 0, "lon": -76.988293, "is_reserved": 0}, {"name": "dab900b5460eb1516aa0d6fd0981f29a", "fusion_lat": 0.0, "fusion_lon": 0.0, "bike_id": "dab900b5460eb1516aa0d6fd0981f29a", "rental_uris": {"ios": "https://dc.lft.to/lastmile_qr_scan", "android": "https://dc.lft.to/lastmile_qr_scan"}, "type": "electric_scooter", "lat": 38.900793, "is_disabled": 0, "lon": -77.01304283333333, "is_reserved": 0}, {"name": "52671e947e9fd343e93186e14e92c6c1", "fusion_lat": 0.0, "fusion_lon": 0.0, "bike_id": "52671e947e9fd343e93186e14e92c6c1", "rental_uris": {"ios": "https://dc.lft.to/lastmile_qr_scan", "android": "https://dc.lft.to/lastmile_qr_scan"}, "type": "electric_bike", "lat": 39.02999483333333, "is_disabled": 0, "lon": -77.10654333333333, "is_reserved": 0}, {"name": "eb282856a5d30a03931a7d7ab807d4cc", "fusion_lat": 0.0, "fusion_lon": 0.0, "bike_id": "eb282856a5d30a03931a7d7ab807d4cc", "rental_uris": {"ios": "https://dc.lft.to/lastmile_qr_scan", "android": "https://dc.lft.to/lastmile_qr_scan"}, "type": "electric_scooter", "lat": 38.842941, "is_disabled": 0, "lon": -76.99947083333333, "is_reserved": 0}, {"name": "8819bfc219214f9fa1eb310423b269d7", "fusion_lat": 0.0, "fusion_lon": 0.0, "bike_id": "8819bfc219214f9fa1eb310423b269d7", "rental_uris": {"ios": "https://dc.lft.to/lastmile_qr_scan", "android": "https://dc.lft.to/lastmile_qr_scan"}, "type": "electric_scooter", "lat": 38.91679216666667, "is_disabled": 0, "lon": -76.98065066666666, "is_reserved": 0}, {"name": "a2060709130a5e2813d3f1b2cc83fbd9", "fusion_lat": 0.0, "fusion_lon": 0.0, "bike_id": "a2060709130a5e2813d3f1b2cc83fbd9", "rental_uris": {"ios": "https://dc.lft.to/lastmile_qr_scan", "android": "https://dc.lft.to/lastmile_qr_scan"}, "type": "electric_scooter", "lat": 38.896060166666665, "is_disabled": 0, "lon": -77.00925316666667, "is_reserved": 0}, {"name": "2c513fea94ca3ae822a15dcf7ec34fcd", "fusion_lat": 0.0, "fusion_lon": 0.0, "bike_id": "2c513fea94ca3ae822a15dcf7ec34fcd", "rental_uris": {"ios": "https://dc.lft.to/lastmile_qr_scan", "android": "https://dc.lft.to/lastmile_qr_scan"}, "type": "electric_scooter", "lat": 38.900575833333335, "is_disabled": 0, "lon": -77.00206616666667, "is_reserved": 0}, {"name": "c252da8398578d05cc7e01b7dbc0d5b1", "fusion_lat": 0.0, "fusion_lon": 0.0, "bike_id": "c252da8398578d05cc7e01b7dbc0d5b1", "rental_uris": {"ios": "https://dc.lft.to/lastmile_qr_scan", "android": "https://dc.lft.to/lastmile_qr_scan"}, "type": "electric_scooter", "lat": 38.9541855, "is_disabled": 0, "lon": -77.02844766666666, "is_reserved": 0}, {"name": "ad093632a8ffd643ed264aeb57c34e6e", "fusion_lat": 0.0, "fusion_lon": 0.0, "bike_id": "ad093632a8ffd643ed264aeb57c34e6e", "rental_uris": {"ios": "https://dc.lft.to/lastmile_qr_scan", "android": "https://dc.lft.to/lastmile_qr_scan"}, "type": "electric_scooter", "lat": 38.915653, "is_disabled": 0, "lon": -77.02307983333333, "is_reserved": 0}, {"name": "dd7a7d466d321213f5e0bafe04e4ea8b", "fusion_lat": 0.0, "fusion_lon": 0.0, "bike_id": "dd7a7d466d321213f5e0bafe04e4ea8b", "rental_uris": {"ios": "https://dc.lft.to/lastmile_qr_scan", "android": "https://dc.lft.to/lastmile_qr_scan"}, "type": "electric_bike", "lat": 38.925943, "is_disabled": 0, "lon": -76.88908366666666, "is_reserved": 0}, {"name": "4573a617750b45320963dbc7da15ed9f", "fusion_lat": 0.0, "fusion_lon": 0.0, "bike_id": "4573a617750b45320963dbc7da15ed9f", "rental_uris": {"ios": "https://dc.lft.to/lastmile_qr_scan", "android": "https://dc.lft.to/lastmile_qr_scan"}, "type": "electric_scooter", "lat": 38.91511416666667, "is_disabled": 0, "lon": -77.01564933333333, "is_reserved": 0}, {"name": "15541d3b6e3c89d567694e35672e63eb", "fusion_lat": 0.0, "fusion_lon": 0.0, "bike_id": "15541d3b6e3c89d567694e35672e63eb", "rental_uris": {"ios": "https://dc.lft.to/lastmile_qr_scan", "android": "https://dc.lft.to/lastmile_qr_scan"}, "type": "electric_bike", "lat": 38.892357833333335, "is_disabled": 0, "lon": -76.95223716666666, "is_reserved": 0}, {"name": "ebdf81b406734a8ca3cf2b2d1921d5d4", "fusion_lat": 0.0, "fusion_lon": 0.0, "bike_id": "ebdf81b406734a8ca3cf2b2d1921d5d4", "rental_uris": {"ios": "https://dc.lft.to/lastmile_qr_scan", "android": "https://dc.lft.to/lastmile_qr_scan"}, "type": "electric_scooter", "lat": 38.928068, "is_disabled": 0, "lon": -77.01417466666666, "is_reserved": 0}, {"name": "ae03b69f351c3ee7bb075d77a35118dd", "fusion_lat": 0.0, "fusion_lon": 0.0, "bike_id": "ae03b69f351c3ee7bb075d77a35118dd", "rental_uris": {"ios": "https://dc.lft.to/lastmile_qr_scan", "android": "https://dc.lft.to/lastmile_qr_scan"}, "type": "electric_bike", "lat": 38.97678883333333, "is_disabled": 0, "lon": -76.97169183333334, "is_reserved": 0}, {"name": "a1597ba5874c6c9c1f38f460e1eae29b", "fusion_lat": 0.0, "fusion_lon": 0.0, "bike_id": "a1597ba5874c6c9c1f38f460e1eae29b", "rental_uris": {"ios": "https://dc.lft.to/lastmile_qr_scan", "android": "https://dc.lft.to/lastmile_qr_scan"}, "type": "electric_scooter", "lat": 38.924838333333334, "is_disabled": 0, "lon": -77.02723316666666, "is_reserved": 0}, {"name": "8ebe63590e2e5958ec27806a1f4cc93a", "fusion_lat": 0.0, "fusion_lon": 0.0, "bike_id": "8ebe63590e2e5958ec27806a1f4cc93a", "rental_uris": {"ios": "https://dc.lft.to/lastmile_qr_scan", "android": "https://dc.lft.to/lastmile_qr_scan"}, "type": "electric_scooter", "lat": 38.899192666666664, "is_disabled": 0, "lon": -77.05421566666666, "is_reserved": 0}, {"name": "179be4c60bcab29bcca7c2e7b12b9988", "fusion_lat": 0.0, "fusion_lon": 0.0, "bike_id": "179be4c60bcab29bcca7c2e7b12b9988", "rental_uris": {"ios": "https://dc.lft.to/lastmile_qr_scan", "android": "https://dc.lft.to/lastmile_qr_scan"}, "type": "electric_scooter", "lat": 38.8973685, "is_disabled": 0, "lon": -77.0037465, "is_reserved": 0}, {"name": "33bf8325a8d093096dbc105970387888", "fusion_lat": 0.0, "fusion_lon": 0.0, "bike_id": "33bf8325a8d093096dbc105970387888", "rental_uris": {"ios": "https://dc.lft.to/lastmile_qr_scan", "android": "https://dc.lft.to/lastmile_qr_scan"}, "type": "electric_scooter", "lat": 38.905860833333335, "is_disabled": 0, "lon": -77.05166016666666, "is_reserved": 0}, {"name": "b57118d70657921b39415f8e475b6c30", "fusion_lat": 0.0, "fusion_lon": 0.0, "bike_id": "b57118d70657921b39415f8e475b6c30", "rental_uris": {"ios": "https://dc.lft.to/lastmile_qr_scan", "android": "https://dc.lft.to/lastmile_qr_scan"}, "type": "electric_scooter", "lat": 38.866828166666664, "is_disabled": 0, "lon": -77.01223316666666, "is_reserved": 0}, {"name": "bbd0b969bce9a42e4e210e5e9165c100", "fusion_lat": 0.0, "fusion_lon": 0.0, "bike_id": "bbd0b969bce9a42e4e210e5e9165c100", "rental_uris": {"ios": "https://dc.lft.to/lastmile_qr_scan", "android": "https://dc.lft.to/lastmile_qr_scan"}, "type": "electric_scooter", "lat": 38.9044865, "is_disabled": 0, "lon": -77.0257275, "is_reserved": 0}, {"name": "c6f130c459b01206d1da70fad37d53c9", "fusion_lat": 0.0, "fusion_lon": 0.0, "bike_id": "c6f130c459b01206d1da70fad37d53c9", "rental_uris": {"ios": "https://dc.lft.to/lastmile_qr_scan", "android": "https://dc.lft.to/lastmile_qr_scan"}, "type": "electric_bike", "lat": 38.924462, "is_disabled": 0, "lon": -76.96837466666666, "is_reserved": 0}, {"name": "a191b2bc990eee04abb618203756caf2", "fusion_lat": 0.0, "fusion_lon": 0.0, "bike_id": "a191b2bc990eee04abb618203756caf2", "rental_uris": {"ios": "https://dc.lft.to/lastmile_qr_scan", "android": "https://dc.lft.to/lastmile_qr_scan"}, "type": "electric_scooter", "lat": 38.9558765, "is_disabled": 0, "lon": -77.03649283333333, "is_reserved": 0}, {"name": "c6a05d1592ad3590cafdb88a520b2d05", "fusion_lat": 0.0, "fusion_lon": 0.0, "bike_id": "c6a05d1592ad3590cafdb88a520b2d05", "rental_uris": {"ios": "https://dc.lft.to/lastmile_qr_scan", "android": "https://dc.lft.to/lastmile_qr_scan"}, "type": "electric_scooter", "lat": 38.918461666666666, "is_disabled": 0, "lon": -77.0322025, "is_reserved": 0}, {"name": "54a8bc8e80a0474e2090b837a42edf1f", "fusion_lat": 0.0, "fusion_lon": 0.0, "bike_id": "54a8bc8e80a0474e2090b837a42edf1f", "rental_uris": {"ios": "https://dc.lft.to/lastmile_qr_scan", "android": "https://dc.lft.to/lastmile_qr_scan"}, "type": "electric_bike", "lat": 39.10567433333333, "is_disabled": 0, "lon": -77.15268516666667, "is_reserved": 0}, {"name": "0037c346bb96065793fb0ecc2aebc515", "fusion_lat": 0.0, "fusion_lon": 0.0, "bike_id": "0037c346bb96065793fb0ecc2aebc515", "rental_uris": {"ios": "https://dc.lft.to/lastmile_qr_scan", "android": "https://dc.lft.to/lastmile_qr_scan"}, "type": "electric_scooter", "lat": 38.88428533333333, "is_disabled": 0, "lon": -77.02795383333333, "is_reserved": 0}, {"name": "5e46e9f1a7b2924e90ff6c2798f8a41c", "fusion_lat": 0.0, "fusion_lon": 0.0, "bike_id": "5e46e9f1a7b2924e90ff6c2798f8a41c", "rental_uris": {"ios": "https://dc.lft.to/lastmile_qr_scan", "android": "https://dc.lft.to/lastmile_qr_scan"}, "type": "electric_scooter", "lat": 38.9167725, "is_disabled": 0, "lon": -77.04196966666666, "is_reserved": 0}, {"name": "59af9db88715d680d815716d0f408a9e", "fusion_lat": 0.0, "fusion_lon": 0.0, "bike_id": "59af9db88715d680d815716d0f408a9e", "rental_uris": {"ios": "https://dc.lft.to/lastmile_qr_scan", "android": "https://dc.lft.to/lastmile_qr_scan"}, "type": "electric_scooter", "lat": 38.90145966666667, "is_disabled": 0, "lon": -77.03994533333334, "is_reserved": 0}, {"name": "b5f8e82022587151553fd004a5931f09", "fusion_lat": 0.0, "fusion_lon": 0.0, "bike_id": "b5f8e82022587151553fd004a5931f09", "rental_uris": {"ios": "https://dc.lft.to/lastmile_qr_scan", "android": "https://dc.lft.to/lastmile_qr_scan"}, "type": "electric_scooter", "lat": 38.89945016666667, "is_disabled": 0, "lon": -77.016818, "is_reserved": 0}, {"name": "fcd880a2fe8935582d6c2a3f06ef6ac4", "fusion_lat": 0.0, "fusion_lon": 0.0, "bike_id": "fcd880a2fe8935582d6c2a3f06ef6ac4", "rental_uris": {"ios": "https://dc.lft.to/lastmile_qr_scan", "android": "https://dc.lft.to/lastmile_qr_scan"}, "type": "electric_scooter", "lat": 38.91709983333333, "is_disabled": 0, "lon": -77.027189, "is_reserved": 0}, {"name": "1777adeb70994aba1f443c3b3cea5bc1", "fusion_lat": 0.0, "fusion_lon": 0.0, "bike_id": "1777adeb70994aba1f443c3b3cea5bc1", "rental_uris": {"ios": "https://dc.lft.to/lastmile_qr_scan", "android": "https://dc.lft.to/lastmile_qr_scan"}, "type": "electric_scooter", "lat": 38.899958833333336, "is_disabled": 0, "lon": -77.0150295, "is_reserved": 0}, {"name": "8dbb4ec768abdc7d50e159ab9e30d784", "fusion_lat": 0.0, "fusion_lon": 0.0, "bike_id": "8dbb4ec768abdc7d50e159ab9e30d784", "rental_uris": {"ios": "https://dc.lft.to/lastmile_qr_scan", "android": "https://dc.lft.to/lastmile_qr_scan"}, "type": "electric_bike", "lat": 38.88178383333333, "is_disabled": 0, "lon": -77.11525816666666, "is_reserved": 0}, {"name": "4e1f4d4cca807348440964155c5ba963", "fusion_lat": 0.0, "fusion_lon": 0.0, "bike_id": "4e1f4d4cca807348440964155c5ba963", "rental_uris": {"ios": "https://dc.lft.to/lastmile_qr_scan", "android": "https://dc.lft.to/lastmile_qr_scan"}, "type": "electric_scooter", "lat": 38.89353066666666, "is_disabled": 0, "lon": -76.98469366666667, "is_reserved": 0}, {"name": "0c36a0c210553f9ec0b1598c09f3ec8f", "fusion_lat": 0.0, "fusion_lon": 0.0, "bike_id": "0c36a0c210553f9ec0b1598c09f3ec8f", "rental_uris": {"ios": "https://dc.lft.to/lastmile_qr_scan", "android": "https://dc.lft.to/lastmile_qr_scan"}, "type": "electric_scooter", "lat": 38.918186166666665, "is_disabled": 0, "lon": -77.02471116666666, "is_reserved": 0}, {"name": "0ca2583333366d56adf4f00919326a44", "fusion_lat": 0.0, "fusion_lon": 0.0, "bike_id": "0ca2583333366d56adf4f00919326a44", "rental_uris": {"ios": "https://dc.lft.to/lastmile_qr_scan", "android": "https://dc.lft.to/lastmile_qr_scan"}, "type": "electric_scooter", "lat": 38.908084333333335, "is_disabled": 0, "lon": -77.03396216666667, "is_reserved": 0}, {"name": "463796f370e17ee21e6ae7d1051726f5", "fusion_lat": 0.0, "fusion_lon": 0.0, "bike_id": "463796f370e17ee21e6ae7d1051726f5", "rental_uris": {"ios": "https://dc.lft.to/lastmile_qr_scan", "android": "https://dc.lft.to/lastmile_qr_scan"}, "type": "electric_scooter", "lat": 38.901196666666664, "is_disabled": 0, "lon": -76.99150633333333, "is_reserved": 0}, {"name": "171efa4d5e7e3726bb92ca4b9b897032", "fusion_lat": 0.0, "fusion_lon": 0.0, "bike_id": "171efa4d5e7e3726bb92ca4b9b897032", "rental_uris": {"ios": "https://dc.lft.to/lastmile_qr_scan", "android": "https://dc.lft.to/lastmile_qr_scan"}, "type": "electric_scooter", "lat": 38.88748366666667, "is_disabled": 0, "lon": -77.0222705, "is_reserved": 0}, {"name": "17f9450ba28307ba52ca271e155260fa", "fusion_lat": 0.0, "fusion_lon": 0.0, "bike_id": "17f9450ba28307ba52ca271e155260fa", "rental_uris": {"ios": "https://dc.lft.to/lastmile_qr_scan", "android": "https://dc.lft.to/lastmile_qr_scan"}, "type": "electric_scooter", "lat": 38.91558116666667, "is_disabled": 0, "lon": -77.007331, "is_reserved": 0}, {"name": "752e44c502bed8c056cf050088a43323", "fusion_lat": 0.0, "fusion_lon": 0.0, "bike_id": "752e44c502bed8c056cf050088a43323", "rental_uris": {"ios": "https://dc.lft.to/lastmile_qr_scan", "android": "https://dc.lft.to/lastmile_qr_scan"}, "type": "electric_bike", "lat": 39.05812733333333, "is_disabled": 0, "lon": -77.126275, "is_reserved": 0}, {"name": "d75baac4e6b0ff2585236b10bfccdf66", "fusion_lat": 0.0, "fusion_lon": 0.0, "bike_id": "d75baac4e6b0ff2585236b10bfccdf66", "rental_uris": {"ios": "https://dc.lft.to/lastmile_qr_scan", "android": "https://dc.lft.to/lastmile_qr_scan"}, "type": "electric_scooter", "lat": 38.893569, "is_disabled": 0, "lon": -77.00338216666667, "is_reserved": 0}, {"name": "439b6af07028249d156292eb282b1ac2", "fusion_lat": 0.0, "fusion_lon": 0.0, "bike_id": "439b6af07028249d156292eb282b1ac2", "rental_uris": {"ios": "https://dc.lft.to/lastmile_qr_scan", "android": "https://dc.lft.to/lastmile_qr_scan"}, "type": "electric_scooter", "lat": 38.90517116666667, "is_disabled": 0, "lon": -77.061537, "is_reserved": 0}, {"name": "8984fb1e851857a2cc6ca7714804dbd9", "fusion_lat": 0.0, "fusion_lon": 0.0, "bike_id": "8984fb1e851857a2cc6ca7714804dbd9", "rental_uris": {"ios": "https://dc.lft.to/lastmile_qr_scan", "android": "https://dc.lft.to/lastmile_qr_scan"}, "type": "electric_bike", "lat": 38.91157616666667, "is_disabled": 0, "lon": -77.00266283333333, "is_reserved": 0}, {"name": "2e51665f390aee4c6a39203a10a79293", "fusion_lat": 0.0, "fusion_lon": 0.0, "bike_id": "2e51665f390aee4c6a39203a10a79293", "rental_uris": {"ios": "https://dc.lft.to/lastmile_qr_scan", "android": "https://dc.lft.to/lastmile_qr_scan"}, "type": "electric_scooter", "lat": 38.92969433333333, "is_disabled": 0, "lon": -77.0053165, "is_reserved": 0}, {"name": "315297c4d2558bc85d39e37f092d6119", "fusion_lat": 0.0, "fusion_lon": 0.0, "bike_id": "315297c4d2558bc85d39e37f092d6119", "rental_uris": {"ios": "https://dc.lft.to/lastmile_qr_scan", "android": "https://dc.lft.to/lastmile_qr_scan"}, "type": "electric_scooter", "lat": 38.892170166666666, "is_disabled": 0, "lon": -77.029831, "is_reserved": 0}, {"name": "6f99b14e1b0641526f34e2f9fb26a751", "fusion_lat": 0.0, "fusion_lon": 0.0, "bike_id": "6f99b14e1b0641526f34e2f9fb26a751", "rental_uris": {"ios": "https://dc.lft.to/lastmile_qr_scan", "android": "https://dc.lft.to/lastmile_qr_scan"}, "type": "electric_scooter", "lat": 38.904169333333336, "is_disabled": 0, "lon": -77.02414766666666, "is_reserved": 0}, {"name": "e871f3e901c44f667abd79e9b47c65c0", "fusion_lat": 0.0, "fusion_lon": 0.0, "bike_id": "e871f3e901c44f667abd79e9b47c65c0", "rental_uris": {"ios": "https://dc.lft.to/lastmile_qr_scan", "android": "https://dc.lft.to/lastmile_qr_scan"}, "type": "electric_scooter", "lat": 38.88751033333333, "is_disabled": 0, "lon": -77.02125883333333, "is_reserved": 0}, {"name": "1e8c70b5bd2ffda5577272fdc671fdd3", "fusion_lat": 0.0, "fusion_lon": 0.0, "bike_id": "1e8c70b5bd2ffda5577272fdc671fdd3", "rental_uris": {"ios": "https://dc.lft.to/lastmile_qr_scan", "android": "https://dc.lft.to/lastmile_qr_scan"}, "type": "electric_scooter", "lat": 38.89970183333333, "is_disabled": 0, "lon": -77.02753866666667, "is_reserved": 0}, {"name": "96ef08f367eabfe6478181ff63a3f689", "fusion_lat": 0.0, "fusion_lon": 0.0, "bike_id": "96ef08f367eabfe6478181ff63a3f689", "rental_uris": {"ios": "https://dc.lft.to/lastmile_qr_scan", "android": "https://dc.lft.to/lastmile_qr_scan"}, "type": "electric_bike", "lat": 38.86536916666667, "is_disabled": 0, "lon": -77.128143, "is_reserved": 0}, {"name": "043286aadf6b38ddc01bd7a0000631a1", "fusion_lat": 0.0, "fusion_lon": 0.0, "bike_id": "043286aadf6b38ddc01bd7a0000631a1", "rental_uris": {"ios": "https://dc.lft.to/lastmile_qr_scan", "android": "https://dc.lft.to/lastmile_qr_scan"}, "type": "electric_scooter", "lat": 38.908503, "is_disabled": 0, "lon": -77.02382466666667, "is_reserved": 0}, {"name": "ac73918b36c4ea3d88f91cc09b3bb0df", "fusion_lat": 0.0, "fusion_lon": 0.0, "bike_id": "ac73918b36c4ea3d88f91cc09b3bb0df", "rental_uris": {"ios": "https://dc.lft.to/lastmile_qr_scan", "android": "https://dc.lft.to/lastmile_qr_scan"}, "type": "electric_scooter", "lat": 38.89719133333333, "is_disabled": 0, "lon": -77.03028833333333, "is_reserved": 0}, {"name": "9c030e1bfdcbade434f981402397b0fe", "fusion_lat": 0.0, "fusion_lon": 0.0, "bike_id": "9c030e1bfdcbade434f981402397b0fe", "rental_uris": {"ios": "https://dc.lft.to/lastmile_qr_scan", "android": "https://dc.lft.to/lastmile_qr_scan"}, "type": "electric_scooter", "lat": 38.863561, "is_disabled": 0, "lon": -76.99051833333333, "is_reserved": 0}, {"name": "929e350d61dca8b56edc0d4539dd3ccd", "fusion_lat": 0.0, "fusion_lon": 0.0, "bike_id": "929e350d61dca8b56edc0d4539dd3ccd", "rental_uris": {"ios": "https://dc.lft.to/lastmile_qr_scan", "android": "https://dc.lft.to/lastmile_qr_scan"}, "type": "electric_scooter", "lat": 38.92284133333333, "is_disabled": 0, "lon": -77.04462733333334, "is_reserved": 0}, {"name": "33e3e8610d0cf7c8db46778f4f6ae0c0", "fusion_lat": 0.0, "fusion_lon": 0.0, "bike_id": "33e3e8610d0cf7c8db46778f4f6ae0c0", "rental_uris": {"ios": "https://dc.lft.to/lastmile_qr_scan", "android": "https://dc.lft.to/lastmile_qr_scan"}, "type": "electric_bike", "lat": 38.82444433333333, "is_disabled": 0, "lon": -77.07046916666667, "is_reserved": 0}, {"name": "b5cd2365cfbc9a612b81bb1df8717a8b", "fusion_lat": 0.0, "fusion_lon": 0.0, "bike_id": "b5cd2365cfbc9a612b81bb1df8717a8b", "rental_uris": {"ios": "https://dc.lft.to/lastmile_qr_scan", "android": "https://dc.lft.to/lastmile_qr_scan"}, "type": "electric_scooter", "lat": 38.92585, "is_disabled": 0, "lon": -77.03061016666666, "is_reserved": 0}, {"name": "27ded828b226cc56079c3f3d4ba3cd79", "fusion_lat": 0.0, "fusion_lon": 0.0, "bike_id": "27ded828b226cc56079c3f3d4ba3cd79", "rental_uris": {"ios": "https://dc.lft.to/lastmile_qr_scan", "android": "https://dc.lft.to/lastmile_qr_scan"}, "type": "electric_scooter", "lat": 38.92272066666666, "is_disabled": 0, "lon": -77.04214, "is_reserved": 0}, {"name": "cfa238a0f5f02c0dc755d295602d0b5e", "fusion_lat": 0.0, "fusion_lon": 0.0, "bike_id": "cfa238a0f5f02c0dc755d295602d0b5e", "rental_uris": {"ios": "https://dc.lft.to/lastmile_qr_scan", "android": "https://dc.lft.to/lastmile_qr_scan"}, "type": "electric_scooter", "lat": 38.902010833333335, "is_disabled": 0, "lon": -77.0548135, "is_reserved": 0}, {"name": "5c8590afe70d77f5bb2c393242240d2e", "fusion_lat": 0.0, "fusion_lon": 0.0, "bike_id": "5c8590afe70d77f5bb2c393242240d2e", "rental_uris": {"ios": "https://dc.lft.to/lastmile_qr_scan", "android": "https://dc.lft.to/lastmile_qr_scan"}, "type": "electric_bike", "lat": 38.9500105, "is_disabled": 0, "lon": -77.35307866666666, "is_reserved": 0}, {"name": "42c73fc9a308b741da3224addfc7f47a", "fusion_lat": 0.0, "fusion_lon": 0.0, "bike_id": "42c73fc9a308b741da3224addfc7f47a", "rental_uris": {"ios": "https://dc.lft.to/lastmile_qr_scan", "android": "https://dc.lft.to/lastmile_qr_scan"}, "type": "electric_scooter", "lat": 38.9121475, "is_disabled": 0, "lon": -77.03854266666667, "is_reserved": 0}, {"name": "66d5162d18fb4464e793c57a56be5d7f", "fusion_lat": 0.0, "fusion_lon": 0.0, "bike_id": "66d5162d18fb4464e793c57a56be5d7f", "rental_uris": {"ios": "https://dc.lft.to/lastmile_qr_scan", "android": "https://dc.lft.to/lastmile_qr_scan"}, "type": "electric_scooter", "lat": 38.901294166666666, "is_disabled": 0, "lon": -77.0441985, "is_reserved": 0}, {"name": "8bfc40b64ae045c563d69cb7ac7727e4", "fusion_lat": 0.0, "fusion_lon": 0.0, "bike_id": "8bfc40b64ae045c563d69cb7ac7727e4", "rental_uris": {"ios": "https://dc.lft.to/lastmile_qr_scan", "android": "https://dc.lft.to/lastmile_qr_scan"}, "type": "electric_scooter", "lat": 38.898579, "is_disabled": 0, "lon": -77.016115, "is_reserved": 0}, {"name": "6a3b316b80844bb8cfc09926b5391947", "fusion_lat": 0.0, "fusion_lon": 0.0, "bike_id": "6a3b316b80844bb8cfc09926b5391947", "rental_uris": {"ios": "https://dc.lft.to/lastmile_qr_scan", "android": "https://dc.lft.to/lastmile_qr_scan"}, "type": "electric_scooter", "lat": 38.9157635, "is_disabled": 0, "lon": -77.0467685, "is_reserved": 0}, {"name": "aa984d03b25a0c02f8506d79cd3907b8", "fusion_lat": 0.0, "fusion_lon": 0.0, "bike_id": "aa984d03b25a0c02f8506d79cd3907b8", "rental_uris": {"ios": "https://dc.lft.to/lastmile_qr_scan", "android": "https://dc.lft.to/lastmile_qr_scan"}, "type": "electric_scooter", "lat": 38.92461433333333, "is_disabled": 0, "lon": -76.99737266666666, "is_reserved": 0}, {"name": "c8b03c58c1bb17280b3589a1deffb49d", "fusion_lat": 0.0, "fusion_lon": 0.0, "bike_id": "c8b03c58c1bb17280b3589a1deffb49d", "rental_uris": {"ios": "https://dc.lft.to/lastmile_qr_scan", "android": "https://dc.lft.to/lastmile_qr_scan"}, "type": "electric_scooter", "lat": 38.93910016666667, "is_disabled": 0, "lon": -77.02491133333334, "is_reserved": 0}, {"name": "bcd6a5f9de3b70eb28226dfdeca36b2a", "fusion_lat": 0.0, "fusion_lon": 0.0, "bike_id": "bcd6a5f9de3b70eb28226dfdeca36b2a", "rental_uris": {"ios": "https://dc.lft.to/lastmile_qr_scan", "android": "https://dc.lft.to/lastmile_qr_scan"}, "type": "electric_scooter", "lat": 38.92613816666667, "is_disabled": 0, "lon": -77.02162366666667, "is_reserved": 0}, {"name": "1b66a5468fc305f38cc4ba17efbef1e8", "fusion_lat": 0.0, "fusion_lon": 0.0, "bike_id": "1b66a5468fc305f38cc4ba17efbef1e8", "rental_uris": {"ios": "https://dc.lft.to/lastmile_qr_scan", "android": "https://dc.lft.to/lastmile_qr_scan"}, "type": "electric_scooter", "lat": 38.91022533333334, "is_disabled": 0, "lon": -77.03639366666667, "is_reserved": 0}, {"name": "69782115f15dda0ba4093d8e242268bf", "fusion_lat": 0.0, "fusion_lon": 0.0, "bike_id": "69782115f15dda0ba4093d8e242268bf", "rental_uris": {"ios": "https://dc.lft.to/lastmile_qr_scan", "android": "https://dc.lft.to/lastmile_qr_scan"}, "type": "electric_bike", "lat": 38.887173, "is_disabled": 0, "lon": -77.13317533333333, "is_reserved": 0}, {"name": "b635c41df2d90c49d9ed13234444bc3c", "fusion_lat": 0.0, "fusion_lon": 0.0, "bike_id": "b635c41df2d90c49d9ed13234444bc3c", "rental_uris": {"ios": "https://dc.lft.to/lastmile_qr_scan", "android": "https://dc.lft.to/lastmile_qr_scan"}, "type": "electric_bike", "lat": 38.9705985, "is_disabled": 0, "lon": -76.960649, "is_reserved": 0}, {"name": "a4ad1cc415ce32049f4931275ecf0853", "fusion_lat": 0.0, "fusion_lon": 0.0, "bike_id": "a4ad1cc415ce32049f4931275ecf0853", "rental_uris": {"ios": "https://dc.lft.to/lastmile_qr_scan", "android": "https://dc.lft.to/lastmile_qr_scan"}, "type": "electric_scooter", "lat": 38.905668, "is_disabled": 0, "lon": -77.00782083333333, "is_reserved": 0}, {"name": "4f2a56b376337af8b7233d3b0a43dcd3", "fusion_lat": 0.0, "fusion_lon": 0.0, "bike_id": "4f2a56b376337af8b7233d3b0a43dcd3", "rental_uris": {"ios": "https://dc.lft.to/lastmile_qr_scan", "android": "https://dc.lft.to/lastmile_qr_scan"}, "type": "electric_scooter", "lat": 38.90473133333333, "is_disabled": 0, "lon": -77.04041483333333, "is_reserved": 0}, {"name": "c15bd0c28aef9cc9b1f6e10ca0c9927e", "fusion_lat": 0.0, "fusion_lon": 0.0, "bike_id": "c15bd0c28aef9cc9b1f6e10ca0c9927e", "rental_uris": {"ios": "https://dc.lft.to/lastmile_qr_scan", "android": "https://dc.lft.to/lastmile_qr_scan"}, "type": "electric_scooter", "lat": 38.9120685, "is_disabled": 0, "lon": -76.98486416666667, "is_reserved": 0}, {"name": "e8daaca3a1205dceff768bb51f6891d3", "fusion_lat": 0.0, "fusion_lon": 0.0, "bike_id": "e8daaca3a1205dceff768bb51f6891d3", "rental_uris": {"ios": "https://dc.lft.to/lastmile_qr_scan", "android": "https://dc.lft.to/lastmile_qr_scan"}, "type": "electric_scooter", "lat": 38.90134116666667, "is_disabled": 0, "lon": -77.03954033333333, "is_reserved": 0}, {"name": "f778322c2a3b98ead54305d59a9cac3c", "fusion_lat": 0.0, "fusion_lon": 0.0, "bike_id": "f778322c2a3b98ead54305d59a9cac3c", "rental_uris": {"ios": "https://dc.lft.to/lastmile_qr_scan", "android": "https://dc.lft.to/lastmile_qr_scan"}, "type": "electric_scooter", "lat": 38.89187066666667, "is_disabled": 0, "lon": -77.03166366666666, "is_reserved": 0}, {"name": "fc699ac509f366142b36848e34fb3ede", "fusion_lat": 0.0, "fusion_lon": 0.0, "bike_id": "fc699ac509f366142b36848e34fb3ede", "rental_uris": {"ios": "https://dc.lft.to/lastmile_qr_scan", "android": "https://dc.lft.to/lastmile_qr_scan"}, "type": "electric_scooter", "lat": 38.9072875, "is_disabled": 0, "lon": -77.0236915, "is_reserved": 0}, {"name": "ec7a115142d26d2b4fc9460f716e3408", "fusion_lat": 0.0, "fusion_lon": 0.0, "bike_id": "ec7a115142d26d2b4fc9460f716e3408", "rental_uris": {"ios": "https://dc.lft.to/lastmile_qr_scan", "android": "https://dc.lft.to/lastmile_qr_scan"}, "type": "electric_scooter", "lat": 38.92176633333333, "is_disabled": 0, "lon": -77.04371883333333, "is_reserved": 0}, {"name": "b509a9c4d2b23194d255d874362c4c8e", "fusion_lat": 0.0, "fusion_lon": 0.0, "bike_id": "b509a9c4d2b23194d255d874362c4c8e", "rental_uris": {"ios": "https://dc.lft.to/lastmile_qr_scan", "android": "https://dc.lft.to/lastmile_qr_scan"}, "type": "electric_scooter", "lat": 38.886819, "is_disabled": 0, "lon": -77.0009865, "is_reserved": 0}, {"name": "23bc4847554bf8292ae40ac1520c5a07", "fusion_lat": 0.0, "fusion_lon": 0.0, "bike_id": "23bc4847554bf8292ae40ac1520c5a07", "rental_uris": {"ios": "https://dc.lft.to/lastmile_qr_scan", "android": "https://dc.lft.to/lastmile_qr_scan"}, "type": "electric_scooter", "lat": 38.890597, "is_disabled": 0, "lon": -77.03208333333333, "is_reserved": 0}, {"name": "697096e6a7ebf2f2b2746cc86c7c85ee", "fusion_lat": 0.0, "fusion_lon": 0.0, "bike_id": "697096e6a7ebf2f2b2746cc86c7c85ee", "rental_uris": {"ios": "https://dc.lft.to/lastmile_qr_scan", "android": "https://dc.lft.to/lastmile_qr_scan"}, "type": "electric_scooter", "lat": 38.90017516666666, "is_disabled": 0, "lon": -76.99596683333333, "is_reserved": 0}, {"name": "1b5b395b70fc606edeb2b217cf314f8e", "fusion_lat": 0.0, "fusion_lon": 0.0, "bike_id": "1b5b395b70fc606edeb2b217cf314f8e", "rental_uris": {"ios": "https://dc.lft.to/lastmile_qr_scan", "android": "https://dc.lft.to/lastmile_qr_scan"}, "type": "electric_scooter", "lat": 38.91840066666666, "is_disabled": 0, "lon": -76.96553366666667, "is_reserved": 0}, {"name": "54c89960fba52d03d53bd8ab40ab3d98", "fusion_lat": 0.0, "fusion_lon": 0.0, "bike_id": "54c89960fba52d03d53bd8ab40ab3d98", "rental_uris": {"ios": "https://dc.lft.to/lastmile_qr_scan", "android": "https://dc.lft.to/lastmile_qr_scan"}, "type": "electric_scooter", "lat": 38.905127666666665, "is_disabled": 0, "lon": -77.060882, "is_reserved": 0}, {"name": "6a824227fbe6241eb3259b5875bac2f3", "fusion_lat": 0.0, "fusion_lon": 0.0, "bike_id": "6a824227fbe6241eb3259b5875bac2f3", "rental_uris": {"ios": "https://dc.lft.to/lastmile_qr_scan", "android": "https://dc.lft.to/lastmile_qr_scan"}, "type": "electric_scooter", "lat": 38.931932833333335, "is_disabled": 0, "lon": -77.02831433333333, "is_reserved": 0}, {"name": "4abc2b4c17e7c0e034670eb708aa40b1", "fusion_lat": 0.0, "fusion_lon": 0.0, "bike_id": "4abc2b4c17e7c0e034670eb708aa40b1", "rental_uris": {"ios": "https://dc.lft.to/lastmile_qr_scan", "android": "https://dc.lft.to/lastmile_qr_scan"}, "type": "electric_scooter", "lat": 38.89828133333334, "is_disabled": 0, "lon": -77.0434235, "is_reserved": 0}, {"name": "909b0fc1a936757d397e036f8a64b6f7", "fusion_lat": 0.0, "fusion_lon": 0.0, "bike_id": "909b0fc1a936757d397e036f8a64b6f7", "rental_uris": {"ios": "https://dc.lft.to/lastmile_qr_scan", "android": "https://dc.lft.to/lastmile_qr_scan"}, "type": "electric_scooter", "lat": 38.897854833333334, "is_disabled": 0, "lon": -77.0515235, "is_reserved": 0}, {"name": "96325211b1989550556e83781c36b4c1", "fusion_lat": 0.0, "fusion_lon": 0.0, "bike_id": "96325211b1989550556e83781c36b4c1", "rental_uris": {"ios": "https://dc.lft.to/lastmile_qr_scan", "android": "https://dc.lft.to/lastmile_qr_scan"}, "type": "electric_scooter", "lat": 38.89208416666666, "is_disabled": 0, "lon": -76.98806333333333, "is_reserved": 0}, {"name": "2550878d698747092d73bf8296ad4c13", "fusion_lat": 0.0, "fusion_lon": 0.0, "bike_id": "2550878d698747092d73bf8296ad4c13", "rental_uris": {"ios": "https://dc.lft.to/lastmile_qr_scan", "android": "https://dc.lft.to/lastmile_qr_scan"}, "type": "electric_scooter", "lat": 38.906074333333336, "is_disabled": 0, "lon": -77.04141416666667, "is_reserved": 0}, {"name": "a9dc9061e3da5d92b5d63be1d8f457f8", "fusion_lat": 0.0, "fusion_lon": 0.0, "bike_id": "a9dc9061e3da5d92b5d63be1d8f457f8", "rental_uris": {"ios": "https://dc.lft.to/lastmile_qr_scan", "android": "https://dc.lft.to/lastmile_qr_scan"}, "type": "electric_scooter", "lat": 38.9105165, "is_disabled": 0, "lon": -77.01510233333333, "is_reserved": 0}, {"name": "2ca7536754972e6a4ee3d154962189ff", "fusion_lat": 0.0, "fusion_lon": 0.0, "bike_id": "2ca7536754972e6a4ee3d154962189ff", "rental_uris": {"ios": "https://dc.lft.to/lastmile_qr_scan", "android": "https://dc.lft.to/lastmile_qr_scan"}, "type": "electric_scooter", "lat": 38.866725333333335, "is_disabled": 0, "lon": -76.98903983333334, "is_reserved": 0}, {"name": "e1738a3b1c16055b9376797dc5545007", "fusion_lat": 0.0, "fusion_lon": 0.0, "bike_id": "e1738a3b1c16055b9376797dc5545007", "rental_uris": {"ios": "https://dc.lft.to/lastmile_qr_scan", "android": "https://dc.lft.to/lastmile_qr_scan"}, "type": "electric_scooter", "lat": 38.884257833333336, "is_disabled": 0, "lon": -76.95410166666667, "is_reserved": 0}, {"name": "165fbb2ca20b1953f8d25fdbba926b41", "fusion_lat": 0.0, "fusion_lon": 0.0, "bike_id": "165fbb2ca20b1953f8d25fdbba926b41", "rental_uris": {"ios": "https://dc.lft.to/lastmile_qr_scan", "android": "https://dc.lft.to/lastmile_qr_scan"}, "type": "electric_scooter", "lat": 38.8650715, "is_disabled": 0, "lon": -76.99007283333333, "is_reserved": 0}, {"name": "621fd67b8210fc652b9f268fe850eed7", "fusion_lat": 0.0, "fusion_lon": 0.0, "bike_id": "621fd67b8210fc652b9f268fe850eed7", "rental_uris": {"ios": "https://dc.lft.to/lastmile_qr_scan", "android": "https://dc.lft.to/lastmile_qr_scan"}, "type": "electric_scooter", "lat": 38.91478883333333, "is_disabled": 0, "lon": -77.0347015, "is_reserved": 0}, {"name": "f9beb971502e508fedef334e2592f9da", "fusion_lat": 0.0, "fusion_lon": 0.0, "bike_id": "f9beb971502e508fedef334e2592f9da", "rental_uris": {"ios": "https://dc.lft.to/lastmile_qr_scan", "android": "https://dc.lft.to/lastmile_qr_scan"}, "type": "electric_bike", "lat": 39.0884345, "is_disabled": 0, "lon": -77.1780155, "is_reserved": 0}, {"name": "4694a6a31a8db630e7ebf5de25b4b752", "fusion_lat": 0.0, "fusion_lon": 0.0, "bike_id": "4694a6a31a8db630e7ebf5de25b4b752", "rental_uris": {"ios": "https://dc.lft.to/lastmile_qr_scan", "android": "https://dc.lft.to/lastmile_qr_scan"}, "type": "electric_scooter", "lat": 38.913362666666664, "is_disabled": 0, "lon": -77.03262333333333, "is_reserved": 0}, {"name": "2e563dd67d74b7774419f874440a4dcf", "fusion_lat": 0.0, "fusion_lon": 0.0, "bike_id": "2e563dd67d74b7774419f874440a4dcf", "rental_uris": {"ios": "https://dc.lft.to/lastmile_qr_scan", "android": "https://dc.lft.to/lastmile_qr_scan"}, "type": "electric_scooter", "lat": 38.91799533333333, "is_disabled": 0, "lon": -77.03449566666667, "is_reserved": 0}, {"name": "98093e60a777059c146b89514b8386eb", "fusion_lat": 0.0, "fusion_lon": 0.0, "bike_id": "98093e60a777059c146b89514b8386eb", "rental_uris": {"ios": "https://dc.lft.to/lastmile_qr_scan", "android": "https://dc.lft.to/lastmile_qr_scan"}, "type": "electric_scooter", "lat": 38.897347833333335, "is_disabled": 0, "lon": -77.0100965, "is_reserved": 0}, {"name": "3c3787af25730016d028adf7a3b734e2", "fusion_lat": 0.0, "fusion_lon": 0.0, "bike_id": "3c3787af25730016d028adf7a3b734e2", "rental_uris": {"ios": "https://dc.lft.to/lastmile_qr_scan", "android": "https://dc.lft.to/lastmile_qr_scan"}, "type": "electric_bike", "lat": 38.97260283333333, "is_disabled": 0, "lon": -76.99168816666666, "is_reserved": 0}, {"name": "b85cb892a54f7600b804c0ed287036fa", "fusion_lat": 0.0, "fusion_lon": 0.0, "bike_id": "b85cb892a54f7600b804c0ed287036fa", "rental_uris": {"ios": "https://dc.lft.to/lastmile_qr_scan", "android": "https://dc.lft.to/lastmile_qr_scan"}, "type": "electric_scooter", "lat": 38.934678166666664, "is_disabled": 0, "lon": -77.06879483333333, "is_reserved": 0}, {"name": "79fdede60fa83bbd22c4707598798c06", "fusion_lat": 0.0, "fusion_lon": 0.0, "bike_id": "79fdede60fa83bbd22c4707598798c06", "rental_uris": {"ios": "https://dc.lft.to/lastmile_qr_scan", "android": "https://dc.lft.to/lastmile_qr_scan"}, "type": "electric_scooter", "lat": 38.884114333333336, "is_disabled": 0, "lon": -77.03043016666666, "is_reserved": 0}, {"name": "52e5d3bf63e01f329e7532f9cba88c08", "fusion_lat": 0.0, "fusion_lon": 0.0, "bike_id": "52e5d3bf63e01f329e7532f9cba88c08", "rental_uris": {"ios": "https://dc.lft.to/lastmile_qr_scan", "android": "https://dc.lft.to/lastmile_qr_scan"}, "type": "electric_scooter", "lat": 38.8985255, "is_disabled": 0, "lon": -77.016098, "is_reserved": 0}, {"name": "ddd911d87327692a0c0c5808635c6f17", "fusion_lat": 0.0, "fusion_lon": 0.0, "bike_id": "ddd911d87327692a0c0c5808635c6f17", "rental_uris": {"ios": "https://dc.lft.to/lastmile_qr_scan", "android": "https://dc.lft.to/lastmile_qr_scan"}, "type": "electric_scooter", "lat": 38.879393, "is_disabled": 0, "lon": -77.01467333333333, "is_reserved": 0}, {"name": "f97f62684305b1920e9dd062baf5ac70", "fusion_lat": 0.0, "fusion_lon": 0.0, "bike_id": "f97f62684305b1920e9dd062baf5ac70", "rental_uris": {"ios": "https://dc.lft.to/lastmile_qr_scan", "android": "https://dc.lft.to/lastmile_qr_scan"}, "type": "electric_bike", "lat": 38.839365666666666, "is_disabled": 0, "lon": -77.07903966666667, "is_reserved": 0}, {"name": "74a0f56dfe46d228e7ecd83a8549a82e", "fusion_lat": 0.0, "fusion_lon": 0.0, "bike_id": "74a0f56dfe46d228e7ecd83a8549a82e", "rental_uris": {"ios": "https://dc.lft.to/lastmile_qr_scan", "android": "https://dc.lft.to/lastmile_qr_scan"}, "type": "electric_bike", "lat": 38.81270516666667, "is_disabled": 0, "lon": -77.0617635, "is_reserved": 0}, {"name": "bbf096e184f3a222d0f718756c839a24", "fusion_lat": 0.0, "fusion_lon": 0.0, "bike_id": "bbf096e184f3a222d0f718756c839a24", "rental_uris": {"ios": "https://dc.lft.to/lastmile_qr_scan", "android": "https://dc.lft.to/lastmile_qr_scan"}, "type": "electric_scooter", "lat": 38.913536, "is_disabled": 0, "lon": -77.01754766666667, "is_reserved": 0}, {"name": "3c2d82c4f15f2322ca1007c550d0b83e", "fusion_lat": 0.0, "fusion_lon": 0.0, "bike_id": "3c2d82c4f15f2322ca1007c550d0b83e", "rental_uris": {"ios": "https://dc.lft.to/lastmile_qr_scan", "android": "https://dc.lft.to/lastmile_qr_scan"}, "type": "electric_scooter", "lat": 38.905780166666666, "is_disabled": 0, "lon": -77.00610716666667, "is_reserved": 0}, {"name": "a6a23b32c1b8aa697d019aa241975436", "fusion_lat": 0.0, "fusion_lon": 0.0, "bike_id": "a6a23b32c1b8aa697d019aa241975436", "rental_uris": {"ios": "https://dc.lft.to/lastmile_qr_scan", "android": "https://dc.lft.to/lastmile_qr_scan"}, "type": "electric_scooter", "lat": 38.91765816666667, "is_disabled": 0, "lon": -77.02807266666667, "is_reserved": 0}, {"name": "93554b2ee6f990c38ef45d4bce73be86", "fusion_lat": 0.0, "fusion_lon": 0.0, "bike_id": "93554b2ee6f990c38ef45d4bce73be86", "rental_uris": {"ios": "https://dc.lft.to/lastmile_qr_scan", "android": "https://dc.lft.to/lastmile_qr_scan"}, "type": "electric_scooter", "lat": 38.91987183333333, "is_disabled": 0, "lon": -77.03318983333334, "is_reserved": 0}, {"name": "49cb30c4d70b346df27fdf9dcc9476ab", "fusion_lat": 0.0, "fusion_lon": 0.0, "bike_id": "49cb30c4d70b346df27fdf9dcc9476ab", "rental_uris": {"ios": "https://dc.lft.to/lastmile_qr_scan", "android": "https://dc.lft.to/lastmile_qr_scan"}, "type": "electric_scooter", "lat": 38.932269833333336, "is_disabled": 0, "lon": -76.99484466666667, "is_reserved": 0}, {"name": "48c2170feb33aa73e5ae822f96738be1", "fusion_lat": 0.0, "fusion_lon": 0.0, "bike_id": "48c2170feb33aa73e5ae822f96738be1", "rental_uris": {"ios": "https://dc.lft.to/lastmile_qr_scan", "android": "https://dc.lft.to/lastmile_qr_scan"}, "type": "electric_scooter", "lat": 38.920817, "is_disabled": 0, "lon": -77.0253215, "is_reserved": 0}, {"name": "d62bfc636a28e1d56b18e185dc946458", "fusion_lat": 0.0, "fusion_lon": 0.0, "bike_id": "d62bfc636a28e1d56b18e185dc946458", "rental_uris": {"ios": "https://dc.lft.to/lastmile_qr_scan", "android": "https://dc.lft.to/lastmile_qr_scan"}, "type": "electric_scooter", "lat": 38.91077083333333, "is_disabled": 0, "lon": -77.001542, "is_reserved": 0}, {"name": "ce95ef8b7ffaddd3992aa6c593968f61", "fusion_lat": 0.0, "fusion_lon": 0.0, "bike_id": "ce95ef8b7ffaddd3992aa6c593968f61", "rental_uris": {"ios": "https://dc.lft.to/lastmile_qr_scan", "android": "https://dc.lft.to/lastmile_qr_scan"}, "type": "electric_scooter", "lat": 38.899657166666664, "is_disabled": 0, "lon": -77.04609, "is_reserved": 0}, {"name": "1c654476e4353a8a4ecdc9d3e7674544", "fusion_lat": 0.0, "fusion_lon": 0.0, "bike_id": "1c654476e4353a8a4ecdc9d3e7674544", "rental_uris": {"ios": "https://dc.lft.to/lastmile_qr_scan", "android": "https://dc.lft.to/lastmile_qr_scan"}, "type": "electric_bike", "lat": 38.957542333333336, "is_disabled": 0, "lon": -76.98020133333333, "is_reserved": 0}, {"name": "751963ad72e1d2745fb62c2e4e3836c5", "fusion_lat": 0.0, "fusion_lon": 0.0, "bike_id": "751963ad72e1d2745fb62c2e4e3836c5", "rental_uris": {"ios": "https://dc.lft.to/lastmile_qr_scan", "android": "https://dc.lft.to/lastmile_qr_scan"}, "type": "electric_scooter", "lat": 38.897240333333336, "is_disabled": 0, "lon": -76.99260183333334, "is_reserved": 0}, {"name": "2c37034b873770ffcc65ef60bcab025a", "fusion_lat": 0.0, "fusion_lon": 0.0, "bike_id": "2c37034b873770ffcc65ef60bcab025a", "rental_uris": {"ios": "https://dc.lft.to/lastmile_qr_scan", "android": "https://dc.lft.to/lastmile_qr_scan"}, "type": "electric_scooter", "lat": 38.9004265, "is_disabled": 0, "lon": -77.044015, "is_reserved": 0}, {"name": "4e7649d3602b03d3ad767c203194b900", "fusion_lat": 0.0, "fusion_lon": 0.0, "bike_id": "4e7649d3602b03d3ad767c203194b900", "rental_uris": {"ios": "https://dc.lft.to/lastmile_qr_scan", "android": "https://dc.lft.to/lastmile_qr_scan"}, "type": "electric_scooter", "lat": 38.90834816666667, "is_disabled": 0, "lon": -77.038682, "is_reserved": 0}, {"name": "3ee644fe7745c62756ea4547f36649a0", "fusion_lat": 0.0, "fusion_lon": 0.0, "bike_id": "3ee644fe7745c62756ea4547f36649a0", "rental_uris": {"ios": "https://dc.lft.to/lastmile_qr_scan", "android": "https://dc.lft.to/lastmile_qr_scan"}, "type": "electric_scooter", "lat": 38.897395, "is_disabled": 0, "lon": -77.02166033333333, "is_reserved": 0}, {"name": "b7ea75a723d9436a1d8d71d05a1906e4", "fusion_lat": 0.0, "fusion_lon": 0.0, "bike_id": "b7ea75a723d9436a1d8d71d05a1906e4", "rental_uris": {"ios": "https://dc.lft.to/lastmile_qr_scan", "android": "https://dc.lft.to/lastmile_qr_scan"}, "type": "electric_scooter", "lat": 38.91567516666667, "is_disabled": 0, "lon": -77.032697, "is_reserved": 0}, {"name": "97fca14bd4bd51172dad83a8156fdfff", "fusion_lat": 0.0, "fusion_lon": 0.0, "bike_id": "97fca14bd4bd51172dad83a8156fdfff", "rental_uris": {"ios": "https://dc.lft.to/lastmile_qr_scan", "android": "https://dc.lft.to/lastmile_qr_scan"}, "type": "electric_scooter", "lat": 38.914819, "is_disabled": 0, "lon": -77.0321545, "is_reserved": 0}, {"name": "4e3bd3c48e65993cc60201c7cd759951", "fusion_lat": 0.0, "fusion_lon": 0.0, "bike_id": "4e3bd3c48e65993cc60201c7cd759951", "rental_uris": {"ios": "https://dc.lft.to/lastmile_qr_scan", "android": "https://dc.lft.to/lastmile_qr_scan"}, "type": "electric_scooter", "lat": 38.896151, "is_disabled": 0, "lon": -76.99635616666667, "is_reserved": 0}, {"name": "5591fa303ede1bbf36f3bd1e82920df9", "fusion_lat": 0.0, "fusion_lon": 0.0, "bike_id": "5591fa303ede1bbf36f3bd1e82920df9", "rental_uris": {"ios": "https://dc.lft.to/lastmile_qr_scan", "android": "https://dc.lft.to/lastmile_qr_scan"}, "type": "electric_scooter", "lat": 38.93006233333333, "is_disabled": 0, "lon": -77.05521033333333, "is_reserved": 0}, {"name": "b83be6b9eeeeac1d606af49d7f40e863", "fusion_lat": 0.0, "fusion_lon": 0.0, "bike_id": "b83be6b9eeeeac1d606af49d7f40e863", "rental_uris": {"ios": "https://dc.lft.to/lastmile_qr_scan", "android": "https://dc.lft.to/lastmile_qr_scan"}, "type": "electric_scooter", "lat": 38.901807833333336, "is_disabled": 0, "lon": -76.92827383333334, "is_reserved": 0}, {"name": "0b69ea1066b6f1a76d228e7286700b97", "fusion_lat": 0.0, "fusion_lon": 0.0, "bike_id": "0b69ea1066b6f1a76d228e7286700b97", "rental_uris": {"ios": "https://dc.lft.to/lastmile_qr_scan", "android": "https://dc.lft.to/lastmile_qr_scan"}, "type": "electric_scooter", "lat": 38.932535, "is_disabled": 0, "lon": -77.03278633333333, "is_reserved": 0}, {"name": "947e93a658818eaf8cf2ce3c2f2b6a33", "fusion_lat": 0.0, "fusion_lon": 0.0, "bike_id": "947e93a658818eaf8cf2ce3c2f2b6a33", "rental_uris": {"ios": "https://dc.lft.to/lastmile_qr_scan", "android": "https://dc.lft.to/lastmile_qr_scan"}, "type": "electric_scooter", "lat": 38.914544666666664, "is_disabled": 0, "lon": -77.02216683333333, "is_reserved": 0}, {"name": "416a92f6c2a0f8e7351e0f4494786968", "fusion_lat": 0.0, "fusion_lon": 0.0, "bike_id": "416a92f6c2a0f8e7351e0f4494786968", "rental_uris": {"ios": "https://dc.lft.to/lastmile_qr_scan", "android": "https://dc.lft.to/lastmile_qr_scan"}, "type": "electric_scooter", "lat": 38.9181465, "is_disabled": 0, "lon": -77.041545, "is_reserved": 0}, {"name": "d8e84b6763baa41cb25b0d83628801ef", "fusion_lat": 0.0, "fusion_lon": 0.0, "bike_id": "d8e84b6763baa41cb25b0d83628801ef", "rental_uris": {"ios": "https://dc.lft.to/lastmile_qr_scan", "android": "https://dc.lft.to/lastmile_qr_scan"}, "type": "electric_bike", "lat": 38.941541666666666, "is_disabled": 0, "lon": -77.00196783333334, "is_reserved": 0}, {"name": "614da89617b4b7885bdc25a2a00ec449", "fusion_lat": 0.0, "fusion_lon": 0.0, "bike_id": "614da89617b4b7885bdc25a2a00ec449", "rental_uris": {"ios": "https://dc.lft.to/lastmile_qr_scan", "android": "https://dc.lft.to/lastmile_qr_scan"}, "type": "electric_scooter", "lat": 38.910075166666665, "is_disabled": 0, "lon": -77.01380916666666, "is_reserved": 0}, {"name": "bbc93591910f879aa431c056863c350f", "fusion_lat": 0.0, "fusion_lon": 0.0, "bike_id": "bbc93591910f879aa431c056863c350f", "rental_uris": {"ios": "https://dc.lft.to/lastmile_qr_scan", "android": "https://dc.lft.to/lastmile_qr_scan"}, "type": "electric_scooter", "lat": 38.877792, "is_disabled": 0, "lon": -77.0143905, "is_reserved": 0}, {"name": "8c85187eaec7b11770bacea828477300", "fusion_lat": 0.0, "fusion_lon": 0.0, "bike_id": "8c85187eaec7b11770bacea828477300", "rental_uris": {"ios": "https://dc.lft.to/lastmile_qr_scan", "android": "https://dc.lft.to/lastmile_qr_scan"}, "type": "electric_scooter", "lat": 38.926032666666664, "is_disabled": 0, "lon": -77.0215795, "is_reserved": 0}, {"name": "55d518a544e56646f844c2fca9ddad23", "fusion_lat": 0.0, "fusion_lon": 0.0, "bike_id": "55d518a544e56646f844c2fca9ddad23", "rental_uris": {"ios": "https://dc.lft.to/lastmile_qr_scan", "android": "https://dc.lft.to/lastmile_qr_scan"}, "type": "electric_scooter", "lat": 38.884946166666666, "is_disabled": 0, "lon": -77.00712933333334, "is_reserved": 0}, {"name": "f09e4ee89484cb9fb4113078a39fba39", "fusion_lat": 0.0, "fusion_lon": 0.0, "bike_id": "f09e4ee89484cb9fb4113078a39fba39", "rental_uris": {"ios": "https://dc.lft.to/lastmile_qr_scan", "android": "https://dc.lft.to/lastmile_qr_scan"}, "type": "electric_scooter", "lat": 38.84881033333333, "is_disabled": 0, "lon": -77.00519733333333, "is_reserved": 0}, {"name": "3f460949f22462199e951f53d923ee06", "fusion_lat": 0.0, "fusion_lon": 0.0, "bike_id": "3f460949f22462199e951f53d923ee06", "rental_uris": {"ios": "https://dc.lft.to/lastmile_qr_scan", "android": "https://dc.lft.to/lastmile_qr_scan"}, "type": "electric_scooter", "lat": 38.915438, "is_disabled": 0, "lon": -77.02206, "is_reserved": 0}, {"name": "1ba106b3cfa775a29f2e4bd029270658", "fusion_lat": 0.0, "fusion_lon": 0.0, "bike_id": "1ba106b3cfa775a29f2e4bd029270658", "rental_uris": {"ios": "https://dc.lft.to/lastmile_qr_scan", "android": "https://dc.lft.to/lastmile_qr_scan"}, "type": "electric_scooter", "lat": 38.9003285, "is_disabled": 0, "lon": -76.999584, "is_reserved": 0}, {"name": "2ec2afb5fdc174d15ce93a088812372b", "fusion_lat": 0.0, "fusion_lon": 0.0, "bike_id": "2ec2afb5fdc174d15ce93a088812372b", "rental_uris": {"ios": "https://dc.lft.to/lastmile_qr_scan", "android": "https://dc.lft.to/lastmile_qr_scan"}, "type": "electric_bike", "lat": 38.946244166666666, "is_disabled": 0, "lon": -76.93411266666666, "is_reserved": 0}, {"name": "76bd555b056011a1d40ccb231893e965", "fusion_lat": 0.0, "fusion_lon": 0.0, "bike_id": "76bd555b056011a1d40ccb231893e965", "rental_uris": {"ios": "https://dc.lft.to/lastmile_qr_scan", "android": "https://dc.lft.to/lastmile_qr_scan"}, "type": "electric_scooter", "lat": 38.938699166666666, "is_disabled": 0, "lon": -77.02919433333334, "is_reserved": 0}, {"name": "e86a36d62489e62876e6d0ed6b55ddc3", "fusion_lat": 0.0, "fusion_lon": 0.0, "bike_id": "e86a36d62489e62876e6d0ed6b55ddc3", "rental_uris": {"ios": "https://dc.lft.to/lastmile_qr_scan", "android": "https://dc.lft.to/lastmile_qr_scan"}, "type": "electric_scooter", "lat": 38.90307816666667, "is_disabled": 0, "lon": -77.02365016666667, "is_reserved": 0}, {"name": "18b46b8003d6aaebb658700fa4998049", "fusion_lat": 0.0, "fusion_lon": 0.0, "bike_id": "18b46b8003d6aaebb658700fa4998049", "rental_uris": {"ios": "https://dc.lft.to/lastmile_qr_scan", "android": "https://dc.lft.to/lastmile_qr_scan"}, "type": "electric_scooter", "lat": 38.90547883333333, "is_disabled": 0, "lon": -77.056981, "is_reserved": 0}, {"name": "961b02a82a3aa81ee9170c907700f173", "fusion_lat": 0.0, "fusion_lon": 0.0, "bike_id": "961b02a82a3aa81ee9170c907700f173", "rental_uris": {"ios": "https://dc.lft.to/lastmile_qr_scan", "android": "https://dc.lft.to/lastmile_qr_scan"}, "type": "electric_scooter", "lat": 38.9169945, "is_disabled": 0, "lon": -77.04015316666667, "is_reserved": 0}, {"name": "150d51028339fd93e6c041188206f48b", "fusion_lat": 0.0, "fusion_lon": 0.0, "bike_id": "150d51028339fd93e6c041188206f48b", "rental_uris": {"ios": "https://dc.lft.to/lastmile_qr_scan", "android": "https://dc.lft.to/lastmile_qr_scan"}, "type": "electric_scooter", "lat": 38.9248355, "is_disabled": 0, "lon": -77.02722033333333, "is_reserved": 0}, {"name": "df202f2d516027e430916e9145915a7e", "fusion_lat": 0.0, "fusion_lon": 0.0, "bike_id": "df202f2d516027e430916e9145915a7e", "rental_uris": {"ios": "https://dc.lft.to/lastmile_qr_scan", "android": "https://dc.lft.to/lastmile_qr_scan"}, "type": "electric_scooter", "lat": 38.905128, "is_disabled": 0, "lon": -77.059685, "is_reserved": 0}, {"name": "5438fe47a3317ecb58ada4f39ce0aa32", "fusion_lat": 0.0, "fusion_lon": 0.0, "bike_id": "5438fe47a3317ecb58ada4f39ce0aa32", "rental_uris": {"ios": "https://dc.lft.to/lastmile_qr_scan", "android": "https://dc.lft.to/lastmile_qr_scan"}, "type": "electric_scooter", "lat": 38.9324655, "is_disabled": 0, "lon": -77.03413633333334, "is_reserved": 0}, {"name": "d351dfcbbf3daef5f3741cb060a1f933", "fusion_lat": 0.0, "fusion_lon": 0.0, "bike_id": "d351dfcbbf3daef5f3741cb060a1f933", "rental_uris": {"ios": "https://dc.lft.to/lastmile_qr_scan", "android": "https://dc.lft.to/lastmile_qr_scan"}, "type": "electric_scooter", "lat": 38.90524416666667, "is_disabled": 0, "lon": -77.0661515, "is_reserved": 0}, {"name": "493595151ef107343bab6f116d8a441d", "fusion_lat": 0.0, "fusion_lon": 0.0, "bike_id": "493595151ef107343bab6f116d8a441d", "rental_uris": {"ios": "https://dc.lft.to/lastmile_qr_scan", "android": "https://dc.lft.to/lastmile_qr_scan"}, "type": "electric_bike", "lat": 38.9391065, "is_disabled": 0, "lon": -77.07693883333333, "is_reserved": 0}, {"name": "f596933f193807210b50ba5d99d9a27f", "fusion_lat": 0.0, "fusion_lon": 0.0, "bike_id": "f596933f193807210b50ba5d99d9a27f", "rental_uris": {"ios": "https://dc.lft.to/lastmile_qr_scan", "android": "https://dc.lft.to/lastmile_qr_scan"}, "type": "electric_scooter", "lat": 38.918868, "is_disabled": 0, "lon": -77.04173933333334, "is_reserved": 0}, {"name": "81e482f5749b1b880a0efad6a5d6b13c", "fusion_lat": 0.0, "fusion_lon": 0.0, "bike_id": "81e482f5749b1b880a0efad6a5d6b13c", "rental_uris": {"ios": "https://dc.lft.to/lastmile_qr_scan", "android": "https://dc.lft.to/lastmile_qr_scan"}, "type": "electric_scooter", "lat": 38.9078625, "is_disabled": 0, "lon": -77.02982616666667, "is_reserved": 0}, {"name": "fe85dd3851052d72c7a301d01a3fa89e", "fusion_lat": 0.0, "fusion_lon": 0.0, "bike_id": "fe85dd3851052d72c7a301d01a3fa89e", "rental_uris": {"ios": "https://dc.lft.to/lastmile_qr_scan", "android": "https://dc.lft.to/lastmile_qr_scan"}, "type": "electric_scooter", "lat": 38.91115666666666, "is_disabled": 0, "lon": -77.0430505, "is_reserved": 0}, {"name": "f4523f84b676081d66152427cc004ce9", "fusion_lat": 0.0, "fusion_lon": 0.0, "bike_id": "f4523f84b676081d66152427cc004ce9", "rental_uris": {"ios": "https://dc.lft.to/lastmile_qr_scan", "android": "https://dc.lft.to/lastmile_qr_scan"}, "type": "electric_scooter", "lat": 38.887464666666666, "is_disabled": 0, "lon": -77.0212, "is_reserved": 0}, {"name": "4ef8e5be475dcd746ac813e8067363ad", "fusion_lat": 0.0, "fusion_lon": 0.0, "bike_id": "4ef8e5be475dcd746ac813e8067363ad", "rental_uris": {"ios": "https://dc.lft.to/lastmile_qr_scan", "android": "https://dc.lft.to/lastmile_qr_scan"}, "type": "electric_scooter", "lat": 38.876321, "is_disabled": 0, "lon": -77.01257916666667, "is_reserved": 0}, {"name": "4a54a556507b3cc26205609813424d6f", "fusion_lat": 0.0, "fusion_lon": 0.0, "bike_id": "4a54a556507b3cc26205609813424d6f", "rental_uris": {"ios": "https://dc.lft.to/lastmile_qr_scan", "android": "https://dc.lft.to/lastmile_qr_scan"}, "type": "electric_scooter", "lat": 38.89732383333333, "is_disabled": 0, "lon": -76.9470395, "is_reserved": 0}, {"name": "d404a9b6af4c9293ac6df8f7aeff3de9", "fusion_lat": 0.0, "fusion_lon": 0.0, "bike_id": "d404a9b6af4c9293ac6df8f7aeff3de9", "rental_uris": {"ios": "https://dc.lft.to/lastmile_qr_scan", "android": "https://dc.lft.to/lastmile_qr_scan"}, "type": "electric_bike", "lat": 38.9993445, "is_disabled": 0, "lon": -77.0012305, "is_reserved": 0}, {"name": "a8c5f98972aa3f67e2f447be237d87e1", "fusion_lat": 0.0, "fusion_lon": 0.0, "bike_id": "a8c5f98972aa3f67e2f447be237d87e1", "rental_uris": {"ios": "https://dc.lft.to/lastmile_qr_scan", "android": "https://dc.lft.to/lastmile_qr_scan"}, "type": "electric_scooter", "lat": 38.9314885, "is_disabled": 0, "lon": -77.03606666666667, "is_reserved": 0}, {"name": "254f5f34b33e07f45d25906fdddc9d01", "fusion_lat": 0.0, "fusion_lon": 0.0, "bike_id": "254f5f34b33e07f45d25906fdddc9d01", "rental_uris": {"ios": "https://dc.lft.to/lastmile_qr_scan", "android": "https://dc.lft.to/lastmile_qr_scan"}, "type": "electric_bike", "lat": 38.85547016666666, "is_disabled": 0, "lon": -77.1071695, "is_reserved": 0}, {"name": "33961c2f4a587a69eaac72e3d034d76f", "fusion_lat": 0.0, "fusion_lon": 0.0, "bike_id": "33961c2f4a587a69eaac72e3d034d76f", "rental_uris": {"ios": "https://dc.lft.to/lastmile_qr_scan", "android": "https://dc.lft.to/lastmile_qr_scan"}, "type": "electric_bike", "lat": 38.841924166666665, "is_disabled": 0, "lon": -77.077513, "is_reserved": 0}, {"name": "667b7fba427ee385320fd730090a9478", "fusion_lat": 0.0, "fusion_lon": 0.0, "bike_id": "667b7fba427ee385320fd730090a9478", "rental_uris": {"ios": "https://dc.lft.to/lastmile_qr_scan", "android": "https://dc.lft.to/lastmile_qr_scan"}, "type": "electric_scooter", "lat": 38.89816833333333, "is_disabled": 0, "lon": -77.0196245, "is_reserved": 0}, {"name": "1677a1290c1f2400938e3c25244fb455", "fusion_lat": 0.0, "fusion_lon": 0.0, "bike_id": "1677a1290c1f2400938e3c25244fb455", "rental_uris": {"ios": "https://dc.lft.to/lastmile_qr_scan", "android": "https://dc.lft.to/lastmile_qr_scan"}, "type": "electric_scooter", "lat": 38.900162333333334, "is_disabled": 0, "lon": -76.99596733333334, "is_reserved": 0}, {"name": "59dc8af424976b14d0f1de41ebb615cc", "fusion_lat": 0.0, "fusion_lon": 0.0, "bike_id": "59dc8af424976b14d0f1de41ebb615cc", "rental_uris": {"ios": "https://dc.lft.to/lastmile_qr_scan", "android": "https://dc.lft.to/lastmile_qr_scan"}, "type": "electric_scooter", "lat": 38.8951175, "is_disabled": 0, "lon": -76.9488675, "is_reserved": 0}, {"name": "f6537d2f808736c71782f46c33538d15", "fusion_lat": 0.0, "fusion_lon": 0.0, "bike_id": "f6537d2f808736c71782f46c33538d15", "rental_uris": {"ios": "https://dc.lft.to/lastmile_qr_scan", "android": "https://dc.lft.to/lastmile_qr_scan"}, "type": "electric_scooter", "lat": 38.86036516666667, "is_disabled": 0, "lon": -76.99678416666667, "is_reserved": 0}, {"name": "b58a2bdfd11908bf5d391a3eef0236a7", "fusion_lat": 0.0, "fusion_lon": 0.0, "bike_id": "b58a2bdfd11908bf5d391a3eef0236a7", "rental_uris": {"ios": "https://dc.lft.to/lastmile_qr_scan", "android": "https://dc.lft.to/lastmile_qr_scan"}, "type": "electric_scooter", "lat": 38.899694833333335, "is_disabled": 0, "lon": -77.0258445, "is_reserved": 0}, {"name": "c01af4b15b381d5c15a93de4ea79b66c", "fusion_lat": 0.0, "fusion_lon": 0.0, "bike_id": "c01af4b15b381d5c15a93de4ea79b66c", "rental_uris": {"ios": "https://dc.lft.to/lastmile_qr_scan", "android": "https://dc.lft.to/lastmile_qr_scan"}, "type": "electric_scooter", "lat": 38.91184533333333, "is_disabled": 0, "lon": -77.00263783333334, "is_reserved": 0}, {"name": "8cb377ad99af322a41bbe47e921140fb", "fusion_lat": 0.0, "fusion_lon": 0.0, "bike_id": "8cb377ad99af322a41bbe47e921140fb", "rental_uris": {"ios": "https://dc.lft.to/lastmile_qr_scan", "android": "https://dc.lft.to/lastmile_qr_scan"}, "type": "electric_bike", "lat": 39.09585033333333, "is_disabled": 0, "lon": -77.14778216666667, "is_reserved": 0}, {"name": "555b398810fdf3a2e96f573ddc4bbe3e", "fusion_lat": 0.0, "fusion_lon": 0.0, "bike_id": "555b398810fdf3a2e96f573ddc4bbe3e", "rental_uris": {"ios": "https://dc.lft.to/lastmile_qr_scan", "android": "https://dc.lft.to/lastmile_qr_scan"}, "type": "electric_scooter", "lat": 38.9560655, "is_disabled": 0, "lon": -77.03631266666666, "is_reserved": 0}, {"name": "3a968ef2d70f36ceb4f05529a570226a", "fusion_lat": 0.0, "fusion_lon": 0.0, "bike_id": "3a968ef2d70f36ceb4f05529a570226a", "rental_uris": {"ios": "https://dc.lft.to/lastmile_qr_scan", "android": "https://dc.lft.to/lastmile_qr_scan"}, "type": "electric_scooter", "lat": 38.9057895, "is_disabled": 0, "lon": -77.00885866666667, "is_reserved": 0}, {"name": "bd0d4b6ca49ad330f60a18df8858b905", "fusion_lat": 0.0, "fusion_lon": 0.0, "bike_id": "bd0d4b6ca49ad330f60a18df8858b905", "rental_uris": {"ios": "https://dc.lft.to/lastmile_qr_scan", "android": "https://dc.lft.to/lastmile_qr_scan"}, "type": "electric_scooter", "lat": 38.916939, "is_disabled": 0, "lon": -77.03381633333333, "is_reserved": 0}, {"name": "1cf79d36680195c9b7a5f6f8b5e189f6", "fusion_lat": 0.0, "fusion_lon": 0.0, "bike_id": "1cf79d36680195c9b7a5f6f8b5e189f6", "rental_uris": {"ios": "https://dc.lft.to/lastmile_qr_scan", "android": "https://dc.lft.to/lastmile_qr_scan"}, "type": "electric_scooter", "lat": 38.91809533333333, "is_disabled": 0, "lon": -77.026882, "is_reserved": 0}, {"name": "61f83c8949e92d3bf308a776878af167", "fusion_lat": 0.0, "fusion_lon": 0.0, "bike_id": "61f83c8949e92d3bf308a776878af167", "rental_uris": {"ios": "https://dc.lft.to/lastmile_qr_scan", "android": "https://dc.lft.to/lastmile_qr_scan"}, "type": "electric_scooter", "lat": 38.92786366666667, "is_disabled": 0, "lon": -77.02733116666667, "is_reserved": 0}, {"name": "8bfe811c0aa5b2603b9c18310a21d5b8", "fusion_lat": 0.0, "fusion_lon": 0.0, "bike_id": "8bfe811c0aa5b2603b9c18310a21d5b8", "rental_uris": {"ios": "https://dc.lft.to/lastmile_qr_scan", "android": "https://dc.lft.to/lastmile_qr_scan"}, "type": "electric_scooter", "lat": 38.92792016666667, "is_disabled": 0, "lon": -77.02724316666666, "is_reserved": 0}, {"name": "82204c0552afde452ea578e7e0d22ae1", "fusion_lat": 0.0, "fusion_lon": 0.0, "bike_id": "82204c0552afde452ea578e7e0d22ae1", "rental_uris": {"ios": "https://dc.lft.to/lastmile_qr_scan", "android": "https://dc.lft.to/lastmile_qr_scan"}, "type": "electric_scooter", "lat": 38.87458433333333, "is_disabled": 0, "lon": -77.005014, "is_reserved": 0}, {"name": "853bccb5229ed4a7d758fc59c4bd8125", "fusion_lat": 0.0, "fusion_lon": 0.0, "bike_id": "853bccb5229ed4a7d758fc59c4bd8125", "rental_uris": {"ios": "https://dc.lft.to/lastmile_qr_scan", "android": "https://dc.lft.to/lastmile_qr_scan"}, "type": "electric_scooter", "lat": 38.89854316666667, "is_disabled": 0, "lon": -76.99032133333333, "is_reserved": 0}, {"name": "08d5bf309db0c78e88a9d296c7ee659d", "fusion_lat": 0.0, "fusion_lon": 0.0, "bike_id": "08d5bf309db0c78e88a9d296c7ee659d", "rental_uris": {"ios": "https://dc.lft.to/lastmile_qr_scan", "android": "https://dc.lft.to/lastmile_qr_scan"}, "type": "electric_scooter", "lat": 38.913856333333335, "is_disabled": 0, "lon": -77.01704833333334, "is_reserved": 0}, {"name": "5a6a2d646bd61a1fd233e62b5a52bad2", "fusion_lat": 0.0, "fusion_lon": 0.0, "bike_id": "5a6a2d646bd61a1fd233e62b5a52bad2", "rental_uris": {"ios": "https://dc.lft.to/lastmile_qr_scan", "android": "https://dc.lft.to/lastmile_qr_scan"}, "type": "electric_scooter", "lat": 38.927545, "is_disabled": 0, "lon": -77.05368566666667, "is_reserved": 0}, {"name": "c54f7f07c9d01a08317ecb3ed76cf7e2", "fusion_lat": 0.0, "fusion_lon": 0.0, "bike_id": "c54f7f07c9d01a08317ecb3ed76cf7e2", "rental_uris": {"ios": "https://dc.lft.to/lastmile_qr_scan", "android": "https://dc.lft.to/lastmile_qr_scan"}, "type": "electric_scooter", "lat": 38.92652616666667, "is_disabled": 0, "lon": -77.03720866666667, "is_reserved": 0}, {"name": "7bb236a220f75d91531a4df9867fd31a", "fusion_lat": 0.0, "fusion_lon": 0.0, "bike_id": "7bb236a220f75d91531a4df9867fd31a", "rental_uris": {"ios": "https://dc.lft.to/lastmile_qr_scan", "android": "https://dc.lft.to/lastmile_qr_scan"}, "type": "electric_bike", "lat": 38.90517066666666, "is_disabled": 0, "lon": -77.05675933333333, "is_reserved": 0}, {"name": "8207940b3c19653636d30d1d9af27804", "fusion_lat": 0.0, "fusion_lon": 0.0, "bike_id": "8207940b3c19653636d30d1d9af27804", "rental_uris": {"ios": "https://dc.lft.to/lastmile_qr_scan", "android": "https://dc.lft.to/lastmile_qr_scan"}, "type": "electric_scooter", "lat": 38.86359366666667, "is_disabled": 0, "lon": -76.99056133333333, "is_reserved": 0}, {"name": "e0c24199dba8950e0a67a528deac61a6", "fusion_lat": 0.0, "fusion_lon": 0.0, "bike_id": "e0c24199dba8950e0a67a528deac61a6", "rental_uris": {"ios": "https://dc.lft.to/lastmile_qr_scan", "android": "https://dc.lft.to/lastmile_qr_scan"}, "type": "electric_scooter", "lat": 38.91573016666667, "is_disabled": 0, "lon": -77.03208616666667, "is_reserved": 0}, {"name": "b19740a5af0174fe0cce931d4021a61a", "fusion_lat": 0.0, "fusion_lon": 0.0, "bike_id": "b19740a5af0174fe0cce931d4021a61a", "rental_uris": {"ios": "https://dc.lft.to/lastmile_qr_scan", "android": "https://dc.lft.to/lastmile_qr_scan"}, "type": "electric_scooter", "lat": 38.9043665, "is_disabled": 0, "lon": -77.04356433333334, "is_reserved": 0}, {"name": "e9f4f7e8d6d4d191df65f19ce014a0c6", "fusion_lat": 0.0, "fusion_lon": 0.0, "bike_id": "e9f4f7e8d6d4d191df65f19ce014a0c6", "rental_uris": {"ios": "https://dc.lft.to/lastmile_qr_scan", "android": "https://dc.lft.to/lastmile_qr_scan"}, "type": "electric_scooter", "lat": 38.903189833333336, "is_disabled": 0, "lon": -77.02074433333334, "is_reserved": 0}, {"name": "cd081162dcb4a257952b41c155faa821", "fusion_lat": 0.0, "fusion_lon": 0.0, "bike_id": "cd081162dcb4a257952b41c155faa821", "rental_uris": {"ios": "https://dc.lft.to/lastmile_qr_scan", "android": "https://dc.lft.to/lastmile_qr_scan"}, "type": "electric_scooter", "lat": 38.89015283333333, "is_disabled": 0, "lon": -76.93744766666667, "is_reserved": 0}, {"name": "c867f7f31f1a9b78431e7e3814894d17", "fusion_lat": 0.0, "fusion_lon": 0.0, "bike_id": "c867f7f31f1a9b78431e7e3814894d17", "rental_uris": {"ios": "https://dc.lft.to/lastmile_qr_scan", "android": "https://dc.lft.to/lastmile_qr_scan"}, "type": "electric_scooter", "lat": 38.93114, "is_disabled": 0, "lon": -77.01246233333333, "is_reserved": 0}, {"name": "9615c9aa4101fda2bc874e234b53a997", "fusion_lat": 0.0, "fusion_lon": 0.0, "bike_id": "9615c9aa4101fda2bc874e234b53a997", "rental_uris": {"ios": "https://dc.lft.to/lastmile_qr_scan", "android": "https://dc.lft.to/lastmile_qr_scan"}, "type": "electric_scooter", "lat": 38.907158333333335, "is_disabled": 0, "lon": -77.034476, "is_reserved": 0}, {"name": "a744dadb4b1d1684ac9a6597a859b96d", "fusion_lat": 0.0, "fusion_lon": 0.0, "bike_id": "a744dadb4b1d1684ac9a6597a859b96d", "rental_uris": {"ios": "https://dc.lft.to/lastmile_qr_scan", "android": "https://dc.lft.to/lastmile_qr_scan"}, "type": "electric_scooter", "lat": 38.92157133333333, "is_disabled": 0, "lon": -77.03861266666667, "is_reserved": 0}, {"name": "e7adf6699191016a8ecf2a5347c5d7af", "fusion_lat": 0.0, "fusion_lon": 0.0, "bike_id": "e7adf6699191016a8ecf2a5347c5d7af", "rental_uris": {"ios": "https://dc.lft.to/lastmile_qr_scan", "android": "https://dc.lft.to/lastmile_qr_scan"}, "type": "electric_scooter", "lat": 38.93063, "is_disabled": 0, "lon": -77.0318, "is_reserved": 0}, {"name": "983dcbdffe4dc2ac9fa7a4f220e8fff9", "fusion_lat": 0.0, "fusion_lon": 0.0, "bike_id": "983dcbdffe4dc2ac9fa7a4f220e8fff9", "rental_uris": {"ios": "https://dc.lft.to/lastmile_qr_scan", "android": "https://dc.lft.to/lastmile_qr_scan"}, "type": "electric_scooter", "lat": 38.909712666666664, "is_disabled": 0, "lon": -77.0217345, "is_reserved": 0}, {"name": "d93a24d32bf36794f1bc32f20dc3328e", "fusion_lat": 0.0, "fusion_lon": 0.0, "bike_id": "d93a24d32bf36794f1bc32f20dc3328e", "rental_uris": {"ios": "https://dc.lft.to/lastmile_qr_scan", "android": "https://dc.lft.to/lastmile_qr_scan"}, "type": "electric_scooter", "lat": 38.9009165, "is_disabled": 0, "lon": -77.03247616666667, "is_reserved": 0}, {"name": "1b19d0875eee93c6d710a5b93cf64cbc", "fusion_lat": 0.0, "fusion_lon": 0.0, "bike_id": "1b19d0875eee93c6d710a5b93cf64cbc", "rental_uris": {"ios": "https://dc.lft.to/lastmile_qr_scan", "android": "https://dc.lft.to/lastmile_qr_scan"}, "type": "electric_scooter", "lat": 38.9142955, "is_disabled": 0, "lon": -77.03897983333333, "is_reserved": 0}, {"name": "56de4f012c0bf4d626347bc1d96e44ed", "fusion_lat": 0.0, "fusion_lon": 0.0, "bike_id": "56de4f012c0bf4d626347bc1d96e44ed", "rental_uris": {"ios": "https://dc.lft.to/lastmile_qr_scan", "android": "https://dc.lft.to/lastmile_qr_scan"}, "type": "electric_scooter", "lat": 38.89780416666667, "is_disabled": 0, "lon": -77.00728816666667, "is_reserved": 0}, {"name": "7b492efea900e6dc43ae5f7bc0e4a807", "fusion_lat": 0.0, "fusion_lon": 0.0, "bike_id": "7b492efea900e6dc43ae5f7bc0e4a807", "rental_uris": {"ios": "https://dc.lft.to/lastmile_qr_scan", "android": "https://dc.lft.to/lastmile_qr_scan"}, "type": "electric_scooter", "lat": 38.9175065, "is_disabled": 0, "lon": -77.02491316666666, "is_reserved": 0}, {"name": "aa930cd8f0c63283808174b2d29f2301", "fusion_lat": 0.0, "fusion_lon": 0.0, "bike_id": "aa930cd8f0c63283808174b2d29f2301", "rental_uris": {"ios": "https://dc.lft.to/lastmile_qr_scan", "android": "https://dc.lft.to/lastmile_qr_scan"}, "type": "electric_bike", "lat": 38.998447166666665, "is_disabled": 0, "lon": -77.02890133333334, "is_reserved": 0}, {"name": "4eaec0647b1aaae1092af9cd47d60052", "fusion_lat": 0.0, "fusion_lon": 0.0, "bike_id": "4eaec0647b1aaae1092af9cd47d60052", "rental_uris": {"ios": "https://dc.lft.to/lastmile_qr_scan", "android": "https://dc.lft.to/lastmile_qr_scan"}, "type": "electric_scooter", "lat": 38.885041333333334, "is_disabled": 0, "lon": -77.00565116666667, "is_reserved": 0}, {"name": "bd364d1fa8b537570cbcc133f278f42a", "fusion_lat": 0.0, "fusion_lon": 0.0, "bike_id": "bd364d1fa8b537570cbcc133f278f42a", "rental_uris": {"ios": "https://dc.lft.to/lastmile_qr_scan", "android": "https://dc.lft.to/lastmile_qr_scan"}, "type": "electric_bike", "lat": 38.931909, "is_disabled": 0, "lon": -77.2293275, "is_reserved": 0}, {"name": "8de42eeb5ec2304acaa8d1715da369af", "fusion_lat": 0.0, "fusion_lon": 0.0, "bike_id": "8de42eeb5ec2304acaa8d1715da369af", "rental_uris": {"ios": "https://dc.lft.to/lastmile_qr_scan", "android": "https://dc.lft.to/lastmile_qr_scan"}, "type": "electric_bike", "lat": 38.868610833333335, "is_disabled": 0, "lon": -76.91657516666666, "is_reserved": 0}, {"name": "a13825577e530fd804371e6d013da68f", "fusion_lat": 0.0, "fusion_lon": 0.0, "bike_id": "a13825577e530fd804371e6d013da68f", "rental_uris": {"ios": "https://dc.lft.to/lastmile_qr_scan", "android": "https://dc.lft.to/lastmile_qr_scan"}, "type": "electric_scooter", "lat": 38.902694333333336, "is_disabled": 0, "lon": -77.05381383333334, "is_reserved": 0}, {"name": "8fd84daccf636db9a8a54524072a1686", "fusion_lat": 0.0, "fusion_lon": 0.0, "bike_id": "8fd84daccf636db9a8a54524072a1686", "rental_uris": {"ios": "https://dc.lft.to/lastmile_qr_scan", "android": "https://dc.lft.to/lastmile_qr_scan"}, "type": "electric_scooter", "lat": 38.902381, "is_disabled": 0, "lon": -77.0020025, "is_reserved": 0}, {"name": "674a68b2a72240debee2a8e7c0108151", "fusion_lat": 0.0, "fusion_lon": 0.0, "bike_id": "674a68b2a72240debee2a8e7c0108151", "rental_uris": {"ios": "https://dc.lft.to/lastmile_qr_scan", "android": "https://dc.lft.to/lastmile_qr_scan"}, "type": "electric_scooter", "lat": 38.928699333333334, "is_disabled": 0, "lon": -77.02730583333333, "is_reserved": 0}, {"name": "e55a06ee68c48fdcd65cac712f7dcd44", "fusion_lat": 0.0, "fusion_lon": 0.0, "bike_id": "e55a06ee68c48fdcd65cac712f7dcd44", "rental_uris": {"ios": "https://dc.lft.to/lastmile_qr_scan", "android": "https://dc.lft.to/lastmile_qr_scan"}, "type": "electric_scooter", "lat": 38.91819483333333, "is_disabled": 0, "lon": -77.010151, "is_reserved": 0}, {"name": "60adf1da4bf4b288d9dc3f76f0610332", "fusion_lat": 0.0, "fusion_lon": 0.0, "bike_id": "60adf1da4bf4b288d9dc3f76f0610332", "rental_uris": {"ios": "https://dc.lft.to/lastmile_qr_scan", "android": "https://dc.lft.to/lastmile_qr_scan"}, "type": "electric_scooter", "lat": 38.9136375, "is_disabled": 0, "lon": -77.04583433333333, "is_reserved": 0}, {"name": "f7d0915177264f4627986b08b157a872", "fusion_lat": 0.0, "fusion_lon": 0.0, "bike_id": "f7d0915177264f4627986b08b157a872", "rental_uris": {"ios": "https://dc.lft.to/lastmile_qr_scan", "android": "https://dc.lft.to/lastmile_qr_scan"}, "type": "electric_scooter", "lat": 38.88424533333333, "is_disabled": 0, "lon": -77.02473416666666, "is_reserved": 0}, {"name": "b4a6ce582bdb02d95e9fbd96db77b75e", "fusion_lat": 0.0, "fusion_lon": 0.0, "bike_id": "b4a6ce582bdb02d95e9fbd96db77b75e", "rental_uris": {"ios": "https://dc.lft.to/lastmile_qr_scan", "android": "https://dc.lft.to/lastmile_qr_scan"}, "type": "electric_scooter", "lat": 38.930843, "is_disabled": 0, "lon": -77.02795483333334, "is_reserved": 0}, {"name": "3f32e54981b82c38ae5f39c7c3b3c12d", "fusion_lat": 0.0, "fusion_lon": 0.0, "bike_id": "3f32e54981b82c38ae5f39c7c3b3c12d", "rental_uris": {"ios": "https://dc.lft.to/lastmile_qr_scan", "android": "https://dc.lft.to/lastmile_qr_scan"}, "type": "electric_scooter", "lat": 38.8954335, "is_disabled": 0, "lon": -77.015296, "is_reserved": 0}, {"name": "7f3b1407426df2a8926ab6a19e76f8f0", "fusion_lat": 0.0, "fusion_lon": 0.0, "bike_id": "7f3b1407426df2a8926ab6a19e76f8f0", "rental_uris": {"ios": "https://dc.lft.to/lastmile_qr_scan", "android": "https://dc.lft.to/lastmile_qr_scan"}, "type": "electric_bike", "lat": 38.90972933333333, "is_disabled": 0, "lon": -77.05547416666667, "is_reserved": 0}, {"name": "d0adb728271dc5aa93455663dd22d9fc", "fusion_lat": 0.0, "fusion_lon": 0.0, "bike_id": "d0adb728271dc5aa93455663dd22d9fc", "rental_uris": {"ios": "https://dc.lft.to/lastmile_qr_scan", "android": "https://dc.lft.to/lastmile_qr_scan"}, "type": "electric_scooter", "lat": 38.883220666666666, "is_disabled": 0, "lon": -76.9494095, "is_reserved": 0}, {"name": "05f30fa6b301d23b30da064e41d9b9a4", "fusion_lat": 0.0, "fusion_lon": 0.0, "bike_id": "05f30fa6b301d23b30da064e41d9b9a4", "rental_uris": {"ios": "https://dc.lft.to/lastmile_qr_scan", "android": "https://dc.lft.to/lastmile_qr_scan"}, "type": "electric_scooter", "lat": 38.8901555, "is_disabled": 0, "lon": -76.93837216666667, "is_reserved": 0}, {"name": "35c1d9bcb06b5ffc1da948c8a9e3e07d", "fusion_lat": 0.0, "fusion_lon": 0.0, "bike_id": "35c1d9bcb06b5ffc1da948c8a9e3e07d", "rental_uris": {"ios": "https://dc.lft.to/lastmile_qr_scan", "android": "https://dc.lft.to/lastmile_qr_scan"}, "type": "electric_scooter", "lat": 38.91858666666667, "is_disabled": 0, "lon": -77.03210766666666, "is_reserved": 0}, {"name": "643f31bed0770f0d835a7fd4cbaa1d99", "fusion_lat": 0.0, "fusion_lon": 0.0, "bike_id": "643f31bed0770f0d835a7fd4cbaa1d99", "rental_uris": {"ios": "https://dc.lft.to/lastmile_qr_scan", "android": "https://dc.lft.to/lastmile_qr_scan"}, "type": "electric_scooter", "lat": 38.9059215, "is_disabled": 0, "lon": -77.04878816666667, "is_reserved": 0}, {"name": "1d410544cbba757099d95151bcdfe9c6", "fusion_lat": 0.0, "fusion_lon": 0.0, "bike_id": "1d410544cbba757099d95151bcdfe9c6", "rental_uris": {"ios": "https://dc.lft.to/lastmile_qr_scan", "android": "https://dc.lft.to/lastmile_qr_scan"}, "type": "electric_scooter", "lat": 38.917118333333335, "is_disabled": 0, "lon": -77.0293805, "is_reserved": 0}, {"name": "19ffe03b58975abc8836a11ac03f7d56", "fusion_lat": 0.0, "fusion_lon": 0.0, "bike_id": "19ffe03b58975abc8836a11ac03f7d56", "rental_uris": {"ios": "https://dc.lft.to/lastmile_qr_scan", "android": "https://dc.lft.to/lastmile_qr_scan"}, "type": "electric_scooter", "lat": 38.897492666666665, "is_disabled": 0, "lon": -77.00359966666667, "is_reserved": 0}, {"name": "34806463165049fdf705fce4e8088d33", "fusion_lat": 0.0, "fusion_lon": 0.0, "bike_id": "34806463165049fdf705fce4e8088d33", "rental_uris": {"ios": "https://dc.lft.to/lastmile_qr_scan", "android": "https://dc.lft.to/lastmile_qr_scan"}, "type": "electric_scooter", "lat": 38.923897, "is_disabled": 0, "lon": -77.051578, "is_reserved": 0}, {"name": "7dd1d039149a5dd91a1310f5927ae5c5", "fusion_lat": 0.0, "fusion_lon": 0.0, "bike_id": "7dd1d039149a5dd91a1310f5927ae5c5", "rental_uris": {"ios": "https://dc.lft.to/lastmile_qr_scan", "android": "https://dc.lft.to/lastmile_qr_scan"}, "type": "electric_scooter", "lat": 38.93700483333333, "is_disabled": 0, "lon": -77.05599083333334, "is_reserved": 0}, {"name": "53393063444fce6382f3d34daa43a72a", "fusion_lat": 0.0, "fusion_lon": 0.0, "bike_id": "53393063444fce6382f3d34daa43a72a", "rental_uris": {"ios": "https://dc.lft.to/lastmile_qr_scan", "android": "https://dc.lft.to/lastmile_qr_scan"}, "type": "electric_scooter", "lat": 38.8960935, "is_disabled": 0, "lon": -77.046436, "is_reserved": 0}, {"name": "078dfef8384d92dfcc67c5bcd41b1fcc", "fusion_lat": 0.0, "fusion_lon": 0.0, "bike_id": "078dfef8384d92dfcc67c5bcd41b1fcc", "rental_uris": {"ios": "https://dc.lft.to/lastmile_qr_scan", "android": "https://dc.lft.to/lastmile_qr_scan"}, "type": "electric_bike", "lat": 39.0249805, "is_disabled": 0, "lon": -77.12567033333333, "is_reserved": 0}, {"name": "7f75e8f350a03b18aef6e04bfa96751e", "fusion_lat": 0.0, "fusion_lon": 0.0, "bike_id": "7f75e8f350a03b18aef6e04bfa96751e", "rental_uris": {"ios": "https://dc.lft.to/lastmile_qr_scan", "android": "https://dc.lft.to/lastmile_qr_scan"}, "type": "electric_bike", "lat": 39.00786016666667, "is_disabled": 0, "lon": -76.9957045, "is_reserved": 0}, {"name": "8cfef3b5b9042174c024aba158bc72be", "fusion_lat": 0.0, "fusion_lon": 0.0, "bike_id": "8cfef3b5b9042174c024aba158bc72be", "rental_uris": {"ios": "https://dc.lft.to/lastmile_qr_scan", "android": "https://dc.lft.to/lastmile_qr_scan"}, "type": "electric_scooter", "lat": 38.906540666666665, "is_disabled": 0, "lon": -77.0452745, "is_reserved": 0}, {"name": "8e4f82a1f00ae6637e699584cd3c3698", "fusion_lat": 0.0, "fusion_lon": 0.0, "bike_id": "8e4f82a1f00ae6637e699584cd3c3698", "rental_uris": {"ios": "https://dc.lft.to/lastmile_qr_scan", "android": "https://dc.lft.to/lastmile_qr_scan"}, "type": "electric_scooter", "lat": 38.9054085, "is_disabled": 0, "lon": -77.00491016666666, "is_reserved": 0}, {"name": "b37c68be96199f9acce429db7f6aec02", "fusion_lat": 0.0, "fusion_lon": 0.0, "bike_id": "b37c68be96199f9acce429db7f6aec02", "rental_uris": {"ios": "https://dc.lft.to/lastmile_qr_scan", "android": "https://dc.lft.to/lastmile_qr_scan"}, "type": "electric_scooter", "lat": 38.866993, "is_disabled": 0, "lon": -76.98708783333333, "is_reserved": 0}, {"name": "8def0336d56fba280f7d93feb6e91a28", "fusion_lat": 0.0, "fusion_lon": 0.0, "bike_id": "8def0336d56fba280f7d93feb6e91a28", "rental_uris": {"ios": "https://dc.lft.to/lastmile_qr_scan", "android": "https://dc.lft.to/lastmile_qr_scan"}, "type": "electric_scooter", "lat": 38.919620333333334, "is_disabled": 0, "lon": -77.03202183333333, "is_reserved": 0}, {"name": "23741bfbadf4b46a88e542a22f07561b", "fusion_lat": 0.0, "fusion_lon": 0.0, "bike_id": "23741bfbadf4b46a88e542a22f07561b", "rental_uris": {"ios": "https://dc.lft.to/lastmile_qr_scan", "android": "https://dc.lft.to/lastmile_qr_scan"}, "type": "electric_scooter", "lat": 38.917736166666664, "is_disabled": 0, "lon": -77.02956833333333, "is_reserved": 0}, {"name": "7ee76c6c70c8346d789258737041694c", "fusion_lat": 0.0, "fusion_lon": 0.0, "bike_id": "7ee76c6c70c8346d789258737041694c", "rental_uris": {"ios": "https://dc.lft.to/lastmile_qr_scan", "android": "https://dc.lft.to/lastmile_qr_scan"}, "type": "electric_scooter", "lat": 38.89604466666667, "is_disabled": 0, "lon": -77.026519, "is_reserved": 0}, {"name": "acbd84a176f84edf56cd561476479650", "fusion_lat": 0.0, "fusion_lon": 0.0, "bike_id": "acbd84a176f84edf56cd561476479650", "rental_uris": {"ios": "https://dc.lft.to/lastmile_qr_scan", "android": "https://dc.lft.to/lastmile_qr_scan"}, "type": "electric_scooter", "lat": 38.91707816666667, "is_disabled": 0, "lon": -77.04029616666666, "is_reserved": 0}, {"name": "a276547a9b1da5abeffa451c2c489e92", "fusion_lat": 0.0, "fusion_lon": 0.0, "bike_id": "a276547a9b1da5abeffa451c2c489e92", "rental_uris": {"ios": "https://dc.lft.to/lastmile_qr_scan", "android": "https://dc.lft.to/lastmile_qr_scan"}, "type": "electric_scooter", "lat": 38.925841, "is_disabled": 0, "lon": -77.0321205, "is_reserved": 0}, {"name": "2cd9dd0caed52691830e0cd8d56fc25f", "fusion_lat": 0.0, "fusion_lon": 0.0, "bike_id": "2cd9dd0caed52691830e0cd8d56fc25f", "rental_uris": {"ios": "https://dc.lft.to/lastmile_qr_scan", "android": "https://dc.lft.to/lastmile_qr_scan"}, "type": "electric_scooter", "lat": 38.9260575, "is_disabled": 0, "lon": -77.0215755, "is_reserved": 0}, {"name": "5da9afc3744066a9571c43830d63b863", "fusion_lat": 0.0, "fusion_lon": 0.0, "bike_id": "5da9afc3744066a9571c43830d63b863", "rental_uris": {"ios": "https://dc.lft.to/lastmile_qr_scan", "android": "https://dc.lft.to/lastmile_qr_scan"}, "type": "electric_scooter", "lat": 38.90268433333333, "is_disabled": 0, "lon": -77.01742766666666, "is_reserved": 0}, {"name": "30f296f7a4eba60cfc436e14b548531d", "fusion_lat": 0.0, "fusion_lon": 0.0, "bike_id": "30f296f7a4eba60cfc436e14b548531d", "rental_uris": {"ios": "https://dc.lft.to/lastmile_qr_scan", "android": "https://dc.lft.to/lastmile_qr_scan"}, "type": "electric_scooter", "lat": 38.9169495, "is_disabled": 0, "lon": -77.02987816666666, "is_reserved": 0}, {"name": "27b23f1e5130e387f889503f3b491aec", "fusion_lat": 0.0, "fusion_lon": 0.0, "bike_id": "27b23f1e5130e387f889503f3b491aec", "rental_uris": {"ios": "https://dc.lft.to/lastmile_qr_scan", "android": "https://dc.lft.to/lastmile_qr_scan"}, "type": "electric_scooter", "lat": 38.88488366666667, "is_disabled": 0, "lon": -77.024993, "is_reserved": 0}, {"name": "ba8eabb88b4768543aced359a5bc81bb", "fusion_lat": 0.0, "fusion_lon": 0.0, "bike_id": "ba8eabb88b4768543aced359a5bc81bb", "rental_uris": {"ios": "https://dc.lft.to/lastmile_qr_scan", "android": "https://dc.lft.to/lastmile_qr_scan"}, "type": "electric_scooter", "lat": 38.90953866666667, "is_disabled": 0, "lon": -77.0330715, "is_reserved": 0}, {"name": "2cbbedd8f1eb747d21a54404331adfbf", "fusion_lat": 0.0, "fusion_lon": 0.0, "bike_id": "2cbbedd8f1eb747d21a54404331adfbf", "rental_uris": {"ios": "https://dc.lft.to/lastmile_qr_scan", "android": "https://dc.lft.to/lastmile_qr_scan"}, "type": "electric_scooter", "lat": 38.92083266666667, "is_disabled": 0, "lon": -77.00060483333333, "is_reserved": 0}, {"name": "400ecc0d4f47f78b46b95a6ed14a0362", "fusion_lat": 0.0, "fusion_lon": 0.0, "bike_id": "400ecc0d4f47f78b46b95a6ed14a0362", "rental_uris": {"ios": "https://dc.lft.to/lastmile_qr_scan", "android": "https://dc.lft.to/lastmile_qr_scan"}, "type": "electric_scooter", "lat": 38.8791575, "is_disabled": 0, "lon": -77.005986, "is_reserved": 0}, {"name": "96c3b7aa8a6ba7d671ecad8ef67bf0d3", "fusion_lat": 0.0, "fusion_lon": 0.0, "bike_id": "96c3b7aa8a6ba7d671ecad8ef67bf0d3", "rental_uris": {"ios": "https://dc.lft.to/lastmile_qr_scan", "android": "https://dc.lft.to/lastmile_qr_scan"}, "type": "electric_scooter", "lat": 38.91627033333333, "is_disabled": 0, "lon": -77.0331135, "is_reserved": 0}, {"name": "b617948c5504bdf6e3e7434589a3233f", "fusion_lat": 0.0, "fusion_lon": 0.0, "bike_id": "b617948c5504bdf6e3e7434589a3233f", "rental_uris": {"ios": "https://dc.lft.to/lastmile_qr_scan", "android": "https://dc.lft.to/lastmile_qr_scan"}, "type": "electric_scooter", "lat": 38.932309833333335, "is_disabled": 0, "lon": -76.9993245, "is_reserved": 0}, {"name": "f3e804f96efe66ab5c26ea4eb37d19c0", "fusion_lat": 0.0, "fusion_lon": 0.0, "bike_id": "f3e804f96efe66ab5c26ea4eb37d19c0", "rental_uris": {"ios": "https://dc.lft.to/lastmile_qr_scan", "android": "https://dc.lft.to/lastmile_qr_scan"}, "type": "electric_bike", "lat": 38.86972883333333, "is_disabled": 0, "lon": -77.13232533333333, "is_reserved": 0}, {"name": "214be2a282ca1f6abcaa36be36afd338", "fusion_lat": 0.0, "fusion_lon": 0.0, "bike_id": "214be2a282ca1f6abcaa36be36afd338", "rental_uris": {"ios": "https://dc.lft.to/lastmile_qr_scan", "android": "https://dc.lft.to/lastmile_qr_scan"}, "type": "electric_scooter", "lat": 38.89976266666667, "is_disabled": 0, "lon": -77.02970466666666, "is_reserved": 0}, {"name": "b86a4fd866034d9ca1841b43fa25a23a", "fusion_lat": 0.0, "fusion_lon": 0.0, "bike_id": "b86a4fd866034d9ca1841b43fa25a23a", "rental_uris": {"ios": "https://dc.lft.to/lastmile_qr_scan", "android": "https://dc.lft.to/lastmile_qr_scan"}, "type": "electric_scooter", "lat": 38.92141683333333, "is_disabled": 0, "lon": -77.04584666666666, "is_reserved": 0}, {"name": "c0ff2f43ab283adf6b2d76ca10989e02", "fusion_lat": 0.0, "fusion_lon": 0.0, "bike_id": "c0ff2f43ab283adf6b2d76ca10989e02", "rental_uris": {"ios": "https://dc.lft.to/lastmile_qr_scan", "android": "https://dc.lft.to/lastmile_qr_scan"}, "type": "electric_scooter", "lat": 38.902688166666664, "is_disabled": 0, "lon": -77.0363265, "is_reserved": 0}, {"name": "57d80134043245c808c07d7952ee27c0", "fusion_lat": 0.0, "fusion_lon": 0.0, "bike_id": "57d80134043245c808c07d7952ee27c0", "rental_uris": {"ios": "https://dc.lft.to/lastmile_qr_scan", "android": "https://dc.lft.to/lastmile_qr_scan"}, "type": "electric_scooter", "lat": 38.90973483333333, "is_disabled": 0, "lon": -77.04826816666667, "is_reserved": 0}, {"name": "abfc00889c05bc45c653bedd82cfc0f3", "fusion_lat": 0.0, "fusion_lon": 0.0, "bike_id": "abfc00889c05bc45c653bedd82cfc0f3", "rental_uris": {"ios": "https://dc.lft.to/lastmile_qr_scan", "android": "https://dc.lft.to/lastmile_qr_scan"}, "type": "electric_scooter", "lat": 38.915677333333335, "is_disabled": 0, "lon": -77.03854616666666, "is_reserved": 0}, {"name": "62c540b272d46aa985d5f80b96e9c1d0", "fusion_lat": 0.0, "fusion_lon": 0.0, "bike_id": "62c540b272d46aa985d5f80b96e9c1d0", "rental_uris": {"ios": "https://dc.lft.to/lastmile_qr_scan", "android": "https://dc.lft.to/lastmile_qr_scan"}, "type": "electric_bike", "lat": 38.98510733333333, "is_disabled": 0, "lon": -76.98191383333334, "is_reserved": 0}, {"name": "02a96471bee0be4af777c0a35847d8ab", "fusion_lat": 0.0, "fusion_lon": 0.0, "bike_id": "02a96471bee0be4af777c0a35847d8ab", "rental_uris": {"ios": "https://dc.lft.to/lastmile_qr_scan", "android": "https://dc.lft.to/lastmile_qr_scan"}, "type": "electric_bike", "lat": 38.998431333333336, "is_disabled": 0, "lon": -77.02860483333333, "is_reserved": 0}, {"name": "f40a76741998a1e5d3b5eaa3a4a03bbb", "fusion_lat": 0.0, "fusion_lon": 0.0, "bike_id": "f40a76741998a1e5d3b5eaa3a4a03bbb", "rental_uris": {"ios": "https://dc.lft.to/lastmile_qr_scan", "android": "https://dc.lft.to/lastmile_qr_scan"}, "type": "electric_scooter", "lat": 38.931270833333336, "is_disabled": 0, "lon": -77.03854516666667, "is_reserved": 0}, {"name": "d53c1b4de885b0b8fd37ea6ecb5b81e5", "fusion_lat": 0.0, "fusion_lon": 0.0, "bike_id": "d53c1b4de885b0b8fd37ea6ecb5b81e5", "rental_uris": {"ios": "https://dc.lft.to/lastmile_qr_scan", "android": "https://dc.lft.to/lastmile_qr_scan"}, "type": "electric_scooter", "lat": 38.9087745, "is_disabled": 0, "lon": -77.04044983333333, "is_reserved": 0}, {"name": "5cafc076fbf4da348e7500ebf18e0657", "fusion_lat": 0.0, "fusion_lon": 0.0, "bike_id": "5cafc076fbf4da348e7500ebf18e0657", "rental_uris": {"ios": "https://dc.lft.to/lastmile_qr_scan", "android": "https://dc.lft.to/lastmile_qr_scan"}, "type": "electric_scooter", "lat": 38.90139383333333, "is_disabled": 0, "lon": -77.01196833333333, "is_reserved": 0}, {"name": "6716cead1f42ce070cd166eaf10849e7", "fusion_lat": 0.0, "fusion_lon": 0.0, "bike_id": "6716cead1f42ce070cd166eaf10849e7", "rental_uris": {"ios": "https://dc.lft.to/lastmile_qr_scan", "android": "https://dc.lft.to/lastmile_qr_scan"}, "type": "electric_scooter", "lat": 38.883737833333335, "is_disabled": 0, "lon": -76.995178, "is_reserved": 0}, {"name": "bc3b06fe13b00a230e55d814f72d55dd", "fusion_lat": 0.0, "fusion_lon": 0.0, "bike_id": "bc3b06fe13b00a230e55d814f72d55dd", "rental_uris": {"ios": "https://dc.lft.to/lastmile_qr_scan", "android": "https://dc.lft.to/lastmile_qr_scan"}, "type": "electric_scooter", "lat": 38.917578, "is_disabled": 0, "lon": -77.04044866666666, "is_reserved": 0}, {"name": "efff9c557a17a0a8ebc96f9e192951d0", "fusion_lat": 0.0, "fusion_lon": 0.0, "bike_id": "efff9c557a17a0a8ebc96f9e192951d0", "rental_uris": {"ios": "https://dc.lft.to/lastmile_qr_scan", "android": "https://dc.lft.to/lastmile_qr_scan"}, "type": "electric_scooter", "lat": 38.89486766666667, "is_disabled": 0, "lon": -76.99512816666666, "is_reserved": 0}, {"name": "55b27e6b7f0d36d8dd7462036cf615f5", "fusion_lat": 0.0, "fusion_lon": 0.0, "bike_id": "55b27e6b7f0d36d8dd7462036cf615f5", "rental_uris": {"ios": "https://dc.lft.to/lastmile_qr_scan", "android": "https://dc.lft.to/lastmile_qr_scan"}, "type": "electric_bike", "lat": 38.9676205, "is_disabled": 0, "lon": -77.09162216666667, "is_reserved": 0}, {"name": "6e077ce4cad4573801094b23033c7ffa", "fusion_lat": 0.0, "fusion_lon": 0.0, "bike_id": "6e077ce4cad4573801094b23033c7ffa", "rental_uris": {"ios": "https://dc.lft.to/lastmile_qr_scan", "android": "https://dc.lft.to/lastmile_qr_scan"}, "type": "electric_scooter", "lat": 38.9179055, "is_disabled": 0, "lon": -77.02312933333333, "is_reserved": 0}, {"name": "122ac0fc459dcaa81a09f7cabdacd1fa", "fusion_lat": 0.0, "fusion_lon": 0.0, "bike_id": "122ac0fc459dcaa81a09f7cabdacd1fa", "rental_uris": {"ios": "https://dc.lft.to/lastmile_qr_scan", "android": "https://dc.lft.to/lastmile_qr_scan"}, "type": "electric_scooter", "lat": 38.8952835, "is_disabled": 0, "lon": -77.02935166666667, "is_reserved": 0}, {"name": "65bf6384439d1bf7b869786b9da6b335", "fusion_lat": 0.0, "fusion_lon": 0.0, "bike_id": "65bf6384439d1bf7b869786b9da6b335", "rental_uris": {"ios": "https://dc.lft.to/lastmile_qr_scan", "android": "https://dc.lft.to/lastmile_qr_scan"}, "type": "electric_scooter", "lat": 38.858093333333336, "is_disabled": 0, "lon": -76.9865175, "is_reserved": 0}, {"name": "c075286836f85c677c4f9cb9fe1caa99", "fusion_lat": 0.0, "fusion_lon": 0.0, "bike_id": "c075286836f85c677c4f9cb9fe1caa99", "rental_uris": {"ios": "https://dc.lft.to/lastmile_qr_scan", "android": "https://dc.lft.to/lastmile_qr_scan"}, "type": "electric_scooter", "lat": 38.893090666666666, "is_disabled": 0, "lon": -77.04654916666667, "is_reserved": 0}, {"name": "5919146e9f693855f558c25895fe6ff6", "fusion_lat": 0.0, "fusion_lon": 0.0, "bike_id": "5919146e9f693855f558c25895fe6ff6", "rental_uris": {"ios": "https://dc.lft.to/lastmile_qr_scan", "android": "https://dc.lft.to/lastmile_qr_scan"}, "type": "electric_scooter", "lat": 38.94086816666667, "is_disabled": 0, "lon": -77.02734033333333, "is_reserved": 0}, {"name": "60f3a5a30748fdba6607f24b729b77b6", "fusion_lat": 0.0, "fusion_lon": 0.0, "bike_id": "60f3a5a30748fdba6607f24b729b77b6", "rental_uris": {"ios": "https://dc.lft.to/lastmile_qr_scan", "android": "https://dc.lft.to/lastmile_qr_scan"}, "type": "electric_scooter", "lat": 38.91405966666667, "is_disabled": 0, "lon": -77.0317365, "is_reserved": 0}, {"name": "997d4a31047c2e4c8d8612356f007caa", "fusion_lat": 0.0, "fusion_lon": 0.0, "bike_id": "997d4a31047c2e4c8d8612356f007caa", "rental_uris": {"ios": "https://dc.lft.to/lastmile_qr_scan", "android": "https://dc.lft.to/lastmile_qr_scan"}, "type": "electric_scooter", "lat": 38.898971833333334, "is_disabled": 0, "lon": -77.007351, "is_reserved": 0}, {"name": "2e4429087c69b6ecd742bc16c6c62ed1", "fusion_lat": 0.0, "fusion_lon": 0.0, "bike_id": "2e4429087c69b6ecd742bc16c6c62ed1", "rental_uris": {"ios": "https://dc.lft.to/lastmile_qr_scan", "android": "https://dc.lft.to/lastmile_qr_scan"}, "type": "electric_scooter", "lat": 38.92998983333333, "is_disabled": 0, "lon": -77.07819866666667, "is_reserved": 0}, {"name": "0e15401c866f38e50f4611058559888c", "fusion_lat": 0.0, "fusion_lon": 0.0, "bike_id": "0e15401c866f38e50f4611058559888c", "rental_uris": {"ios": "https://dc.lft.to/lastmile_qr_scan", "android": "https://dc.lft.to/lastmile_qr_scan"}, "type": "electric_scooter", "lat": 38.920300166666664, "is_disabled": 0, "lon": -77.01145066666666, "is_reserved": 0}, {"name": "c589077f70f87bfe818434013150cc6d", "fusion_lat": 0.0, "fusion_lon": 0.0, "bike_id": "c589077f70f87bfe818434013150cc6d", "rental_uris": {"ios": "https://dc.lft.to/lastmile_qr_scan", "android": "https://dc.lft.to/lastmile_qr_scan"}, "type": "electric_scooter", "lat": 38.919428833333335, "is_disabled": 0, "lon": -77.01803766666667, "is_reserved": 0}, {"name": "e799d4ffa6f1eb8c2b7619d4f04c9366", "fusion_lat": 0.0, "fusion_lon": 0.0, "bike_id": "e799d4ffa6f1eb8c2b7619d4f04c9366", "rental_uris": {"ios": "https://dc.lft.to/lastmile_qr_scan", "android": "https://dc.lft.to/lastmile_qr_scan"}, "type": "electric_scooter", "lat": 38.86359683333333, "is_disabled": 0, "lon": -76.99073533333333, "is_reserved": 0}, {"name": "73bf11dd1507845f123de43fa24c3c1d", "fusion_lat": 0.0, "fusion_lon": 0.0, "bike_id": "73bf11dd1507845f123de43fa24c3c1d", "rental_uris": {"ios": "https://dc.lft.to/lastmile_qr_scan", "android": "https://dc.lft.to/lastmile_qr_scan"}, "type": "electric_scooter", "lat": 38.90491933333333, "is_disabled": 0, "lon": -77.0294345, "is_reserved": 0}, {"name": "a2ebe5876dc886eedd7ccbbffde6b349", "fusion_lat": 0.0, "fusion_lon": 0.0, "bike_id": "a2ebe5876dc886eedd7ccbbffde6b349", "rental_uris": {"ios": "https://dc.lft.to/lastmile_qr_scan", "android": "https://dc.lft.to/lastmile_qr_scan"}, "type": "electric_scooter", "lat": 38.89196483333333, "is_disabled": 0, "lon": -77.03176416666666, "is_reserved": 0}, {"name": "fee1bc4ab6e0f9b45896e871f15ba2df", "fusion_lat": 0.0, "fusion_lon": 0.0, "bike_id": "fee1bc4ab6e0f9b45896e871f15ba2df", "rental_uris": {"ios": "https://dc.lft.to/lastmile_qr_scan", "android": "https://dc.lft.to/lastmile_qr_scan"}, "type": "electric_scooter", "lat": 38.9101145, "is_disabled": 0, "lon": -77.03459833333334, "is_reserved": 0}, {"name": "e772a54f8e68d7bee0bf621d2fe2ce34", "fusion_lat": 0.0, "fusion_lon": 0.0, "bike_id": "e772a54f8e68d7bee0bf621d2fe2ce34", "rental_uris": {"ios": "https://dc.lft.to/lastmile_qr_scan", "android": "https://dc.lft.to/lastmile_qr_scan"}, "type": "electric_scooter", "lat": 38.91829716666667, "is_disabled": 0, "lon": -76.9655515, "is_reserved": 0}, {"name": "3ebace9ed943632896d41b67b3028783", "fusion_lat": 0.0, "fusion_lon": 0.0, "bike_id": "3ebace9ed943632896d41b67b3028783", "rental_uris": {"ios": "https://dc.lft.to/lastmile_qr_scan", "android": "https://dc.lft.to/lastmile_qr_scan"}, "type": "electric_scooter", "lat": 38.933876, "is_disabled": 0, "lon": -77.03296966666667, "is_reserved": 0}, {"name": "71e8e72a2eb58d57e775080ed9510bdc", "fusion_lat": 0.0, "fusion_lon": 0.0, "bike_id": "71e8e72a2eb58d57e775080ed9510bdc", "rental_uris": {"ios": "https://dc.lft.to/lastmile_qr_scan", "android": "https://dc.lft.to/lastmile_qr_scan"}, "type": "electric_scooter", "lat": 38.883834666666665, "is_disabled": 0, "lon": -76.9948865, "is_reserved": 0}, {"name": "fbef303d9417c6f951c16efe14e402dc", "fusion_lat": 0.0, "fusion_lon": 0.0, "bike_id": "fbef303d9417c6f951c16efe14e402dc", "rental_uris": {"ios": "https://dc.lft.to/lastmile_qr_scan", "android": "https://dc.lft.to/lastmile_qr_scan"}, "type": "electric_scooter", "lat": 38.91444166666667, "is_disabled": 0, "lon": -77.01743966666666, "is_reserved": 0}, {"name": "b0944aeaaa088ca2102fd41d7e59fc55", "fusion_lat": 0.0, "fusion_lon": 0.0, "bike_id": "b0944aeaaa088ca2102fd41d7e59fc55", "rental_uris": {"ios": "https://dc.lft.to/lastmile_qr_scan", "android": "https://dc.lft.to/lastmile_qr_scan"}, "type": "electric_scooter", "lat": 38.905715666666666, "is_disabled": 0, "lon": -77.02236766666667, "is_reserved": 0}, {"name": "832db32f294152124540d812540ef3a6", "fusion_lat": 0.0, "fusion_lon": 0.0, "bike_id": "832db32f294152124540d812540ef3a6", "rental_uris": {"ios": "https://dc.lft.to/lastmile_qr_scan", "android": "https://dc.lft.to/lastmile_qr_scan"}, "type": "electric_scooter", "lat": 38.896139166666664, "is_disabled": 0, "lon": -77.02642, "is_reserved": 0}, {"name": "9dd63198ab65a1598e67a9580a97d96d", "fusion_lat": 0.0, "fusion_lon": 0.0, "bike_id": "9dd63198ab65a1598e67a9580a97d96d", "rental_uris": {"ios": "https://dc.lft.to/lastmile_qr_scan", "android": "https://dc.lft.to/lastmile_qr_scan"}, "type": "electric_scooter", "lat": 38.8968595, "is_disabled": 0, "lon": -77.00628966666666, "is_reserved": 0}, {"name": "a53da59a8c1e7fe9080cefbc0a975fb5", "fusion_lat": 0.0, "fusion_lon": 0.0, "bike_id": "a53da59a8c1e7fe9080cefbc0a975fb5", "rental_uris": {"ios": "https://dc.lft.to/lastmile_qr_scan", "android": "https://dc.lft.to/lastmile_qr_scan"}, "type": "electric_scooter", "lat": 38.93910016666667, "is_disabled": 0, "lon": -77.07084466666667, "is_reserved": 0}, {"name": "a2dcb20ea79b68c4e1209c245c463395", "fusion_lat": 0.0, "fusion_lon": 0.0, "bike_id": "a2dcb20ea79b68c4e1209c245c463395", "rental_uris": {"ios": "https://dc.lft.to/lastmile_qr_scan", "android": "https://dc.lft.to/lastmile_qr_scan"}, "type": "electric_scooter", "lat": 38.8847095, "is_disabled": 0, "lon": -77.020585, "is_reserved": 0}, {"name": "f3a7499eb3b86ab26b386c66e7941607", "fusion_lat": 0.0, "fusion_lon": 0.0, "bike_id": "f3a7499eb3b86ab26b386c66e7941607", "rental_uris": {"ios": "https://dc.lft.to/lastmile_qr_scan", "android": "https://dc.lft.to/lastmile_qr_scan"}, "type": "electric_scooter", "lat": 38.87180866666667, "is_disabled": 0, "lon": -77.00610766666667, "is_reserved": 0}, {"name": "84853ac17cdc76f95911c95d62a0c885", "fusion_lat": 0.0, "fusion_lon": 0.0, "bike_id": "84853ac17cdc76f95911c95d62a0c885", "rental_uris": {"ios": "https://dc.lft.to/lastmile_qr_scan", "android": "https://dc.lft.to/lastmile_qr_scan"}, "type": "electric_scooter", "lat": 38.9101475, "is_disabled": 0, "lon": -77.03179133333333, "is_reserved": 0}, {"name": "3572ccc36fbaea8fe9fd1c230b784be4", "fusion_lat": 0.0, "fusion_lon": 0.0, "bike_id": "3572ccc36fbaea8fe9fd1c230b784be4", "rental_uris": {"ios": "https://dc.lft.to/lastmile_qr_scan", "android": "https://dc.lft.to/lastmile_qr_scan"}, "type": "electric_scooter", "lat": 38.90803283333333, "is_disabled": 0, "lon": -77.034376, "is_reserved": 0}, {"name": "2df9702b8dedd93622548ae5206c9bb6", "fusion_lat": 0.0, "fusion_lon": 0.0, "bike_id": "2df9702b8dedd93622548ae5206c9bb6", "rental_uris": {"ios": "https://dc.lft.to/lastmile_qr_scan", "android": "https://dc.lft.to/lastmile_qr_scan"}, "type": "electric_scooter", "lat": 38.88987816666667, "is_disabled": 0, "lon": -77.003401, "is_reserved": 0}, {"name": "96af4b35f5d618d8d7d66635b92655ec", "fusion_lat": 0.0, "fusion_lon": 0.0, "bike_id": "96af4b35f5d618d8d7d66635b92655ec", "rental_uris": {"ios": "https://dc.lft.to/lastmile_qr_scan", "android": "https://dc.lft.to/lastmile_qr_scan"}, "type": "electric_scooter", "lat": 38.87643283333333, "is_disabled": 0, "lon": -77.00816366666666, "is_reserved": 0}, {"name": "2d0c424493596dbbb30e4de4f6b730a5", "fusion_lat": 0.0, "fusion_lon": 0.0, "bike_id": "2d0c424493596dbbb30e4de4f6b730a5", "rental_uris": {"ios": "https://dc.lft.to/lastmile_qr_scan", "android": "https://dc.lft.to/lastmile_qr_scan"}, "type": "electric_scooter", "lat": 38.898164, "is_disabled": 0, "lon": -77.031453, "is_reserved": 0}, {"name": "db0a087dbec5f43a732c2bb1d252212f", "fusion_lat": 0.0, "fusion_lon": 0.0, "bike_id": "db0a087dbec5f43a732c2bb1d252212f", "rental_uris": {"ios": "https://dc.lft.to/lastmile_qr_scan", "android": "https://dc.lft.to/lastmile_qr_scan"}, "type": "electric_scooter", "lat": 38.88583666666667, "is_disabled": 0, "lon": -77.01226583333333, "is_reserved": 0},