{"data": {"bikes": [{"rental_uris": {"ios": "https://dc.lft.to/lastmile_qr_scan", "android": "https://dc.lft.to/lastmile_qr_scan"}, "lon": -77.12626533333334, "type": "electric_bike", "fusion_lat": 0.0, "lat": 39.05814183333333, "name": "ded51228b608c635d65a0039ce318a09", "fusion_lon": 0.0, "bike_id": "ded51228b608c635d65a0039ce318a09", "is_disabled": 0, "is_reserved": 0}, {"rental_uris": {"ios": "https://dc.lft.to/lastmile_qr_scan", "android": "https://dc.lft.to/lastmile_qr_scan"}, "lon": -77.01412866666666, "type": "electric_scooter", "fusion_lat": 0.0, "lat": 38.928549333333336, "name": "0fc113165b98ec2a7c0ce5ed76e6fb76", "fusion_lon": 0.0, "bike_id": "0fc113165b98ec2a7c0ce5ed76e6fb76", "is_disabled": 0, "is_reserved": 0}, {"rental_uris": {"ios": "https://dc.lft.to/lastmile_qr_scan", "android": "https://dc.lft.to/lastmile_qr_scan"}, "lon": -77.03924283333333, "type": "electric_scooter", "fusion_lat": 0.0, "lat": 38.92102633333333, "name": "de01c3046202421431ee49d8fee93256", "fusion_lon": 0.0, "bike_id": "de01c3046202421431ee49d8fee93256", "is_disabled": 0, "is_reserved": 0}, {"rental_uris": {"ios": "https://dc.lft.to/lastmile_qr_scan", "android": "https://dc.lft.to/lastmile_qr_scan"}, "lon": -76.97827616666666, "type": "electric_bike", "fusion_lat": 0.0, "lat": 38.84611533333333, "name": "4b5f28695c24b75817d77f5e8405b088", "fusion_lon": 0.0, "bike_id": "4b5f28695c24b75817d77f5e8405b088", "is_disabled": 0, "is_reserved": 0}, {"rental_uris": {"ios": "https://dc.lft.to/lastmile_qr_scan", "android": "https://dc.lft.to/lastmile_qr_scan"}, "lon": -77.04155666666666, "type": "electric_scooter", "fusion_lat": 0.0, "lat": 38.91489216666667, "name": "b6d975023bed3b1c8fc0bf4343f8114d", "fusion_lon": 0.0, "bike_id": "b6d975023bed3b1c8fc0bf4343f8114d", "is_disabled": 0, "is_reserved": 0}, {"rental_uris": {"ios": "https://dc.lft.to/lastmile_qr_scan", "android": "https://dc.lft.to/lastmile_qr_scan"}, "lon": -77.1784495, "type": "electric_bike", "fusion_lat": 0.0, "lat": 39.0890125, "name": "331badbc5186933dda661631108d6457", "fusion_lon": 0.0, "bike_id": "331badbc5186933dda661631108d6457", "is_disabled": 0, "is_reserved": 0}, {"rental_uris": {"ios": "https://dc.lft.to/lastmile_qr_scan", "android": "https://dc.lft.to/lastmile_qr_scan"}, "lon": -77.00798233333333, "type": "electric_bike", "fusion_lat": 0.0, "lat": 38.949262833333336, "name": "0a5565818573e8fbcef8bcc64c84c8db", "fusion_lon": 0.0, "bike_id": "0a5565818573e8fbcef8bcc64c84c8db", "is_disabled": 0, "is_reserved": 0}, {"rental_uris": {"ios": "https://dc.lft.to/lastmile_qr_scan", "android": "https://dc.lft.to/lastmile_qr_scan"}, "lon": -77.0318405, "type": "electric_scooter", "fusion_lat": 0.0, "lat": 38.907630166666664, "name": "0999b50060db31c8f4089d300da98666", "fusion_lon": 0.0, "bike_id": "0999b50060db31c8f4089d300da98666", "is_disabled": 0, "is_reserved": 0}, {"rental_uris": {"ios": "https://dc.lft.to/lastmile_qr_scan", "android": "https://dc.lft.to/lastmile_qr_scan"}, "lon": -77.06327366666666, "type": "electric_scooter", "fusion_lat": 0.0, "lat": 38.907650333333336, "name": "a9d204188c89afcfae1caf56dbb2d2ed", "fusion_lon": 0.0, "bike_id": "a9d204188c89afcfae1caf56dbb2d2ed", "is_disabled": 0, "is_reserved": 0}, {"rental_uris": {"ios": "https://dc.lft.to/lastmile_qr_scan", "android": "https://dc.lft.to/lastmile_qr_scan"}, "lon": -76.99504433333334, "type": "electric_bike", "fusion_lat": 0.0, "lat": 39.000046833333336, "name": "6522f00c49513987b376882c62e43e17", "fusion_lon": 0.0, "bike_id": "6522f00c49513987b376882c62e43e17", "is_disabled": 0, "is_reserved": 0}, {"rental_uris": {"ios": "https://dc.lft.to/lastmile_qr_scan", "android": "https://dc.lft.to/lastmile_qr_scan"}, "lon": -76.9979135, "type": "electric_scooter", "fusion_lat": 0.0, "lat": 38.9218235, "name": "507c70e96a5d9466b725390aa6bce335", "fusion_lon": 0.0, "bike_id": "507c70e96a5d9466b725390aa6bce335", "is_disabled": 0, "is_reserved": 0}, {"rental_uris": {"ios": "https://dc.lft.to/lastmile_qr_scan", "android": "https://dc.lft.to/lastmile_qr_scan"}, "lon": -76.99939666666667, "type": "electric_scooter", "fusion_lat": 0.0, "lat": 38.90694766666667, "name": "f65f6351dcceceaf66ec9fd3f2d7364d", "fusion_lon": 0.0, "bike_id": "f65f6351dcceceaf66ec9fd3f2d7364d", "is_disabled": 0, "is_reserved": 0}, {"rental_uris": {"ios": "https://dc.lft.to/lastmile_qr_scan", "android": "https://dc.lft.to/lastmile_qr_scan"}, "lon": -77.00505533333333, "type": "electric_scooter", "fusion_lat": 0.0, "lat": 38.917061333333336, "name": "3c77c9e84eaf7cd830c9e9a89803ac6c", "fusion_lon": 0.0, "bike_id": "3c77c9e84eaf7cd830c9e9a89803ac6c", "is_disabled": 0, "is_reserved": 0}, {"rental_uris": {"ios": "https://dc.lft.to/lastmile_qr_scan", "android": "https://dc.lft.to/lastmile_qr_scan"}, "lon": -77.05153566666667, "type": "electric_scooter", "fusion_lat": 0.0, "lat": 38.901277666666665, "name": "ef2b2e31f86e7e9bf85d4a6cb21d6942", "fusion_lon": 0.0, "bike_id": "ef2b2e31f86e7e9bf85d4a6cb21d6942", "is_disabled": 0, "is_reserved": 0}, {"rental_uris": {"ios": "https://dc.lft.to/lastmile_qr_scan", "android": "https://dc.lft.to/lastmile_qr_scan"}, "lon": -76.99975833333333, "type": "electric_scooter", "fusion_lat": 0.0, "lat": 38.83837533333333, "name": "43feb2c07f2a9b3340fb5796f409f959", "fusion_lon": 0.0, "bike_id": "43feb2c07f2a9b3340fb5796f409f959", "is_disabled": 0, "is_reserved": 0}, {"rental_uris": {"ios": "https://dc.lft.to/lastmile_qr_scan", "android": "https://dc.lft.to/lastmile_qr_scan"}, "lon": -77.04013783333333, "type": "electric_scooter", "fusion_lat": 0.0, "lat": 38.901302666666666, "name": "6e7cba90c64ba0eae4f9a0d7e123a9ce", "fusion_lon": 0.0, "bike_id": "6e7cba90c64ba0eae4f9a0d7e123a9ce", "is_disabled": 0, "is_reserved": 0}, {"rental_uris": {"ios": "https://dc.lft.to/lastmile_qr_scan", "android": "https://dc.lft.to/lastmile_qr_scan"}, "lon": -77.026154, "type": "electric_scooter", "fusion_lat": 0.0, "lat": 38.93395183333333, "name": "01b1c65520e335825a284383bab3551f", "fusion_lon": 0.0, "bike_id": "01b1c65520e335825a284383bab3551f", "is_disabled": 0, "is_reserved": 0}, {"rental_uris": {"ios": "https://dc.lft.to/lastmile_qr_scan", "android": "https://dc.lft.to/lastmile_qr_scan"}, "lon": -77.0698725, "type": "electric_scooter", "fusion_lat": 0.0, "lat": 38.954864666666666, "name": "68e227ca50bf6b2c7af3e88859a49986", "fusion_lon": 0.0, "bike_id": "68e227ca50bf6b2c7af3e88859a49986", "is_disabled": 0, "is_reserved": 0}, {"rental_uris": {"ios": "https://dc.lft.to/lastmile_qr_scan", "android": "https://dc.lft.to/lastmile_qr_scan"}, "lon": -77.024501, "type": "electric_scooter", "fusion_lat": 0.0, "lat": 38.93682183333333, "name": "810b7892a18a4c520ab790147853db3e", "fusion_lon": 0.0, "bike_id": "810b7892a18a4c520ab790147853db3e", "is_disabled": 0, "is_reserved": 0}, {"rental_uris": {"ios": "https://dc.lft.to/lastmile_qr_scan", "android": "https://dc.lft.to/lastmile_qr_scan"}, "lon": -77.03931183333333, "type": "electric_scooter", "fusion_lat": 0.0, "lat": 38.899084, "name": "9874f5064b83c0837ee7e2c881a7b54a", "fusion_lon": 0.0, "bike_id": "9874f5064b83c0837ee7e2c881a7b54a", "is_disabled": 0, "is_reserved": 0}, {"rental_uris": {"ios": "https://dc.lft.to/lastmile_qr_scan", "android": "https://dc.lft.to/lastmile_qr_scan"}, "lon": -77.027096, "type": "electric_scooter", "fusion_lat": 0.0, "lat": 38.91768233333333, "name": "fb7b46a5e922005b6512fe757ec27fc4", "fusion_lon": 0.0, "bike_id": "fb7b46a5e922005b6512fe757ec27fc4", "is_disabled": 0, "is_reserved": 0}, {"rental_uris": {"ios": "https://dc.lft.to/lastmile_qr_scan", "android": "https://dc.lft.to/lastmile_qr_scan"}, "lon": -77.05855583333333, "type": "electric_scooter", "fusion_lat": 0.0, "lat": 38.9342395, "name": "6ad3b61678c8f31e0687e92820febee1", "fusion_lon": 0.0, "bike_id": "6ad3b61678c8f31e0687e92820febee1", "is_disabled": 0, "is_reserved": 0}, {"rental_uris": {"ios": "https://dc.lft.to/lastmile_qr_scan", "android": "https://dc.lft.to/lastmile_qr_scan"}, "lon": -76.987069, "type": "electric_scooter", "fusion_lat": 0.0, "lat": 38.865385, "name": "c326cec5f988f585014ffc6d54e940f4", "fusion_lon": 0.0, "bike_id": "c326cec5f988f585014ffc6d54e940f4", "is_disabled": 0, "is_reserved": 0}, {"rental_uris": {"ios": "https://dc.lft.to/lastmile_qr_scan", "android": "https://dc.lft.to/lastmile_qr_scan"}, "lon": -77.0507025, "type": "electric_scooter", "fusion_lat": 0.0, "lat": 38.900889666666664, "name": "9fed65574d45dff793de95e4fc42c6ff", "fusion_lon": 0.0, "bike_id": "9fed65574d45dff793de95e4fc42c6ff", "is_disabled": 0, "is_reserved": 0}, {"rental_uris": {"ios": "https://dc.lft.to/lastmile_qr_scan", "android": "https://dc.lft.to/lastmile_qr_scan"}, "lon": -77.03165016666667, "type": "electric_scooter", "fusion_lat": 0.0, "lat": 38.89942416666667, "name": "352e8ad54dbb8538614fe50eb2dd318c", "fusion_lon": 0.0, "bike_id": "352e8ad54dbb8538614fe50eb2dd318c", "is_disabled": 0, "is_reserved": 0}, {"rental_uris": {"ios": "https://dc.lft.to/lastmile_qr_scan", "android": "https://dc.lft.to/lastmile_qr_scan"}, "lon": -77.01195116666666, "type": "electric_scooter", "fusion_lat": 0.0, "lat": 38.90027716666667, "name": "432dec45489fd6a99fdf556db0734ead", "fusion_lon": 0.0, "bike_id": "432dec45489fd6a99fdf556db0734ead", "is_disabled": 0, "is_reserved": 0}, {"rental_uris": {"ios": "https://dc.lft.to/lastmile_qr_scan", "android": "https://dc.lft.to/lastmile_qr_scan"}, "lon": -77.005274, "type": "electric_scooter", "fusion_lat": 0.0, "lat": 38.9290215, "name": "83d7ec1d7118c4cd6c2078b473620f1f", "fusion_lon": 0.0, "bike_id": "83d7ec1d7118c4cd6c2078b473620f1f", "is_disabled": 0, "is_reserved": 0}, {"rental_uris": {"ios": "https://dc.lft.to/lastmile_qr_scan", "android": "https://dc.lft.to/lastmile_qr_scan"}, "lon": -77.04495716666666, "type": "electric_scooter", "fusion_lat": 0.0, "lat": 38.9086855, "name": "e8b963d2feb2e7017131cfbaeabcac98", "fusion_lon": 0.0, "bike_id": "e8b963d2feb2e7017131cfbaeabcac98", "is_disabled": 0, "is_reserved": 0}, {"rental_uris": {"ios": "https://dc.lft.to/lastmile_qr_scan", "android": "https://dc.lft.to/lastmile_qr_scan"}, "lon": -77.0376285, "type": "electric_scooter", "fusion_lat": 0.0, "lat": 38.929084, "name": "2a9c8c26c2376440038cafe63c4ec154", "fusion_lon": 0.0, "bike_id": "2a9c8c26c2376440038cafe63c4ec154", "is_disabled": 0, "is_reserved": 0}, {"rental_uris": {"ios": "https://dc.lft.to/lastmile_qr_scan", "android": "https://dc.lft.to/lastmile_qr_scan"}, "lon": -77.1309975, "type": "electric_bike", "fusion_lat": 0.0, "lat": 38.876317, "name": "c0acbfa71576299049bd16f268dda289", "fusion_lon": 0.0, "bike_id": "c0acbfa71576299049bd16f268dda289", "is_disabled": 0, "is_reserved": 0}, {"rental_uris": {"ios": "https://dc.lft.to/lastmile_qr_scan", "android": "https://dc.lft.to/lastmile_qr_scan"}, "lon": -77.0771395, "type": "electric_scooter", "fusion_lat": 0.0, "lat": 38.9561245, "name": "f413eaccf6399cad579a0d3a9834b984", "fusion_lon": 0.0, "bike_id": "f413eaccf6399cad579a0d3a9834b984", "is_disabled": 0, "is_reserved": 0}, {"rental_uris": {"ios": "https://dc.lft.to/lastmile_qr_scan", "android": "https://dc.lft.to/lastmile_qr_scan"}, "lon": -77.03863033333333, "type": "electric_scooter", "fusion_lat": 0.0, "lat": 38.915615833333334, "name": "980819129484a08427c9f0e27c01ca38", "fusion_lon": 0.0, "bike_id": "980819129484a08427c9f0e27c01ca38", "is_disabled": 0, "is_reserved": 0}, {"rental_uris": {"ios": "https://dc.lft.to/lastmile_qr_scan", "android": "https://dc.lft.to/lastmile_qr_scan"}, "lon": -77.066902, "type": "electric_scooter", "fusion_lat": 0.0, "lat": 38.9097465, "name": "d7c4efda9c5f903fdcba3757b63b1ad0", "fusion_lon": 0.0, "bike_id": "d7c4efda9c5f903fdcba3757b63b1ad0", "is_disabled": 0, "is_reserved": 0}, {"rental_uris": {"ios": "https://dc.lft.to/lastmile_qr_scan", "android": "https://dc.lft.to/lastmile_qr_scan"}, "lon": -77.03509283333334, "type": "electric_scooter", "fusion_lat": 0.0, "lat": 38.923467333333335, "name": "c71a27816c07793ce6082d7524c4cf3c", "fusion_lon": 0.0, "bike_id": "c71a27816c07793ce6082d7524c4cf3c", "is_disabled": 0, "is_reserved": 0}, {"rental_uris": {"ios": "https://dc.lft.to/lastmile_qr_scan", "android": "https://dc.lft.to/lastmile_qr_scan"}, "lon": -77.03964033333334, "type": "electric_scooter", "fusion_lat": 0.0, "lat": 38.916328166666666, "name": "2938ad63ae78d9886e6563b8d4bc4ac9", "fusion_lon": 0.0, "bike_id": "2938ad63ae78d9886e6563b8d4bc4ac9", "is_disabled": 0, "is_reserved": 0}, {"rental_uris": {"ios": "https://dc.lft.to/lastmile_qr_scan", "android": "https://dc.lft.to/lastmile_qr_scan"}, "lon": -77.02946066666667, "type": "electric_scooter", "fusion_lat": 0.0, "lat": 38.90517033333333, "name": "f53b5c019d8aa605cfa23b6e95231ed6", "fusion_lon": 0.0, "bike_id": "f53b5c019d8aa605cfa23b6e95231ed6", "is_disabled": 0, "is_reserved": 0}, {"rental_uris": {"ios": "https://dc.lft.to/lastmile_qr_scan", "android": "https://dc.lft.to/lastmile_qr_scan"}, "lon": -76.99034783333333, "type": "electric_scooter", "fusion_lat": 0.0, "lat": 38.85868466666667, "name": "775aa7ecc6077c7fe74ac26e7b23d60c", "fusion_lon": 0.0, "bike_id": "775aa7ecc6077c7fe74ac26e7b23d60c", "is_disabled": 0, "is_reserved": 0}, {"rental_uris": {"ios": "https://dc.lft.to/lastmile_qr_scan", "android": "https://dc.lft.to/lastmile_qr_scan"}, "lon": -77.0092175, "type": "electric_scooter", "fusion_lat": 0.0, "lat": 38.912415333333335, "name": "49658011494585c876336996d394d7bc", "fusion_lon": 0.0, "bike_id": "49658011494585c876336996d394d7bc", "is_disabled": 0, "is_reserved": 0}, {"rental_uris": {"ios": "https://dc.lft.to/lastmile_qr_scan", "android": "https://dc.lft.to/lastmile_qr_scan"}, "lon": -77.081939, "type": "electric_bike", "fusion_lat": 0.0, "lat": 38.92204383333333, "name": "a4864b8d9b3e0581bb8c05974dbba88d", "fusion_lon": 0.0, "bike_id": "a4864b8d9b3e0581bb8c05974dbba88d", "is_disabled": 0, "is_reserved": 0}, {"rental_uris": {"ios": "https://dc.lft.to/lastmile_qr_scan", "android": "https://dc.lft.to/lastmile_qr_scan"}, "lon": -77.02854816666667, "type": "electric_scooter", "fusion_lat": 0.0, "lat": 38.923751833333334, "name": "8ab0419c8567b80f91683d81c3ab2fa3", "fusion_lon": 0.0, "bike_id": "8ab0419c8567b80f91683d81c3ab2fa3", "is_disabled": 0, "is_reserved": 0}, {"rental_uris": {"ios": "https://dc.lft.to/lastmile_qr_scan", "android": "https://dc.lft.to/lastmile_qr_scan"}, "lon": -76.9761385, "type": "electric_bike", "fusion_lat": 0.0, "lat": 38.9130725, "name": "07a9dc095356ced7b91f60c8c3de32ce", "fusion_lon": 0.0, "bike_id": "07a9dc095356ced7b91f60c8c3de32ce", "is_disabled": 0, "is_reserved": 0}, {"rental_uris": {"ios": "https://dc.lft.to/lastmile_qr_scan", "android": "https://dc.lft.to/lastmile_qr_scan"}, "lon": -77.06609566666667, "type": "electric_bike", "fusion_lat": 0.0, "lat": 38.911304, "name": "4937916e17ba11cbbdd3a2d971047e3d", "fusion_lon": 0.0, "bike_id": "4937916e17ba11cbbdd3a2d971047e3d", "is_disabled": 0, "is_reserved": 0}, {"rental_uris": {"ios": "https://dc.lft.to/lastmile_qr_scan", "android": "https://dc.lft.to/lastmile_qr_scan"}, "lon": -77.047064, "type": "electric_scooter", "fusion_lat": 0.0, "lat": 38.90858133333333, "name": "f8acda089868f02dd704deb731fd8a2e", "fusion_lon": 0.0, "bike_id": "f8acda089868f02dd704deb731fd8a2e", "is_disabled": 0, "is_reserved": 0}, {"rental_uris": {"ios": "https://dc.lft.to/lastmile_qr_scan", "android": "https://dc.lft.to/lastmile_qr_scan"}, "lon": -77.04819066666667, "type": "electric_scooter", "fusion_lat": 0.0, "lat": 38.91335566666667, "name": "7e0b0ae4e615adf612b84ad4cc4e5f70", "fusion_lon": 0.0, "bike_id": "7e0b0ae4e615adf612b84ad4cc4e5f70", "is_disabled": 0, "is_reserved": 0}, {"rental_uris": {"ios": "https://dc.lft.to/lastmile_qr_scan", "android": "https://dc.lft.to/lastmile_qr_scan"}, "lon": -76.98938916666667, "type": "electric_bike", "fusion_lat": 0.0, "lat": 38.928637333333334, "name": "a53f45082da1784622b97d4682b82dde", "fusion_lon": 0.0, "bike_id": "a53f45082da1784622b97d4682b82dde", "is_disabled": 0, "is_reserved": 0}, {"rental_uris": {"ios": "https://dc.lft.to/lastmile_qr_scan", "android": "https://dc.lft.to/lastmile_qr_scan"}, "lon": -77.03471183333333, "type": "electric_scooter", "fusion_lat": 0.0, "lat": 38.93045683333333, "name": "ef9c50bbfd1706bfec5427ab6614e592", "fusion_lon": 0.0, "bike_id": "ef9c50bbfd1706bfec5427ab6614e592", "is_disabled": 0, "is_reserved": 0}, {"rental_uris": {"ios": "https://dc.lft.to/lastmile_qr_scan", "android": "https://dc.lft.to/lastmile_qr_scan"}, "lon": -77.021572, "type": "electric_scooter", "fusion_lat": 0.0, "lat": 38.897276166666664, "name": "b28e3ddc93b5339231cbe6f67cba1b16", "fusion_lon": 0.0, "bike_id": "b28e3ddc93b5339231cbe6f67cba1b16", "is_disabled": 0, "is_reserved": 0}, {"rental_uris": {"ios": "https://dc.lft.to/lastmile_qr_scan", "android": "https://dc.lft.to/lastmile_qr_scan"}, "lon": -77.045233, "type": "electric_scooter", "fusion_lat": 0.0, "lat": 38.903842833333336, "name": "34236a09e8ccac3d0429cface1c6e73d", "fusion_lon": 0.0, "bike_id": "34236a09e8ccac3d0429cface1c6e73d", "is_disabled": 0, "is_reserved": 0}, {"rental_uris": {"ios": "https://dc.lft.to/lastmile_qr_scan", "android": "https://dc.lft.to/lastmile_qr_scan"}, "lon": -77.005699, "type": "electric_scooter", "fusion_lat": 0.0, "lat": 38.903406833333335, "name": "457f76e14281ae7eca9f63bedfbcba19", "fusion_lon": 0.0, "bike_id": "457f76e14281ae7eca9f63bedfbcba19", "is_disabled": 0, "is_reserved": 0}, {"rental_uris": {"ios": "https://dc.lft.to/lastmile_qr_scan", "android": "https://dc.lft.to/lastmile_qr_scan"}, "lon": -77.02687683333333, "type": "electric_scooter", "fusion_lat": 0.0, "lat": 38.9259625, "name": "8dc390b24258ba8fb9754eaa2ca7b2e2", "fusion_lon": 0.0, "bike_id": "8dc390b24258ba8fb9754eaa2ca7b2e2", "is_disabled": 0, "is_reserved": 0}, {"rental_uris": {"ios": "https://dc.lft.to/lastmile_qr_scan", "android": "https://dc.lft.to/lastmile_qr_scan"}, "lon": -77.02836383333333, "type": "electric_scooter", "fusion_lat": 0.0, "lat": 38.93193316666667, "name": "32058fdf11255670e30d9b76114d630a", "fusion_lon": 0.0, "bike_id": "32058fdf11255670e30d9b76114d630a", "is_disabled": 0, "is_reserved": 0}, {"rental_uris": {"ios": "https://dc.lft.to/lastmile_qr_scan", "android": "https://dc.lft.to/lastmile_qr_scan"}, "lon": -77.02470033333333, "type": "electric_scooter", "fusion_lat": 0.0, "lat": 38.931013166666666, "name": "6e8925c53745f5e5bd5820264084dad3", "fusion_lon": 0.0, "bike_id": "6e8925c53745f5e5bd5820264084dad3", "is_disabled": 0, "is_reserved": 0}, {"rental_uris": {"ios": "https://dc.lft.to/lastmile_qr_scan", "android": "https://dc.lft.to/lastmile_qr_scan"}, "lon": -76.96057316666666, "type": "electric_bike", "fusion_lat": 0.0, "lat": 38.88406, "name": "403c582ad220106b610e728960fa533a", "fusion_lon": 0.0, "bike_id": "403c582ad220106b610e728960fa533a", "is_disabled": 0, "is_reserved": 0}, {"rental_uris": {"ios": "https://dc.lft.to/lastmile_qr_scan", "android": "https://dc.lft.to/lastmile_qr_scan"}, "lon": -77.01120433333334, "type": "electric_scooter", "fusion_lat": 0.0, "lat": 38.8953635, "name": "644b2f83cdab7c101ce00470cc6f15f2", "fusion_lon": 0.0, "bike_id": "644b2f83cdab7c101ce00470cc6f15f2", "is_disabled": 0, "is_reserved": 0}, {"rental_uris": {"ios": "https://dc.lft.to/lastmile_qr_scan", "android": "https://dc.lft.to/lastmile_qr_scan"}, "lon": -76.9081635, "type": "electric_bike", "fusion_lat": 0.0, "lat": 38.99454716666666, "name": "abcb47f1004eaf1c0ce59ed5d90a741a", "fusion_lon": 0.0, "bike_id": "abcb47f1004eaf1c0ce59ed5d90a741a", "is_disabled": 0, "is_reserved": 0}, {"rental_uris": {"ios": "https://dc.lft.to/lastmile_qr_scan", "android": "https://dc.lft.to/lastmile_qr_scan"}, "lon": -77.081976, "type": "electric_scooter", "fusion_lat": 0.0, "lat": 38.94926566666667, "name": "83c76dc966033d75265f8f8ae707c863", "fusion_lon": 0.0, "bike_id": "83c76dc966033d75265f8f8ae707c863", "is_disabled": 0, "is_reserved": 0}, {"rental_uris": {"ios": "https://dc.lft.to/lastmile_qr_scan", "android": "https://dc.lft.to/lastmile_qr_scan"}, "lon": -77.03867616666666, "type": "electric_scooter", "fusion_lat": 0.0, "lat": 38.90771266666667, "name": "8c82a3ff075e0d7edf51a3abe54a52f1", "fusion_lon": 0.0, "bike_id": "8c82a3ff075e0d7edf51a3abe54a52f1", "is_disabled": 0, "is_reserved": 0}, {"rental_uris": {"ios": "https://dc.lft.to/lastmile_qr_scan", "android": "https://dc.lft.to/lastmile_qr_scan"}, "lon": -77.04332166666667, "type": "electric_scooter", "fusion_lat": 0.0, "lat": 38.89586766666667, "name": "ddfcf6f2ca3ee93d2bed753a5c0d9672", "fusion_lon": 0.0, "bike_id": "ddfcf6f2ca3ee93d2bed753a5c0d9672", "is_disabled": 0, "is_reserved": 0}, {"rental_uris": {"ios": "https://dc.lft.to/lastmile_qr_scan", "android": "https://dc.lft.to/lastmile_qr_scan"}, "lon": -77.0402575, "type": "electric_scooter", "fusion_lat": 0.0, "lat": 38.91810533333334, "name": "92503f5db2560fc971a428cb6a5731cf", "fusion_lon": 0.0, "bike_id": "92503f5db2560fc971a428cb6a5731cf", "is_disabled": 0, "is_reserved": 0}, {"rental_uris": {"ios": "https://dc.lft.to/lastmile_qr_scan", "android": "https://dc.lft.to/lastmile_qr_scan"}, "lon": -77.03183566666667, "type": "electric_scooter", "fusion_lat": 0.0, "lat": 38.919319, "name": "5fe05b900bab5f90a3ef30f504b11532", "fusion_lon": 0.0, "bike_id": "5fe05b900bab5f90a3ef30f504b11532", "is_disabled": 0, "is_reserved": 0}, {"rental_uris": {"ios": "https://dc.lft.to/lastmile_qr_scan", "android": "https://dc.lft.to/lastmile_qr_scan"}, "lon": -77.03269616666667, "type": "electric_scooter", "fusion_lat": 0.0, "lat": 38.925497, "name": "309f7eff855546f58c229c865641dcf0", "fusion_lon": 0.0, "bike_id": "309f7eff855546f58c229c865641dcf0", "is_disabled": 0, "is_reserved": 0}, {"rental_uris": {"ios": "https://dc.lft.to/lastmile_qr_scan", "android": "https://dc.lft.to/lastmile_qr_scan"}, "lon": -77.03183083333333, "type": "electric_scooter", "fusion_lat": 0.0, "lat": 38.918011, "name": "102a71a5d6839b150d6e34a90e09d846", "fusion_lon": 0.0, "bike_id": "102a71a5d6839b150d6e34a90e09d846", "is_disabled": 0, "is_reserved": 0}, {"rental_uris": {"ios": "https://dc.lft.to/lastmile_qr_scan", "android": "https://dc.lft.to/lastmile_qr_scan"}, "lon": -77.04672566666666, "type": "electric_scooter", "fusion_lat": 0.0, "lat": 38.91481066666667, "name": "6bb4a8dbdb9076785e5f9644b602b2eb", "fusion_lon": 0.0, "bike_id": "6bb4a8dbdb9076785e5f9644b602b2eb", "is_disabled": 0, "is_reserved": 0}, {"rental_uris": {"ios": "https://dc.lft.to/lastmile_qr_scan", "android": "https://dc.lft.to/lastmile_qr_scan"}, "lon": -77.034701, "type": "electric_scooter", "fusion_lat": 0.0, "lat": 38.916888, "name": "fd34d818c466c88dcb2a536867cb042a", "fusion_lon": 0.0, "bike_id": "fd34d818c466c88dcb2a536867cb042a", "is_disabled": 0, "is_reserved": 0}, {"rental_uris": {"ios": "https://dc.lft.to/lastmile_qr_scan", "android": "https://dc.lft.to/lastmile_qr_scan"}, "lon": -77.0918865, "type": "electric_scooter", "fusion_lat": 0.0, "lat": 38.9137185, "name": "7155281e2a91a7765c584802e8bad2ae", "fusion_lon": 0.0, "bike_id": "7155281e2a91a7765c584802e8bad2ae", "is_disabled": 0, "is_reserved": 0}, {"rental_uris": {"ios": "https://dc.lft.to/lastmile_qr_scan", "android": "https://dc.lft.to/lastmile_qr_scan"}, "lon": -77.1068515, "type": "electric_bike", "fusion_lat": 0.0, "lat": 38.93582383333333, "name": "ac9b32906651e059231aa3b397302e4d", "fusion_lon": 0.0, "bike_id": "ac9b32906651e059231aa3b397302e4d", "is_disabled": 0, "is_reserved": 0}, {"rental_uris": {"ios": "https://dc.lft.to/lastmile_qr_scan", "android": "https://dc.lft.to/lastmile_qr_scan"}, "lon": -77.03512116666667, "type": "electric_scooter", "fusion_lat": 0.0, "lat": 38.9215045, "name": "021976f7a6bac8fddf2da0a72a09ff89", "fusion_lon": 0.0, "bike_id": "021976f7a6bac8fddf2da0a72a09ff89", "is_disabled": 0, "is_reserved": 0}, {"rental_uris": {"ios": "https://dc.lft.to/lastmile_qr_scan", "android": "https://dc.lft.to/lastmile_qr_scan"}, "lon": -76.94880033333334, "type": "electric_scooter", "fusion_lat": 0.0, "lat": 38.89503533333333, "name": "71df7972e706cbcc117c6d66df4df81e", "fusion_lon": 0.0, "bike_id": "71df7972e706cbcc117c6d66df4df81e", "is_disabled": 0, "is_reserved": 0}, {"rental_uris": {"ios": "https://dc.lft.to/lastmile_qr_scan", "android": "https://dc.lft.to/lastmile_qr_scan"}, "lon": -77.02949616666666, "type": "electric_scooter", "fusion_lat": 0.0, "lat": 38.90518, "name": "b55933ce74e5e042d0b922f3aa37da03", "fusion_lon": 0.0, "bike_id": "b55933ce74e5e042d0b922f3aa37da03", "is_disabled": 0, "is_reserved": 0}, {"rental_uris": {"ios": "https://dc.lft.to/lastmile_qr_scan", "android": "https://dc.lft.to/lastmile_qr_scan"}, "lon": -77.04236866666666, "type": "electric_scooter", "fusion_lat": 0.0, "lat": 38.90286233333333, "name": "4dc7beea561d86f70509fe02cb79cf4d", "fusion_lon": 0.0, "bike_id": "4dc7beea561d86f70509fe02cb79cf4d", "is_disabled": 0, "is_reserved": 0}, {"rental_uris": {"ios": "https://dc.lft.to/lastmile_qr_scan", "android": "https://dc.lft.to/lastmile_qr_scan"}, "lon": -77.00657633333333, "type": "electric_scooter", "fusion_lat": 0.0, "lat": 38.944629666666664, "name": "2e485090e31ed3cd6954067cbd715707", "fusion_lon": 0.0, "bike_id": "2e485090e31ed3cd6954067cbd715707", "is_disabled": 0, "is_reserved": 0}, {"rental_uris": {"ios": "https://dc.lft.to/lastmile_qr_scan", "android": "https://dc.lft.to/lastmile_qr_scan"}, "lon": -77.00771116666667, "type": "electric_scooter", "fusion_lat": 0.0, "lat": 38.91119183333333, "name": "cb94eb3823e9e87e22a629205048a94e", "fusion_lon": 0.0, "bike_id": "cb94eb3823e9e87e22a629205048a94e", "is_disabled": 0, "is_reserved": 0}, {"rental_uris": {"ios": "https://dc.lft.to/lastmile_qr_scan", "android": "https://dc.lft.to/lastmile_qr_scan"}, "lon": -77.03301133333333, "type": "electric_scooter", "fusion_lat": 0.0, "lat": 38.9286225, "name": "a5c315fe46d45c7af72c84fe58e0e0c4", "fusion_lon": 0.0, "bike_id": "a5c315fe46d45c7af72c84fe58e0e0c4", "is_disabled": 0, "is_reserved": 0}, {"rental_uris": {"ios": "https://dc.lft.to/lastmile_qr_scan", "android": "https://dc.lft.to/lastmile_qr_scan"}, "lon": -76.93101483333334, "type": "electric_scooter", "fusion_lat": 0.0, "lat": 38.901433, "name": "105544edac3a08bca6df058f645c97ba", "fusion_lon": 0.0, "bike_id": "105544edac3a08bca6df058f645c97ba", "is_disabled": 0, "is_reserved": 0}, {"rental_uris": {"ios": "https://dc.lft.to/lastmile_qr_scan", "android": "https://dc.lft.to/lastmile_qr_scan"}, "lon": -77.07260266666667, "type": "electric_scooter", "fusion_lat": 0.0, "lat": 38.93405516666667, "name": "24702110beaffa11aac2991e64bf1737", "fusion_lon": 0.0, "bike_id": "24702110beaffa11aac2991e64bf1737", "is_disabled": 0, "is_reserved": 0}, {"rental_uris": {"ios": "https://dc.lft.to/lastmile_qr_scan", "android": "https://dc.lft.to/lastmile_qr_scan"}, "lon": -76.98008716666666, "type": "electric_bike", "fusion_lat": 0.0, "lat": 38.86284366666667, "name": "89b430a8afb917bc34c5f93e54a29c01", "fusion_lon": 0.0, "bike_id": "89b430a8afb917bc34c5f93e54a29c01", "is_disabled": 0, "is_reserved": 0}, {"rental_uris": {"ios": "https://dc.lft.to/lastmile_qr_scan", "android": "https://dc.lft.to/lastmile_qr_scan"}, "lon": -76.98553616666666, "type": "electric_scooter", "fusion_lat": 0.0, "lat": 38.8976935, "name": "eb761a39490ae72d1148f9df29283258", "fusion_lon": 0.0, "bike_id": "eb761a39490ae72d1148f9df29283258", "is_disabled": 0, "is_reserved": 0}, {"rental_uris": {"ios": "https://dc.lft.to/lastmile_qr_scan", "android": "https://dc.lft.to/lastmile_qr_scan"}, "lon": -77.05348083333334, "type": "electric_scooter", "fusion_lat": 0.0, "lat": 38.9027695, "name": "b738872e808336b063ad08582fca9c65", "fusion_lon": 0.0, "bike_id": "b738872e808336b063ad08582fca9c65", "is_disabled": 0, "is_reserved": 0}, {"rental_uris": {"ios": "https://dc.lft.to/lastmile_qr_scan", "android": "https://dc.lft.to/lastmile_qr_scan"}, "lon": -76.9831395, "type": "electric_scooter", "fusion_lat": 0.0, "lat": 38.868912333333334, "name": "d80fb4df5a5b62cf9a3e5777f606e2ac", "fusion_lon": 0.0, "bike_id": "d80fb4df5a5b62cf9a3e5777f606e2ac", "is_disabled": 0, "is_reserved": 0}, {"rental_uris": {"ios": "https://dc.lft.to/lastmile_qr_scan", "android": "https://dc.lft.to/lastmile_qr_scan"}, "lon": -77.02897516666667, "type": "electric_scooter", "fusion_lat": 0.0, "lat": 38.92573083333333, "name": "907dfab80c001fe40caf6b61811c912f", "fusion_lon": 0.0, "bike_id": "907dfab80c001fe40caf6b61811c912f", "is_disabled": 0, "is_reserved": 0}, {"rental_uris": {"ios": "https://dc.lft.to/lastmile_qr_scan", "android": "https://dc.lft.to/lastmile_qr_scan"}, "lon": -77.00203366666666, "type": "electric_bike", "fusion_lat": 0.0, "lat": 38.88307416666667, "name": "668338fe0c8905c7cec11489b5ea9406", "fusion_lon": 0.0, "bike_id": "668338fe0c8905c7cec11489b5ea9406", "is_disabled": 0, "is_reserved": 0}, {"rental_uris": {"ios": "https://dc.lft.to/lastmile_qr_scan", "android": "https://dc.lft.to/lastmile_qr_scan"}, "lon": -77.0478145, "type": "electric_scooter", "fusion_lat": 0.0, "lat": 38.908551, "name": "9d03c87208cb404ab09f6a14eca67b39", "fusion_lon": 0.0, "bike_id": "9d03c87208cb404ab09f6a14eca67b39", "is_disabled": 0, "is_reserved": 0}, {"rental_uris": {"ios": "https://dc.lft.to/lastmile_qr_scan", "android": "https://dc.lft.to/lastmile_qr_scan"}, "lon": -76.986849, "type": "electric_scooter", "fusion_lat": 0.0, "lat": 38.882124, "name": "81ce2ead1dae6edaffcb6a60397765c6", "fusion_lon": 0.0, "bike_id": "81ce2ead1dae6edaffcb6a60397765c6", "is_disabled": 0, "is_reserved": 0}, {"rental_uris": {"ios": "https://dc.lft.to/lastmile_qr_scan", "android": "https://dc.lft.to/lastmile_qr_scan"}, "lon": -77.03119, "type": "electric_scooter", "fusion_lat": 0.0, "lat": 38.913460666666666, "name": "41c61a96ecbad012a048e4ad688c7efb", "fusion_lon": 0.0, "bike_id": "41c61a96ecbad012a048e4ad688c7efb", "is_disabled": 0, "is_reserved": 0}, {"rental_uris": {"ios": "https://dc.lft.to/lastmile_qr_scan", "android": "https://dc.lft.to/lastmile_qr_scan"}, "lon": -76.97630466666666, "type": "electric_scooter", "fusion_lat": 0.0, "lat": 38.905741666666664, "name": "484f0c575057c8b17372e21fb0c07d88", "fusion_lon": 0.0, "bike_id": "484f0c575057c8b17372e21fb0c07d88", "is_disabled": 0, "is_reserved": 0}, {"rental_uris": {"ios": "https://dc.lft.to/lastmile_qr_scan", "android": "https://dc.lft.to/lastmile_qr_scan"}, "lon": -77.038632, "type": "electric_scooter", "fusion_lat": 0.0, "lat": 38.915576333333334, "name": "8a42f7201e61d2e581e5a8199478aa16", "fusion_lon": 0.0, "bike_id": "8a42f7201e61d2e581e5a8199478aa16", "is_disabled": 0, "is_reserved": 0}, {"rental_uris": {"ios": "https://dc.lft.to/lastmile_qr_scan", "android": "https://dc.lft.to/lastmile_qr_scan"}, "lon": -77.05207216666666, "type": "electric_scooter", "fusion_lat": 0.0, "lat": 38.92446966666667, "name": "551422c40d0d5e2198d5c139928d1ca4", "fusion_lon": 0.0, "bike_id": "551422c40d0d5e2198d5c139928d1ca4", "is_disabled": 0, "is_reserved": 0}, {"rental_uris": {"ios": "https://dc.lft.to/lastmile_qr_scan", "android": "https://dc.lft.to/lastmile_qr_scan"}, "lon": -77.02950283333334, "type": "electric_scooter", "fusion_lat": 0.0, "lat": 38.91676833333333, "name": "641d1b1f09596a2e7341f1b80507bed7", "fusion_lon": 0.0, "bike_id": "641d1b1f09596a2e7341f1b80507bed7", "is_disabled": 0, "is_reserved": 0}, {"rental_uris": {"ios": "https://dc.lft.to/lastmile_qr_scan", "android": "https://dc.lft.to/lastmile_qr_scan"}, "lon": -76.994848, "type": "electric_bike", "fusion_lat": 0.0, "lat": 38.8998855, "name": "4751e1c5ee26eeba93a33c169e5451cb", "fusion_lon": 0.0, "bike_id": "4751e1c5ee26eeba93a33c169e5451cb", "is_disabled": 0, "is_reserved": 0}, {"rental_uris": {"ios": "https://dc.lft.to/lastmile_qr_scan", "android": "https://dc.lft.to/lastmile_qr_scan"}, "lon": -77.05887766666666, "type": "electric_scooter", "fusion_lat": 0.0, "lat": 38.93638716666667, "name": "d6a966f2cfa31124034f1a7593df7709", "fusion_lon": 0.0, "bike_id": "d6a966f2cfa31124034f1a7593df7709", "is_disabled": 0, "is_reserved": 0}, {"rental_uris": {"ios": "https://dc.lft.to/lastmile_qr_scan", "android": "https://dc.lft.to/lastmile_qr_scan"}, "lon": -77.00213333333333, "type": "electric_scooter", "fusion_lat": 0.0, "lat": 38.9119775, "name": "2dbd86c2a457eb0e1ee108251dc1669e", "fusion_lon": 0.0, "bike_id": "2dbd86c2a457eb0e1ee108251dc1669e", "is_disabled": 0, "is_reserved": 0}, {"rental_uris": {"ios": "https://dc.lft.to/lastmile_qr_scan", "android": "https://dc.lft.to/lastmile_qr_scan"}, "lon": -76.97889216666667, "type": "electric_scooter", "fusion_lat": 0.0, "lat": 38.916735, "name": "7433ce6da2cbc5ebff6f9e8f22858aae", "fusion_lon": 0.0, "bike_id": "7433ce6da2cbc5ebff6f9e8f22858aae", "is_disabled": 0, "is_reserved": 0}, {"rental_uris": {"ios": "https://dc.lft.to/lastmile_qr_scan", "android": "https://dc.lft.to/lastmile_qr_scan"}, "lon": -77.127451, "type": "electric_bike", "fusion_lat": 0.0, "lat": 38.88824866666667, "name": "88838200201565eaf3ca7687629f37b8", "fusion_lon": 0.0, "bike_id": "88838200201565eaf3ca7687629f37b8", "is_disabled": 0, "is_reserved": 0}, {"rental_uris": {"ios": "https://dc.lft.to/lastmile_qr_scan", "android": "https://dc.lft.to/lastmile_qr_scan"}, "lon": -76.93797883333333, "type": "electric_scooter", "fusion_lat": 0.0, "lat": 38.9128525, "name": "ffd9e22629fa734ac397c881d62716d8", "fusion_lon": 0.0, "bike_id": "ffd9e22629fa734ac397c881d62716d8", "is_disabled": 0, "is_reserved": 0}, {"rental_uris": {"ios": "https://dc.lft.to/lastmile_qr_scan", "android": "https://dc.lft.to/lastmile_qr_scan"}, "lon": -77.00853083333334, "type": "electric_scooter", "fusion_lat": 0.0, "lat": 38.92592966666667, "name": "7cf8a60ca936ebf978718a2433178154", "fusion_lon": 0.0, "bike_id": "7cf8a60ca936ebf978718a2433178154", "is_disabled": 0, "is_reserved": 0}, {"rental_uris": {"ios": "https://dc.lft.to/lastmile_qr_scan", "android": "https://dc.lft.to/lastmile_qr_scan"}, "lon": -77.04931016666667, "type": "electric_scooter", "fusion_lat": 0.0, "lat": 38.89677983333333, "name": "663de1efdfa7ca3efadf4df79403412a", "fusion_lon": 0.0, "bike_id": "663de1efdfa7ca3efadf4df79403412a", "is_disabled": 0, "is_reserved": 0}, {"rental_uris": {"ios": "https://dc.lft.to/lastmile_qr_scan", "android": "https://dc.lft.to/lastmile_qr_scan"}, "lon": -77.04226833333334, "type": "electric_scooter", "fusion_lat": 0.0, "lat": 38.908134, "name": "845f83b84641577a238046d5a21241fa", "fusion_lon": 0.0, "bike_id": "845f83b84641577a238046d5a21241fa", "is_disabled": 0, "is_reserved": 0}, {"rental_uris": {"ios": "https://dc.lft.to/lastmile_qr_scan", "android": "https://dc.lft.to/lastmile_qr_scan"}, "lon": -77.03266566666667, "type": "electric_scooter", "fusion_lat": 0.0, "lat": 38.937378833333334, "name": "a5ac6c8268ced33646d9fdcc8d460529", "fusion_lon": 0.0, "bike_id": "a5ac6c8268ced33646d9fdcc8d460529", "is_disabled": 0, "is_reserved": 0}, {"rental_uris": {"ios": "https://dc.lft.to/lastmile_qr_scan", "android": "https://dc.lft.to/lastmile_qr_scan"}, "lon": -77.02612116666667, "type": "electric_scooter", "fusion_lat": 0.0, "lat": 38.916946833333334, "name": "e301b6f348c0a5c1bb86537a255cc239", "fusion_lon": 0.0, "bike_id": "e301b6f348c0a5c1bb86537a255cc239", "is_disabled": 0, "is_reserved": 0}, {"rental_uris": {"ios": "https://dc.lft.to/lastmile_qr_scan", "android": "https://dc.lft.to/lastmile_qr_scan"}, "lon": -76.99545416666666, "type": "electric_scooter", "fusion_lat": 0.0, "lat": 38.9266295, "name": "70a9b801775914dfbcd7b3750ee0fb84", "fusion_lon": 0.0, "bike_id": "70a9b801775914dfbcd7b3750ee0fb84", "is_disabled": 0, "is_reserved": 0}, {"rental_uris": {"ios": "https://dc.lft.to/lastmile_qr_scan", "android": "https://dc.lft.to/lastmile_qr_scan"}, "lon": -77.08365866666666, "type": "electric_scooter", "fusion_lat": 0.0, "lat": 38.930284666666665, "name": "1a61086b5601b70455b299bea9041483", "fusion_lon": 0.0, "bike_id": "1a61086b5601b70455b299bea9041483", "is_disabled": 0, "is_reserved": 0}, {"rental_uris": {"ios": "https://dc.lft.to/lastmile_qr_scan", "android": "https://dc.lft.to/lastmile_qr_scan"}, "lon": -76.9876915, "type": "electric_scooter", "fusion_lat": 0.0, "lat": 38.9117665, "name": "903f403c99006a048c94f89026cf26f0", "fusion_lon": 0.0, "bike_id": "903f403c99006a048c94f89026cf26f0", "is_disabled": 0, "is_reserved": 0}, {"rental_uris": {"ios": "https://dc.lft.to/lastmile_qr_scan", "android": "https://dc.lft.to/lastmile_qr_scan"}, "lon": -77.04817033333333, "type": "electric_scooter", "fusion_lat": 0.0, "lat": 38.89623816666667, "name": "b6f292b24956d515e1f01512fe4da9e8", "fusion_lon": 0.0, "bike_id": "b6f292b24956d515e1f01512fe4da9e8", "is_disabled": 0, "is_reserved": 0}, {"rental_uris": {"ios": "https://dc.lft.to/lastmile_qr_scan", "android": "https://dc.lft.to/lastmile_qr_scan"}, "lon": -77.0289245, "type": "electric_scooter", "fusion_lat": 0.0, "lat": 38.90366016666667, "name": "5b179a41289bfa6f734ea43ab8a2538f", "fusion_lon": 0.0, "bike_id": "5b179a41289bfa6f734ea43ab8a2538f", "is_disabled": 0, "is_reserved": 0}, {"rental_uris": {"ios": "https://dc.lft.to/lastmile_qr_scan", "android": "https://dc.lft.to/lastmile_qr_scan"}, "lon": -77.0308065, "type": "electric_scooter", "fusion_lat": 0.0, "lat": 38.93475733333333, "name": "9a14cc0f8d1ab87175c186eb960bd3e4", "fusion_lon": 0.0, "bike_id": "9a14cc0f8d1ab87175c186eb960bd3e4", "is_disabled": 0, "is_reserved": 0}, {"rental_uris": {"ios": "https://dc.lft.to/lastmile_qr_scan", "android": "https://dc.lft.to/lastmile_qr_scan"}, "lon": -77.01760666666667, "type": "electric_scooter", "fusion_lat": 0.0, "lat": 38.938969166666666, "name": "305ca082c77e1ab053a0c806a1a98827", "fusion_lon": 0.0, "bike_id": "305ca082c77e1ab053a0c806a1a98827", "is_disabled": 0, "is_reserved": 0}, {"rental_uris": {"ios": "https://dc.lft.to/lastmile_qr_scan", "android": "https://dc.lft.to/lastmile_qr_scan"}, "lon": -77.05320183333333, "type": "electric_scooter", "fusion_lat": 0.0, "lat": 38.90025083333333, "name": "84668fdf1a62603bf1e731f60f9fc9a6", "fusion_lon": 0.0, "bike_id": "84668fdf1a62603bf1e731f60f9fc9a6", "is_disabled": 0, "is_reserved": 0}, {"rental_uris": {"ios": "https://dc.lft.to/lastmile_qr_scan", "android": "https://dc.lft.to/lastmile_qr_scan"}, "lon": -77.020924, "type": "electric_scooter", "fusion_lat": 0.0, "lat": 38.91005666666667, "name": "11a848cd232a0b8817148c07b21a0621", "fusion_lon": 0.0, "bike_id": "11a848cd232a0b8817148c07b21a0621", "is_disabled": 0, "is_reserved": 0}, {"rental_uris": {"ios": "https://dc.lft.to/lastmile_qr_scan", "android": "https://dc.lft.to/lastmile_qr_scan"}, "lon": -77.03384283333334, "type": "electric_scooter", "fusion_lat": 0.0, "lat": 38.899762833333334, "name": "bd0c39c34965a360b8f34c2260a8837a", "fusion_lon": 0.0, "bike_id": "bd0c39c34965a360b8f34c2260a8837a", "is_disabled": 0, "is_reserved": 0}, {"rental_uris": {"ios": "https://dc.lft.to/lastmile_qr_scan", "android": "https://dc.lft.to/lastmile_qr_scan"}, "lon": -77.01508466666667, "type": "electric_scooter", "fusion_lat": 0.0, "lat": 38.9019615, "name": "e96e3b9fddb031a8fb61554cb06f451a", "fusion_lon": 0.0, "bike_id": "e96e3b9fddb031a8fb61554cb06f451a", "is_disabled": 0, "is_reserved": 0}, {"rental_uris": {"ios": "https://dc.lft.to/lastmile_qr_scan", "android": "https://dc.lft.to/lastmile_qr_scan"}, "lon": -77.04033816666667, "type": "electric_scooter", "fusion_lat": 0.0, "lat": 38.90011466666667, "name": "1442fb0ef440fd93f9a9335d8f753497", "fusion_lon": 0.0, "bike_id": "1442fb0ef440fd93f9a9335d8f753497", "is_disabled": 0, "is_reserved": 0}, {"rental_uris": {"ios": "https://dc.lft.to/lastmile_qr_scan", "android": "https://dc.lft.to/lastmile_qr_scan"}, "lon": -76.97982333333333, "type": "electric_bike", "fusion_lat": 0.0, "lat": 38.87757966666667, "name": "37fda2f383cb369f654298ada4b81e1f", "fusion_lon": 0.0, "bike_id": "37fda2f383cb369f654298ada4b81e1f", "is_disabled": 0, "is_reserved": 0}, {"rental_uris": {"ios": "https://dc.lft.to/lastmile_qr_scan", "android": "https://dc.lft.to/lastmile_qr_scan"}, "lon": -77.3609395, "type": "electric_bike", "fusion_lat": 0.0, "lat": 38.93949716666667, "name": "60981989e9023c5390918ecaac9e63bc", "fusion_lon": 0.0, "bike_id": "60981989e9023c5390918ecaac9e63bc", "is_disabled": 0, "is_reserved": 0}, {"rental_uris": {"ios": "https://dc.lft.to/lastmile_qr_scan", "android": "https://dc.lft.to/lastmile_qr_scan"}, "lon": -77.0019865, "type": "electric_bike", "fusion_lat": 0.0, "lat": 38.941529, "name": "3073910a1936656ecb212fe7b99c49da", "fusion_lon": 0.0, "bike_id": "3073910a1936656ecb212fe7b99c49da", "is_disabled": 0, "is_reserved": 0}, {"rental_uris": {"ios": "https://dc.lft.to/lastmile_qr_scan", "android": "https://dc.lft.to/lastmile_qr_scan"}, "lon": -77.02720516666666, "type": "electric_scooter", "fusion_lat": 0.0, "lat": 38.909690166666664, "name": "67081da3913fce75be4a232ee0ce70da", "fusion_lon": 0.0, "bike_id": "67081da3913fce75be4a232ee0ce70da", "is_disabled": 0, "is_reserved": 0}, {"rental_uris": {"ios": "https://dc.lft.to/lastmile_qr_scan", "android": "https://dc.lft.to/lastmile_qr_scan"}, "lon": -77.04100716666666, "type": "electric_scooter", "fusion_lat": 0.0, "lat": 38.9177735, "name": "4ae136dad7de4f6937a3f2821c51bd3e", "fusion_lon": 0.0, "bike_id": "4ae136dad7de4f6937a3f2821c51bd3e", "is_disabled": 0, "is_reserved": 0}, {"rental_uris": {"ios": "https://dc.lft.to/lastmile_qr_scan", "android": "https://dc.lft.to/lastmile_qr_scan"}, "lon": -77.04809566666667, "type": "electric_scooter", "fusion_lat": 0.0, "lat": 38.9164295, "name": "a1ea49da6842f7bdf52fd9625d5e7527", "fusion_lon": 0.0, "bike_id": "a1ea49da6842f7bdf52fd9625d5e7527", "is_disabled": 0, "is_reserved": 0}, {"rental_uris": {"ios": "https://dc.lft.to/lastmile_qr_scan", "android": "https://dc.lft.to/lastmile_qr_scan"}, "lon": -77.00728, "type": "electric_scooter", "fusion_lat": 0.0, "lat": 38.878530166666664, "name": "2bdaf3e25137566dc288a31130234d5d", "fusion_lon": 0.0, "bike_id": "2bdaf3e25137566dc288a31130234d5d", "is_disabled": 0, "is_reserved": 0}, {"rental_uris": {"ios": "https://dc.lft.to/lastmile_qr_scan", "android": "https://dc.lft.to/lastmile_qr_scan"}, "lon": -76.99258583333334, "type": "electric_scooter", "fusion_lat": 0.0, "lat": 38.91971766666666, "name": "af47439a3f7093155e52f776a58c5b54", "fusion_lon": 0.0, "bike_id": "af47439a3f7093155e52f776a58c5b54", "is_disabled": 0, "is_reserved": 0}, {"rental_uris": {"ios": "https://dc.lft.to/lastmile_qr_scan", "android": "https://dc.lft.to/lastmile_qr_scan"}, "lon": -77.023838, "type": "electric_scooter", "fusion_lat": 0.0, "lat": 38.93778183333333, "name": "adc1f9eb95fd76e840e8d1656e079d4b", "fusion_lon": 0.0, "bike_id": "adc1f9eb95fd76e840e8d1656e079d4b", "is_disabled": 0, "is_reserved": 0}, {"rental_uris": {"ios": "https://dc.lft.to/lastmile_qr_scan", "android": "https://dc.lft.to/lastmile_qr_scan"}, "lon": -77.05742333333333, "type": "electric_scooter", "fusion_lat": 0.0, "lat": 38.933989833333335, "name": "7031afd5938dc7316c480aabf391e8a0", "fusion_lon": 0.0, "bike_id": "7031afd5938dc7316c480aabf391e8a0", "is_disabled": 0, "is_reserved": 0}, {"rental_uris": {"ios": "https://dc.lft.to/lastmile_qr_scan", "android": "https://dc.lft.to/lastmile_qr_scan"}, "lon": -77.1152125, "type": "electric_bike", "fusion_lat": 0.0, "lat": 38.85490766666667, "name": "1c51a63df343adbac668436591835102", "fusion_lon": 0.0, "bike_id": "1c51a63df343adbac668436591835102", "is_disabled": 0, "is_reserved": 0}, {"rental_uris": {"ios": "https://dc.lft.to/lastmile_qr_scan", "android": "https://dc.lft.to/lastmile_qr_scan"}, "lon": -77.03187683333333, "type": "electric_scooter", "fusion_lat": 0.0, "lat": 38.91493216666667, "name": "47c9bc5074d3b77450e79bbfc8e605af", "fusion_lon": 0.0, "bike_id": "47c9bc5074d3b77450e79bbfc8e605af", "is_disabled": 0, "is_reserved": 0}, {"rental_uris": {"ios": "https://dc.lft.to/lastmile_qr_scan", "android": "https://dc.lft.to/lastmile_qr_scan"}, "lon": -77.03220316666666, "type": "electric_scooter", "fusion_lat": 0.0, "lat": 38.91997116666667, "name": "6a5f9bade0c493f303f431486c422c65", "fusion_lon": 0.0, "bike_id": "6a5f9bade0c493f303f431486c422c65", "is_disabled": 0, "is_reserved": 0}, {"rental_uris": {"ios": "https://dc.lft.to/lastmile_qr_scan", "android": "https://dc.lft.to/lastmile_qr_scan"}, "lon": -77.031898, "type": "electric_scooter", "fusion_lat": 0.0, "lat": 38.885633, "name": "ad86b25c035768a1cf73ab6a9c458dfa", "fusion_lon": 0.0, "bike_id": "ad86b25c035768a1cf73ab6a9c458dfa", "is_disabled": 0, "is_reserved": 0}, {"rental_uris": {"ios": "https://dc.lft.to/lastmile_qr_scan", "android": "https://dc.lft.to/lastmile_qr_scan"}, "lon": -76.98203, "type": "electric_scooter", "fusion_lat": 0.0, "lat": 38.90391616666667, "name": "4ab3b014ffbcd02529416d61cd9507b4", "fusion_lon": 0.0, "bike_id": "4ab3b014ffbcd02529416d61cd9507b4", "is_disabled": 0, "is_reserved": 0}, {"rental_uris": {"ios": "https://dc.lft.to/lastmile_qr_scan", "android": "https://dc.lft.to/lastmile_qr_scan"}, "lon": -77.0704815, "type": "electric_bike", "fusion_lat": 0.0, "lat": 38.82449016666666, "name": "cfa0609a7fa8d20a304d414e2b862bd7", "fusion_lon": 0.0, "bike_id": "cfa0609a7fa8d20a304d414e2b862bd7", "is_disabled": 0, "is_reserved": 0}, {"rental_uris": {"ios": "https://dc.lft.to/lastmile_qr_scan", "android": "https://dc.lft.to/lastmile_qr_scan"}, "lon": -77.0405865, "type": "electric_scooter", "fusion_lat": 0.0, "lat": 38.92653333333333, "name": "9fff392aa94869d04871fe8726487e78", "fusion_lon": 0.0, "bike_id": "9fff392aa94869d04871fe8726487e78", "is_disabled": 0, "is_reserved": 0}, {"rental_uris": {"ios": "https://dc.lft.to/lastmile_qr_scan", "android": "https://dc.lft.to/lastmile_qr_scan"}, "lon": -77.009336, "type": "electric_scooter", "fusion_lat": 0.0, "lat": 38.872006, "name": "95747c1f3ef8b582934129c5f037f531", "fusion_lon": 0.0, "bike_id": "95747c1f3ef8b582934129c5f037f531", "is_disabled": 0, "is_reserved": 0}, {"rental_uris": {"ios": "https://dc.lft.to/lastmile_qr_scan", "android": "https://dc.lft.to/lastmile_qr_scan"}, "lon": -76.91598033333334, "type": "electric_bike", "fusion_lat": 0.0, "lat": 38.879790166666666, "name": "d1926213593b51f6ac5fbffa6ccaf4c0", "fusion_lon": 0.0, "bike_id": "d1926213593b51f6ac5fbffa6ccaf4c0", "is_disabled": 0, "is_reserved": 0}, {"rental_uris": {"ios": "https://dc.lft.to/lastmile_qr_scan", "android": "https://dc.lft.to/lastmile_qr_scan"}, "lon": -77.00211483333334, "type": "electric_scooter", "fusion_lat": 0.0, "lat": 38.908403666666665, "name": "e9fa4bbcfe481bfbe26d6cf897d230a2", "fusion_lon": 0.0, "bike_id": "e9fa4bbcfe481bfbe26d6cf897d230a2", "is_disabled": 0, "is_reserved": 0}, {"rental_uris": {"ios": "https://dc.lft.to/lastmile_qr_scan", "android": "https://dc.lft.to/lastmile_qr_scan"}, "lon": -77.041345, "type": "electric_scooter", "fusion_lat": 0.0, "lat": 38.92205366666666, "name": "4af2ec106b96fcbb57d8f25ee29f21fc", "fusion_lon": 0.0, "bike_id": "4af2ec106b96fcbb57d8f25ee29f21fc", "is_disabled": 0, "is_reserved": 0}, {"rental_uris": {"ios": "https://dc.lft.to/lastmile_qr_scan", "android": "https://dc.lft.to/lastmile_qr_scan"}, "lon": -77.06366683333333, "type": "electric_scooter", "fusion_lat": 0.0, "lat": 38.909355166666664, "name": "2d24e39c3869c05aa0bbfb82abf704ca", "fusion_lon": 0.0, "bike_id": "2d24e39c3869c05aa0bbfb82abf704ca", "is_disabled": 0, "is_reserved": 0}, {"rental_uris": {"ios": "https://dc.lft.to/lastmile_qr_scan", "android": "https://dc.lft.to/lastmile_qr_scan"}, "lon": -76.99952533333334, "type": "electric_scooter", "fusion_lat": 0.0, "lat": 38.84296166666667, "name": "0ae7e5521cc31652d20a0779e5b6e0ba", "fusion_lon": 0.0, "bike_id": "0ae7e5521cc31652d20a0779e5b6e0ba", "is_disabled": 0, "is_reserved": 0}, {"rental_uris": {"ios": "https://dc.lft.to/lastmile_qr_scan", "android": "https://dc.lft.to/lastmile_qr_scan"}, "lon": -77.04512033333333, "type": "electric_scooter", "fusion_lat": 0.0, "lat": 38.912919, "name": "e45a617c3e3f6131c14405ef97fc450d", "fusion_lon": 0.0, "bike_id": "e45a617c3e3f6131c14405ef97fc450d", "is_disabled": 0, "is_reserved": 0}, {"rental_uris": {"ios": "https://dc.lft.to/lastmile_qr_scan", "android": "https://dc.lft.to/lastmile_qr_scan"}, "lon": -77.0239125, "type": "electric_bike", "fusion_lat": 0.0, "lat": 38.994436666666665, "name": "9ed1ce76598a4341580783304bf0e28d", "fusion_lon": 0.0, "bike_id": "9ed1ce76598a4341580783304bf0e28d", "is_disabled": 0, "is_reserved": 0}, {"rental_uris": {"ios": "https://dc.lft.to/lastmile_qr_scan", "android": "https://dc.lft.to/lastmile_qr_scan"}, "lon": -77.039823, "type": "electric_scooter", "fusion_lat": 0.0, "lat": 38.902878, "name": "276c5c50953081ba5f60ab549d5d7616", "fusion_lon": 0.0, "bike_id": "276c5c50953081ba5f60ab549d5d7616", "is_disabled": 0, "is_reserved": 0}, {"rental_uris": {"ios": "https://dc.lft.to/lastmile_qr_scan", "android": "https://dc.lft.to/lastmile_qr_scan"}, "lon": -77.0688865, "type": "electric_scooter", "fusion_lat": 0.0, "lat": 38.9402515, "name": "21b59586ee4f0758bdee936991eecc83", "fusion_lon": 0.0, "bike_id": "21b59586ee4f0758bdee936991eecc83", "is_disabled": 0, "is_reserved": 0}, {"rental_uris": {"ios": "https://dc.lft.to/lastmile_qr_scan", "android": "https://dc.lft.to/lastmile_qr_scan"}, "lon": -77.01643316666667, "type": "electric_scooter", "fusion_lat": 0.0, "lat": 38.903805166666665, "name": "3a5c2a7ab49248d7fd13728f2615c08d", "fusion_lon": 0.0, "bike_id": "3a5c2a7ab49248d7fd13728f2615c08d", "is_disabled": 0, "is_reserved": 0}, {"rental_uris": {"ios": "https://dc.lft.to/lastmile_qr_scan", "android": "https://dc.lft.to/lastmile_qr_scan"}, "lon": -77.01656816666667, "type": "electric_bike", "fusion_lat": 0.0, "lat": 38.8812375, "name": "55a6bdbd35a2c604855b5dbc71bcf9de", "fusion_lon": 0.0, "bike_id": "55a6bdbd35a2c604855b5dbc71bcf9de", "is_disabled": 0, "is_reserved": 0}, {"rental_uris": {"ios": "https://dc.lft.to/lastmile_qr_scan", "android": "https://dc.lft.to/lastmile_qr_scan"}, "lon": -76.94628083333333, "type": "electric_bike", "fusion_lat": 0.0, "lat": 38.832331, "name": "8b8af6619b979f87f4046e899140807a", "fusion_lon": 0.0, "bike_id": "8b8af6619b979f87f4046e899140807a", "is_disabled": 0, "is_reserved": 0}, {"rental_uris": {"ios": "https://dc.lft.to/lastmile_qr_scan", "android": "https://dc.lft.to/lastmile_qr_scan"}, "lon": -77.0071305, "type": "electric_scooter", "fusion_lat": 0.0, "lat": 38.88493483333333, "name": "0cf2c58db2f554a3a31a6ec71530b6ee", "fusion_lon": 0.0, "bike_id": "0cf2c58db2f554a3a31a6ec71530b6ee", "is_disabled": 0, "is_reserved": 0}, {"rental_uris": {"ios": "https://dc.lft.to/lastmile_qr_scan", "android": "https://dc.lft.to/lastmile_qr_scan"}, "lon": -77.0546665, "type": "electric_scooter", "fusion_lat": 0.0, "lat": 38.896715, "name": "a09b4c556adcb1ecd8b043f148a90fe1", "fusion_lon": 0.0, "bike_id": "a09b4c556adcb1ecd8b043f148a90fe1", "is_disabled": 0, "is_reserved": 0}, {"rental_uris": {"ios": "https://dc.lft.to/lastmile_qr_scan", "android": "https://dc.lft.to/lastmile_qr_scan"}, "lon": -77.0295995, "type": "electric_scooter", "fusion_lat": 0.0, "lat": 38.887497833333335, "name": "49a21d2584c4c1baa962e9de7896c35b", "fusion_lon": 0.0, "bike_id": "49a21d2584c4c1baa962e9de7896c35b", "is_disabled": 0, "is_reserved": 0}, {"rental_uris": {"ios": "https://dc.lft.to/lastmile_qr_scan", "android": "https://dc.lft.to/lastmile_qr_scan"}, "lon": -77.04359183333334, "type": "electric_scooter", "fusion_lat": 0.0, "lat": 38.933345833333334, "name": "7886a79a3bd026cbeb1de85a45fb1e42", "fusion_lon": 0.0, "bike_id": "7886a79a3bd026cbeb1de85a45fb1e42", "is_disabled": 0, "is_reserved": 0}, {"rental_uris": {"ios": "https://dc.lft.to/lastmile_qr_scan", "android": "https://dc.lft.to/lastmile_qr_scan"}, "lon": -76.9854365, "type": "electric_scooter", "fusion_lat": 0.0, "lat": 38.90420116666667, "name": "8e816d0885747538e562766cffe28062", "fusion_lon": 0.0, "bike_id": "8e816d0885747538e562766cffe28062", "is_disabled": 0, "is_reserved": 0}, {"rental_uris": {"ios": "https://dc.lft.to/lastmile_qr_scan", "android": "https://dc.lft.to/lastmile_qr_scan"}, "lon": -77.03240533333333, "type": "electric_scooter", "fusion_lat": 0.0, "lat": 38.927603500000004, "name": "96424e80430462cd55475f2031d54d1d", "fusion_lon": 0.0, "bike_id": "96424e80430462cd55475f2031d54d1d", "is_disabled": 0, "is_reserved": 0}, {"rental_uris": {"ios": "https://dc.lft.to/lastmile_qr_scan", "android": "https://dc.lft.to/lastmile_qr_scan"}, "lon": -76.98075466666667, "type": "electric_scooter", "fusion_lat": 0.0, "lat": 38.901668, "name": "8f3135e97b4ea4ef708c6494217c12a4", "fusion_lon": 0.0, "bike_id": "8f3135e97b4ea4ef708c6494217c12a4", "is_disabled": 0, "is_reserved": 0}, {"rental_uris": {"ios": "https://dc.lft.to/lastmile_qr_scan", "android": "https://dc.lft.to/lastmile_qr_scan"}, "lon": -76.93926816666666, "type": "electric_scooter", "fusion_lat": 0.0, "lat": 38.89298866666667, "name": "b97816cfa4460d0b1ad341159c7edd60", "fusion_lon": 0.0, "bike_id": "b97816cfa4460d0b1ad341159c7edd60", "is_disabled": 0, "is_reserved": 0}, {"rental_uris": {"ios": "https://dc.lft.to/lastmile_qr_scan", "android": "https://dc.lft.to/lastmile_qr_scan"}, "lon": -77.0143775, "type": "electric_scooter", "fusion_lat": 0.0, "lat": 38.906481166666666, "name": "612aab4d58ab5335faa9be3144356c27", "fusion_lon": 0.0, "bike_id": "612aab4d58ab5335faa9be3144356c27", "is_disabled": 0, "is_reserved": 0}, {"rental_uris": {"ios": "https://dc.lft.to/lastmile_qr_scan", "android": "https://dc.lft.to/lastmile_qr_scan"}, "lon": -77.0439855, "type": "electric_scooter", "fusion_lat": 0.0, "lat": 38.920194333333335, "name": "06eadadcd63e99b4bcc2ebb3185d73c8", "fusion_lon": 0.0, "bike_id": "06eadadcd63e99b4bcc2ebb3185d73c8", "is_disabled": 0, "is_reserved": 0}, {"rental_uris": {"ios": "https://dc.lft.to/lastmile_qr_scan", "android": "https://dc.lft.to/lastmile_qr_scan"}, "lon": -76.98179866666666, "type": "electric_scooter", "fusion_lat": 0.0, "lat": 38.895845666666666, "name": "de26393ed345da8699f6d4f44a8d3620", "fusion_lon": 0.0, "bike_id": "de26393ed345da8699f6d4f44a8d3620", "is_disabled": 0, "is_reserved": 0}, {"rental_uris": {"ios": "https://dc.lft.to/lastmile_qr_scan", "android": "https://dc.lft.to/lastmile_qr_scan"}, "lon": -77.03495933333333, "type": "electric_scooter", "fusion_lat": 0.0, "lat": 38.91694016666667, "name": "0fa1539df6567c3dae7c88e80ede7f71", "fusion_lon": 0.0, "bike_id": "0fa1539df6567c3dae7c88e80ede7f71", "is_disabled": 0, "is_reserved": 0}, {"rental_uris": {"ios": "https://dc.lft.to/lastmile_qr_scan", "android": "https://dc.lft.to/lastmile_qr_scan"}, "lon": -77.01305716666667, "type": "electric_scooter", "fusion_lat": 0.0, "lat": 38.92125883333333, "name": "09448358871191108c522093fc1bbdac", "fusion_lon": 0.0, "bike_id": "09448358871191108c522093fc1bbdac", "is_disabled": 0, "is_reserved": 0}, {"rental_uris": {"ios": "https://dc.lft.to/lastmile_qr_scan", "android": "https://dc.lft.to/lastmile_qr_scan"}, "lon": -77.02356966666666, "type": "electric_scooter", "fusion_lat": 0.0, "lat": 38.925028166666664, "name": "db044f28b4fc96e6979c19c08b2a7b8f", "fusion_lon": 0.0, "bike_id": "db044f28b4fc96e6979c19c08b2a7b8f", "is_disabled": 0, "is_reserved": 0}, {"rental_uris": {"ios": "https://dc.lft.to/lastmile_qr_scan", "android": "https://dc.lft.to/lastmile_qr_scan"}, "lon": -76.948955, "type": "electric_scooter", "fusion_lat": 0.0, "lat": 38.895298333333336, "name": "5ae9e908e5060525a058708d7168011d", "fusion_lon": 0.0, "bike_id": "5ae9e908e5060525a058708d7168011d", "is_disabled": 0, "is_reserved": 0}, {"rental_uris": {"ios": "https://dc.lft.to/lastmile_qr_scan", "android": "https://dc.lft.to/lastmile_qr_scan"}, "lon": -77.03672333333333, "type": "electric_scooter", "fusion_lat": 0.0, "lat": 38.93929966666666, "name": "a0f31b835a57e09463bd5d5986d0d161", "fusion_lon": 0.0, "bike_id": "a0f31b835a57e09463bd5d5986d0d161", "is_disabled": 0, "is_reserved": 0}, {"rental_uris": {"ios": "https://dc.lft.to/lastmile_qr_scan", "android": "https://dc.lft.to/lastmile_qr_scan"}, "lon": -77.03308283333334, "type": "electric_scooter", "fusion_lat": 0.0, "lat": 38.918137, "name": "af441073c85ff05af217f97dfc978f18", "fusion_lon": 0.0, "bike_id": "af441073c85ff05af217f97dfc978f18", "is_disabled": 0, "is_reserved": 0}, {"rental_uris": {"ios": "https://dc.lft.to/lastmile_qr_scan", "android": "https://dc.lft.to/lastmile_qr_scan"}, "lon": -77.027326, "type": "electric_scooter", "fusion_lat": 0.0, "lat": 38.91696533333333, "name": "27f52296f8e923970bd7958d29563240", "fusion_lon": 0.0, "bike_id": "27f52296f8e923970bd7958d29563240", "is_disabled": 0, "is_reserved": 0}, {"rental_uris": {"ios": "https://dc.lft.to/lastmile_qr_scan", "android": "https://dc.lft.to/lastmile_qr_scan"}, "lon": -76.90971733333333, "type": "electric_bike", "fusion_lat": 0.0, "lat": 38.854281, "name": "0a8f7cf392de372c79f45a14c4f1f050", "fusion_lon": 0.0, "bike_id": "0a8f7cf392de372c79f45a14c4f1f050", "is_disabled": 0, "is_reserved": 0}, {"rental_uris": {"ios": "https://dc.lft.to/lastmile_qr_scan", "android": "https://dc.lft.to/lastmile_qr_scan"}, "lon": -77.03503933333333, "type": "electric_scooter", "fusion_lat": 0.0, "lat": 38.9187365, "name": "9c5245aa7f6fcd3ecc40def8f3b2d3f1", "fusion_lon": 0.0, "bike_id": "9c5245aa7f6fcd3ecc40def8f3b2d3f1", "is_disabled": 0, "is_reserved": 0}, {"rental_uris": {"ios": "https://dc.lft.to/lastmile_qr_scan", "android": "https://dc.lft.to/lastmile_qr_scan"}, "lon": -77.0240375, "type": "electric_scooter", "fusion_lat": 0.0, "lat": 38.93483033333333, "name": "8bd85139ee9df39f8ce3ee3b3b43e277", "fusion_lon": 0.0, "bike_id": "8bd85139ee9df39f8ce3ee3b3b43e277", "is_disabled": 0, "is_reserved": 0}, {"rental_uris": {"ios": "https://dc.lft.to/lastmile_qr_scan", "android": "https://dc.lft.to/lastmile_qr_scan"}, "lon": -77.00571983333333, "type": "electric_scooter", "fusion_lat": 0.0, "lat": 38.90571816666667, "name": "7ffcf675f63daa36284dd31560dc78ff", "fusion_lon": 0.0, "bike_id": "7ffcf675f63daa36284dd31560dc78ff", "is_disabled": 0, "is_reserved": 0}, {"rental_uris": {"ios": "https://dc.lft.to/lastmile_qr_scan", "android": "https://dc.lft.to/lastmile_qr_scan"}, "lon": -77.04792116666667, "type": "electric_scooter", "fusion_lat": 0.0, "lat": 38.8936775, "name": "4bf6c3f7207cd12db3e23cfec4db47be", "fusion_lon": 0.0, "bike_id": "4bf6c3f7207cd12db3e23cfec4db47be", "is_disabled": 0, "is_reserved": 0}, {"rental_uris": {"ios": "https://dc.lft.to/lastmile_qr_scan", "android": "https://dc.lft.to/lastmile_qr_scan"}, "lon": -77.03861483333333, "type": "electric_scooter", "fusion_lat": 0.0, "lat": 38.91560833333333, "name": "d01c4ad03a54a194b9f581fddf1d3306", "fusion_lon": 0.0, "bike_id": "d01c4ad03a54a194b9f581fddf1d3306", "is_disabled": 0, "is_reserved": 0}, {"rental_uris": {"ios": "https://dc.lft.to/lastmile_qr_scan", "android": "https://dc.lft.to/lastmile_qr_scan"}, "lon": -77.0165475, "type": "electric_scooter", "fusion_lat": 0.0, "lat": 38.95330716666667, "name": "b4f2b69e69031454968e642562131dfe", "fusion_lon": 0.0, "bike_id": "b4f2b69e69031454968e642562131dfe", "is_disabled": 0, "is_reserved": 0}, {"rental_uris": {"ios": "https://dc.lft.to/lastmile_qr_scan", "android": "https://dc.lft.to/lastmile_qr_scan"}, "lon": -77.03474733333333, "type": "electric_scooter", "fusion_lat": 0.0, "lat": 38.91994866666667, "name": "b296d0874bf644ebd0b71574a68f131f", "fusion_lon": 0.0, "bike_id": "b296d0874bf644ebd0b71574a68f131f", "is_disabled": 0, "is_reserved": 0}, {"rental_uris": {"ios": "https://dc.lft.to/lastmile_qr_scan", "android": "https://dc.lft.to/lastmile_qr_scan"}, "lon": -77.04010833333334, "type": "electric_scooter", "fusion_lat": 0.0, "lat": 38.9325185, "name": "12791b076ace9859310c6fd8863982d2", "fusion_lon": 0.0, "bike_id": "12791b076ace9859310c6fd8863982d2", "is_disabled": 0, "is_reserved": 0}, {"rental_uris": {"ios": "https://dc.lft.to/lastmile_qr_scan", "android": "https://dc.lft.to/lastmile_qr_scan"}, "lon": -77.0202475, "type": "electric_scooter", "fusion_lat": 0.0, "lat": 38.916456333333336, "name": "1258a795c8d854b7204a49339669644e", "fusion_lon": 0.0, "bike_id": "1258a795c8d854b7204a49339669644e", "is_disabled": 0, "is_reserved": 0}, {"rental_uris": {"ios": "https://dc.lft.to/lastmile_qr_scan", "android": "https://dc.lft.to/lastmile_qr_scan"}, "lon": -76.99383066666667, "type": "electric_scooter", "fusion_lat": 0.0, "lat": 38.897451833333335, "name": "4855218701b71a8bf13dcb5f8b1f611e", "fusion_lon": 0.0, "bike_id": "4855218701b71a8bf13dcb5f8b1f611e", "is_disabled": 0, "is_reserved": 0}, {"rental_uris": {"ios": "https://dc.lft.to/lastmile_qr_scan", "android": "https://dc.lft.to/lastmile_qr_scan"}, "lon": -76.98263933333334, "type": "electric_scooter", "fusion_lat": 0.0, "lat": 38.863523, "name": "833eb96432560a46d339f8565e5b643d", "fusion_lon": 0.0, "bike_id": "833eb96432560a46d339f8565e5b643d", "is_disabled": 0, "is_reserved": 0}, {"rental_uris": {"ios": "https://dc.lft.to/lastmile_qr_scan", "android": "https://dc.lft.to/lastmile_qr_scan"}, "lon": -77.01113166666667, "type": "electric_scooter", "fusion_lat": 0.0, "lat": 38.90025383333333, "name": "6ee4f11bbb1440e94c0425a775f818de", "fusion_lon": 0.0, "bike_id": "6ee4f11bbb1440e94c0425a775f818de", "is_disabled": 0, "is_reserved": 0}, {"rental_uris": {"ios": "https://dc.lft.to/lastmile_qr_scan", "android": "https://dc.lft.to/lastmile_qr_scan"}, "lon": -77.04413016666666, "type": "electric_scooter", "fusion_lat": 0.0, "lat": 38.905839, "name": "a3d63d4ce1e9c7cbf403dce0251e428a", "fusion_lon": 0.0, "bike_id": "a3d63d4ce1e9c7cbf403dce0251e428a", "is_disabled": 0, "is_reserved": 0}, {"rental_uris": {"ios": "https://dc.lft.to/lastmile_qr_scan", "android": "https://dc.lft.to/lastmile_qr_scan"}, "lon": -77.05438683333334, "type": "electric_scooter", "fusion_lat": 0.0, "lat": 38.89610183333333, "name": "b251a9103fdf7858b570cfda37f2873e", "fusion_lon": 0.0, "bike_id": "b251a9103fdf7858b570cfda37f2873e", "is_disabled": 0, "is_reserved": 0}, {"rental_uris": {"ios": "https://dc.lft.to/lastmile_qr_scan", "android": "https://dc.lft.to/lastmile_qr_scan"}, "lon": -77.03666166666666, "type": "electric_scooter", "fusion_lat": 0.0, "lat": 38.90269216666667, "name": "e0b89f53903fc8d6abfa8ece2a26297e", "fusion_lon": 0.0, "bike_id": "e0b89f53903fc8d6abfa8ece2a26297e", "is_disabled": 0, "is_reserved": 0}, {"rental_uris": {"ios": "https://dc.lft.to/lastmile_qr_scan", "android": "https://dc.lft.to/lastmile_qr_scan"}, "lon": -77.02905783333334, "type": "electric_scooter", "fusion_lat": 0.0, "lat": 38.88618316666667, "name": "eecb297e99e5c8ac0c1fabf7fe1c2dbe", "fusion_lon": 0.0, "bike_id": "eecb297e99e5c8ac0c1fabf7fe1c2dbe", "is_disabled": 0, "is_reserved": 0}, {"rental_uris": {"ios": "https://dc.lft.to/lastmile_qr_scan", "android": "https://dc.lft.to/lastmile_qr_scan"}, "lon": -77.00778933333333, "type": "electric_scooter", "fusion_lat": 0.0, "lat": 38.906427666666666, "name": "44b7fced6ab739477213e8318c35063c", "fusion_lon": 0.0, "bike_id": "44b7fced6ab739477213e8318c35063c", "is_disabled": 0, "is_reserved": 0}, {"rental_uris": {"ios": "https://dc.lft.to/lastmile_qr_scan", "android": "https://dc.lft.to/lastmile_qr_scan"}, "lon": -77.01364066666666, "type": "electric_scooter", "fusion_lat": 0.0, "lat": 38.86375266666667, "name": "fcb09531a33da72f098cb1a746155a92", "fusion_lon": 0.0, "bike_id": "fcb09531a33da72f098cb1a746155a92", "is_disabled": 0, "is_reserved": 0}, {"rental_uris": {"ios": "https://dc.lft.to/lastmile_qr_scan", "android": "https://dc.lft.to/lastmile_qr_scan"}, "lon": -77.069468, "type": "electric_scooter", "fusion_lat": 0.0, "lat": 38.905115333333335, "name": "83532469776723d2611005990c23cee8", "fusion_lon": 0.0, "bike_id": "83532469776723d2611005990c23cee8", "is_disabled": 0, "is_reserved": 0}, {"rental_uris": {"ios": "https://dc.lft.to/lastmile_qr_scan", "android": "https://dc.lft.to/lastmile_qr_scan"}, "lon": -77.04204216666666, "type": "electric_scooter", "fusion_lat": 0.0, "lat": 38.911043, "name": "a5f364eff0da0041ab3cf58a3a242ae5", "fusion_lon": 0.0, "bike_id": "a5f364eff0da0041ab3cf58a3a242ae5", "is_disabled": 0, "is_reserved": 0}, {"rental_uris": {"ios": "https://dc.lft.to/lastmile_qr_scan", "android": "https://dc.lft.to/lastmile_qr_scan"}, "lon": -77.0356415, "type": "electric_scooter", "fusion_lat": 0.0, "lat": 38.918081, "name": "f85eb8223eaa2d525bcffe5e33c6c3c3", "fusion_lon": 0.0, "bike_id": "f85eb8223eaa2d525bcffe5e33c6c3c3", "is_disabled": 0, "is_reserved": 0}, {"rental_uris": {"ios": "https://dc.lft.to/lastmile_qr_scan", "android": "https://dc.lft.to/lastmile_qr_scan"}, "lon": -77.07164, "type": "electric_scooter", "fusion_lat": 0.0, "lat": 38.91455533333333, "name": "0e12a932bd5357ef43eacbd0211b5f59", "fusion_lon": 0.0, "bike_id": "0e12a932bd5357ef43eacbd0211b5f59", "is_disabled": 0, "is_reserved": 0}, {"rental_uris": {"ios": "https://dc.lft.to/lastmile_qr_scan", "android": "https://dc.lft.to/lastmile_qr_scan"}, "lon": -77.032377, "type": "electric_scooter", "fusion_lat": 0.0, "lat": 38.92765883333333, "name": "95ef73acb7c5151a1ced614cc7555c32", "fusion_lon": 0.0, "bike_id": "95ef73acb7c5151a1ced614cc7555c32", "is_disabled": 0, "is_reserved": 0}, {"rental_uris": {"ios": "https://dc.lft.to/lastmile_qr_scan", "android": "https://dc.lft.to/lastmile_qr_scan"}, "lon": -77.04352016666667, "type": "electric_scooter", "fusion_lat": 0.0, "lat": 38.896484, "name": "266949eb11c4ad03c6a74d2b8bbf7587", "fusion_lon": 0.0, "bike_id": "266949eb11c4ad03c6a74d2b8bbf7587", "is_disabled": 0, "is_reserved": 0}, {"rental_uris": {"ios": "https://dc.lft.to/lastmile_qr_scan", "android": "https://dc.lft.to/lastmile_qr_scan"}, "lon": -77.02717966666667, "type": "electric_scooter", "fusion_lat": 0.0, "lat": 38.9346205, "name": "f9f1f86d200a87c4dcd99d942c3f312a", "fusion_lon": 0.0, "bike_id": "f9f1f86d200a87c4dcd99d942c3f312a", "is_disabled": 0, "is_reserved": 0}, {"rental_uris": {"ios": "https://dc.lft.to/lastmile_qr_scan", "android": "https://dc.lft.to/lastmile_qr_scan"}, "lon": -77.023291, "type": "electric_scooter", "fusion_lat": 0.0, "lat": 38.937828333333336, "name": "98adf1752d7a8321f2e4e3b870f05b46", "fusion_lon": 0.0, "bike_id": "98adf1752d7a8321f2e4e3b870f05b46", "is_disabled": 0, "is_reserved": 0}, {"rental_uris": {"ios": "https://dc.lft.to/lastmile_qr_scan", "android": "https://dc.lft.to/lastmile_qr_scan"}, "lon": -76.95362233333333, "type": "electric_bike", "fusion_lat": 0.0, "lat": 38.939553, "name": "5c26673f9b73f37f550f7af9699cf6fa", "fusion_lon": 0.0, "bike_id": "5c26673f9b73f37f550f7af9699cf6fa", "is_disabled": 0, "is_reserved": 0}, {"rental_uris": {"ios": "https://dc.lft.to/lastmile_qr_scan", "android": "https://dc.lft.to/lastmile_qr_scan"}, "lon": -76.9871665, "type": "electric_scooter", "fusion_lat": 0.0, "lat": 38.867038, "name": "5c0a0ef2fe4084ff65d7179c5ac3201f", "fusion_lon": 0.0, "bike_id": "5c0a0ef2fe4084ff65d7179c5ac3201f", "is_disabled": 0, "is_reserved": 0}, {"rental_uris": {"ios": "https://dc.lft.to/lastmile_qr_scan", "android": "https://dc.lft.to/lastmile_qr_scan"}, "lon": -77.04775816666667, "type": "electric_bike", "fusion_lat": 0.0, "lat": 39.0532265, "name": "adfb49ff87544fdfc569d6120bd4aa8f", "fusion_lon": 0.0, "bike_id": "adfb49ff87544fdfc569d6120bd4aa8f", "is_disabled": 0, "is_reserved": 0}, {"rental_uris": {"ios": "https://dc.lft.to/lastmile_qr_scan", "android": "https://dc.lft.to/lastmile_qr_scan"}, "lon": -77.17843433333333, "type": "electric_bike", "fusion_lat": 0.0, "lat": 39.088589, "name": "d77d3d82a0ee517de4c178523e123bc8", "fusion_lon": 0.0, "bike_id": "d77d3d82a0ee517de4c178523e123bc8", "is_disabled": 0, "is_reserved": 0}, {"rental_uris": {"ios": "https://dc.lft.to/lastmile_qr_scan", "android": "https://dc.lft.to/lastmile_qr_scan"}, "lon": -77.0329975, "type": "electric_scooter", "fusion_lat": 0.0, "lat": 38.92863333333333, "name": "3b7fa76a52cad9722847a630a9b58a8c", "fusion_lon": 0.0, "bike_id": "3b7fa76a52cad9722847a630a9b58a8c", "is_disabled": 0, "is_reserved": 0}, {"rental_uris": {"ios": "https://dc.lft.to/lastmile_qr_scan", "android": "https://dc.lft.to/lastmile_qr_scan"}, "lon": -77.00123216666667, "type": "electric_scooter", "fusion_lat": 0.0, "lat": 38.878008, "name": "f06bbc8d902cfee0af4053f3960c17f0", "fusion_lon": 0.0, "bike_id": "f06bbc8d902cfee0af4053f3960c17f0", "is_disabled": 0, "is_reserved": 0}, {"rental_uris": {"ios": "https://dc.lft.to/lastmile_qr_scan", "android": "https://dc.lft.to/lastmile_qr_scan"}, "lon": -77.05698116666667, "type": "electric_scooter", "fusion_lat": 0.0, "lat": 38.905424333333336, "name": "eeee83526976a1054211f8a0f0499d76", "fusion_lon": 0.0, "bike_id": "eeee83526976a1054211f8a0f0499d76", "is_disabled": 0, "is_reserved": 0}, {"rental_uris": {"ios": "https://dc.lft.to/lastmile_qr_scan", "android": "https://dc.lft.to/lastmile_qr_scan"}, "lon": -76.98899066666667, "type": "electric_scooter", "fusion_lat": 0.0, "lat": 38.866981833333334, "name": "038466f86196b5c5b93db18f1c97a6ca", "fusion_lon": 0.0, "bike_id": "038466f86196b5c5b93db18f1c97a6ca", "is_disabled": 0, "is_reserved": 0}, {"rental_uris": {"ios": "https://dc.lft.to/lastmile_qr_scan", "android": "https://dc.lft.to/lastmile_qr_scan"}, "lon": -77.04121583333334, "type": "electric_scooter", "fusion_lat": 0.0, "lat": 38.92356983333333, "name": "2cb51600c6b7f8653933635062dbeaa5", "fusion_lon": 0.0, "bike_id": "2cb51600c6b7f8653933635062dbeaa5", "is_disabled": 0, "is_reserved": 0}, {"rental_uris": {"ios": "https://dc.lft.to/lastmile_qr_scan", "android": "https://dc.lft.to/lastmile_qr_scan"}, "lon": -77.0363175, "type": "electric_scooter", "fusion_lat": 0.0, "lat": 38.9128035, "name": "7d9ecc5a146b90ba3f0926b177c7f7b3", "fusion_lon": 0.0, "bike_id": "7d9ecc5a146b90ba3f0926b177c7f7b3", "is_disabled": 0, "is_reserved": 0}, {"rental_uris": {"ios": "https://dc.lft.to/lastmile_qr_scan", "android": "https://dc.lft.to/lastmile_qr_scan"}, "lon": -77.03969333333333, "type": "electric_scooter", "fusion_lat": 0.0, "lat": 38.919776, "name": "1526de5755e6623e3a2961d5b10d795e", "fusion_lon": 0.0, "bike_id": "1526de5755e6623e3a2961d5b10d795e", "is_disabled": 0, "is_reserved": 0}, {"rental_uris": {"ios": "https://dc.lft.to/lastmile_qr_scan", "android": "https://dc.lft.to/lastmile_qr_scan"}, "lon": -77.03421166666666, "type": "electric_scooter", "fusion_lat": 0.0, "lat": 38.91923666666667, "name": "b1d48e3eb0a86e264e5ca2142ba9d8fa", "fusion_lon": 0.0, "bike_id": "b1d48e3eb0a86e264e5ca2142ba9d8fa", "is_disabled": 0, "is_reserved": 0}, {"rental_uris": {"ios": "https://dc.lft.to/lastmile_qr_scan", "android": "https://dc.lft.to/lastmile_qr_scan"}, "lon": -77.00985083333333, "type": "electric_scooter", "fusion_lat": 0.0, "lat": 38.91484666666667, "name": "c362b6b4d02e29604fcecebe7e01427a", "fusion_lon": 0.0, "bike_id": "c362b6b4d02e29604fcecebe7e01427a", "is_disabled": 0, "is_reserved": 0}, {"rental_uris": {"ios": "https://dc.lft.to/lastmile_qr_scan", "android": "https://dc.lft.to/lastmile_qr_scan"}, "lon": -77.0269985, "type": "electric_scooter", "fusion_lat": 0.0, "lat": 38.94980616666667, "name": "6ac2b7214634bafcc4e73e51ef16f737", "fusion_lon": 0.0, "bike_id": "6ac2b7214634bafcc4e73e51ef16f737", "is_disabled": 0, "is_reserved": 0}, {"rental_uris": {"ios": "https://dc.lft.to/lastmile_qr_scan", "android": "https://dc.lft.to/lastmile_qr_scan"}, "lon": -76.92887066666667, "type": "electric_scooter", "fusion_lat": 0.0, "lat": 38.89330983333333, "name": "59f424e2aa0c7b57b3a3e0b7103bcaee", "fusion_lon": 0.0, "bike_id": "59f424e2aa0c7b57b3a3e0b7103bcaee", "is_disabled": 0, "is_reserved": 0}, {"rental_uris": {"ios": "https://dc.lft.to/lastmile_qr_scan", "android": "https://dc.lft.to/lastmile_qr_scan"}, "lon": -77.03168583333333, "type": "electric_scooter", "fusion_lat": 0.0, "lat": 38.92092516666666, "name": "fcbf21c628308b4818b3f4692d086abe", "fusion_lon": 0.0, "bike_id": "fcbf21c628308b4818b3f4692d086abe", "is_disabled": 0, "is_reserved": 0}, {"rental_uris": {"ios": "https://dc.lft.to/lastmile_qr_scan", "android": "https://dc.lft.to/lastmile_qr_scan"}, "lon": -77.0318085, "type": "electric_scooter", "fusion_lat": 0.0, "lat": 38.89954133333333, "name": "407f1595f58b4a014c3603c8c134170e", "fusion_lon": 0.0, "bike_id": "407f1595f58b4a014c3603c8c134170e", "is_disabled": 0, "is_reserved": 0}, {"rental_uris": {"ios": "https://dc.lft.to/lastmile_qr_scan", "android": "https://dc.lft.to/lastmile_qr_scan"}, "lon": -77.02110966666666, "type": "electric_scooter", "fusion_lat": 0.0, "lat": 38.91321583333333, "name": "675c6d3f767e8112ea9a17f3d66f4fb3", "fusion_lon": 0.0, "bike_id": "675c6d3f767e8112ea9a17f3d66f4fb3", "is_disabled": 0, "is_reserved": 0}, {"rental_uris": {"ios": "https://dc.lft.to/lastmile_qr_scan", "android": "https://dc.lft.to/lastmile_qr_scan"}, "lon": -77.04661116666666, "type": "electric_scooter", "fusion_lat": 0.0, "lat": 38.90556383333333, "name": "8ee801231d56e34886f90e815ab655e7", "fusion_lon": 0.0, "bike_id": "8ee801231d56e34886f90e815ab655e7", "is_disabled": 0, "is_reserved": 0}, {"rental_uris": {"ios": "https://dc.lft.to/lastmile_qr_scan", "android": "https://dc.lft.to/lastmile_qr_scan"}, "lon": -77.01217283333334, "type": "electric_bike", "fusion_lat": 0.0, "lat": 38.871051666666666, "name": "7df42ad891b1104619c815a48b45e5f1", "fusion_lon": 0.0, "bike_id": "7df42ad891b1104619c815a48b45e5f1", "is_disabled": 0, "is_reserved": 0}, {"rental_uris": {"ios": "https://dc.lft.to/lastmile_qr_scan", "android": "https://dc.lft.to/lastmile_qr_scan"}, "lon": -76.9662785, "type": "electric_bike", "fusion_lat": 0.0, "lat": 38.94202516666667, "name": "c48d3fe682c41cc3131346d7e05938cd", "fusion_lon": 0.0, "bike_id": "c48d3fe682c41cc3131346d7e05938cd", "is_disabled": 0, "is_reserved": 0}, {"rental_uris": {"ios": "https://dc.lft.to/lastmile_qr_scan", "android": "https://dc.lft.to/lastmile_qr_scan"}, "lon": -77.01051083333333, "type": "electric_scooter", "fusion_lat": 0.0, "lat": 38.87938166666667, "name": "c36941299c7cd30e5ed107fc0a8a06d1", "fusion_lon": 0.0, "bike_id": "c36941299c7cd30e5ed107fc0a8a06d1", "is_disabled": 0, "is_reserved": 0}, {"rental_uris": {"ios": "https://dc.lft.to/lastmile_qr_scan", "android": "https://dc.lft.to/lastmile_qr_scan"}, "lon": -77.032227, "type": "electric_scooter", "fusion_lat": 0.0, "lat": 38.90866033333333, "name": "346dbe7446de2e510afa6bbb96943c7b", "fusion_lon": 0.0, "bike_id": "346dbe7446de2e510afa6bbb96943c7b", "is_disabled": 0, "is_reserved": 0}, {"rental_uris": {"ios": "https://dc.lft.to/lastmile_qr_scan", "android": "https://dc.lft.to/lastmile_qr_scan"}, "lon": -77.09747866666666, "type": "electric_bike", "fusion_lat": 0.0, "lat": 38.85854116666667, "name": "9be0d0e805d12e388bf16ecc745e1f01", "fusion_lon": 0.0, "bike_id": "9be0d0e805d12e388bf16ecc745e1f01", "is_disabled": 0, "is_reserved": 0}, {"rental_uris": {"ios": "https://dc.lft.to/lastmile_qr_scan", "android": "https://dc.lft.to/lastmile_qr_scan"}, "lon": -77.03178066666666, "type": "electric_scooter", "fusion_lat": 0.0, "lat": 38.92002633333333, "name": "643fc115fbd21be6697252ad78afa87b", "fusion_lon": 0.0, "bike_id": "643fc115fbd21be6697252ad78afa87b", "is_disabled": 0, "is_reserved": 0}, {"rental_uris": {"ios": "https://dc.lft.to/lastmile_qr_scan", "android": "https://dc.lft.to/lastmile_qr_scan"}, "lon": -77.03682566666667, "type": "electric_scooter", "fusion_lat": 0.0, "lat": 38.9181745, "name": "6d19551ffa2e606682a7cdea5ea8d68a", "fusion_lon": 0.0, "bike_id": "6d19551ffa2e606682a7cdea5ea8d68a", "is_disabled": 0, "is_reserved": 0}, {"rental_uris": {"ios": "https://dc.lft.to/lastmile_qr_scan", "android": "https://dc.lft.to/lastmile_qr_scan"}, "lon": -77.09869466666666, "type": "electric_bike", "fusion_lat": 0.0, "lat": 38.85375633333334, "name": "f76bd26056eae0bafa1757032d0e65af", "fusion_lon": 0.0, "bike_id": "f76bd26056eae0bafa1757032d0e65af", "is_disabled": 0, "is_reserved": 0}, {"rental_uris": {"ios": "https://dc.lft.to/lastmile_qr_scan", "android": "https://dc.lft.to/lastmile_qr_scan"}, "lon": -77.023576, "type": "electric_scooter", "fusion_lat": 0.0, "lat": 38.91986333333333, "name": "d5b3f69992a0a3db54f13b34719d1460", "fusion_lon": 0.0, "bike_id": "d5b3f69992a0a3db54f13b34719d1460", "is_disabled": 0, "is_reserved": 0}, {"rental_uris": {"ios": "https://dc.lft.to/lastmile_qr_scan", "android": "https://dc.lft.to/lastmile_qr_scan"}, "lon": -77.02230683333333, "type": "electric_scooter", "fusion_lat": 0.0, "lat": 38.891963833333335, "name": "fceda239e63f18e66a7c70fa47554a02", "fusion_lon": 0.0, "bike_id": "fceda239e63f18e66a7c70fa47554a02", "is_disabled": 0, "is_reserved": 0}, {"rental_uris": {"ios": "https://dc.lft.to/lastmile_qr_scan", "android": "https://dc.lft.to/lastmile_qr_scan"}, "lon": -77.069437, "type": "electric_scooter", "fusion_lat": 0.0, "lat": 38.9051275, "name": "3b89adf6e8e075f3a8005673922a0dd9", "fusion_lon": 0.0, "bike_id": "3b89adf6e8e075f3a8005673922a0dd9", "is_disabled": 0, "is_reserved": 0}, {"rental_uris": {"ios": "https://dc.lft.to/lastmile_qr_scan", "android": "https://dc.lft.to/lastmile_qr_scan"}, "lon": -77.0339655, "type": "electric_scooter", "fusion_lat": 0.0, "lat": 38.93848033333333, "name": "653ea7091cb82b3b70f2c57c3aaeb600", "fusion_lon": 0.0, "bike_id": "653ea7091cb82b3b70f2c57c3aaeb600", "is_disabled": 0, "is_reserved": 0}, {"rental_uris": {"ios": "https://dc.lft.to/lastmile_qr_scan", "android": "https://dc.lft.to/lastmile_qr_scan"}, "lon": -77.02689466666666, "type": "electric_scooter", "fusion_lat": 0.0, "lat": 38.9015985, "name": "a968442e0eefa8e323ad64b99db5dfb8", "fusion_lon": 0.0, "bike_id": "a968442e0eefa8e323ad64b99db5dfb8", "is_disabled": 0, "is_reserved": 0}, {"rental_uris": {"ios": "https://dc.lft.to/lastmile_qr_scan", "android": "https://dc.lft.to/lastmile_qr_scan"}, "lon": -77.03451566666666, "type": "electric_scooter", "fusion_lat": 0.0, "lat": 38.9182915, "name": "b8ab4060100be49dc0c488264abdac7b", "fusion_lon": 0.0, "bike_id": "b8ab4060100be49dc0c488264abdac7b", "is_disabled": 0, "is_reserved": 0}, {"rental_uris": {"ios": "https://dc.lft.to/lastmile_qr_scan", "android": "https://dc.lft.to/lastmile_qr_scan"}, "lon": -77.02485766666666, "type": "electric_scooter", "fusion_lat": 0.0, "lat": 38.941854, "name": "3b28555480ee6d84745a35e668b2585d", "fusion_lon": 0.0, "bike_id": "3b28555480ee6d84745a35e668b2585d", "is_disabled": 0, "is_reserved": 0}, {"rental_uris": {"ios": "https://dc.lft.to/lastmile_qr_scan", "android": "https://dc.lft.to/lastmile_qr_scan"}, "lon": -77.04057766666666, "type": "electric_scooter", "fusion_lat": 0.0, "lat": 38.927142333333336, "name": "d709badd49bb2d02e74b26d4c54b963a", "fusion_lon": 0.0, "bike_id": "d709badd49bb2d02e74b26d4c54b963a", "is_disabled": 0, "is_reserved": 0}, {"rental_uris": {"ios": "https://dc.lft.to/lastmile_qr_scan", "android": "https://dc.lft.to/lastmile_qr_scan"}, "lon": -77.045679, "type": "electric_scooter", "fusion_lat": 0.0, "lat": 38.90868183333333, "name": "2059c85d58cc7a3ab77764c5555fcad3", "fusion_lon": 0.0, "bike_id": "2059c85d58cc7a3ab77764c5555fcad3", "is_disabled": 0, "is_reserved": 0}, {"rental_uris": {"ios": "https://dc.lft.to/lastmile_qr_scan", "android": "https://dc.lft.to/lastmile_qr_scan"}, "lon": -77.00569716666666, "type": "electric_scooter", "fusion_lat": 0.0, "lat": 38.90559183333333, "name": "fe67517aa6b799cda6a9226960a71a20", "fusion_lon": 0.0, "bike_id": "fe67517aa6b799cda6a9226960a71a20", "is_disabled": 0, "is_reserved": 0}, {"rental_uris": {"ios": "https://dc.lft.to/lastmile_qr_scan", "android": "https://dc.lft.to/lastmile_qr_scan"}, "lon": -77.02476733333333, "type": "electric_scooter", "fusion_lat": 0.0, "lat": 38.9181665, "name": "e5db31b9ac1199221e4bb9bc872d0fc2", "fusion_lon": 0.0, "bike_id": "e5db31b9ac1199221e4bb9bc872d0fc2", "is_disabled": 0, "is_reserved": 0}, {"rental_uris": {"ios": "https://dc.lft.to/lastmile_qr_scan", "android": "https://dc.lft.to/lastmile_qr_scan"}, "lon": -77.12038333333334, "type": "electric_bike", "fusion_lat": 0.0, "lat": 38.855133333333335, "name": "a0cd22be6c212c557fbafe908b8815be", "fusion_lon": 0.0, "bike_id": "a0cd22be6c212c557fbafe908b8815be", "is_disabled": 0, "is_reserved": 0}, {"rental_uris": {"ios": "https://dc.lft.to/lastmile_qr_scan", "android": "https://dc.lft.to/lastmile_qr_scan"}, "lon": -77.00063166666666, "type": "electric_scooter", "fusion_lat": 0.0, "lat": 38.9059235, "name": "5d8bc1b5083f83127937b8f78010a3d8", "fusion_lon": 0.0, "bike_id": "5d8bc1b5083f83127937b8f78010a3d8", "is_disabled": 0, "is_reserved": 0}, {"rental_uris": {"ios": "https://dc.lft.to/lastmile_qr_scan", "android": "https://dc.lft.to/lastmile_qr_scan"}, "lon": -77.0344645, "type": "electric_scooter", "fusion_lat": 0.0, "lat": 38.91827283333333, "name": "25f7dcd461a49511aa1358a8a80bb924", "fusion_lon": 0.0, "bike_id": "25f7dcd461a49511aa1358a8a80bb924", "is_disabled": 0, "is_reserved": 0}, {"rental_uris": {"ios": "https://dc.lft.to/lastmile_qr_scan", "android": "https://dc.lft.to/lastmile_qr_scan"}, "lon": -77.044453, "type": "electric_scooter", "fusion_lat": 0.0, "lat": 38.91013433333333, "name": "87bd743106b90c10c782d7b4e6febeb2", "fusion_lon": 0.0, "bike_id": "87bd743106b90c10c782d7b4e6febeb2", "is_disabled": 0, "is_reserved": 0}, {"rental_uris": {"ios": "https://dc.lft.to/lastmile_qr_scan", "android": "https://dc.lft.to/lastmile_qr_scan"}, "lon": -76.93178066666667, "type": "electric_scooter", "fusion_lat": 0.0, "lat": 38.898845666666666, "name": "9c31fd444a3ef891eac24ea1f9a58db9", "fusion_lon": 0.0, "bike_id": "9c31fd444a3ef891eac24ea1f9a58db9", "is_disabled": 0, "is_reserved": 0}, {"rental_uris": {"ios": "https://dc.lft.to/lastmile_qr_scan", "android": "https://dc.lft.to/lastmile_qr_scan"}, "lon": -76.9949585, "type": "electric_scooter", "fusion_lat": 0.0, "lat": 38.86244966666667, "name": "ad88f9253f8bbb6a8b1c9a46f4d57fa3", "fusion_lon": 0.0, "bike_id": "ad88f9253f8bbb6a8b1c9a46f4d57fa3", "is_disabled": 0, "is_reserved": 0}, {"rental_uris": {"ios": "https://dc.lft.to/lastmile_qr_scan", "android": "https://dc.lft.to/lastmile_qr_scan"}, "lon": -77.013544, "type": "electric_scooter", "fusion_lat": 0.0, "lat": 38.919405166666664, "name": "367e8369e468d9c6703a6401738e1ac3", "fusion_lon": 0.0, "bike_id": "367e8369e468d9c6703a6401738e1ac3", "is_disabled": 0, "is_reserved": 0}, {"rental_uris": {"ios": "https://dc.lft.to/lastmile_qr_scan", "android": "https://dc.lft.to/lastmile_qr_scan"}, "lon": -77.03665483333333, "type": "electric_scooter", "fusion_lat": 0.0, "lat": 38.918190333333335, "name": "569071553ee87ef6c5854a659792641b", "fusion_lon": 0.0, "bike_id": "569071553ee87ef6c5854a659792641b", "is_disabled": 0, "is_reserved": 0}, {"rental_uris": {"ios": "https://dc.lft.to/lastmile_qr_scan", "android": "https://dc.lft.to/lastmile_qr_scan"}, "lon": -77.0529585, "type": "electric_scooter", "fusion_lat": 0.0, "lat": 38.927923, "name": "31c03abf9c1ecec712a2c09966fa46ba", "fusion_lon": 0.0, "bike_id": "31c03abf9c1ecec712a2c09966fa46ba", "is_disabled": 0, "is_reserved": 0}, {"rental_uris": {"ios": "https://dc.lft.to/lastmile_qr_scan", "android": "https://dc.lft.to/lastmile_qr_scan"}, "lon": -77.0366035, "type": "electric_bike", "fusion_lat": 0.0, "lat": 38.936321666666664, "name": "e004528989b3f356fe0f1b22d6e2bf10", "fusion_lon": 0.0, "bike_id": "e004528989b3f356fe0f1b22d6e2bf10", "is_disabled": 0, "is_reserved": 0}, {"rental_uris": {"ios": "https://dc.lft.to/lastmile_qr_scan", "android": "https://dc.lft.to/lastmile_qr_scan"}, "lon": -77.03227816666667, "type": "electric_scooter", "fusion_lat": 0.0, "lat": 38.9266965, "name": "f5d811c74926928368e5ebc3ea3770f5", "fusion_lon": 0.0, "bike_id": "f5d811c74926928368e5ebc3ea3770f5", "is_disabled": 0, "is_reserved": 0}, {"rental_uris": {"ios": "https://dc.lft.to/lastmile_qr_scan", "android": "https://dc.lft.to/lastmile_qr_scan"}, "lon": -77.03802616666667, "type": "electric_scooter", "fusion_lat": 0.0, "lat": 38.93612066666667, "name": "a2556de05c4b690ab3f361457fec2b92", "fusion_lon": 0.0, "bike_id": "a2556de05c4b690ab3f361457fec2b92", "is_disabled": 0, "is_reserved": 0}, {"rental_uris": {"ios": "https://dc.lft.to/lastmile_qr_scan", "android": "https://dc.lft.to/lastmile_qr_scan"}, "lon": -77.0488045, "type": "electric_scooter", "fusion_lat": 0.0, "lat": 38.903060833333335, "name": "6f9f3f84700a835ade14477fae761889", "fusion_lon": 0.0, "bike_id": "6f9f3f84700a835ade14477fae761889", "is_disabled": 0, "is_reserved": 0}, {"rental_uris": {"ios": "https://dc.lft.to/lastmile_qr_scan", "android": "https://dc.lft.to/lastmile_qr_scan"}, "lon": -76.971818, "type": "electric_scooter", "fusion_lat": 0.0, "lat": 38.917614666666665, "name": "913afd9f5411434c0d678f53702f4da5", "fusion_lon": 0.0, "bike_id": "913afd9f5411434c0d678f53702f4da5", "is_disabled": 0, "is_reserved": 0}, {"rental_uris": {"ios": "https://dc.lft.to/lastmile_qr_scan", "android": "https://dc.lft.to/lastmile_qr_scan"}, "lon": -77.03267383333333, "type": "electric_scooter", "fusion_lat": 0.0, "lat": 38.93232716666667, "name": "a12ad944707fd0224e755702ed69f5cc", "fusion_lon": 0.0, "bike_id": "a12ad944707fd0224e755702ed69f5cc", "is_disabled": 0, "is_reserved": 0}, {"rental_uris": {"ios": "https://dc.lft.to/lastmile_qr_scan", "android": "https://dc.lft.to/lastmile_qr_scan"}, "lon": -76.98959416666666, "type": "electric_scooter", "fusion_lat": 0.0, "lat": 38.90028566666667, "name": "8652104e665cde4f2c82ed1b22fbce53", "fusion_lon": 0.0, "bike_id": "8652104e665cde4f2c82ed1b22fbce53", "is_disabled": 0, "is_reserved": 0}, {"rental_uris": {"ios": "https://dc.lft.to/lastmile_qr_scan", "android": "https://dc.lft.to/lastmile_qr_scan"}, "lon": -77.12898583333333, "type": "electric_bike", "fusion_lat": 0.0, "lat": 38.863782666666665, "name": "344090c05aab0dd17663e312e3eb1753", "fusion_lon": 0.0, "bike_id": "344090c05aab0dd17663e312e3eb1753", "is_disabled": 0, "is_reserved": 0}, {"rental_uris": {"ios": "https://dc.lft.to/lastmile_qr_scan", "android": "https://dc.lft.to/lastmile_qr_scan"}, "lon": -77.03792816666666, "type": "electric_scooter", "fusion_lat": 0.0, "lat": 38.905608, "name": "f1f7ab6f8410b3bb97201c78cac24932", "fusion_lon": 0.0, "bike_id": "f1f7ab6f8410b3bb97201c78cac24932", "is_disabled": 0, "is_reserved": 0}, {"rental_uris": {"ios": "https://dc.lft.to/lastmile_qr_scan", "android": "https://dc.lft.to/lastmile_qr_scan"}, "lon": -76.9499455, "type": "electric_scooter", "fusion_lat": 0.0, "lat": 38.89373366666667, "name": "c5f2ec55b0b9f237bb79016d21253ab7", "fusion_lon": 0.0, "bike_id": "c5f2ec55b0b9f237bb79016d21253ab7", "is_disabled": 0, "is_reserved": 0}, {"rental_uris": {"ios": "https://dc.lft.to/lastmile_qr_scan", "android": "https://dc.lft.to/lastmile_qr_scan"}, "lon": -77.02530283333333, "type": "electric_scooter", "fusion_lat": 0.0, "lat": 38.943052, "name": "197fd39371536702b1f1360d3d6b880d", "fusion_lon": 0.0, "bike_id": "197fd39371536702b1f1360d3d6b880d", "is_disabled": 0, "is_reserved": 0}, {"rental_uris": {"ios": "https://dc.lft.to/lastmile_qr_scan", "android": "https://dc.lft.to/lastmile_qr_scan"}, "lon": -77.03643783333334, "type": "electric_scooter", "fusion_lat": 0.0, "lat": 38.9028465, "name": "62420b710b2997a1db8da41dac8589d3", "fusion_lon": 0.0, "bike_id": "62420b710b2997a1db8da41dac8589d3", "is_disabled": 0, "is_reserved": 0}, {"rental_uris": {"ios": "https://dc.lft.to/lastmile_qr_scan", "android": "https://dc.lft.to/lastmile_qr_scan"}, "lon": -76.97880733333334, "type": "electric_scooter", "fusion_lat": 0.0, "lat": 38.887704666666664, "name": "3ade9d7d90ce5013abdf4fe383733919", "fusion_lon": 0.0, "bike_id": "3ade9d7d90ce5013abdf4fe383733919", "is_disabled": 0, "is_reserved": 0}, {"rental_uris": {"ios": "https://dc.lft.to/lastmile_qr_scan", "android": "https://dc.lft.to/lastmile_qr_scan"}, "lon": -76.95098283333333, "type": "electric_scooter", "fusion_lat": 0.0, "lat": 38.88452383333333, "name": "a4f2590f3ca82eb65f7f9a4ea77e25ed", "fusion_lon": 0.0, "bike_id": "a4f2590f3ca82eb65f7f9a4ea77e25ed", "is_disabled": 0, "is_reserved": 0}, {"rental_uris": {"ios": "https://dc.lft.to/lastmile_qr_scan", "android": "https://dc.lft.to/lastmile_qr_scan"}, "lon": -77.00480666666667, "type": "electric_scooter", "fusion_lat": 0.0, "lat": 38.94407116666667, "name": "bed2bea0f3f7d0a08b667c4ac96a32b9", "fusion_lon": 0.0, "bike_id": "bed2bea0f3f7d0a08b667c4ac96a32b9", "is_disabled": 0, "is_reserved": 0}, {"rental_uris": {"ios": "https://dc.lft.to/lastmile_qr_scan", "android": "https://dc.lft.to/lastmile_qr_scan"}, "lon": -76.98975466666667, "type": "electric_scooter", "fusion_lat": 0.0, "lat": 38.85921183333333, "name": "a0a928ffb1d8da6616a582634d965363", "fusion_lon": 0.0, "bike_id": "a0a928ffb1d8da6616a582634d965363", "is_disabled": 0, "is_reserved": 0}, {"rental_uris": {"ios": "https://dc.lft.to/lastmile_qr_scan", "android": "https://dc.lft.to/lastmile_qr_scan"}, "lon": -77.03813166666667, "type": "electric_scooter", "fusion_lat": 0.0, "lat": 38.93399316666667, "name": "b6e509a3c899d914ea8998593c2896a9", "fusion_lon": 0.0, "bike_id": "b6e509a3c899d914ea8998593c2896a9", "is_disabled": 0, "is_reserved": 0}, {"rental_uris": {"ios": "https://dc.lft.to/lastmile_qr_scan", "android": "https://dc.lft.to/lastmile_qr_scan"}, "lon": -77.02175583333333, "type": "electric_scooter", "fusion_lat": 0.0, "lat": 38.9429735, "name": "73ee1131fd839edb809b46568e10917f", "fusion_lon": 0.0, "bike_id": "73ee1131fd839edb809b46568e10917f", "is_disabled": 0, "is_reserved": 0}, {"rental_uris": {"ios": "https://dc.lft.to/lastmile_qr_scan", "android": "https://dc.lft.to/lastmile_qr_scan"}, "lon": -77.0023385, "type": "electric_scooter", "fusion_lat": 0.0, "lat": 38.90555766666667, "name": "d7d34dfd03b42eba6a043dbdd750f568", "fusion_lon": 0.0, "bike_id": "d7d34dfd03b42eba6a043dbdd750f568", "is_disabled": 0, "is_reserved": 0}, {"rental_uris": {"ios": "https://dc.lft.to/lastmile_qr_scan", "android": "https://dc.lft.to/lastmile_qr_scan"}, "lon": -76.98411083333333, "type": "electric_scooter", "fusion_lat": 0.0, "lat": 38.913901, "name": "60c1988e5beb321f5282107717ef698d", "fusion_lon": 0.0, "bike_id": "60c1988e5beb321f5282107717ef698d", "is_disabled": 0, "is_reserved": 0}, {"rental_uris": {"ios": "https://dc.lft.to/lastmile_qr_scan", "android": "https://dc.lft.to/lastmile_qr_scan"}, "lon": -77.027004, "type": "electric_scooter", "fusion_lat": 0.0, "lat": 38.908478833333334, "name": "232ea56d82adcea0a9bf6864e8bd2b4e", "fusion_lon": 0.0, "bike_id": "232ea56d82adcea0a9bf6864e8bd2b4e", "is_disabled": 0, "is_reserved": 0}, {"rental_uris": {"ios": "https://dc.lft.to/lastmile_qr_scan", "android": "https://dc.lft.to/lastmile_qr_scan"}, "lon": -76.99384216666667, "type": "electric_scooter", "fusion_lat": 0.0, "lat": 38.88724766666667, "name": "e6a06ca7d923491e50f857ec8dcf62f5", "fusion_lon": 0.0, "bike_id": "e6a06ca7d923491e50f857ec8dcf62f5", "is_disabled": 0, "is_reserved": 0}, {"rental_uris": {"ios": "https://dc.lft.to/lastmile_qr_scan", "android": "https://dc.lft.to/lastmile_qr_scan"}, "lon": -77.036317, "type": "electric_scooter", "fusion_lat": 0.0, "lat": 38.91817066666667, "name": "dbb8afcc30b8a6a95bdf4d51754eb813", "fusion_lon": 0.0, "bike_id": "dbb8afcc30b8a6a95bdf4d51754eb813", "is_disabled": 0, "is_reserved": 0}, {"rental_uris": {"ios": "https://dc.lft.to/lastmile_qr_scan", "android": "https://dc.lft.to/lastmile_qr_scan"}, "lon": -77.11427683333334, "type": "electric_bike", "fusion_lat": 0.0, "lat": 38.8524965, "name": "2dad861dec084f69695830a1a81cca4d", "fusion_lon": 0.0, "bike_id": "2dad861dec084f69695830a1a81cca4d", "is_disabled": 0, "is_reserved": 0}, {"rental_uris": {"ios": "https://dc.lft.to/lastmile_qr_scan", "android": "https://dc.lft.to/lastmile_qr_scan"}, "lon": -77.00281333333334, "type": "electric_scooter", "fusion_lat": 0.0, "lat": 38.909001, "name": "fcedef42b5b71d1b46aaadd4abef6007", "fusion_lon": 0.0, "bike_id": "fcedef42b5b71d1b46aaadd4abef6007", "is_disabled": 0, "is_reserved": 0}, {"rental_uris": {"ios": "https://dc.lft.to/lastmile_qr_scan", "android": "https://dc.lft.to/lastmile_qr_scan"}, "lon": -76.96790866666667, "type": "electric_scooter", "fusion_lat": 0.0, "lat": 38.8614145, "name": "7b2cd932ae20cde3a411e8f06be16cd3", "fusion_lon": 0.0, "bike_id": "7b2cd932ae20cde3a411e8f06be16cd3", "is_disabled": 0, "is_reserved": 0}, {"rental_uris": {"ios": "https://dc.lft.to/lastmile_qr_scan", "android": "https://dc.lft.to/lastmile_qr_scan"}, "lon": -77.0749185, "type": "electric_scooter", "fusion_lat": 0.0, "lat": 38.91492133333333, "name": "27be83ea62b3f2e3517ebc1003022f34", "fusion_lon": 0.0, "bike_id": "27be83ea62b3f2e3517ebc1003022f34", "is_disabled": 0, "is_reserved": 0}, {"rental_uris": {"ios": "https://dc.lft.to/lastmile_qr_scan", "android": "https://dc.lft.to/lastmile_qr_scan"}, "lon": -77.05025366666666, "type": "electric_scooter", "fusion_lat": 0.0, "lat": 38.89657483333333, "name": "cfb437deea40a94cc80635fe57c5111c", "fusion_lon": 0.0, "bike_id": "cfb437deea40a94cc80635fe57c5111c", "is_disabled": 0, "is_reserved": 0}, {"rental_uris": {"ios": "https://dc.lft.to/lastmile_qr_scan", "android": "https://dc.lft.to/lastmile_qr_scan"}, "lon": -77.0317085, "type": "electric_scooter", "fusion_lat": 0.0, "lat": 38.89948716666667, "name": "0b490459fcc070635e4b43b48851dfd1", "fusion_lon": 0.0, "bike_id": "0b490459fcc070635e4b43b48851dfd1", "is_disabled": 0, "is_reserved": 0}, {"rental_uris": {"ios": "https://dc.lft.to/lastmile_qr_scan", "android": "https://dc.lft.to/lastmile_qr_scan"}, "lon": -77.03476383333333, "type": "electric_scooter", "fusion_lat": 0.0, "lat": 38.9028915, "name": "74e91cc6e687bd9ec923235537f6e180", "fusion_lon": 0.0, "bike_id": "74e91cc6e687bd9ec923235537f6e180", "is_disabled": 0, "is_reserved": 0}, {"rental_uris": {"ios": "https://dc.lft.to/lastmile_qr_scan", "android": "https://dc.lft.to/lastmile_qr_scan"}, "lon": -77.03323866666666, "type": "electric_scooter", "fusion_lat": 0.0, "lat": 38.92162866666666, "name": "91d9ddf247bd94c8fd3ca8f9d737835c", "fusion_lon": 0.0, "bike_id": "91d9ddf247bd94c8fd3ca8f9d737835c", "is_disabled": 0, "is_reserved": 0}, {"rental_uris": {"ios": "https://dc.lft.to/lastmile_qr_scan", "android": "https://dc.lft.to/lastmile_qr_scan"}, "lon": -77.00889633333334, "type": "electric_scooter", "fusion_lat": 0.0, "lat": 38.9123625, "name": "0472bbb9f28e300ab256d39a5d8b428e", "fusion_lon": 0.0, "bike_id": "0472bbb9f28e300ab256d39a5d8b428e", "is_disabled": 0, "is_reserved": 0}, {"rental_uris": {"ios": "https://dc.lft.to/lastmile_qr_scan", "android": "https://dc.lft.to/lastmile_qr_scan"}, "lon": -76.931776, "type": "electric_scooter", "fusion_lat": 0.0, "lat": 38.898914166666664, "name": "632106c33a0a6a597dce366eb0115ec4", "fusion_lon": 0.0, "bike_id": "632106c33a0a6a597dce366eb0115ec4", "is_disabled": 0, "is_reserved": 0}, {"rental_uris": {"ios": "https://dc.lft.to/lastmile_qr_scan", "android": "https://dc.lft.to/lastmile_qr_scan"}, "lon": -76.92714133333334, "type": "electric_scooter", "fusion_lat": 0.0, "lat": 38.887718666666665, "name": "aaa84dacbc8d9dcfc977399909b88615", "fusion_lon": 0.0, "bike_id": "aaa84dacbc8d9dcfc977399909b88615", "is_disabled": 0, "is_reserved": 0}, {"rental_uris": {"ios": "https://dc.lft.to/lastmile_qr_scan", "android": "https://dc.lft.to/lastmile_qr_scan"}, "lon": -77.01576933333334, "type": "electric_scooter", "fusion_lat": 0.0, "lat": 38.916841833333336, "name": "9d97b46616c62ed7f26243968c5aea4d", "fusion_lon": 0.0, "bike_id": "9d97b46616c62ed7f26243968c5aea4d", "is_disabled": 0, "is_reserved": 0}, {"rental_uris": {"ios": "https://dc.lft.to/lastmile_qr_scan", "android": "https://dc.lft.to/lastmile_qr_scan"}, "lon": -77.03133883333334, "type": "electric_scooter", "fusion_lat": 0.0, "lat": 38.92380283333333, "name": "58cdc3ce6c9a9d34b7b5ad3ec1d33c2f", "fusion_lon": 0.0, "bike_id": "58cdc3ce6c9a9d34b7b5ad3ec1d33c2f", "is_disabled": 0, "is_reserved": 0}, {"rental_uris": {"ios": "https://dc.lft.to/lastmile_qr_scan", "android": "https://dc.lft.to/lastmile_qr_scan"}, "lon": -76.98716583333334, "type": "electric_scooter", "fusion_lat": 0.0, "lat": 38.867041666666665, "name": "057de4c72243d1aeedf6074f52b9f90e", "fusion_lon": 0.0, "bike_id": "057de4c72243d1aeedf6074f52b9f90e", "is_disabled": 0, "is_reserved": 0}, {"rental_uris": {"ios": "https://dc.lft.to/lastmile_qr_scan", "android": "https://dc.lft.to/lastmile_qr_scan"}, "lon": -77.0318585, "type": "electric_scooter", "fusion_lat": 0.0, "lat": 38.896027, "name": "c41e8bfb631706f347d6b4c06e4784cd", "fusion_lon": 0.0, "bike_id": "c41e8bfb631706f347d6b4c06e4784cd", "is_disabled": 0, "is_reserved": 0}, {"rental_uris": {"ios": "https://dc.lft.to/lastmile_qr_scan", "android": "https://dc.lft.to/lastmile_qr_scan"}, "lon": -77.04169433333334, "type": "electric_scooter", "fusion_lat": 0.0, "lat": 38.8993995, "name": "9bfd65a130ff1595f95c4ee3a4242ce3", "fusion_lon": 0.0, "bike_id": "9bfd65a130ff1595f95c4ee3a4242ce3", "is_disabled": 0, "is_reserved": 0}, {"rental_uris": {"ios": "https://dc.lft.to/lastmile_qr_scan", "android": "https://dc.lft.to/lastmile_qr_scan"}, "lon": -77.03957716666666, "type": "electric_scooter", "fusion_lat": 0.0, "lat": 38.923200333333334, "name": "77ffb3a3cc5ac0388581f84ed8e0b979", "fusion_lon": 0.0, "bike_id": "77ffb3a3cc5ac0388581f84ed8e0b979", "is_disabled": 0, "is_reserved": 0}, {"rental_uris": {"ios": "https://dc.lft.to/lastmile_qr_scan", "android": "https://dc.lft.to/lastmile_qr_scan"}, "lon": -77.023192, "type": "electric_scooter", "fusion_lat": 0.0, "lat": 38.88196083333333, "name": "825ca2011ab9fa785d3ae6160ae0551a", "fusion_lon": 0.0, "bike_id": "825ca2011ab9fa785d3ae6160ae0551a", "is_disabled": 0, "is_reserved": 0}, {"rental_uris": {"ios": "https://dc.lft.to/lastmile_qr_scan", "android": "https://dc.lft.to/lastmile_qr_scan"}, "lon": -77.0246465, "type": "electric_scooter", "fusion_lat": 0.0, "lat": 38.90850416666667, "name": "5bcf460b2af66e5758ea2f9789aaf5f0", "fusion_lon": 0.0, "bike_id": "5bcf460b2af66e5758ea2f9789aaf5f0", "is_disabled": 0, "is_reserved": 0}, {"rental_uris": {"ios": "https://dc.lft.to/lastmile_qr_scan", "android": "https://dc.lft.to/lastmile_qr_scan"}, "lon": -77.077249, "type": "electric_scooter", "fusion_lat": 0.0, "lat": 38.947084833333335, "name": "66aad257281a154a8dd6216a4e6a91c9", "fusion_lon": 0.0, "bike_id": "66aad257281a154a8dd6216a4e6a91c9", "is_disabled": 0, "is_reserved": 0}, {"rental_uris": {"ios": "https://dc.lft.to/lastmile_qr_scan", "android": "https://dc.lft.to/lastmile_qr_scan"}, "lon": -76.99371233333333, "type": "electric_scooter", "fusion_lat": 0.0, "lat": 38.879760166666664, "name": "5eae4c253a608d99767ec9936111ad5d", "fusion_lon": 0.0, "bike_id": "5eae4c253a608d99767ec9936111ad5d", "is_disabled": 0, "is_reserved": 0}, {"rental_uris": {"ios": "https://dc.lft.to/lastmile_qr_scan", "android": "https://dc.lft.to/lastmile_qr_scan"}, "lon": -77.05492166666667, "type": "electric_scooter", "fusion_lat": 0.0, "lat": 38.89935083333334, "name": "e861e3cb671fb321b2ccbcb946b45f4c", "fusion_lon": 0.0, "bike_id": "e861e3cb671fb321b2ccbcb946b45f4c", "is_disabled": 0, "is_reserved": 0}, {"rental_uris": {"ios": "https://dc.lft.to/lastmile_qr_scan", "android": "https://dc.lft.to/lastmile_qr_scan"}, "lon": -76.98093616666667, "type": "electric_bike", "fusion_lat": 0.0, "lat": 38.8813615, "name": "b06d62304ab73eb2c8e0bfb8691382e0", "fusion_lon": 0.0, "bike_id": "b06d62304ab73eb2c8e0bfb8691382e0", "is_disabled": 0, "is_reserved": 0}, {"rental_uris": {"ios": "https://dc.lft.to/lastmile_qr_scan", "android": "https://dc.lft.to/lastmile_qr_scan"}, "lon": -77.00195516666666, "type": "electric_scooter", "fusion_lat": 0.0, "lat": 38.900361333333336, "name": "a0cced7e69df75078e92479aa530c63b", "fusion_lon": 0.0, "bike_id": "a0cced7e69df75078e92479aa530c63b", "is_disabled": 0, "is_reserved": 0}, {"rental_uris": {"ios": "https://dc.lft.to/lastmile_qr_scan", "android": "https://dc.lft.to/lastmile_qr_scan"}, "lon": -77.0222705, "type": "electric_scooter", "fusion_lat": 0.0, "lat": 38.91274583333333, "name": "ebf6fcf0edc2ab2cf89fe510097402ba", "fusion_lon": 0.0, "bike_id": "ebf6fcf0edc2ab2cf89fe510097402ba", "is_disabled": 0, "is_reserved": 0}, {"rental_uris": {"ios": "https://dc.lft.to/lastmile_qr_scan", "android": "https://dc.lft.to/lastmile_qr_scan"}, "lon": -77.03898466666666, "type": "electric_scooter", "fusion_lat": 0.0, "lat": 38.9184355, "name": "2135074828d5288293f6511a7b4daad3", "fusion_lon": 0.0, "bike_id": "2135074828d5288293f6511a7b4daad3", "is_disabled": 0, "is_reserved": 0}, {"rental_uris": {"ios": "https://dc.lft.to/lastmile_qr_scan", "android": "https://dc.lft.to/lastmile_qr_scan"},