{"data": {"bikes": [{"is_reserved": 0, "is_disabled": 0, "fusion_lat": 0.0, "name": "e31a4402356cf2a7fe04c271dd99766a", "lat": 38.8922785, "lon": -77.02579416666667, "bike_id": "e31a4402356cf2a7fe04c271dd99766a", "rental_uris": {"ios": "https://dc.lft.to/lastmile_qr_scan", "android": "https://dc.lft.to/lastmile_qr_scan"}, "type": "electric_scooter", "fusion_lon": 0.0}, {"is_reserved": 0, "is_disabled": 0, "fusion_lat": 0.0, "name": "7282c30ad7de3765f642174f715cdb53", "lat": 38.90117883333333, "lon": -77.03326916666667, "bike_id": "7282c30ad7de3765f642174f715cdb53", "rental_uris": {"ios": "https://dc.lft.to/lastmile_qr_scan", "android": "https://dc.lft.to/lastmile_qr_scan"}, "type": "electric_scooter", "fusion_lon": 0.0}, {"is_reserved": 0, "is_disabled": 0, "fusion_lat": 0.0, "name": "6f6f197b52ef7823fb47af6c4453cef9", "lat": 38.9588235, "lon": -76.9705855, "bike_id": "6f6f197b52ef7823fb47af6c4453cef9", "rental_uris": {"ios": "https://dc.lft.to/lastmile_qr_scan", "android": "https://dc.lft.to/lastmile_qr_scan"}, "type": "electric_bike", "fusion_lon": 0.0}, {"is_reserved": 0, "is_disabled": 0, "fusion_lat": 0.0, "name": "ef9bf5f0ae900d36acc6aa0f2a16abe8", "lat": 38.9170455, "lon": -77.041777, "bike_id": "ef9bf5f0ae900d36acc6aa0f2a16abe8", "rental_uris": {"ios": "https://dc.lft.to/lastmile_qr_scan", "android": "https://dc.lft.to/lastmile_qr_scan"}, "type": "electric_scooter", "fusion_lon": 0.0}, {"is_reserved": 0, "is_disabled": 0, "fusion_lat": 0.0, "name": "c1ee5c8d9a88617c5387d3fbcf704a4d", "lat": 38.90390466666667, "lon": -77.03811866666666, "bike_id": "c1ee5c8d9a88617c5387d3fbcf704a4d", "rental_uris": {"ios": "https://dc.lft.to/lastmile_qr_scan", "android": "https://dc.lft.to/lastmile_qr_scan"}, "type": "electric_scooter", "fusion_lon": 0.0}, {"is_reserved": 0, "is_disabled": 0, "fusion_lat": 0.0, "name": "b0b64e08ecb23dfed30620cb01d8965d", "lat": 38.90239283333333, "lon": -77.02008466666666, "bike_id": "b0b64e08ecb23dfed30620cb01d8965d", "rental_uris": {"ios": "https://dc.lft.to/lastmile_qr_scan", "android": "https://dc.lft.to/lastmile_qr_scan"}, "type": "electric_scooter", "fusion_lon": 0.0}, {"is_reserved": 0, "is_disabled": 0, "fusion_lat": 0.0, "name": "19ca81f9ecc3305104d273389b38aeb5", "lat": 38.906455666666666, "lon": -77.0747605, "bike_id": "19ca81f9ecc3305104d273389b38aeb5", "rental_uris": {"ios": "https://dc.lft.to/lastmile_qr_scan", "android": "https://dc.lft.to/lastmile_qr_scan"}, "type": "electric_scooter", "fusion_lon": 0.0}, {"is_reserved": 0, "is_disabled": 0, "fusion_lat": 0.0, "name": "1aee599d7de04117f145e3b085d53778", "lat": 38.904255666666664, "lon": -77.0259515, "bike_id": "1aee599d7de04117f145e3b085d53778", "rental_uris": {"ios": "https://dc.lft.to/lastmile_qr_scan", "android": "https://dc.lft.to/lastmile_qr_scan"}, "type": "electric_scooter", "fusion_lon": 0.0}, {"is_reserved": 0, "is_disabled": 0, "fusion_lat": 0.0, "name": "a44d761f59da9d9b6ebd32ea20b5ac55", "lat": 38.874676666666666, "lon": -77.0157335, "bike_id": "a44d761f59da9d9b6ebd32ea20b5ac55", "rental_uris": {"ios": "https://dc.lft.to/lastmile_qr_scan", "android": "https://dc.lft.to/lastmile_qr_scan"}, "type": "electric_scooter", "fusion_lon": 0.0}, {"is_reserved": 0, "is_disabled": 0, "fusion_lat": 0.0, "name": "2ffaf55e2b3b147548e91921a1246c42", "lat": 38.92868266666667, "lon": -77.03241716666666, "bike_id": "2ffaf55e2b3b147548e91921a1246c42", "rental_uris": {"ios": "https://dc.lft.to/lastmile_qr_scan", "android": "https://dc.lft.to/lastmile_qr_scan"}, "type": "electric_scooter", "fusion_lon": 0.0}, {"is_reserved": 0, "is_disabled": 0, "fusion_lat": 0.0, "name": "2cdf00966dfe06f4bf62f15f073b54b9", "lat": 38.91257316666667, "lon": -77.03864416666667, "bike_id": "2cdf00966dfe06f4bf62f15f073b54b9", "rental_uris": {"ios": "https://dc.lft.to/lastmile_qr_scan", "android": "https://dc.lft.to/lastmile_qr_scan"}, "type": "electric_scooter", "fusion_lon": 0.0}, {"is_reserved": 0, "is_disabled": 0, "fusion_lat": 0.0, "name": "39d3e20ba024267f514da85fce0a9e7c", "lat": 38.893253, "lon": -76.939382, "bike_id": "39d3e20ba024267f514da85fce0a9e7c", "rental_uris": {"ios": "https://dc.lft.to/lastmile_qr_scan", "android": "https://dc.lft.to/lastmile_qr_scan"}, "type": "electric_scooter", "fusion_lon": 0.0}, {"is_reserved": 0, "is_disabled": 0, "fusion_lat": 0.0, "name": "f28ac4e34fe58e7982ddf3c222c2f584", "lat": 38.926961166666665, "lon": -77.02286833333334, "bike_id": "f28ac4e34fe58e7982ddf3c222c2f584", "rental_uris": {"ios": "https://dc.lft.to/lastmile_qr_scan", "android": "https://dc.lft.to/lastmile_qr_scan"}, "type": "electric_scooter", "fusion_lon": 0.0}, {"is_reserved": 0, "is_disabled": 0, "fusion_lat": 0.0, "name": "1c5cd44cf934913dc63ab19964bbf2c6", "lat": 38.875784333333335, "lon": -77.23411133333333, "bike_id": "1c5cd44cf934913dc63ab19964bbf2c6", "rental_uris": {"ios": "https://dc.lft.to/lastmile_qr_scan", "android": "https://dc.lft.to/lastmile_qr_scan"}, "type": "electric_bike", "fusion_lon": 0.0}, {"is_reserved": 0, "is_disabled": 0, "fusion_lat": 0.0, "name": "f5ad55b6063896df5524cb5b2470e84c", "lat": 38.917622, "lon": -77.00457783333333, "bike_id": "f5ad55b6063896df5524cb5b2470e84c", "rental_uris": {"ios": "https://dc.lft.to/lastmile_qr_scan", "android": "https://dc.lft.to/lastmile_qr_scan"}, "type": "electric_scooter", "fusion_lon": 0.0}, {"is_reserved": 0, "is_disabled": 0, "fusion_lat": 0.0, "name": "55d3d85ea14b71f778e6cf77c1c63898", "lat": 38.91682566666667, "lon": -77.02978133333333, "bike_id": "55d3d85ea14b71f778e6cf77c1c63898", "rental_uris": {"ios": "https://dc.lft.to/lastmile_qr_scan", "android": "https://dc.lft.to/lastmile_qr_scan"}, "type": "electric_scooter", "fusion_lon": 0.0}, {"is_reserved": 0, "is_disabled": 0, "fusion_lat": 0.0, "name": "6648b72b5e76714e9163a4f0fab9ecda", "lat": 38.924403, "lon": -77.04249183333333, "bike_id": "6648b72b5e76714e9163a4f0fab9ecda", "rental_uris": {"ios": "https://dc.lft.to/lastmile_qr_scan", "android": "https://dc.lft.to/lastmile_qr_scan"}, "type": "electric_scooter", "fusion_lon": 0.0}, {"is_reserved": 0, "is_disabled": 0, "fusion_lat": 0.0, "name": "970d0e4ae00a788ba005c746e27cf2c9", "lat": 38.885069333333334, "lon": -77.02582333333334, "bike_id": "970d0e4ae00a788ba005c746e27cf2c9", "rental_uris": {"ios": "https://dc.lft.to/lastmile_qr_scan", "android": "https://dc.lft.to/lastmile_qr_scan"}, "type": "electric_scooter", "fusion_lon": 0.0}, {"is_reserved": 0, "is_disabled": 0, "fusion_lat": 0.0, "name": "438165bcd53651c60aa6dad6d7303763", "lat": 38.90103933333333, "lon": -77.05046933333334, "bike_id": "438165bcd53651c60aa6dad6d7303763", "rental_uris": {"ios": "https://dc.lft.to/lastmile_qr_scan", "android": "https://dc.lft.to/lastmile_qr_scan"}, "type": "electric_scooter", "fusion_lon": 0.0}, {"is_reserved": 0, "is_disabled": 0, "fusion_lat": 0.0, "name": "28821cc4b6fd0ace974a117e72d67b17", "lat": 38.87545216666667, "lon": -77.00539516666667, "bike_id": "28821cc4b6fd0ace974a117e72d67b17", "rental_uris": {"ios": "https://dc.lft.to/lastmile_qr_scan", "android": "https://dc.lft.to/lastmile_qr_scan"}, "type": "electric_scooter", "fusion_lon": 0.0}, {"is_reserved": 0, "is_disabled": 0, "fusion_lat": 0.0, "name": "1bee0cba315053ab891782be2a3e24b2", "lat": 38.89223583333333, "lon": -77.01740466666666, "bike_id": "1bee0cba315053ab891782be2a3e24b2", "rental_uris": {"ios": "https://dc.lft.to/lastmile_qr_scan", "android": "https://dc.lft.to/lastmile_qr_scan"}, "type": "electric_scooter", "fusion_lon": 0.0}, {"is_reserved": 0, "is_disabled": 0, "fusion_lat": 0.0, "name": "de72b47c20364938c0c863ff17a31095", "lat": 38.90670466666667, "lon": -77.02402416666666, "bike_id": "de72b47c20364938c0c863ff17a31095", "rental_uris": {"ios": "https://dc.lft.to/lastmile_qr_scan", "android": "https://dc.lft.to/lastmile_qr_scan"}, "type": "electric_scooter", "fusion_lon": 0.0}, {"is_reserved": 0, "is_disabled": 0, "fusion_lat": 0.0, "name": "ac63aef686fe35f5cc09042cee75b67c", "lat": 38.94486716666667, "lon": -77.09505133333333, "bike_id": "ac63aef686fe35f5cc09042cee75b67c", "rental_uris": {"ios": "https://dc.lft.to/lastmile_qr_scan", "android": "https://dc.lft.to/lastmile_qr_scan"}, "type": "electric_scooter", "fusion_lon": 0.0}, {"is_reserved": 0, "is_disabled": 0, "fusion_lat": 0.0, "name": "ecedf9bdb13f8e0f9553a593f8f96fe9", "lat": 38.89964483333333, "lon": -77.01620283333334, "bike_id": "ecedf9bdb13f8e0f9553a593f8f96fe9", "rental_uris": {"ios": "https://dc.lft.to/lastmile_qr_scan", "android": "https://dc.lft.to/lastmile_qr_scan"}, "type": "electric_scooter", "fusion_lon": 0.0}, {"is_reserved": 0, "is_disabled": 0, "fusion_lat": 0.0, "name": "8c0b1e9b7c1d363d024ad1ba3965dc07", "lat": 38.91700266666667, "lon": -77.02410633333334, "bike_id": "8c0b1e9b7c1d363d024ad1ba3965dc07", "rental_uris": {"ios": "https://dc.lft.to/lastmile_qr_scan", "android": "https://dc.lft.to/lastmile_qr_scan"}, "type": "electric_scooter", "fusion_lon": 0.0}, {"is_reserved": 0, "is_disabled": 0, "fusion_lat": 0.0, "name": "0297b03c1c5c231a9bf5be178a3adf46", "lat": 38.924112, "lon": -77.02138433333333, "bike_id": "0297b03c1c5c231a9bf5be178a3adf46", "rental_uris": {"ios": "https://dc.lft.to/lastmile_qr_scan", "android": "https://dc.lft.to/lastmile_qr_scan"}, "type": "electric_scooter", "fusion_lon": 0.0}, {"is_reserved": 0, "is_disabled": 0, "fusion_lat": 0.0, "name": "7925ae6de5299d02a2e093d087c116d6", "lat": 38.80979816666667, "lon": -77.07660533333333, "bike_id": "7925ae6de5299d02a2e093d087c116d6", "rental_uris": {"ios": "https://dc.lft.to/lastmile_qr_scan", "android": "https://dc.lft.to/lastmile_qr_scan"}, "type": "electric_bike", "fusion_lon": 0.0}, {"is_reserved": 0, "is_disabled": 0, "fusion_lat": 0.0, "name": "1481e030d0031446310bd6b8838b51bd", "lat": 38.89401266666667, "lon": -76.97825966666667, "bike_id": "1481e030d0031446310bd6b8838b51bd", "rental_uris": {"ios": "https://dc.lft.to/lastmile_qr_scan", "android": "https://dc.lft.to/lastmile_qr_scan"}, "type": "electric_scooter", "fusion_lon": 0.0}, {"is_reserved": 0, "is_disabled": 0, "fusion_lat": 0.0, "name": "f2a0e5ec680460221b4a9b60b4b96959", "lat": 38.897309, "lon": -77.0191275, "bike_id": "f2a0e5ec680460221b4a9b60b4b96959", "rental_uris": {"ios": "https://dc.lft.to/lastmile_qr_scan", "android": "https://dc.lft.to/lastmile_qr_scan"}, "type": "electric_scooter", "fusion_lon": 0.0}, {"is_reserved": 0, "is_disabled": 0, "fusion_lat": 0.0, "name": "b37fc3366b678b71cdb08ce641997b25", "lat": 38.87704266666667, "lon": -77.01675083333333, "bike_id": "b37fc3366b678b71cdb08ce641997b25", "rental_uris": {"ios": "https://dc.lft.to/lastmile_qr_scan", "android": "https://dc.lft.to/lastmile_qr_scan"}, "type": "electric_scooter", "fusion_lon": 0.0}, {"is_reserved": 0, "is_disabled": 0, "fusion_lat": 0.0, "name": "ff07226106dd3b4d2d52426ca9def991", "lat": 38.92463433333333, "lon": -77.02247766666666, "bike_id": "ff07226106dd3b4d2d52426ca9def991", "rental_uris": {"ios": "https://dc.lft.to/lastmile_qr_scan", "android": "https://dc.lft.to/lastmile_qr_scan"}, "type": "electric_scooter", "fusion_lon": 0.0}, {"is_reserved": 0, "is_disabled": 0, "fusion_lat": 0.0, "name": "80a4f085e3c8058e517a87d5ebb62bbe", "lat": 38.9364085, "lon": -76.95461566666667, "bike_id": "80a4f085e3c8058e517a87d5ebb62bbe", "rental_uris": {"ios": "https://dc.lft.to/lastmile_qr_scan", "android": "https://dc.lft.to/lastmile_qr_scan"}, "type": "electric_bike", "fusion_lon": 0.0}, {"is_reserved": 0, "is_disabled": 0, "fusion_lat": 0.0, "name": "ade536703aa2b6e0ab55e07afbb6652f", "lat": 38.8981935, "lon": -77.01266983333333, "bike_id": "ade536703aa2b6e0ab55e07afbb6652f", "rental_uris": {"ios": "https://dc.lft.to/lastmile_qr_scan", "android": "https://dc.lft.to/lastmile_qr_scan"}, "type": "electric_scooter", "fusion_lon": 0.0}, {"is_reserved": 0, "is_disabled": 0, "fusion_lat": 0.0, "name": "31882806e46ce0ee5e2539722d13e713", "lat": 38.89633333333333, "lon": -77.02844516666667, "bike_id": "31882806e46ce0ee5e2539722d13e713", "rental_uris": {"ios": "https://dc.lft.to/lastmile_qr_scan", "android": "https://dc.lft.to/lastmile_qr_scan"}, "type": "electric_scooter", "fusion_lon": 0.0}, {"is_reserved": 0, "is_disabled": 0, "fusion_lat": 0.0, "name": "57be5194cc25437f7c6f0834f30be11f", "lat": 38.926517, "lon": -77.0385375, "bike_id": "57be5194cc25437f7c6f0834f30be11f", "rental_uris": {"ios": "https://dc.lft.to/lastmile_qr_scan", "android": "https://dc.lft.to/lastmile_qr_scan"}, "type": "electric_scooter", "fusion_lon": 0.0}, {"is_reserved": 0, "is_disabled": 0, "fusion_lat": 0.0, "name": "049b16fb0e6902d3e2d75d879eab5da9", "lat": 38.92285916666667, "lon": -77.0319835, "bike_id": "049b16fb0e6902d3e2d75d879eab5da9", "rental_uris": {"ios": "https://dc.lft.to/lastmile_qr_scan", "android": "https://dc.lft.to/lastmile_qr_scan"}, "type": "electric_scooter", "fusion_lon": 0.0}, {"is_reserved": 0, "is_disabled": 0, "fusion_lat": 0.0, "name": "297919037a7f0f125f0449d1808454e4", "lat": 38.89474, "lon": -76.94961966666666, "bike_id": "297919037a7f0f125f0449d1808454e4", "rental_uris": {"ios": "https://dc.lft.to/lastmile_qr_scan", "android": "https://dc.lft.to/lastmile_qr_scan"}, "type": "electric_scooter", "fusion_lon": 0.0}, {"is_reserved": 0, "is_disabled": 0, "fusion_lat": 0.0, "name": "76a62164bb025966bae31c56a3e3423b", "lat": 38.9035875, "lon": -77.06012816666667, "bike_id": "76a62164bb025966bae31c56a3e3423b", "rental_uris": {"ios": "https://dc.lft.to/lastmile_qr_scan", "android": "https://dc.lft.to/lastmile_qr_scan"}, "type": "electric_scooter", "fusion_lon": 0.0}, {"is_reserved": 0, "is_disabled": 0, "fusion_lat": 0.0, "name": "c4ba0759d68c291f0ab7cbb931f5ad4e", "lat": 38.902617666666664, "lon": -77.03140633333334, "bike_id": "c4ba0759d68c291f0ab7cbb931f5ad4e", "rental_uris": {"ios": "https://dc.lft.to/lastmile_qr_scan", "android": "https://dc.lft.to/lastmile_qr_scan"}, "type": "electric_scooter", "fusion_lon": 0.0}, {"is_reserved": 0, "is_disabled": 0, "fusion_lat": 0.0, "name": "b5fbfcc7b6cbedd797a59329111074cb", "lat": 38.92119816666667, "lon": -77.01213216666666, "bike_id": "b5fbfcc7b6cbedd797a59329111074cb", "rental_uris": {"ios": "https://dc.lft.to/lastmile_qr_scan", "android": "https://dc.lft.to/lastmile_qr_scan"}, "type": "electric_scooter", "fusion_lon": 0.0}, {"is_reserved": 0, "is_disabled": 0, "fusion_lat": 0.0, "name": "4c094b5c16741b22c81eb13e2594a537", "lat": 38.926996333333335, "lon": -77.024181, "bike_id": "4c094b5c16741b22c81eb13e2594a537", "rental_uris": {"ios": "https://dc.lft.to/lastmile_qr_scan", "android": "https://dc.lft.to/lastmile_qr_scan"}, "type": "electric_scooter", "fusion_lon": 0.0}, {"is_reserved": 0, "is_disabled": 0, "fusion_lat": 0.0, "name": "521ed93f2c1ba94878d77b8d10bad3ba", "lat": 38.924233, "lon": -77.020447, "bike_id": "521ed93f2c1ba94878d77b8d10bad3ba", "rental_uris": {"ios": "https://dc.lft.to/lastmile_qr_scan", "android": "https://dc.lft.to/lastmile_qr_scan"}, "type": "electric_scooter", "fusion_lon": 0.0}, {"is_reserved": 0, "is_disabled": 0, "fusion_lat": 0.0, "name": "4711bac094bad018d0e0502bbac24e00", "lat": 38.91484533333333, "lon": -77.02184166666666, "bike_id": "4711bac094bad018d0e0502bbac24e00", "rental_uris": {"ios": "https://dc.lft.to/lastmile_qr_scan", "android": "https://dc.lft.to/lastmile_qr_scan"}, "type": "electric_scooter", "fusion_lon": 0.0}, {"is_reserved": 0, "is_disabled": 0, "fusion_lat": 0.0, "name": "4295b626152d9ef0c51b02a081c53d80", "lat": 38.924154333333334, "lon": -77.02004166666667, "bike_id": "4295b626152d9ef0c51b02a081c53d80", "rental_uris": {"ios": "https://dc.lft.to/lastmile_qr_scan", "android": "https://dc.lft.to/lastmile_qr_scan"}, "type": "electric_scooter", "fusion_lon": 0.0}, {"is_reserved": 0, "is_disabled": 0, "fusion_lat": 0.0, "name": "c857754131f2e6655b009b19b11ede92", "lat": 38.8929365, "lon": -77.0124095, "bike_id": "c857754131f2e6655b009b19b11ede92", "rental_uris": {"ios": "https://dc.lft.to/lastmile_qr_scan", "android": "https://dc.lft.to/lastmile_qr_scan"}, "type": "electric_scooter", "fusion_lon": 0.0}, {"is_reserved": 0, "is_disabled": 0, "fusion_lat": 0.0, "name": "9b389128f4ee26cadf5de9152f77cb66", "lat": 38.913737166666664, "lon": -77.04477133333333, "bike_id": "9b389128f4ee26cadf5de9152f77cb66", "rental_uris": {"ios": "https://dc.lft.to/lastmile_qr_scan", "android": "https://dc.lft.to/lastmile_qr_scan"}, "type": "electric_scooter", "fusion_lon": 0.0}, {"is_reserved": 0, "is_disabled": 0, "fusion_lat": 0.0, "name": "2b48ae6c25439605d8bb98057938947c", "lat": 38.88714483333333, "lon": -76.98378716666667, "bike_id": "2b48ae6c25439605d8bb98057938947c", "rental_uris": {"ios": "https://dc.lft.to/lastmile_qr_scan", "android": "https://dc.lft.to/lastmile_qr_scan"}, "type": "electric_scooter", "fusion_lon": 0.0}, {"is_reserved": 0, "is_disabled": 0, "fusion_lat": 0.0, "name": "8aad3367e519b14c5417dd3601105808", "lat": 38.935717333333336, "lon": -77.03264933333334, "bike_id": "8aad3367e519b14c5417dd3601105808", "rental_uris": {"ios": "https://dc.lft.to/lastmile_qr_scan", "android": "https://dc.lft.to/lastmile_qr_scan"}, "type": "electric_scooter", "fusion_lon": 0.0}, {"is_reserved": 0, "is_disabled": 0, "fusion_lat": 0.0, "name": "02f675937b26b4ec0b88baaa672d1f40", "lat": 38.924736333333335, "lon": -77.02216183333333, "bike_id": "02f675937b26b4ec0b88baaa672d1f40", "rental_uris": {"ios": "https://dc.lft.to/lastmile_qr_scan", "android": "https://dc.lft.to/lastmile_qr_scan"}, "type": "electric_scooter", "fusion_lon": 0.0}, {"is_reserved": 0, "is_disabled": 0, "fusion_lat": 0.0, "name": "43b04d1ac9e8c882ef62f0062918e193", "lat": 38.9198275, "lon": -77.02179116666667, "bike_id": "43b04d1ac9e8c882ef62f0062918e193", "rental_uris": {"ios": "https://dc.lft.to/lastmile_qr_scan", "android": "https://dc.lft.to/lastmile_qr_scan"}, "type": "electric_scooter", "fusion_lon": 0.0}, {"is_reserved": 0, "is_disabled": 0, "fusion_lat": 0.0, "name": "8b60d2e58ace86b9b2f1a361de9169c7", "lat": 38.90139633333333, "lon": -77.0399465, "bike_id": "8b60d2e58ace86b9b2f1a361de9169c7", "rental_uris": {"ios": "https://dc.lft.to/lastmile_qr_scan", "android": "https://dc.lft.to/lastmile_qr_scan"}, "type": "electric_scooter", "fusion_lon": 0.0}, {"is_reserved": 0, "is_disabled": 0, "fusion_lat": 0.0, "name": "f313ebeb61e97248cdc83cc454d75e01", "lat": 38.906874, "lon": -77.0271145, "bike_id": "f313ebeb61e97248cdc83cc454d75e01", "rental_uris": {"ios": "https://dc.lft.to/lastmile_qr_scan", "android": "https://dc.lft.to/lastmile_qr_scan"}, "type": "electric_scooter", "fusion_lon": 0.0}, {"is_reserved": 0, "is_disabled": 0, "fusion_lat": 0.0, "name": "83f278d636b1b9dc5a82e18f37083b08", "lat": 38.92169616666666, "lon": -77.04025983333334, "bike_id": "83f278d636b1b9dc5a82e18f37083b08", "rental_uris": {"ios": "https://dc.lft.to/lastmile_qr_scan", "android": "https://dc.lft.to/lastmile_qr_scan"}, "type": "electric_scooter", "fusion_lon": 0.0}, {"is_reserved": 0, "is_disabled": 0, "fusion_lat": 0.0, "name": "3755d42ca142b7c8779360f534b57df2", "lat": 38.97462683333333, "lon": -77.0140615, "bike_id": "3755d42ca142b7c8779360f534b57df2", "rental_uris": {"ios": "https://dc.lft.to/lastmile_qr_scan", "android": "https://dc.lft.to/lastmile_qr_scan"}, "type": "electric_scooter", "fusion_lon": 0.0}, {"is_reserved": 0, "is_disabled": 0, "fusion_lat": 0.0, "name": "aed036ba3da84607904780f17fb0e778", "lat": 38.8925085, "lon": -77.01833, "bike_id": "aed036ba3da84607904780f17fb0e778", "rental_uris": {"ios": "https://dc.lft.to/lastmile_qr_scan", "android": "https://dc.lft.to/lastmile_qr_scan"}, "type": "electric_scooter", "fusion_lon": 0.0}, {"is_reserved": 0, "is_disabled": 0, "fusion_lat": 0.0, "name": "80ac252117bfdabcbf32e4bc000711e8", "lat": 38.950865, "lon": -77.01235283333334, "bike_id": "80ac252117bfdabcbf32e4bc000711e8", "rental_uris": {"ios": "https://dc.lft.to/lastmile_qr_scan", "android": "https://dc.lft.to/lastmile_qr_scan"}, "type": "electric_bike", "fusion_lon": 0.0}, {"is_reserved": 0, "is_disabled": 0, "fusion_lat": 0.0, "name": "1e7ac888cc03893aaa7dc823f2fb3820", "lat": 38.90260083333333, "lon": -77.024204, "bike_id": "1e7ac888cc03893aaa7dc823f2fb3820", "rental_uris": {"ios": "https://dc.lft.to/lastmile_qr_scan", "android": "https://dc.lft.to/lastmile_qr_scan"}, "type": "electric_scooter", "fusion_lon": 0.0}, {"is_reserved": 0, "is_disabled": 0, "fusion_lat": 0.0, "name": "1187190603211f989b050778d0dca936", "lat": 38.911353166666665, "lon": -77.0321045, "bike_id": "1187190603211f989b050778d0dca936", "rental_uris": {"ios": "https://dc.lft.to/lastmile_qr_scan", "android": "https://dc.lft.to/lastmile_qr_scan"}, "type": "electric_scooter", "fusion_lon": 0.0}, {"is_reserved": 0, "is_disabled": 0, "fusion_lat": 0.0, "name": "51d78e1752796faa637b357452414c65", "lat": 38.90724, "lon": -77.03022783333333, "bike_id": "51d78e1752796faa637b357452414c65", "rental_uris": {"ios": "https://dc.lft.to/lastmile_qr_scan", "android": "https://dc.lft.to/lastmile_qr_scan"}, "type": "electric_scooter", "fusion_lon": 0.0}, {"is_reserved": 0, "is_disabled": 0, "fusion_lat": 0.0, "name": "930185ff8bf59e7217bb728f173429d0", "lat": 38.96562, "lon": -77.02824416666667, "bike_id": "930185ff8bf59e7217bb728f173429d0", "rental_uris": {"ios": "https://dc.lft.to/lastmile_qr_scan", "android": "https://dc.lft.to/lastmile_qr_scan"}, "type": "electric_bike", "fusion_lon": 0.0}, {"is_reserved": 0, "is_disabled": 0, "fusion_lat": 0.0, "name": "00e03d15243f7ccbb77756dc5a13128b", "lat": 38.88772633333333, "lon": -76.93261116666666, "bike_id": "00e03d15243f7ccbb77756dc5a13128b", "rental_uris": {"ios": "https://dc.lft.to/lastmile_qr_scan", "android": "https://dc.lft.to/lastmile_qr_scan"}, "type": "electric_scooter", "fusion_lon": 0.0}, {"is_reserved": 0, "is_disabled": 0, "fusion_lat": 0.0, "name": "4539dd10ce47da8ec3bf870298c57386", "lat": 38.93687516666667, "lon": -77.02407833333334, "bike_id": "4539dd10ce47da8ec3bf870298c57386", "rental_uris": {"ios": "https://dc.lft.to/lastmile_qr_scan", "android": "https://dc.lft.to/lastmile_qr_scan"}, "type": "electric_scooter", "fusion_lon": 0.0}, {"is_reserved": 0, "is_disabled": 0, "fusion_lat": 0.0, "name": "8763f0a22b00c415e23754cd7ab30fbc", "lat": 38.98884283333334, "lon": -76.9880585, "bike_id": "8763f0a22b00c415e23754cd7ab30fbc", "rental_uris": {"ios": "https://dc.lft.to/lastmile_qr_scan", "android": "https://dc.lft.to/lastmile_qr_scan"}, "type": "electric_bike", "fusion_lon": 0.0}, {"is_reserved": 0, "is_disabled": 0, "fusion_lat": 0.0, "name": "95c9e7f55cd0c2773dd7e291f1f31684", "lat": 38.89297966666667, "lon": -77.0151255, "bike_id": "95c9e7f55cd0c2773dd7e291f1f31684", "rental_uris": {"ios": "https://dc.lft.to/lastmile_qr_scan", "android": "https://dc.lft.to/lastmile_qr_scan"}, "type": "electric_scooter", "fusion_lon": 0.0}, {"is_reserved": 0, "is_disabled": 0, "fusion_lat": 0.0, "name": "5af78cd5111a20d5123bdf51ba334a22", "lat": 38.8955705, "lon": -77.009139, "bike_id": "5af78cd5111a20d5123bdf51ba334a22", "rental_uris": {"ios": "https://dc.lft.to/lastmile_qr_scan", "android": "https://dc.lft.to/lastmile_qr_scan"}, "type": "electric_scooter", "fusion_lon": 0.0}, {"is_reserved": 0, "is_disabled": 0, "fusion_lat": 0.0, "name": "b064a10cb59954308802d2880dd374d8", "lat": 38.9345035, "lon": -77.021051, "bike_id": "b064a10cb59954308802d2880dd374d8", "rental_uris": {"ios": "https://dc.lft.to/lastmile_qr_scan", "android": "https://dc.lft.to/lastmile_qr_scan"}, "type": "electric_scooter", "fusion_lon": 0.0}, {"is_reserved": 0, "is_disabled": 0, "fusion_lat": 0.0, "name": "013c1baaccb25a2254776581e05c6b07", "lat": 38.91595733333333, "lon": -77.02221833333333, "bike_id": "013c1baaccb25a2254776581e05c6b07", "rental_uris": {"ios": "https://dc.lft.to/lastmile_qr_scan", "android": "https://dc.lft.to/lastmile_qr_scan"}, "type": "electric_scooter", "fusion_lon": 0.0}, {"is_reserved": 0, "is_disabled": 0, "fusion_lat": 0.0, "name": "b3429594293c8f179b471ad878080943", "lat": 38.9237025, "lon": -77.043144, "bike_id": "b3429594293c8f179b471ad878080943", "rental_uris": {"ios": "https://dc.lft.to/lastmile_qr_scan", "android": "https://dc.lft.to/lastmile_qr_scan"}, "type": "electric_scooter", "fusion_lon": 0.0}, {"is_reserved": 0, "is_disabled": 0, "fusion_lat": 0.0, "name": "36bb7f40d10986f88bef0b65ce276a75", "lat": 38.92422216666667, "lon": -77.01947416666667, "bike_id": "36bb7f40d10986f88bef0b65ce276a75", "rental_uris": {"ios": "https://dc.lft.to/lastmile_qr_scan", "android": "https://dc.lft.to/lastmile_qr_scan"}, "type": "electric_scooter", "fusion_lon": 0.0}, {"is_reserved": 0, "is_disabled": 0, "fusion_lat": 0.0, "name": "7ebebbb6444eed95798d2f3259931d40", "lat": 38.87657816666667, "lon": -77.00437833333334, "bike_id": "7ebebbb6444eed95798d2f3259931d40", "rental_uris": {"ios": "https://dc.lft.to/lastmile_qr_scan", "android": "https://dc.lft.to/lastmile_qr_scan"}, "type": "electric_scooter", "fusion_lon": 0.0}, {"is_reserved": 0, "is_disabled": 0, "fusion_lat": 0.0, "name": "84da27364b7801aee31b0e435c66c1f1", "lat": 38.905070333333335, "lon": -77.01685866666666, "bike_id": "84da27364b7801aee31b0e435c66c1f1", "rental_uris": {"ios": "https://dc.lft.to/lastmile_qr_scan", "android": "https://dc.lft.to/lastmile_qr_scan"}, "type": "electric_scooter", "fusion_lon": 0.0}, {"is_reserved": 0, "is_disabled": 0, "fusion_lat": 0.0, "name": "42247be13f33d2b254194599e67a8343", "lat": 38.905214666666666, "lon": -77.06508966666667, "bike_id": "42247be13f33d2b254194599e67a8343", "rental_uris": {"ios": "https://dc.lft.to/lastmile_qr_scan", "android": "https://dc.lft.to/lastmile_qr_scan"}, "type": "electric_scooter", "fusion_lon": 0.0}, {"is_reserved": 0, "is_disabled": 0, "fusion_lat": 0.0, "name": "1b7fe0653eab7ee15dfb3b4d98fa9b4d", "lat": 38.915397666666664, "lon": -77.0446005, "bike_id": "1b7fe0653eab7ee15dfb3b4d98fa9b4d", "rental_uris": {"ios": "https://dc.lft.to/lastmile_qr_scan", "android": "https://dc.lft.to/lastmile_qr_scan"}, "type": "electric_scooter", "fusion_lon": 0.0}, {"is_reserved": 0, "is_disabled": 0, "fusion_lat": 0.0, "name": "925307a12bfe3839799dd42562631343", "lat": 38.89673166666667, "lon": -77.01230516666666, "bike_id": "925307a12bfe3839799dd42562631343", "rental_uris": {"ios": "https://dc.lft.to/lastmile_qr_scan", "android": "https://dc.lft.to/lastmile_qr_scan"}, "type": "electric_scooter", "fusion_lon": 0.0}, {"is_reserved": 0, "is_disabled": 0, "fusion_lat": 0.0, "name": "8dd22c54fd16aa771b8bf3813fb6049b", "lat": 38.9140755, "lon": -77.03267966666667, "bike_id": "8dd22c54fd16aa771b8bf3813fb6049b", "rental_uris": {"ios": "https://dc.lft.to/lastmile_qr_scan", "android": "https://dc.lft.to/lastmile_qr_scan"}, "type": "electric_scooter", "fusion_lon": 0.0}, {"is_reserved": 0, "is_disabled": 0, "fusion_lat": 0.0, "name": "16765d24008e54f786bb9a1be4c67a39", "lat": 38.907704, "lon": -77.00400666666667, "bike_id": "16765d24008e54f786bb9a1be4c67a39", "rental_uris": {"ios": "https://dc.lft.to/lastmile_qr_scan", "android": "https://dc.lft.to/lastmile_qr_scan"}, "type": "electric_scooter", "fusion_lon": 0.0}, {"is_reserved": 0, "is_disabled": 0, "fusion_lat": 0.0, "name": "e225a91b8aa05e2bdb5a50f4da7c32b2", "lat": 38.91830133333333, "lon": -77.02711833333333, "bike_id": "e225a91b8aa05e2bdb5a50f4da7c32b2", "rental_uris": {"ios": "https://dc.lft.to/lastmile_qr_scan", "android": "https://dc.lft.to/lastmile_qr_scan"}, "type": "electric_scooter", "fusion_lon": 0.0}, {"is_reserved": 0, "is_disabled": 0, "fusion_lat": 0.0, "name": "3f0a9312f16692d9a28cb79b3d3dad0e", "lat": 38.91847083333333, "lon": -77.0452245, "bike_id": "3f0a9312f16692d9a28cb79b3d3dad0e", "rental_uris": {"ios": "https://dc.lft.to/lastmile_qr_scan", "android": "https://dc.lft.to/lastmile_qr_scan"}, "type": "electric_scooter", "fusion_lon": 0.0}, {"is_reserved": 0, "is_disabled": 0, "fusion_lat": 0.0, "name": "d6c6fcc0ca9ee44c122f3c7f0e5784b3", "lat": 38.91703616666667, "lon": -77.03175, "bike_id": "d6c6fcc0ca9ee44c122f3c7f0e5784b3", "rental_uris": {"ios": "https://dc.lft.to/lastmile_qr_scan", "android": "https://dc.lft.to/lastmile_qr_scan"}, "type": "electric_scooter", "fusion_lon": 0.0}, {"is_reserved": 0, "is_disabled": 0, "fusion_lat": 0.0, "name": "db5473896379d1fd8dd38f9b494e9044", "lat": 38.9025405, "lon": -77.0320535, "bike_id": "db5473896379d1fd8dd38f9b494e9044", "rental_uris": {"ios": "https://dc.lft.to/lastmile_qr_scan", "android": "https://dc.lft.to/lastmile_qr_scan"}, "type": "electric_scooter", "fusion_lon": 0.0}, {"is_reserved": 0, "is_disabled": 0, "fusion_lat": 0.0, "name": "26a109502c5a68d0f39f6f1d2fa9de8c", "lat": 38.903605666666664, "lon": -77.02719733333333, "bike_id": "26a109502c5a68d0f39f6f1d2fa9de8c", "rental_uris": {"ios": "https://dc.lft.to/lastmile_qr_scan", "android": "https://dc.lft.to/lastmile_qr_scan"}, "type": "electric_scooter", "fusion_lon": 0.0}, {"is_reserved": 0, "is_disabled": 0, "fusion_lat": 0.0, "name": "638754058abfeaed16ba702a98de01fb", "lat": 38.899785, "lon": -77.04195333333334, "bike_id": "638754058abfeaed16ba702a98de01fb", "rental_uris": {"ios": "https://dc.lft.to/lastmile_qr_scan", "android": "https://dc.lft.to/lastmile_qr_scan"}, "type": "electric_scooter", "fusion_lon": 0.0}, {"is_reserved": 0, "is_disabled": 0, "fusion_lat": 0.0, "name": "3ee8f052522cf270823bbc835295b5f1", "lat": 38.859188, "lon": -77.10047983333334, "bike_id": "3ee8f052522cf270823bbc835295b5f1", "rental_uris": {"ios": "https://dc.lft.to/lastmile_qr_scan", "android": "https://dc.lft.to/lastmile_qr_scan"}, "type": "electric_bike", "fusion_lon": 0.0}, {"is_reserved": 0, "is_disabled": 0, "fusion_lat": 0.0, "name": "5d2a2a90197f4c3b7d0e81b5834f54ce", "lat": 38.920427, "lon": -77.0168095, "bike_id": "5d2a2a90197f4c3b7d0e81b5834f54ce", "rental_uris": {"ios": "https://dc.lft.to/lastmile_qr_scan", "android": "https://dc.lft.to/lastmile_qr_scan"}, "type": "electric_scooter", "fusion_lon": 0.0}, {"is_reserved": 0, "is_disabled": 0, "fusion_lat": 0.0, "name": "813ce1ae5c760036ca393d0a31f36135", "lat": 38.922911166666665, "lon": -76.99771433333333, "bike_id": "813ce1ae5c760036ca393d0a31f36135", "rental_uris": {"ios": "https://dc.lft.to/lastmile_qr_scan", "android": "https://dc.lft.to/lastmile_qr_scan"}, "type": "electric_bike", "fusion_lon": 0.0}, {"is_reserved": 0, "is_disabled": 0, "fusion_lat": 0.0, "name": "7e909e36008d60f26d1aec5bada49c84", "lat": 38.9096165, "lon": -77.02416816666667, "bike_id": "7e909e36008d60f26d1aec5bada49c84", "rental_uris": {"ios": "https://dc.lft.to/lastmile_qr_scan", "android": "https://dc.lft.to/lastmile_qr_scan"}, "type": "electric_scooter", "fusion_lon": 0.0}, {"is_reserved": 0, "is_disabled": 0, "fusion_lat": 0.0, "name": "e5f71a2a142fc0c9d242d553e92d622a", "lat": 38.90111316666667, "lon": -77.02317283333333, "bike_id": "e5f71a2a142fc0c9d242d553e92d622a", "rental_uris": {"ios": "https://dc.lft.to/lastmile_qr_scan", "android": "https://dc.lft.to/lastmile_qr_scan"}, "type": "electric_scooter", "fusion_lon": 0.0}, {"is_reserved": 0, "is_disabled": 0, "fusion_lat": 0.0, "name": "7e9a458d296f170e1f186519d48d6ca3", "lat": 38.89545716666667, "lon": -76.98339083333333, "bike_id": "7e9a458d296f170e1f186519d48d6ca3", "rental_uris": {"ios": "https://dc.lft.to/lastmile_qr_scan", "android": "https://dc.lft.to/lastmile_qr_scan"}, "type": "electric_scooter", "fusion_lon": 0.0}, {"is_reserved": 0, "is_disabled": 0, "fusion_lat": 0.0, "name": "3e5d53be87c012633856fc67468c8073", "lat": 38.9336215, "lon": -77.03267766666667, "bike_id": "3e5d53be87c012633856fc67468c8073", "rental_uris": {"ios": "https://dc.lft.to/lastmile_qr_scan", "android": "https://dc.lft.to/lastmile_qr_scan"}, "type": "electric_scooter", "fusion_lon": 0.0}, {"is_reserved": 0, "is_disabled": 0, "fusion_lat": 0.0, "name": "a27f4c9ad7692432b31bf42b62d17e71", "lat": 38.93617416666667, "lon": -76.9500245, "bike_id": "a27f4c9ad7692432b31bf42b62d17e71", "rental_uris": {"ios": "https://dc.lft.to/lastmile_qr_scan", "android": "https://dc.lft.to/lastmile_qr_scan"}, "type": "electric_bike", "fusion_lon": 0.0}, {"is_reserved": 0, "is_disabled": 0, "fusion_lat": 0.0, "name": "e0c7ede07fb2372ba254531e7fcb1746", "lat": 38.8900555, "lon": -76.93746766666666, "bike_id": "e0c7ede07fb2372ba254531e7fcb1746", "rental_uris": {"ios": "https://dc.lft.to/lastmile_qr_scan", "android": "https://dc.lft.to/lastmile_qr_scan"}, "type": "electric_scooter", "fusion_lon": 0.0}, {"is_reserved": 0, "is_disabled": 0, "fusion_lat": 0.0, "name": "9c135097b28e9a7ff429c24621f52b26", "lat": 38.883599, "lon": -76.92795133333334, "bike_id": "9c135097b28e9a7ff429c24621f52b26", "rental_uris": {"ios": "https://dc.lft.to/lastmile_qr_scan", "android": "https://dc.lft.to/lastmile_qr_scan"}, "type": "electric_scooter", "fusion_lon": 0.0}, {"is_reserved": 0, "is_disabled": 0, "fusion_lat": 0.0, "name": "57cea2ddc9c76757b70c52df87625c9a", "lat": 38.920643166666665, "lon": -77.02405183333333, "bike_id": "57cea2ddc9c76757b70c52df87625c9a", "rental_uris": {"ios": "https://dc.lft.to/lastmile_qr_scan", "android": "https://dc.lft.to/lastmile_qr_scan"}, "type": "electric_scooter", "fusion_lon": 0.0}, {"is_reserved": 0, "is_disabled": 0, "fusion_lat": 0.0, "name": "2e2736b0a3645507cfb4805025e595f9", "lat": 38.931866666666664, "lon": -77.01963033333334, "bike_id": "2e2736b0a3645507cfb4805025e595f9", "rental_uris": {"ios": "https://dc.lft.to/lastmile_qr_scan", "android": "https://dc.lft.to/lastmile_qr_scan"}, "type": "electric_scooter", "fusion_lon": 0.0}, {"is_reserved": 0, "is_disabled": 0, "fusion_lat": 0.0, "name": "e88c1856c77eb3cbe78ed4dfdedcb771", "lat": 38.920604166666664, "lon": -77.041927, "bike_id": "e88c1856c77eb3cbe78ed4dfdedcb771", "rental_uris": {"ios": "https://dc.lft.to/lastmile_qr_scan", "android": "https://dc.lft.to/lastmile_qr_scan"}, "type": "electric_scooter", "fusion_lon": 0.0}, {"is_reserved": 0, "is_disabled": 0, "fusion_lat": 0.0, "name": "8e6d4be70db0cb4081e1f889e9f5bac2", "lat": 38.994979666666666, "lon": -77.0013555, "bike_id": "8e6d4be70db0cb4081e1f889e9f5bac2", "rental_uris": {"ios": "https://dc.lft.to/lastmile_qr_scan", "android": "https://dc.lft.to/lastmile_qr_scan"}, "type": "electric_bike", "fusion_lon": 0.0}, {"is_reserved": 0, "is_disabled": 0, "fusion_lat": 0.0, "name": "421a123218c6daa19f23fac3921cfc9e", "lat": 38.9224115, "lon": -77.03667816666666, "bike_id": "421a123218c6daa19f23fac3921cfc9e", "rental_uris": {"ios": "https://dc.lft.to/lastmile_qr_scan", "android": "https://dc.lft.to/lastmile_qr_scan"}, "type": "electric_scooter", "fusion_lon": 0.0}, {"is_reserved": 0, "is_disabled": 0, "fusion_lat": 0.0, "name": "32eacbce8a04398c30b58d84659c9bc6", "lat": 38.92960216666667, "lon": -77.032872, "bike_id": "32eacbce8a04398c30b58d84659c9bc6", "rental_uris": {"ios": "https://dc.lft.to/lastmile_qr_scan", "android": "https://dc.lft.to/lastmile_qr_scan"}, "type": "electric_scooter", "fusion_lon": 0.0}, {"is_reserved": 0, "is_disabled": 0, "fusion_lat": 0.0, "name": "55b794b3b356519fd88524fe6085959f", "lat": 38.917842, "lon": -77.04336333333333, "bike_id": "55b794b3b356519fd88524fe6085959f", "rental_uris": {"ios": "https://dc.lft.to/lastmile_qr_scan", "android": "https://dc.lft.to/lastmile_qr_scan"}, "type": "electric_scooter", "fusion_lon": 0.0}, {"is_reserved": 0, "is_disabled": 0, "fusion_lat": 0.0, "name": "b244a57a177d8d5fb00860f0e98ecd6e", "lat": 38.94459766666667, "lon": -77.02632833333334, "bike_id": "b244a57a177d8d5fb00860f0e98ecd6e", "rental_uris": {"ios": "https://dc.lft.to/lastmile_qr_scan", "android": "https://dc.lft.to/lastmile_qr_scan"}, "type": "electric_scooter", "fusion_lon": 0.0}, {"is_reserved": 0, "is_disabled": 0, "fusion_lat": 0.0, "name": "30c83eae19f03429901921dbfc7af02d", "lat": 38.92169483333333, "lon": -77.04026683333333, "bike_id": "30c83eae19f03429901921dbfc7af02d", "rental_uris": {"ios": "https://dc.lft.to/lastmile_qr_scan", "android": "https://dc.lft.to/lastmile_qr_scan"}, "type": "electric_scooter", "fusion_lon": 0.0}, {"is_reserved": 0, "is_disabled": 0, "fusion_lat": 0.0, "name": "fc3aa25fec065efd00f6b3f67dea89be", "lat": 38.920138333333334, "lon": -77.07123883333334, "bike_id": "fc3aa25fec065efd00f6b3f67dea89be", "rental_uris": {"ios": "https://dc.lft.to/lastmile_qr_scan", "android": "https://dc.lft.to/lastmile_qr_scan"}, "type": "electric_scooter", "fusion_lon": 0.0}, {"is_reserved": 0, "is_disabled": 0, "fusion_lat": 0.0, "name": "26909a0116b76c261ff684a618d4b346", "lat": 38.900385666666665, "lon": -76.99157833333334, "bike_id": "26909a0116b76c261ff684a618d4b346", "rental_uris": {"ios": "https://dc.lft.to/lastmile_qr_scan", "android": "https://dc.lft.to/lastmile_qr_scan"}, "type": "electric_scooter", "fusion_lon": 0.0}, {"is_reserved": 0, "is_disabled": 0, "fusion_lat": 0.0, "name": "91b06b9eee4846df9f02acc3b053fa8b", "lat": 38.933377166666666, "lon": -77.04546883333333, "bike_id": "91b06b9eee4846df9f02acc3b053fa8b", "rental_uris": {"ios": "https://dc.lft.to/lastmile_qr_scan", "android": "https://dc.lft.to/lastmile_qr_scan"}, "type": "electric_scooter", "fusion_lon": 0.0}, {"is_reserved": 0, "is_disabled": 0, "fusion_lat": 0.0, "name": "2c7baeaae0e88e24cdc1e57b42132bcb", "lat": 38.876518, "lon": -77.00340116666666, "bike_id": "2c7baeaae0e88e24cdc1e57b42132bcb", "rental_uris": {"ios": "https://dc.lft.to/lastmile_qr_scan", "android": "https://dc.lft.to/lastmile_qr_scan"}, "type": "electric_scooter", "fusion_lon": 0.0}, {"is_reserved": 0, "is_disabled": 0, "fusion_lat": 0.0, "name": "993ff27cdf4c237982b2bba443923b5f", "lat": 38.874696166666666, "lon": -77.00535133333334, "bike_id": "993ff27cdf4c237982b2bba443923b5f", "rental_uris": {"ios": "https://dc.lft.to/lastmile_qr_scan", "android": "https://dc.lft.to/lastmile_qr_scan"}, "type": "electric_scooter", "fusion_lon": 0.0}, {"is_reserved": 0, "is_disabled": 0, "fusion_lat": 0.0, "name": "f7a41e584cb90c94688210ce1f36306f", "lat": 38.89234783333333, "lon": -77.028174, "bike_id": "f7a41e584cb90c94688210ce1f36306f", "rental_uris": {"ios": "https://dc.lft.to/lastmile_qr_scan", "android": "https://dc.lft.to/lastmile_qr_scan"}, "type": "electric_scooter", "fusion_lon": 0.0}, {"is_reserved": 0, "is_disabled": 0, "fusion_lat": 0.0, "name": "9a45131207e2d67a63de78f9741a4bbe", "lat": 38.92617216666667, "lon": -76.99059216666667, "bike_id": "9a45131207e2d67a63de78f9741a4bbe", "rental_uris": {"ios": "https://dc.lft.to/lastmile_qr_scan", "android": "https://dc.lft.to/lastmile_qr_scan"}, "type": "electric_scooter", "fusion_lon": 0.0}, {"is_reserved": 0, "is_disabled": 0, "fusion_lat": 0.0, "name": "6d654465d7db8593773971eedebab076", "lat": 38.90514, "lon": -77.05673533333334, "bike_id": "6d654465d7db8593773971eedebab076", "rental_uris": {"ios": "https://dc.lft.to/lastmile_qr_scan", "android": "https://dc.lft.to/lastmile_qr_scan"}, "type": "electric_scooter", "fusion_lon": 0.0}, {"is_reserved": 0, "is_disabled": 0, "fusion_lat": 0.0, "name": "46b9098969ee2c337a4f7c1e819b7675", "lat": 38.910853333333336, "lon": -77.01684, "bike_id": "46b9098969ee2c337a4f7c1e819b7675", "rental_uris": {"ios": "https://dc.lft.to/lastmile_qr_scan", "android": "https://dc.lft.to/lastmile_qr_scan"}, "type": "electric_scooter", "fusion_lon": 0.0}, {"is_reserved": 0, "is_disabled": 0, "fusion_lat": 0.0, "name": "37a4bec41b99a8cc942e4530429102cb", "lat": 38.94229133333333, "lon": -77.014943, "bike_id": "37a4bec41b99a8cc942e4530429102cb", "rental_uris": {"ios": "https://dc.lft.to/lastmile_qr_scan", "android": "https://dc.lft.to/lastmile_qr_scan"}, "type": "electric_scooter", "fusion_lon": 0.0}, {"is_reserved": 0, "is_disabled": 0, "fusion_lat": 0.0, "name": "27d5f186859b0e2d4d93c131953aac10", "lat": 38.89690516666667, "lon": -77.005062, "bike_id": "27d5f186859b0e2d4d93c131953aac10", "rental_uris": {"ios": "https://dc.lft.to/lastmile_qr_scan", "android": "https://dc.lft.to/lastmile_qr_scan"}, "type": "electric_scooter", "fusion_lon": 0.0}, {"is_reserved": 0, "is_disabled": 0, "fusion_lat": 0.0, "name": "fe8a61c08d3c46b5eb9d595bc9c7aa46", "lat": 38.92738666666666, "lon": -76.99560766666667, "bike_id": "fe8a61c08d3c46b5eb9d595bc9c7aa46", "rental_uris": {"ios": "https://dc.lft.to/lastmile_qr_scan", "android": "https://dc.lft.to/lastmile_qr_scan"}, "type": "electric_scooter", "fusion_lon": 0.0}, {"is_reserved": 0, "is_disabled": 0, "fusion_lat": 0.0, "name": "51adadbb888bc43a35575dbfdc0e9075", "lat": 38.91719233333333, "lon": -77.0409995, "bike_id": "51adadbb888bc43a35575dbfdc0e9075", "rental_uris": {"ios": "https://dc.lft.to/lastmile_qr_scan", "android": "https://dc.lft.to/lastmile_qr_scan"}, "type": "electric_scooter", "fusion_lon": 0.0}, {"is_reserved": 0, "is_disabled": 0, "fusion_lat": 0.0, "name": "91290381ee4bcd9b3d7687548e40acbe", "lat": 38.923893666666665, "lon": -77.0341635, "bike_id": "91290381ee4bcd9b3d7687548e40acbe", "rental_uris": {"ios": "https://dc.lft.to/lastmile_qr_scan", "android": "https://dc.lft.to/lastmile_qr_scan"}, "type": "electric_scooter", "fusion_lon": 0.0}, {"is_reserved": 0, "is_disabled": 0, "fusion_lat": 0.0, "name": "aebfbfa1cbb135d3183b7530ad0ea44e", "lat": 38.942740666666666, "lon": -77.02933666666667, "bike_id": "aebfbfa1cbb135d3183b7530ad0ea44e", "rental_uris": {"ios": "https://dc.lft.to/lastmile_qr_scan", "android": "https://dc.lft.to/lastmile_qr_scan"}, "type": "electric_scooter", "fusion_lon": 0.0}, {"is_reserved": 0, "is_disabled": 0, "fusion_lat": 0.0, "name": "90c3683d9bdb7c3c6309ebb85d1d8055", "lat": 38.92227066666667, "lon": -77.02125033333333, "bike_id": "90c3683d9bdb7c3c6309ebb85d1d8055", "rental_uris": {"ios": "https://dc.lft.to/lastmile_qr_scan", "android": "https://dc.lft.to/lastmile_qr_scan"}, "type": "electric_scooter", "fusion_lon": 0.0}, {"is_reserved": 0, "is_disabled": 0, "fusion_lat": 0.0, "name": "9699ad4c0b6c9a249c6890d39cd34a6c", "lat": 38.91018716666667, "lon": -77.07413833333334, "bike_id": "9699ad4c0b6c9a249c6890d39cd34a6c", "rental_uris": {"ios": "https://dc.lft.to/lastmile_qr_scan", "android": "https://dc.lft.to/lastmile_qr_scan"}, "type": "electric_scooter", "fusion_lon": 0.0}, {"is_reserved": 0, "is_disabled": 0, "fusion_lat": 0.0, "name": "a193e11be36e2fbacd71e33ee35f1306", "lat": 38.922277, "lon": -77.02826633333333, "bike_id": "a193e11be36e2fbacd71e33ee35f1306", "rental_uris": {"ios": "https://dc.lft.to/lastmile_qr_scan", "android": "https://dc.lft.to/lastmile_qr_scan"}, "type": "electric_scooter", "fusion_lon": 0.0}, {"is_reserved": 0, "is_disabled": 0, "fusion_lat": 0.0, "name": "971efede7d8f33ccba0576bd3f46a0db", "lat": 38.93894566666667, "lon": -77.0249815, "bike_id": "971efede7d8f33ccba0576bd3f46a0db", "rental_uris": {"ios": "https://dc.lft.to/lastmile_qr_scan", "android": "https://dc.lft.to/lastmile_qr_scan"}, "type": "electric_scooter", "fusion_lon": 0.0}, {"is_reserved": 0, "is_disabled": 0, "fusion_lat": 0.0, "name": "5cc9d00258b01df35284d20b16a12e7b", "lat": 38.916131, "lon": -77.02820316666667, "bike_id": "5cc9d00258b01df35284d20b16a12e7b", "rental_uris": {"ios": "https://dc.lft.to/lastmile_qr_scan", "android": "https://dc.lft.to/lastmile_qr_scan"}, "type": "electric_scooter", "fusion_lon": 0.0}, {"is_reserved": 0, "is_disabled": 0, "fusion_lat": 0.0, "name": "e1400d28985aa86c8552f9b2762c3b11", "lat": 38.904088, "lon": -76.97333483333334, "bike_id": "e1400d28985aa86c8552f9b2762c3b11", "rental_uris": {"ios": "https://dc.lft.to/lastmile_qr_scan", "android": "https://dc.lft.to/lastmile_qr_scan"}, "type": "electric_scooter", "fusion_lon": 0.0}, {"is_reserved": 0, "is_disabled": 0, "fusion_lat": 0.0, "name": "2c65cb958f228d2fb52aa68ec2794539", "lat": 38.91572166666667, "lon": -77.02000083333333, "bike_id": "2c65cb958f228d2fb52aa68ec2794539", "rental_uris": {"ios": "https://dc.lft.to/lastmile_qr_scan", "android": "https://dc.lft.to/lastmile_qr_scan"}, "type": "electric_scooter", "fusion_lon": 0.0}, {"is_reserved": 0, "is_disabled": 0, "fusion_lat": 0.0, "name": "ab36652457c63ea903c3a802ada8871b", "lat": 38.887003666666665, "lon": -77.0006275, "bike_id": "ab36652457c63ea903c3a802ada8871b", "rental_uris": {"ios": "https://dc.lft.to/lastmile_qr_scan", "android": "https://dc.lft.to/lastmile_qr_scan"}, "type": "electric_scooter", "fusion_lon": 0.0}, {"is_reserved": 0, "is_disabled": 0, "fusion_lat": 0.0, "name": "d033938e572af540c9be3af8685b9c02", "lat": 38.9285045, "lon": -77.05428883333333, "bike_id": "d033938e572af540c9be3af8685b9c02", "rental_uris": {"ios": "https://dc.lft.to/lastmile_qr_scan", "android": "https://dc.lft.to/lastmile_qr_scan"}, "type": "electric_scooter", "fusion_lon": 0.0}, {"is_reserved": 0, "is_disabled": 0, "fusion_lat": 0.0, "name": "bf85aa5e6aa3c3d0c1343ed10cbce4d7", "lat": 38.96685383333333, "lon": -77.034003, "bike_id": "bf85aa5e6aa3c3d0c1343ed10cbce4d7", "rental_uris": {"ios": "https://dc.lft.to/lastmile_qr_scan", "android": "https://dc.lft.to/lastmile_qr_scan"}, "type": "electric_scooter", "fusion_lon": 0.0}, {"is_reserved": 0, "is_disabled": 0, "fusion_lat": 0.0, "name": "de44c79bdc45f67283b7220b697ea4d2", "lat": 38.89714816666667, "lon": -77.00801766666666, "bike_id": "de44c79bdc45f67283b7220b697ea4d2", "rental_uris": {"ios": "https://dc.lft.to/lastmile_qr_scan", "android": "https://dc.lft.to/lastmile_qr_scan"}, "type": "electric_scooter", "fusion_lon": 0.0}, {"is_reserved": 0, "is_disabled": 0, "fusion_lat": 0.0, "name": "1c8677918aea18427106574b044744cf", "lat": 38.87764883333333, "lon": -77.01879416666667, "bike_id": "1c8677918aea18427106574b044744cf", "rental_uris": {"ios": "https://dc.lft.to/lastmile_qr_scan", "android": "https://dc.lft.to/lastmile_qr_scan"}, "type": "electric_scooter", "fusion_lon": 0.0}, {"is_reserved": 0, "is_disabled": 0, "fusion_lat": 0.0, "name": "0b8e72e1b292176f6d59c91149e10827", "lat": 38.917096, "lon": -77.03731583333334, "bike_id": "0b8e72e1b292176f6d59c91149e10827", "rental_uris": {"ios": "https://dc.lft.to/lastmile_qr_scan", "android": "https://dc.lft.to/lastmile_qr_scan"}, "type": "electric_scooter", "fusion_lon": 0.0}, {"is_reserved": 0, "is_disabled": 0, "fusion_lat": 0.0, "name": "32097c677c678308ee98b198ce670f21", "lat": 38.96775366666667, "lon": -76.9965175, "bike_id": "32097c677c678308ee98b198ce670f21", "rental_uris": {"ios": "https://dc.lft.to/lastmile_qr_scan", "android": "https://dc.lft.to/lastmile_qr_scan"}, "type": "electric_bike", "fusion_lon": 0.0}, {"is_reserved": 0, "is_disabled": 0, "fusion_lat": 0.0, "name": "811df62160b5ef8eda5a1175694c4819", "lat": 38.919575333333334, "lon": -77.02599133333334, "bike_id": "811df62160b5ef8eda5a1175694c4819", "rental_uris": {"ios": "https://dc.lft.to/lastmile_qr_scan", "android": "https://dc.lft.to/lastmile_qr_scan"}, "type": "electric_scooter", "fusion_lon": 0.0}, {"is_reserved": 0, "is_disabled": 0, "fusion_lat": 0.0, "name": "1a97e185c8f073a6014e9c71588791d9", "lat": 38.9518375, "lon": -76.93548916666667, "bike_id": "1a97e185c8f073a6014e9c71588791d9", "rental_uris": {"ios": "https://dc.lft.to/lastmile_qr_scan", "android": "https://dc.lft.to/lastmile_qr_scan"}, "type": "electric_bike", "fusion_lon": 0.0}, {"is_reserved": 0, "is_disabled": 0, "fusion_lat": 0.0, "name": "fc452956fa6c7ebeddfdc61327ef01e4", "lat": 38.895441, "lon": -76.98335766666666, "bike_id": "fc452956fa6c7ebeddfdc61327ef01e4", "rental_uris": {"ios": "https://dc.lft.to/lastmile_qr_scan", "android": "https://dc.lft.to/lastmile_qr_scan"}, "type": "electric_scooter", "fusion_lon": 0.0}, {"is_reserved": 0, "is_disabled": 0, "fusion_lat": 0.0, "name": "30b7291d7a576628a02e9f20440d64cd", "lat": 38.919017833333335, "lon": -77.03209616666666, "bike_id": "30b7291d7a576628a02e9f20440d64cd", "rental_uris": {"ios": "https://dc.lft.to/lastmile_qr_scan", "android": "https://dc.lft.to/lastmile_qr_scan"}, "type": "electric_scooter", "fusion_lon": 0.0}, {"is_reserved": 0, "is_disabled": 0, "fusion_lat": 0.0, "name": "13cc1f5128f24b2f67e3264090d70d30", "lat": 38.92346333333333, "lon": -77.040323, "bike_id": "13cc1f5128f24b2f67e3264090d70d30", "rental_uris": {"ios": "https://dc.lft.to/lastmile_qr_scan", "android": "https://dc.lft.to/lastmile_qr_scan"}, "type": "electric_scooter", "fusion_lon": 0.0}, {"is_reserved": 0, "is_disabled": 0, "fusion_lat": 0.0, "name": "0140b3ca279ee85449b7e88951390565", "lat": 38.89222266666667, "lon": -77.03019233333333, "bike_id": "0140b3ca279ee85449b7e88951390565", "rental_uris": {"ios": "https://dc.lft.to/lastmile_qr_scan", "android": "https://dc.lft.to/lastmile_qr_scan"}, "type": "electric_scooter", "fusion_lon": 0.0}, {"is_reserved": 0, "is_disabled": 0, "fusion_lat": 0.0, "name": "084c2af1975f495a045aa8ddca01fa68", "lat": 38.916352333333336, "lon": -77.040501, "bike_id": "084c2af1975f495a045aa8ddca01fa68", "rental_uris": {"ios": "https://dc.lft.to/lastmile_qr_scan", "android": "https://dc.lft.to/lastmile_qr_scan"}, "type": "electric_scooter", "fusion_lon": 0.0}, {"is_reserved": 0, "is_disabled": 0, "fusion_lat": 0.0, "name": "a4bfcc55fbad58e9be494179a964819b", "lat": 38.923748833333335, "lon": -77.080586, "bike_id": "a4bfcc55fbad58e9be494179a964819b", "rental_uris": {"ios": "https://dc.lft.to/lastmile_qr_scan", "android": "https://dc.lft.to/lastmile_qr_scan"}, "type": "electric_scooter", "fusion_lon": 0.0}, {"is_reserved": 0, "is_disabled": 0, "fusion_lat": 0.0, "name": "6c320d8fd5b6df7ba5f1e4b1b0c3a16a", "lat": 38.9169575, "lon": -77.04109583333333, "bike_id": "6c320d8fd5b6df7ba5f1e4b1b0c3a16a", "rental_uris": {"ios": "https://dc.lft.to/lastmile_qr_scan", "android": "https://dc.lft.to/lastmile_qr_scan"}, "type": "electric_scooter", "fusion_lon": 0.0}, {"is_reserved": 0, "is_disabled": 0, "fusion_lat": 0.0, "name": "dc19e16660fca33cd6a3cdb99199e048", "lat": 38.885122333333335, "lon": -77.0111505, "bike_id": "dc19e16660fca33cd6a3cdb99199e048", "rental_uris": {"ios": "https://dc.lft.to/lastmile_qr_scan", "android": "https://dc.lft.to/lastmile_qr_scan"}, "type": "electric_scooter", "fusion_lon": 0.0}, {"is_reserved": 0, "is_disabled": 0, "fusion_lat": 0.0, "name": "7b91a179705d6ff9682dc4d403ba838a", "lat": 38.928363833333336, "lon": -77.01408933333333, "bike_id": "7b91a179705d6ff9682dc4d403ba838a", "rental_uris": {"ios": "https://dc.lft.to/lastmile_qr_scan", "android": "https://dc.lft.to/lastmile_qr_scan"}, "type": "electric_scooter", "fusion_lon": 0.0}, {"is_reserved": 0, "is_disabled": 0, "fusion_lat": 0.0, "name": "1803336ce74eca249ba85c689288fe15", "lat": 38.90889516666667, "lon": -77.04330283333333, "bike_id": "1803336ce74eca249ba85c689288fe15", "rental_uris": {"ios": "https://dc.lft.to/lastmile_qr_scan", "android": "https://dc.lft.to/lastmile_qr_scan"}, "type": "electric_scooter", "fusion_lon": 0.0}, {"is_reserved": 0, "is_disabled": 0, "fusion_lat": 0.0, "name": "081c5003a25cc1262fecba4ca85b16b1", "lat": 38.877001666666665, "lon": -77.00745466666666, "bike_id": "081c5003a25cc1262fecba4ca85b16b1", "rental_uris": {"ios": "https://dc.lft.to/lastmile_qr_scan", "android": "https://dc.lft.to/lastmile_qr_scan"}, "type": "electric_scooter", "fusion_lon": 0.0}, {"is_reserved": 0, "is_disabled": 0, "fusion_lat": 0.0, "name": "eaf98ed67777d16440dce609ead508a3", "lat": 38.920382333333336, "lon": -77.01966783333333, "bike_id": "eaf98ed67777d16440dce609ead508a3", "rental_uris": {"ios": "https://dc.lft.to/lastmile_qr_scan", "android": "https://dc.lft.to/lastmile_qr_scan"}, "type": "electric_scooter", "fusion_lon": 0.0}, {"is_reserved": 0, "is_disabled": 0, "fusion_lat": 0.0, "name": "4f5d5a5b3d080293bd1748d034563ae8", "lat": 38.879433, "lon": -77.01002266666667, "bike_id": "4f5d5a5b3d080293bd1748d034563ae8", "rental_uris": {"ios": "https://dc.lft.to/lastmile_qr_scan", "android": "https://dc.lft.to/lastmile_qr_scan"}, "type": "electric_scooter", "fusion_lon": 0.0}, {"is_reserved": 0, "is_disabled": 0, "fusion_lat": 0.0, "name": "cd9438acc2ca6a22ced9a844dfb36112", "lat": 38.899621833333335, "lon": -77.01623366666666, "bike_id": "cd9438acc2ca6a22ced9a844dfb36112", "rental_uris": {"ios": "https://dc.lft.to/lastmile_qr_scan", "android": "https://dc.lft.to/lastmile_qr_scan"}, "type": "electric_scooter", "fusion_lon": 0.0}, {"is_reserved": 0, "is_disabled": 0, "fusion_lat": 0.0, "name": "30ca6f835bcaeb5ebeb488f163a3bed2", "lat": 38.919329833333336, "lon": -77.04627633333334, "bike_id": "30ca6f835bcaeb5ebeb488f163a3bed2", "rental_uris": {"ios": "https://dc.lft.to/lastmile_qr_scan", "android": "https://dc.lft.to/lastmile_qr_scan"}, "type": "electric_scooter", "fusion_lon": 0.0}, {"is_reserved": 0, "is_disabled": 0, "fusion_lat": 0.0, "name": "170445d08585406934d440eb88dcebaa", "lat": 38.928671666666666, "lon": -77.03262916666667, "bike_id": "170445d08585406934d440eb88dcebaa", "rental_uris": {"ios": "https://dc.lft.to/lastmile_qr_scan", "android": "https://dc.lft.to/lastmile_qr_scan"}, "type": "electric_scooter", "fusion_lon": 0.0}, {"is_reserved": 0, "is_disabled": 0, "fusion_lat": 0.0, "name": "e8017b0bf7c98e64f72720c404fcd56a", "lat": 38.8555245, "lon": -76.98656666666666, "bike_id": "e8017b0bf7c98e64f72720c404fcd56a", "rental_uris": {"ios": "https://dc.lft.to/lastmile_qr_scan", "android": "https://dc.lft.to/lastmile_qr_scan"}, "type": "electric_scooter", "fusion_lon": 0.0}, {"is_reserved": 0, "is_disabled": 0, "fusion_lat": 0.0, "name": "01defc11d0d0ac4b51a29525f1f50f38", "lat": 38.97437516666667, "lon": -77.09618416666666, "bike_id": "01defc11d0d0ac4b51a29525f1f50f38", "rental_uris": {"ios": "https://dc.lft.to/lastmile_qr_scan", "android": "https://dc.lft.to/lastmile_qr_scan"}, "type": "electric_bike", "fusion_lon": 0.0}, {"is_reserved": 0, "is_disabled": 0, "fusion_lat": 0.0, "name": "578619eb574a470bf7631cf073cb5777", "lat": 38.93287083333333, "lon": -76.986448, "bike_id": "578619eb574a470bf7631cf073cb5777", "rental_uris": {"ios": "https://dc.lft.to/lastmile_qr_scan", "android": "https://dc.lft.to/lastmile_qr_scan"}, "type": "electric_scooter", "fusion_lon": 0.0}, {"is_reserved": 0, "is_disabled": 0, "fusion_lat": 0.0, "name": "87abe8f99235751e7a13604c55a6e1fe", "lat": 38.909733333333335, "lon": -77.03213583333333, "bike_id": "87abe8f99235751e7a13604c55a6e1fe", "rental_uris": {"ios": "https://dc.lft.to/lastmile_qr_scan", "android": "https://dc.lft.to/lastmile_qr_scan"}, "type": "electric_scooter", "fusion_lon": 0.0}, {"is_reserved": 0, "is_disabled": 0, "fusion_lat": 0.0, "name": "42ef080501a29e9ea944787e9a242cea", "lat": 38.90240633333333, "lon": -77.02360016666667, "bike_id": "42ef080501a29e9ea944787e9a242cea", "rental_uris": {"ios": "https://dc.lft.to/lastmile_qr_scan", "android": "https://dc.lft.to/lastmile_qr_scan"}, "type": "electric_scooter", "fusion_lon": 0.0}, {"is_reserved": 0, "is_disabled": 0, "fusion_lat": 0.0, "name": "fb1ad6409bfaf0f396f409dbca1d98fe", "lat": 38.90898416666667, "lon": -77.04397933333334, "bike_id": "fb1ad6409bfaf0f396f409dbca1d98fe", "rental_uris": {"ios": "https://dc.lft.to/lastmile_qr_scan", "android": "https://dc.lft.to/lastmile_qr_scan"}, "type": "electric_scooter", "fusion_lon": 0.0}, {"is_reserved": 0, "is_disabled": 0, "fusion_lat": 0.0, "name": "feb26bb800bbf98f861ff95f1ec56b09", "lat": 38.904103, "lon": -77.04346266666667, "bike_id": "feb26bb800bbf98f861ff95f1ec56b09", "rental_uris": {"ios": "https://dc.lft.to/lastmile_qr_scan", "android": "https://dc.lft.to/lastmile_qr_scan"}, "type": "electric_scooter", "fusion_lon": 0.0}, {"is_reserved": 0, "is_disabled": 0, "fusion_lat": 0.0, "name": "13a32fc0a8aa60006f47f5dd1a27cdba", "lat": 38.906944333333335, "lon": -76.95255083333333, "bike_id": "13a32fc0a8aa60006f47f5dd1a27cdba", "rental_uris": {"ios": "https://dc.lft.to/lastmile_qr_scan", "android": "https://dc.lft.to/lastmile_qr_scan"}, "type": "electric_bike", "fusion_lon": 0.0}, {"is_reserved": 0, "is_disabled": 0, "fusion_lat": 0.0, "name": "0de29f94277bacd1af53765182cd6c17", "lat": 38.900841666666665, "lon": -77.05031866666667, "bike_id": "0de29f94277bacd1af53765182cd6c17", "rental_uris": {"ios": "https://dc.lft.to/lastmile_qr_scan", "android": "https://dc.lft.to/lastmile_qr_scan"}, "type": "electric_scooter", "fusion_lon": 0.0}, {"is_reserved": 0, "is_disabled": 0, "fusion_lat": 0.0, "name": "c00190c3f6cdb1ba129c835275828182", "lat": 38.88355983333334, "lon": -76.95767583333334, "bike_id": "c00190c3f6cdb1ba129c835275828182", "rental_uris": {"ios": "https://dc.lft.to/lastmile_qr_scan", "android": "https://dc.lft.to/lastmile_qr_scan"}, "type": "electric_scooter", "fusion_lon": 0.0}, {"is_reserved": 0, "is_disabled": 0, "fusion_lat": 0.0, "name": "5619e27816a805eff266f33708af24b6", "lat": 38.919847833333336, "lon": -77.0021485, "bike_id": "5619e27816a805eff266f33708af24b6", "rental_uris": {"ios": "https://dc.lft.to/lastmile_qr_scan", "android": "https://dc.lft.to/lastmile_qr_scan"}, "type": "electric_scooter", "fusion_lon": 0.0}, {"is_reserved": 0, "is_disabled": 0, "fusion_lat": 0.0, "name": "3cf95c34712f10a7a6dfbe3a1b4dcae5", "lat": 38.8064415, "lon": -77.0625615, "bike_id": "3cf95c34712f10a7a6dfbe3a1b4dcae5", "rental_uris": {"ios": "https://dc.lft.to/lastmile_qr_scan", "android": "https://dc.lft.to/lastmile_qr_scan"}, "type": "electric_bike", "fusion_lon": 0.0}, {"is_reserved": 0, "is_disabled": 0, "fusion_lat": 0.0, "name": "6b5b6d4d56a918faf9219a861069dbae", "lat": 38.89973066666667, "lon": -77.05567816666667, "bike_id": "6b5b6d4d56a918faf9219a861069dbae", "rental_uris": {"ios": "https://dc.lft.to/lastmile_qr_scan", "android": "https://dc.lft.to/lastmile_qr_scan"}, "type": "electric_scooter", "fusion_lon": 0.0}, {"is_reserved": 0, "is_disabled": 0, "fusion_lat": 0.0, "name": "eb517ff2ef969f4aab2b580241e99831", "lat": 38.9225725, "lon": -77.03523366666667, "bike_id": "eb517ff2ef969f4aab2b580241e99831", "rental_uris": {"ios": "https://dc.lft.to/lastmile_qr_scan", "android": "https://dc.lft.to/lastmile_qr_scan"}, "type": "electric_scooter", "fusion_lon": 0.0}, {"is_reserved": 0, "is_disabled": 0, "fusion_lat": 0.0, "name": "4a4544bf1ee71658709eb3a587656c38", "lat": 38.913113, "lon": -77.04521766666667, "bike_id": "4a4544bf1ee71658709eb3a587656c38", "rental_uris": {"ios": "https://dc.lft.to/lastmile_qr_scan", "android": "https://dc.lft.to/lastmile_qr_scan"}, "type": "electric_scooter", "fusion_lon": 0.0}, {"is_reserved": 0, "is_disabled": 0, "fusion_lat": 0.0, "name": "a0f150a75beed51c075ee677f3a4fd0d", "lat": 38.9118765, "lon": -77.06083433333333, "bike_id": "a0f150a75beed51c075ee677f3a4fd0d", "rental_uris": {"ios": "https://dc.lft.to/lastmile_qr_scan", "android": "https://dc.lft.to/lastmile_qr_scan"}, "type": "electric_scooter", "fusion_lon": 0.0}, {"is_reserved": 0, "is_disabled": 0, "fusion_lat": 0.0, "name": "47fa07a8a71971630608c72fac076194", "lat": 38.942637500000004, "lon": -76.98472883333334, "bike_id": "47fa07a8a71971630608c72fac076194", "rental_uris": {"ios": "https://dc.lft.to/lastmile_qr_scan", "android": "https://dc.lft.to/lastmile_qr_scan"}, "type": "electric_scooter", "fusion_lon": 0.0}, {"is_reserved": 0, "is_disabled": 0, "fusion_lat": 0.0, "name": "719767ffd185e647a717f43a036cf89c", "lat": 38.925761, "lon": -76.99503983333334, "bike_id": "719767ffd185e647a717f43a036cf89c", "rental_uris": {"ios": "https://dc.lft.to/lastmile_qr_scan", "android": "https://dc.lft.to/lastmile_qr_scan"}, "type": "electric_scooter", "fusion_lon": 0.0}, {"is_reserved": 0, "is_disabled": 0, "fusion_lat": 0.0, "name": "5370fa6f16bcd3f365a655b9c0313053", "lat": 38.920609, "lon": -77.01659483333333, "bike_id": "5370fa6f16bcd3f365a655b9c0313053", "rental_uris": {"ios": "https://dc.lft.to/lastmile_qr_scan", "android": "https://dc.lft.to/lastmile_qr_scan"}, "type": "electric_scooter", "fusion_lon": 0.0}, {"is_reserved": 0, "is_disabled": 0, "fusion_lat": 0.0, "name": "a0f6edc6c0576334ad470852ea7ec30d", "lat": 38.902491166666664, "lon": -77.01446133333333, "bike_id": "a0f6edc6c0576334ad470852ea7ec30d", "rental_uris": {"ios": "https://dc.lft.to/lastmile_qr_scan", "android": "https://dc.lft.to/lastmile_qr_scan"}, "type": "electric_scooter", "fusion_lon": 0.0}, {"is_reserved": 0, "is_disabled": 0, "fusion_lat": 0.0, "name": "def6064a6a813897c2415a1fcb9ac871", "lat": 38.90714766666667, "lon": -77.0513235, "bike_id": "def6064a6a813897c2415a1fcb9ac871", "rental_uris": {"ios": "https://dc.lft.to/lastmile_qr_scan", "android": "https://dc.lft.to/lastmile_qr_scan"}, "type": "electric_scooter", "fusion_lon": 0.0}, {"is_reserved": 0, "is_disabled": 0, "fusion_lat": 0.0, "name": "69674fb9a597243c038f7aa86c032ddc", "lat": 38.89738583333333, "lon": -76.99216766666666, "bike_id": "69674fb9a597243c038f7aa86c032ddc", "rental_uris": {"ios": "https://dc.lft.to/lastmile_qr_scan", "android": "https://dc.lft.to/lastmile_qr_scan"}, "type": "electric_scooter", "fusion_lon": 0.0}, {"is_reserved": 0, "is_disabled": 0, "fusion_lat": 0.0, "name": "4f22546e74a1794c69bd6edf858de2b3", "lat": 38.91954066666667, "lon": -77.041734, "bike_id": "4f22546e74a1794c69bd6edf858de2b3", "rental_uris": {"ios": "https://dc.lft.to/lastmile_qr_scan", "android": "https://dc.lft.to/lastmile_qr_scan"}, "type": "electric_scooter", "fusion_lon": 0.0}, {"is_reserved": 0, "is_disabled": 0, "fusion_lat": 0.0, "name": "764add33c78d8b915254cdc0a9ff9854", "lat": 38.90286566666666, "lon": -77.04046766666667, "bike_id": "764add33c78d8b915254cdc0a9ff9854", "rental_uris": {"ios": "https://dc.lft.to/lastmile_qr_scan", "android": "https://dc.lft.to/lastmile_qr_scan"}, "type": "electric_scooter", "fusion_lon": 0.0}, {"is_reserved": 0, "is_disabled": 0, "fusion_lat": 0.0, "name": "6092ad497457ff528f6d66c344a41266", "lat": 38.8996075, "lon": -77.01511983333333, "bike_id": "6092ad497457ff528f6d66c344a41266", "rental_uris": {"ios": "https://dc.lft.to/lastmile_qr_scan", "android": "https://dc.lft.to/lastmile_qr_scan"}, "type": "electric_scooter", "fusion_lon": 0.0}, {"is_reserved": 0, "is_disabled": 0, "fusion_lat": 0.0, "name": "79a0aa850db23642518a6f269c785f09", "lat": 38.88413033333333, "lon": -77.0299605, "bike_id": "79a0aa850db23642518a6f269c785f09", "rental_uris": {"ios": "https://dc.lft.to/lastmile_qr_scan", "android": "https://dc.lft.to/lastmile_qr_scan"}, "type": "electric_scooter", "fusion_lon": 0.0}, {"is_reserved": 0, "is_disabled": 0, "fusion_lat": 0.0, "name": "08fa32f76985c1468f4e6e59cfe5945e", "lat": 38.90481883333333, "lon": -77.04173816666666, "bike_id": "08fa32f76985c1468f4e6e59cfe5945e", "rental_uris": {"ios": "https://dc.lft.to/lastmile_qr_scan", "android": "https://dc.lft.to/lastmile_qr_scan"}, "type": "electric_scooter", "fusion_lon": 0.0}, {"is_reserved": 0, "is_disabled": 0, "fusion_lat": 0.0, "name": "d3e606c4786939350e84efd65f0a8e98", "lat": 38.93750683333333, "lon": -77.032715, "bike_id": "d3e606c4786939350e84efd65f0a8e98", "rental_uris": {"ios": "https://dc.lft.to/lastmile_qr_scan", "android": "https://dc.lft.to/lastmile_qr_scan"}, "type": "electric_scooter", "fusion_lon": 0.0}, {"is_reserved": 0, "is_disabled": 0, "fusion_lat": 0.0, "name": "5325946b2014e138f161712f5fb49513", "lat": 38.95628116666666, "lon": -77.02432333333333, "bike_id": "5325946b2014e138f161712f5fb49513", "rental_uris": {"ios": "https://dc.lft.to/lastmile_qr_scan", "android": "https://dc.lft.to/lastmile_qr_scan"}, "type": "electric_scooter", "fusion_lon": 0.0}, {"is_reserved": 0, "is_disabled": 0, "fusion_lat": 0.0, "name": "aaa1845cbd418064db09a5425bca1352", "lat": 38.96214883333333, "lon": -77.02243666666666, "bike_id": "aaa1845cbd418064db09a5425bca1352", "rental_uris": {"ios": "https://dc.lft.to/lastmile_qr_scan", "android": "https://dc.lft.to/lastmile_qr_scan"}, "type": "electric_scooter", "fusion_lon": 0.0}, {"is_reserved": 0, "is_disabled": 0, "fusion_lat": 0.0, "name": "c06be12f37fa9d19a16cc73740e53b68", "lat": 38.898248833333334, "lon": -77.01357133333333, "bike_id": "c06be12f37fa9d19a16cc73740e53b68", "rental_uris": {"ios": "https://dc.lft.to/lastmile_qr_scan", "android": "https://dc.lft.to/lastmile_qr_scan"}, "type": "electric_scooter", "fusion_lon": 0.0}, {"is_reserved": 0, "is_disabled": 0, "fusion_lat": 0.0, "name": "6129cc028e9440187a361de74249f5d0", "lat": 38.89476716666667, "lon": -77.04535766666666, "bike_id": "6129cc028e9440187a361de74249f5d0", "rental_uris": {"ios": "https://dc.lft.to/lastmile_qr_scan", "android": "https://dc.lft.to/lastmile_qr_scan"}, "type": "electric_scooter", "fusion_lon": 0.0}, {"is_reserved": 0, "is_disabled": 0, "fusion_lat": 0.0, "name": "db486c90a21705b75112a06c9bfde4b3", "lat": 38.907265333333335, "lon": -77.03189916666666, "bike_id": "db486c90a21705b75112a06c9bfde4b3", "rental_uris": {"ios": "https://dc.lft.to/lastmile_qr_scan", "android": "https://dc.lft.to/lastmile_qr_scan"}, "type": "electric_scooter", "fusion_lon": 0.0}, {"is_reserved": 0, "is_disabled": 0, "fusion_lat": 0.0, "name": "4df36bf520af1e0730041822d72f995c", "lat": 38.907211333333336, "lon": -77.01467516666666, "bike_id": "4df36bf520af1e0730041822d72f995c", "rental_uris": {"ios": "https://dc.lft.to/lastmile_qr_scan", "android": "https://dc.lft.to/lastmile_qr_scan"}, "type": "electric_scooter", "fusion_lon": 0.0}, {"is_reserved": 0, "is_disabled": 0, "fusion_lat": 0.0, "name": "f49100bb87d5f516bdeac48210b1bcff", "lat": 38.911925333333336, "lon": -77.01815866666666, "bike_id": "f49100bb87d5f516bdeac48210b1bcff", "rental_uris": {"ios": "https://dc.lft.to/lastmile_qr_scan", "android": "https://dc.lft.to/lastmile_qr_scan"}, "type": "electric_scooter", "fusion_lon": 0.0}, {"is_reserved": 0, "is_disabled": 0, "fusion_lat": 0.0, "name": "bbada6f1e6c0583d1d9e4df49dd13f48", "lat": 38.833812, "lon": -77.00303883333333, "bike_id": "bbada6f1e6c0583d1d9e4df49dd13f48", "rental_uris": {"ios": "https://dc.lft.to/lastmile_qr_scan", "android": "https://dc.lft.to/lastmile_qr_scan"}, "type": "electric_scooter", "fusion_lon": 0.0}, {"is_reserved": 0, "is_disabled": 0, "fusion_lat": 0.0, "name": "0989681382ae444ecfa7f198380a6986", "lat": 38.90418183333333, "lon": -77.024108, "bike_id": "0989681382ae444ecfa7f198380a6986", "rental_uris": {"ios": "https://dc.lft.to/lastmile_qr_scan", "android": "https://dc.lft.to/lastmile_qr_scan"}, "type": "electric_scooter", "fusion_lon": 0.0}, {"is_reserved": 0, "is_disabled": 0, "fusion_lat": 0.0, "name": "5b1b244dc7f9bf1a5512bba847cf6221", "lat": 38.93625683333333, "lon": -77.06349783333333, "bike_id": "5b1b244dc7f9bf1a5512bba847cf6221", "rental_uris": {"ios": "https://dc.lft.to/lastmile_qr_scan", "android": "https://dc.lft.to/lastmile_qr_scan"}, "type": "electric_bike", "fusion_lon": 0.0}, {"is_reserved": 0, "is_disabled": 0, "fusion_lat": 0.0, "name": "a93045ed3938493519fbde6f2c5305ca", "lat": 38.83605283333333, "lon": -77.003811, "bike_id": "a93045ed3938493519fbde6f2c5305ca", "rental_uris": {"ios": "https://dc.lft.to/lastmile_qr_scan", "android": "https://dc.lft.to/lastmile_qr_scan"}, "type": "electric_bike", "fusion_lon": 0.0}, {"is_reserved": 0, "is_disabled": 0, "fusion_lat": 0.0, "name": "871d11bb985884d52e45f23d6ae07876", "lat": 38.89685766666667, "lon": -77.00507083333333, "bike_id": "871d11bb985884d52e45f23d6ae07876", "rental_uris": {"ios": "https://dc.lft.to/lastmile_qr_scan", "android": "https://dc.lft.to/lastmile_qr_scan"}, "type": "electric_scooter", "fusion_lon": 0.0}, {"is_reserved": 0, "is_disabled": 0, "fusion_lat": 0.0, "name": "1beeb0be9189e36bede799442ad71d22", "lat": 38.876328666666666, "lon": -77.00953983333333, "bike_id": "1beeb0be9189e36bede799442ad71d22", "rental_uris": {"ios": "https://dc.lft.to/lastmile_qr_scan", "android": "https://dc.lft.to/lastmile_qr_scan"}, "type": "electric_scooter", "fusion_lon": 0.0}, {"is_reserved": 0, "is_disabled": 0, "fusion_lat": 0.0, "name": "69c12102a5841ccae3ecc14f7b877627", "lat": 38.91861516666667, "lon": -77.015611, "bike_id": "69c12102a5841ccae3ecc14f7b877627", "rental_uris": {"ios": "https://dc.lft.to/lastmile_qr_scan", "android": "https://dc.lft.to/lastmile_qr_scan"}, "type": "electric_scooter", "fusion_lon": 0.0}, {"is_reserved": 0, "is_disabled": 0, "fusion_lat": 0.0, "name": "ddf7ca76ff2519a54a6552f26dde471a", "lat": 38.89097316666667, "lon": -76.98831266666667, "bike_id": "ddf7ca76ff2519a54a6552f26dde471a", "rental_uris": {"ios": "https://dc.lft.to/lastmile_qr_scan", "android": "https://dc.lft.to/lastmile_qr_scan"}, "type": "electric_scooter", "fusion_lon": 0.0}, {"is_reserved": 0, "is_disabled": 0, "fusion_lat": 0.0, "name": "b79f38fa4ea97f383be054c2e8bd4595", "lat": 38.88629433333333, "lon": -76.9818535, "bike_id": "b79f38fa4ea97f383be054c2e8bd4595", "rental_uris": {"ios": "https://dc.lft.to/lastmile_qr_scan", "android": "https://dc.lft.to/lastmile_qr_scan"}, "type": "electric_scooter", "fusion_lon": 0.0}, {"is_reserved": 0, "is_disabled": 0, "fusion_lat": 0.0, "name": "50dca8a2634035c4320dd76586c61ed2", "lat": 38.91255833333334, "lon": -76.98351133333334, "bike_id": "50dca8a2634035c4320dd76586c61ed2", "rental_uris": {"ios": "https://dc.lft.to/lastmile_qr_scan", "android": "https://dc.lft.to/lastmile_qr_scan"}, "type": "electric_scooter", "fusion_lon": 0.0}, {"is_reserved": 0, "is_disabled": 0, "fusion_lat": 0.0, "name": "60077849e3e9422a41b322f3b0048d53", "lat": 38.918202, "lon": -77.03724716666666, "bike_id": "60077849e3e9422a41b322f3b0048d53", "rental_uris": {"ios": "https://dc.lft.to/lastmile_qr_scan", "android": "https://dc.lft.to/lastmile_qr_scan"}, "type": "electric_scooter", "fusion_lon": 0.0}, {"is_reserved": 0, "is_disabled": 0, "fusion_lat": 0.0, "name": "d22b7d6c6a54ed8509de7d9616bca243", "lat": 38.9159095, "lon": -76.98408783333333, "bike_id": "d22b7d6c6a54ed8509de7d9616bca243", "rental_uris": {"ios": "https://dc.lft.to/lastmile_qr_scan", "android": "https://dc.lft.to/lastmile_qr_scan"}, "type": "electric_scooter", "fusion_lon": 0.0}, {"is_reserved": 0, "is_disabled": 0, "fusion_lat": 0.0, "name": "471c24b4982c401c569b5de3778c254b", "lat": 38.9166925, "lon": -77.0420365, "bike_id": "471c24b4982c401c569b5de3778c254b", "rental_uris": {"ios": "https://dc.lft.to/lastmile_qr_scan", "android": "https://dc.lft.to/lastmile_qr_scan"}, "type": "electric_scooter", "fusion_lon": 0.0}, {"is_reserved": 0, "is_disabled": 0, "fusion_lat": 0.0, "name": "7ea7d6d5a4222ac72e7d3ca743e3ae9a", "lat": 38.884273, "lon": -77.03053766666666, "bike_id": "7ea7d6d5a4222ac72e7d3ca743e3ae9a", "rental_uris": {"ios": "https://dc.lft.to/lastmile_qr_scan", "android": "https://dc.lft.to/lastmile_qr_scan"}, "type": "electric_scooter", "fusion_lon": 0.0}, {"is_reserved": 0, "is_disabled": 0, "fusion_lat": 0.0, "name": "6f94674e298bdca9d7fb45de76cdcf5a", "lat": 38.924231166666665, "lon": -77.02131216666666, "bike_id": "6f94674e298bdca9d7fb45de76cdcf5a", "rental_uris": {"ios": "https://dc.lft.to/lastmile_qr_scan", "android": "https://dc.lft.to/lastmile_qr_scan"}, "type": "electric_scooter", "fusion_lon": 0.0}, {"is_reserved": 0, "is_disabled": 0, "fusion_lat": 0.0, "name": "3b5925abebf4fb5274ebe057196d6282", "lat": 38.846760333333336, "lon": -77.1393685, "bike_id": "3b5925abebf4fb5274ebe057196d6282", "rental_uris": {"ios": "https://dc.lft.to/lastmile_qr_scan", "android": "https://dc.lft.to/lastmile_qr_scan"}, "type": "electric_bike", "fusion_lon": 0.0}, {"is_reserved": 0, "is_disabled": 0, "fusion_lat": 0.0, "name": "b12b9b6fc0fdcbf3ff16ec99100e53bb", "lat": 38.901387166666666, "lon": -77.0313735, "bike_id": "b12b9b6fc0fdcbf3ff16ec99100e53bb", "rental_uris": {"ios": "https://dc.lft.to/lastmile_qr_scan", "android": "https://dc.lft.to/lastmile_qr_scan"}, "type": "electric_scooter", "fusion_lon": 0.0}, {"is_reserved": 0, "is_disabled": 0, "fusion_lat": 0.0, "name": "e90dded228c64ab741a3c9c2d4ed2dae", "lat": 38.899142833333336, "lon": -77.03978966666666, "bike_id": "e90dded228c64ab741a3c9c2d4ed2dae", "rental_uris": {"ios": "https://dc.lft.to/lastmile_qr_scan", "android": "https://dc.lft.to/lastmile_qr_scan"}, "type": "electric_scooter", "fusion_lon": 0.0}, {"is_reserved": 0, "is_disabled": 0, "fusion_lat": 0.0, "name": "243dc3c5dd54a7358b507b142385f7b9", "lat": 38.902703333333335, "lon": -77.05163416666667, "bike_id": "243dc3c5dd54a7358b507b142385f7b9", "rental_uris": {"ios": "https://dc.lft.to/lastmile_qr_scan", "android": "https://dc.lft.to/lastmile_qr_scan"}, "type": "electric_scooter", "fusion_lon": 0.0}, {"is_reserved": 0, "is_disabled": 0, "fusion_lat": 0.0, "name": "94b4a20755efb9cbe575444a37879869", "lat": 38.90033366666667, "lon": -77.01221033333333, "bike_id": "94b4a20755efb9cbe575444a37879869", "rental_uris": {"ios": "https://dc.lft.to/lastmile_qr_scan", "android": "https://dc.lft.to/lastmile_qr_scan"}, "type": "electric_scooter", "fusion_lon": 0.0}, {"is_reserved": 0, "is_disabled": 0, "fusion_lat": 0.0, "name": "815f66bd0eda864dca5c470011ad76dd", "lat": 38.911332, "lon": -77.032072, "bike_id": "815f66bd0eda864dca5c470011ad76dd", "rental_uris": {"ios": "https://dc.lft.to/lastmile_qr_scan", "android": "https://dc.lft.to/lastmile_qr_scan"}, "type": "electric_scooter", "fusion_lon": 0.0}, {"is_reserved": 0, "is_disabled": 0, "fusion_lat": 0.0, "name": "b16540bd778450b5698dbc44cffc5197", "lat": 38.9309655, "lon": -77.0235, "bike_id": "b16540bd778450b5698dbc44cffc5197", "rental_uris": {"ios": "https://dc.lft.to/lastmile_qr_scan", "android": "https://dc.lft.to/lastmile_qr_scan"}, "type": "electric_scooter", "fusion_lon": 0.0}, {"is_reserved": 0, "is_disabled": 0, "fusion_lat": 0.0, "name": "85f0276c3bd8abc5a0781f96ce268200", "lat": 38.913725666666664, "lon": -77.038528, "bike_id": "85f0276c3bd8abc5a0781f96ce268200", "rental_uris": {"ios": "https://dc.lft.to/lastmile_qr_scan", "android": "https://dc.lft.to/lastmile_qr_scan"}, "type": "electric_scooter", "fusion_lon": 0.0}, {"is_reserved": 0, "is_disabled": 0, "fusion_lat": 0.0, "name": "dcc43e0146e13042a6faeace1e1a44d6", "lat": 38.923655833333335, "lon": -77.02983483333334, "bike_id": "dcc43e0146e13042a6faeace1e1a44d6", "rental_uris": {"ios": "https://dc.lft.to/lastmile_qr_scan", "android": "https://dc.lft.to/lastmile_qr_scan"}, "type": "electric_scooter", "fusion_lon": 0.0}, {"is_reserved": 0, "is_disabled": 0, "fusion_lat": 0.0, "name": "aa6456227298c428bfe0966afd2f9f8d", "lat": 38.917129333333335, "lon": -77.03864733333333, "bike_id": "aa6456227298c428bfe0966afd2f9f8d", "rental_uris": {"ios": "https://dc.lft.to/lastmile_qr_scan", "android": "https://dc.lft.to/lastmile_qr_scan"}, "type": "electric_scooter", "fusion_lon": 0.0}, {"is_reserved": 0, "is_disabled": 0, "fusion_lat": 0.0, "name": "afeaf7658136e65a8f7b7c8d0ac238e2", "lat": 38.92394783333334, "lon": -77.03415483333333, "bike_id": "afeaf7658136e65a8f7b7c8d0ac238e2", "rental_uris": {"ios": "https://dc.lft.to/lastmile_qr_scan", "android": "https://dc.lft.to/lastmile_qr_scan"}, "type": "electric_scooter", "fusion_lon": 0.0}, {"is_reserved": 0, "is_disabled": 0, "fusion_lat": 0.0, "name": "b7c1865f93530f7cf194e1b4f9ad3f1b", "lat": 38.89909883333333, "lon": -77.039804, "bike_id": "b7c1865f93530f7cf194e1b4f9ad3f1b", "rental_uris": {"ios": "https://dc.lft.to/lastmile_qr_scan", "android": "https://dc.lft.to/lastmile_qr_scan"}, "type": "electric_scooter", "fusion_lon": 0.0}, {"is_reserved": 0, "is_disabled": 0, "fusion_lat": 0.0, "name": "869d0d9a5c1ce4df9c8c22c80fed453e", "lat": 38.914261333333336, "lon": -76.98441516666666, "bike_id": "869d0d9a5c1ce4df9c8c22c80fed453e", "rental_uris": {"ios": "https://dc.lft.to/lastmile_qr_scan", "android": "https://dc.lft.to/lastmile_qr_scan"}, "type": "electric_scooter", "fusion_lon": 0.0}, {"is_reserved": 0, "is_disabled": 0, "fusion_lat": 0.0, "name": "524d5d54e311a7d02e65e8a7a826624b", "lat": 38.899255833333335, "lon": -77.0036435, "bike_id": "524d5d54e311a7d02e65e8a7a826624b", "rental_uris": {"ios": "https://dc.lft.to/lastmile_qr_scan", "android": "https://dc.lft.to/lastmile_qr_scan"}, "type": "electric_scooter", "fusion_lon": 0.0}, {"is_reserved": 0, "is_disabled": 0, "fusion_lat": 0.0, "name": "c288fda948e86b6960d10bc5fd3845bf", "lat": 38.9264865, "lon": -77.090246, "bike_id": "c288fda948e86b6960d10bc5fd3845bf", "rental_uris": {"ios": "https://dc.lft.to/lastmile_qr_scan", "android": "https://dc.lft.to/lastmile_qr_scan"}, "type": "electric_bike", "fusion_lon": 0.0}, {"is_reserved": 0, "is_disabled": 0, "fusion_lat": 0.0, "name": "a4146a218268f14a64c63a0fbaf398ba", "lat": 38.903446333333335, "lon": -76.974926, "bike_id": "a4146a218268f14a64c63a0fbaf398ba", "rental_uris": {"ios": "https://dc.lft.to/lastmile_qr_scan", "android": "https://dc.lft.to/lastmile_qr_scan"}, "type": "electric_scooter", "fusion_lon": 0.0}, {"is_reserved": 0, "is_disabled": 0, "fusion_lat": 0.0, "name": "2e82eeb5629d3e46bf31d7b80ab38de8", "lat": 38.94214916666667, "lon": -77.01885416666667, "bike_id": "2e82eeb5629d3e46bf31d7b80ab38de8", "rental_uris": {"ios": "https://dc.lft.to/lastmile_qr_scan", "android": "https://dc.lft.to/lastmile_qr_scan"}, "type": "electric_scooter", "fusion_lon": 0.0}, {"is_reserved": 0, "is_disabled": 0, "fusion_lat": 0.0, "name": "ddc356089940362b4d7b9a5a1b30ea84", "lat": 38.89845733333333, "lon": -77.04675216666666, "bike_id": "ddc356089940362b4d7b9a5a1b30ea84", "rental_uris": {"ios": "https://dc.lft.to/lastmile_qr_scan", "android": "https://dc.lft.to/lastmile_qr_scan"}, "type": "electric_scooter", "fusion_lon": 0.0}, {"is_reserved": 0, "is_disabled": 0, "fusion_lat": 0.0, "name": "3a3ddf581f935bee76d584824d63ac8f", "lat": 38.923309833333334, "lon": -77.02811466666667, "bike_id": "3a3ddf581f935bee76d584824d63ac8f", "rental_uris": {"ios": "https://dc.lft.to/lastmile_qr_scan", "android": "https://dc.lft.to/lastmile_qr_scan"}, "type": "electric_scooter", "fusion_lon": 0.0}, {"is_reserved": 0, "is_disabled": 0, "fusion_lat": 0.0, "name": "4166b991545d5e39399620432de33498", "lat": 38.9247345, "lon": -77.02203833333333, "bike_id": "4166b991545d5e39399620432de33498", "rental_uris": {"ios": "https://dc.lft.to/lastmile_qr_scan", "android": "https://dc.lft.to/lastmile_qr_scan"}, "type": "electric_scooter", "fusion_lon": 0.0}, {"is_reserved": 0, "is_disabled": 0, "fusion_lat": 0.0, "name": "be6b64ab6fba75248ab6a2f3032bfa1b", "lat": 38.9741225, "lon": -76.984204, "bike_id": "be6b64ab6fba75248ab6a2f3032bfa1b", "rental_uris": {"ios": "https://dc.lft.to/lastmile_qr_scan", "android": "https://dc.lft.to/lastmile_qr_scan"}, "type": "electric_bike", "fusion_lon": 0.0}, {"is_reserved": 0, "is_disabled": 0, "fusion_lat": 0.0, "name": "151ba4cd78370af2f3034538d7e4622b", "lat": 38.90460233333334, "lon": -77.05337633333333, "bike_id": "151ba4cd78370af2f3034538d7e4622b", "rental_uris": {"ios": "https://dc.lft.to/lastmile_qr_scan", "android": "https://dc.lft.to/lastmile_qr_scan"}, "type": "electric_scooter", "fusion_lon": 0.0}, {"is_reserved": 0, "is_disabled": 0, "fusion_lat": 0.0, "name": "ba042fac2054b502a14fe3da3cdf40a8", "lat": 38.915279166666664, "lon": -77.02188133333334, "bike_id": "ba042fac2054b502a14fe3da3cdf40a8", "rental_uris": {"ios": "https://dc.lft.to/lastmile_qr_scan", "android": "https://dc.lft.to/lastmile_qr_scan"}, "type": "electric_scooter", "fusion_lon": 0.0}, {"is_reserved": 0, "is_disabled": 0, "fusion_lat": 0.0, "name": "0b9e0b23b1c7acd8a8ae0cc619d2452a", "lat": 38.91625466666667, "lon": -77.00500416666667, "bike_id": "0b9e0b23b1c7acd8a8ae0cc619d2452a", "rental_uris": {"ios": "https://dc.lft.to/lastmile_qr_scan", "android": "https://dc.lft.to/lastmile_qr_scan"}, "type": "electric_scooter", "fusion_lon": 0.0}, {"is_reserved": 0, "is_disabled": 0, "fusion_lat": 0.0, "name": "c3139780da4b6f1bb8f740b514945e3b", "lat": 38.947275166666664, "lon": -77.01937516666666, "bike_id": "c3139780da4b6f1bb8f740b514945e3b", "rental_uris": {"ios": "https://dc.lft.to/lastmile_qr_scan", "android": "https://dc.lft.to/lastmile_qr_scan"}, "type": "electric_scooter", "fusion_lon": 0.0}, {"is_reserved": 0, "is_disabled": 0, "fusion_lat": 0.0, "name": "8df054038bfaa44b0fe66afb2aa29fe7", "lat": 38.90972466666667, "lon": -77.04517083333333, "bike_id": "8df054038bfaa44b0fe66afb2aa29fe7", "rental_uris": {"ios": "https://dc.lft.to/lastmile_qr_scan", "android": "https://dc.lft.to/lastmile_qr_scan"}, "type": "electric_scooter", "fusion_lon": 0.0}, {"is_reserved": 0, "is_disabled": 0, "fusion_lat": 0.0, "name": "df02525bea77aa22338dad7452572966", "lat": 38.9174115, "lon": -77.02118666666667, "bike_id": "df02525bea77aa22338dad7452572966", "rental_uris": {"ios": "https://dc.lft.to/lastmile_qr_scan", "android": "https://dc.lft.to/lastmile_qr_scan"}, "type": "electric_scooter", "fusion_lon": 0.0}, {"is_reserved": 0, "is_disabled": 0, "fusion_lat": 0.0, "name": "238da71e9abe1c02f0cc5753b041a907", "lat": 38.90333366666667, "lon": -77.0333315, "bike_id": "238da71e9abe1c02f0cc5753b041a907", "rental_uris": {"ios": "https://dc.lft.to/lastmile_qr_scan", "android": "https://dc.lft.to/lastmile_qr_scan"}, "type": "electric_scooter", "fusion_lon": 0.0}, {"is_reserved": 0, "is_disabled": 0, "fusion_lat": 0.0, "name": "bd890cb3f96f7eed81fe166a3ccbd8cc", "lat": 38.887246, "lon": -76.996117, "bike_id": "bd890cb3f96f7eed81fe166a3ccbd8cc", "rental_uris": {"ios": "https://dc.lft.to/lastmile_qr_scan", "android": "https://dc.lft.to/lastmile_qr_scan"}, "type": "electric_scooter", "fusion_lon": 0.0}, {"is_reserved": 0, "is_disabled": 0, "fusion_lat": 0.0, "name": "a4d901f0b80fdd84870fc76750ef39dd", "lat": 39.00644033333333, "lon": -76.90024783333334, "bike_id": "a4d901f0b80fdd84870fc76750ef39dd", "rental_uris": {"ios": "https://dc.lft.to/lastmile_qr_scan", "android": "https://dc.lft.to/lastmile_qr_scan"}, "type": "electric_bike", "fusion_lon": 0.0}, {"is_reserved": 0, "is_disabled": 0, "fusion_lat": 0.0, "name": "6caac26c2c218a799734062ccb361606", "lat": 38.9269325, "lon": -77.02280116666667, "bike_id": "6caac26c2c218a799734062ccb361606", "rental_uris": {"ios": "https://dc.lft.to/lastmile_qr_scan", "android": "https://dc.lft.to/lastmile_qr_scan"}, "type": "electric_scooter", "fusion_lon": 0.0}, {"is_reserved": 0, "is_disabled": 0, "fusion_lat": 0.0, "name": "26f438ae90d5b53018cf3748e5bba16e", "lat": 38.922424166666666, "lon": -77.03659483333334, "bike_id": "26f438ae90d5b53018cf3748e5bba16e", "rental_uris": {"ios": "https://dc.lft.to/lastmile_qr_scan", "android": "https://dc.lft.to/lastmile_qr_scan"}, "type": "electric_scooter", "fusion_lon": 0.0}, {"is_reserved": 0, "is_disabled": 0, "fusion_lat": 0.0, "name": "1bd139963b6c0448720e6bed472e34bd", "lat": 38.903704166666664, "lon": -77.00021383333333, "bike_id": "1bd139963b6c0448720e6bed472e34bd", "rental_uris": {"ios": "https://dc.lft.to/lastmile_qr_scan", "android": "https://dc.lft.to/lastmile_qr_scan"}, "type": "electric_scooter", "fusion_lon": 0.0}, {"is_reserved": 0, "is_disabled": 0, "fusion_lat": 0.0, "name": "c8ffbbda9299548119b4108cd050eb3f", "lat": 38.9039685, "lon": -77.00427366666666, "bike_id": "c8ffbbda9299548119b4108cd050eb3f", "rental_uris": {"ios": "https://dc.lft.to/lastmile_qr_scan", "android": "https://dc.lft.to/lastmile_qr_scan"}, "type": "electric_scooter", "fusion_lon": 0.0}, {"is_reserved": 0, "is_disabled": 0, "fusion_lat": 0.0, "name": "295682f75939e3a48a052817d97e683b", "lat": 38.9286605, "lon": -77.032822, "bike_id": "295682f75939e3a48a052817d97e683b", "rental_uris": {"ios": "https://dc.lft.to/lastmile_qr_scan", "android": "https://dc.lft.to/lastmile_qr_scan"}, "type": "electric_scooter", "fusion_lon": 0.0}, {"is_reserved": 0, "is_disabled": 0, "fusion_lat": 0.0, "name": "ec58657848bec8167048079d1b1717a1", "lat": 38.880084833333335, "lon": -76.9983345, "bike_id": "ec58657848bec8167048079d1b1717a1", "rental_uris": {"ios": "https://dc.lft.to/lastmile_qr_scan", "android": "https://dc.lft.to/lastmile_qr_scan"}, "type": "electric_scooter", "fusion_lon": 0.0}, {"is_reserved": 0, "is_disabled": 0, "fusion_lat": 0.0, "name": "77c58e36b02660b1454f4b14e3e2414c", "lat": 38.90528833333333, "lon": -77.01708583333334, "bike_id": "77c58e36b02660b1454f4b14e3e2414c", "rental_uris": {"ios": "https://dc.lft.to/lastmile_qr_scan", "android": "https://dc.lft.to/lastmile_qr_scan"}, "type": "electric_scooter", "fusion_lon": 0.0}, {"is_reserved": 0, "is_disabled": 0, "fusion_lat": 0.0, "name": "c53ece1e75ca28b1b2d2fe7ef15b2f6e", "lat": 38.92075483333333, "lon": -77.02401816666666, "bike_id": "c53ece1e75ca28b1b2d2fe7ef15b2f6e", "rental_uris": {"ios": "https://dc.lft.to/lastmile_qr_scan", "android": "https://dc.lft.to/lastmile_qr_scan"}, "type": "electric_scooter", "fusion_lon": 0.0}, {"is_reserved": 0, "is_disabled": 0, "fusion_lat": 0.0, "name": "59a23211cc240f44cc106cd79495724d", "lat": 38.927004333333336, "lon": -76.99506116666667, "bike_id": "59a23211cc240f44cc106cd79495724d", "rental_uris": {"ios": "https://dc.lft.to/lastmile_qr_scan", "android": "https://dc.lft.to/lastmile_qr_scan"}, "type": "electric_scooter", "fusion_lon": 0.0}, {"is_reserved": 0, "is_disabled": 0, "fusion_lat": 0.0, "name": "b5351edea502ab40f79c4511779588aa", "lat": 38.88303833333333, "lon": -76.93480166666667, "bike_id": "b5351edea502ab40f79c4511779588aa", "rental_uris": {"ios": "https://dc.lft.to/lastmile_qr_scan", "android": "https://dc.lft.to/lastmile_qr_scan"}, "type": "electric_scooter", "fusion_lon": 0.0}, {"is_reserved": 0, "is_disabled": 0, "fusion_lat": 0.0, "name": "9738618a1c674b31801d16e0085a21b8", "lat": 38.85243116666667, "lon": -77.11410966666666, "bike_id": "9738618a1c674b31801d16e0085a21b8", "rental_uris": {"ios": "https://dc.lft.to/lastmile_qr_scan", "android": "https://dc.lft.to/lastmile_qr_scan"}, "type": "electric_bike", "fusion_lon": 0.0}, {"is_reserved": 0, "is_disabled": 0, "fusion_lat": 0.0, "name": "096886a36c37827ef48f859262663e14", "lat": 38.87638283333333, "lon": -77.00384316666667, "bike_id": "096886a36c37827ef48f859262663e14", "rental_uris": {"ios": "https://dc.lft.to/lastmile_qr_scan", "android": "https://dc.lft.to/lastmile_qr_scan"}, "type": "electric_scooter", "fusion_lon": 0.0}, {"is_reserved": 0, "is_disabled": 0, "fusion_lat": 0.0, "name": "75a2374211ebdc171aed320222f7fdae", "lat": 38.908364, "lon": -76.93476933333334, "bike_id": "75a2374211ebdc171aed320222f7fdae", "rental_uris": {"ios": "https://dc.lft.to/lastmile_qr_scan", "android": "https://dc.lft.to/lastmile_qr_scan"}, "type": "electric_scooter", "fusion_lon": 0.0}, {"is_reserved": 0, "is_disabled": 0, "fusion_lat": 0.0, "name": "257eb03f4961d46a01dafeb53d6d39c7", "lat": 38.910447166666664, "lon": -76.99806633333333, "bike_id": "257eb03f4961d46a01dafeb53d6d39c7", "rental_uris": {"ios": "https://dc.lft.to/lastmile_qr_scan", "android": "https://dc.lft.to/lastmile_qr_scan"}, "type": "electric_scooter", "fusion_lon": 0.0}, {"is_reserved": 0, "is_disabled": 0, "fusion_lat": 0.0, "name": "9ea5e69e0940f5ea8d7105dc76f1429c", "lat": 38.91555733333333, "lon": -77.02429283333333, "bike_id": "9ea5e69e0940f5ea8d7105dc76f1429c", "rental_uris": {"ios": "https://dc.lft.to/lastmile_qr_scan", "android": "https://dc.lft.to/lastmile_qr_scan"}, "type": "electric_scooter", "fusion_lon": 0.0}, {"is_reserved": 0, "is_disabled": 0, "fusion_lat": 0.0, "name": "3882e09b470d53eba82ffdaaeb1d611d", "lat": 38.917982, "lon": -77.02330383333333, "bike_id": "3882e09b470d53eba82ffdaaeb1d611d", "rental_uris": {"ios": "https://dc.lft.to/lastmile_qr_scan", "android": "https://dc.lft.to/lastmile_qr_scan"}, "type": "electric_scooter", "fusion_lon": 0.0}, {"is_reserved": 0, "is_disabled": 0, "fusion_lat": 0.0, "name": "0f39910f27cbe5e6a06c79fc159d1e1e", "lat": 38.9563825, "lon": -77.03629816666667, "bike_id": "0f39910f27cbe5e6a06c79fc159d1e1e", "rental_uris": {"ios": "https://dc.lft.to/lastmile_qr_scan", "android": "https://dc.lft.to/lastmile_qr_scan"}, "type": "electric_scooter", "fusion_lon": 0.0}, {"is_reserved": 0, "is_disabled": 0, "fusion_lat": 0.0, "name": "be2551f6f644ec816d2ce7219962c138", "lat": 38.923384166666665, "lon": -77.02148116666666, "bike_id": "be2551f6f644ec816d2ce7219962c138", "rental_uris": {"ios": "https://dc.lft.to/lastmile_qr_scan", "android": "https://dc.lft.to/lastmile_qr_scan"}, "type": "electric_scooter", "fusion_lon": 0.0}, {"is_reserved": 0, "is_disabled": 0, "fusion_lat": 0.0, "name": "809467aa52679a0f72fb313a70d81f55", "lat": 38.937075166666666, "lon": -77.02425316666667, "bike_id": "809467aa52679a0f72fb313a70d81f55", "rental_uris": {"ios": "https://dc.lft.to/lastmile_qr_scan", "android": "https://dc.lft.to/lastmile_qr_scan"}, "type": "electric_scooter", "fusion_lon": 0.0}, {"is_reserved": 0, "is_disabled": 0, "fusion_lat": 0.0, "name": "b74f6a1e8ed84bf4285334d3c041e497", "lat": 38.89961316666667, "lon": -77.01505983333334, "bike_id": "b74f6a1e8ed84bf4285334d3c041e497", "rental_uris": {"ios": "https://dc.lft.to/lastmile_qr_scan", "android": "https://dc.lft.to/lastmile_qr_scan"}, "type": "electric_scooter", "fusion_lon": 0.0}, {"is_reserved": 0, "is_disabled": 0, "fusion_lat": 0.0, "name": "471e5c9e8ac72a294775d11858bed8f6", "lat": 38.916345166666666, "lon": -77.0320455, "bike_id": "471e5c9e8ac72a294775d11858bed8f6", "rental_uris": {"ios": "https://dc.lft.to/lastmile_qr_scan", "android": "https://dc.lft.to/lastmile_qr_scan"}, "type": "electric_scooter", "fusion_lon": 0.0}, {"is_reserved": 0, "is_disabled": 0, "fusion_lat": 0.0, "name": "5256d3325ec749673aec6d0ad0210d2a", "lat": 38.9139695, "lon": -77.032111, "bike_id": "5256d3325ec749673aec6d0ad0210d2a", "rental_uris": {"ios": "https://dc.lft.to/lastmile_qr_scan", "android": "https://dc.lft.to/lastmile_qr_scan"}, "type": "electric_scooter", "fusion_lon": 0.0}, {"is_reserved": 0, "is_disabled": 0, "fusion_lat": 0.0, "name": "43560954717a08308fe934061a584b7e", "lat": 38.900613, "lon": -77.03665166666667, "bike_id": "43560954717a08308fe934061a584b7e", "rental_uris": {"ios": "https://dc.lft.to/lastmile_qr_scan", "android": "https://dc.lft.to/lastmile_qr_scan"}, "type": "electric_scooter", "fusion_lon": 0.0}, {"is_reserved": 0, "is_disabled": 0, "fusion_lat": 0.0, "name": "537e846bdfcefa06d6a5498dcff7ce9b", "lat": 38.909302833333335, "lon": -76.99894366666666, "bike_id": "537e846bdfcefa06d6a5498dcff7ce9b", "rental_uris": {"ios": "https://dc.lft.to/lastmile_qr_scan", "android": "https://dc.lft.to/lastmile_qr_scan"}, "type": "electric_scooter", "fusion_lon": 0.0}, {"is_reserved": 0, "is_disabled": 0, "fusion_lat": 0.0, "name": "11b77ac027cbc82573e74342a508d986", "lat": 38.90255366666667, "lon": -77.03029783333334, "bike_id": "11b77ac027cbc82573e74342a508d986", "rental_uris": {"ios": "https://dc.lft.to/lastmile_qr_scan", "android": "https://dc.lft.to/lastmile_qr_scan"}, "type": "electric_scooter", "fusion_lon": 0.0}, {"is_reserved": 0, "is_disabled": 0, "fusion_lat": 0.0, "name": "dbb961cdacd440f393e1d4b3e6e381d8", "lat": 38.91932666666666, "lon": -77.03481533333333, "bike_id": "dbb961cdacd440f393e1d4b3e6e381d8", "rental_uris": {"ios": "https://dc.lft.to/lastmile_qr_scan", "android": "https://dc.lft.to/lastmile_qr_scan"}, "type": "electric_scooter", "fusion_lon": 0.0}, {"is_reserved": 0, "is_disabled": 0, "fusion_lat": 0.0, "name": "46c92840b8c0b3a340b753aa65b38fdb", "lat": 38.92170733333333, "lon": -77.02113083333333, "bike_id": "46c92840b8c0b3a340b753aa65b38fdb", "rental_uris": {"ios": "https://dc.lft.to/lastmile_qr_scan", "android": "https://dc.lft.to/lastmile_qr_scan"}, "type": "electric_scooter", "fusion_lon": 0.0}, {"is_reserved": 0, "is_disabled": 0, "fusion_lat": 0.0, "name": "7fb2fd6b7ea0d0786e9be00050c7f85b", "lat": 38.90664983333333, "lon": -77.031273, "bike_id": "7fb2fd6b7ea0d0786e9be00050c7f85b", "rental_uris": {"ios": "https://dc.lft.to/lastmile_qr_scan", "android": "https://dc.lft.to/lastmile_qr_scan"}, "type": "electric_scooter", "fusion_lon": 0.0}, {"is_reserved": 0, "is_disabled": 0, "fusion_lat": 0.0, "name": "b8d8feec08bae749d8f8576acdca74d8", "lat": 38.9209295, "lon": -77.03171166666667, "bike_id": "b8d8feec08bae749d8f8576acdca74d8", "rental_uris": {"ios": "https://dc.lft.to/lastmile_qr_scan", "android": "https://dc.lft.to/lastmile_qr_scan"}, "type": "electric_scooter", "fusion_lon": 0.0}, {"is_reserved": 0, "is_disabled": 0, "fusion_lat": 0.0, "name": "a790c4d8169b4589b4cb669b9432eed9", "lat": 38.932607, "lon": -76.98881683333333, "bike_id": "a790c4d8169b4589b4cb669b9432eed9", "rental_uris": {"ios": "https://dc.lft.to/lastmile_qr_scan", "android": "https://dc.lft.to/lastmile_qr_scan"}, "type": "electric_scooter", "fusion_lon": 0.0}, {"is_reserved": 0, "is_disabled": 0, "fusion_lat": 0.0, "name": "a52bda41a5800120960b3260cb3bfb3a", "lat": 38.92017666666667, "lon": -77.0419265, "bike_id": "a52bda41a5800120960b3260cb3bfb3a", "rental_uris": {"ios": "https://dc.lft.to/lastmile_qr_scan", "android": "https://dc.lft.to/lastmile_qr_scan"}, "type": "electric_scooter", "fusion_lon": 0.0}, {"is_reserved": 0, "is_disabled": 0, "fusion_lat": 0.0, "name": "8824195b7ff2a7c992335d46a75fbbab", "lat": 38.9223055, "lon": -77.0283145, "bike_id": "8824195b7ff2a7c992335d46a75fbbab", "rental_uris": {"ios": "https://dc.lft.to/lastmile_qr_scan", "android": "https://dc.lft.to/lastmile_qr_scan"}, "type": "electric_scooter", "fusion_lon": 0.0}, {"is_reserved": 0, "is_disabled": 0, "fusion_lat": 0.0, "name": "6a68ff0dd8cd3ac22b2a0c20548b5d81", "lat": 38.88770616666667, "lon": -76.977336, "bike_id": "6a68ff0dd8cd3ac22b2a0c20548b5d81", "rental_uris": {"ios": "https://dc.lft.to/lastmile_qr_scan", "android": "https://dc.lft.to/lastmile_qr_scan"}, "type": "electric_scooter", "fusion_lon": 0.0}, {"is_reserved": 0, "is_disabled": 0, "fusion_lat": 0.0, "name": "aac22254edff6db6c74c28dcb2299519", "lat": 38.96727666666666, "lon": -77.089182, "bike_id": "aac22254edff6db6c74c28dcb2299519", "rental_uris": {"ios": "https://dc.lft.to/lastmile_qr_scan", "android": "https://dc.lft.to/lastmile_qr_scan"}, "type": "electric_bike", "fusion_lon": 0.0}, {"is_reserved": 0, "is_disabled": 0, "fusion_lat": 0.0, "name": "e8fa6c1a25bac5add1d03fcbbdab3680", "lat": 38.91754783333333, "lon": -77.02812483333334, "bike_id": "e8fa6c1a25bac5add1d03fcbbdab3680", "rental_uris": {"ios": "https://dc.lft.to/lastmile_qr_scan", "android": "https://dc.lft.to/lastmile_qr_scan"}, "type": "electric_scooter", "fusion_lon": 0.0}, {"is_reserved": 0, "is_disabled": 0, "fusion_lat": 0.0, "name": "ce070f35046f3bb2a6b34def13c2cb4b", "lat": 38.8958105, "lon": -77.029892, "bike_id": "ce070f35046f3bb2a6b34def13c2cb4b", "rental_uris": {"ios": "https://dc.lft.to/lastmile_qr_scan", "android": "https://dc.lft.to/lastmile_qr_scan"}, "type": "electric_scooter", "fusion_lon": 0.0}, {"is_reserved": 0, "is_disabled": 0, "fusion_lat": 0.0, "name": "9829bbea7bfc01fbf6afd0c178fe2ad9", "lat": 38.9333005, "lon": -77.02913633333333, "bike_id": "9829bbea7bfc01fbf6afd0c178fe2ad9", "rental_uris": {"ios": "https://dc.lft.to/lastmile_qr_scan", "android": "https://dc.lft.to/lastmile_qr_scan"}, "type": "electric_scooter", "fusion_lon": 0.0}, {"is_reserved": 0, "is_disabled": 0, "fusion_lat": 0.0, "name": "5e6138fb07beb5e09424ee5690255b64", "lat": 38.989167333333334, "lon": -77.10129216666667, "bike_id": "5e6138fb07beb5e09424ee5690255b64", "rental_uris": {"ios": "https://dc.lft.to/lastmile_qr_scan", "android": "https://dc.lft.to/lastmile_qr_scan"}, "type": "electric_bike", "fusion_lon": 0.0}, {"is_reserved": 0, "is_disabled": 0, "fusion_lat": 0.0, "name": "4b0d84dcdf1748cf6ce1f9519d9102c6", "lat": 38.920579000000004, "lon": -77.02300866666667, "bike_id": "4b0d84dcdf1748cf6ce1f9519d9102c6", "rental_uris": {"ios": "https://dc.lft.to/lastmile_qr_scan", "android": "https://dc.lft.to/lastmile_qr_scan"}, "type": "electric_scooter", "fusion_lon": 0.0}, {"is_reserved": 0, "is_disabled": 0, "fusion_lat": 0.0, "name": "5373b6ea74bde89eaeb2414b1cb35e08", "lat": 38.8637, "lon": -76.9700655, "bike_id": "5373b6ea74bde89eaeb2414b1cb35e08", "rental_uris": {"ios": "https://dc.lft.to/lastmile_qr_scan", "android": "https://dc.lft.to/lastmile_qr_scan"}, "type": "electric_bike", "fusion_lon": 0.0}, {"is_reserved": 0, "is_disabled": 0, "fusion_lat": 0.0, "name": "1e0b075a1958fab2254ca0a09bab9c0c", "lat": 38.88765183333334, "lon": -77.000466, "bike_id": "1e0b075a1958fab2254ca0a09bab9c0c", "rental_uris": {"ios": "https://dc.lft.to/lastmile_qr_scan", "android": "https://dc.lft.to/lastmile_qr_scan"}, "type": "electric_scooter", "fusion_lon": 0.0}, {"is_reserved": 0, "is_disabled": 0, "fusion_lat": 0.0, "name": "121d7cfa06b657e5721c99c8efbe96a5", "lat": 38.918752, "lon": -76.96431466666667, "bike_id": "121d7cfa06b657e5721c99c8efbe96a5", "rental_uris": {"ios": "https://dc.lft.to/lastmile_qr_scan", "android": "https://dc.lft.to/lastmile_qr_scan"}, "type": "electric_bike", "fusion_lon": 0.0}, {"is_reserved": 0, "is_disabled": 0, "fusion_lat": 0.0, "name": "542b0102b8e2a7144d69cfa587d45e56", "lat": 38.976069, "lon": -77.02658, "bike_id": "542b0102b8e2a7144d69cfa587d45e56", "rental_uris": {"ios": "https://dc.lft.to/lastmile_qr_scan", "android": "https://dc.lft.to/lastmile_qr_scan"}, "type": "electric_scooter", "fusion_lon": 0.0}, {"is_reserved": 0, "is_disabled": 0, "fusion_lat": 0.0, "name": "406b83584f8557a7095fc1c5e1abad5f", "lat": 38.915725, "lon": -77.02002466666667, "bike_id": "406b83584f8557a7095fc1c5e1abad5f", "rental_uris": {"ios": "https://dc.lft.to/lastmile_qr_scan", "android": "https://dc.lft.to/lastmile_qr_scan"}, "type": "electric_scooter", "fusion_lon": 0.0}, {"is_reserved": 0, "is_disabled": 0, "fusion_lat": 0.0, "name": "e46d988f87674a0312201f515c8fc315", "lat": 38.87545216666667, "lon": -77.005397, "bike_id": "e46d988f87674a0312201f515c8fc315", "rental_uris": {"ios": "https://dc.lft.to/lastmile_qr_scan", "android": "https://dc.lft.to/lastmile_qr_scan"}, "type": "electric_scooter", "fusion_lon": 0.0}, {"is_reserved": 0, "is_disabled": 0, "fusion_lat": 0.0, "name": "a5ea92fa6052edbbe70270b81070fe33", "lat": 38.92670433333333, "lon": -77.01470216666667, "bike_id": "a5ea92fa6052edbbe70270b81070fe33", "rental_uris": {"ios": "https://dc.lft.to/lastmile_qr_scan", "android": "https://dc.lft.to/lastmile_qr_scan"}, "type": "electric_scooter", "fusion_lon": 0.0}, {"is_reserved": 0, "is_disabled": 0, "fusion_lat": 0.0, "name": "19e44f443220e890bee2e2e7acbccd02", "lat": 38.9180755, "lon": -77.02453916666667, "bike_id": "19e44f443220e890bee2e2e7acbccd02", "rental_uris": {"ios": "https://dc.lft.to/lastmile_qr_scan", "android": "https://dc.lft.to/lastmile_qr_scan"}, "type": "electric_scooter", "fusion_lon": 0.0}, {"is_reserved": 0, "is_disabled": 0, "fusion_lat": 0.0, "name": "6e0ae207587e0649eb56304d2debb83b", "lat": 38.9085335, "lon": -76.99798783333334, "bike_id": "6e0ae207587e0649eb56304d2debb83b", "rental_uris": {"ios": "https://dc.lft.to/lastmile_qr_scan", "android": "https://dc.lft.to/lastmile_qr_scan"}, "type": "electric_scooter", "fusion_lon": 0.0}, {"is_reserved": 0, "is_disabled": 0, "fusion_lat": 0.0, "name": "b3771e43cd3af1e9066eca31637d4abc", "lat": 38.926514833333336, "lon": -77.0243765, "bike_id": "b3771e43cd3af1e9066eca31637d4abc", "rental_uris": {"ios": "https://dc.lft.to/lastmile_qr_scan", "android": "https://dc.lft.to/lastmile_qr_scan"}, "type": "electric_scooter", "fusion_lon": 0.0}, {"is_reserved": 0, "is_disabled": 0, "fusion_lat": 0.0, "name": "cce53981343354fdda0e1363e1f30bcf", "lat": 38.9009465, "lon": -77.0450645, "bike_id": "cce53981343354fdda0e1363e1f30bcf", "rental_uris": {"ios": "https://dc.lft.to/lastmile_qr_scan", "android": "https://dc.lft.to/lastmile_qr_scan"}, "type": "electric_scooter", "fusion_lon": 0.0}, {"is_reserved": 0, "is_disabled": 0, "fusion_lat": 0.0, "name": "80a4aa5accc38c97775470820c4baeae", "lat": 38.81906633333333, "lon": -77.126472, "bike_id": "80a4aa5accc38c97775470820c4baeae", "rental_uris": {"ios": "https://dc.lft.to/lastmile_qr_scan", "android": "https://dc.lft.to/lastmile_qr_scan"}, "type": "electric_bike", "fusion_lon": 0.0}, {"is_reserved": 0, "is_disabled": 0, "fusion_lat": 0.0, "name": "c6f3601e5c02c7efd9dd457f7606193c", "lat": 38.9395465, "lon": -77.072414, "bike_id": "c6f3601e5c02c7efd9dd457f7606193c", "rental_uris": {"ios": "https://dc.lft.to/lastmile_qr_scan", "android": "https://dc.lft.to/lastmile_qr_scan"}, "type": "electric_scooter", "fusion_lon": 0.0}, {"is_reserved": 0, "is_disabled": 0, "fusion_lat": 0.0, "name": "006707efda620b1373cf93fb86c2c711", "lat": 38.899591, "lon": -77.02594566666667, "bike_id": "006707efda620b1373cf93fb86c2c711", "rental_uris": {"ios": "https://dc.lft.to/lastmile_qr_scan", "android": "https://dc.lft.to/lastmile_qr_scan"}, "type": "electric_scooter", "fusion_lon": 0.0}, {"is_reserved": 0, "is_disabled": 0, "fusion_lat": 0.0, "name": "3e1f41878f6b01ff1a813aee7beef5c8", "lat": 38.92118416666667, "lon": -77.01214516666667, "bike_id": "3e1f41878f6b01ff1a813aee7beef5c8", "rental_uris": {"ios": "https://dc.lft.to/lastmile_qr_scan", "android": "https://dc.lft.to/lastmile_qr_scan"}, "type": "electric_scooter", "fusion_lon": 0.0},