{"data": {"bikes": [{"fusion_lon": 0.0, "lat": 38.91577183333333, "lon": -77.03185233333333, "bike_id": "3f7f6f56b426e46bff72f94a97fb8be3", "rental_uris": {"android": "https://dc.lft.to/lastmile_qr_scan", "ios": "https://dc.lft.to/lastmile_qr_scan"}, "fusion_lat": 0.0, "name": "3f7f6f56b426e46bff72f94a97fb8be3", "is_reserved": 0, "is_disabled": 0, "type": "electric_scooter"}, {"fusion_lon": 0.0, "lat": 38.90034816666667, "lon": -76.97230766666667, "bike_id": "8bf4fcfa60000ea6b9e1d3f38e4d7a7f", "rental_uris": {"android": "https://dc.lft.to/lastmile_qr_scan", "ios": "https://dc.lft.to/lastmile_qr_scan"}, "fusion_lat": 0.0, "name": "8bf4fcfa60000ea6b9e1d3f38e4d7a7f", "is_reserved": 0, "is_disabled": 0, "type": "electric_bike"}, {"fusion_lon": 0.0, "lat": 38.90027516666667, "lon": -76.9876165, "bike_id": "5a54c5ca7d45de8dbd5db1f6de12601e", "rental_uris": {"android": "https://dc.lft.to/lastmile_qr_scan", "ios": "https://dc.lft.to/lastmile_qr_scan"}, "fusion_lat": 0.0, "name": "5a54c5ca7d45de8dbd5db1f6de12601e", "is_reserved": 0, "is_disabled": 0, "type": "electric_scooter"}, {"fusion_lon": 0.0, "lat": 38.906171666666665, "lon": -77.1289335, "bike_id": "283b845afddea31e2cff7b8b66b45b81", "rental_uris": {"android": "https://dc.lft.to/lastmile_qr_scan", "ios": "https://dc.lft.to/lastmile_qr_scan"}, "fusion_lat": 0.0, "name": "283b845afddea31e2cff7b8b66b45b81", "is_reserved": 0, "is_disabled": 0, "type": "electric_bike"}, {"fusion_lon": 0.0, "lat": 38.88400583333333, "lon": -76.9606205, "bike_id": "a9ef5c296d13d5906a9f58fbd042965f", "rental_uris": {"android": "https://dc.lft.to/lastmile_qr_scan", "ios": "https://dc.lft.to/lastmile_qr_scan"}, "fusion_lat": 0.0, "name": "a9ef5c296d13d5906a9f58fbd042965f", "is_reserved": 0, "is_disabled": 0, "type": "electric_bike"}, {"fusion_lon": 0.0, "lat": 38.89609016666667, "lon": -77.04517183333333, "bike_id": "c0a4446974050173ab427c4591e28355", "rental_uris": {"android": "https://dc.lft.to/lastmile_qr_scan", "ios": "https://dc.lft.to/lastmile_qr_scan"}, "fusion_lat": 0.0, "name": "c0a4446974050173ab427c4591e28355", "is_reserved": 0, "is_disabled": 0, "type": "electric_scooter"}, {"fusion_lon": 0.0, "lat": 38.926315333333335, "lon": -77.037137, "bike_id": "1015f8e5855464b990351368c735b7a9", "rental_uris": {"android": "https://dc.lft.to/lastmile_qr_scan", "ios": "https://dc.lft.to/lastmile_qr_scan"}, "fusion_lat": 0.0, "name": "1015f8e5855464b990351368c735b7a9", "is_reserved": 0, "is_disabled": 0, "type": "electric_scooter"}, {"fusion_lon": 0.0, "lat": 38.8804935, "lon": -77.0117585, "bike_id": "fc243531f4e96760259f03db52347096", "rental_uris": {"android": "https://dc.lft.to/lastmile_qr_scan", "ios": "https://dc.lft.to/lastmile_qr_scan"}, "fusion_lat": 0.0, "name": "fc243531f4e96760259f03db52347096", "is_reserved": 0, "is_disabled": 0, "type": "electric_scooter"}, {"fusion_lon": 0.0, "lat": 38.895784666666664, "lon": -77.0318635, "bike_id": "6b0821ac8b91e69d5c9e2eaae80becd4", "rental_uris": {"android": "https://dc.lft.to/lastmile_qr_scan", "ios": "https://dc.lft.to/lastmile_qr_scan"}, "fusion_lat": 0.0, "name": "6b0821ac8b91e69d5c9e2eaae80becd4", "is_reserved": 0, "is_disabled": 0, "type": "electric_scooter"}, {"fusion_lon": 0.0, "lat": 38.90789316666667, "lon": -77.0449255, "bike_id": "b903b5beabd32f5cf15ef28e45295df2", "rental_uris": {"android": "https://dc.lft.to/lastmile_qr_scan", "ios": "https://dc.lft.to/lastmile_qr_scan"}, "fusion_lat": 0.0, "name": "b903b5beabd32f5cf15ef28e45295df2", "is_reserved": 0, "is_disabled": 0, "type": "electric_scooter"}, {"fusion_lon": 0.0, "lat": 38.8849795, "lon": -77.02195166666667, "bike_id": "4bf4c30044310353d493c86218cdd18c", "rental_uris": {"android": "https://dc.lft.to/lastmile_qr_scan", "ios": "https://dc.lft.to/lastmile_qr_scan"}, "fusion_lat": 0.0, "name": "4bf4c30044310353d493c86218cdd18c", "is_reserved": 0, "is_disabled": 0, "type": "electric_scooter"}, {"fusion_lon": 0.0, "lat": 38.922417833333334, "lon": -77.01950016666666, "bike_id": "2e66df8cd71d4699862fe9cd70cb7a0a", "rental_uris": {"android": "https://dc.lft.to/lastmile_qr_scan", "ios": "https://dc.lft.to/lastmile_qr_scan"}, "fusion_lat": 0.0, "name": "2e66df8cd71d4699862fe9cd70cb7a0a", "is_reserved": 0, "is_disabled": 0, "type": "electric_scooter"}, {"fusion_lon": 0.0, "lat": 38.89731116666667, "lon": -77.02889866666666, "bike_id": "3b7b4c8f577a1155d133477cf7d0b230", "rental_uris": {"android": "https://dc.lft.to/lastmile_qr_scan", "ios": "https://dc.lft.to/lastmile_qr_scan"}, "fusion_lat": 0.0, "name": "3b7b4c8f577a1155d133477cf7d0b230", "is_reserved": 0, "is_disabled": 0, "type": "electric_scooter"}, {"fusion_lon": 0.0, "lat": 38.919954833333335, "lon": -77.03886266666666, "bike_id": "3636d7282179bc0a32a2e76bbbf9e0c6", "rental_uris": {"android": "https://dc.lft.to/lastmile_qr_scan", "ios": "https://dc.lft.to/lastmile_qr_scan"}, "fusion_lat": 0.0, "name": "3636d7282179bc0a32a2e76bbbf9e0c6", "is_reserved": 0, "is_disabled": 0, "type": "electric_scooter"}, {"fusion_lon": 0.0, "lat": 38.957358166666666, "lon": -77.02750483333334, "bike_id": "f6dc5f48b0c5b4bf16750bb5bfb54bce", "rental_uris": {"android": "https://dc.lft.to/lastmile_qr_scan", "ios": "https://dc.lft.to/lastmile_qr_scan"}, "fusion_lat": 0.0, "name": "f6dc5f48b0c5b4bf16750bb5bfb54bce", "is_reserved": 0, "is_disabled": 0, "type": "electric_scooter"}, {"fusion_lon": 0.0, "lat": 38.903147, "lon": -77.023866, "bike_id": "082e9b33a341b24310724faf1de0a59c", "rental_uris": {"android": "https://dc.lft.to/lastmile_qr_scan", "ios": "https://dc.lft.to/lastmile_qr_scan"}, "fusion_lat": 0.0, "name": "082e9b33a341b24310724faf1de0a59c", "is_reserved": 0, "is_disabled": 0, "type": "electric_scooter"}, {"fusion_lon": 0.0, "lat": 38.924985, "lon": -77.02158366666667, "bike_id": "84378f2f3adbd49552e566d18055a4eb", "rental_uris": {"android": "https://dc.lft.to/lastmile_qr_scan", "ios": "https://dc.lft.to/lastmile_qr_scan"}, "fusion_lat": 0.0, "name": "84378f2f3adbd49552e566d18055a4eb", "is_reserved": 0, "is_disabled": 0, "type": "electric_scooter"}, {"fusion_lon": 0.0, "lat": 38.8921705, "lon": -77.041517, "bike_id": "e06d0f27917b86aa759520c949dc47e4", "rental_uris": {"android": "https://dc.lft.to/lastmile_qr_scan", "ios": "https://dc.lft.to/lastmile_qr_scan"}, "fusion_lat": 0.0, "name": "e06d0f27917b86aa759520c949dc47e4", "is_reserved": 0, "is_disabled": 0, "type": "electric_scooter"}, {"fusion_lon": 0.0, "lat": 38.905651166666665, "lon": -77.03201583333333, "bike_id": "e0cc7a45aef3087690df64177e16c842", "rental_uris": {"android": "https://dc.lft.to/lastmile_qr_scan", "ios": "https://dc.lft.to/lastmile_qr_scan"}, "fusion_lat": 0.0, "name": "e0cc7a45aef3087690df64177e16c842", "is_reserved": 0, "is_disabled": 0, "type": "electric_scooter"}, {"fusion_lon": 0.0, "lat": 38.89633716666667, "lon": -76.9296465, "bike_id": "d0f6bd1f2c15055e148d2160d06f43b8", "rental_uris": {"android": "https://dc.lft.to/lastmile_qr_scan", "ios": "https://dc.lft.to/lastmile_qr_scan"}, "fusion_lat": 0.0, "name": "d0f6bd1f2c15055e148d2160d06f43b8", "is_reserved": 0, "is_disabled": 0, "type": "electric_scooter"}, {"fusion_lon": 0.0, "lat": 38.9086255, "lon": -77.07095183333334, "bike_id": "0ff6a833f9e9cc4245947fd4954c7786", "rental_uris": {"android": "https://dc.lft.to/lastmile_qr_scan", "ios": "https://dc.lft.to/lastmile_qr_scan"}, "fusion_lat": 0.0, "name": "0ff6a833f9e9cc4245947fd4954c7786", "is_reserved": 0, "is_disabled": 0, "type": "electric_scooter"}, {"fusion_lon": 0.0, "lat": 38.828853333333335, "lon": -77.01212416666667, "bike_id": "4ecc43fba3430c293fe08a74fac8d149", "rental_uris": {"android": "https://dc.lft.to/lastmile_qr_scan", "ios": "https://dc.lft.to/lastmile_qr_scan"}, "fusion_lat": 0.0, "name": "4ecc43fba3430c293fe08a74fac8d149", "is_reserved": 0, "is_disabled": 0, "type": "electric_bike"}, {"fusion_lon": 0.0, "lat": 38.902346, "lon": -77.00201583333333, "bike_id": "fe9464e6004500632d8034d9e1f2929f", "rental_uris": {"android": "https://dc.lft.to/lastmile_qr_scan", "ios": "https://dc.lft.to/lastmile_qr_scan"}, "fusion_lat": 0.0, "name": "fe9464e6004500632d8034d9e1f2929f", "is_reserved": 0, "is_disabled": 0, "type": "electric_scooter"}, {"fusion_lon": 0.0, "lat": 38.89622766666667, "lon": -77.0502045, "bike_id": "969fb8bb9eeaef15c3a9ed4bcf7119dc", "rental_uris": {"android": "https://dc.lft.to/lastmile_qr_scan", "ios": "https://dc.lft.to/lastmile_qr_scan"}, "fusion_lat": 0.0, "name": "969fb8bb9eeaef15c3a9ed4bcf7119dc", "is_reserved": 0, "is_disabled": 0, "type": "electric_scooter"}, {"fusion_lon": 0.0, "lat": 38.92166433333333, "lon": -77.02100766666666, "bike_id": "99e12d5c4d54fecce153b7ad3dce5805", "rental_uris": {"android": "https://dc.lft.to/lastmile_qr_scan", "ios": "https://dc.lft.to/lastmile_qr_scan"}, "fusion_lat": 0.0, "name": "99e12d5c4d54fecce153b7ad3dce5805", "is_reserved": 0, "is_disabled": 0, "type": "electric_scooter"}, {"fusion_lon": 0.0, "lat": 38.905349, "lon": -77.04197533333334, "bike_id": "b6858e3c4addd0da301c79fedd95a68d", "rental_uris": {"android": "https://dc.lft.to/lastmile_qr_scan", "ios": "https://dc.lft.to/lastmile_qr_scan"}, "fusion_lat": 0.0, "name": "b6858e3c4addd0da301c79fedd95a68d", "is_reserved": 0, "is_disabled": 0, "type": "electric_scooter"}, {"fusion_lon": 0.0, "lat": 38.907186333333335, "lon": -77.033668, "bike_id": "c80410c7969f28ebb4ec7b2f08f652e2", "rental_uris": {"android": "https://dc.lft.to/lastmile_qr_scan", "ios": "https://dc.lft.to/lastmile_qr_scan"}, "fusion_lat": 0.0, "name": "c80410c7969f28ebb4ec7b2f08f652e2", "is_reserved": 0, "is_disabled": 0, "type": "electric_scooter"}, {"fusion_lon": 0.0, "lat": 38.92350666666667, "lon": -77.05427233333333, "bike_id": "d275bba0a333b8833506dc1df8a2ffe5", "rental_uris": {"android": "https://dc.lft.to/lastmile_qr_scan", "ios": "https://dc.lft.to/lastmile_qr_scan"}, "fusion_lat": 0.0, "name": "d275bba0a333b8833506dc1df8a2ffe5", "is_reserved": 0, "is_disabled": 0, "type": "electric_scooter"}, {"fusion_lon": 0.0, "lat": 38.91096483333333, "lon": -77.003558, "bike_id": "6edc2f136703d3a536d93333acce6f97", "rental_uris": {"android": "https://dc.lft.to/lastmile_qr_scan", "ios": "https://dc.lft.to/lastmile_qr_scan"}, "fusion_lat": 0.0, "name": "6edc2f136703d3a536d93333acce6f97", "is_reserved": 0, "is_disabled": 0, "type": "electric_scooter"}, {"fusion_lon": 0.0, "lat": 38.92294166666667, "lon": -77.042177, "bike_id": "3df639f3f76729c4017f3a42e1c90bef", "rental_uris": {"android": "https://dc.lft.to/lastmile_qr_scan", "ios": "https://dc.lft.to/lastmile_qr_scan"}, "fusion_lat": 0.0, "name": "3df639f3f76729c4017f3a42e1c90bef", "is_reserved": 0, "is_disabled": 0, "type": "electric_scooter"}, {"fusion_lon": 0.0, "lat": 38.89725083333333, "lon": -77.0470785, "bike_id": "3876612dfe2b11cda1a30cad64ea6181", "rental_uris": {"android": "https://dc.lft.to/lastmile_qr_scan", "ios": "https://dc.lft.to/lastmile_qr_scan"}, "fusion_lat": 0.0, "name": "3876612dfe2b11cda1a30cad64ea6181", "is_reserved": 0, "is_disabled": 0, "type": "electric_scooter"}, {"fusion_lon": 0.0, "lat": 38.903075666666666, "lon": -77.0320535, "bike_id": "2d269725eed687e05d85e3fdc65638e3", "rental_uris": {"android": "https://dc.lft.to/lastmile_qr_scan", "ios": "https://dc.lft.to/lastmile_qr_scan"}, "fusion_lat": 0.0, "name": "2d269725eed687e05d85e3fdc65638e3", "is_reserved": 0, "is_disabled": 0, "type": "electric_scooter"}, {"fusion_lon": 0.0, "lat": 38.9267875, "lon": -77.02780233333333, "bike_id": "7e699b155fda80295a3baba46c94a57b", "rental_uris": {"android": "https://dc.lft.to/lastmile_qr_scan", "ios": "https://dc.lft.to/lastmile_qr_scan"}, "fusion_lat": 0.0, "name": "7e699b155fda80295a3baba46c94a57b", "is_reserved": 0, "is_disabled": 0, "type": "electric_scooter"}, {"fusion_lon": 0.0, "lat": 38.93855466666667, "lon": -77.02493116666666, "bike_id": "d25264e193439b51591291fb73b61288", "rental_uris": {"android": "https://dc.lft.to/lastmile_qr_scan", "ios": "https://dc.lft.to/lastmile_qr_scan"}, "fusion_lat": 0.0, "name": "d25264e193439b51591291fb73b61288", "is_reserved": 0, "is_disabled": 0, "type": "electric_bike"}, {"fusion_lon": 0.0, "lat": 38.90837883333333, "lon": -77.075319, "bike_id": "51f941fdc03f134db4272ac3d3531f69", "rental_uris": {"android": "https://dc.lft.to/lastmile_qr_scan", "ios": "https://dc.lft.to/lastmile_qr_scan"}, "fusion_lat": 0.0, "name": "51f941fdc03f134db4272ac3d3531f69", "is_reserved": 0, "is_disabled": 0, "type": "electric_scooter"}, {"fusion_lon": 0.0, "lat": 38.89901666666667, "lon": -77.02973466666667, "bike_id": "dd65bd107ba14c81273c6d0e5f58f333", "rental_uris": {"android": "https://dc.lft.to/lastmile_qr_scan", "ios": "https://dc.lft.to/lastmile_qr_scan"}, "fusion_lat": 0.0, "name": "dd65bd107ba14c81273c6d0e5f58f333", "is_reserved": 0, "is_disabled": 0, "type": "electric_scooter"}, {"fusion_lon": 0.0, "lat": 38.924684666666664, "lon": -77.03933916666666, "bike_id": "52578da7e95341953d208dbdec59ad1a", "rental_uris": {"android": "https://dc.lft.to/lastmile_qr_scan", "ios": "https://dc.lft.to/lastmile_qr_scan"}, "fusion_lat": 0.0, "name": "52578da7e95341953d208dbdec59ad1a", "is_reserved": 0, "is_disabled": 0, "type": "electric_scooter"}, {"fusion_lon": 0.0, "lat": 38.898822, "lon": -76.9317735, "bike_id": "04ded376774273f66333ac9918d14d19", "rental_uris": {"android": "https://dc.lft.to/lastmile_qr_scan", "ios": "https://dc.lft.to/lastmile_qr_scan"}, "fusion_lat": 0.0, "name": "04ded376774273f66333ac9918d14d19", "is_reserved": 0, "is_disabled": 0, "type": "electric_scooter"}, {"fusion_lon": 0.0, "lat": 38.90781583333333, "lon": -77.0376065, "bike_id": "eb68bafd52ef0d8cb80d4de49813a8a1", "rental_uris": {"android": "https://dc.lft.to/lastmile_qr_scan", "ios": "https://dc.lft.to/lastmile_qr_scan"}, "fusion_lat": 0.0, "name": "eb68bafd52ef0d8cb80d4de49813a8a1", "is_reserved": 0, "is_disabled": 0, "type": "electric_scooter"}, {"fusion_lon": 0.0, "lat": 38.935937833333334, "lon": -77.058409, "bike_id": "ec87718695fa64a84d5cbedcbc9a53cf", "rental_uris": {"android": "https://dc.lft.to/lastmile_qr_scan", "ios": "https://dc.lft.to/lastmile_qr_scan"}, "fusion_lat": 0.0, "name": "ec87718695fa64a84d5cbedcbc9a53cf", "is_reserved": 0, "is_disabled": 0, "type": "electric_scooter"}, {"fusion_lon": 0.0, "lat": 38.91178, "lon": -77.03834666666667, "bike_id": "bc47f20c3e7f827dd5a577755188ea30", "rental_uris": {"android": "https://dc.lft.to/lastmile_qr_scan", "ios": "https://dc.lft.to/lastmile_qr_scan"}, "fusion_lat": 0.0, "name": "bc47f20c3e7f827dd5a577755188ea30", "is_reserved": 0, "is_disabled": 0, "type": "electric_scooter"}, {"fusion_lon": 0.0, "lat": 38.90163966666667, "lon": -76.94982766666666, "bike_id": "bbceddf932d39b747a298c5a8714e91c", "rental_uris": {"android": "https://dc.lft.to/lastmile_qr_scan", "ios": "https://dc.lft.to/lastmile_qr_scan"}, "fusion_lat": 0.0, "name": "bbceddf932d39b747a298c5a8714e91c", "is_reserved": 0, "is_disabled": 0, "type": "electric_scooter"}, {"fusion_lon": 0.0, "lat": 38.92104, "lon": -77.04393766666666, "bike_id": "f2c45223539f0d343e1a11d759950832", "rental_uris": {"android": "https://dc.lft.to/lastmile_qr_scan", "ios": "https://dc.lft.to/lastmile_qr_scan"}, "fusion_lat": 0.0, "name": "f2c45223539f0d343e1a11d759950832", "is_reserved": 0, "is_disabled": 0, "type": "electric_scooter"}, {"fusion_lon": 0.0, "lat": 38.9222335, "lon": -77.0282945, "bike_id": "7c0636caaac0d5a4d3392ddfd9807805", "rental_uris": {"android": "https://dc.lft.to/lastmile_qr_scan", "ios": "https://dc.lft.to/lastmile_qr_scan"}, "fusion_lat": 0.0, "name": "7c0636caaac0d5a4d3392ddfd9807805", "is_reserved": 0, "is_disabled": 0, "type": "electric_scooter"}, {"fusion_lon": 0.0, "lat": 38.91685483333333, "lon": -77.02891333333334, "bike_id": "e71e5711c25cd240fad41c51dde07979", "rental_uris": {"android": "https://dc.lft.to/lastmile_qr_scan", "ios": "https://dc.lft.to/lastmile_qr_scan"}, "fusion_lat": 0.0, "name": "e71e5711c25cd240fad41c51dde07979", "is_reserved": 0, "is_disabled": 0, "type": "electric_scooter"}, {"fusion_lon": 0.0, "lat": 38.92643066666667, "lon": -77.0903045, "bike_id": "b3bbdc89634feda3df915519fa62d29b", "rental_uris": {"android": "https://dc.lft.to/lastmile_qr_scan", "ios": "https://dc.lft.to/lastmile_qr_scan"}, "fusion_lat": 0.0, "name": "b3bbdc89634feda3df915519fa62d29b", "is_reserved": 0, "is_disabled": 0, "type": "electric_bike"}, {"fusion_lon": 0.0, "lat": 38.9112515, "lon": -77.02194716666666, "bike_id": "9b2612d3c6aaa98c7b99c1adfd35065a", "rental_uris": {"android": "https://dc.lft.to/lastmile_qr_scan", "ios": "https://dc.lft.to/lastmile_qr_scan"}, "fusion_lat": 0.0, "name": "9b2612d3c6aaa98c7b99c1adfd35065a", "is_reserved": 0, "is_disabled": 0, "type": "electric_scooter"}, {"fusion_lon": 0.0, "lat": 38.884580666666665, "lon": -76.92622433333334, "bike_id": "83e7bd12dc67333df966ccc505113f53", "rental_uris": {"android": "https://dc.lft.to/lastmile_qr_scan", "ios": "https://dc.lft.to/lastmile_qr_scan"}, "fusion_lat": 0.0, "name": "83e7bd12dc67333df966ccc505113f53", "is_reserved": 0, "is_disabled": 0, "type": "electric_scooter"}, {"fusion_lon": 0.0, "lat": 38.9450265, "lon": -77.00676533333333, "bike_id": "b5bc2337e5807221db21925d1525913f", "rental_uris": {"android": "https://dc.lft.to/lastmile_qr_scan", "ios": "https://dc.lft.to/lastmile_qr_scan"}, "fusion_lat": 0.0, "name": "b5bc2337e5807221db21925d1525913f", "is_reserved": 0, "is_disabled": 0, "type": "electric_bike"}, {"fusion_lon": 0.0, "lat": 38.90183016666667, "lon": -77.012483, "bike_id": "0166977cc1611ef1a81820d0882c6199", "rental_uris": {"android": "https://dc.lft.to/lastmile_qr_scan", "ios": "https://dc.lft.to/lastmile_qr_scan"}, "fusion_lat": 0.0, "name": "0166977cc1611ef1a81820d0882c6199", "is_reserved": 0, "is_disabled": 0, "type": "electric_scooter"}, {"fusion_lon": 0.0, "lat": 38.93687366666666, "lon": -76.99061516666667, "bike_id": "e5e773a995c0c58a24531a3e3b1f48f1", "rental_uris": {"android": "https://dc.lft.to/lastmile_qr_scan", "ios": "https://dc.lft.to/lastmile_qr_scan"}, "fusion_lat": 0.0, "name": "e5e773a995c0c58a24531a3e3b1f48f1", "is_reserved": 0, "is_disabled": 0, "type": "electric_bike"}, {"fusion_lon": 0.0, "lat": 38.807353166666665, "lon": -77.096926, "bike_id": "74e2411e007806f520d543a5dc2511fa", "rental_uris": {"android": "https://dc.lft.to/lastmile_qr_scan", "ios": "https://dc.lft.to/lastmile_qr_scan"}, "fusion_lat": 0.0, "name": "74e2411e007806f520d543a5dc2511fa", "is_reserved": 0, "is_disabled": 0, "type": "electric_bike"}, {"fusion_lon": 0.0, "lat": 38.925093, "lon": -77.025801, "bike_id": "3a29a21cfa45396743e6c5283aa8b3dc", "rental_uris": {"android": "https://dc.lft.to/lastmile_qr_scan", "ios": "https://dc.lft.to/lastmile_qr_scan"}, "fusion_lat": 0.0, "name": "3a29a21cfa45396743e6c5283aa8b3dc", "is_reserved": 0, "is_disabled": 0, "type": "electric_scooter"}, {"fusion_lon": 0.0, "lat": 38.92611216666667, "lon": -76.9820085, "bike_id": "e3446214ea8f9ed9353d6d4f02f0006e", "rental_uris": {"android": "https://dc.lft.to/lastmile_qr_scan", "ios": "https://dc.lft.to/lastmile_qr_scan"}, "fusion_lat": 0.0, "name": "e3446214ea8f9ed9353d6d4f02f0006e", "is_reserved": 0, "is_disabled": 0, "type": "electric_scooter"}, {"fusion_lon": 0.0, "lat": 38.88190433333333, "lon": -77.02862, "bike_id": "e4f12835dfa5968e433299af09b6136c", "rental_uris": {"android": "https://dc.lft.to/lastmile_qr_scan", "ios": "https://dc.lft.to/lastmile_qr_scan"}, "fusion_lat": 0.0, "name": "e4f12835dfa5968e433299af09b6136c", "is_reserved": 0, "is_disabled": 0, "type": "electric_scooter"}, {"fusion_lon": 0.0, "lat": 38.9419265, "lon": -77.02480833333334, "bike_id": "36d4a0cbf9ee84f6a11bf28c9c491783", "rental_uris": {"android": "https://dc.lft.to/lastmile_qr_scan", "ios": "https://dc.lft.to/lastmile_qr_scan"}, "fusion_lat": 0.0, "name": "36d4a0cbf9ee84f6a11bf28c9c491783", "is_reserved": 0, "is_disabled": 0, "type": "electric_scooter"}, {"fusion_lon": 0.0, "lat": 38.9047455, "lon": -77.0257025, "bike_id": "436586736f8e3c842982617f09aee879", "rental_uris": {"android": "https://dc.lft.to/lastmile_qr_scan", "ios": "https://dc.lft.to/lastmile_qr_scan"}, "fusion_lat": 0.0, "name": "436586736f8e3c842982617f09aee879", "is_reserved": 0, "is_disabled": 0, "type": "electric_scooter"}, {"fusion_lon": 0.0, "lat": 38.89427033333333, "lon": -77.019671, "bike_id": "762ee93def40c5ed8e9c14f7562e00e1", "rental_uris": {"android": "https://dc.lft.to/lastmile_qr_scan", "ios": "https://dc.lft.to/lastmile_qr_scan"}, "fusion_lat": 0.0, "name": "762ee93def40c5ed8e9c14f7562e00e1", "is_reserved": 0, "is_disabled": 0, "type": "electric_scooter"}, {"fusion_lon": 0.0, "lat": 38.924052, "lon": -77.02018516666666, "bike_id": "c76820cf7fce589de1e123bbf063ded9", "rental_uris": {"android": "https://dc.lft.to/lastmile_qr_scan", "ios": "https://dc.lft.to/lastmile_qr_scan"}, "fusion_lat": 0.0, "name": "c76820cf7fce589de1e123bbf063ded9", "is_reserved": 0, "is_disabled": 0, "type": "electric_scooter"}, {"fusion_lon": 0.0, "lat": 38.8882115, "lon": -76.977011, "bike_id": "b35d147bf8d643fce4cb9eedf6cab7c5", "rental_uris": {"android": "https://dc.lft.to/lastmile_qr_scan", "ios": "https://dc.lft.to/lastmile_qr_scan"}, "fusion_lat": 0.0, "name": "b35d147bf8d643fce4cb9eedf6cab7c5", "is_reserved": 0, "is_disabled": 0, "type": "electric_scooter"}, {"fusion_lon": 0.0, "lat": 38.927131333333335, "lon": -77.0600195, "bike_id": "0d50cb7c9567ed877ae8e8ba0f91dc0d", "rental_uris": {"android": "https://dc.lft.to/lastmile_qr_scan", "ios": "https://dc.lft.to/lastmile_qr_scan"}, "fusion_lat": 0.0, "name": "0d50cb7c9567ed877ae8e8ba0f91dc0d", "is_reserved": 0, "is_disabled": 0, "type": "electric_scooter"}, {"fusion_lon": 0.0, "lat": 38.894437, "lon": -77.03188816666666, "bike_id": "b8dde4749f74b9b862b1b2bb7eb2f73f", "rental_uris": {"android": "https://dc.lft.to/lastmile_qr_scan", "ios": "https://dc.lft.to/lastmile_qr_scan"}, "fusion_lat": 0.0, "name": "b8dde4749f74b9b862b1b2bb7eb2f73f", "is_reserved": 0, "is_disabled": 0, "type": "electric_scooter"}, {"fusion_lon": 0.0, "lat": 38.9233545, "lon": -77.03419466666666, "bike_id": "b5a39cf6ace38600ee33efbc4913418f", "rental_uris": {"android": "https://dc.lft.to/lastmile_qr_scan", "ios": "https://dc.lft.to/lastmile_qr_scan"}, "fusion_lat": 0.0, "name": "b5a39cf6ace38600ee33efbc4913418f", "is_reserved": 0, "is_disabled": 0, "type": "electric_scooter"}, {"fusion_lon": 0.0, "lat": 38.943859333333336, "lon": -77.0689065, "bike_id": "423b510e3043429e881f02642a1d935f", "rental_uris": {"android": "https://dc.lft.to/lastmile_qr_scan", "ios": "https://dc.lft.to/lastmile_qr_scan"}, "fusion_lat": 0.0, "name": "423b510e3043429e881f02642a1d935f", "is_reserved": 0, "is_disabled": 0, "type": "electric_scooter"}, {"fusion_lon": 0.0, "lat": 38.911341, "lon": -77.0417665, "bike_id": "aaaf9ff6b507b127a40d28b0f081c20a", "rental_uris": {"android": "https://dc.lft.to/lastmile_qr_scan", "ios": "https://dc.lft.to/lastmile_qr_scan"}, "fusion_lat": 0.0, "name": "aaaf9ff6b507b127a40d28b0f081c20a", "is_reserved": 0, "is_disabled": 0, "type": "electric_bike"}, {"fusion_lon": 0.0, "lat": 38.89226266666667, "lon": -77.0464405, "bike_id": "83a15556929d4de6683623a7b9dfb2ec", "rental_uris": {"android": "https://dc.lft.to/lastmile_qr_scan", "ios": "https://dc.lft.to/lastmile_qr_scan"}, "fusion_lat": 0.0, "name": "83a15556929d4de6683623a7b9dfb2ec", "is_reserved": 0, "is_disabled": 0, "type": "electric_scooter"}, {"fusion_lon": 0.0, "lat": 38.928819, "lon": -77.03272933333334, "bike_id": "e15a44f5dd51ccd80c4313e157a67e51", "rental_uris": {"android": "https://dc.lft.to/lastmile_qr_scan", "ios": "https://dc.lft.to/lastmile_qr_scan"}, "fusion_lat": 0.0, "name": "e15a44f5dd51ccd80c4313e157a67e51", "is_reserved": 0, "is_disabled": 0, "type": "electric_scooter"}, {"fusion_lon": 0.0, "lat": 38.896639, "lon": -77.05468566666667, "bike_id": "b9a6c3af0b9429f380f4abc11cc1f9d8", "rental_uris": {"android": "https://dc.lft.to/lastmile_qr_scan", "ios": "https://dc.lft.to/lastmile_qr_scan"}, "fusion_lat": 0.0, "name": "b9a6c3af0b9429f380f4abc11cc1f9d8", "is_reserved": 0, "is_disabled": 0, "type": "electric_scooter"}, {"fusion_lon": 0.0, "lat": 38.91327066666667, "lon": -77.0455025, "bike_id": "d569bc23c6cfb46b1764635770869cc6", "rental_uris": {"android": "https://dc.lft.to/lastmile_qr_scan", "ios": "https://dc.lft.to/lastmile_qr_scan"}, "fusion_lat": 0.0, "name": "d569bc23c6cfb46b1764635770869cc6", "is_reserved": 0, "is_disabled": 0, "type": "electric_scooter"}, {"fusion_lon": 0.0, "lat": 38.895920333333336, "lon": -77.0480685, "bike_id": "2b6726bb88c4d83103376e66bc2b2119", "rental_uris": {"android": "https://dc.lft.to/lastmile_qr_scan", "ios": "https://dc.lft.to/lastmile_qr_scan"}, "fusion_lat": 0.0, "name": "2b6726bb88c4d83103376e66bc2b2119", "is_reserved": 0, "is_disabled": 0, "type": "electric_scooter"}, {"fusion_lon": 0.0, "lat": 38.8970345, "lon": -77.024511, "bike_id": "21b1003125da761aad7f23a9626c81b5", "rental_uris": {"android": "https://dc.lft.to/lastmile_qr_scan", "ios": "https://dc.lft.to/lastmile_qr_scan"}, "fusion_lat": 0.0, "name": "21b1003125da761aad7f23a9626c81b5", "is_reserved": 0, "is_disabled": 0, "type": "electric_scooter"}, {"fusion_lon": 0.0, "lat": 38.901833, "lon": -77.021671, "bike_id": "d7c78e2b4c3b7fbfb0d5037171fbcc29", "rental_uris": {"android": "https://dc.lft.to/lastmile_qr_scan", "ios": "https://dc.lft.to/lastmile_qr_scan"}, "fusion_lat": 0.0, "name": "d7c78e2b4c3b7fbfb0d5037171fbcc29", "is_reserved": 0, "is_disabled": 0, "type": "electric_scooter"}, {"fusion_lon": 0.0, "lat": 38.88700466666667, "lon": -77.021879, "bike_id": "1b9f64093aa49cce6f14a7708da5f783", "rental_uris": {"android": "https://dc.lft.to/lastmile_qr_scan", "ios": "https://dc.lft.to/lastmile_qr_scan"}, "fusion_lat": 0.0, "name": "1b9f64093aa49cce6f14a7708da5f783", "is_reserved": 0, "is_disabled": 0, "type": "electric_scooter"}, {"fusion_lon": 0.0, "lat": 38.902888833333336, "lon": -77.03858783333334, "bike_id": "8eb62387b508cf5d6843a3a709318571", "rental_uris": {"android": "https://dc.lft.to/lastmile_qr_scan", "ios": "https://dc.lft.to/lastmile_qr_scan"}, "fusion_lat": 0.0, "name": "8eb62387b508cf5d6843a3a709318571", "is_reserved": 0, "is_disabled": 0, "type": "electric_scooter"}, {"fusion_lon": 0.0, "lat": 38.884964, "lon": -76.99483983333333, "bike_id": "5496ac4b8bd1bee217eb42092d02237b", "rental_uris": {"android": "https://dc.lft.to/lastmile_qr_scan", "ios": "https://dc.lft.to/lastmile_qr_scan"}, "fusion_lat": 0.0, "name": "5496ac4b8bd1bee217eb42092d02237b", "is_reserved": 0, "is_disabled": 0, "type": "electric_scooter"}, {"fusion_lon": 0.0, "lat": 38.9283215, "lon": -77.01411166666666, "bike_id": "423b55d913f957c64bfed8f2804416b3", "rental_uris": {"android": "https://dc.lft.to/lastmile_qr_scan", "ios": "https://dc.lft.to/lastmile_qr_scan"}, "fusion_lat": 0.0, "name": "423b55d913f957c64bfed8f2804416b3", "is_reserved": 0, "is_disabled": 0, "type": "electric_scooter"}, {"fusion_lon": 0.0, "lat": 38.898336666666665, "lon": -77.028008, "bike_id": "3199cec673fae99cfdb434cc27ef4504", "rental_uris": {"android": "https://dc.lft.to/lastmile_qr_scan", "ios": "https://dc.lft.to/lastmile_qr_scan"}, "fusion_lat": 0.0, "name": "3199cec673fae99cfdb434cc27ef4504", "is_reserved": 0, "is_disabled": 0, "type": "electric_scooter"}, {"fusion_lon": 0.0, "lat": 38.87941583333333, "lon": -77.007775, "bike_id": "6555c715106d4834fa400ba96d901aa5", "rental_uris": {"android": "https://dc.lft.to/lastmile_qr_scan", "ios": "https://dc.lft.to/lastmile_qr_scan"}, "fusion_lat": 0.0, "name": "6555c715106d4834fa400ba96d901aa5", "is_reserved": 0, "is_disabled": 0, "type": "electric_scooter"}, {"fusion_lon": 0.0, "lat": 38.900457333333335, "lon": -76.98828533333334, "bike_id": "b1202796e7fd53c724be0bfd7ba3a2a8", "rental_uris": {"android": "https://dc.lft.to/lastmile_qr_scan", "ios": "https://dc.lft.to/lastmile_qr_scan"}, "fusion_lat": 0.0, "name": "b1202796e7fd53c724be0bfd7ba3a2a8", "is_reserved": 0, "is_disabled": 0, "type": "electric_scooter"}, {"fusion_lon": 0.0, "lat": 38.89218133333333, "lon": -77.00304533333333, "bike_id": "d35c784b7bc2d9592fd920d29b256cb5", "rental_uris": {"android": "https://dc.lft.to/lastmile_qr_scan", "ios": "https://dc.lft.to/lastmile_qr_scan"}, "fusion_lat": 0.0, "name": "d35c784b7bc2d9592fd920d29b256cb5", "is_reserved": 0, "is_disabled": 0, "type": "electric_scooter"}, {"fusion_lon": 0.0, "lat": 38.898546833333334, "lon": -77.02701216666667, "bike_id": "fc71ecc7779bfa2e54bf90d999a0289b", "rental_uris": {"android": "https://dc.lft.to/lastmile_qr_scan", "ios": "https://dc.lft.to/lastmile_qr_scan"}, "fusion_lat": 0.0, "name": "fc71ecc7779bfa2e54bf90d999a0289b", "is_reserved": 0, "is_disabled": 0, "type": "electric_scooter"}, {"fusion_lon": 0.0, "lat": 38.90294, "lon": -77.04901266666667, "bike_id": "db3d399594bdd129c63a9c7815640a5b", "rental_uris": {"android": "https://dc.lft.to/lastmile_qr_scan", "ios": "https://dc.lft.to/lastmile_qr_scan"}, "fusion_lat": 0.0, "name": "db3d399594bdd129c63a9c7815640a5b", "is_reserved": 0, "is_disabled": 0, "type": "electric_scooter"}, {"fusion_lon": 0.0, "lat": 38.9223685, "lon": -76.97533516666667, "bike_id": "a1cb2640631832a2085ad8c6cf508591", "rental_uris": {"android": "https://dc.lft.to/lastmile_qr_scan", "ios": "https://dc.lft.to/lastmile_qr_scan"}, "fusion_lat": 0.0, "name": "a1cb2640631832a2085ad8c6cf508591", "is_reserved": 0, "is_disabled": 0, "type": "electric_scooter"}, {"fusion_lon": 0.0, "lat": 38.91979283333333, "lon": -77.02206483333333, "bike_id": "1862738cf091375d8532bc818702e354", "rental_uris": {"android": "https://dc.lft.to/lastmile_qr_scan", "ios": "https://dc.lft.to/lastmile_qr_scan"}, "fusion_lat": 0.0, "name": "1862738cf091375d8532bc818702e354", "is_reserved": 0, "is_disabled": 0, "type": "electric_scooter"}, {"fusion_lon": 0.0, "lat": 38.90298666666666, "lon": -77.046912, "bike_id": "073a6267c3c13a69e3fcc7a33e701f96", "rental_uris": {"android": "https://dc.lft.to/lastmile_qr_scan", "ios": "https://dc.lft.to/lastmile_qr_scan"}, "fusion_lat": 0.0, "name": "073a6267c3c13a69e3fcc7a33e701f96", "is_reserved": 0, "is_disabled": 0, "type": "electric_scooter"}, {"fusion_lon": 0.0, "lat": 38.915621, "lon": -77.006978, "bike_id": "ff38c5e57f84c1a3fb9b7ece2bfed62e", "rental_uris": {"android": "https://dc.lft.to/lastmile_qr_scan", "ios": "https://dc.lft.to/lastmile_qr_scan"}, "fusion_lat": 0.0, "name": "ff38c5e57f84c1a3fb9b7ece2bfed62e", "is_reserved": 0, "is_disabled": 0, "type": "electric_scooter"}, {"fusion_lon": 0.0, "lat": 38.9180225, "lon": -77.02714666666667, "bike_id": "c739e51c238a1e2270e55deaa94cfd30", "rental_uris": {"android": "https://dc.lft.to/lastmile_qr_scan", "ios": "https://dc.lft.to/lastmile_qr_scan"}, "fusion_lat": 0.0, "name": "c739e51c238a1e2270e55deaa94cfd30", "is_reserved": 0, "is_disabled": 0, "type": "electric_scooter"}, {"fusion_lon": 0.0, "lat": 38.92512583333333, "lon": -77.02286283333333, "bike_id": "7a422a8a97631456eec332b708cecfc3", "rental_uris": {"android": "https://dc.lft.to/lastmile_qr_scan", "ios": "https://dc.lft.to/lastmile_qr_scan"}, "fusion_lat": 0.0, "name": "7a422a8a97631456eec332b708cecfc3", "is_reserved": 0, "is_disabled": 0, "type": "electric_scooter"}, {"fusion_lon": 0.0, "lat": 38.867126166666665, "lon": -77.010147, "bike_id": "4cda163936b7a028e531f84f7c079279", "rental_uris": {"android": "https://dc.lft.to/lastmile_qr_scan", "ios": "https://dc.lft.to/lastmile_qr_scan"}, "fusion_lat": 0.0, "name": "4cda163936b7a028e531f84f7c079279", "is_reserved": 0, "is_disabled": 0, "type": "electric_scooter"}, {"fusion_lon": 0.0, "lat": 38.91118916666667, "lon": -77.04465616666667, "bike_id": "771caede3f725dc39302a5a0669432b6", "rental_uris": {"android": "https://dc.lft.to/lastmile_qr_scan", "ios": "https://dc.lft.to/lastmile_qr_scan"}, "fusion_lat": 0.0, "name": "771caede3f725dc39302a5a0669432b6", "is_reserved": 0, "is_disabled": 0, "type": "electric_scooter"}, {"fusion_lon": 0.0, "lat": 38.922954833333336, "lon": -77.01954066666667, "bike_id": "0dfe9443c158bf99df98f62da5145d27", "rental_uris": {"android": "https://dc.lft.to/lastmile_qr_scan", "ios": "https://dc.lft.to/lastmile_qr_scan"}, "fusion_lat": 0.0, "name": "0dfe9443c158bf99df98f62da5145d27", "is_reserved": 0, "is_disabled": 0, "type": "electric_scooter"}, {"fusion_lon": 0.0, "lat": 38.927015833333336, "lon": -77.02331933333333, "bike_id": "8e68e0340171571788b7b6b683c83451", "rental_uris": {"android": "https://dc.lft.to/lastmile_qr_scan", "ios": "https://dc.lft.to/lastmile_qr_scan"}, "fusion_lat": 0.0, "name": "8e68e0340171571788b7b6b683c83451", "is_reserved": 0, "is_disabled": 0, "type": "electric_scooter"}, {"fusion_lon": 0.0, "lat": 38.91264733333333, "lon": -77.024497, "bike_id": "985bc4fcc7c7e4128a8d301ce938e811", "rental_uris": {"android": "https://dc.lft.to/lastmile_qr_scan", "ios": "https://dc.lft.to/lastmile_qr_scan"}, "fusion_lat": 0.0, "name": "985bc4fcc7c7e4128a8d301ce938e811", "is_reserved": 0, "is_disabled": 0, "type": "electric_scooter"}, {"fusion_lon": 0.0, "lat": 39.007163, "lon": -76.98150983333333, "bike_id": "7b67e99f7c8366d5c7b567a3eed3b1af", "rental_uris": {"android": "https://dc.lft.to/lastmile_qr_scan", "ios": "https://dc.lft.to/lastmile_qr_scan"}, "fusion_lat": 0.0, "name": "7b67e99f7c8366d5c7b567a3eed3b1af", "is_reserved": 0, "is_disabled": 0, "type": "electric_bike"}, {"fusion_lon": 0.0, "lat": 38.919085, "lon": -77.03201183333333, "bike_id": "a34c86d497351450178e6709140c3872", "rental_uris": {"android": "https://dc.lft.to/lastmile_qr_scan", "ios": "https://dc.lft.to/lastmile_qr_scan"}, "fusion_lat": 0.0, "name": "a34c86d497351450178e6709140c3872", "is_reserved": 0, "is_disabled": 0, "type": "electric_scooter"}, {"fusion_lon": 0.0, "lat": 38.900293833333336, "lon": -77.017715, "bike_id": "2a3b32acf948a396fee76025046bc335", "rental_uris": {"android": "https://dc.lft.to/lastmile_qr_scan", "ios": "https://dc.lft.to/lastmile_qr_scan"}, "fusion_lat": 0.0, "name": "2a3b32acf948a396fee76025046bc335", "is_reserved": 0, "is_disabled": 0, "type": "electric_scooter"}, {"fusion_lon": 0.0, "lat": 38.89970016666667, "lon": -77.0320535, "bike_id": "815adb1586efc8705046bdff0c764c01", "rental_uris": {"android": "https://dc.lft.to/lastmile_qr_scan", "ios": "https://dc.lft.to/lastmile_qr_scan"}, "fusion_lat": 0.0, "name": "815adb1586efc8705046bdff0c764c01", "is_reserved": 0, "is_disabled": 0, "type": "electric_scooter"}, {"fusion_lon": 0.0, "lat": 38.849022833333336, "lon": -77.078136, "bike_id": "93470d96bd462f32717d41042140c1e0", "rental_uris": {"android": "https://dc.lft.to/lastmile_qr_scan", "ios": "https://dc.lft.to/lastmile_qr_scan"}, "fusion_lat": 0.0, "name": "93470d96bd462f32717d41042140c1e0", "is_reserved": 0, "is_disabled": 0, "type": "electric_bike"}, {"fusion_lon": 0.0, "lat": 38.922304, "lon": -77.03665783333334, "bike_id": "885d0fdc77e63f507c9cf2b567bb6bfa", "rental_uris": {"android": "https://dc.lft.to/lastmile_qr_scan", "ios": "https://dc.lft.to/lastmile_qr_scan"}, "fusion_lat": 0.0, "name": "885d0fdc77e63f507c9cf2b567bb6bfa", "is_reserved": 0, "is_disabled": 0, "type": "electric_scooter"}, {"fusion_lon": 0.0, "lat": 38.934035333333334, "lon": -77.04548833333334, "bike_id": "2e86fb40700528802990124227d69725", "rental_uris": {"android": "https://dc.lft.to/lastmile_qr_scan", "ios": "https://dc.lft.to/lastmile_qr_scan"}, "fusion_lat": 0.0, "name": "2e86fb40700528802990124227d69725", "is_reserved": 0, "is_disabled": 0, "type": "electric_scooter"}, {"fusion_lon": 0.0, "lat": 39.00157016666667, "lon": -76.902416, "bike_id": "471fe14fa9299a93604d933df415a6b8", "rental_uris": {"android": "https://dc.lft.to/lastmile_qr_scan", "ios": "https://dc.lft.to/lastmile_qr_scan"}, "fusion_lat": 0.0, "name": "471fe14fa9299a93604d933df415a6b8", "is_reserved": 0, "is_disabled": 0, "type": "electric_bike"}, {"fusion_lon": 0.0, "lat": 38.922439833333335, "lon": -77.01941916666667, "bike_id": "280dc82cd33e2f2d3999ca16face197b", "rental_uris": {"android": "https://dc.lft.to/lastmile_qr_scan", "ios": "https://dc.lft.to/lastmile_qr_scan"}, "fusion_lat": 0.0, "name": "280dc82cd33e2f2d3999ca16face197b", "is_reserved": 0, "is_disabled": 0, "type": "electric_scooter"}, {"fusion_lon": 0.0, "lat": 38.955419666666664, "lon": -77.06940216666666, "bike_id": "c72c44d0dc352304aa6d88e90bad2d0a", "rental_uris": {"android": "https://dc.lft.to/lastmile_qr_scan", "ios": "https://dc.lft.to/lastmile_qr_scan"}, "fusion_lat": 0.0, "name": "c72c44d0dc352304aa6d88e90bad2d0a", "is_reserved": 0, "is_disabled": 0, "type": "electric_bike"}, {"fusion_lon": 0.0, "lat": 38.908001166666665, "lon": -77.03196233333334, "bike_id": "a45b9551665507b1766358e696a1f609", "rental_uris": {"android": "https://dc.lft.to/lastmile_qr_scan", "ios": "https://dc.lft.to/lastmile_qr_scan"}, "fusion_lat": 0.0, "name": "a45b9551665507b1766358e696a1f609", "is_reserved": 0, "is_disabled": 0, "type": "electric_scooter"}, {"fusion_lon": 0.0, "lat": 38.91551483333333, "lon": -77.03663616666667, "bike_id": "5ca5351fe9ce7b26ea0365afc88e9e3f", "rental_uris": {"android": "https://dc.lft.to/lastmile_qr_scan", "ios": "https://dc.lft.to/lastmile_qr_scan"}, "fusion_lat": 0.0, "name": "5ca5351fe9ce7b26ea0365afc88e9e3f", "is_reserved": 0, "is_disabled": 0, "type": "electric_scooter"}, {"fusion_lon": 0.0, "lat": 38.93851816666667, "lon": -77.024826, "bike_id": "088806134fe69274b1df0add63aeeea1", "rental_uris": {"android": "https://dc.lft.to/lastmile_qr_scan", "ios": "https://dc.lft.to/lastmile_qr_scan"}, "fusion_lat": 0.0, "name": "088806134fe69274b1df0add63aeeea1", "is_reserved": 0, "is_disabled": 0, "type": "electric_scooter"}, {"fusion_lon": 0.0, "lat": 39.010907, "lon": -77.04957266666666, "bike_id": "e0be2fd5e424f669bb5ba13f419e1827", "rental_uris": {"android": "https://dc.lft.to/lastmile_qr_scan", "ios": "https://dc.lft.to/lastmile_qr_scan"}, "fusion_lat": 0.0, "name": "e0be2fd5e424f669bb5ba13f419e1827", "is_reserved": 0, "is_disabled": 0, "type": "electric_bike"}, {"fusion_lon": 0.0, "lat": 38.8780565, "lon": -76.9882985, "bike_id": "14a92bf54727db72e1be64cab1260a77", "rental_uris": {"android": "https://dc.lft.to/lastmile_qr_scan", "ios": "https://dc.lft.to/lastmile_qr_scan"}, "fusion_lat": 0.0, "name": "14a92bf54727db72e1be64cab1260a77", "is_reserved": 0, "is_disabled": 0, "type": "electric_scooter"}, {"fusion_lon": 0.0, "lat": 38.876703666666664, "lon": -76.994445, "bike_id": "b01ab30bb8945872fdd440258b6aa480", "rental_uris": {"android": "https://dc.lft.to/lastmile_qr_scan", "ios": "https://dc.lft.to/lastmile_qr_scan"}, "fusion_lat": 0.0, "name": "b01ab30bb8945872fdd440258b6aa480", "is_reserved": 0, "is_disabled": 0, "type": "electric_bike"}, {"fusion_lon": 0.0, "lat": 38.88502016666666, "lon": -77.002215, "bike_id": "c209794e8a32af3a4a7a8fa216066e95", "rental_uris": {"android": "https://dc.lft.to/lastmile_qr_scan", "ios": "https://dc.lft.to/lastmile_qr_scan"}, "fusion_lat": 0.0, "name": "c209794e8a32af3a4a7a8fa216066e95", "is_reserved": 0, "is_disabled": 0, "type": "electric_scooter"}, {"fusion_lon": 0.0, "lat": 38.892249, "lon": -77.04132866666667, "bike_id": "3ec9f6772150c63eba07b7ec23d57759", "rental_uris": {"android": "https://dc.lft.to/lastmile_qr_scan", "ios": "https://dc.lft.to/lastmile_qr_scan"}, "fusion_lat": 0.0, "name": "3ec9f6772150c63eba07b7ec23d57759", "is_reserved": 0, "is_disabled": 0, "type": "electric_scooter"}, {"fusion_lon": 0.0, "lat": 38.901888666666665, "lon": -77.03651133333334, "bike_id": "5a07ade5fcfd7bb6660ca916aa637345", "rental_uris": {"android": "https://dc.lft.to/lastmile_qr_scan", "ios": "https://dc.lft.to/lastmile_qr_scan"}, "fusion_lat": 0.0, "name": "5a07ade5fcfd7bb6660ca916aa637345", "is_reserved": 0, "is_disabled": 0, "type": "electric_scooter"}, {"fusion_lon": 0.0, "lat": 38.9094455, "lon": -77.02383616666667, "bike_id": "e6222fc36e16d713c645351e8df15e52", "rental_uris": {"android": "https://dc.lft.to/lastmile_qr_scan", "ios": "https://dc.lft.to/lastmile_qr_scan"}, "fusion_lat": 0.0, "name": "e6222fc36e16d713c645351e8df15e52", "is_reserved": 0, "is_disabled": 0, "type": "electric_scooter"}, {"fusion_lon": 0.0, "lat": 38.92109416666667, "lon": -77.04211183333334, "bike_id": "3034d4e42aa033ff5f54fc9845f38441", "rental_uris": {"android": "https://dc.lft.to/lastmile_qr_scan", "ios": "https://dc.lft.to/lastmile_qr_scan"}, "fusion_lat": 0.0, "name": "3034d4e42aa033ff5f54fc9845f38441", "is_reserved": 0, "is_disabled": 0, "type": "electric_scooter"}, {"fusion_lon": 0.0, "lat": 38.90004883333334, "lon": -77.04397716666666, "bike_id": "0ae9f8b354a26467bf7aa009e9c1938a", "rental_uris": {"android": "https://dc.lft.to/lastmile_qr_scan", "ios": "https://dc.lft.to/lastmile_qr_scan"}, "fusion_lat": 0.0, "name": "0ae9f8b354a26467bf7aa009e9c1938a", "is_reserved": 0, "is_disabled": 0, "type": "electric_scooter"}, {"fusion_lon": 0.0, "lat": 38.91979116666667, "lon": -77.02754483333334, "bike_id": "b12465271008ef5a972836fcb698162e", "rental_uris": {"android": "https://dc.lft.to/lastmile_qr_scan", "ios": "https://dc.lft.to/lastmile_qr_scan"}, "fusion_lat": 0.0, "name": "b12465271008ef5a972836fcb698162e", "is_reserved": 0, "is_disabled": 0, "type": "electric_scooter"}, {"fusion_lon": 0.0, "lat": 38.899739, "lon": -77.04196266666666, "bike_id": "f0b0cac7697949ecbfe1d3a4e68efa76", "rental_uris": {"android": "https://dc.lft.to/lastmile_qr_scan", "ios": "https://dc.lft.to/lastmile_qr_scan"}, "fusion_lat": 0.0, "name": "f0b0cac7697949ecbfe1d3a4e68efa76", "is_reserved": 0, "is_disabled": 0, "type": "electric_scooter"}, {"fusion_lon": 0.0, "lat": 38.8876535, "lon": -77.00198883333333, "bike_id": "df880c6dc743b875004fee9b948597b7", "rental_uris": {"android": "https://dc.lft.to/lastmile_qr_scan", "ios": "https://dc.lft.to/lastmile_qr_scan"}, "fusion_lat": 0.0, "name": "df880c6dc743b875004fee9b948597b7", "is_reserved": 0, "is_disabled": 0, "type": "electric_scooter"}, {"fusion_lon": 0.0, "lat": 38.9231505, "lon": -77.044136, "bike_id": "9603d2e48d09e714c5f9e19ea83ab8e1", "rental_uris": {"android": "https://dc.lft.to/lastmile_qr_scan", "ios": "https://dc.lft.to/lastmile_qr_scan"}, "fusion_lat": 0.0, "name": "9603d2e48d09e714c5f9e19ea83ab8e1", "is_reserved": 0, "is_disabled": 0, "type": "electric_scooter"}, {"fusion_lon": 0.0, "lat": 38.89907266666667, "lon": -76.98822116666666, "bike_id": "7bb979511dd60e4acc4206b64a7a5dd7", "rental_uris": {"android": "https://dc.lft.to/lastmile_qr_scan", "ios": "https://dc.lft.to/lastmile_qr_scan"}, "fusion_lat": 0.0, "name": "7bb979511dd60e4acc4206b64a7a5dd7", "is_reserved": 0, "is_disabled": 0, "type": "electric_scooter"}, {"fusion_lon": 0.0, "lat": 38.912422, "lon": -77.00112783333333, "bike_id": "9c46820f7a382d9dba59e846f317b0a2", "rental_uris": {"android": "https://dc.lft.to/lastmile_qr_scan", "ios": "https://dc.lft.to/lastmile_qr_scan"}, "fusion_lat": 0.0, "name": "9c46820f7a382d9dba59e846f317b0a2", "is_reserved": 0, "is_disabled": 0, "type": "electric_scooter"}, {"fusion_lon": 0.0, "lat": 38.903652666666666, "lon": -77.03853883333333, "bike_id": "0613be63b540d8d667bc0e5527655bf8", "rental_uris": {"android": "https://dc.lft.to/lastmile_qr_scan", "ios": "https://dc.lft.to/lastmile_qr_scan"}, "fusion_lat": 0.0, "name": "0613be63b540d8d667bc0e5527655bf8", "is_reserved": 0, "is_disabled": 0, "type": "electric_scooter"}, {"fusion_lon": 0.0, "lat": 38.903421333333334, "lon": -77.038449, "bike_id": "b7c8ce654f0cab71d4cd3fe320fecc95", "rental_uris": {"android": "https://dc.lft.to/lastmile_qr_scan", "ios": "https://dc.lft.to/lastmile_qr_scan"}, "fusion_lat": 0.0, "name": "b7c8ce654f0cab71d4cd3fe320fecc95", "is_reserved": 0, "is_disabled": 0, "type": "electric_scooter"}, {"fusion_lon": 0.0, "lat": 38.90033233333333, "lon": -77.0021985, "bike_id": "e806315c8766f78f4db0f35261db095e", "rental_uris": {"android": "https://dc.lft.to/lastmile_qr_scan", "ios": "https://dc.lft.to/lastmile_qr_scan"}, "fusion_lat": 0.0, "name": "e806315c8766f78f4db0f35261db095e", "is_reserved": 0, "is_disabled": 0, "type": "electric_scooter"}, {"fusion_lon": 0.0, "lat": 38.90047216666667, "lon": -76.9850165, "bike_id": "7c38c8f75877c38c6928f6911ab19ad4", "rental_uris": {"android": "https://dc.lft.to/lastmile_qr_scan", "ios": "https://dc.lft.to/lastmile_qr_scan"}, "fusion_lat": 0.0, "name": "7c38c8f75877c38c6928f6911ab19ad4", "is_reserved": 0, "is_disabled": 0, "type": "electric_scooter"}, {"fusion_lon": 0.0, "lat": 38.923027833333336, "lon": -77.03115283333334, "bike_id": "b4f807b72882dd22f28a45446ae85f5a", "rental_uris": {"android": "https://dc.lft.to/lastmile_qr_scan", "ios": "https://dc.lft.to/lastmile_qr_scan"}, "fusion_lat": 0.0, "name": "b4f807b72882dd22f28a45446ae85f5a", "is_reserved": 0, "is_disabled": 0, "type": "electric_scooter"}, {"fusion_lon": 0.0, "lat": 38.89841916666666, "lon": -77.04891783333333, "bike_id": "201c02ae2c5e743334843a3d276ec7d2", "rental_uris": {"android": "https://dc.lft.to/lastmile_qr_scan", "ios": "https://dc.lft.to/lastmile_qr_scan"}, "fusion_lat": 0.0, "name": "201c02ae2c5e743334843a3d276ec7d2", "is_reserved": 0, "is_disabled": 0, "type": "electric_scooter"}, {"fusion_lon": 0.0, "lat": 38.88875183333333, "lon": -76.98675, "bike_id": "3e310cec5869ab038261791919ddf8d8", "rental_uris": {"android": "https://dc.lft.to/lastmile_qr_scan", "ios": "https://dc.lft.to/lastmile_qr_scan"}, "fusion_lat": 0.0, "name": "3e310cec5869ab038261791919ddf8d8", "is_reserved": 0, "is_disabled": 0, "type": "electric_scooter"}, {"fusion_lon": 0.0, "lat": 38.910436833333335, "lon": -77.044975, "bike_id": "c8d3a6cdcd38f85ebe2628b66fa80d79", "rental_uris": {"android": "https://dc.lft.to/lastmile_qr_scan", "ios": "https://dc.lft.to/lastmile_qr_scan"}, "fusion_lat": 0.0, "name": "c8d3a6cdcd38f85ebe2628b66fa80d79", "is_reserved": 0, "is_disabled": 0, "type": "electric_scooter"}, {"fusion_lon": 0.0, "lat": 38.95580616666667, "lon": -76.968918, "bike_id": "c37144651f97c1089e744063876f62eb", "rental_uris": {"android": "https://dc.lft.to/lastmile_qr_scan", "ios": "https://dc.lft.to/lastmile_qr_scan"}, "fusion_lat": 0.0, "name": "c37144651f97c1089e744063876f62eb", "is_reserved": 0, "is_disabled": 0, "type": "electric_bike"}, {"fusion_lon": 0.0, "lat": 38.893580166666666, "lon": -77.02183866666667, "bike_id": "67a1b2e58ea9b27f17a76e5a68788ca3", "rental_uris": {"android": "https://dc.lft.to/lastmile_qr_scan", "ios": "https://dc.lft.to/lastmile_qr_scan"}, "fusion_lat": 0.0, "name": "67a1b2e58ea9b27f17a76e5a68788ca3", "is_reserved": 0, "is_disabled": 0, "type": "electric_scooter"}, {"fusion_lon": 0.0, "lat": 38.93591133333334, "lon": -77.05844266666666, "bike_id": "1c7334ceceeb0b78de34cfdae6b72073", "rental_uris": {"android": "https://dc.lft.to/lastmile_qr_scan", "ios": "https://dc.lft.to/lastmile_qr_scan"}, "fusion_lat": 0.0, "name": "1c7334ceceeb0b78de34cfdae6b72073", "is_reserved": 0, "is_disabled": 0, "type": "electric_scooter"}, {"fusion_lon": 0.0, "lat": 38.86949633333333, "lon": -77.13306016666667, "bike_id": "6c18174682229aa103d4af378c32c29e", "rental_uris": {"android": "https://dc.lft.to/lastmile_qr_scan", "ios": "https://dc.lft.to/lastmile_qr_scan"}, "fusion_lat": 0.0, "name": "6c18174682229aa103d4af378c32c29e", "is_reserved": 0, "is_disabled": 0, "type": "electric_bike"}, {"fusion_lon": 0.0, "lat": 38.900255, "lon": -76.98756383333334, "bike_id": "77a9f6651ba4dab312b124ed655436d9", "rental_uris": {"android": "https://dc.lft.to/lastmile_qr_scan", "ios": "https://dc.lft.to/lastmile_qr_scan"}, "fusion_lat": 0.0, "name": "77a9f6651ba4dab312b124ed655436d9", "is_reserved": 0, "is_disabled": 0, "type": "electric_scooter"}, {"fusion_lon": 0.0, "lat": 38.90841316666667, "lon": -77.049443, "bike_id": "b4e0a17abb28be2b33f47bdb51b96917", "rental_uris": {"android": "https://dc.lft.to/lastmile_qr_scan", "ios": "https://dc.lft.to/lastmile_qr_scan"}, "fusion_lat": 0.0, "name": "b4e0a17abb28be2b33f47bdb51b96917", "is_reserved": 0, "is_disabled": 0, "type": "electric_scooter"}, {"fusion_lon": 0.0, "lat": 38.92221266666667, "lon": -77.018272, "bike_id": "2b9bf69a17fe631badfd2c609a0a46bb", "rental_uris": {"android": "https://dc.lft.to/lastmile_qr_scan", "ios": "https://dc.lft.to/lastmile_qr_scan"}, "fusion_lat": 0.0, "name": "2b9bf69a17fe631badfd2c609a0a46bb", "is_reserved": 0, "is_disabled": 0, "type": "electric_scooter"}, {"fusion_lon": 0.0, "lat": 38.89605433333333, "lon": -77.04516266666667, "bike_id": "f3a4586c489c5423410b8c326c04f53f", "rental_uris": {"android": "https://dc.lft.to/lastmile_qr_scan", "ios": "https://dc.lft.to/lastmile_qr_scan"}, "fusion_lat": 0.0, "name": "f3a4586c489c5423410b8c326c04f53f", "is_reserved": 0, "is_disabled": 0, "type": "electric_scooter"}, {"fusion_lon": 0.0, "lat": 38.90030866666667, "lon": -76.98759966666667, "bike_id": "f85fee257a8195d097a9b26411e6f343", "rental_uris": {"android": "https://dc.lft.to/lastmile_qr_scan", "ios": "https://dc.lft.to/lastmile_qr_scan"}, "fusion_lat": 0.0, "name": "f85fee257a8195d097a9b26411e6f343", "is_reserved": 0, "is_disabled": 0, "type": "electric_scooter"}, {"fusion_lon": 0.0, "lat": 38.910819333333336, "lon": -77.04475333333333, "bike_id": "1d0c2d6d6eaa77e8496500cbf2cd8d91", "rental_uris": {"android": "https://dc.lft.to/lastmile_qr_scan", "ios": "https://dc.lft.to/lastmile_qr_scan"}, "fusion_lat": 0.0, "name": "1d0c2d6d6eaa77e8496500cbf2cd8d91", "is_reserved": 0, "is_disabled": 0, "type": "electric_scooter"}, {"fusion_lon": 0.0, "lat": 38.916616166666664, "lon": -77.03853616666666, "bike_id": "bf0538b2363630c6918f787ccae581d5", "rental_uris": {"android": "https://dc.lft.to/lastmile_qr_scan", "ios": "https://dc.lft.to/lastmile_qr_scan"}, "fusion_lat": 0.0, "name": "bf0538b2363630c6918f787ccae581d5", "is_reserved": 0, "is_disabled": 0, "type": "electric_scooter"}, {"fusion_lon": 0.0, "lat": 38.9296565, "lon": -77.02790716666667, "bike_id": "1d3ffdccfe78d8225dccd8e8d99730c5", "rental_uris": {"android": "https://dc.lft.to/lastmile_qr_scan", "ios": "https://dc.lft.to/lastmile_qr_scan"}, "fusion_lat": 0.0, "name": "1d3ffdccfe78d8225dccd8e8d99730c5", "is_reserved": 0, "is_disabled": 0, "type": "electric_scooter"}, {"fusion_lon": 0.0, "lat": 38.92234416666667, "lon": -77.02122916666667, "bike_id": "cc9af20a7b0b572e50389fbae32cc508", "rental_uris": {"android": "https://dc.lft.to/lastmile_qr_scan", "ios": "https://dc.lft.to/lastmile_qr_scan"}, "fusion_lat": 0.0, "name": "cc9af20a7b0b572e50389fbae32cc508", "is_reserved": 0, "is_disabled": 0, "type": "electric_scooter"}, {"fusion_lon": 0.0, "lat": 38.95311866666667, "lon": -76.98182333333334, "bike_id": "6ecdc5515e2738cc2ea57f652cf0c583", "rental_uris": {"android": "https://dc.lft.to/lastmile_qr_scan", "ios": "https://dc.lft.to/lastmile_qr_scan"}, "fusion_lat": 0.0, "name": "6ecdc5515e2738cc2ea57f652cf0c583", "is_reserved": 0, "is_disabled": 0, "type": "electric_bike"}, {"fusion_lon": 0.0, "lat": 38.9241855, "lon": -77.01941766666667, "bike_id": "1e71c57559dc1ee4a8d61567e56f984e", "rental_uris": {"android": "https://dc.lft.to/lastmile_qr_scan", "ios": "https://dc.lft.to/lastmile_qr_scan"}, "fusion_lat": 0.0, "name": "1e71c57559dc1ee4a8d61567e56f984e", "is_reserved": 0, "is_disabled": 0, "type": "electric_scooter"}, {"fusion_lon": 0.0, "lat": 38.91574216666667, "lon": -77.03656083333334, "bike_id": "e086cf12b06bac7d733a9c10a8ae9222", "rental_uris": {"android": "https://dc.lft.to/lastmile_qr_scan", "ios": "https://dc.lft.to/lastmile_qr_scan"}, "fusion_lat": 0.0, "name": "e086cf12b06bac7d733a9c10a8ae9222", "is_reserved": 0, "is_disabled": 0, "type": "electric_scooter"}, {"fusion_lon": 0.0, "lat": 38.920944666666664, "lon": -77.02531583333334, "bike_id": "2b91f280b3589364e16e10e5b290d52c", "rental_uris": {"android": "https://dc.lft.to/lastmile_qr_scan", "ios": "https://dc.lft.to/lastmile_qr_scan"}, "fusion_lat": 0.0, "name": "2b91f280b3589364e16e10e5b290d52c", "is_reserved": 0, "is_disabled": 0, "type": "electric_scooter"}, {"fusion_lon": 0.0, "lat": 38.916891, "lon": -77.0382595, "bike_id": "6c1c0938197095cb1f9bec987a03b65b", "rental_uris": {"android": "https://dc.lft.to/lastmile_qr_scan", "ios": "https://dc.lft.to/lastmile_qr_scan"}, "fusion_lat": 0.0, "name": "6c1c0938197095cb1f9bec987a03b65b", "is_reserved": 0, "is_disabled": 0, "type": "electric_scooter"}, {"fusion_lon": 0.0, "lat": 38.923377, "lon": -77.03500066666666, "bike_id": "7afe6fda7f3468e0cdebb8458044db8a", "rental_uris": {"android": "https://dc.lft.to/lastmile_qr_scan", "ios": "https://dc.lft.to/lastmile_qr_scan"}, "fusion_lat": 0.0, "name": "7afe6fda7f3468e0cdebb8458044db8a", "is_reserved": 0, "is_disabled": 0, "type": "electric_scooter"}, {"fusion_lon": 0.0, "lat": 38.838113166666666, "lon": -77.09523016666667, "bike_id": "27ed7871853b706ab2f03045fba0a1a9", "rental_uris": {"android": "https://dc.lft.to/lastmile_qr_scan", "ios": "https://dc.lft.to/lastmile_qr_scan"}, "fusion_lat": 0.0, "name": "27ed7871853b706ab2f03045fba0a1a9", "is_reserved": 0, "is_disabled": 0, "type": "electric_bike"}, {"fusion_lon": 0.0, "lat": 38.89680966666667, "lon": -76.92793683333333, "bike_id": "12c0fd51f2d3341d3500f80ba8089b49", "rental_uris": {"android": "https://dc.lft.to/lastmile_qr_scan", "ios": "https://dc.lft.to/lastmile_qr_scan"}, "fusion_lat": 0.0, "name": "12c0fd51f2d3341d3500f80ba8089b49", "is_reserved": 0, "is_disabled": 0, "type": "electric_scooter"}, {"fusion_lon": 0.0, "lat": 38.900966, "lon": -77.04376333333333, "bike_id": "13f2e107687b08f8b43ba7aad49dced5", "rental_uris": {"android": "https://dc.lft.to/lastmile_qr_scan", "ios": "https://dc.lft.to/lastmile_qr_scan"}, "fusion_lat": 0.0, "name": "13f2e107687b08f8b43ba7aad49dced5", "is_reserved": 0, "is_disabled": 0, "type": "electric_scooter"}, {"fusion_lon": 0.0, "lat": 38.924924833333336, "lon": -77.03927066666667, "bike_id": "6bb4d1bb8bef55b1a82d165ecd4b5b51", "rental_uris": {"android": "https://dc.lft.to/lastmile_qr_scan", "ios": "https://dc.lft.to/lastmile_qr_scan"}, "fusion_lat": 0.0, "name": "6bb4d1bb8bef55b1a82d165ecd4b5b51", "is_reserved": 0, "is_disabled": 0, "type": "electric_scooter"}, {"fusion_lon": 0.0, "lat": 38.8904345, "lon": -76.93749, "bike_id": "064659e067334617f8cc752d453aa5ef", "rental_uris": {"android": "https://dc.lft.to/lastmile_qr_scan", "ios": "https://dc.lft.to/lastmile_qr_scan"}, "fusion_lat": 0.0, "name": "064659e067334617f8cc752d453aa5ef", "is_reserved": 0, "is_disabled": 0, "type": "electric_scooter"}, {"fusion_lon": 0.0, "lat": 38.8997265, "lon": -77.02717133333333, "bike_id": "a01315cd6184070dcb285c84e96a49d1", "rental_uris": {"android": "https://dc.lft.to/lastmile_qr_scan", "ios": "https://dc.lft.to/lastmile_qr_scan"}, "fusion_lat": 0.0, "name": "a01315cd6184070dcb285c84e96a49d1", "is_reserved": 0, "is_disabled": 0, "type": "electric_scooter"}, {"fusion_lon": 0.0, "lat": 38.88676366666667, "lon": -77.031932, "bike_id": "d317b796971b201e5f83d65333693bbf", "rental_uris": {"android": "https://dc.lft.to/lastmile_qr_scan", "ios": "https://dc.lft.to/lastmile_qr_scan"}, "fusion_lat": 0.0, "name": "d317b796971b201e5f83d65333693bbf", "is_reserved": 0, "is_disabled": 0, "type": "electric_scooter"}, {"fusion_lon": 0.0, "lat": 38.926378666666665, "lon": -77.03709883333333, "bike_id": "30b531865cb1110c8d3a924722d415b2", "rental_uris": {"android": "https://dc.lft.to/lastmile_qr_scan", "ios": "https://dc.lft.to/lastmile_qr_scan"}, "fusion_lat": 0.0, "name": "30b531865cb1110c8d3a924722d415b2", "is_reserved": 0, "is_disabled": 0, "type": "electric_scooter"}, {"fusion_lon": 0.0, "lat": 38.920556833333336, "lon": -77.04256383333333, "bike_id": "3b8c6dfc8aa3ad60f0ee0841a1d6d0c2", "rental_uris": {"android": "https://dc.lft.to/lastmile_qr_scan", "ios": "https://dc.lft.to/lastmile_qr_scan"}, "fusion_lat": 0.0, "name": "3b8c6dfc8aa3ad60f0ee0841a1d6d0c2", "is_reserved": 0, "is_disabled": 0, "type": "electric_scooter"}, {"fusion_lon": 0.0, "lat": 38.95284783333334, "lon": -77.01360283333334, "bike_id": "df1cbd80b13c3f2af47eb1d791509f2a", "rental_uris": {"android": "https://dc.lft.to/lastmile_qr_scan", "ios": "https://dc.lft.to/lastmile_qr_scan"}, "fusion_lat": 0.0, "name": "df1cbd80b13c3f2af47eb1d791509f2a", "is_reserved": 0, "is_disabled": 0, "type": "electric_scooter"}, {"fusion_lon": 0.0, "lat": 38.89221583333333, "lon": -77.04272483333334, "bike_id": "ebef2a6a1560ad8e891b7d97c8b324f9", "rental_uris": {"android": "https://dc.lft.to/lastmile_qr_scan", "ios": "https://dc.lft.to/lastmile_qr_scan"}, "fusion_lat": 0.0, "name": "ebef2a6a1560ad8e891b7d97c8b324f9", "is_reserved": 0, "is_disabled": 0, "type": "electric_scooter"}, {"fusion_lon": 0.0, "lat": 38.92232, "lon": -77.036676, "bike_id": "afb50ccb9ec0ea985653fa96d8fc8dc1", "rental_uris": {"android": "https://dc.lft.to/lastmile_qr_scan", "ios": "https://dc.lft.to/lastmile_qr_scan"}, "fusion_lat": 0.0, "name": "afb50ccb9ec0ea985653fa96d8fc8dc1", "is_reserved": 0, "is_disabled": 0, "type": "electric_scooter"}, {"fusion_lon": 0.0, "lat": 38.9286475, "lon": -77.03352633333333, "bike_id": "a408c38e9c2a276b876bbbdedd3fad27", "rental_uris": {"android": "https://dc.lft.to/lastmile_qr_scan", "ios": "https://dc.lft.to/lastmile_qr_scan"}, "fusion_lat": 0.0, "name": "a408c38e9c2a276b876bbbdedd3fad27", "is_reserved": 0, "is_disabled": 0, "type": "electric_scooter"}, {"fusion_lon": 0.0, "lat": 38.916846666666665, "lon": -77.0311115, "bike_id": "57de07f53dc51263e8223cabb1f68fce", "rental_uris": {"android": "https://dc.lft.to/lastmile_qr_scan", "ios": "https://dc.lft.to/lastmile_qr_scan"}, "fusion_lat": 0.0, "name": "57de07f53dc51263e8223cabb1f68fce", "is_reserved": 0, "is_disabled": 0, "type": "electric_scooter"}, {"fusion_lon": 0.0, "lat": 38.903914666666665, "lon": -76.981009, "bike_id": "42c79b870fad0191b95fd224fab79fcf", "rental_uris": {"android": "https://dc.lft.to/lastmile_qr_scan", "ios": "https://dc.lft.to/lastmile_qr_scan"}, "fusion_lat": 0.0, "name": "42c79b870fad0191b95fd224fab79fcf", "is_reserved": 0, "is_disabled": 0, "type": "electric_scooter"}, {"fusion_lon": 0.0, "lat": 38.9241095, "lon": -77.05063483333333, "bike_id": "cf81e20eff90168944c0f30d083d94d6", "rental_uris": {"android": "https://dc.lft.to/lastmile_qr_scan", "ios": "https://dc.lft.to/lastmile_qr_scan"}, "fusion_lat": 0.0, "name": "cf81e20eff90168944c0f30d083d94d6", "is_reserved": 0, "is_disabled": 0, "type": "electric_scooter"}, {"fusion_lon": 0.0, "lat": 38.90954466666667, "lon": -77.02382216666666, "bike_id": "9802eb2840bbbe636e44be4fefacfdeb", "rental_uris": {"android": "https://dc.lft.to/lastmile_qr_scan", "ios": "https://dc.lft.to/lastmile_qr_scan"}, "fusion_lat": 0.0, "name": "9802eb2840bbbe636e44be4fefacfdeb", "is_reserved": 0, "is_disabled": 0, "type": "electric_scooter"}, {"fusion_lon": 0.0, "lat": 38.894971166666664, "lon": -77.002103, "bike_id": "11553442030f0d9355376b32055be953", "rental_uris": {"android": "https://dc.lft.to/lastmile_qr_scan", "ios": "https://dc.lft.to/lastmile_qr_scan"}, "fusion_lat": 0.0, "name": "11553442030f0d9355376b32055be953", "is_reserved": 0, "is_disabled": 0, "type": "electric_scooter"}, {"fusion_lon": 0.0, "lat": 38.9110775, "lon": -77.03827333333334, "bike_id": "a2721fef4d09857b890280b11c8c3977", "rental_uris": {"android": "https://dc.lft.to/lastmile_qr_scan", "ios": "https://dc.lft.to/lastmile_qr_scan"}, "fusion_lat": 0.0, "name": "a2721fef4d09857b890280b11c8c3977", "is_reserved": 0, "is_disabled": 0, "type": "electric_scooter"}, {"fusion_lon": 0.0, "lat": 38.875944833333335, "lon": -77.00579866666666, "bike_id": "08ba184687d34f88bb735c7b17efd718", "rental_uris": {"android": "https://dc.lft.to/lastmile_qr_scan", "ios": "https://dc.lft.to/lastmile_qr_scan"}, "fusion_lat": 0.0, "name": "08ba184687d34f88bb735c7b17efd718", "is_reserved": 0, "is_disabled": 0, "type": "electric_scooter"}, {"fusion_lon": 0.0, "lat": 38.908520333333335, "lon": -76.99673216666666, "bike_id": "e27cf895211cbca07570100b47112e6e", "rental_uris": {"android": "https://dc.lft.to/lastmile_qr_scan", "ios": "https://dc.lft.to/lastmile_qr_scan"}, "fusion_lat": 0.0, "name": "e27cf895211cbca07570100b47112e6e", "is_reserved": 0, "is_disabled": 0, "type": "electric_scooter"}, {"fusion_lon": 0.0, "lat": 38.922268, "lon": -77.04368683333334, "bike_id": "3474f22acade588d01ce460535d04c35", "rental_uris": {"android": "https://dc.lft.to/lastmile_qr_scan", "ios": "https://dc.lft.to/lastmile_qr_scan"}, "fusion_lat": 0.0, "name": "3474f22acade588d01ce460535d04c35", "is_reserved": 0, "is_disabled": 0, "type": "electric_scooter"}, {"fusion_lon": 0.0, "lat": 38.89006966666667, "lon": -76.93753016666666, "bike_id": "01a669cc301a912149cf533de8d4b444", "rental_uris": {"android": "https://dc.lft.to/lastmile_qr_scan", "ios": "https://dc.lft.to/lastmile_qr_scan"}, "fusion_lat": 0.0, "name": "01a669cc301a912149cf533de8d4b444", "is_reserved": 0, "is_disabled": 0, "type": "electric_scooter"}, {"fusion_lon": 0.0, "lat": 38.892173666666665, "lon": -77.00346366666666, "bike_id": "88047743219343fb52027b36ce8dcea2", "rental_uris": {"android": "https://dc.lft.to/lastmile_qr_scan", "ios": "https://dc.lft.to/lastmile_qr_scan"}, "fusion_lat": 0.0, "name": "88047743219343fb52027b36ce8dcea2", "is_reserved": 0, "is_disabled": 0, "type": "electric_scooter"}, {"fusion_lon": 0.0, "lat": 38.88700933333333, "lon": -77.02186033333334, "bike_id": "837712d8e951f5791863da5b40d1be42", "rental_uris": {"android": "https://dc.lft.to/lastmile_qr_scan", "ios": "https://dc.lft.to/lastmile_qr_scan"}, "fusion_lat": 0.0, "name": "837712d8e951f5791863da5b40d1be42", "is_reserved": 0, "is_disabled": 0, "type": "electric_scooter"}, {"fusion_lon": 0.0, "lat": 38.89877, "lon": -76.988404, "bike_id": "2c5aacf13f23319ccac3b05e5d3bd704", "rental_uris": {"android": "https://dc.lft.to/lastmile_qr_scan", "ios": "https://dc.lft.to/lastmile_qr_scan"}, "fusion_lat": 0.0, "name": "2c5aacf13f23319ccac3b05e5d3bd704", "is_reserved": 0, "is_disabled": 0, "type": "electric_scooter"}, {"fusion_lon": 0.0, "lat": 38.918608166666665, "lon": -77.03184083333333, "bike_id": "d20ad363985a3054744a4cb7455df9d6", "rental_uris": {"android": "https://dc.lft.to/lastmile_qr_scan", "ios": "https://dc.lft.to/lastmile_qr_scan"}, "fusion_lat": 0.0, "name": "d20ad363985a3054744a4cb7455df9d6", "is_reserved": 0, "is_disabled": 0, "type": "electric_scooter"}, {"fusion_lon": 0.0, "lat": 38.93245066666667, "lon": -77.0295805, "bike_id": "22d6f317ac01466ce2be00c78880a7e5", "rental_uris": {"android": "https://dc.lft.to/lastmile_qr_scan", "ios": "https://dc.lft.to/lastmile_qr_scan"}, "fusion_lat": 0.0, "name": "22d6f317ac01466ce2be00c78880a7e5", "is_reserved": 0, "is_disabled": 0, "type": "electric_scooter"}, {"fusion_lon": 0.0, "lat": 38.926059333333335, "lon": -77.021669, "bike_id": "4050079f2c1c5bab494ae8c71a4cb945", "rental_uris": {"android": "https://dc.lft.to/lastmile_qr_scan", "ios": "https://dc.lft.to/lastmile_qr_scan"}, "fusion_lat": 0.0, "name": "4050079f2c1c5bab494ae8c71a4cb945", "is_reserved": 0, "is_disabled": 0, "type": "electric_scooter"}, {"fusion_lon": 0.0, "lat": 38.9002795, "lon": -76.98694, "bike_id": "4e6d624ca65a5b427ed438ca7e11530b", "rental_uris": {"android": "https://dc.lft.to/lastmile_qr_scan", "ios": "https://dc.lft.to/lastmile_qr_scan"}, "fusion_lat": 0.0, "name": "4e6d624ca65a5b427ed438ca7e11530b", "is_reserved": 0, "is_disabled": 0, "type": "electric_scooter"}, {"fusion_lon": 0.0, "lat": 38.888218333333334, "lon": -76.97706533333333, "bike_id": "12f9b95d128d8f6e3b323980f912bb5c", "rental_uris": {"android": "https://dc.lft.to/lastmile_qr_scan", "ios": "https://dc.lft.to/lastmile_qr_scan"}, "fusion_lat": 0.0, "name": "12f9b95d128d8f6e3b323980f912bb5c", "is_reserved": 0, "is_disabled": 0, "type": "electric_scooter"}, {"fusion_lon": 0.0, "lat": 38.900065166666664, "lon": -76.93025933333334, "bike_id": "f282294915805e11e013c9708a1f13b2", "rental_uris": {"android": "https://dc.lft.to/lastmile_qr_scan", "ios": "https://dc.lft.to/lastmile_qr_scan"}, "fusion_lat": 0.0, "name": "f282294915805e11e013c9708a1f13b2", "is_reserved": 0, "is_disabled": 0, "type": "electric_scooter"}, {"fusion_lon": 0.0, "lat": 38.913432, "lon": -77.01753433333333, "bike_id": "96a68e9b04f15529297103c0b4785293", "rental_uris": {"android": "https://dc.lft.to/lastmile_qr_scan", "ios": "https://dc.lft.to/lastmile_qr_scan"}, "fusion_lat": 0.0, "name": "96a68e9b04f15529297103c0b4785293", "is_reserved": 0, "is_disabled": 0, "type": "electric_scooter"}, {"fusion_lon": 0.0, "lat": 38.94422083333333, "lon": -77.0552125, "bike_id": "831bd2775d5e890aa1035a40b977acb4", "rental_uris": {"android": "https://dc.lft.to/lastmile_qr_scan", "ios": "https://dc.lft.to/lastmile_qr_scan"}, "fusion_lat": 0.0, "name": "831bd2775d5e890aa1035a40b977acb4", "is_reserved": 0, "is_disabled": 0, "type": "electric_scooter"}, {"fusion_lon": 0.0, "lat": 38.9016525, "lon": -77.05055783333333, "bike_id": "5394689e4e2700f5708ba0f000266726", "rental_uris": {"android": "https://dc.lft.to/lastmile_qr_scan", "ios": "https://dc.lft.to/lastmile_qr_scan"}, "fusion_lat": 0.0, "name": "5394689e4e2700f5708ba0f000266726", "is_reserved": 0, "is_disabled": 0, "type": "electric_scooter"}, {"fusion_lon": 0.0, "lat": 38.903540166666666, "lon": -77.01945766666667, "bike_id": "692c8c9ddca7acf1dcf715ceb72008b7", "rental_uris": {"android": "https://dc.lft.to/lastmile_qr_scan", "ios": "https://dc.lft.to/lastmile_qr_scan"}, "fusion_lat": 0.0, "name": "692c8c9ddca7acf1dcf715ceb72008b7", "is_reserved": 0, "is_disabled": 0, "type": "electric_scooter"}, {"fusion_lon": 0.0, "lat": 38.922593, "lon": -77.0368325, "bike_id": "3f056d6ea73d87d8a2871f5def656fa6", "rental_uris": {"android": "https://dc.lft.to/lastmile_qr_scan", "ios": "https://dc.lft.to/lastmile_qr_scan"}, "fusion_lat": 0.0, "name": "3f056d6ea73d87d8a2871f5def656fa6", "is_reserved": 0, "is_disabled": 0, "type": "electric_scooter"}, {"fusion_lon": 0.0, "lat": 38.904199, "lon": -77.02035216666667, "bike_id": "11a08dbdea8e221734a13259c003de8a", "rental_uris": {"android": "https://dc.lft.to/lastmile_qr_scan", "ios": "https://dc.lft.to/lastmile_qr_scan"}, "fusion_lat": 0.0, "name": "11a08dbdea8e221734a13259c003de8a", "is_reserved": 0, "is_disabled": 0, "type": "electric_scooter"}, {"fusion_lon": 0.0, "lat": 38.8961545, "lon": -77.03192816666666, "bike_id": "123a361ef5fb5dca0b43c5a5a2198650", "rental_uris": {"android": "https://dc.lft.to/lastmile_qr_scan", "ios": "https://dc.lft.to/lastmile_qr_scan"}, "fusion_lat": 0.0, "name": "123a361ef5fb5dca0b43c5a5a2198650", "is_reserved": 0, "is_disabled": 0, "type": "electric_scooter"}, {"fusion_lon": 0.0, "lat": 39.084883166666664, "lon": -76.9505125, "bike_id": "c681538f35b019813f6c058891918964", "rental_uris": {"android": "https://dc.lft.to/lastmile_qr_scan", "ios": "https://dc.lft.to/lastmile_qr_scan"}, "fusion_lat": 0.0, "name": "c681538f35b019813f6c058891918964", "is_reserved": 0, "is_disabled": 0, "type": "electric_bike"}, {"fusion_lon": 0.0, "lat": 38.8956025, "lon": -77.04678883333334, "bike_id": "e3b238a3479ae415a9a58f1ea3107e3b", "rental_uris": {"android": "https://dc.lft.to/lastmile_qr_scan", "ios": "https://dc.lft.to/lastmile_qr_scan"}, "fusion_lat": 0.0, "name": "e3b238a3479ae415a9a58f1ea3107e3b", "is_reserved": 0, "is_disabled": 0, "type": "electric_scooter"}, {"fusion_lon": 0.0, "lat": 38.900675166666666, "lon": -77.0320095, "bike_id": "ccf85c7d01099e72d314029a7871c9a7", "rental_uris": {"android": "https://dc.lft.to/lastmile_qr_scan", "ios": "https://dc.lft.to/lastmile_qr_scan"}, "fusion_lat": 0.0, "name": "ccf85c7d01099e72d314029a7871c9a7", "is_reserved": 0, "is_disabled": 0, "type": "electric_scooter"}, {"fusion_lon": 0.0, "lat": 38.901994, "lon": -77.05903883333333, "bike_id": "2af3c6a95ce83ab9c1e24647649e13db", "rental_uris": {"android": "https://dc.lft.to/lastmile_qr_scan", "ios": "https://dc.lft.to/lastmile_qr_scan"}, "fusion_lat": 0.0, "name": "2af3c6a95ce83ab9c1e24647649e13db", "is_reserved": 0, "is_disabled": 0, "type": "electric_scooter"}, {"fusion_lon": 0.0, "lat": 38.8849135, "lon": -77.01516866666667, "bike_id": "d872eb4e06a7f55632847398968616c7", "rental_uris": {"android": "https://dc.lft.to/lastmile_qr_scan", "ios": "https://dc.lft.to/lastmile_qr_scan"}, "fusion_lat": 0.0, "name": "d872eb4e06a7f55632847398968616c7", "is_reserved": 0, "is_disabled": 0, "type": "electric_scooter"}, {"fusion_lon": 0.0, "lat": 38.98906616666667, "lon": -77.10104416666667, "bike_id": "337b5950653806230596b13625924878", "rental_uris": {"android": "https://dc.lft.to/lastmile_qr_scan", "ios": "https://dc.lft.to/lastmile_qr_scan"}, "fusion_lat": 0.0, "name": "337b5950653806230596b13625924878", "is_reserved": 0, "is_disabled": 0, "type": "electric_bike"}, {"fusion_lon": 0.0, "lat": 38.90364433333333, "lon": -77.04523583333334, "bike_id": "a533a2da0c6c62171c8c1e1cd08b6a39", "rental_uris": {"android": "https://dc.lft.to/lastmile_qr_scan", "ios": "https://dc.lft.to/lastmile_qr_scan"}, "fusion_lat": 0.0, "name": "a533a2da0c6c62171c8c1e1cd08b6a39", "is_reserved": 0, "is_disabled": 0, "type": "electric_scooter"}, {"fusion_lon": 0.0, "lat": 38.934259833333336, "lon": -77.03454816666667, "bike_id": "d2a999ab9db8d1905615d3bbab49cdce", "rental_uris": {"android": "https://dc.lft.to/lastmile_qr_scan", "ios": "https://dc.lft.to/lastmile_qr_scan"}, "fusion_lat": 0.0, "name": "d2a999ab9db8d1905615d3bbab49cdce", "is_reserved": 0, "is_disabled": 0, "type": "electric_scooter"}, {"fusion_lon": 0.0, "lat": 38.902210833333335, "lon": -77.023642, "bike_id": "afc283a75a7c62953dcc985ef75d9f92", "rental_uris": {"android": "https://dc.lft.to/lastmile_qr_scan", "ios": "https://dc.lft.to/lastmile_qr_scan"}, "fusion_lat": 0.0, "name": "afc283a75a7c62953dcc985ef75d9f92", "is_reserved": 0, "is_disabled": 0, "type": "electric_scooter"}, {"fusion_lon": 0.0, "lat": 38.89879, "lon": -77.0273175, "bike_id": "4fd68f6e64f5e20566c051cfbc854bfa", "rental_uris": {"android": "https://dc.lft.to/lastmile_qr_scan", "ios": "https://dc.lft.to/lastmile_qr_scan"}, "fusion_lat": 0.0, "name": "4fd68f6e64f5e20566c051cfbc854bfa", "is_reserved": 0, "is_disabled": 0, "type": "electric_scooter"}, {"fusion_lon": 0.0, "lat": 38.8998475, "lon": -77.0092855, "bike_id": "12fe08209c315894efe200f9bc3a4902", "rental_uris": {"android": "https://dc.lft.to/lastmile_qr_scan", "ios": "https://dc.lft.to/lastmile_qr_scan"}, "fusion_lat": 0.0, "name": "12fe08209c315894efe200f9bc3a4902", "is_reserved": 0, "is_disabled": 0, "type": "electric_scooter"}, {"fusion_lon": 0.0, "lat": 38.89970916666667, "lon": -77.04200516666667, "bike_id": "d053caadd4690156c264c102471f35d2", "rental_uris": {"android": "https://dc.lft.to/lastmile_qr_scan", "ios": "https://dc.lft.to/lastmile_qr_scan"}, "fusion_lat": 0.0, "name": "d053caadd4690156c264c102471f35d2", "is_reserved": 0, "is_disabled": 0, "type": "electric_scooter"}, {"fusion_lon": 0.0, "lat": 38.8758065, "lon": -77.00591183333333, "bike_id": "e164894dc1b1266c43af3cd15bc1c2c7", "rental_uris": {"android": "https://dc.lft.to/lastmile_qr_scan", "ios": "https://dc.lft.to/lastmile_qr_scan"}, "fusion_lat": 0.0, "name": "e164894dc1b1266c43af3cd15bc1c2c7", "is_reserved": 0, "is_disabled": 0, "type": "electric_scooter"}, {"fusion_lon": 0.0, "lat": 38.9051015, "lon": -77.0405865, "bike_id": "d2f172836913b21d62204422b3094042", "rental_uris": {"android": "https://dc.lft.to/lastmile_qr_scan", "ios": "https://dc.lft.to/lastmile_qr_scan"}, "fusion_lat": 0.0, "name": "d2f172836913b21d62204422b3094042", "is_reserved": 0, "is_disabled": 0, "type": "electric_scooter"}, {"fusion_lon": 0.0, "lat": 38.941362166666664, "lon": -77.02329133333333, "bike_id": "6c305c1083a1c29888c8808e2056c153", "rental_uris": {"android": "https://dc.lft.to/lastmile_qr_scan", "ios": "https://dc.lft.to/lastmile_qr_scan"}, "fusion_lat": 0.0, "name": "6c305c1083a1c29888c8808e2056c153", "is_reserved": 0, "is_disabled": 0, "type": "electric_scooter"}, {"fusion_lon": 0.0, "lat": 38.92477066666667, "lon": -77.0224995, "bike_id": "b6504c3994a377527ce59ffda514f53d", "rental_uris": {"android": "https://dc.lft.to/lastmile_qr_scan", "ios": "https://dc.lft.to/lastmile_qr_scan"}, "fusion_lat": 0.0, "name": "b6504c3994a377527ce59ffda514f53d", "is_reserved": 0, "is_disabled": 0, "type": "electric_scooter"}, {"fusion_lon": 0.0, "lat": 38.9052705, "lon": -77.04164083333333, "bike_id": "83834fa48b6107952779909528055aac", "rental_uris": {"android": "https://dc.lft.to/lastmile_qr_scan", "ios": "https://dc.lft.to/lastmile_qr_scan"}, "fusion_lat": 0.0, "name": "83834fa48b6107952779909528055aac", "is_reserved": 0, "is_disabled": 0, "type": "electric_scooter"}, {"fusion_lon": 0.0, "lat": 38.9352825, "lon": -77.072915, "bike_id": "c5de4c8db4f22be5fccc6968e96ce60e", "rental_uris": {"android": "https://dc.lft.to/lastmile_qr_scan", "ios": "https://dc.lft.to/lastmile_qr_scan"}, "fusion_lat": 0.0, "name": "c5de4c8db4f22be5fccc6968e96ce60e", "is_reserved": 0, "is_disabled": 0, "type": "electric_scooter"}, {"fusion_lon": 0.0, "lat": 38.937155833333335, "lon": -77.03289783333334, "bike_id": "ae61c5ee254fca5575b013da7b1c3ccb", "rental_uris": {"android": "https://dc.lft.to/lastmile_qr_scan", "ios": "https://dc.lft.to/lastmile_qr_scan"}, "fusion_lat": 0.0, "name": "ae61c5ee254fca5575b013da7b1c3ccb", "is_reserved": 0, "is_disabled": 0, "type": "electric_scooter"}, {"fusion_lon": 0.0, "lat": 38.92469283333333, "lon": -77.0393865, "bike_id": "55d269c7d5135c5d327af9d2b923214c", "rental_uris": {"android": "https://dc.lft.to/lastmile_qr_scan", "ios": "https://dc.lft.to/lastmile_qr_scan"}, "fusion_lat": 0.0, "name": "55d269c7d5135c5d327af9d2b923214c", "is_reserved": 0, "is_disabled": 0, "type": "electric_scooter"}, {"fusion_lon": 0.0, "lat": 38.923401166666665, "lon": -76.97143933333334, "bike_id": "0ffe8a4e94e12916164438b487f2e8c1", "rental_uris": {"android": "https://dc.lft.to/lastmile_qr_scan", "ios": "https://dc.lft.to/lastmile_qr_scan"}, "fusion_lat": 0.0, "name": "0ffe8a4e94e12916164438b487f2e8c1", "is_reserved": 0, "is_disabled": 0, "type": "electric_bike"}, {"fusion_lon": 0.0, "lat": 38.9180205, "lon": -77.027151, "bike_id": "1faf0d200cba54b04cca6e999719b11d", "rental_uris": {"android": "https://dc.lft.to/lastmile_qr_scan", "ios": "https://dc.lft.to/lastmile_qr_scan"}, "fusion_lat": 0.0, "name": "1faf0d200cba54b04cca6e999719b11d", "is_reserved": 0, "is_disabled": 0, "type": "electric_scooter"}, {"fusion_lon": 0.0, "lat": 38.90917316666667, "lon": -77.07279783333334, "bike_id": "ae8a922db9128e3a3d89c36f4fc05874", "rental_uris": {"android": "https://dc.lft.to/lastmile_qr_scan", "ios": "https://dc.lft.to/lastmile_qr_scan"}, "fusion_lat": 0.0, "name": "ae8a922db9128e3a3d89c36f4fc05874", "is_reserved": 0, "is_disabled": 0, "type": "electric_scooter"}, {"fusion_lon": 0.0, "lat": 38.89221833333333, "lon": -77.04273283333333, "bike_id": "a0503b43cee5827a9cfafb735f763058", "rental_uris": {"android": "https://dc.lft.to/lastmile_qr_scan", "ios": "https://dc.lft.to/lastmile_qr_scan"}, "fusion_lat": 0.0, "name": "a0503b43cee5827a9cfafb735f763058", "is_reserved": 0, "is_disabled": 0, "type": "electric_scooter"}, {"fusion_lon": 0.0, "lat": 38.9053015, "lon": -77.02198066666666, "bike_id": "0b62267831ccdb8a88ddb34ef285eb62", "rental_uris": {"android": "https://dc.lft.to/lastmile_qr_scan", "ios": "https://dc.lft.to/lastmile_qr_scan"}, "fusion_lat": 0.0, "name": "0b62267831ccdb8a88ddb34ef285eb62", "is_reserved": 0, "is_disabled": 0, "type": "electric_scooter"}, {"fusion_lon": 0.0, "lat": 38.92402633333333, "lon": -77.0202965, "bike_id": "9342cbd862bfd52705b374031f0157a1", "rental_uris": {"android": "https://dc.lft.to/lastmile_qr_scan", "ios": "https://dc.lft.to/lastmile_qr_scan"}, "fusion_lat": 0.0, "name": "9342cbd862bfd52705b374031f0157a1", "is_reserved": 0, "is_disabled": 0, "type": "electric_scooter"}, {"fusion_lon": 0.0, "lat": 38.957595, "lon": -77.00912483333333, "bike_id": "3115ff902ea325d800c3d04829c52101", "rental_uris": {"android": "https://dc.lft.to/lastmile_qr_scan", "ios": "https://dc.lft.to/lastmile_qr_scan"}, "fusion_lat": 0.0, "name": "3115ff902ea325d800c3d04829c52101", "is_reserved": 0, "is_disabled": 0, "type": "electric_scooter"}, {"fusion_lon": 0.0, "lat": 38.91587366666667, "lon": -77.04516, "bike_id": "8d41574cb77957dc440eb6622bfea016", "rental_uris": {"android": "https://dc.lft.to/lastmile_qr_scan", "ios": "https://dc.lft.to/lastmile_qr_scan"}, "fusion_lat": 0.0, "name": "8d41574cb77957dc440eb6622bfea016", "is_reserved": 0, "is_disabled": 0, "type": "electric_scooter"}, {"fusion_lon": 0.0, "lat": 38.91922983333333, "lon": -77.045508, "bike_id": "35ad8e51a3c44849f7a10876f85ce79a", "rental_uris": {"android": "https://dc.lft.to/lastmile_qr_scan", "ios": "https://dc.lft.to/lastmile_qr_scan"}, "fusion_lat": 0.0, "name": "35ad8e51a3c44849f7a10876f85ce79a", "is_reserved": 0, "is_disabled": 0, "type": "electric_scooter"}, {"fusion_lon": 0.0, "lat": 38.92511183333333, "lon": -77.002255, "bike_id": "8d0e285ce537e58efec4204a23ac7efe", "rental_uris": {"android": "https://dc.lft.to/lastmile_qr_scan", "ios": "https://dc.lft.to/lastmile_qr_scan"}, "fusion_lat": 0.0, "name": "8d0e285ce537e58efec4204a23ac7efe", "is_reserved": 0, "is_disabled": 0, "type": "electric_scooter"}, {"fusion_lon": 0.0, "lat": 38.9260635, "lon": -77.02165933333333, "bike_id": "0b98324003324731a992166c44a5273f", "rental_uris": {"android": "https://dc.lft.to/lastmile_qr_scan", "ios": "https://dc.lft.to/lastmile_qr_scan"}, "fusion_lat": 0.0, "name": "0b98324003324731a992166c44a5273f", "is_reserved": 0, "is_disabled": 0, "type": "electric_scooter"}, {"fusion_lon": 0.0, "lat": 38.955126166666666, "lon": -77.010459, "bike_id": "dabbb6f543539270556104d6d1dd955b", "rental_uris": {"android": "https://dc.lft.to/lastmile_qr_scan", "ios": "https://dc.lft.to/lastmile_qr_scan"}, "fusion_lat": 0.0, "name": "dabbb6f543539270556104d6d1dd955b", "is_reserved": 0, "is_disabled": 0, "type": "electric_scooter"}, {"fusion_lon": 0.0, "lat": 38.895059, "lon": -77.04641933333333, "bike_id": "ca522af6e54f33f889bb1bcd8a99efc1", "rental_uris": {"android": "https://dc.lft.to/lastmile_qr_scan", "ios": "https://dc.lft.to/lastmile_qr_scan"}, "fusion_lat": 0.0, "name": "ca522af6e54f33f889bb1bcd8a99efc1", "is_reserved": 0, "is_disabled": 0, "type": "electric_scooter"}, {"fusion_lon": 0.0, "lat": 38.911713, "lon": -77.005535, "bike_id": "13696e61a105502b048945b68616289b", "rental_uris": {"android": "https://dc.lft.to/lastmile_qr_scan", "ios": "https://dc.lft.to/lastmile_qr_scan"}, "fusion_lat": 0.0, "name": "13696e61a105502b048945b68616289b", "is_reserved": 0, "is_disabled": 0, "type": "electric_scooter"}, {"fusion_lon": 0.0, "lat": 38.90260466666667, "lon": -77.03185783333333, "bike_id": "322557c4720d9d0859d40c0906c67c54", "rental_uris": {"android": "https://dc.lft.to/lastmile_qr_scan", "ios": "https://dc.lft.to/lastmile_qr_scan"}, "fusion_lat": 0.0, "name": "322557c4720d9d0859d40c0906c67c54", "is_reserved": 0, "is_disabled": 0, "type": "electric_scooter"}, {"fusion_lon": 0.0, "lat": 38.896047, "lon": -77.02988683333334, "bike_id": "57eb0f31451ff622f17b10252f5370c6", "rental_uris": {"android": "https://dc.lft.to/lastmile_qr_scan", "ios": "https://dc.lft.to/lastmile_qr_scan"}, "fusion_lat": 0.0, "name": "57eb0f31451ff622f17b10252f5370c6", "is_reserved": 0, "is_disabled": 0, "type": "electric_scooter"}, {"fusion_lon": 0.0, "lat": 38.8875205, "lon": -77.00265483333334, "bike_id": "6d305c5edb8a72e57ae54393ea30996e", "rental_uris": {"android": "https://dc.lft.to/lastmile_qr_scan", "ios": "https://dc.lft.to/lastmile_qr_scan"}, "fusion_lat": 0.0, "name": "6d305c5edb8a72e57ae54393ea30996e", "is_reserved": 0, "is_disabled": 0, "type": "electric_scooter"}, {"fusion_lon": 0.0, "lat": 38.91986516666667, "lon": -77.02202983333333, "bike_id": "b8705354b6ca81fd5cd3eaad0e8572c9", "rental_uris": {"android": "https://dc.lft.to/lastmile_qr_scan", "ios": "https://dc.lft.to/lastmile_qr_scan"}, "fusion_lat": 0.0, "name": "b8705354b6ca81fd5cd3eaad0e8572c9", "is_reserved": 0, "is_disabled": 0, "type": "electric_scooter"}, {"fusion_lon": 0.0, "lat": 38.914148833333336, "lon": -77.0450305, "bike_id": "91a5d29a5a51eb478066d7edfe480f23", "rental_uris": {"android": "https://dc.lft.to/lastmile_qr_scan", "ios": "https://dc.lft.to/lastmile_qr_scan"}, "fusion_lat": 0.0, "name": "91a5d29a5a51eb478066d7edfe480f23", "is_reserved": 0, "is_disabled": 0, "type": "electric_scooter"}, {"fusion_lon": 0.0, "lat": 38.92013266666667, "lon": -76.97837883333334, "bike_id": "61ae4f1e66f88a14ff7735925f1a516c", "rental_uris": {"android": "https://dc.lft.to/lastmile_qr_scan", "ios": "https://dc.lft.to/lastmile_qr_scan"}, "fusion_lat": 0.0, "name": "61ae4f1e66f88a14ff7735925f1a516c", "is_reserved": 0, "is_disabled": 0, "type": "electric_scooter"}, {"fusion_lon": 0.0, "lat": 38.88575266666667, "lon": -77.01544833333334, "bike_id": "7763a78011cbcfde68ae469741932084", "rental_uris": {"android": "https://dc.lft.to/lastmile_qr_scan", "ios": "https://dc.lft.to/lastmile_qr_scan"}, "fusion_lat": 0.0, "name": "7763a78011cbcfde68ae469741932084", "is_reserved": 0, "is_disabled": 0, "type": "electric_scooter"}, {"fusion_lon": 0.0, "lat": 38.89338816666667, "lon": -77.015111, "bike_id": "daeac81032e65ced420358dbbd8d6ab7", "rental_uris": {"android": "https://dc.lft.to/lastmile_qr_scan", "ios": "https://dc.lft.to/lastmile_qr_scan"}, "fusion_lat": 0.0, "name": "daeac81032e65ced420358dbbd8d6ab7", "is_reserved": 0, "is_disabled": 0, "type": "electric_scooter"}, {"fusion_lon": 0.0, "lat": 38.980210166666666, "lon": -76.94236566666666, "bike_id": "5b9d9c9e13b0f712c091f34432c5ac65", "rental_uris": {"android": "https://dc.lft.to/lastmile_qr_scan", "ios": "https://dc.lft.to/lastmile_qr_scan"}, "fusion_lat": 0.0, "name": "5b9d9c9e13b0f712c091f34432c5ac65", "is_reserved": 0, "is_disabled": 0, "type": "electric_bike"}, {"fusion_lon": 0.0, "lat": 38.90036283333333, "lon": -76.99836116666667, "bike_id": "8193cf9deb4a3020a77bbb945c4faa58", "rental_uris": {"android": "https://dc.lft.to/lastmile_qr_scan", "ios": "https://dc.lft.to/lastmile_qr_scan"}, "fusion_lat": 0.0, "name": "8193cf9deb4a3020a77bbb945c4faa58", "is_reserved": 0, "is_disabled": 0, "type": "electric_scooter"}, {"fusion_lon": 0.0, "lat": 38.906232, "lon": -77.0502785, "bike_id": "6fe440b1f202c112c933bf5b0a2378ac", "rental_uris": {"android": "https://dc.lft.to/lastmile_qr_scan", "ios": "https://dc.lft.to/lastmile_qr_scan"}, "fusion_lat": 0.0, "name": "6fe440b1f202c112c933bf5b0a2378ac", "is_reserved": 0, "is_disabled": 0, "type": "electric_scooter"}, {"fusion_lon": 0.0, "lat": 38.80892033333333, "lon": -77.11559033333333, "bike_id": "adbfb53d3f80a1bfbecc0089148b8a52", "rental_uris": {"android": "https://dc.lft.to/lastmile_qr_scan", "ios": "https://dc.lft.to/lastmile_qr_scan"}, "fusion_lat": 0.0, "name": "adbfb53d3f80a1bfbecc0089148b8a52", "is_reserved": 0, "is_disabled": 0, "type": "electric_bike"}, {"fusion_lon": 0.0, "lat": 38.9278855, "lon": -77.0220815, "bike_id": "82a50465ee7b12baac49bfd891f781ef", "rental_uris": {"android": "https://dc.lft.to/lastmile_qr_scan", "ios": "https://dc.lft.to/lastmile_qr_scan"}, "fusion_lat": 0.0, "name": "82a50465ee7b12baac49bfd891f781ef", "is_reserved": 0, "is_disabled": 0, "type": "electric_scooter"}, {"fusion_lon": 0.0, "lat": 38.908694833333335, "lon": -77.07167016666666, "bike_id": "67031cf85551fff1fcf6435382aa9e66", "rental_uris": {"android": "https://dc.lft.to/lastmile_qr_scan", "ios": "https://dc.lft.to/lastmile_qr_scan"}, "fusion_lat": 0.0, "name": "67031cf85551fff1fcf6435382aa9e66", "is_reserved": 0, "is_disabled": 0, "type": "electric_scooter"}, {"fusion_lon": 0.0, "lat": 38.90457383333333, "lon": -77.03452666666666, "bike_id": "7bbc924ab933dcc7adaebc481af0f126", "rental_uris": {"android": "https://dc.lft.to/lastmile_qr_scan", "ios": "https://dc.lft.to/lastmile_qr_scan"}, "fusion_lat": 0.0, "name": "7bbc924ab933dcc7adaebc481af0f126", "is_reserved": 0, "is_disabled": 0, "type": "electric_scooter"}, {"fusion_lon": 0.0, "lat": 38.90569283333333, "lon": -77.04692666666666, "bike_id": "1367a840e3bcfb1335915a4f1c1d68da", "rental_uris": {"android": "https://dc.lft.to/lastmile_qr_scan", "ios": "https://dc.lft.to/lastmile_qr_scan"}, "fusion_lat": 0.0, "name": "1367a840e3bcfb1335915a4f1c1d68da", "is_reserved": 0, "is_disabled": 0, "type": "electric_scooter"}, {"fusion_lon": 0.0, "lat": 38.87572683333333, "lon": -77.00579566666667, "bike_id": "476333cd77a2217a4d6dddc89d5a4d84", "rental_uris": {"android": "https://dc.lft.to/lastmile_qr_scan", "ios": "https://dc.lft.to/lastmile_qr_scan"}, "fusion_lat": 0.0, "name": "476333cd77a2217a4d6dddc89d5a4d84", "is_reserved": 0, "is_disabled": 0, "type": "electric_scooter"}, {"fusion_lon": 0.0, "lat": 38.917584166666664, "lon": -77.00913083333333, "bike_id": "ec70bfd72c14f6e09c2995d0b400df55", "rental_uris": {"android": "https://dc.lft.to/lastmile_qr_scan", "ios": "https://dc.lft.to/lastmile_qr_scan"}, "fusion_lat": 0.0, "name": "ec70bfd72c14f6e09c2995d0b400df55", "is_reserved": 0, "is_disabled": 0, "type": "electric_scooter"}, {"fusion_lon": 0.0, "lat": 38.897328333333334, "lon": -77.02994533333333, "bike_id": "df49d8c58adcd1c0d1abafa0c564f021", "rental_uris": {"android": "https://dc.lft.to/lastmile_qr_scan", "ios": "https://dc.lft.to/lastmile_qr_scan"}, "fusion_lat": 0.0, "name": "df49d8c58adcd1c0d1abafa0c564f021", "is_reserved": 0, "is_disabled": 0, "type": "electric_scooter"}, {"fusion_lon": 0.0, "lat": 38.88853683333333, "lon": -77.032382, "bike_id": "c3c64330e7c01b1c9446798a5da398d0", "rental_uris": {"android": "https://dc.lft.to/lastmile_qr_scan", "ios": "https://dc.lft.to/lastmile_qr_scan"}, "fusion_lat": 0.0, "name": "c3c64330e7c01b1c9446798a5da398d0", "is_reserved": 0, "is_disabled": 0, "type": "electric_bike"}, {"fusion_lon": 0.0, "lat": 38.87177833333333, "lon": -77.23390766666667, "bike_id": "e47a2dba8e6b271179800945bba200d3", "rental_uris": {"android": "https://dc.lft.to/lastmile_qr_scan", "ios": "https://dc.lft.to/lastmile_qr_scan"}, "fusion_lat": 0.0, "name": "e47a2dba8e6b271179800945bba200d3", "is_reserved": 0, "is_disabled": 0, "type": "electric_bike"}, {"fusion_lon": 0.0, "lat": 38.86709333333334, "lon": -77.010117, "bike_id": "ba2ac8a84279a0cfa7e59237340633e3", "rental_uris": {"android": "https://dc.lft.to/lastmile_qr_scan", "ios": "https://dc.lft.to/lastmile_qr_scan"}, "fusion_lat": 0.0, "name": "ba2ac8a84279a0cfa7e59237340633e3", "is_reserved": 0, "is_disabled": 0, "type": "electric_scooter"}, {"fusion_lon": 0.0, "lat": 38.92280016666667, "lon": -77.03404616666667, "bike_id": "b6a3b8a74012c9e665bff541f45d03df", "rental_uris": {"android": "https://dc.lft.to/lastmile_qr_scan", "ios": "https://dc.lft.to/lastmile_qr_scan"}, "fusion_lat": 0.0, "name": "b6a3b8a74012c9e665bff541f45d03df", "is_reserved": 0, "is_disabled": 0, "type": "electric_scooter"}, {"fusion_lon": 0.0, "lat": 38.88077283333333, "lon": -76.98534483333333, "bike_id": "a4a6e07ccbe69f655db87f4d7ac2d103", "rental_uris": {"android": "https://dc.lft.to/lastmile_qr_scan", "ios": "https://dc.lft.to/lastmile_qr_scan"}, "fusion_lat": 0.0, "name": "a4a6e07ccbe69f655db87f4d7ac2d103", "is_reserved": 0, "is_disabled": 0, "type": "electric_scooter"}, {"fusion_lon": 0.0, "lat": 38.926740833333334, "lon": -77.01472666666666, "bike_id": "9ea582afcf602b61844e45017ee6332b", "rental_uris": {"android": "https://dc.lft.to/lastmile_qr_scan", "ios": "https://dc.lft.to/lastmile_qr_scan"}, "fusion_lat": 0.0, "name": "9ea582afcf602b61844e45017ee6332b", "is_reserved": 0, "is_disabled": 0, "type": "electric_scooter"}, {"fusion_lon": 0.0, "lat": 38.900636166666665, "lon": -77.045353, "bike_id": "35b73ba710caa12a807ec5d9773d6282", "rental_uris": {"android": "https://dc.lft.to/lastmile_qr_scan", "ios": "https://dc.lft.to/lastmile_qr_scan"}, "fusion_lat": 0.0, "name": "35b73ba710caa12a807ec5d9773d6282", "is_reserved": 0, "is_disabled": 0, "type": "electric_scooter"}, {"fusion_lon": 0.0, "lat": 38.91247416666667, "lon": -77.03867783333334, "bike_id": "3df69e00766df8cfc424cfc9669f1da4", "rental_uris": {"android": "https://dc.lft.to/lastmile_qr_scan", "ios": "https://dc.lft.to/lastmile_qr_scan"}, "fusion_lat": 0.0, "name": "3df69e00766df8cfc424cfc9669f1da4", "is_reserved": 0, "is_disabled": 0, "type": "electric_scooter"}, {"fusion_lon": 0.0, "lat": 38.92664966666667, "lon": -77.0149725, "bike_id": "b4b5e156710751531b61afe7c0fb24c2", "rental_uris": {"android": "https://dc.lft.to/lastmile_qr_scan", "ios": "https://dc.lft.to/lastmile_qr_scan"}, "fusion_lat": 0.0, "name": "b4b5e156710751531b61afe7c0fb24c2", "is_reserved": 0, "is_disabled": 0, "type": "electric_scooter"}, {"fusion_lon": 0.0, "lat": 38.924805166666665, "lon": -77.02897683333333, "bike_id": "a36e2150bb5abc44d1962b9cef95cdce", "rental_uris": {"android": "https://dc.lft.to/lastmile_qr_scan", "ios": "https://dc.lft.to/lastmile_qr_scan"}, "fusion_lat": 0.0, "name": "a36e2150bb5abc44d1962b9cef95cdce", "is_reserved": 0, "is_disabled": 0, "type": "electric_scooter"}, {"fusion_lon": 0.0, "lat": 38.898187166666666, "lon": -77.0332195, "bike_id": "3ebcb29fb2d6134b576fa2407deb8daf", "rental_uris": {"android": "https://dc.lft.to/lastmile_qr_scan", "ios": "https://dc.lft.to/lastmile_qr_scan"}, "fusion_lat": 0.0, "name": "3ebcb29fb2d6134b576fa2407deb8daf", "is_reserved": 0, "is_disabled": 0, "type": "electric_scooter"}, {"fusion_lon": 0.0, "lat": 38.87570766666666, "lon": -77.0057605, "bike_id": "ae90f441b47dbb3354b1230cdc99843a", "rental_uris": {"android": "https://dc.lft.to/lastmile_qr_scan", "ios": "https://dc.lft.to/lastmile_qr_scan"}, "fusion_lat": 0.0, "name": "ae90f441b47dbb3354b1230cdc99843a", "is_reserved": 0, "is_disabled": 0, "type": "electric_scooter"}, {"fusion_lon": 0.0, "lat": 38.895357833333335, "lon": -76.98895033333334, "bike_id": "5ab41085559a0c2541cba99ecfc784c8", "rental_uris": {"android": "https://dc.lft.to/lastmile_qr_scan", "ios": "https://dc.lft.to/lastmile_qr_scan"}, "fusion_lat": 0.0, "name": "5ab41085559a0c2541cba99ecfc784c8", "is_reserved": 0, "is_disabled": 0, "type": "electric_scooter"}, {"fusion_lon": 0.0, "lat": 38.90284666666667, "lon": -77.03860366666666, "bike_id": "0e57519dd4b88d5b027a119e777bc501", "rental_uris": {"android": "https://dc.lft.to/lastmile_qr_scan", "ios": "https://dc.lft.to/lastmile_qr_scan"}, "fusion_lat": 0.0, "name": "0e57519dd4b88d5b027a119e777bc501", "is_reserved": 0, "is_disabled": 0, "type": "electric_scooter"}, {"fusion_lon": 0.0, "lat": 38.936749666666664, "lon": -77.03573233333333, "bike_id": "80380c501750d1cff79f65f46e50b97b", "rental_uris": {"android": "https://dc.lft.to/lastmile_qr_scan", "ios": "https://dc.lft.to/lastmile_qr_scan"}, "fusion_lat": 0.0, "name": "80380c501750d1cff79f65f46e50b97b", "is_reserved": 0, "is_disabled": 0, "type": "electric_scooter"}, {"fusion_lon": 0.0, "lat": 38.900699, "lon": -77.048504, "bike_id": "9a5e9183e8ffd9671748c81e1106a453", "rental_uris": {"android": "https://dc.lft.to/lastmile_qr_scan", "ios": "https://dc.lft.to/lastmile_qr_scan"}, "fusion_lat": 0.0, "name": "9a5e9183e8ffd9671748c81e1106a453", "is_reserved": 0, "is_disabled": 0, "type": "electric_scooter"}, {"fusion_lon": 0.0, "lat": 38.89617116666667, "lon": -77.030367, "bike_id": "303438c0a2991f80ee913d3365de0dbb", "rental_uris": {"android": "https://dc.lft.to/lastmile_qr_scan", "ios": "https://dc.lft.to/lastmile_qr_scan"}, "fusion_lat": 0.0, "name": "303438c0a2991f80ee913d3365de0dbb", "is_reserved": 0, "is_disabled": 0, "type": "electric_scooter"}, {"fusion_lon": 0.0, "lat": 38.92875316666667, "lon": -77.0348055, "bike_id": "94f1d02290f8035f84037e3bfd5da6bd", "rental_uris": {"android": "https://dc.lft.to/lastmile_qr_scan", "ios": "https://dc.lft.to/lastmile_qr_scan"}, "fusion_lat": 0.0, "name": "94f1d02290f8035f84037e3bfd5da6bd", "is_reserved": 0, "is_disabled": 0, "type": "electric_scooter"}, {"fusion_lon": 0.0, "lat": 38.93523116666667, "lon": -77.02855483333333, "bike_id": "3d011f83f96a814b86cc4a066073a498", "rental_uris": {"android": "https://dc.lft.to/lastmile_qr_scan", "ios": "https://dc.lft.to/lastmile_qr_scan"}, "fusion_lat": 0.0, "name": "3d011f83f96a814b86cc4a066073a498", "is_reserved": 0, "is_disabled": 0, "type": "electric_scooter"}, {"fusion_lon": 0.0, "lat": 38.87680316666667, "lon": -77.00292916666666, "bike_id": "419e8c2bec30cb0424db729d3903e426", "rental_uris": {"android": "https://dc.lft.to/lastmile_qr_scan", "ios": "https://dc.lft.to/lastmile_qr_scan"}, "fusion_lat": 0.0, "name": "419e8c2bec30cb0424db729d3903e426", "is_reserved": 0, "is_disabled": 0, "type": "electric_scooter"}, {"fusion_lon": 0.0, "lat": 38.902605666666666, "lon": -77.06171, "bike_id": "10a29a134bfadf05d3417de7b2dea4a9", "rental_uris": {"android": "https://dc.lft.to/lastmile_qr_scan", "ios": "https://dc.lft.to/lastmile_qr_scan"}, "fusion_lat": 0.0, "name": "10a29a134bfadf05d3417de7b2dea4a9", "is_reserved": 0, "is_disabled": 0, "type": "electric_scooter"}, {"fusion_lon": 0.0, "lat": 38.907825333333335, "lon": -77.04489383333333, "bike_id": "7c834f2c736cd98e1dd3e8ba5c1cb7fb", "rental_uris": {"android": "https://dc.lft.to/lastmile_qr_scan", "ios": "https://dc.lft.to/lastmile_qr_scan"}, "fusion_lat": 0.0, "name": "7c834f2c736cd98e1dd3e8ba5c1cb7fb", "is_reserved": 0, "is_disabled": 0, "type": "electric_scooter"}, {"fusion_lon": 0.0, "lat": 38.89749883333333, "lon": -77.03184433333334, "bike_id": "75f1b68bdb1d1b5b7302df273fa1a94a", "rental_uris": {"android": "https://dc.lft.to/lastmile_qr_scan", "ios": "https://dc.lft.to/lastmile_qr_scan"}, "fusion_lat": 0.0, "name": "75f1b68bdb1d1b5b7302df273fa1a94a", "is_reserved": 0, "is_disabled": 0, "type": "electric_scooter"}, {"fusion_lon": 0.0, "lat": 38.885360166666665, "lon": -76.98208333333334, "bike_id": "418236a9beff60bce8e0a1c93901ad46", "rental_uris": {"android": "https://dc.lft.to/lastmile_qr_scan", "ios": "https://dc.lft.to/lastmile_qr_scan"}, "fusion_lat": 0.0, "name": "418236a9beff60bce8e0a1c93901ad46", "is_reserved": 0, "is_disabled": 0, "type": "electric_scooter"}, {"fusion_lon": 0.0, "lat": 38.89371233333333, "lon": -77.03161033333333, "bike_id": "0fbea409ab0826f75eafbec029977bb2", "rental_uris": {"android": "https://dc.lft.to/lastmile_qr_scan", "ios": "https://dc.lft.to/lastmile_qr_scan"}, "fusion_lat": 0.0, "name": "0fbea409ab0826f75eafbec029977bb2", "is_reserved": 0, "is_disabled": 0, "type": "electric_scooter"}, {"fusion_lon": 0.0, "lat": 38.91857233333333, "lon": -77.02524583333333, "bike_id": "3c924c7862072bc53f421f58952d5a24", "rental_uris": {"android": "https://dc.lft.to/lastmile_qr_scan", "ios": "https://dc.lft.to/lastmile_qr_scan"}, "fusion_lat": 0.0, "name": "3c924c7862072bc53f421f58952d5a24", "is_reserved": 0, "is_disabled": 0, "type": "electric_scooter"}, {"fusion_lon": 0.0, "lat": 38.921339833333334, "lon": -77.0116685, "bike_id": "169406aa474c59998ea401c25d4c847f", "rental_uris": {"android": "https://dc.lft.to/lastmile_qr_scan", "ios": "https://dc.lft.to/lastmile_qr_scan"}, "fusion_lat": 0.0, "name": "169406aa474c59998ea401c25d4c847f", "is_reserved": 0, "is_disabled": 0, "type": "electric_scooter"}, {"fusion_lon": 0.0, "lat": 38.9194015, "lon": -77.0221695, "bike_id": "01ec9415c2bbe094774eb483a00d1c32", "rental_uris": {"android": "https://dc.lft.to/lastmile_qr_scan", "ios": "https://dc.lft.to/lastmile_qr_scan"}, "fusion_lat": 0.0, "name": "01ec9415c2bbe094774eb483a00d1c32", "is_reserved": 0, "is_disabled": 0, "type": "electric_scooter"}, {"fusion_lon": 0.0, "lat": 38.902282666666665, "lon": -77.04408333333333, "bike_id": "9f00216c909f9de43e7026c1d02014ec", "rental_uris": {"android": "https://dc.lft.to/lastmile_qr_scan", "ios": "https://dc.lft.to/lastmile_qr_scan"}, "fusion_lat": 0.0, "name": "9f00216c909f9de43e7026c1d02014ec", "is_reserved": 0, "is_disabled": 0, "type": "electric_scooter"}, {"fusion_lon": 0.0, "lat": 38.945409166666664, "lon": -77.344659, "bike_id": "0cac1840424acd11f303896f1134c12f", "rental_uris": {"android": "https://dc.lft.to/lastmile_qr_scan", "ios": "https://dc.lft.to/lastmile_qr_scan"}, "fusion_lat": 0.0, "name": "0cac1840424acd11f303896f1134c12f", "is_reserved": 0, "is_disabled": 0, "type": "electric_bike"}, {"fusion_lon": 0.0, "lat": 39.0843055, "lon": -76.951489, "bike_id": "708da24d0f053edf620ee2e4df2a61e2", "rental_uris": {"android": "https://dc.lft.to/lastmile_qr_scan", "ios": "https://dc.lft.to/lastmile_qr_scan"}, "fusion_lat": 0.0, "name": "708da24d0f053edf620ee2e4df2a61e2", "is_reserved": 0, "is_disabled": 0, "type": "electric_bike"}, {"fusion_lon": 0.0, "lat": 38.9086935, "lon": -77.0716895, "bike_id": "6d44b68afd5dd955dc99b5404296a6bf", "rental_uris": {"android": "https://dc.lft.to/lastmile_qr_scan", "ios": "https://dc.lft.to/lastmile_qr_scan"}, "fusion_lat": 0.0, "name": "6d44b68afd5dd955dc99b5404296a6bf", "is_reserved": 0, "is_disabled": 0, "type": "electric_scooter"}, {"fusion_lon": 0.0, "lat": 38.88658983333333, "lon": -76.9367615, "bike_id": "dac6d7d9a9ec42fbe78c2e42640ce187", "rental_uris": {"android": "https://dc.lft.to/lastmile_qr_scan", "ios": "https://dc.lft.to/lastmile_qr_scan"}, "fusion_lat": 0.0, "name": "dac6d7d9a9ec42fbe78c2e42640ce187", "is_reserved": 0, "is_disabled": 0, "type": "electric_scooter"}, {"fusion_lon": 0.0, "lat": 38.92156166666667, "lon": -77.0209185, "bike_id": "7dc30229c50ddb3d70060f9bd4000db6", "rental_uris": {"android": "https://dc.lft.to/lastmile_qr_scan", "ios": "https://dc.lft.to/lastmile_qr_scan"}, "fusion_lat": 0.0, "name": "7dc30229c50ddb3d70060f9bd4000db6", "is_reserved": 0, "is_disabled": 0, "type": "electric_scooter"}, {"fusion_lon": 0.0, "lat": 38.924686333333334, "lon": -77.02218616666667, "bike_id": "71ae6cb53462387f313450fa468d7cd9", "rental_uris": {"android": "https://dc.lft.to/lastmile_qr_scan", "ios": "https://dc.lft.to/lastmile_qr_scan"}, "fusion_lat": 0.0, "name": "71ae6cb53462387f313450fa468d7cd9", "is_reserved": 0, "is_disabled": 0, "type": "electric_scooter"}, {"fusion_lon": 0.0, "lat": 38.907371499999996, "lon": -77.007812, "bike_id": "16238b0425d0e7da1c7d13c94807162d", "rental_uris": {"android": "https://dc.lft.to/lastmile_qr_scan", "ios": "https://dc.lft.to/lastmile_qr_scan"}, "fusion_lat": 0.0, "name": "16238b0425d0e7da1c7d13c94807162d", "is_reserved": 0, "is_disabled": 0, "type": "electric_scooter"}, {"fusion_lon": 0.0, "lat": 38.91035016666667, "lon": -77.06493016666667, "bike_id": "7f7ee9f06e0f485360a22ed2870656c1", "rental_uris": {"android": "https://dc.lft.to/lastmile_qr_scan", "ios": "https://dc.lft.to/lastmile_qr_scan"}, "fusion_lat": 0.0, "name": "7f7ee9f06e0f485360a22ed2870656c1", "is_reserved": 0, "is_disabled": 0, "type": "electric_scooter"}, {"fusion_lon": 0.0, "lat": 38.91921, "lon": -77.00994116666666, "bike_id": "d69d150d43d5197d824007de9cc74e18", "rental_uris": {"android": "https://dc.lft.to/lastmile_qr_scan", "ios": "https://dc.lft.to/lastmile_qr_scan"}, "fusion_lat": 0.0, "name": "d69d150d43d5197d824007de9cc74e18", "is_reserved": 0, "is_disabled": 0, "type": "electric_scooter"}, {"fusion_lon": 0.0, "lat": 38.883904333333334, "lon": -76.93041483333333, "bike_id": "b7b045e230c43ea3620044a529c96fb3", "rental_uris": {"android": "https://dc.lft.to/lastmile_qr_scan", "ios": "https://dc.lft.to/lastmile_qr_scan"}, "fusion_lat": 0.0, "name": "b7b045e230c43ea3620044a529c96fb3", "is_reserved": 0, "is_disabled": 0, "type": "electric_scooter"}, {"fusion_lon": 0.0, "lat": 38.92598616666667, "lon": -77.0216015, "bike_id": "6fa3c7e6e516fc17473fb959a186f290", "rental_uris": {"android": "https://dc.lft.to/lastmile_qr_scan", "ios": "https://dc.lft.to/lastmile_qr_scan"}, "fusion_lat": 0.0, "name": "6fa3c7e6e516fc17473fb959a186f290", "is_reserved": 0, "is_disabled": 0, "type": "electric_scooter"}, {"fusion_lon": 0.0, "lat": 38.922481833333336, "lon": -77.01948333333333, "bike_id": "8f8591c76ed09b00d7a2515c74851aeb", "rental_uris": {"android": "https://dc.lft.to/lastmile_qr_scan", "ios": "https://dc.lft.to/lastmile_qr_scan"}, "fusion_lat": 0.0, "name": "8f8591c76ed09b00d7a2515c74851aeb", "is_reserved": 0, "is_disabled": 0, "type": "electric_scooter"}, {"fusion_lon": 0.0, "lat": 38.89837416666667, "lon": -77.02861066666667, "bike_id": "264f0e61482f60ffa6a600d18d62f876", "rental_uris": {"android": "https://dc.lft.to/lastmile_qr_scan", "ios": "https://dc.lft.to/lastmile_qr_scan"}, "fusion_lat": 0.0, "name": "264f0e61482f60ffa6a600d18d62f876", "is_reserved": 0, "is_disabled": 0, "type": "electric_scooter"}, {"fusion_lon": 0.0, "lat": 38.857107, "lon": -76.98130083333334, "bike_id": "6466877c2877f3c1fedb4c3073c8d3ab", "rental_uris": {"android": "https://dc.lft.to/lastmile_qr_scan", "ios": "https://dc.lft.to/lastmile_qr_scan"},