{"data": {"bikes": [{"bike_id": "b59e348922a2d563d613ec282d40db5e", "name": "b59e348922a2d563d613ec282d40db5e", "is_disabled": 0, "fusion_lon": 0.0, "rental_uris": {"android": "https://dc.lft.to/lastmile_qr_scan", "ios": "https://dc.lft.to/lastmile_qr_scan"}, "type": "electric_scooter", "fusion_lat": 0.0, "lat": 38.903978, "lon": -77.04075716666667, "is_reserved": 0}, {"bike_id": "fab4c0bdfe54ab0f5dabcc94a1be924d", "name": "fab4c0bdfe54ab0f5dabcc94a1be924d", "is_disabled": 0, "fusion_lon": 0.0, "rental_uris": {"android": "https://dc.lft.to/lastmile_qr_scan", "ios": "https://dc.lft.to/lastmile_qr_scan"}, "type": "electric_scooter", "fusion_lat": 0.0, "lat": 38.92168383333333, "lon": -77.02668633333333, "is_reserved": 0}, {"bike_id": "1fb2a1da5b718d3a69c3362c6386d141", "name": "1fb2a1da5b718d3a69c3362c6386d141", "is_disabled": 0, "fusion_lon": 0.0, "rental_uris": {"android": "https://dc.lft.to/lastmile_qr_scan", "ios": "https://dc.lft.to/lastmile_qr_scan"}, "type": "electric_scooter", "fusion_lat": 0.0, "lat": 38.92497066666667, "lon": -77.043354, "is_reserved": 0}, {"bike_id": "112537ac0ff741e44d8e3d6d65e34174", "name": "112537ac0ff741e44d8e3d6d65e34174", "is_disabled": 0, "fusion_lon": 0.0, "rental_uris": {"android": "https://dc.lft.to/lastmile_qr_scan", "ios": "https://dc.lft.to/lastmile_qr_scan"}, "type": "electric_scooter", "fusion_lat": 0.0, "lat": 38.923657, "lon": -77.01951483333333, "is_reserved": 0}, {"bike_id": "1f802d2e73a0fd06295465b16e5838df", "name": "1f802d2e73a0fd06295465b16e5838df", "is_disabled": 0, "fusion_lon": 0.0, "rental_uris": {"android": "https://dc.lft.to/lastmile_qr_scan", "ios": "https://dc.lft.to/lastmile_qr_scan"}, "type": "electric_scooter", "fusion_lat": 0.0, "lat": 38.894679333333336, "lon": -77.04657833333333, "is_reserved": 0}, {"bike_id": "cb4e51d3a35b90f4d8f212f00e6869c0", "name": "cb4e51d3a35b90f4d8f212f00e6869c0", "is_disabled": 0, "fusion_lon": 0.0, "rental_uris": {"android": "https://dc.lft.to/lastmile_qr_scan", "ios": "https://dc.lft.to/lastmile_qr_scan"}, "type": "electric_scooter", "fusion_lat": 0.0, "lat": 38.90639066666667, "lon": -77.03142766666667, "is_reserved": 0}, {"bike_id": "a8b0dab44b567c7a22f323b64dc4caf3", "name": "a8b0dab44b567c7a22f323b64dc4caf3", "is_disabled": 0, "fusion_lon": 0.0, "rental_uris": {"android": "https://dc.lft.to/lastmile_qr_scan", "ios": "https://dc.lft.to/lastmile_qr_scan"}, "type": "electric_scooter", "fusion_lat": 0.0, "lat": 38.92136166666667, "lon": -77.018352, "is_reserved": 0}, {"bike_id": "e3e42ba3e0678fb709e94441abbf31e9", "name": "e3e42ba3e0678fb709e94441abbf31e9", "is_disabled": 0, "fusion_lon": 0.0, "rental_uris": {"android": "https://dc.lft.to/lastmile_qr_scan", "ios": "https://dc.lft.to/lastmile_qr_scan"}, "type": "electric_scooter", "fusion_lat": 0.0, "lat": 38.90120183333333, "lon": -77.0499415, "is_reserved": 0}, {"bike_id": "8ad31b15f768e104e69e6ad5f0aec045", "name": "8ad31b15f768e104e69e6ad5f0aec045", "is_disabled": 0, "fusion_lon": 0.0, "rental_uris": {"android": "https://dc.lft.to/lastmile_qr_scan", "ios": "https://dc.lft.to/lastmile_qr_scan"}, "type": "electric_scooter", "fusion_lat": 0.0, "lat": 38.91914533333333, "lon": -77.03110316666667, "is_reserved": 0}, {"bike_id": "03b2774933d65e20ecb332c9385c344d", "name": "03b2774933d65e20ecb332c9385c344d", "is_disabled": 0, "fusion_lon": 0.0, "rental_uris": {"android": "https://dc.lft.to/lastmile_qr_scan", "ios": "https://dc.lft.to/lastmile_qr_scan"}, "type": "electric_scooter", "fusion_lat": 0.0, "lat": 38.89225666666667, "lon": -77.02536033333334, "is_reserved": 0}, {"bike_id": "8fdae730e8b1543af7ba621369832b5d", "name": "8fdae730e8b1543af7ba621369832b5d", "is_disabled": 0, "fusion_lon": 0.0, "rental_uris": {"android": "https://dc.lft.to/lastmile_qr_scan", "ios": "https://dc.lft.to/lastmile_qr_scan"}, "type": "electric_scooter", "fusion_lat": 0.0, "lat": 38.92503466666667, "lon": -77.02575216666666, "is_reserved": 0}, {"bike_id": "7edf495245aeff4e59597a85e0d39b81", "name": "7edf495245aeff4e59597a85e0d39b81", "is_disabled": 0, "fusion_lon": 0.0, "rental_uris": {"android": "https://dc.lft.to/lastmile_qr_scan", "ios": "https://dc.lft.to/lastmile_qr_scan"}, "type": "electric_scooter", "fusion_lat": 0.0, "lat": 38.90577866666667, "lon": -77.04992733333333, "is_reserved": 0}, {"bike_id": "9b9ea46dca7876fb8cb3f426de8eb135", "name": "9b9ea46dca7876fb8cb3f426de8eb135", "is_disabled": 0, "fusion_lon": 0.0, "rental_uris": {"android": "https://dc.lft.to/lastmile_qr_scan", "ios": "https://dc.lft.to/lastmile_qr_scan"}, "type": "electric_scooter", "fusion_lat": 0.0, "lat": 38.91994016666666, "lon": -77.017808, "is_reserved": 0}, {"bike_id": "6e5430ac48ecabab72d2ddddbde44986", "name": "6e5430ac48ecabab72d2ddddbde44986", "is_disabled": 0, "fusion_lon": 0.0, "rental_uris": {"android": "https://dc.lft.to/lastmile_qr_scan", "ios": "https://dc.lft.to/lastmile_qr_scan"}, "type": "electric_scooter", "fusion_lat": 0.0, "lat": 38.916996166666664, "lon": -77.03340133333333, "is_reserved": 0}, {"bike_id": "6b394ac390ca49473c7f165791f27fdb", "name": "6b394ac390ca49473c7f165791f27fdb", "is_disabled": 0, "fusion_lon": 0.0, "rental_uris": {"android": "https://dc.lft.to/lastmile_qr_scan", "ios": "https://dc.lft.to/lastmile_qr_scan"}, "type": "electric_scooter", "fusion_lat": 0.0, "lat": 38.902584833333336, "lon": -77.0437285, "is_reserved": 0}, {"bike_id": "d85c5b002ff5ea9e0fda580883a6fcc0", "name": "d85c5b002ff5ea9e0fda580883a6fcc0", "is_disabled": 0, "fusion_lon": 0.0, "rental_uris": {"android": "https://dc.lft.to/lastmile_qr_scan", "ios": "https://dc.lft.to/lastmile_qr_scan"}, "type": "electric_scooter", "fusion_lat": 0.0, "lat": 38.91678233333333, "lon": -77.015794, "is_reserved": 0}, {"bike_id": "c2580cc3a8b932b146d3d7cf5cc138e2", "name": "c2580cc3a8b932b146d3d7cf5cc138e2", "is_disabled": 0, "fusion_lon": 0.0, "rental_uris": {"android": "https://dc.lft.to/lastmile_qr_scan", "ios": "https://dc.lft.to/lastmile_qr_scan"}, "type": "electric_scooter", "fusion_lat": 0.0, "lat": 38.92060716666667, "lon": -77.04185566666666, "is_reserved": 0}, {"bike_id": "b538d6cfccfb3884d557b56401bba1a0", "name": "b538d6cfccfb3884d557b56401bba1a0", "is_disabled": 0, "fusion_lon": 0.0, "rental_uris": {"android": "https://dc.lft.to/lastmile_qr_scan", "ios": "https://dc.lft.to/lastmile_qr_scan"}, "type": "electric_scooter", "fusion_lat": 0.0, "lat": 38.876644166666665, "lon": -77.00299316666667, "is_reserved": 0}, {"bike_id": "fa52b92c802edfb97891de525020de2f", "name": "fa52b92c802edfb97891de525020de2f", "is_disabled": 0, "fusion_lon": 0.0, "rental_uris": {"android": "https://dc.lft.to/lastmile_qr_scan", "ios": "https://dc.lft.to/lastmile_qr_scan"}, "type": "electric_scooter", "fusion_lat": 0.0, "lat": 38.92025966666667, "lon": -77.0397085, "is_reserved": 0}, {"bike_id": "33a0b66ab707c082c70de2dc41c905e5", "name": "33a0b66ab707c082c70de2dc41c905e5", "is_disabled": 0, "fusion_lon": 0.0, "rental_uris": {"android": "https://dc.lft.to/lastmile_qr_scan", "ios": "https://dc.lft.to/lastmile_qr_scan"}, "type": "electric_scooter", "fusion_lat": 0.0, "lat": 38.8976035, "lon": -77.02682383333334, "is_reserved": 0}, {"bike_id": "2dfaf566bdafb7f4e95be683e21e0255", "name": "2dfaf566bdafb7f4e95be683e21e0255", "is_disabled": 0, "fusion_lon": 0.0, "rental_uris": {"android": "https://dc.lft.to/lastmile_qr_scan", "ios": "https://dc.lft.to/lastmile_qr_scan"}, "type": "electric_scooter", "fusion_lat": 0.0, "lat": 38.9216525, "lon": -77.033787, "is_reserved": 0}, {"bike_id": "d22ede20b748e222e1db34c6032e9ce6", "name": "d22ede20b748e222e1db34c6032e9ce6", "is_disabled": 0, "fusion_lon": 0.0, "rental_uris": {"android": "https://dc.lft.to/lastmile_qr_scan", "ios": "https://dc.lft.to/lastmile_qr_scan"}, "type": "electric_scooter", "fusion_lat": 0.0, "lat": 38.92052133333333, "lon": -77.04181616666666, "is_reserved": 0}, {"bike_id": "fac03cab9150cc1ffe3ebf1f4e2b72d3", "name": "fac03cab9150cc1ffe3ebf1f4e2b72d3", "is_disabled": 0, "fusion_lon": 0.0, "rental_uris": {"android": "https://dc.lft.to/lastmile_qr_scan", "ios": "https://dc.lft.to/lastmile_qr_scan"}, "type": "electric_scooter", "fusion_lat": 0.0, "lat": 38.91353566666667, "lon": -76.97134716666666, "is_reserved": 0}, {"bike_id": "3c02efa9b8f8534d7295daaa4b9de39e", "name": "3c02efa9b8f8534d7295daaa4b9de39e", "is_disabled": 0, "fusion_lon": 0.0, "rental_uris": {"android": "https://dc.lft.to/lastmile_qr_scan", "ios": "https://dc.lft.to/lastmile_qr_scan"}, "type": "electric_scooter", "fusion_lat": 0.0, "lat": 38.923470333333334, "lon": -77.053869, "is_reserved": 0}, {"bike_id": "78d462a0f332b60c474ab1fd6b26321e", "name": "78d462a0f332b60c474ab1fd6b26321e", "is_disabled": 0, "fusion_lon": 0.0, "rental_uris": {"android": "https://dc.lft.to/lastmile_qr_scan", "ios": "https://dc.lft.to/lastmile_qr_scan"}, "type": "electric_scooter", "fusion_lat": 0.0, "lat": 38.865689833333334, "lon": -76.974114, "is_reserved": 0}, {"bike_id": "762f2afcff695586283e148a651fff60", "name": "762f2afcff695586283e148a651fff60", "is_disabled": 0, "fusion_lon": 0.0, "rental_uris": {"android": "https://dc.lft.to/lastmile_qr_scan", "ios": "https://dc.lft.to/lastmile_qr_scan"}, "type": "electric_scooter", "fusion_lat": 0.0, "lat": 38.923641333333336, "lon": -77.0354545, "is_reserved": 0}, {"bike_id": "f056fa5ed514b09b0d3784bf52422d7e", "name": "f056fa5ed514b09b0d3784bf52422d7e", "is_disabled": 0, "fusion_lon": 0.0, "rental_uris": {"android": "https://dc.lft.to/lastmile_qr_scan", "ios": "https://dc.lft.to/lastmile_qr_scan"}, "type": "electric_scooter", "fusion_lat": 0.0, "lat": 38.89719633333333, "lon": -77.02691616666667, "is_reserved": 0}, {"bike_id": "3c6928414b0462e575f281c9fd3e6d3c", "name": "3c6928414b0462e575f281c9fd3e6d3c", "is_disabled": 0, "fusion_lon": 0.0, "rental_uris": {"android": "https://dc.lft.to/lastmile_qr_scan", "ios": "https://dc.lft.to/lastmile_qr_scan"}, "type": "electric_scooter", "fusion_lat": 0.0, "lat": 38.87198183333334, "lon": -77.00608916666667, "is_reserved": 0}, {"bike_id": "759e83c6d346241a014f3e2afa41e35d", "name": "759e83c6d346241a014f3e2afa41e35d", "is_disabled": 0, "fusion_lon": 0.0, "rental_uris": {"android": "https://dc.lft.to/lastmile_qr_scan", "ios": "https://dc.lft.to/lastmile_qr_scan"}, "type": "electric_bike", "fusion_lat": 0.0, "lat": 38.896163333333334, "lon": -76.9075055, "is_reserved": 0}, {"bike_id": "0054ec2504e6d28342f2aba316ac99ba", "name": "0054ec2504e6d28342f2aba316ac99ba", "is_disabled": 0, "fusion_lon": 0.0, "rental_uris": {"android": "https://dc.lft.to/lastmile_qr_scan", "ios": "https://dc.lft.to/lastmile_qr_scan"}, "type": "electric_scooter", "fusion_lat": 0.0, "lat": 38.908265666666665, "lon": -77.03930866666667, "is_reserved": 0}, {"bike_id": "36d667cb5496d18f97979b1d9fcf3ad6", "name": "36d667cb5496d18f97979b1d9fcf3ad6", "is_disabled": 0, "fusion_lon": 0.0, "rental_uris": {"android": "https://dc.lft.to/lastmile_qr_scan", "ios": "https://dc.lft.to/lastmile_qr_scan"}, "type": "electric_scooter", "fusion_lat": 0.0, "lat": 38.943564, "lon": -77.0297665, "is_reserved": 0}, {"bike_id": "a4a23ee08e4f86b2fc21ca2bf8465ea4", "name": "a4a23ee08e4f86b2fc21ca2bf8465ea4", "is_disabled": 0, "fusion_lon": 0.0, "rental_uris": {"android": "https://dc.lft.to/lastmile_qr_scan", "ios": "https://dc.lft.to/lastmile_qr_scan"}, "type": "electric_scooter", "fusion_lat": 0.0, "lat": 38.90557666666667, "lon": -77.00189616666667, "is_reserved": 0}, {"bike_id": "719e67b30916b71ca919efc3a33562d9", "name": "719e67b30916b71ca919efc3a33562d9", "is_disabled": 0, "fusion_lon": 0.0, "rental_uris": {"android": "https://dc.lft.to/lastmile_qr_scan", "ios": "https://dc.lft.to/lastmile_qr_scan"}, "type": "electric_scooter", "fusion_lat": 0.0, "lat": 38.918154333333334, "lon": -77.02489, "is_reserved": 0}, {"bike_id": "7b5ea49856007e930644c6e88a9859c2", "name": "7b5ea49856007e930644c6e88a9859c2", "is_disabled": 0, "fusion_lon": 0.0, "rental_uris": {"android": "https://dc.lft.to/lastmile_qr_scan", "ios": "https://dc.lft.to/lastmile_qr_scan"}, "type": "electric_scooter", "fusion_lat": 0.0, "lat": 38.91697516666667, "lon": -77.03997283333334, "is_reserved": 0}, {"bike_id": "91ef72fa221376383c7aaa12ee0cb84a", "name": "91ef72fa221376383c7aaa12ee0cb84a", "is_disabled": 0, "fusion_lon": 0.0, "rental_uris": {"android": "https://dc.lft.to/lastmile_qr_scan", "ios": "https://dc.lft.to/lastmile_qr_scan"}, "type": "electric_scooter", "fusion_lat": 0.0, "lat": 38.892325166666666, "lon": -77.00286766666666, "is_reserved": 0}, {"bike_id": "83234d618598b8b9b63571c2941d2642", "name": "83234d618598b8b9b63571c2941d2642", "is_disabled": 0, "fusion_lon": 0.0, "rental_uris": {"android": "https://dc.lft.to/lastmile_qr_scan", "ios": "https://dc.lft.to/lastmile_qr_scan"}, "type": "electric_scooter", "fusion_lat": 0.0, "lat": 38.917721666666665, "lon": -77.027095, "is_reserved": 0}, {"bike_id": "ebe96d379437aa0d90218b3f3454eab2", "name": "ebe96d379437aa0d90218b3f3454eab2", "is_disabled": 0, "fusion_lon": 0.0, "rental_uris": {"android": "https://dc.lft.to/lastmile_qr_scan", "ios": "https://dc.lft.to/lastmile_qr_scan"}, "type": "electric_scooter", "fusion_lat": 0.0, "lat": 38.89957033333334, "lon": -77.04720483333334, "is_reserved": 0}, {"bike_id": "428e1b1e4d67960af80aed7f1b11c73c", "name": "428e1b1e4d67960af80aed7f1b11c73c", "is_disabled": 0, "fusion_lon": 0.0, "rental_uris": {"android": "https://dc.lft.to/lastmile_qr_scan", "ios": "https://dc.lft.to/lastmile_qr_scan"}, "type": "electric_scooter", "fusion_lat": 0.0, "lat": 38.91333216666666, "lon": -77.013596, "is_reserved": 0}, {"bike_id": "de03923ee6f194b75daa374c245243da", "name": "de03923ee6f194b75daa374c245243da", "is_disabled": 0, "fusion_lon": 0.0, "rental_uris": {"android": "https://dc.lft.to/lastmile_qr_scan", "ios": "https://dc.lft.to/lastmile_qr_scan"}, "type": "electric_scooter", "fusion_lat": 0.0, "lat": 38.90679683333333, "lon": -77.0639695, "is_reserved": 0}, {"bike_id": "59af073776f75721776f18a8fa0b69ff", "name": "59af073776f75721776f18a8fa0b69ff", "is_disabled": 0, "fusion_lon": 0.0, "rental_uris": {"android": "https://dc.lft.to/lastmile_qr_scan", "ios": "https://dc.lft.to/lastmile_qr_scan"}, "type": "electric_scooter", "fusion_lat": 0.0, "lat": 38.92032483333333, "lon": -76.98487616666667, "is_reserved": 0}, {"bike_id": "15c523fe71efc57cd47a38128eb8a996", "name": "15c523fe71efc57cd47a38128eb8a996", "is_disabled": 0, "fusion_lon": 0.0, "rental_uris": {"android": "https://dc.lft.to/lastmile_qr_scan", "ios": "https://dc.lft.to/lastmile_qr_scan"}, "type": "electric_scooter", "fusion_lat": 0.0, "lat": 38.90127533333333, "lon": -77.03507766666667, "is_reserved": 0}, {"bike_id": "6a7eddfda27647e1563f3a4351f9722a", "name": "6a7eddfda27647e1563f3a4351f9722a", "is_disabled": 0, "fusion_lon": 0.0, "rental_uris": {"android": "https://dc.lft.to/lastmile_qr_scan", "ios": "https://dc.lft.to/lastmile_qr_scan"}, "type": "electric_scooter", "fusion_lat": 0.0, "lat": 38.927917, "lon": -77.03782883333334, "is_reserved": 0}, {"bike_id": "5576a107e364d72483cb8b2e007167dc", "name": "5576a107e364d72483cb8b2e007167dc", "is_disabled": 0, "fusion_lon": 0.0, "rental_uris": {"android": "https://dc.lft.to/lastmile_qr_scan", "ios": "https://dc.lft.to/lastmile_qr_scan"}, "type": "electric_scooter", "fusion_lat": 0.0, "lat": 38.92419733333333, "lon": -77.01943333333334, "is_reserved": 0}, {"bike_id": "1e6ec22040e1364b2757f597d5e06c51", "name": "1e6ec22040e1364b2757f597d5e06c51", "is_disabled": 0, "fusion_lon": 0.0, "rental_uris": {"android": "https://dc.lft.to/lastmile_qr_scan", "ios": "https://dc.lft.to/lastmile_qr_scan"}, "type": "electric_scooter", "fusion_lat": 0.0, "lat": 38.8949775, "lon": -77.01127716666667, "is_reserved": 0}, {"bike_id": "382d67d6a5eb14abd4fc209fbeb99c61", "name": "382d67d6a5eb14abd4fc209fbeb99c61", "is_disabled": 0, "fusion_lon": 0.0, "rental_uris": {"android": "https://dc.lft.to/lastmile_qr_scan", "ios": "https://dc.lft.to/lastmile_qr_scan"}, "type": "electric_scooter", "fusion_lat": 0.0, "lat": 38.918790333333334, "lon": -77.02605083333333, "is_reserved": 0}, {"bike_id": "62fa1e9f7016c0a3f93e16599942faa0", "name": "62fa1e9f7016c0a3f93e16599942faa0", "is_disabled": 0, "fusion_lon": 0.0, "rental_uris": {"android": "https://dc.lft.to/lastmile_qr_scan", "ios": "https://dc.lft.to/lastmile_qr_scan"}, "type": "electric_scooter", "fusion_lat": 0.0, "lat": 38.973695666666664, "lon": -77.01850166666667, "is_reserved": 0}, {"bike_id": "403de3315d33334f9781044daa94cf27", "name": "403de3315d33334f9781044daa94cf27", "is_disabled": 0, "fusion_lon": 0.0, "rental_uris": {"android": "https://dc.lft.to/lastmile_qr_scan", "ios": "https://dc.lft.to/lastmile_qr_scan"}, "type": "electric_scooter", "fusion_lat": 0.0, "lat": 38.908684666666666, "lon": -77.03744233333333, "is_reserved": 0}, {"bike_id": "5bfff63c9bd98e95832d82fe5705401f", "name": "5bfff63c9bd98e95832d82fe5705401f", "is_disabled": 0, "fusion_lon": 0.0, "rental_uris": {"android": "https://dc.lft.to/lastmile_qr_scan", "ios": "https://dc.lft.to/lastmile_qr_scan"}, "type": "electric_scooter", "fusion_lat": 0.0, "lat": 38.927140666666666, "lon": -77.05999416666667, "is_reserved": 0}, {"bike_id": "76e13f32b5d46be7b0e0dfc10c0e9477", "name": "76e13f32b5d46be7b0e0dfc10c0e9477", "is_disabled": 0, "fusion_lon": 0.0, "rental_uris": {"android": "https://dc.lft.to/lastmile_qr_scan", "ios": "https://dc.lft.to/lastmile_qr_scan"}, "type": "electric_scooter", "fusion_lat": 0.0, "lat": 38.928253, "lon": -77.03246716666666, "is_reserved": 0}, {"bike_id": "e94261db130fd105b4d211c8d1c656de", "name": "e94261db130fd105b4d211c8d1c656de", "is_disabled": 0, "fusion_lon": 0.0, "rental_uris": {"android": "https://dc.lft.to/lastmile_qr_scan", "ios": "https://dc.lft.to/lastmile_qr_scan"}, "type": "electric_scooter", "fusion_lat": 0.0, "lat": 38.897814333333336, "lon": -77.04963433333333, "is_reserved": 0}, {"bike_id": "9514121ef0c6937ba520f85e452023a0", "name": "9514121ef0c6937ba520f85e452023a0", "is_disabled": 0, "fusion_lon": 0.0, "rental_uris": {"android": "https://dc.lft.to/lastmile_qr_scan", "ios": "https://dc.lft.to/lastmile_qr_scan"}, "type": "electric_scooter", "fusion_lat": 0.0, "lat": 38.88461216666666, "lon": -77.024872, "is_reserved": 0}, {"bike_id": "6e777cda11dd6638b52890dcd02715d9", "name": "6e777cda11dd6638b52890dcd02715d9", "is_disabled": 0, "fusion_lon": 0.0, "rental_uris": {"android": "https://dc.lft.to/lastmile_qr_scan", "ios": "https://dc.lft.to/lastmile_qr_scan"}, "type": "electric_scooter", "fusion_lat": 0.0, "lat": 38.90681033333333, "lon": -77.0639715, "is_reserved": 0}, {"bike_id": "fafe84f1d6ad786bdb548a0e39fa5b8a", "name": "fafe84f1d6ad786bdb548a0e39fa5b8a", "is_disabled": 0, "fusion_lon": 0.0, "rental_uris": {"android": "https://dc.lft.to/lastmile_qr_scan", "ios": "https://dc.lft.to/lastmile_qr_scan"}, "type": "electric_scooter", "fusion_lat": 0.0, "lat": 38.892530666666666, "lon": -77.03339416666667, "is_reserved": 0}, {"bike_id": "469c6390cf5bc029015c0e926beb824a", "name": "469c6390cf5bc029015c0e926beb824a", "is_disabled": 0, "fusion_lon": 0.0, "rental_uris": {"android": "https://dc.lft.to/lastmile_qr_scan", "ios": "https://dc.lft.to/lastmile_qr_scan"}, "type": "electric_scooter", "fusion_lat": 0.0, "lat": 38.90118833333333, "lon": -77.03942933333333, "is_reserved": 0}, {"bike_id": "af5706192808485da27b83f4a0be2331", "name": "af5706192808485da27b83f4a0be2331", "is_disabled": 0, "fusion_lon": 0.0, "rental_uris": {"android": "https://dc.lft.to/lastmile_qr_scan", "ios": "https://dc.lft.to/lastmile_qr_scan"}, "type": "electric_scooter", "fusion_lat": 0.0, "lat": 38.897766833333336, "lon": -77.05461833333334, "is_reserved": 0}, {"bike_id": "aecf44d5fa7db3c72cc544c440188e7c", "name": "aecf44d5fa7db3c72cc544c440188e7c", "is_disabled": 0, "fusion_lon": 0.0, "rental_uris": {"android": "https://dc.lft.to/lastmile_qr_scan", "ios": "https://dc.lft.to/lastmile_qr_scan"}, "type": "electric_scooter", "fusion_lat": 0.0, "lat": 38.91415383333333, "lon": -77.02909083333333, "is_reserved": 0}, {"bike_id": "cfe77628661f15f1d8f3bbad1e53a299", "name": "cfe77628661f15f1d8f3bbad1e53a299", "is_disabled": 0, "fusion_lon": 0.0, "rental_uris": {"android": "https://dc.lft.to/lastmile_qr_scan", "ios": "https://dc.lft.to/lastmile_qr_scan"}, "type": "electric_scooter", "fusion_lat": 0.0, "lat": 38.91731633333333, "lon": -77.028985, "is_reserved": 0}, {"bike_id": "dffd6c356d2505398964ac05eeb92384", "name": "dffd6c356d2505398964ac05eeb92384", "is_disabled": 0, "fusion_lon": 0.0, "rental_uris": {"android": "https://dc.lft.to/lastmile_qr_scan", "ios": "https://dc.lft.to/lastmile_qr_scan"}, "type": "electric_scooter", "fusion_lat": 0.0, "lat": 38.90270366666667, "lon": -77.04011333333334, "is_reserved": 0}, {"bike_id": "e3952ecd0265dc90bd8ace09dfb6df4a", "name": "e3952ecd0265dc90bd8ace09dfb6df4a", "is_disabled": 0, "fusion_lon": 0.0, "rental_uris": {"android": "https://dc.lft.to/lastmile_qr_scan", "ios": "https://dc.lft.to/lastmile_qr_scan"}, "type": "electric_scooter", "fusion_lat": 0.0, "lat": 38.93354816666667, "lon": -77.08576533333333, "is_reserved": 0}, {"bike_id": "73f8065c5c58e3eb4e57dd07a582961f", "name": "73f8065c5c58e3eb4e57dd07a582961f", "is_disabled": 0, "fusion_lon": 0.0, "rental_uris": {"android": "https://dc.lft.to/lastmile_qr_scan", "ios": "https://dc.lft.to/lastmile_qr_scan"}, "type": "electric_scooter", "fusion_lat": 0.0, "lat": 38.91711, "lon": -77.03860366666666, "is_reserved": 0}, {"bike_id": "79848e538ca4148dce702538b4752c40", "name": "79848e538ca4148dce702538b4752c40", "is_disabled": 0, "fusion_lon": 0.0, "rental_uris": {"android": "https://dc.lft.to/lastmile_qr_scan", "ios": "https://dc.lft.to/lastmile_qr_scan"}, "type": "electric_scooter", "fusion_lat": 0.0, "lat": 38.90412233333333, "lon": -76.97329483333333, "is_reserved": 0}, {"bike_id": "56f9dd4a10c7e7cb0553bafc3ae2abb7", "name": "56f9dd4a10c7e7cb0553bafc3ae2abb7", "is_disabled": 0, "fusion_lon": 0.0, "rental_uris": {"android": "https://dc.lft.to/lastmile_qr_scan", "ios": "https://dc.lft.to/lastmile_qr_scan"}, "type": "electric_scooter", "fusion_lat": 0.0, "lat": 38.900368, "lon": -76.98831616666666, "is_reserved": 0}, {"bike_id": "a6098e516cef4bb1585c2adc3689b6b4", "name": "a6098e516cef4bb1585c2adc3689b6b4", "is_disabled": 0, "fusion_lon": 0.0, "rental_uris": {"android": "https://dc.lft.to/lastmile_qr_scan", "ios": "https://dc.lft.to/lastmile_qr_scan"}, "type": "electric_scooter", "fusion_lat": 0.0, "lat": 38.9018685, "lon": -77.02201216666667, "is_reserved": 0}, {"bike_id": "de2e28613a0b98b7a33babce78ec1d23", "name": "de2e28613a0b98b7a33babce78ec1d23", "is_disabled": 0, "fusion_lon": 0.0, "rental_uris": {"android": "https://dc.lft.to/lastmile_qr_scan", "ios": "https://dc.lft.to/lastmile_qr_scan"}, "type": "electric_scooter", "fusion_lat": 0.0, "lat": 38.9444395, "lon": -77.06393183333333, "is_reserved": 0}, {"bike_id": "04e8e2faf36452b8f6bc2637738a22e5", "name": "04e8e2faf36452b8f6bc2637738a22e5", "is_disabled": 0, "fusion_lon": 0.0, "rental_uris": {"android": "https://dc.lft.to/lastmile_qr_scan", "ios": "https://dc.lft.to/lastmile_qr_scan"}, "type": "electric_scooter", "fusion_lat": 0.0, "lat": 38.86034683333333, "lon": -76.98372133333334, "is_reserved": 0}, {"bike_id": "1f2e9180bb7b418000c5e8f9259313fb", "name": "1f2e9180bb7b418000c5e8f9259313fb", "is_disabled": 0, "fusion_lon": 0.0, "rental_uris": {"android": "https://dc.lft.to/lastmile_qr_scan", "ios": "https://dc.lft.to/lastmile_qr_scan"}, "type": "electric_scooter", "fusion_lat": 0.0, "lat": 38.8754735, "lon": -77.00534866666666, "is_reserved": 0}, {"bike_id": "17c250a69f71d881d02dbe5be57400ea", "name": "17c250a69f71d881d02dbe5be57400ea", "is_disabled": 0, "fusion_lon": 0.0, "rental_uris": {"android": "https://dc.lft.to/lastmile_qr_scan", "ios": "https://dc.lft.to/lastmile_qr_scan"}, "type": "electric_scooter", "fusion_lat": 0.0, "lat": 38.9237, "lon": -77.0211965, "is_reserved": 0}, {"bike_id": "4a44b24b38be65c6d4aed5e9f15596d7", "name": "4a44b24b38be65c6d4aed5e9f15596d7", "is_disabled": 0, "fusion_lon": 0.0, "rental_uris": {"android": "https://dc.lft.to/lastmile_qr_scan", "ios": "https://dc.lft.to/lastmile_qr_scan"}, "type": "electric_scooter", "fusion_lat": 0.0, "lat": 38.937787, "lon": -77.01991733333334, "is_reserved": 0}, {"bike_id": "4593911d4fb4ed3cf3aa00ab53dbc75d", "name": "4593911d4fb4ed3cf3aa00ab53dbc75d", "is_disabled": 0, "fusion_lon": 0.0, "rental_uris": {"android": "https://dc.lft.to/lastmile_qr_scan", "ios": "https://dc.lft.to/lastmile_qr_scan"}, "type": "electric_scooter", "fusion_lat": 0.0, "lat": 38.90301183333333, "lon": -77.03851916666666, "is_reserved": 0}, {"bike_id": "7d19686b985748859f3909eeb57bf866", "name": "7d19686b985748859f3909eeb57bf866", "is_disabled": 0, "fusion_lon": 0.0, "rental_uris": {"android": "https://dc.lft.to/lastmile_qr_scan", "ios": "https://dc.lft.to/lastmile_qr_scan"}, "type": "electric_scooter", "fusion_lat": 0.0, "lat": 38.91774733333333, "lon": -77.03214633333333, "is_reserved": 0}, {"bike_id": "5bdda18e8317f2e63a11cb44d1339f8a", "name": "5bdda18e8317f2e63a11cb44d1339f8a", "is_disabled": 0, "fusion_lon": 0.0, "rental_uris": {"android": "https://dc.lft.to/lastmile_qr_scan", "ios": "https://dc.lft.to/lastmile_qr_scan"}, "type": "electric_scooter", "fusion_lat": 0.0, "lat": 38.899414666666665, "lon": -77.04001366666667, "is_reserved": 0}, {"bike_id": "93497bb773aa428ac0a179ff10a2063d", "name": "93497bb773aa428ac0a179ff10a2063d", "is_disabled": 0, "fusion_lon": 0.0, "rental_uris": {"android": "https://dc.lft.to/lastmile_qr_scan", "ios": "https://dc.lft.to/lastmile_qr_scan"}, "type": "electric_scooter", "fusion_lat": 0.0, "lat": 38.918866333333334, "lon": -77.0348875, "is_reserved": 0}, {"bike_id": "c22da1f64944515d694cb8ed9935f382", "name": "c22da1f64944515d694cb8ed9935f382", "is_disabled": 0, "fusion_lon": 0.0, "rental_uris": {"android": "https://dc.lft.to/lastmile_qr_scan", "ios": "https://dc.lft.to/lastmile_qr_scan"}, "type": "electric_scooter", "fusion_lat": 0.0, "lat": 38.926016833333335, "lon": -77.02154633333333, "is_reserved": 0}, {"bike_id": "e3d8781d2af9b1b5c4a7e9efbd44c2dd", "name": "e3d8781d2af9b1b5c4a7e9efbd44c2dd", "is_disabled": 0, "fusion_lon": 0.0, "rental_uris": {"android": "https://dc.lft.to/lastmile_qr_scan", "ios": "https://dc.lft.to/lastmile_qr_scan"}, "type": "electric_scooter", "fusion_lat": 0.0, "lat": 38.9342855, "lon": -77.03999616666667, "is_reserved": 0}, {"bike_id": "0cebbbaa810bbb7edbc6ce9b902e513c", "name": "0cebbbaa810bbb7edbc6ce9b902e513c", "is_disabled": 0, "fusion_lon": 0.0, "rental_uris": {"android": "https://dc.lft.to/lastmile_qr_scan", "ios": "https://dc.lft.to/lastmile_qr_scan"}, "type": "electric_scooter", "fusion_lat": 0.0, "lat": 38.92371133333333, "lon": -77.01913866666666, "is_reserved": 0}, {"bike_id": "97a123318b1093874682f71890abf281", "name": "97a123318b1093874682f71890abf281", "is_disabled": 0, "fusion_lon": 0.0, "rental_uris": {"android": "https://dc.lft.to/lastmile_qr_scan", "ios": "https://dc.lft.to/lastmile_qr_scan"}, "type": "electric_bike", "fusion_lat": 0.0, "lat": 38.819140833333336, "lon": -77.126499, "is_reserved": 0}, {"bike_id": "43cee03ce6d76aae88d9f99d99c7a765", "name": "43cee03ce6d76aae88d9f99d99c7a765", "is_disabled": 0, "fusion_lon": 0.0, "rental_uris": {"android": "https://dc.lft.to/lastmile_qr_scan", "ios": "https://dc.lft.to/lastmile_qr_scan"}, "type": "electric_scooter", "fusion_lat": 0.0, "lat": 38.927700333333334, "lon": -77.02044783333334, "is_reserved": 0}, {"bike_id": "67f3af868de06964c9477cfaf2255e13", "name": "67f3af868de06964c9477cfaf2255e13", "is_disabled": 0, "fusion_lon": 0.0, "rental_uris": {"android": "https://dc.lft.to/lastmile_qr_scan", "ios": "https://dc.lft.to/lastmile_qr_scan"}, "type": "electric_scooter", "fusion_lat": 0.0, "lat": 38.910826, "lon": -77.04474166666667, "is_reserved": 0}, {"bike_id": "e68993efec0742dee9edf4ae64a43e0c", "name": "e68993efec0742dee9edf4ae64a43e0c", "is_disabled": 0, "fusion_lon": 0.0, "rental_uris": {"android": "https://dc.lft.to/lastmile_qr_scan", "ios": "https://dc.lft.to/lastmile_qr_scan"}, "type": "electric_scooter", "fusion_lat": 0.0, "lat": 38.90704916666667, "lon": -77.02820433333333, "is_reserved": 0}, {"bike_id": "5d5c826cc9d6191cc7d2fee199671ee3", "name": "5d5c826cc9d6191cc7d2fee199671ee3", "is_disabled": 0, "fusion_lon": 0.0, "rental_uris": {"android": "https://dc.lft.to/lastmile_qr_scan", "ios": "https://dc.lft.to/lastmile_qr_scan"}, "type": "electric_scooter", "fusion_lat": 0.0, "lat": 38.92451916666667, "lon": -77.02148833333334, "is_reserved": 0}, {"bike_id": "a3f79fae2dc21c53d086130121bfdb2b", "name": "a3f79fae2dc21c53d086130121bfdb2b", "is_disabled": 0, "fusion_lon": 0.0, "rental_uris": {"android": "https://dc.lft.to/lastmile_qr_scan", "ios": "https://dc.lft.to/lastmile_qr_scan"}, "type": "electric_scooter", "fusion_lat": 0.0, "lat": 38.886569, "lon": -77.00109, "is_reserved": 0}, {"bike_id": "2b8cf064c647cd60dd93781dfdd1cf71", "name": "2b8cf064c647cd60dd93781dfdd1cf71", "is_disabled": 0, "fusion_lon": 0.0, "rental_uris": {"android": "https://dc.lft.to/lastmile_qr_scan", "ios": "https://dc.lft.to/lastmile_qr_scan"}, "type": "electric_scooter", "fusion_lat": 0.0, "lat": 38.92323783333333, "lon": -77.01952483333334, "is_reserved": 0}, {"bike_id": "d936a565b30ce338eab2709f7abca684", "name": "d936a565b30ce338eab2709f7abca684", "is_disabled": 0, "fusion_lon": 0.0, "rental_uris": {"android": "https://dc.lft.to/lastmile_qr_scan", "ios": "https://dc.lft.to/lastmile_qr_scan"}, "type": "electric_scooter", "fusion_lat": 0.0, "lat": 38.91990766666667, "lon": -76.9730355, "is_reserved": 0}, {"bike_id": "e206d5cb485c5046becb7c968b40661f", "name": "e206d5cb485c5046becb7c968b40661f", "is_disabled": 0, "fusion_lon": 0.0, "rental_uris": {"android": "https://dc.lft.to/lastmile_qr_scan", "ios": "https://dc.lft.to/lastmile_qr_scan"}, "type": "electric_scooter", "fusion_lat": 0.0, "lat": 38.90787233333333, "lon": -77.03190083333334, "is_reserved": 0}, {"bike_id": "4b958783c0c82091641dcde119062459", "name": "4b958783c0c82091641dcde119062459", "is_disabled": 0, "fusion_lon": 0.0, "rental_uris": {"android": "https://dc.lft.to/lastmile_qr_scan", "ios": "https://dc.lft.to/lastmile_qr_scan"}, "type": "electric_scooter", "fusion_lat": 0.0, "lat": 38.90148166666667, "lon": -77.0401665, "is_reserved": 0}, {"bike_id": "dc89e100b340cf7e11f484cad26c219c", "name": "dc89e100b340cf7e11f484cad26c219c", "is_disabled": 0, "fusion_lon": 0.0, "rental_uris": {"android": "https://dc.lft.to/lastmile_qr_scan", "ios": "https://dc.lft.to/lastmile_qr_scan"}, "type": "electric_scooter", "fusion_lat": 0.0, "lat": 38.88602, "lon": -77.03102066666666, "is_reserved": 0}, {"bike_id": "e206fb3e6faed034e06953120820f6ed", "name": "e206fb3e6faed034e06953120820f6ed", "is_disabled": 0, "fusion_lon": 0.0, "rental_uris": {"android": "https://dc.lft.to/lastmile_qr_scan", "ios": "https://dc.lft.to/lastmile_qr_scan"}, "type": "electric_scooter", "fusion_lat": 0.0, "lat": 38.90043083333333, "lon": -76.997332, "is_reserved": 0}, {"bike_id": "bb255bda8cf27196b435f84460b97acb", "name": "bb255bda8cf27196b435f84460b97acb", "is_disabled": 0, "fusion_lon": 0.0, "rental_uris": {"android": "https://dc.lft.to/lastmile_qr_scan", "ios": "https://dc.lft.to/lastmile_qr_scan"}, "type": "electric_scooter", "fusion_lat": 0.0, "lat": 38.90142733333333, "lon": -77.02988366666666, "is_reserved": 0}, {"bike_id": "8a921ba20c4a78262b1a3f3b5b64e0cc", "name": "8a921ba20c4a78262b1a3f3b5b64e0cc", "is_disabled": 0, "fusion_lon": 0.0, "rental_uris": {"android": "https://dc.lft.to/lastmile_qr_scan", "ios": "https://dc.lft.to/lastmile_qr_scan"}, "type": "electric_scooter", "fusion_lat": 0.0, "lat": 38.919131666666665, "lon": -77.0213845, "is_reserved": 0}, {"bike_id": "5d01e2ea628c65c381cbffe53fffd06d", "name": "5d01e2ea628c65c381cbffe53fffd06d", "is_disabled": 0, "fusion_lon": 0.0, "rental_uris": {"android": "https://dc.lft.to/lastmile_qr_scan", "ios": "https://dc.lft.to/lastmile_qr_scan"}, "type": "electric_scooter", "fusion_lat": 0.0, "lat": 38.892335, "lon": -77.03206316666666, "is_reserved": 0}, {"bike_id": "7a933f3a016955936302521cd657c525", "name": "7a933f3a016955936302521cd657c525", "is_disabled": 0, "fusion_lon": 0.0, "rental_uris": {"android": "https://dc.lft.to/lastmile_qr_scan", "ios": "https://dc.lft.to/lastmile_qr_scan"}, "type": "electric_scooter", "fusion_lat": 0.0, "lat": 38.8873935, "lon": -77.0282305, "is_reserved": 0}, {"bike_id": "d72309941c427268897e0ba68b441d2f", "name": "d72309941c427268897e0ba68b441d2f", "is_disabled": 0, "fusion_lon": 0.0, "rental_uris": {"android": "https://dc.lft.to/lastmile_qr_scan", "ios": "https://dc.lft.to/lastmile_qr_scan"}, "type": "electric_scooter", "fusion_lat": 0.0, "lat": 38.921757, "lon": -77.02041133333333, "is_reserved": 0}, {"bike_id": "c28ff4902cbeb6e40e03206c920ec4a0", "name": "c28ff4902cbeb6e40e03206c920ec4a0", "is_disabled": 0, "fusion_lon": 0.0, "rental_uris": {"android": "https://dc.lft.to/lastmile_qr_scan", "ios": "https://dc.lft.to/lastmile_qr_scan"}, "type": "electric_scooter", "fusion_lat": 0.0, "lat": 38.904865666666666, "lon": -77.02966133333334, "is_reserved": 0}, {"bike_id": "77d2d2ba6513133ff887527b4a107523", "name": "77d2d2ba6513133ff887527b4a107523", "is_disabled": 0, "fusion_lon": 0.0, "rental_uris": {"android": "https://dc.lft.to/lastmile_qr_scan", "ios": "https://dc.lft.to/lastmile_qr_scan"}, "type": "electric_scooter", "fusion_lat": 0.0, "lat": 38.918919833333334, "lon": -77.04126383333333, "is_reserved": 0}, {"bike_id": "0d12bd4d1b7f79a8c94c646985873883", "name": "0d12bd4d1b7f79a8c94c646985873883", "is_disabled": 0, "fusion_lon": 0.0, "rental_uris": {"android": "https://dc.lft.to/lastmile_qr_scan", "ios": "https://dc.lft.to/lastmile_qr_scan"}, "type": "electric_scooter", "fusion_lat": 0.0, "lat": 38.90909, "lon": -77.04210016666667, "is_reserved": 0}, {"bike_id": "1631c8194394437ad195be18f8a5b36c", "name": "1631c8194394437ad195be18f8a5b36c", "is_disabled": 0, "fusion_lon": 0.0, "rental_uris": {"android": "https://dc.lft.to/lastmile_qr_scan", "ios": "https://dc.lft.to/lastmile_qr_scan"}, "type": "electric_scooter", "fusion_lat": 0.0, "lat": 38.91138466666666, "lon": -77.027985, "is_reserved": 0}, {"bike_id": "b7210f8a8e34e347607aa4e40704a90e", "name": "b7210f8a8e34e347607aa4e40704a90e", "is_disabled": 0, "fusion_lon": 0.0, "rental_uris": {"android": "https://dc.lft.to/lastmile_qr_scan", "ios": "https://dc.lft.to/lastmile_qr_scan"}, "type": "electric_scooter", "fusion_lat": 0.0, "lat": 38.90265566666667, "lon": -77.0299065, "is_reserved": 0}, {"bike_id": "f0a47216aae6283c4b9579fec3f06e91", "name": "f0a47216aae6283c4b9579fec3f06e91", "is_disabled": 0, "fusion_lon": 0.0, "rental_uris": {"android": "https://dc.lft.to/lastmile_qr_scan", "ios": "https://dc.lft.to/lastmile_qr_scan"}, "type": "electric_scooter", "fusion_lat": 0.0, "lat": 38.90970883333333, "lon": -77.03056433333333, "is_reserved": 0}, {"bike_id": "a070b9ee482eef3795176c10f6d96ecb", "name": "a070b9ee482eef3795176c10f6d96ecb", "is_disabled": 0, "fusion_lon": 0.0, "rental_uris": {"android": "https://dc.lft.to/lastmile_qr_scan", "ios": "https://dc.lft.to/lastmile_qr_scan"}, "type": "electric_bike", "fusion_lat": 0.0, "lat": 38.82041916666667, "lon": -77.05359583333333, "is_reserved": 0}, {"bike_id": "5595cfddccead909a75348dd3f106892", "name": "5595cfddccead909a75348dd3f106892", "is_disabled": 0, "fusion_lon": 0.0, "rental_uris": {"android": "https://dc.lft.to/lastmile_qr_scan", "ios": "https://dc.lft.to/lastmile_qr_scan"}, "type": "electric_scooter", "fusion_lat": 0.0, "lat": 38.9261395, "lon": -77.02159033333334, "is_reserved": 0}, {"bike_id": "c9a69288224c30e5754af1c82d478d66", "name": "c9a69288224c30e5754af1c82d478d66", "is_disabled": 0, "fusion_lon": 0.0, "rental_uris": {"android": "https://dc.lft.to/lastmile_qr_scan", "ios": "https://dc.lft.to/lastmile_qr_scan"}, "type": "electric_scooter", "fusion_lat": 0.0, "lat": 38.91074066666667, "lon": -77.01606766666667, "is_reserved": 0}, {"bike_id": "db643cbe3ee4987047e287af0cf8ceab", "name": "db643cbe3ee4987047e287af0cf8ceab", "is_disabled": 0, "fusion_lon": 0.0, "rental_uris": {"android": "https://dc.lft.to/lastmile_qr_scan", "ios": "https://dc.lft.to/lastmile_qr_scan"}, "type": "electric_bike", "fusion_lat": 0.0, "lat": 38.865503333333336, "lon": -76.9414615, "is_reserved": 0}, {"bike_id": "d65b00b39ac6536be5db536047021701", "name": "d65b00b39ac6536be5db536047021701", "is_disabled": 0, "fusion_lon": 0.0, "rental_uris": {"android": "https://dc.lft.to/lastmile_qr_scan", "ios": "https://dc.lft.to/lastmile_qr_scan"}, "type": "electric_scooter", "fusion_lat": 0.0, "lat": 38.92369716666666, "lon": -77.01950183333334, "is_reserved": 0}, {"bike_id": "7a3fe7066a32e16bafad11f16e9f19d3", "name": "7a3fe7066a32e16bafad11f16e9f19d3", "is_disabled": 0, "fusion_lon": 0.0, "rental_uris": {"android": "https://dc.lft.to/lastmile_qr_scan", "ios": "https://dc.lft.to/lastmile_qr_scan"}, "type": "electric_scooter", "fusion_lat": 0.0, "lat": 38.92480883333333, "lon": -77.02229433333333, "is_reserved": 0}, {"bike_id": "3cc9b4c38122f7e48e9527ed635a12ff", "name": "3cc9b4c38122f7e48e9527ed635a12ff", "is_disabled": 0, "fusion_lon": 0.0, "rental_uris": {"android": "https://dc.lft.to/lastmile_qr_scan", "ios": "https://dc.lft.to/lastmile_qr_scan"}, "type": "electric_scooter", "fusion_lat": 0.0, "lat": 38.91924383333333, "lon": -77.03943466666666, "is_reserved": 0}, {"bike_id": "a16652b63104b40aaafc8cba6e639bc8", "name": "a16652b63104b40aaafc8cba6e639bc8", "is_disabled": 0, "fusion_lon": 0.0, "rental_uris": {"android": "https://dc.lft.to/lastmile_qr_scan", "ios": "https://dc.lft.to/lastmile_qr_scan"}, "type": "electric_scooter", "fusion_lat": 0.0, "lat": 38.89864033333333, "lon": -77.03924183333334, "is_reserved": 0}, {"bike_id": "3d83cdeab372c21db06098b1c5414f43", "name": "3d83cdeab372c21db06098b1c5414f43", "is_disabled": 0, "fusion_lon": 0.0, "rental_uris": {"android": "https://dc.lft.to/lastmile_qr_scan", "ios": "https://dc.lft.to/lastmile_qr_scan"}, "type": "electric_scooter", "fusion_lat": 0.0, "lat": 38.87316666666667, "lon": -77.01066566666667, "is_reserved": 0}, {"bike_id": "e5ac070766ab527a6e230f35e44466f0", "name": "e5ac070766ab527a6e230f35e44466f0", "is_disabled": 0, "fusion_lon": 0.0, "rental_uris": {"android": "https://dc.lft.to/lastmile_qr_scan", "ios": "https://dc.lft.to/lastmile_qr_scan"}, "type": "electric_scooter", "fusion_lat": 0.0, "lat": 38.90704433333333, "lon": -77.02812666666667, "is_reserved": 0}, {"bike_id": "b7d73d112556fabe806a3c62018fb71b", "name": "b7d73d112556fabe806a3c62018fb71b", "is_disabled": 0, "fusion_lon": 0.0, "rental_uris": {"android": "https://dc.lft.to/lastmile_qr_scan", "ios": "https://dc.lft.to/lastmile_qr_scan"}, "type": "electric_scooter", "fusion_lat": 0.0, "lat": 38.899837166666664, "lon": -76.94077216666666, "is_reserved": 0}, {"bike_id": "2733504ed297e12a67e98d66b6a37933", "name": "2733504ed297e12a67e98d66b6a37933", "is_disabled": 0, "fusion_lon": 0.0, "rental_uris": {"android": "https://dc.lft.to/lastmile_qr_scan", "ios": "https://dc.lft.to/lastmile_qr_scan"}, "type": "electric_scooter", "fusion_lat": 0.0, "lat": 38.9206275, "lon": -77.04186166666666, "is_reserved": 0}, {"bike_id": "238df20e88f03382bfcca5317ae3b0eb", "name": "238df20e88f03382bfcca5317ae3b0eb", "is_disabled": 0, "fusion_lon": 0.0, "rental_uris": {"android": "https://dc.lft.to/lastmile_qr_scan", "ios": "https://dc.lft.to/lastmile_qr_scan"}, "type": "electric_scooter", "fusion_lat": 0.0, "lat": 38.924116, "lon": -77.020332, "is_reserved": 0}, {"bike_id": "ef56763782c8cfc8bce9fecb30f3ed8c", "name": "ef56763782c8cfc8bce9fecb30f3ed8c", "is_disabled": 0, "fusion_lon": 0.0, "rental_uris": {"android": "https://dc.lft.to/lastmile_qr_scan", "ios": "https://dc.lft.to/lastmile_qr_scan"}, "type": "electric_scooter", "fusion_lat": 0.0, "lat": 38.873919, "lon": -77.001435, "is_reserved": 0}, {"bike_id": "658e48aa95132392a40155d5d4b59ef9", "name": "658e48aa95132392a40155d5d4b59ef9", "is_disabled": 0, "fusion_lon": 0.0, "rental_uris": {"android": "https://dc.lft.to/lastmile_qr_scan", "ios": "https://dc.lft.to/lastmile_qr_scan"}, "type": "electric_scooter", "fusion_lat": 0.0, "lat": 38.92368716666667, "lon": -77.0213325, "is_reserved": 0}, {"bike_id": "5a79a3886cd0f37407752d4b9e3eb24c", "name": "5a79a3886cd0f37407752d4b9e3eb24c", "is_disabled": 0, "fusion_lon": 0.0, "rental_uris": {"android": "https://dc.lft.to/lastmile_qr_scan", "ios": "https://dc.lft.to/lastmile_qr_scan"}, "type": "electric_bike", "fusion_lat": 0.0, "lat": 39.034176333333335, "lon": -77.04310383333333, "is_reserved": 0}, {"bike_id": "9f78794228615887d32d73b789af1084", "name": "9f78794228615887d32d73b789af1084", "is_disabled": 0, "fusion_lon": 0.0, "rental_uris": {"android": "https://dc.lft.to/lastmile_qr_scan", "ios": "https://dc.lft.to/lastmile_qr_scan"}, "type": "electric_scooter", "fusion_lat": 0.0, "lat": 38.932079, "lon": -77.0266725, "is_reserved": 0}, {"bike_id": "ffc0eb374fb0580fa8249cc5871e60ba", "name": "ffc0eb374fb0580fa8249cc5871e60ba", "is_disabled": 0, "fusion_lon": 0.0, "rental_uris": {"android": "https://dc.lft.to/lastmile_qr_scan", "ios": "https://dc.lft.to/lastmile_qr_scan"}, "type": "electric_scooter", "fusion_lat": 0.0, "lat": 38.942633666666666, "lon": -77.029802, "is_reserved": 0}, {"bike_id": "e3638314b7132046018cc12208390043", "name": "e3638314b7132046018cc12208390043", "is_disabled": 0, "fusion_lon": 0.0, "rental_uris": {"android": "https://dc.lft.to/lastmile_qr_scan", "ios": "https://dc.lft.to/lastmile_qr_scan"}, "type": "electric_scooter", "fusion_lat": 0.0, "lat": 38.892314166666665, "lon": -77.0499645, "is_reserved": 0}, {"bike_id": "60e9de506e7803e926357e7bcc10a41f", "name": "60e9de506e7803e926357e7bcc10a41f", "is_disabled": 0, "fusion_lon": 0.0, "rental_uris": {"android": "https://dc.lft.to/lastmile_qr_scan", "ios": "https://dc.lft.to/lastmile_qr_scan"}, "type": "electric_scooter", "fusion_lat": 0.0, "lat": 38.919232666666666, "lon": -77.03398933333334, "is_reserved": 0}, {"bike_id": "ec11ad217644d7396ded44a5738b70c9", "name": "ec11ad217644d7396ded44a5738b70c9", "is_disabled": 0, "fusion_lon": 0.0, "rental_uris": {"android": "https://dc.lft.to/lastmile_qr_scan", "ios": "https://dc.lft.to/lastmile_qr_scan"}, "type": "electric_scooter", "fusion_lat": 0.0, "lat": 38.913381, "lon": -77.04268516666667, "is_reserved": 0}, {"bike_id": "0167f7b5893e6c856449ca419fae2624", "name": "0167f7b5893e6c856449ca419fae2624", "is_disabled": 0, "fusion_lon": 0.0, "rental_uris": {"android": "https://dc.lft.to/lastmile_qr_scan", "ios": "https://dc.lft.to/lastmile_qr_scan"}, "type": "electric_scooter", "fusion_lat": 0.0, "lat": 38.87470016666666, "lon": -77.0159225, "is_reserved": 0}, {"bike_id": "9e3c25fb6d4cfea1858060fd9f59f247", "name": "9e3c25fb6d4cfea1858060fd9f59f247", "is_disabled": 0, "fusion_lon": 0.0, "rental_uris": {"android": "https://dc.lft.to/lastmile_qr_scan", "ios": "https://dc.lft.to/lastmile_qr_scan"}, "type": "electric_scooter", "fusion_lat": 0.0, "lat": 38.92982466666667, "lon": -77.08326583333333, "is_reserved": 0}, {"bike_id": "bcb1fb30432ee0cdfac81e2165a43d9c", "name": "bcb1fb30432ee0cdfac81e2165a43d9c", "is_disabled": 0, "fusion_lon": 0.0, "rental_uris": {"android": "https://dc.lft.to/lastmile_qr_scan", "ios": "https://dc.lft.to/lastmile_qr_scan"}, "type": "electric_scooter", "fusion_lat": 0.0, "lat": 38.903630166666666, "lon": -77.02921333333333, "is_reserved": 0}, {"bike_id": "edb88dba2fdb51dc4d9a37d87c0dcfb2", "name": "edb88dba2fdb51dc4d9a37d87c0dcfb2", "is_disabled": 0, "fusion_lon": 0.0, "rental_uris": {"android": "https://dc.lft.to/lastmile_qr_scan", "ios": "https://dc.lft.to/lastmile_qr_scan"}, "type": "electric_scooter", "fusion_lat": 0.0, "lat": 38.927187, "lon": -77.0208115, "is_reserved": 0}, {"bike_id": "ed52b43e8e96b32288a6f3a04e7b8442", "name": "ed52b43e8e96b32288a6f3a04e7b8442", "is_disabled": 0, "fusion_lon": 0.0, "rental_uris": {"android": "https://dc.lft.to/lastmile_qr_scan", "ios": "https://dc.lft.to/lastmile_qr_scan"}, "type": "electric_bike", "fusion_lat": 0.0, "lat": 38.985035833333335, "lon": -76.955624, "is_reserved": 0}, {"bike_id": "b9361eb70e2b0e953fa8c0504676e9e6", "name": "b9361eb70e2b0e953fa8c0504676e9e6", "is_disabled": 0, "fusion_lon": 0.0, "rental_uris": {"android": "https://dc.lft.to/lastmile_qr_scan", "ios": "https://dc.lft.to/lastmile_qr_scan"}, "type": "electric_scooter", "fusion_lat": 0.0, "lat": 38.89964583333333, "lon": -77.015036, "is_reserved": 0}, {"bike_id": "e2d36cb825fd4763242976d6e3e1defd", "name": "e2d36cb825fd4763242976d6e3e1defd", "is_disabled": 0, "fusion_lon": 0.0, "rental_uris": {"android": "https://dc.lft.to/lastmile_qr_scan", "ios": "https://dc.lft.to/lastmile_qr_scan"}, "type": "electric_scooter", "fusion_lat": 0.0, "lat": 38.921619166666666, "lon": -77.02024483333334, "is_reserved": 0}, {"bike_id": "4eb7365807b445078d43cce18a0008e0", "name": "4eb7365807b445078d43cce18a0008e0", "is_disabled": 0, "fusion_lon": 0.0, "rental_uris": {"android": "https://dc.lft.to/lastmile_qr_scan", "ios": "https://dc.lft.to/lastmile_qr_scan"}, "type": "electric_scooter", "fusion_lat": 0.0, "lat": 38.88210616666667, "lon": -77.017504, "is_reserved": 0}, {"bike_id": "ac83865d4d90d6dc0c800b9cc8624df8", "name": "ac83865d4d90d6dc0c800b9cc8624df8", "is_disabled": 0, "fusion_lon": 0.0, "rental_uris": {"android": "https://dc.lft.to/lastmile_qr_scan", "ios": "https://dc.lft.to/lastmile_qr_scan"}, "type": "electric_bike", "fusion_lat": 0.0, "lat": 38.90695133333333, "lon": -76.95252233333333, "is_reserved": 0}, {"bike_id": "2357f04532b64a567b650a37cc752975", "name": "2357f04532b64a567b650a37cc752975", "is_disabled": 0, "fusion_lon": 0.0, "rental_uris": {"android": "https://dc.lft.to/lastmile_qr_scan", "ios": "https://dc.lft.to/lastmile_qr_scan"}, "type": "electric_bike", "fusion_lat": 0.0, "lat": 39.010768666666664, "lon": -76.910643, "is_reserved": 0}, {"bike_id": "281081ac5647a18f2f77401130eb87c6", "name": "281081ac5647a18f2f77401130eb87c6", "is_disabled": 0, "fusion_lon": 0.0, "rental_uris": {"android": "https://dc.lft.to/lastmile_qr_scan", "ios": "https://dc.lft.to/lastmile_qr_scan"}, "type": "electric_scooter", "fusion_lat": 0.0, "lat": 38.91044516666667, "lon": -77.04344616666667, "is_reserved": 0}, {"bike_id": "e15ce84fe96661f25e199f3f64a5423d", "name": "e15ce84fe96661f25e199f3f64a5423d", "is_disabled": 0, "fusion_lon": 0.0, "rental_uris": {"android": "https://dc.lft.to/lastmile_qr_scan", "ios": "https://dc.lft.to/lastmile_qr_scan"}, "type": "electric_scooter", "fusion_lat": 0.0, "lat": 38.91813633333334, "lon": -77.03447733333333, "is_reserved": 0}, {"bike_id": "31a1a8a94946160db979405c6ac05aaf", "name": "31a1a8a94946160db979405c6ac05aaf", "is_disabled": 0, "fusion_lon": 0.0, "rental_uris": {"android": "https://dc.lft.to/lastmile_qr_scan", "ios": "https://dc.lft.to/lastmile_qr_scan"}, "type": "electric_bike", "fusion_lat": 0.0, "lat": 38.92982416666667, "lon": -76.986015, "is_reserved": 0}, {"bike_id": "93a86129053b10bb876ed711be973ea2", "name": "93a86129053b10bb876ed711be973ea2", "is_disabled": 0, "fusion_lon": 0.0, "rental_uris": {"android": "https://dc.lft.to/lastmile_qr_scan", "ios": "https://dc.lft.to/lastmile_qr_scan"}, "type": "electric_scooter", "fusion_lat": 0.0, "lat": 38.9263805, "lon": -77.02160833333333, "is_reserved": 0}, {"bike_id": "ff5e2e9f7a07923c6dce7defd3d7bbbf", "name": "ff5e2e9f7a07923c6dce7defd3d7bbbf", "is_disabled": 0, "fusion_lon": 0.0, "rental_uris": {"android": "https://dc.lft.to/lastmile_qr_scan", "ios": "https://dc.lft.to/lastmile_qr_scan"}, "type": "electric_scooter", "fusion_lat": 0.0, "lat": 38.90580116666667, "lon": -77.0217955, "is_reserved": 0}, {"bike_id": "9026275edaa2900c51b347672a770654", "name": "9026275edaa2900c51b347672a770654", "is_disabled": 0, "fusion_lon": 0.0, "rental_uris": {"android": "https://dc.lft.to/lastmile_qr_scan", "ios": "https://dc.lft.to/lastmile_qr_scan"}, "type": "electric_scooter", "fusion_lat": 0.0, "lat": 38.89257333333333, "lon": -77.046516, "is_reserved": 0}, {"bike_id": "5aafdda18c38e48cad6d7b5550b434d4", "name": "5aafdda18c38e48cad6d7b5550b434d4", "is_disabled": 0, "fusion_lon": 0.0, "rental_uris": {"android": "https://dc.lft.to/lastmile_qr_scan", "ios": "https://dc.lft.to/lastmile_qr_scan"}, "type": "electric_scooter", "fusion_lat": 0.0, "lat": 38.911147, "lon": -77.00608333333334, "is_reserved": 0}, {"bike_id": "349a2544b060e8cd86a8eef7de507ed7", "name": "349a2544b060e8cd86a8eef7de507ed7", "is_disabled": 0, "fusion_lon": 0.0, "rental_uris": {"android": "https://dc.lft.to/lastmile_qr_scan", "ios": "https://dc.lft.to/lastmile_qr_scan"}, "type": "electric_scooter", "fusion_lat": 0.0, "lat": 38.91031266666667, "lon": -76.99342633333333, "is_reserved": 0}, {"bike_id": "76b76d7c6ab481fbf10511b494cbfcbc", "name": "76b76d7c6ab481fbf10511b494cbfcbc", "is_disabled": 0, "fusion_lon": 0.0, "rental_uris": {"android": "https://dc.lft.to/lastmile_qr_scan", "ios": "https://dc.lft.to/lastmile_qr_scan"}, "type": "electric_scooter", "fusion_lat": 0.0, "lat": 38.8997195, "lon": -77.04710616666667, "is_reserved": 0}, {"bike_id": "3990607a74b84f79c2bd00d0a94c513a", "name": "3990607a74b84f79c2bd00d0a94c513a", "is_disabled": 0, "fusion_lon": 0.0, "rental_uris": {"android": "https://dc.lft.to/lastmile_qr_scan", "ios": "https://dc.lft.to/lastmile_qr_scan"}, "type": "electric_scooter", "fusion_lat": 0.0, "lat": 38.9237585, "lon": -77.01944616666667, "is_reserved": 0}, {"bike_id": "d99af42509a2b3308be6d85a3214f1a9", "name": "d99af42509a2b3308be6d85a3214f1a9", "is_disabled": 0, "fusion_lon": 0.0, "rental_uris": {"android": "https://dc.lft.to/lastmile_qr_scan", "ios": "https://dc.lft.to/lastmile_qr_scan"}, "type": "electric_scooter", "fusion_lat": 0.0, "lat": 38.910115, "lon": -77.0445145, "is_reserved": 0}, {"bike_id": "1bd5dedb62b458154adaec6e51856e97", "name": "1bd5dedb62b458154adaec6e51856e97", "is_disabled": 0, "fusion_lon": 0.0, "rental_uris": {"android": "https://dc.lft.to/lastmile_qr_scan", "ios": "https://dc.lft.to/lastmile_qr_scan"}, "type": "electric_scooter", "fusion_lat": 0.0, "lat": 38.878434, "lon": -76.93120233333333, "is_reserved": 0}, {"bike_id": "0b1ea35c9e792785516e4ad429e4adb6", "name": "0b1ea35c9e792785516e4ad429e4adb6", "is_disabled": 0, "fusion_lon": 0.0, "rental_uris": {"android": "https://dc.lft.to/lastmile_qr_scan", "ios": "https://dc.lft.to/lastmile_qr_scan"}, "type": "electric_scooter", "fusion_lat": 0.0, "lat": 38.91919383333333, "lon": -77.04171783333334, "is_reserved": 0}, {"bike_id": "23b93ed35a7400020aeb435ae6a302d0", "name": "23b93ed35a7400020aeb435ae6a302d0", "is_disabled": 0, "fusion_lon": 0.0, "rental_uris": {"android": "https://dc.lft.to/lastmile_qr_scan", "ios": "https://dc.lft.to/lastmile_qr_scan"}, "type": "electric_scooter", "fusion_lat": 0.0, "lat": 38.89491233333333, "lon": -77.0018915, "is_reserved": 0}, {"bike_id": "857b814230a04652449c200121cab22a", "name": "857b814230a04652449c200121cab22a", "is_disabled": 0, "fusion_lon": 0.0, "rental_uris": {"android": "https://dc.lft.to/lastmile_qr_scan", "ios": "https://dc.lft.to/lastmile_qr_scan"}, "type": "electric_bike", "fusion_lat": 0.0, "lat": 38.947187666666665, "lon": -77.09873383333333, "is_reserved": 0}, {"bike_id": "e70e411bb149c92b90cb59f9cd4aa4a4", "name": "e70e411bb149c92b90cb59f9cd4aa4a4", "is_disabled": 0, "fusion_lon": 0.0, "rental_uris": {"android": "https://dc.lft.to/lastmile_qr_scan", "ios": "https://dc.lft.to/lastmile_qr_scan"}, "type": "electric_scooter", "fusion_lat": 0.0, "lat": 38.9237405, "lon": -77.025524, "is_reserved": 0}, {"bike_id": "6dd6b8367c6bfff29b8679af9f50a943", "name": "6dd6b8367c6bfff29b8679af9f50a943", "is_disabled": 0, "fusion_lon": 0.0, "rental_uris": {"android": "https://dc.lft.to/lastmile_qr_scan", "ios": "https://dc.lft.to/lastmile_qr_scan"}, "type": "electric_scooter", "fusion_lat": 0.0, "lat": 38.896125, "lon": -77.00558733333334, "is_reserved": 0}, {"bike_id": "fcac3f9c395bff3a0b626b4776cf5325", "name": "fcac3f9c395bff3a0b626b4776cf5325", "is_disabled": 0, "fusion_lon": 0.0, "rental_uris": {"android": "https://dc.lft.to/lastmile_qr_scan", "ios": "https://dc.lft.to/lastmile_qr_scan"}, "type": "electric_bike", "fusion_lat": 0.0, "lat": 38.92457133333333, "lon": -76.97556283333333, "is_reserved": 0}, {"bike_id": "5ee2b741cb40314ba774787603ea667a", "name": "5ee2b741cb40314ba774787603ea667a", "is_disabled": 0, "fusion_lon": 0.0, "rental_uris": {"android": "https://dc.lft.to/lastmile_qr_scan", "ios": "https://dc.lft.to/lastmile_qr_scan"}, "type": "electric_bike", "fusion_lat": 0.0, "lat": 38.98009616666667, "lon": -77.06405516666666, "is_reserved": 0}, {"bike_id": "8b7797052f4428f22b878b4be01ce07e", "name": "8b7797052f4428f22b878b4be01ce07e", "is_disabled": 0, "fusion_lon": 0.0, "rental_uris": {"android": "https://dc.lft.to/lastmile_qr_scan", "ios": "https://dc.lft.to/lastmile_qr_scan"}, "type": "electric_scooter", "fusion_lat": 0.0, "lat": 38.92058016666667, "lon": -77.0253055, "is_reserved": 0}, {"bike_id": "8bb4eb16f7fec122bbd0ad5fbf2941c5", "name": "8bb4eb16f7fec122bbd0ad5fbf2941c5", "is_disabled": 0, "fusion_lon": 0.0, "rental_uris": {"android": "https://dc.lft.to/lastmile_qr_scan", "ios": "https://dc.lft.to/lastmile_qr_scan"}, "type": "electric_scooter", "fusion_lat": 0.0, "lat": 38.920662666666665, "lon": -77.04257916666667, "is_reserved": 0}, {"bike_id": "084f214fc4b7dd66e5772df38c5df2f2", "name": "084f214fc4b7dd66e5772df38c5df2f2", "is_disabled": 0, "fusion_lon": 0.0, "rental_uris": {"android": "https://dc.lft.to/lastmile_qr_scan", "ios": "https://dc.lft.to/lastmile_qr_scan"}, "type": "electric_scooter", "fusion_lat": 0.0, "lat": 38.89205, "lon": -77.0029415, "is_reserved": 0}, {"bike_id": "1b0cca923cf0deb4812aa99452cbe525", "name": "1b0cca923cf0deb4812aa99452cbe525", "is_disabled": 0, "fusion_lon": 0.0, "rental_uris": {"android": "https://dc.lft.to/lastmile_qr_scan", "ios": "https://dc.lft.to/lastmile_qr_scan"}, "type": "electric_scooter", "fusion_lat": 0.0, "lat": 38.8923165, "lon": -77.01765283333333, "is_reserved": 0}, {"bike_id": "a5d29b8af643aca203f0988875d639e0", "name": "a5d29b8af643aca203f0988875d639e0", "is_disabled": 0, "fusion_lon": 0.0, "rental_uris": {"android": "https://dc.lft.to/lastmile_qr_scan", "ios": "https://dc.lft.to/lastmile_qr_scan"}, "type": "electric_scooter", "fusion_lat": 0.0, "lat": 38.899559333333336, "lon": -77.0503385, "is_reserved": 0}, {"bike_id": "88bc40409eb7023ebde0a204cc2baf2c", "name": "88bc40409eb7023ebde0a204cc2baf2c", "is_disabled": 0, "fusion_lon": 0.0, "rental_uris": {"android": "https://dc.lft.to/lastmile_qr_scan", "ios": "https://dc.lft.to/lastmile_qr_scan"}, "type": "electric_scooter", "fusion_lat": 0.0, "lat": 38.927921, "lon": -77.03145233333333, "is_reserved": 0}, {"bike_id": "bce7d9fee307c8656533413aec7f8f17", "name": "bce7d9fee307c8656533413aec7f8f17", "is_disabled": 0, "fusion_lon": 0.0, "rental_uris": {"android": "https://dc.lft.to/lastmile_qr_scan", "ios": "https://dc.lft.to/lastmile_qr_scan"}, "type": "electric_scooter", "fusion_lat": 0.0, "lat": 38.90291233333333, "lon": -77.04463916666667, "is_reserved": 0}, {"bike_id": "ae5d1bb6531e4fcbcd02f0bb9b8a43f9", "name": "ae5d1bb6531e4fcbcd02f0bb9b8a43f9", "is_disabled": 0, "fusion_lon": 0.0, "rental_uris": {"android": "https://dc.lft.to/lastmile_qr_scan", "ios": "https://dc.lft.to/lastmile_qr_scan"}, "type": "electric_scooter", "fusion_lat": 0.0, "lat": 38.941923, "lon": -77.02849783333333, "is_reserved": 0}, {"bike_id": "b52eadeff9d51d45899e6669feef9189", "name": "b52eadeff9d51d45899e6669feef9189", "is_disabled": 0, "fusion_lon": 0.0, "rental_uris": {"android": "https://dc.lft.to/lastmile_qr_scan", "ios": "https://dc.lft.to/lastmile_qr_scan"}, "type": "electric_scooter", "fusion_lat": 0.0, "lat": 38.8812285, "lon": -76.99338716666666, "is_reserved": 0}, {"bike_id": "e2616d630c33ca95bd12dddb30a71ed8", "name": "e2616d630c33ca95bd12dddb30a71ed8", "is_disabled": 0, "fusion_lon": 0.0, "rental_uris": {"android": "https://dc.lft.to/lastmile_qr_scan", "ios": "https://dc.lft.to/lastmile_qr_scan"}, "type": "electric_scooter", "fusion_lat": 0.0, "lat": 38.86513566666667, "lon": -76.99018383333333, "is_reserved": 0}, {"bike_id": "35ba94c46508d07ef219cfc76378bc24", "name": "35ba94c46508d07ef219cfc76378bc24", "is_disabled": 0, "fusion_lon": 0.0, "rental_uris": {"android": "https://dc.lft.to/lastmile_qr_scan", "ios": "https://dc.lft.to/lastmile_qr_scan"}, "type": "electric_scooter", "fusion_lat": 0.0, "lat": 38.92470566666667, "lon": -77.05232166666667, "is_reserved": 0}, {"bike_id": "1dc8fc7868c90952a9879ecac8151dff", "name": "1dc8fc7868c90952a9879ecac8151dff", "is_disabled": 0, "fusion_lon": 0.0, "rental_uris": {"android": "https://dc.lft.to/lastmile_qr_scan", "ios": "https://dc.lft.to/lastmile_qr_scan"}, "type": "electric_scooter", "fusion_lat": 0.0, "lat": 38.907279, "lon": -77.01716733333333, "is_reserved": 0}, {"bike_id": "9e7a94ffd10192459c360309c28bdfc8", "name": "9e7a94ffd10192459c360309c28bdfc8", "is_disabled": 0, "fusion_lon": 0.0, "rental_uris": {"android": "https://dc.lft.to/lastmile_qr_scan", "ios": "https://dc.lft.to/lastmile_qr_scan"}, "type": "electric_bike", "fusion_lat": 0.0, "lat": 38.839329166666666, "lon": -77.07899916666666, "is_reserved": 0}, {"bike_id": "1256e4239a9040e2ed46a6ab3daea2c3", "name": "1256e4239a9040e2ed46a6ab3daea2c3", "is_disabled": 0, "fusion_lon": 0.0, "rental_uris": {"android": "https://dc.lft.to/lastmile_qr_scan", "ios": "https://dc.lft.to/lastmile_qr_scan"}, "type": "electric_scooter", "fusion_lat": 0.0, "lat": 38.9153825, "lon": -77.03202366666666, "is_reserved": 0}, {"bike_id": "4bd021153b47eea9bb4b553557ce7078", "name": "4bd021153b47eea9bb4b553557ce7078", "is_disabled": 0, "fusion_lon": 0.0, "rental_uris": {"android": "https://dc.lft.to/lastmile_qr_scan", "ios": "https://dc.lft.to/lastmile_qr_scan"}, "type": "electric_scooter", "fusion_lat": 0.0, "lat": 38.89929033333333, "lon": -77.041567, "is_reserved": 0}, {"bike_id": "64444a531b2a7d4f2db5df03770753fd", "name": "64444a531b2a7d4f2db5df03770753fd", "is_disabled": 0, "fusion_lon": 0.0, "rental_uris": {"android": "https://dc.lft.to/lastmile_qr_scan", "ios": "https://dc.lft.to/lastmile_qr_scan"}, "type": "electric_scooter", "fusion_lat": 0.0, "lat": 38.896066166666664, "lon": -77.02213983333333, "is_reserved": 0}, {"bike_id": "aecfcd03c352e856b7a8a43af5f1a11b", "name": "aecfcd03c352e856b7a8a43af5f1a11b", "is_disabled": 0, "fusion_lon": 0.0, "rental_uris": {"android": "https://dc.lft.to/lastmile_qr_scan", "ios": "https://dc.lft.to/lastmile_qr_scan"}, "type": "electric_scooter", "fusion_lat": 0.0, "lat": 38.90721883333333, "lon": -77.04343233333333, "is_reserved": 0}, {"bike_id": "55b76d1d20e3a1179b8cf05859459f7c", "name": "55b76d1d20e3a1179b8cf05859459f7c", "is_disabled": 0, "fusion_lon": 0.0, "rental_uris": {"android": "https://dc.lft.to/lastmile_qr_scan", "ios": "https://dc.lft.to/lastmile_qr_scan"}, "type": "electric_scooter", "fusion_lat": 0.0, "lat": 38.93597166666667, "lon": -77.037637, "is_reserved": 0}, {"bike_id": "e1d6a4c2e7c3363dbdf47a14cea66382", "name": "e1d6a4c2e7c3363dbdf47a14cea66382", "is_disabled": 0, "fusion_lon": 0.0, "rental_uris": {"android": "https://dc.lft.to/lastmile_qr_scan", "ios": "https://dc.lft.to/lastmile_qr_scan"}, "type": "electric_scooter", "fusion_lat": 0.0, "lat": 38.9140905, "lon": -77.02170383333333, "is_reserved": 0}, {"bike_id": "50ee18588d1052680f6eb3de79b68be7", "name": "50ee18588d1052680f6eb3de79b68be7", "is_disabled": 0, "fusion_lon": 0.0, "rental_uris": {"android": "https://dc.lft.to/lastmile_qr_scan", "ios": "https://dc.lft.to/lastmile_qr_scan"}, "type": "electric_scooter", "fusion_lat": 0.0, "lat": 38.896975166666664, "lon": -77.043308, "is_reserved": 0}, {"bike_id": "c27f7e271b5ede60908ead405f3edce2", "name": "c27f7e271b5ede60908ead405f3edce2", "is_disabled": 0, "fusion_lon": 0.0, "rental_uris": {"android": "https://dc.lft.to/lastmile_qr_scan", "ios": "https://dc.lft.to/lastmile_qr_scan"}, "type": "electric_scooter", "fusion_lat": 0.0, "lat": 38.923872333333335, "lon": -77.02660483333334, "is_reserved": 0}, {"bike_id": "497f152e87a136f7226c3f207b85fbeb", "name": "497f152e87a136f7226c3f207b85fbeb", "is_disabled": 0, "fusion_lon": 0.0, "rental_uris": {"android": "https://dc.lft.to/lastmile_qr_scan", "ios": "https://dc.lft.to/lastmile_qr_scan"}, "type": "electric_scooter", "fusion_lat": 0.0, "lat": 38.94982483333333, "lon": -77.08025533333333, "is_reserved": 0}, {"bike_id": "e4cdd9abea2b5a111b04b7d0f1374dca", "name": "e4cdd9abea2b5a111b04b7d0f1374dca", "is_disabled": 0, "fusion_lon": 0.0, "rental_uris": {"android": "https://dc.lft.to/lastmile_qr_scan", "ios": "https://dc.lft.to/lastmile_qr_scan"}, "type": "electric_scooter", "fusion_lat": 0.0, "lat": 38.937731166666666, "lon": -76.99308333333333, "is_reserved": 0}, {"bike_id": "1b8d63db747a193762104a52ed3be387", "name": "1b8d63db747a193762104a52ed3be387", "is_disabled": 0, "fusion_lon": 0.0, "rental_uris": {"android": "https://dc.lft.to/lastmile_qr_scan", "ios": "https://dc.lft.to/lastmile_qr_scan"}, "type": "electric_bike", "fusion_lat": 0.0, "lat": 38.945125, "lon": -77.00669183333333, "is_reserved": 0}, {"bike_id": "a0485508632f0ca309d126f6b768e231", "name": "a0485508632f0ca309d126f6b768e231", "is_disabled": 0, "fusion_lon": 0.0, "rental_uris": {"android": "https://dc.lft.to/lastmile_qr_scan", "ios": "https://dc.lft.to/lastmile_qr_scan"}, "type": "electric_scooter", "fusion_lat": 0.0, "lat": 38.89908066666667, "lon": -76.93386416666667, "is_reserved": 0}, {"bike_id": "e15fc839c99bbeada91cfc5cefe74550", "name": "e15fc839c99bbeada91cfc5cefe74550", "is_disabled": 0, "fusion_lon": 0.0, "rental_uris": {"android": "https://dc.lft.to/lastmile_qr_scan", "ios": "https://dc.lft.to/lastmile_qr_scan"}, "type": "electric_bike", "fusion_lat": 0.0, "lat": 38.91274266666667, "lon": -76.984677, "is_reserved": 0}, {"bike_id": "e3ecc89a4469d8dda9260dd2cfdda030", "name": "e3ecc89a4469d8dda9260dd2cfdda030", "is_disabled": 0, "fusion_lon": 0.0, "rental_uris": {"android": "https://dc.lft.to/lastmile_qr_scan", "ios": "https://dc.lft.to/lastmile_qr_scan"}, "type": "electric_scooter", "fusion_lat": 0.0, "lat": 38.921547833333335, "lon": -77.04230966666667, "is_reserved": 0}, {"bike_id": "b5779f8eb75061ec41a4a01c4449b9b9", "name": "b5779f8eb75061ec41a4a01c4449b9b9", "is_disabled": 0, "fusion_lon": 0.0, "rental_uris": {"android": "https://dc.lft.to/lastmile_qr_scan", "ios": "https://dc.lft.to/lastmile_qr_scan"}, "type": "electric_scooter", "fusion_lat": 0.0, "lat": 38.8999025, "lon": -77.02614916666667, "is_reserved": 0}, {"bike_id": "c176efde5df086848f9775944cd7f09f", "name": "c176efde5df086848f9775944cd7f09f", "is_disabled": 0, "fusion_lon": 0.0, "rental_uris": {"android": "https://dc.lft.to/lastmile_qr_scan", "ios": "https://dc.lft.to/lastmile_qr_scan"}, "type": "electric_scooter", "fusion_lat": 0.0, "lat": 38.890308833333336, "lon": -76.944626, "is_reserved": 0}, {"bike_id": "58d9ff31891e5e28dc555eef5b2ca450", "name": "58d9ff31891e5e28dc555eef5b2ca450", "is_disabled": 0, "fusion_lon": 0.0, "rental_uris": {"android": "https://dc.lft.to/lastmile_qr_scan", "ios": "https://dc.lft.to/lastmile_qr_scan"}, "type": "electric_scooter", "fusion_lat": 0.0, "lat": 38.93207683333333, "lon": -77.018776, "is_reserved": 0}, {"bike_id": "b05da4bd7eee0a7a04e44737dd7dabc6", "name": "b05da4bd7eee0a7a04e44737dd7dabc6", "is_disabled": 0, "fusion_lon": 0.0, "rental_uris": {"android": "https://dc.lft.to/lastmile_qr_scan", "ios": "https://dc.lft.to/lastmile_qr_scan"}, "type": "electric_scooter", "fusion_lat": 0.0, "lat": 38.92612, "lon": -77.0216155, "is_reserved": 0}, {"bike_id": "bd087547326b6f30662589524b2dc9d2", "name": "bd087547326b6f30662589524b2dc9d2", "is_disabled": 0, "fusion_lon": 0.0, "rental_uris": {"android": "https://dc.lft.to/lastmile_qr_scan", "ios": "https://dc.lft.to/lastmile_qr_scan"}, "type": "electric_scooter", "fusion_lat": 0.0, "lat": 38.894708333333334, "lon": -77.01991933333333, "is_reserved": 0}, {"bike_id": "26668434d55c2dbbeafad89a6dbd52d4", "name": "26668434d55c2dbbeafad89a6dbd52d4", "is_disabled": 0, "fusion_lon": 0.0, "rental_uris": {"android": "https://dc.lft.to/lastmile_qr_scan", "ios": "https://dc.lft.to/lastmile_qr_scan"}, "type": "electric_scooter", "fusion_lat": 0.0, "lat": 38.9168865, "lon": -77.02709833333333, "is_reserved": 0}, {"bike_id": "1e198648513d0d8cda0944323199c483", "name": "1e198648513d0d8cda0944323199c483", "is_disabled": 0, "fusion_lon": 0.0, "rental_uris": {"android": "https://dc.lft.to/lastmile_qr_scan", "ios": "https://dc.lft.to/lastmile_qr_scan"}, "type": "electric_bike", "fusion_lat": 0.0, "lat": 38.84281383333333, "lon": -76.98839666666667, "is_reserved": 0}, {"bike_id": "137124a949d865ff0e110b44de45eaa6", "name": "137124a949d865ff0e110b44de45eaa6", "is_disabled": 0, "fusion_lon": 0.0, "rental_uris": {"android": "https://dc.lft.to/lastmile_qr_scan", "ios": "https://dc.lft.to/lastmile_qr_scan"}, "type": "electric_scooter", "fusion_lat": 0.0, "lat": 38.922118833333336, "lon": -77.04239333333334, "is_reserved": 0}, {"bike_id": "55bf5b77baea051f6a9d1086d3bde7eb", "name": "55bf5b77baea051f6a9d1086d3bde7eb", "is_disabled": 0, "fusion_lon": 0.0, "rental_uris": {"android": "https://dc.lft.to/lastmile_qr_scan", "ios": "https://dc.lft.to/lastmile_qr_scan"}, "type": "electric_scooter", "fusion_lat": 0.0, "lat": 38.902119166666665, "lon": -77.04839433333333, "is_reserved": 0}, {"bike_id": "9dce9e8641c4ef2a16e43430fdd29cba", "name": "9dce9e8641c4ef2a16e43430fdd29cba", "is_disabled": 0, "fusion_lon": 0.0, "rental_uris": {"android": "https://dc.lft.to/lastmile_qr_scan", "ios": "https://dc.lft.to/lastmile_qr_scan"}, "type": "electric_scooter", "fusion_lat": 0.0, "lat": 38.92061366666667, "lon": -77.04244533333333, "is_reserved": 0}, {"bike_id": "608322f185b6fe8a4d8c584ff1de9dfd", "name": "608322f185b6fe8a4d8c584ff1de9dfd", "is_disabled": 0, "fusion_lon": 0.0, "rental_uris": {"android": "https://dc.lft.to/lastmile_qr_scan", "ios": "https://dc.lft.to/lastmile_qr_scan"}, "type": "electric_scooter", "fusion_lat": 0.0, "lat": 38.899725833333335, "lon": -77.02946416666667, "is_reserved": 0}, {"bike_id": "8546af3291fc6eac96470631e903b23e", "name": "8546af3291fc6eac96470631e903b23e", "is_disabled": 0, "fusion_lon": 0.0, "rental_uris": {"android": "https://dc.lft.to/lastmile_qr_scan", "ios": "https://dc.lft.to/lastmile_qr_scan"}, "type": "electric_scooter", "fusion_lat": 0.0, "lat": 38.90285183333334, "lon": -77.04668816666667, "is_reserved": 0}, {"bike_id": "5242c2da92d104e1a7c36ac858bb3147", "name": "5242c2da92d104e1a7c36ac858bb3147", "is_disabled": 0, "fusion_lon": 0.0, "rental_uris": {"android": "https://dc.lft.to/lastmile_qr_scan", "ios": "https://dc.lft.to/lastmile_qr_scan"}, "type": "electric_scooter", "fusion_lat": 0.0, "lat": 38.908832, "lon": -77.00265216666666, "is_reserved": 0}, {"bike_id": "12170d452ead6bf7c821e4e4414429ee", "name": "12170d452ead6bf7c821e4e4414429ee", "is_disabled": 0, "fusion_lon": 0.0, "rental_uris": {"android": "https://dc.lft.to/lastmile_qr_scan", "ios": "https://dc.lft.to/lastmile_qr_scan"}, "type": "electric_scooter", "fusion_lat": 0.0, "lat": 38.91950583333333, "lon": -77.01436466666667, "is_reserved": 0}, {"bike_id": "0a1d39d193ba604b40d041d854d527e7", "name": "0a1d39d193ba604b40d041d854d527e7", "is_disabled": 0, "fusion_lon": 0.0, "rental_uris": {"android": "https://dc.lft.to/lastmile_qr_scan", "ios": "https://dc.lft.to/lastmile_qr_scan"}, "type": "electric_scooter", "fusion_lat": 0.0, "lat": 38.877897833333336, "lon": -76.99936266666667, "is_reserved": 0}, {"bike_id": "5361424113d19639a1c279e3fb03cb44", "name": "5361424113d19639a1c279e3fb03cb44", "is_disabled": 0, "fusion_lon": 0.0, "rental_uris": {"android": "https://dc.lft.to/lastmile_qr_scan", "ios": "https://dc.lft.to/lastmile_qr_scan"}, "type": "electric_scooter", "fusion_lat": 0.0, "lat": 38.90216083333333, "lon": -77.035788, "is_reserved": 0}, {"bike_id": "6f8c21e97da6c9d0c94cb2071bcd0e10", "name": "6f8c21e97da6c9d0c94cb2071bcd0e10", "is_disabled": 0, "fusion_lon": 0.0, "rental_uris": {"android": "https://dc.lft.to/lastmile_qr_scan", "ios": "https://dc.lft.to/lastmile_qr_scan"}, "type": "electric_scooter", "fusion_lat": 0.0, "lat": 38.917779, "lon": -77.02347583333334, "is_reserved": 0}, {"bike_id": "580b0be5a4084edd8813a474b1153bea", "name": "580b0be5a4084edd8813a474b1153bea", "is_disabled": 0, "fusion_lon": 0.0, "rental_uris": {"android": "https://dc.lft.to/lastmile_qr_scan", "ios": "https://dc.lft.to/lastmile_qr_scan"}, "type": "electric_scooter", "fusion_lat": 0.0, "lat": 38.9007105, "lon": -77.05013066666666, "is_reserved": 0}, {"bike_id": "f0632403652e63187992dadfd2b19255", "name": "f0632403652e63187992dadfd2b19255", "is_disabled": 0, "fusion_lon": 0.0, "rental_uris": {"android": "https://dc.lft.to/lastmile_qr_scan", "ios": "https://dc.lft.to/lastmile_qr_scan"}, "type": "electric_scooter", "fusion_lat": 0.0, "lat": 38.86081733333333, "lon": -76.9837345, "is_reserved": 0}, {"bike_id": "6c7358be29ea6302c24a3405a6f09822", "name": "6c7358be29ea6302c24a3405a6f09822", "is_disabled": 0, "fusion_lon": 0.0, "rental_uris": {"android": "https://dc.lft.to/lastmile_qr_scan", "ios": "https://dc.lft.to/lastmile_qr_scan"}, "type": "electric_scooter", "fusion_lat": 0.0, "lat": 38.89018383333333, "lon": -76.93741433333334, "is_reserved": 0}, {"bike_id": "7d1ea7b0adb886dec1ded36457603847", "name": "7d1ea7b0adb886dec1ded36457603847", "is_disabled": 0, "fusion_lon": 0.0, "rental_uris": {"android": "https://dc.lft.to/lastmile_qr_scan", "ios": "https://dc.lft.to/lastmile_qr_scan"}, "type": "electric_scooter", "fusion_lat": 0.0, "lat": 38.898367, "lon": -77.03216116666667, "is_reserved": 0}, {"bike_id": "d780b4d3cddec8761b2d271dc525557d", "name": "d780b4d3cddec8761b2d271dc525557d", "is_disabled": 0, "fusion_lon": 0.0, "rental_uris": {"android": "https://dc.lft.to/lastmile_qr_scan", "ios": "https://dc.lft.to/lastmile_qr_scan"}, "type": "electric_scooter", "fusion_lat": 0.0, "lat": 38.9250475, "lon": -77.021278, "is_reserved": 0}, {"bike_id": "3f36c147472cb8a6ce24bf718c90feac", "name": "3f36c147472cb8a6ce24bf718c90feac", "is_disabled": 0, "fusion_lon": 0.0, "rental_uris": {"android": "https://dc.lft.to/lastmile_qr_scan", "ios": "https://dc.lft.to/lastmile_qr_scan"}, "type": "electric_scooter", "fusion_lat": 0.0, "lat": 38.9206565, "lon": -77.022067, "is_reserved": 0}, {"bike_id": "b5bcf24b07dd92bd18a38d8a982f638c", "name": "b5bcf24b07dd92bd18a38d8a982f638c", "is_disabled": 0, "fusion_lon": 0.0, "rental_uris": {"android": "https://dc.lft.to/lastmile_qr_scan", "ios": "https://dc.lft.to/lastmile_qr_scan"}, "type": "electric_scooter", "fusion_lat": 0.0, "lat": 38.92086233333333, "lon": -77.0252605, "is_reserved": 0}, {"bike_id": "1ef42eeb935f6a80851a1bd88e5f76a0", "name": "1ef42eeb935f6a80851a1bd88e5f76a0", "is_disabled": 0, "fusion_lon": 0.0, "rental_uris": {"android": "https://dc.lft.to/lastmile_qr_scan", "ios": "https://dc.lft.to/lastmile_qr_scan"}, "type": "electric_scooter", "fusion_lat": 0.0, "lat": 38.897218333333335, "lon": -77.02652416666666, "is_reserved": 0}, {"bike_id": "7d4d693fc44f6eb2cbdd5ae863431eea", "name": "7d4d693fc44f6eb2cbdd5ae863431eea", "is_disabled": 0, "fusion_lon": 0.0, "rental_uris": {"android": "https://dc.lft.to/lastmile_qr_scan", "ios": "https://dc.lft.to/lastmile_qr_scan"}, "type": "electric_scooter", "fusion_lat": 0.0, "lat": 38.92996816666667, "lon": -77.055107, "is_reserved": 0}, {"bike_id": "d3d462e66859fd8c31e7a26f6ce57be1", "name": "d3d462e66859fd8c31e7a26f6ce57be1", "is_disabled": 0, "fusion_lon": 0.0, "rental_uris": {"android": "https://dc.lft.to/lastmile_qr_scan", "ios": "https://dc.lft.to/lastmile_qr_scan"}, "type": "electric_scooter", "fusion_lat": 0.0, "lat": 38.901430166666664, "lon": -77.02987483333334, "is_reserved": 0}, {"bike_id": "ddd26c24aebff5cbaa4765d7a979e135", "name": "ddd26c24aebff5cbaa4765d7a979e135", "is_disabled": 0, "fusion_lon": 0.0, "rental_uris": {"android": "https://dc.lft.to/lastmile_qr_scan", "ios": "https://dc.lft.to/lastmile_qr_scan"}, "type": "electric_scooter", "fusion_lat": 0.0, "lat": 38.87640583333334, "lon": -77.005753, "is_reserved": 0}, {"bike_id": "2fa1c7fdd776b7da33280725ec35def0", "name": "2fa1c7fdd776b7da33280725ec35def0", "is_disabled": 0, "fusion_lon": 0.0, "rental_uris": {"android": "https://dc.lft.to/lastmile_qr_scan", "ios": "https://dc.lft.to/lastmile_qr_scan"}, "type": "electric_scooter", "fusion_lat": 0.0, "lat": 38.91780833333333, "lon": -77.02371716666667, "is_reserved": 0}, {"bike_id": "c6caa14c854da3d75bcd3322d34b34af", "name": "c6caa14c854da3d75bcd3322d34b34af", "is_disabled": 0, "fusion_lon": 0.0, "rental_uris": {"android": "https://dc.lft.to/lastmile_qr_scan", "ios": "https://dc.lft.to/lastmile_qr_scan"}, "type": "electric_scooter", "fusion_lat": 0.0, "lat": 38.90739283333333, "lon": -77.0021655, "is_reserved": 0}, {"bike_id": "3ab3b593ec731251914f146bc7d27ed2", "name": "3ab3b593ec731251914f146bc7d27ed2", "is_disabled": 0, "fusion_lon": 0.0, "rental_uris": {"android": "https://dc.lft.to/lastmile_qr_scan", "ios": "https://dc.lft.to/lastmile_qr_scan"}, "type": "electric_scooter", "fusion_lat": 0.0, "lat": 38.90209633333333, "lon": -77.02379566666667, "is_reserved": 0}, {"bike_id": "23f4e2d86d2d657c7a8cf5a95dd3f49d", "name": "23f4e2d86d2d657c7a8cf5a95dd3f49d", "is_disabled": 0, "fusion_lon": 0.0, "rental_uris": {"android": "https://dc.lft.to/lastmile_qr_scan", "ios": "https://dc.lft.to/lastmile_qr_scan"}, "type": "electric_scooter", "fusion_lat": 0.0, "lat": 38.90250733333333, "lon": -77.032485, "is_reserved": 0}, {"bike_id": "3bfcef4d21fdc7d6c76dc00db10a0c9d", "name": "3bfcef4d21fdc7d6c76dc00db10a0c9d", "is_disabled": 0, "fusion_lon": 0.0, "rental_uris": {"android": "https://dc.lft.to/lastmile_qr_scan", "ios": "https://dc.lft.to/lastmile_qr_scan"}, "type": "electric_scooter", "fusion_lat": 0.0, "lat": 38.89759333333333, "lon": -77.05495733333333, "is_reserved": 0}, {"bike_id": "41f7ef5beaf732d68f7d792fe50352e4", "name": "41f7ef5beaf732d68f7d792fe50352e4", "is_disabled": 0, "fusion_lon": 0.0, "rental_uris": {"android": "https://dc.lft.to/lastmile_qr_scan", "ios": "https://dc.lft.to/lastmile_qr_scan"}, "type": "electric_scooter", "fusion_lat": 0.0, "lat": 38.920864, "lon": -77.023391, "is_reserved": 0}, {"bike_id": "237714fff4d5645f788a262e3be5ce7e", "name": "237714fff4d5645f788a262e3be5ce7e", "is_disabled": 0, "fusion_lon": 0.0, "rental_uris": {"android": "https://dc.lft.to/lastmile_qr_scan", "ios": "https://dc.lft.to/lastmile_qr_scan"}, "type": "electric_scooter", "fusion_lat": 0.0, "lat": 38.924324, "lon": -77.052006, "is_reserved": 0}, {"bike_id": "b48f6cf15b9eaa22e51545781c46280e", "name": "b48f6cf15b9eaa22e51545781c46280e", "is_disabled": 0, "fusion_lon": 0.0, "rental_uris": {"android": "https://dc.lft.to/lastmile_qr_scan", "ios": "https://dc.lft.to/lastmile_qr_scan"}, "type": "electric_scooter", "fusion_lat": 0.0, "lat": 38.877848166666666, "lon": -77.02196316666667, "is_reserved": 0}, {"bike_id": "4f1cf8825ba9fc893b9d1694870ca90c", "name": "4f1cf8825ba9fc893b9d1694870ca90c", "is_disabled": 0, "fusion_lon": 0.0, "rental_uris": {"android": "https://dc.lft.to/lastmile_qr_scan", "ios": "https://dc.lft.to/lastmile_qr_scan"}, "type": "electric_scooter", "fusion_lat": 0.0, "lat": 38.919155, "lon": -77.0334215, "is_reserved": 0}, {"bike_id": "e8ffd776c81680af7f6d3ff6346f0d88", "name": "e8ffd776c81680af7f6d3ff6346f0d88", "is_disabled": 0, "fusion_lon": 0.0, "rental_uris": {"android": "https://dc.lft.to/lastmile_qr_scan", "ios": "https://dc.lft.to/lastmile_qr_scan"}, "type": "electric_scooter", "fusion_lat": 0.0, "lat": 38.91783366666667, "lon": -77.0237345, "is_reserved": 0}, {"bike_id": "736a41e707d81ff997ae2c19180e3e6b", "name": "736a41e707d81ff997ae2c19180e3e6b", "is_disabled": 0, "fusion_lon": 0.0, "rental_uris": {"android": "https://dc.lft.to/lastmile_qr_scan", "ios": "https://dc.lft.to/lastmile_qr_scan"}, "type": "electric_scooter", "fusion_lat": 0.0, "lat": 38.92153366666667, "lon": -77.07238266666667, "is_reserved": 0}, {"bike_id": "5624933c754385d7bbc02d5ce3b98902", "name": "5624933c754385d7bbc02d5ce3b98902", "is_disabled": 0, "fusion_lon": 0.0, "rental_uris": {"android": "https://dc.lft.to/lastmile_qr_scan", "ios": "https://dc.lft.to/lastmile_qr_scan"}, "type": "electric_scooter", "fusion_lat": 0.0, "lat": 38.886125166666666, "lon": -76.98542116666667, "is_reserved": 0}, {"bike_id": "6a1d1c7686d1fef15a9e79d10a933323", "name": "6a1d1c7686d1fef15a9e79d10a933323", "is_disabled": 0, "fusion_lon": 0.0, "rental_uris": {"android": "https://dc.lft.to/lastmile_qr_scan", "ios": "https://dc.lft.to/lastmile_qr_scan"}, "type": "electric_scooter", "fusion_lat": 0.0, "lat": 38.91752366666667, "lon": -77.04763883333334, "is_reserved": 0}, {"bike_id": "dc96463bc5ab606b36be595fdad8616c", "name": "dc96463bc5ab606b36be595fdad8616c", "is_disabled": 0, "fusion_lon": 0.0, "rental_uris": {"android": "https://dc.lft.to/lastmile_qr_scan", "ios": "https://dc.lft.to/lastmile_qr_scan"}, "type": "electric_scooter", "fusion_lat": 0.0, "lat": 38.86125833333333, "lon": -77.00321366666667, "is_reserved": 0}, {"bike_id": "dc207badd9b29f98fc299b1157b5a2c2", "name": "dc207badd9b29f98fc299b1157b5a2c2", "is_disabled": 0, "fusion_lon": 0.0, "rental_uris": {"android": "https://dc.lft.to/lastmile_qr_scan", "ios": "https://dc.lft.to/lastmile_qr_scan"}, "type": "electric_scooter", "fusion_lat": 0.0, "lat": 38.90366816666667, "lon": -76.98490216666667, "is_reserved": 0}, {"bike_id": "c648067eb1eebd3110a2af7f862ec494", "name": "c648067eb1eebd3110a2af7f862ec494", "is_disabled": 0, "fusion_lon": 0.0, "rental_uris": {"android": "https://dc.lft.to/lastmile_qr_scan", "ios": "https://dc.lft.to/lastmile_qr_scan"}, "type": "electric_scooter", "fusion_lat": 0.0, "lat": 38.876611833333335, "lon": -77.0006185, "is_reserved": 0}, {"bike_id": "6eb41732370d3d0c6a6b734e331e2f49", "name": "6eb41732370d3d0c6a6b734e331e2f49", "is_disabled": 0, "fusion_lon": 0.0, "rental_uris": {"android": "https://dc.lft.to/lastmile_qr_scan", "ios": "https://dc.lft.to/lastmile_qr_scan"}, "type": "electric_scooter", "fusion_lat": 0.0, "lat": 38.89189983333333, "lon": -77.0033385, "is_reserved": 0}, {"bike_id": "587562f93b8396ad0b707e4b68648d2d", "name": "587562f93b8396ad0b707e4b68648d2d", "is_disabled": 0, "fusion_lon": 0.0, "rental_uris": {"android": "https://dc.lft.to/lastmile_qr_scan", "ios": "https://dc.lft.to/lastmile_qr_scan"}, "type": "electric_scooter", "fusion_lat": 0.0, "lat": 38.924911333333334, "lon": -77.022707, "is_reserved": 0}, {"bike_id": "6db64e03647673398aa5d3ffdcc7dcd9", "name": "6db64e03647673398aa5d3ffdcc7dcd9", "is_disabled": 0, "fusion_lon": 0.0, "rental_uris": {"android": "https://dc.lft.to/lastmile_qr_scan", "ios": "https://dc.lft.to/lastmile_qr_scan"}, "type": "electric_scooter", "fusion_lat": 0.0, "lat": 38.9057105, "lon": -77.01849166666666, "is_reserved": 0}, {"bike_id": "7c54039d5a4b407281715a0275a0906c", "name": "7c54039d5a4b407281715a0275a0906c", "is_disabled": 0, "fusion_lon": 0.0, "rental_uris": {"android": "https://dc.lft.to/lastmile_qr_scan", "ios": "https://dc.lft.to/lastmile_qr_scan"}, "type": "electric_bike", "fusion_lat": 0.0, "lat": 38.836937, "lon": -77.10340883333333, "is_reserved": 0}, {"bike_id": "f8125a36cff83eb984d4362d524566bf", "name": "f8125a36cff83eb984d4362d524566bf", "is_disabled": 0, "fusion_lon": 0.0, "rental_uris": {"android": "https://dc.lft.to/lastmile_qr_scan", "ios": "https://dc.lft.to/lastmile_qr_scan"}, "type": "electric_scooter", "fusion_lat": 0.0, "lat": 38.92473416666667, "lon": -77.02213, "is_reserved": 0}, {"bike_id": "5cb55faf3c4754ea128be39ad5f8388e", "name": "5cb55faf3c4754ea128be39ad5f8388e", "is_disabled": 0, "fusion_lon": 0.0, "rental_uris": {"android": "https://dc.lft.to/lastmile_qr_scan", "ios": "https://dc.lft.to/lastmile_qr_scan"}, "type": "electric_scooter", "fusion_lat": 0.0, "lat": 38.887491833333335, "lon": -77.01709716666667, "is_reserved": 0}, {"bike_id": "8fef13ddc460b13c402e043bb16bb3bc", "name": "8fef13ddc460b13c402e043bb16bb3bc", "is_disabled": 0, "fusion_lon": 0.0, "rental_uris": {"android": "https://dc.lft.to/lastmile_qr_scan", "ios": "https://dc.lft.to/lastmile_qr_scan"}, "type": "electric_scooter", "fusion_lat": 0.0, "lat": 38.9247425, "lon": -77.02216433333334, "is_reserved": 0}, {"bike_id": "ddaf345dfbae9063ffa1ccad7e95555b", "name": "ddaf345dfbae9063ffa1ccad7e95555b", "is_disabled": 0, "fusion_lon": 0.0, "rental_uris": {"android": "https://dc.lft.to/lastmile_qr_scan", "ios": "https://dc.lft.to/lastmile_qr_scan"}, "type": "electric_bike", "fusion_lat": 0.0, "lat": 38.873423833333334, "lon": -76.99149833333334, "is_reserved": 0}, {"bike_id": "ba9206c1c7871c93fe14779f7a66e95e", "name": "ba9206c1c7871c93fe14779f7a66e95e", "is_disabled": 0, "fusion_lon": 0.0, "rental_uris": {"android": "https://dc.lft.to/lastmile_qr_scan", "ios": "https://dc.lft.to/lastmile_qr_scan"}, "type": "electric_scooter", "fusion_lat": 0.0, "lat": 38.90258983333333, "lon": -77.02646166666666, "is_reserved": 0}, {"bike_id": "535c00f4bd3554a68328839a1a549e9f", "name": "535c00f4bd3554a68328839a1a549e9f", "is_disabled": 0, "fusion_lon": 0.0, "rental_uris": {"android": "https://dc.lft.to/lastmile_qr_scan", "ios": "https://dc.lft.to/lastmile_qr_scan"}, "type": "electric_scooter", "fusion_lat": 0.0, "lat": 38.89243316666666, "lon": -77.03182033333333, "is_reserved": 0}, {"bike_id": "beb875914188b0eb7c33deb91e7133d1", "name": "beb875914188b0eb7c33deb91e7133d1", "is_disabled": 0, "fusion_lon": 0.0, "rental_uris": {"android": "https://dc.lft.to/lastmile_qr_scan", "ios": "https://dc.lft.to/lastmile_qr_scan"}, "type": "electric_scooter", "fusion_lat": 0.0, "lat": 38.8955555, "lon": -77.0301695, "is_reserved": 0}, {"bike_id": "c66c1631ea50042c5762dc42cf7b1b84", "name": "c66c1631ea50042c5762dc42cf7b1b84", "is_disabled": 0, "fusion_lon": 0.0, "rental_uris": {"android": "https://dc.lft.to/lastmile_qr_scan", "ios": "https://dc.lft.to/lastmile_qr_scan"}, "type": "electric_scooter", "fusion_lat": 0.0, "lat": 38.92036433333333, "lon": -77.0172185, "is_reserved": 0}, {"bike_id": "f3d7d86d3debd91e629a8c782d2cdba2", "name": "f3d7d86d3debd91e629a8c782d2cdba2", "is_disabled": 0, "fusion_lon": 0.0, "rental_uris": {"android": "https://dc.lft.to/lastmile_qr_scan", "ios": "https://dc.lft.to/lastmile_qr_scan"}, "type": "electric_scooter", "fusion_lat": 0.0, "lat": 38.89716933333333, "lon": -76.97853833333333, "is_reserved": 0}, {"bike_id": "680aed2b4e5d19922881bcc339f239e1", "name": "680aed2b4e5d19922881bcc339f239e1", "is_disabled": 0, "fusion_lon": 0.0, "rental_uris": {"android": "https://dc.lft.to/lastmile_qr_scan", "ios": "https://dc.lft.to/lastmile_qr_scan"}, "type": "electric_scooter", "fusion_lat": 0.0, "lat": 38.895439, "lon": -76.98331233333333, "is_reserved": 0}, {"bike_id": "ba8b4092dc0db47d85baa8c2ac501056", "name": "ba8b4092dc0db47d85baa8c2ac501056", "is_disabled": 0, "fusion_lon": 0.0, "rental_uris": {"android": "https://dc.lft.to/lastmile_qr_scan", "ios": "https://dc.lft.to/lastmile_qr_scan"}, "type": "electric_scooter", "fusion_lat": 0.0, "lat": 38.933969833333336, "lon": -77.05739733333333, "is_reserved": 0}, {"bike_id": "06c79e4dcb85459fdcaac67651bd2d64", "name": "06c79e4dcb85459fdcaac67651bd2d64", "is_disabled": 0, "fusion_lon": 0.0, "rental_uris": {"android": "https://dc.lft.to/lastmile_qr_scan", "ios": "https://dc.lft.to/lastmile_qr_scan"}, "type": "electric_scooter", "fusion_lat": 0.0, "lat": 38.931159666666666, "lon": -77.02134333333333, "is_reserved": 0}, {"bike_id": "9cb77845777cc75650aab7497af29e7c", "name": "9cb77845777cc75650aab7497af29e7c", "is_disabled": 0, "fusion_lon": 0.0, "rental_uris": {"android": "https://dc.lft.to/lastmile_qr_scan", "ios": "https://dc.lft.to/lastmile_qr_scan"}, "type": "electric_scooter", "fusion_lat": 0.0, "lat": 38.893700833333334, "lon": -77.04672916666667, "is_reserved": 0}, {"bike_id": "561ada57701f9f489cf49b8b23a43c14", "name": "561ada57701f9f489cf49b8b23a43c14", "is_disabled": 0, "fusion_lon": 0.0, "rental_uris": {"android": "https://dc.lft.to/lastmile_qr_scan", "ios": "https://dc.lft.to/lastmile_qr_scan"}, "type": "electric_scooter", "fusion_lat": 0.0, "lat": 38.936760166666666, "lon": -77.03274133333333, "is_reserved": 0}, {"bike_id": "83bf9c1d689a7ef962e7d34584783174", "name": "83bf9c1d689a7ef962e7d34584783174", "is_disabled": 0, "fusion_lon": 0.0, "rental_uris": {"android": "https://dc.lft.to/lastmile_qr_scan", "ios": "https://dc.lft.to/lastmile_qr_scan"}, "type": "electric_scooter", "fusion_lat": 0.0, "lat": 38.89894966666667, "lon": -77.00972066666667, "is_reserved": 0}, {"bike_id": "00f7e7335b383d419a4cb2a7227081cb", "name": "00f7e7335b383d419a4cb2a7227081cb", "is_disabled": 0, "fusion_lon": 0.0, "rental_uris": {"android": "https://dc.lft.to/lastmile_qr_scan", "ios": "https://dc.lft.to/lastmile_qr_scan"}, "type": "electric_scooter", "fusion_lat": 0.0, "lat": 38.90028916666667, "lon": -76.98594516666667, "is_reserved": 0}, {"bike_id": "4cbb5150f4693e66a270dbf1fa9b9191", "name": "4cbb5150f4693e66a270dbf1fa9b9191", "is_disabled": 0, "fusion_lon": 0.0, "rental_uris": {"android": "https://dc.lft.to/lastmile_qr_scan", "ios": "https://dc.lft.to/lastmile_qr_scan"}, "type": "electric_scooter", "fusion_lat": 0.0, "lat": 38.892336666666665, "lon": -77.031859, "is_reserved": 0}, {"bike_id": "d641245b664efbcc4201983f32cb2a98", "name": "d641245b664efbcc4201983f32cb2a98", "is_disabled": 0, "fusion_lon": 0.0, "rental_uris": {"android": "https://dc.lft.to/lastmile_qr_scan", "ios": "https://dc.lft.to/lastmile_qr_scan"}, "type": "electric_scooter", "fusion_lat": 0.0, "lat": 38.891651, "lon": -76.99150516666667, "is_reserved": 0}, {"bike_id": "eb8c78565ee273ffa150c7378a44384c", "name": "eb8c78565ee273ffa150c7378a44384c", "is_disabled": 0, "fusion_lon": 0.0, "rental_uris": {"android": "https://dc.lft.to/lastmile_qr_scan", "ios": "https://dc.lft.to/lastmile_qr_scan"}, "type": "electric_scooter", "fusion_lat": 0.0, "lat": 38.90027283333333, "lon": -76.998577, "is_reserved": 0}, {"bike_id": "631d153902f6ddfc008cf55d6169d8cf", "name": "631d153902f6ddfc008cf55d6169d8cf", "is_disabled": 0, "fusion_lon": 0.0, "rental_uris": {"android": "https://dc.lft.to/lastmile_qr_scan", "ios": "https://dc.lft.to/lastmile_qr_scan"}, "type": "electric_scooter", "fusion_lat": 0.0, "lat": 38.8975315, "lon": -77.0419645, "is_reserved": 0}, {"bike_id": "fae45b2e83715bdbdd034e0b081540c3", "name": "fae45b2e83715bdbdd034e0b081540c3", "is_disabled": 0, "fusion_lon": 0.0, "rental_uris": {"android": "https://dc.lft.to/lastmile_qr_scan", "ios": "https://dc.lft.to/lastmile_qr_scan"}, "type": "electric_scooter", "fusion_lat": 0.0, "lat": 38.91706283333333, "lon": -77.092095, "is_reserved": 0}, {"bike_id": "17d0cab4e03101f865b04b55ac307041", "name": "17d0cab4e03101f865b04b55ac307041", "is_disabled": 0, "fusion_lon": 0.0, "rental_uris": {"android": "https://dc.lft.to/lastmile_qr_scan", "ios": "https://dc.lft.to/lastmile_qr_scan"}, "type": "electric_scooter", "fusion_lat": 0.0, "lat": 38.898497166666665, "lon": -77.0391905, "is_reserved": 0}, {"bike_id": "b4375b213eb62badc88eebe3970f632a", "name": "b4375b213eb62badc88eebe3970f632a", "is_disabled": 0, "fusion_lon": 0.0, "rental_uris": {"android": "https://dc.lft.to/lastmile_qr_scan", "ios": "https://dc.lft.to/lastmile_qr_scan"}, "type": "electric_bike", "fusion_lat": 0.0, "lat": 38.898428, "lon": -77.04326533333334, "is_reserved": 0}, {"bike_id": "80f5b11984ed6605a793a112d21c8b74", "name": "80f5b11984ed6605a793a112d21c8b74", "is_disabled": 0, "fusion_lon": 0.0, "rental_uris": {"android": "https://dc.lft.to/lastmile_qr_scan", "ios": "https://dc.lft.to/lastmile_qr_scan"}, "type": "electric_scooter", "fusion_lat": 0.0, "lat": 38.902464, "lon": -77.033334, "is_reserved": 0}, {"bike_id": "0d0b39f0c5c825a5556a128b97af90a3", "name": "0d0b39f0c5c825a5556a128b97af90a3", "is_disabled": 0, "fusion_lon": 0.0, "rental_uris": {"android": "https://dc.lft.to/lastmile_qr_scan", "ios": "https://dc.lft.to/lastmile_qr_scan"}, "type": "electric_bike", "fusion_lat": 0.0, "lat": 38.95356616666667, "lon": -76.9808535, "is_reserved": 0}, {"bike_id": "8d71e58b99c404a84bba0435358ce59c", "name": "8d71e58b99c404a84bba0435358ce59c", "is_disabled": 0, "fusion_lon": 0.0, "rental_uris": {"android": "https://dc.lft.to/lastmile_qr_scan", "ios": "https://dc.lft.to/lastmile_qr_scan"}, "type": "electric_scooter", "fusion_lat": 0.0, "lat": 38.9027415, "lon": -77.0469745, "is_reserved": 0}, {"bike_id": "c9fd0b810460fc46eb045667f8867c76", "name": "c9fd0b810460fc46eb045667f8867c76", "is_disabled": 0, "fusion_lon": 0.0, "rental_uris": {"android": "https://dc.lft.to/lastmile_qr_scan", "ios": "https://dc.lft.to/lastmile_qr_scan"}, "type": "electric_scooter", "fusion_lat": 0.0, "lat": 38.922459833333335, "lon": -77.008318, "is_reserved": 0}, {"bike_id": "4be2a0abedffd137643bd9489eaa8254", "name": "4be2a0abedffd137643bd9489eaa8254", "is_disabled": 0, "fusion_lon": 0.0, "rental_uris": {"android": "https://dc.lft.to/lastmile_qr_scan", "ios": "https://dc.lft.to/lastmile_qr_scan"}, "type": "electric_scooter", "fusion_lat": 0.0, "lat": 38.90864083333334, "lon": -77.01833383333333, "is_reserved": 0}, {"bike_id": "1e514f47b4701bd0e007533a0f82f074", "name": "1e514f47b4701bd0e007533a0f82f074", "is_disabled": 0, "fusion_lon": 0.0, "rental_uris": {"android": "https://dc.lft.to/lastmile_qr_scan", "ios": "https://dc.lft.to/lastmile_qr_scan"}, "type": "electric_bike", "fusion_lat": 0.0, "lat": 38.8867485, "lon": -77.00210516666667, "is_reserved": 0}, {"bike_id": "87fa64cb181e4df0b369f3138dac1de4", "name": "87fa64cb181e4df0b369f3138dac1de4", "is_disabled": 0, "fusion_lon": 0.0, "rental_uris": {"android": "https://dc.lft.to/lastmile_qr_scan", "ios": "https://dc.lft.to/lastmile_qr_scan"}, "type": "electric_scooter", "fusion_lat": 0.0, "lat": 38.91928883333333, "lon": -77.02510516666666, "is_reserved": 0}, {"bike_id": "686e0594edbd4db8d713645db01527cc", "name": "686e0594edbd4db8d713645db01527cc", "is_disabled": 0, "fusion_lon": 0.0, "rental_uris": {"android": "https://dc.lft.to/lastmile_qr_scan", "ios": "https://dc.lft.to/lastmile_qr_scan"}, "type": "electric_scooter", "fusion_lat": 0.0, "lat": 38.87386433333333, "lon": -77.00185666666667, "is_reserved": 0}, {"bike_id": "d6f2e9ed12944dfeda13d00f09483b27", "name": "d6f2e9ed12944dfeda13d00f09483b27", "is_disabled": 0, "fusion_lon": 0.0, "rental_uris": {"android": "https://dc.lft.to/lastmile_qr_scan", "ios": "https://dc.lft.to/lastmile_qr_scan"}, "type": "electric_scooter", "fusion_lat": 0.0, "lat": 38.92930633333334, "lon": -76.976283, "is_reserved": 0}, {"bike_id": "e6e2678df759cf732ed32a8ba403262e", "name": "e6e2678df759cf732ed32a8ba403262e", "is_disabled": 0, "fusion_lon": 0.0, "rental_uris": {"android": "https://dc.lft.to/lastmile_qr_scan", "ios": "https://dc.lft.to/lastmile_qr_scan"}, "type": "electric_scooter", "fusion_lat": 0.0, "lat": 38.92446016666667, "lon": -77.02152183333334, "is_reserved": 0}, {"bike_id": "462bad34e8c66f098bcfbd369b7f53ed", "name": "462bad34e8c66f098bcfbd369b7f53ed", "is_disabled": 0, "fusion_lon": 0.0, "rental_uris": {"android": "https://dc.lft.to/lastmile_qr_scan", "ios": "https://dc.lft.to/lastmile_qr_scan"}, "type": "electric_scooter", "fusion_lat": 0.0, "lat": 38.9160275, "lon": -77.04902333333334, "is_reserved": 0}, {"bike_id": "2b5c360320aa1aa90b064af3dcda5920", "name": "2b5c360320aa1aa90b064af3dcda5920", "is_disabled": 0, "fusion_lon": 0.0, "rental_uris": {"android": "https://dc.lft.to/lastmile_qr_scan", "ios": "https://dc.lft.to/lastmile_qr_scan"}, "type": "electric_scooter", "fusion_lat": 0.0, "lat": 38.896035166666664, "lon": -77.02557916666666, "is_reserved": 0}, {"bike_id": "e35015f65956ee74c45e245efd66a83c", "name": "e35015f65956ee74c45e245efd66a83c", "is_disabled": 0, "fusion_lon": 0.0, "rental_uris": {"android": "https://dc.lft.to/lastmile_qr_scan", "ios": "https://dc.lft.to/lastmile_qr_scan"}, "type": "electric_scooter", "fusion_lat": 0.0, "lat": 38.9271565, "lon": -77.03237866666667, "is_reserved": 0}, {"bike_id": "3c9d29398cb5dfb58dfef387e2195628", "name": "3c9d29398cb5dfb58dfef387e2195628", "is_disabled": 0, "fusion_lon": 0.0, "rental_uris": {"android": "https://dc.lft.to/lastmile_qr_scan", "ios": "https://dc.lft.to/lastmile_qr_scan"}, "type": "electric_scooter", "fusion_lat": 0.0, "lat": 38.93458283333333, "lon": -77.05314316666667, "is_reserved": 0}, {"bike_id": "75dd80d53975f82cce775031519a0205", "name": "75dd80d53975f82cce775031519a0205", "is_disabled": 0, "fusion_lon": 0.0, "rental_uris": {"android": "https://dc.lft.to/lastmile_qr_scan", "ios": "https://dc.lft.to/lastmile_qr_scan"}, "type": "electric_scooter", "fusion_lat": 0.0, "lat": 38.897956666666666, "lon": -77.01196333333333, "is_reserved": 0}, {"bike_id": "f03a836f9cadad898920f02db9883fbf", "name": "f03a836f9cadad898920f02db9883fbf", "is_disabled": 0, "fusion_lon": 0.0, "rental_uris": {"android": "https://dc.lft.to/lastmile_qr_scan", "ios": "https://dc.lft.to/lastmile_qr_scan"}, "type": "electric_scooter", "fusion_lat": 0.0, "lat": 38.88955416666667, "lon": -76.953591, "is_reserved": 0}, {"bike_id": "d2a72ca32677d263aed444f6de6e3c11", "name": "d2a72ca32677d263aed444f6de6e3c11", "is_disabled": 0, "fusion_lon": 0.0, "rental_uris": {"android": "https://dc.lft.to/lastmile_qr_scan", "ios": "https://dc.lft.to/lastmile_qr_scan"}, "type": "electric_scooter", "fusion_lat": 0.0, "lat": 38.9098935, "lon": -77.03393066666666, "is_reserved": 0}, {"bike_id": "d1c70f37d2f5908a9dfc7475e98632e2", "name": "d1c70f37d2f5908a9dfc7475e98632e2", "is_disabled": 0, "fusion_lon": 0.0, "rental_uris": {"android": "https://dc.lft.to/lastmile_qr_scan", "ios": "https://dc.lft.to/lastmile_qr_scan"}, "type": "electric_scooter", "fusion_lat": 0.0, "lat": 38.936023666666664, "lon": -77.03790566666666, "is_reserved": 0}, {"bike_id": "52e0b8c2c10f505ccf6b5f466d1336a0", "name": "52e0b8c2c10f505ccf6b5f466d1336a0", "is_disabled": 0, "fusion_lon": 0.0, "rental_uris": {"android": "https://dc.lft.to/lastmile_qr_scan", "ios": "https://dc.lft.to/lastmile_qr_scan"}, "type": "electric_scooter", "fusion_lat": 0.0, "lat": 38.88335266666667, "lon": -76.93135066666666, "is_reserved": 0}, {"bike_id": "8fc8e75be03495919ce7819e3b925fbc", "name": "8fc8e75be03495919ce7819e3b925fbc", "is_disabled": 0, "fusion_lon": 0.0, "rental_uris": {"android": "https://dc.lft.to/lastmile_qr_scan", "ios": "https://dc.lft.to/lastmile_qr_scan"}, "type": "electric_scooter", "fusion_lat": 0.0, "lat": 38.896236, "lon": -76.99847116666666, "is_reserved": 0}, {"bike_id": "3796b5090f6a01f492b46ad2f20ed53a", "name": "3796b5090f6a01f492b46ad2f20ed53a", "is_disabled": 0, "fusion_lon": 0.0, "rental_uris": {"android": "https://dc.lft.to/lastmile_qr_scan", "ios": "https://dc.lft.to/lastmile_qr_scan"}, "type": "electric_scooter", "fusion_lat": 0.0, "lat": 38.9039175, "lon": -77.03309266666666, "is_reserved": 0}, {"bike_id": "9180d511acf044578e1e1dd8452c2d31", "name": "9180d511acf044578e1e1dd8452c2d31", "is_disabled": 0, "fusion_lon": 0.0, "rental_uris": {"android": "https://dc.lft.to/lastmile_qr_scan", "ios": "https://dc.lft.to/lastmile_qr_scan"}, "type": "electric_scooter", "fusion_lat": 0.0, "lat": 38.89364416666667, "lon": -77.02055983333334, "is_reserved": 0}, {"bike_id": "52c641e180699cbd3608ac1a1138123f", "name": "52c641e180699cbd3608ac1a1138123f", "is_disabled": 0, "fusion_lon": 0.0, "rental_uris": {"android": "https://dc.lft.to/lastmile_qr_scan", "ios": "https://dc.lft.to/lastmile_qr_scan"}, "type": "electric_scooter", "fusion_lat": 0.0, "lat": 38.898512, "lon": -77.02870166666666, "is_reserved": 0}, {"bike_id": "35ec85b1cd6cd16870c23b309b37fa38", "name": "35ec85b1cd6cd16870c23b309b37fa38", "is_disabled": 0, "fusion_lon": 0.0, "rental_uris": {"android": "https://dc.lft.to/lastmile_qr_scan", "ios": "https://dc.lft.to/lastmile_qr_scan"}, "type": "electric_scooter", "fusion_lat": 0.0, "lat": 38.86522333333333, "lon": -76.990234, "is_reserved": 0}, {"bike_id": "d869dff95d368ded7ee9e33f2dc27eef", "name": "d869dff95d368ded7ee9e33f2dc27eef", "is_disabled": 0, "fusion_lon": 0.0, "rental_uris": {"android": "https://dc.lft.to/lastmile_qr_scan", "ios": "https://dc.lft.to/lastmile_qr_scan"}, "type": "electric_scooter", "fusion_lat": 0.0, "lat": 38.904620666666666, "lon": -77.0419605, "is_reserved": 0}, {"bike_id": "9622aa8c23a6afcae544bda573689cc2", "name": "9622aa8c23a6afcae544bda573689cc2", "is_disabled": 0, "fusion_lon": 0.0, "rental_uris": {"android": "https://dc.lft.to/lastmile_qr_scan", "ios": "https://dc.lft.to/lastmile_qr_scan"}, "type": "electric_scooter", "fusion_lat": 0.0, "lat": 38.90142766666666, "lon": -77.02987683333333, "is_reserved": 0}, {"bike_id": "54f86ab1cd08cfe7d66a8645cbf5c962", "name": "54f86ab1cd08cfe7d66a8645cbf5c962", "is_disabled": 0, "fusion_lon": 0.0, "rental_uris": {"android": "https://dc.lft.to/lastmile_qr_scan", "ios": "https://dc.lft.to/lastmile_qr_scan"}, "type": "electric_scooter", "fusion_lat": 0.0, "lat": 38.93587566666667, "lon": -77.074286, "is_reserved": 0}, {"bike_id": "0565b642186cc38a477c1cc467fcfe0b", "name": "0565b642186cc38a477c1cc467fcfe0b", "is_disabled": 0, "fusion_lon": 0.0, "rental_uris": {"android": "https://dc.lft.to/lastmile_qr_scan", "ios": "https://dc.lft.to/lastmile_qr_scan"}, "type": "electric_scooter", "fusion_lat": 0.0, "lat": 38.92749383333334, "lon": -77.03300683333333, "is_reserved": 0}, {"bike_id": "c019ff7fb912176a4b43d87dfc28f8d4", "name": "c019ff7fb912176a4b43d87dfc28f8d4", "is_disabled": 0, "fusion_lon": 0.0, "rental_uris": {"android": "https://dc.lft.to/lastmile_qr_scan", "ios": "https://dc.lft.to/lastmile_qr_scan"}, "type": "electric_scooter", "fusion_lat": 0.0, "lat": 38.898511666666664, "lon": -76.93207916666667, "is_reserved": 0}, {"bike_id": "238ba53c96c462ba6330a612de50459a", "name": "238ba53c96c462ba6330a612de50459a", "is_disabled": 0, "fusion_lon": 0.0, "rental_uris": {"android": "https://dc.lft.to/lastmile_qr_scan", "ios": "https://dc.lft.to/lastmile_qr_scan"}, "type": "electric_scooter", "fusion_lat": 0.0, "lat": 38.919653, "lon": -77.04508716666666, "is_reserved": 0}, {"bike_id": "0bee930b395573defc3087713caad6e4", "name": "0bee930b395573defc3087713caad6e4", "is_disabled": 0, "fusion_lon": 0.0, "rental_uris": {"android": "https://dc.lft.to/lastmile_qr_scan", "ios": "https://dc.lft.to/lastmile_qr_scan"}, "type": "electric_scooter", "fusion_lat": 0.0, "lat": 38.91641666666666, "lon": -77.02390833333334, "is_reserved": 0}, {"bike_id": "6f2c6b612f005d4411598b994a2bf3d4", "name": "6f2c6b612f005d4411598b994a2bf3d4", "is_disabled": 0, "fusion_lon": 0.0, "rental_uris": {"android": "https://dc.lft.to/lastmile_qr_scan", "ios": "https://dc.lft.to/lastmile_qr_scan"}, "type": "electric_scooter", "fusion_lat": 0.0, "lat": 38.91600666666667, "lon": -77.03182766666667, "is_reserved": 0}, {"bike_id": "244d3c224ef24e0a07610b2d02b03c8d", "name": "244d3c224ef24e0a07610b2d02b03c8d", "is_disabled": 0, "fusion_lon": 0.0, "rental_uris": {"android": "https://dc.lft.to/lastmile_qr_scan", "ios": "https://dc.lft.to/lastmile_qr_scan"}, "type": "electric_scooter", "fusion_lat": 0.0, "lat": 38.9581545, "lon": -77.01451083333333, "is_reserved": 0}, {"bike_id": "3f87b9f868874bbac541677f024eb722", "name": "3f87b9f868874bbac541677f024eb722", "is_disabled": 0, "fusion_lon": 0.0, "rental_uris": {"android": "https://dc.lft.to/lastmile_qr_scan", "ios": "https://dc.lft.to/lastmile_qr_scan"}, "type": "electric_scooter", "fusion_lat": 0.0, "lat": 38.892289, "lon": -77.03165766666666, "is_reserved": 0}, {"bike_id": "5ff911a58dbec0b9b709f05b06d07830", "name": "5ff911a58dbec0b9b709f05b06d07830", "is_disabled": 0, "fusion_lon": 0.0, "rental_uris": {"android": "https://dc.lft.to/lastmile_qr_scan", "ios": "https://dc.lft.to/lastmile_qr_scan"}, "type": "electric_scooter", "fusion_lat": 0.0, "lat": 38.928949833333334, "lon": -77.02289166666667, "is_reserved": 0}, {"bike_id": "f95e8fa136fb8b6517093853b36b540d", "name": "f95e8fa136fb8b6517093853b36b540d", "is_disabled": 0, "fusion_lon": 0.0, "rental_uris": {"android": "https://dc.lft.to/lastmile_qr_scan", "ios": "https://dc.lft.to/lastmile_qr_scan"}, "type": "electric_scooter", "fusion_lat": 0.0, "lat": 38.923505666666664, "lon": -77.04396033333333, "is_reserved": 0},