{"data": {"bikes": [{"lon": -77.0321255, "is_disabled": 0, "lat": 38.892445333333335, "fusion_lat": 0.0, "is_reserved": 0, "rental_uris": {"ios": "https://dc.lft.to/lastmile_qr_scan", "android": "https://dc.lft.to/lastmile_qr_scan"}, "fusion_lon": 0.0, "type": "electric_scooter", "bike_id": "df2b7d805a508d140efaead6b353683b", "name": "df2b7d805a508d140efaead6b353683b"}, {"lon": -77.03216016666667, "is_disabled": 0, "lat": 38.892396833333336, "fusion_lat": 0.0, "is_reserved": 0, "rental_uris": {"ios": "https://dc.lft.to/lastmile_qr_scan", "android": "https://dc.lft.to/lastmile_qr_scan"}, "fusion_lon": 0.0, "type": "electric_scooter", "bike_id": "f5a240a6136ba93c402bf6af12ccb3c2", "name": "f5a240a6136ba93c402bf6af12ccb3c2"}, {"lon": -77.0487635, "is_disabled": 0, "lat": 38.909804, "fusion_lat": 0.0, "is_reserved": 0, "rental_uris": {"ios": "https://dc.lft.to/lastmile_qr_scan", "android": "https://dc.lft.to/lastmile_qr_scan"}, "fusion_lon": 0.0, "type": "electric_scooter", "bike_id": "ca9c9ce9627c9f0138e7b06cf65c136a", "name": "ca9c9ce9627c9f0138e7b06cf65c136a"}, {"lon": -77.04006066666666, "is_disabled": 0, "lat": 38.9342995, "fusion_lat": 0.0, "is_reserved": 0, "rental_uris": {"ios": "https://dc.lft.to/lastmile_qr_scan", "android": "https://dc.lft.to/lastmile_qr_scan"}, "fusion_lon": 0.0, "type": "electric_scooter", "bike_id": "a2f37bee6bdcc1da264f14e97d5b9ae6", "name": "a2f37bee6bdcc1da264f14e97d5b9ae6"}, {"lon": -76.991367, "is_disabled": 0, "lat": 38.908576833333335, "fusion_lat": 0.0, "is_reserved": 0, "rental_uris": {"ios": "https://dc.lft.to/lastmile_qr_scan", "android": "https://dc.lft.to/lastmile_qr_scan"}, "fusion_lon": 0.0, "type": "electric_bike", "bike_id": "8163f109d3061c740c3114aca0f57de2", "name": "8163f109d3061c740c3114aca0f57de2"}, {"lon": -77.05265333333334, "is_disabled": 0, "lat": 38.92784066666667, "fusion_lat": 0.0, "is_reserved": 0, "rental_uris": {"ios": "https://dc.lft.to/lastmile_qr_scan", "android": "https://dc.lft.to/lastmile_qr_scan"}, "fusion_lon": 0.0, "type": "electric_scooter", "bike_id": "9bffee1797a2272906cd0d83ba5d19aa", "name": "9bffee1797a2272906cd0d83ba5d19aa"}, {"lon": -76.994835, "is_disabled": 0, "lat": 38.8917935, "fusion_lat": 0.0, "is_reserved": 0, "rental_uris": {"ios": "https://dc.lft.to/lastmile_qr_scan", "android": "https://dc.lft.to/lastmile_qr_scan"}, "fusion_lon": 0.0, "type": "electric_scooter", "bike_id": "cf00759cf09bbc4ed6c14146be49dcce", "name": "cf00759cf09bbc4ed6c14146be49dcce"}, {"lon": -77.0141435, "is_disabled": 0, "lat": 38.92812, "fusion_lat": 0.0, "is_reserved": 0, "rental_uris": {"ios": "https://dc.lft.to/lastmile_qr_scan", "android": "https://dc.lft.to/lastmile_qr_scan"}, "fusion_lon": 0.0, "type": "electric_scooter", "bike_id": "904b913bd1b92f9e7a753d458437c2f7", "name": "904b913bd1b92f9e7a753d458437c2f7"}, {"lon": -77.034486, "is_disabled": 0, "lat": 38.908225333333334, "fusion_lat": 0.0, "is_reserved": 0, "rental_uris": {"ios": "https://dc.lft.to/lastmile_qr_scan", "android": "https://dc.lft.to/lastmile_qr_scan"}, "fusion_lon": 0.0, "type": "electric_scooter", "bike_id": "516b87a1d1f3039340a31614e834bf16", "name": "516b87a1d1f3039340a31614e834bf16"}, {"lon": -76.94892633333333, "is_disabled": 0, "lat": 38.895377833333335, "fusion_lat": 0.0, "is_reserved": 0, "rental_uris": {"ios": "https://dc.lft.to/lastmile_qr_scan", "android": "https://dc.lft.to/lastmile_qr_scan"}, "fusion_lon": 0.0, "type": "electric_scooter", "bike_id": "e3a8f8d291a57aaf51f40b8ec01e3422", "name": "e3a8f8d291a57aaf51f40b8ec01e3422"}, {"lon": -77.03442916666667, "is_disabled": 0, "lat": 38.90628516666666, "fusion_lat": 0.0, "is_reserved": 0, "rental_uris": {"ios": "https://dc.lft.to/lastmile_qr_scan", "android": "https://dc.lft.to/lastmile_qr_scan"}, "fusion_lon": 0.0, "type": "electric_scooter", "bike_id": "bbd91cc000d5c15e951a2bf92ad9747a", "name": "bbd91cc000d5c15e951a2bf92ad9747a"}, {"lon": -77.0327365, "is_disabled": 0, "lat": 38.9286375, "fusion_lat": 0.0, "is_reserved": 0, "rental_uris": {"ios": "https://dc.lft.to/lastmile_qr_scan", "android": "https://dc.lft.to/lastmile_qr_scan"}, "fusion_lon": 0.0, "type": "electric_scooter", "bike_id": "267dbcd72f830159c7774ddb8c293fa4", "name": "267dbcd72f830159c7774ddb8c293fa4"}, {"lon": -77.046648, "is_disabled": 0, "lat": 38.905777, "fusion_lat": 0.0, "is_reserved": 0, "rental_uris": {"ios": "https://dc.lft.to/lastmile_qr_scan", "android": "https://dc.lft.to/lastmile_qr_scan"}, "fusion_lon": 0.0, "type": "electric_scooter", "bike_id": "03478f7ecc4cbc2a77e2066e78317c4c", "name": "03478f7ecc4cbc2a77e2066e78317c4c"}, {"lon": -77.02391916666667, "is_disabled": 0, "lat": 38.8812615, "fusion_lat": 0.0, "is_reserved": 0, "rental_uris": {"ios": "https://dc.lft.to/lastmile_qr_scan", "android": "https://dc.lft.to/lastmile_qr_scan"}, "fusion_lon": 0.0, "type": "electric_scooter", "bike_id": "19c5fadff794a9caf0f910762e723fe8", "name": "19c5fadff794a9caf0f910762e723fe8"}, {"lon": -76.907351, "is_disabled": 0, "lat": 38.8960965, "fusion_lat": 0.0, "is_reserved": 0, "rental_uris": {"ios": "https://dc.lft.to/lastmile_qr_scan", "android": "https://dc.lft.to/lastmile_qr_scan"}, "fusion_lon": 0.0, "type": "electric_bike", "bike_id": "47258fa3ed4c57e0751c37fa790ad2b6", "name": "47258fa3ed4c57e0751c37fa790ad2b6"}, {"lon": -77.0336095, "is_disabled": 0, "lat": 38.92869316666667, "fusion_lat": 0.0, "is_reserved": 0, "rental_uris": {"ios": "https://dc.lft.to/lastmile_qr_scan", "android": "https://dc.lft.to/lastmile_qr_scan"}, "fusion_lon": 0.0, "type": "electric_scooter", "bike_id": "c6c95e3717db376e1f9e195fd0b63145", "name": "c6c95e3717db376e1f9e195fd0b63145"}, {"lon": -77.02588183333333, "is_disabled": 0, "lat": 38.9141755, "fusion_lat": 0.0, "is_reserved": 0, "rental_uris": {"ios": "https://dc.lft.to/lastmile_qr_scan", "android": "https://dc.lft.to/lastmile_qr_scan"}, "fusion_lon": 0.0, "type": "electric_scooter", "bike_id": "51a86b62109eeb382cc8690d44e768f4", "name": "51a86b62109eeb382cc8690d44e768f4"}, {"lon": -77.04237333333333, "is_disabled": 0, "lat": 38.913464833333336, "fusion_lat": 0.0, "is_reserved": 0, "rental_uris": {"ios": "https://dc.lft.to/lastmile_qr_scan", "android": "https://dc.lft.to/lastmile_qr_scan"}, "fusion_lon": 0.0, "type": "electric_scooter", "bike_id": "33b4962f454a961627a4667568dcd50e", "name": "33b4962f454a961627a4667568dcd50e"}, {"lon": -77.04653083333334, "is_disabled": 0, "lat": 38.89224516666667, "fusion_lat": 0.0, "is_reserved": 0, "rental_uris": {"ios": "https://dc.lft.to/lastmile_qr_scan", "android": "https://dc.lft.to/lastmile_qr_scan"}, "fusion_lon": 0.0, "type": "electric_scooter", "bike_id": "2ad46a495a2fd9a98760f29c71b2266c", "name": "2ad46a495a2fd9a98760f29c71b2266c"}, {"lon": -77.03954033333333, "is_disabled": 0, "lat": 38.89591766666667, "fusion_lat": 0.0, "is_reserved": 0, "rental_uris": {"ios": "https://dc.lft.to/lastmile_qr_scan", "android": "https://dc.lft.to/lastmile_qr_scan"}, "fusion_lon": 0.0, "type": "electric_scooter", "bike_id": "a1e3735b455d77675d2ca7bf1ef79ca4", "name": "a1e3735b455d77675d2ca7bf1ef79ca4"}, {"lon": -77.02728716666667, "is_disabled": 0, "lat": 38.90108633333333, "fusion_lat": 0.0, "is_reserved": 0, "rental_uris": {"ios": "https://dc.lft.to/lastmile_qr_scan", "android": "https://dc.lft.to/lastmile_qr_scan"}, "fusion_lon": 0.0, "type": "electric_scooter", "bike_id": "a41768e57334a2985f688aaa479958e1", "name": "a41768e57334a2985f688aaa479958e1"}, {"lon": -77.02183583333333, "is_disabled": 0, "lat": 38.914838833333334, "fusion_lat": 0.0, "is_reserved": 0, "rental_uris": {"ios": "https://dc.lft.to/lastmile_qr_scan", "android": "https://dc.lft.to/lastmile_qr_scan"}, "fusion_lon": 0.0, "type": "electric_scooter", "bike_id": "7649c13c7176ea85c9fbf4f7bd03375f", "name": "7649c13c7176ea85c9fbf4f7bd03375f"}, {"lon": -77.01607816666667, "is_disabled": 0, "lat": 38.89925816666667, "fusion_lat": 0.0, "is_reserved": 0, "rental_uris": {"ios": "https://dc.lft.to/lastmile_qr_scan", "android": "https://dc.lft.to/lastmile_qr_scan"}, "fusion_lon": 0.0, "type": "electric_scooter", "bike_id": "3662bb2664d9b12e36e3741f5cded77d", "name": "3662bb2664d9b12e36e3741f5cded77d"}, {"lon": -77.03084083333333, "is_disabled": 0, "lat": 38.93310233333333, "fusion_lat": 0.0, "is_reserved": 0, "rental_uris": {"ios": "https://dc.lft.to/lastmile_qr_scan", "android": "https://dc.lft.to/lastmile_qr_scan"}, "fusion_lon": 0.0, "type": "electric_scooter", "bike_id": "c36c12999848501075e9b2be6bc55b7b", "name": "c36c12999848501075e9b2be6bc55b7b"}, {"lon": -77.043652, "is_disabled": 0, "lat": 38.9015055, "fusion_lat": 0.0, "is_reserved": 0, "rental_uris": {"ios": "https://dc.lft.to/lastmile_qr_scan", "android": "https://dc.lft.to/lastmile_qr_scan"}, "fusion_lon": 0.0, "type": "electric_scooter", "bike_id": "8e75b952532c0130d6e61625e59f9d23", "name": "8e75b952532c0130d6e61625e59f9d23"}, {"lon": -76.98555083333333, "is_disabled": 0, "lat": 38.9103615, "fusion_lat": 0.0, "is_reserved": 0, "rental_uris": {"ios": "https://dc.lft.to/lastmile_qr_scan", "android": "https://dc.lft.to/lastmile_qr_scan"}, "fusion_lon": 0.0, "type": "electric_scooter", "bike_id": "b2a95e79a504dcd868b2b4760a39b9b6", "name": "b2a95e79a504dcd868b2b4760a39b9b6"}, {"lon": -77.047593, "is_disabled": 0, "lat": 38.90088683333333, "fusion_lat": 0.0, "is_reserved": 0, "rental_uris": {"ios": "https://dc.lft.to/lastmile_qr_scan", "android": "https://dc.lft.to/lastmile_qr_scan"}, "fusion_lon": 0.0, "type": "electric_scooter", "bike_id": "bc2a5990b5dfa53f483d8dc780102a10", "name": "bc2a5990b5dfa53f483d8dc780102a10"}, {"lon": -77.032806, "is_disabled": 0, "lat": 38.8988775, "fusion_lat": 0.0, "is_reserved": 0, "rental_uris": {"ios": "https://dc.lft.to/lastmile_qr_scan", "android": "https://dc.lft.to/lastmile_qr_scan"}, "fusion_lon": 0.0, "type": "electric_scooter", "bike_id": "a72adea87faa3385109800e628f42b60", "name": "a72adea87faa3385109800e628f42b60"}, {"lon": -77.053898, "is_disabled": 0, "lat": 38.804543, "fusion_lat": 0.0, "is_reserved": 0, "rental_uris": {"ios": "https://dc.lft.to/lastmile_qr_scan", "android": "https://dc.lft.to/lastmile_qr_scan"}, "fusion_lon": 0.0, "type": "electric_bike", "bike_id": "116f476d8e7fb0db5682e292ee307752", "name": "116f476d8e7fb0db5682e292ee307752"}, {"lon": -77.02378316666666, "is_disabled": 0, "lat": 38.916613, "fusion_lat": 0.0, "is_reserved": 0, "rental_uris": {"ios": "https://dc.lft.to/lastmile_qr_scan", "android": "https://dc.lft.to/lastmile_qr_scan"}, "fusion_lon": 0.0, "type": "electric_scooter", "bike_id": "eaa111a7c07bee0c207432031ab44989", "name": "eaa111a7c07bee0c207432031ab44989"}, {"lon": -77.03751916666667, "is_disabled": 0, "lat": 38.90662433333333, "fusion_lat": 0.0, "is_reserved": 0, "rental_uris": {"ios": "https://dc.lft.to/lastmile_qr_scan", "android": "https://dc.lft.to/lastmile_qr_scan"}, "fusion_lon": 0.0, "type": "electric_scooter", "bike_id": "c2b1d7d4b142af7c6f9fa5c922728f08", "name": "c2b1d7d4b142af7c6f9fa5c922728f08"}, {"lon": -77.02450866666666, "is_disabled": 0, "lat": 38.93588583333333, "fusion_lat": 0.0, "is_reserved": 0, "rental_uris": {"ios": "https://dc.lft.to/lastmile_qr_scan", "android": "https://dc.lft.to/lastmile_qr_scan"}, "fusion_lon": 0.0, "type": "electric_scooter", "bike_id": "c62486dc655566db771035afeb1bac67", "name": "c62486dc655566db771035afeb1bac67"}, {"lon": -77.04676433333333, "is_disabled": 0, "lat": 38.904294666666665, "fusion_lat": 0.0, "is_reserved": 0, "rental_uris": {"ios": "https://dc.lft.to/lastmile_qr_scan", "android": "https://dc.lft.to/lastmile_qr_scan"}, "fusion_lon": 0.0, "type": "electric_scooter", "bike_id": "29dcf866b9aecaf0eff56b0401e4ec9c", "name": "29dcf866b9aecaf0eff56b0401e4ec9c"}, {"lon": -77.0449215, "is_disabled": 0, "lat": 38.91419583333333, "fusion_lat": 0.0, "is_reserved": 0, "rental_uris": {"ios": "https://dc.lft.to/lastmile_qr_scan", "android": "https://dc.lft.to/lastmile_qr_scan"}, "fusion_lon": 0.0, "type": "electric_scooter", "bike_id": "11e73f7d27316ca4b799b0e9e3176a86", "name": "11e73f7d27316ca4b799b0e9e3176a86"}, {"lon": -76.97522283333333, "is_disabled": 0, "lat": 38.8987245, "fusion_lat": 0.0, "is_reserved": 0, "rental_uris": {"ios": "https://dc.lft.to/lastmile_qr_scan", "android": "https://dc.lft.to/lastmile_qr_scan"}, "fusion_lon": 0.0, "type": "electric_scooter", "bike_id": "68ff20d9419ac6211183eee04e6e158c", "name": "68ff20d9419ac6211183eee04e6e158c"}, {"lon": -77.0433375, "is_disabled": 0, "lat": 38.89814883333333, "fusion_lat": 0.0, "is_reserved": 0, "rental_uris": {"ios": "https://dc.lft.to/lastmile_qr_scan", "android": "https://dc.lft.to/lastmile_qr_scan"}, "fusion_lon": 0.0, "type": "electric_scooter", "bike_id": "f1281d66b330252ca4aa344a247fa8f9", "name": "f1281d66b330252ca4aa344a247fa8f9"}, {"lon": -76.995844, "is_disabled": 0, "lat": 38.94740433333333, "fusion_lat": 0.0, "is_reserved": 0, "rental_uris": {"ios": "https://dc.lft.to/lastmile_qr_scan", "android": "https://dc.lft.to/lastmile_qr_scan"}, "fusion_lon": 0.0, "type": "electric_bike", "bike_id": "b366fe2645317139b1ecb91217c1f1cf", "name": "b366fe2645317139b1ecb91217c1f1cf"}, {"lon": -77.02413483333333, "is_disabled": 0, "lat": 38.914262666666666, "fusion_lat": 0.0, "is_reserved": 0, "rental_uris": {"ios": "https://dc.lft.to/lastmile_qr_scan", "android": "https://dc.lft.to/lastmile_qr_scan"}, "fusion_lon": 0.0, "type": "electric_scooter", "bike_id": "3c023b41af7e01eb20cff7f91dbb80b7", "name": "3c023b41af7e01eb20cff7f91dbb80b7"}, {"lon": -77.058881, "is_disabled": 0, "lat": 38.93638266666667, "fusion_lat": 0.0, "is_reserved": 0, "rental_uris": {"ios": "https://dc.lft.to/lastmile_qr_scan", "android": "https://dc.lft.to/lastmile_qr_scan"}, "fusion_lon": 0.0, "type": "electric_scooter", "bike_id": "0117f601cf2a864b7525189956577b35", "name": "0117f601cf2a864b7525189956577b35"}, {"lon": -77.001306, "is_disabled": 0, "lat": 38.83578983333334, "fusion_lat": 0.0, "is_reserved": 0, "rental_uris": {"ios": "https://dc.lft.to/lastmile_qr_scan", "android": "https://dc.lft.to/lastmile_qr_scan"}, "fusion_lon": 0.0, "type": "electric_scooter", "bike_id": "1dc3bc7da5b509d4eacb158413e7a0b6", "name": "1dc3bc7da5b509d4eacb158413e7a0b6"}, {"lon": -76.9980095, "is_disabled": 0, "lat": 38.9087315, "fusion_lat": 0.0, "is_reserved": 0, "rental_uris": {"ios": "https://dc.lft.to/lastmile_qr_scan", "android": "https://dc.lft.to/lastmile_qr_scan"}, "fusion_lon": 0.0, "type": "electric_scooter", "bike_id": "ac45ffc29e9170134d659c13cda6c874", "name": "ac45ffc29e9170134d659c13cda6c874"}, {"lon": -77.03184183333333, "is_disabled": 0, "lat": 38.8847285, "fusion_lat": 0.0, "is_reserved": 0, "rental_uris": {"ios": "https://dc.lft.to/lastmile_qr_scan", "android": "https://dc.lft.to/lastmile_qr_scan"}, "fusion_lon": 0.0, "type": "electric_scooter", "bike_id": "94fdf5403767dd7beac506221d4831c6", "name": "94fdf5403767dd7beac506221d4831c6"}, {"lon": -77.038561, "is_disabled": 0, "lat": 38.903688333333335, "fusion_lat": 0.0, "is_reserved": 0, "rental_uris": {"ios": "https://dc.lft.to/lastmile_qr_scan", "android": "https://dc.lft.to/lastmile_qr_scan"}, "fusion_lon": 0.0, "type": "electric_scooter", "bike_id": "2b1443a5e5da286ea9582c5c57e50ace", "name": "2b1443a5e5da286ea9582c5c57e50ace"}, {"lon": -77.0414005, "is_disabled": 0, "lat": 38.900275, "fusion_lat": 0.0, "is_reserved": 0, "rental_uris": {"ios": "https://dc.lft.to/lastmile_qr_scan", "android": "https://dc.lft.to/lastmile_qr_scan"}, "fusion_lon": 0.0, "type": "electric_scooter", "bike_id": "96a516ff6a62d8c81f8a8dc80338a188", "name": "96a516ff6a62d8c81f8a8dc80338a188"}, {"lon": -77.043743, "is_disabled": 0, "lat": 38.91124383333333, "fusion_lat": 0.0, "is_reserved": 0, "rental_uris": {"ios": "https://dc.lft.to/lastmile_qr_scan", "android": "https://dc.lft.to/lastmile_qr_scan"}, "fusion_lon": 0.0, "type": "electric_scooter", "bike_id": "27d354d4f6ff2be05bebbfe65379e84a", "name": "27d354d4f6ff2be05bebbfe65379e84a"}, {"lon": -77.003529, "is_disabled": 0, "lat": 38.89469583333333, "fusion_lat": 0.0, "is_reserved": 0, "rental_uris": {"ios": "https://dc.lft.to/lastmile_qr_scan", "android": "https://dc.lft.to/lastmile_qr_scan"}, "fusion_lon": 0.0, "type": "electric_scooter", "bike_id": "6ea1d6ace1f15e34a76b869a8d3b2d9b", "name": "6ea1d6ace1f15e34a76b869a8d3b2d9b"}, {"lon": -77.02597583333333, "is_disabled": 0, "lat": 38.916991, "fusion_lat": 0.0, "is_reserved": 0, "rental_uris": {"ios": "https://dc.lft.to/lastmile_qr_scan", "android": "https://dc.lft.to/lastmile_qr_scan"}, "fusion_lon": 0.0, "type": "electric_scooter", "bike_id": "90c5cf8184da41df8abc24d84a0cee6d", "name": "90c5cf8184da41df8abc24d84a0cee6d"}, {"lon": -77.02696783333333, "is_disabled": 0, "lat": 38.897454333333336, "fusion_lat": 0.0, "is_reserved": 0, "rental_uris": {"ios": "https://dc.lft.to/lastmile_qr_scan", "android": "https://dc.lft.to/lastmile_qr_scan"}, "fusion_lon": 0.0, "type": "electric_scooter", "bike_id": "9425caeea689427019a352bf317324d5", "name": "9425caeea689427019a352bf317324d5"}, {"lon": -76.985157, "is_disabled": 0, "lat": 38.903466333333334, "fusion_lat": 0.0, "is_reserved": 0, "rental_uris": {"ios": "https://dc.lft.to/lastmile_qr_scan", "android": "https://dc.lft.to/lastmile_qr_scan"}, "fusion_lon": 0.0, "type": "electric_scooter", "bike_id": "3e579bee2ac31e27e9ab21621d642b78", "name": "3e579bee2ac31e27e9ab21621d642b78"}, {"lon": -77.02361133333333, "is_disabled": 0, "lat": 38.879169833333336, "fusion_lat": 0.0, "is_reserved": 0, "rental_uris": {"ios": "https://dc.lft.to/lastmile_qr_scan", "android": "https://dc.lft.to/lastmile_qr_scan"}, "fusion_lon": 0.0, "type": "electric_scooter", "bike_id": "3a116390e24f4591898508d661215cf8", "name": "3a116390e24f4591898508d661215cf8"}, {"lon": -77.0447625, "is_disabled": 0, "lat": 38.911052, "fusion_lat": 0.0, "is_reserved": 0, "rental_uris": {"ios": "https://dc.lft.to/lastmile_qr_scan", "android": "https://dc.lft.to/lastmile_qr_scan"}, "fusion_lon": 0.0, "type": "electric_scooter", "bike_id": "741cf5855a976c7cc32ec4859ebde4af", "name": "741cf5855a976c7cc32ec4859ebde4af"}, {"lon": -77.042376, "is_disabled": 0, "lat": 38.90976, "fusion_lat": 0.0, "is_reserved": 0, "rental_uris": {"ios": "https://dc.lft.to/lastmile_qr_scan", "android": "https://dc.lft.to/lastmile_qr_scan"}, "fusion_lon": 0.0, "type": "electric_scooter", "bike_id": "e11f17d64b8abccb85789bc17e084b99", "name": "e11f17d64b8abccb85789bc17e084b99"}, {"lon": -77.03318083333333, "is_disabled": 0, "lat": 38.92163216666667, "fusion_lat": 0.0, "is_reserved": 0, "rental_uris": {"ios": "https://dc.lft.to/lastmile_qr_scan", "android": "https://dc.lft.to/lastmile_qr_scan"}, "fusion_lon": 0.0, "type": "electric_scooter", "bike_id": "909bdddf276dc419d9eeb8f99f4d4dd7", "name": "909bdddf276dc419d9eeb8f99f4d4dd7"}, {"lon": -77.022792, "is_disabled": 0, "lat": 38.91415766666667, "fusion_lat": 0.0, "is_reserved": 0, "rental_uris": {"ios": "https://dc.lft.to/lastmile_qr_scan", "android": "https://dc.lft.to/lastmile_qr_scan"}, "fusion_lon": 0.0, "type": "electric_scooter", "bike_id": "4ebd544e8da2cb83585b83c62a6ea542", "name": "4ebd544e8da2cb83585b83c62a6ea542"}, {"lon": -77.01684316666666, "is_disabled": 0, "lat": 38.92047016666667, "fusion_lat": 0.0, "is_reserved": 0, "rental_uris": {"ios": "https://dc.lft.to/lastmile_qr_scan", "android": "https://dc.lft.to/lastmile_qr_scan"}, "fusion_lon": 0.0, "type": "electric_scooter", "bike_id": "39618b2c5cdc7f5e6779f87acdc7df0d", "name": "39618b2c5cdc7f5e6779f87acdc7df0d"}, {"lon": -77.04475566666666, "is_disabled": 0, "lat": 38.89613816666667, "fusion_lat": 0.0, "is_reserved": 0, "rental_uris": {"ios": "https://dc.lft.to/lastmile_qr_scan", "android": "https://dc.lft.to/lastmile_qr_scan"}, "fusion_lon": 0.0, "type": "electric_scooter", "bike_id": "f083f0fbde0ea3e261613e6e751fe4ea", "name": "f083f0fbde0ea3e261613e6e751fe4ea"}, {"lon": -77.03179166666666, "is_disabled": 0, "lat": 38.91423183333333, "fusion_lat": 0.0, "is_reserved": 0, "rental_uris": {"ios": "https://dc.lft.to/lastmile_qr_scan", "android": "https://dc.lft.to/lastmile_qr_scan"}, "fusion_lon": 0.0, "type": "electric_scooter", "bike_id": "7ac5871ae5829b1385d1b6fd81aaa1fe", "name": "7ac5871ae5829b1385d1b6fd81aaa1fe"}, {"lon": -77.028437, "is_disabled": 0, "lat": 38.94267216666667, "fusion_lat": 0.0, "is_reserved": 0, "rental_uris": {"ios": "https://dc.lft.to/lastmile_qr_scan", "android": "https://dc.lft.to/lastmile_qr_scan"}, "fusion_lon": 0.0, "type": "electric_scooter", "bike_id": "e1cd24fb1025a43668c04d6e7993b078", "name": "e1cd24fb1025a43668c04d6e7993b078"}, {"lon": -77.04158283333334, "is_disabled": 0, "lat": 38.907348, "fusion_lat": 0.0, "is_reserved": 0, "rental_uris": {"ios": "https://dc.lft.to/lastmile_qr_scan", "android": "https://dc.lft.to/lastmile_qr_scan"}, "fusion_lon": 0.0, "type": "electric_scooter", "bike_id": "6b387f5437e4a7bbf08ecf0eaf1ae981", "name": "6b387f5437e4a7bbf08ecf0eaf1ae981"}, {"lon": -76.99006566666667, "is_disabled": 0, "lat": 38.865135, "fusion_lat": 0.0, "is_reserved": 0, "rental_uris": {"ios": "https://dc.lft.to/lastmile_qr_scan", "android": "https://dc.lft.to/lastmile_qr_scan"}, "fusion_lon": 0.0, "type": "electric_scooter", "bike_id": "ea6f93ec749072b9ac419d52d70be811", "name": "ea6f93ec749072b9ac419d52d70be811"}, {"lon": -76.982122, "is_disabled": 0, "lat": 38.908932, "fusion_lat": 0.0, "is_reserved": 0, "rental_uris": {"ios": "https://dc.lft.to/lastmile_qr_scan", "android": "https://dc.lft.to/lastmile_qr_scan"}, "fusion_lon": 0.0, "type": "electric_scooter", "bike_id": "cc9970efcb5262e67e90502abe4bb026", "name": "cc9970efcb5262e67e90502abe4bb026"}, {"lon": -77.03992483333333, "is_disabled": 0, "lat": 38.9060465, "fusion_lat": 0.0, "is_reserved": 0, "rental_uris": {"ios": "https://dc.lft.to/lastmile_qr_scan", "android": "https://dc.lft.to/lastmile_qr_scan"}, "fusion_lon": 0.0, "type": "electric_scooter", "bike_id": "407d7555c403faef82a8dcd83973e127", "name": "407d7555c403faef82a8dcd83973e127"}, {"lon": -77.07536733333333, "is_disabled": 0, "lat": 38.908865, "fusion_lat": 0.0, "is_reserved": 0, "rental_uris": {"ios": "https://dc.lft.to/lastmile_qr_scan", "android": "https://dc.lft.to/lastmile_qr_scan"}, "fusion_lon": 0.0, "type": "electric_scooter", "bike_id": "b767a09e1d87ec06ee5fe9b43340169a", "name": "b767a09e1d87ec06ee5fe9b43340169a"}, {"lon": -77.027815, "is_disabled": 0, "lat": 38.927780166666665, "fusion_lat": 0.0, "is_reserved": 0, "rental_uris": {"ios": "https://dc.lft.to/lastmile_qr_scan", "android": "https://dc.lft.to/lastmile_qr_scan"}, "fusion_lon": 0.0, "type": "electric_scooter", "bike_id": "a408bb2732852777d75cef13ce9c4abb", "name": "a408bb2732852777d75cef13ce9c4abb"}, {"lon": -77.03222216666667, "is_disabled": 0, "lat": 38.892248333333335, "fusion_lat": 0.0, "is_reserved": 0, "rental_uris": {"ios": "https://dc.lft.to/lastmile_qr_scan", "android": "https://dc.lft.to/lastmile_qr_scan"}, "fusion_lon": 0.0, "type": "electric_scooter", "bike_id": "ea75cfa8ac1416355285400158b36c67", "name": "ea75cfa8ac1416355285400158b36c67"}, {"lon": -77.0176445, "is_disabled": 0, "lat": 38.88395716666667, "fusion_lat": 0.0, "is_reserved": 0, "rental_uris": {"ios": "https://dc.lft.to/lastmile_qr_scan", "android": "https://dc.lft.to/lastmile_qr_scan"}, "fusion_lon": 0.0, "type": "electric_scooter", "bike_id": "57df23041775b6a1aba392179f7fa96b", "name": "57df23041775b6a1aba392179f7fa96b"}, {"lon": -77.05036483333333, "is_disabled": 0, "lat": 38.923691833333336, "fusion_lat": 0.0, "is_reserved": 0, "rental_uris": {"ios": "https://dc.lft.to/lastmile_qr_scan", "android": "https://dc.lft.to/lastmile_qr_scan"}, "fusion_lon": 0.0, "type": "electric_scooter", "bike_id": "0fcdb827562610a1cb23edeac2e6ffd6", "name": "0fcdb827562610a1cb23edeac2e6ffd6"}, {"lon": -77.01216283333333, "is_disabled": 0, "lat": 38.897904833333335, "fusion_lat": 0.0, "is_reserved": 0, "rental_uris": {"ios": "https://dc.lft.to/lastmile_qr_scan", "android": "https://dc.lft.to/lastmile_qr_scan"}, "fusion_lon": 0.0, "type": "electric_scooter", "bike_id": "4c563b8d0b454a202fb629cc5cedd4a5", "name": "4c563b8d0b454a202fb629cc5cedd4a5"}, {"lon": -77.021835, "is_disabled": 0, "lat": 38.90197833333333, "fusion_lat": 0.0, "is_reserved": 0, "rental_uris": {"ios": "https://dc.lft.to/lastmile_qr_scan", "android": "https://dc.lft.to/lastmile_qr_scan"}, "fusion_lon": 0.0, "type": "electric_scooter", "bike_id": "31aea28571b9ca4c0c9c33891dd250a6", "name": "31aea28571b9ca4c0c9c33891dd250a6"}, {"lon": -77.024432, "is_disabled": 0, "lat": 38.92057033333333, "fusion_lat": 0.0, "is_reserved": 0, "rental_uris": {"ios": "https://dc.lft.to/lastmile_qr_scan", "android": "https://dc.lft.to/lastmile_qr_scan"}, "fusion_lon": 0.0, "type": "electric_scooter", "bike_id": "e75cbd61e049d57a20d4865714bc9bc5", "name": "e75cbd61e049d57a20d4865714bc9bc5"}, {"lon": -77.04207783333334, "is_disabled": 0, "lat": 38.92314616666667, "fusion_lat": 0.0, "is_reserved": 0, "rental_uris": {"ios": "https://dc.lft.to/lastmile_qr_scan", "android": "https://dc.lft.to/lastmile_qr_scan"}, "fusion_lon": 0.0, "type": "electric_scooter", "bike_id": "3e742b5affc44e64ed7afbea384f0e94", "name": "3e742b5affc44e64ed7afbea384f0e94"}, {"lon": -77.02717266666667, "is_disabled": 0, "lat": 38.927637833333335, "fusion_lat": 0.0, "is_reserved": 0, "rental_uris": {"ios": "https://dc.lft.to/lastmile_qr_scan", "android": "https://dc.lft.to/lastmile_qr_scan"}, "fusion_lon": 0.0, "type": "electric_scooter", "bike_id": "0f3997fce6de1a15747a745cb662bac0", "name": "0f3997fce6de1a15747a745cb662bac0"}, {"lon": -77.0317195, "is_disabled": 0, "lat": 38.89722616666667, "fusion_lat": 0.0, "is_reserved": 0, "rental_uris": {"ios": "https://dc.lft.to/lastmile_qr_scan", "android": "https://dc.lft.to/lastmile_qr_scan"}, "fusion_lon": 0.0, "type": "electric_scooter", "bike_id": "56e9865bab02ea00a7cf7e315af2f594", "name": "56e9865bab02ea00a7cf7e315af2f594"}, {"lon": -77.00582266666666, "is_disabled": 0, "lat": 38.905622666666666, "fusion_lat": 0.0, "is_reserved": 0, "rental_uris": {"ios": "https://dc.lft.to/lastmile_qr_scan", "android": "https://dc.lft.to/lastmile_qr_scan"}, "fusion_lon": 0.0, "type": "electric_scooter", "bike_id": "75da86c182403efd540c60ec83ad313b", "name": "75da86c182403efd540c60ec83ad313b"}, {"lon": -77.04884333333334, "is_disabled": 0, "lat": 38.900636, "fusion_lat": 0.0, "is_reserved": 0, "rental_uris": {"ios": "https://dc.lft.to/lastmile_qr_scan", "android": "https://dc.lft.to/lastmile_qr_scan"}, "fusion_lon": 0.0, "type": "electric_scooter", "bike_id": "bcbdb3746b1442daf702ff851179f2f4", "name": "bcbdb3746b1442daf702ff851179f2f4"}, {"lon": -77.04005016666666, "is_disabled": 0, "lat": 38.90334983333333, "fusion_lat": 0.0, "is_reserved": 0, "rental_uris": {"ios": "https://dc.lft.to/lastmile_qr_scan", "android": "https://dc.lft.to/lastmile_qr_scan"}, "fusion_lon": 0.0, "type": "electric_scooter", "bike_id": "2da6505b2019fbaec9428d56f01b5779", "name": "2da6505b2019fbaec9428d56f01b5779"}, {"lon": -76.98139166666667, "is_disabled": 0, "lat": 38.89746616666667, "fusion_lat": 0.0, "is_reserved": 0, "rental_uris": {"ios": "https://dc.lft.to/lastmile_qr_scan", "android": "https://dc.lft.to/lastmile_qr_scan"}, "fusion_lon": 0.0, "type": "electric_scooter", "bike_id": "ab74ba1c79360a0923d87e53fb62203a", "name": "ab74ba1c79360a0923d87e53fb62203a"}, {"lon": -77.08861483333334, "is_disabled": 0, "lat": 38.916433166666664, "fusion_lat": 0.0, "is_reserved": 0, "rental_uris": {"ios": "https://dc.lft.to/lastmile_qr_scan", "android": "https://dc.lft.to/lastmile_qr_scan"}, "fusion_lon": 0.0, "type": "electric_scooter", "bike_id": "2f4feabf4846c49ca7bdb495bdfd5936", "name": "2f4feabf4846c49ca7bdb495bdfd5936"}, {"lon": -77.022088, "is_disabled": 0, "lat": 38.89606716666667, "fusion_lat": 0.0, "is_reserved": 0, "rental_uris": {"ios": "https://dc.lft.to/lastmile_qr_scan", "android": "https://dc.lft.to/lastmile_qr_scan"}, "fusion_lon": 0.0, "type": "electric_scooter", "bike_id": "5a365386e89ae8d6fcb05573953c943f", "name": "5a365386e89ae8d6fcb05573953c943f"}, {"lon": -76.959509, "is_disabled": 0, "lat": 38.86195933333333, "fusion_lat": 0.0, "is_reserved": 0, "rental_uris": {"ios": "https://dc.lft.to/lastmile_qr_scan", "android": "https://dc.lft.to/lastmile_qr_scan"}, "fusion_lon": 0.0, "type": "electric_scooter", "bike_id": "89e993ad22da6e75c1ea140177fc310d", "name": "89e993ad22da6e75c1ea140177fc310d"}, {"lon": -77.0040255, "is_disabled": 0, "lat": 38.92137066666667, "fusion_lat": 0.0, "is_reserved": 0, "rental_uris": {"ios": "https://dc.lft.to/lastmile_qr_scan", "android": "https://dc.lft.to/lastmile_qr_scan"}, "fusion_lon": 0.0, "type": "electric_scooter", "bike_id": "325e38d5e2e70fb8ca6d0a17eca86f10", "name": "325e38d5e2e70fb8ca6d0a17eca86f10"}, {"lon": -77.007202, "is_disabled": 0, "lat": 38.925432, "fusion_lat": 0.0, "is_reserved": 0, "rental_uris": {"ios": "https://dc.lft.to/lastmile_qr_scan", "android": "https://dc.lft.to/lastmile_qr_scan"}, "fusion_lon": 0.0, "type": "electric_scooter", "bike_id": "60f85a3713ccd632100bd17af46a59af", "name": "60f85a3713ccd632100bd17af46a59af"}, {"lon": -77.02157733333334, "is_disabled": 0, "lat": 38.924670666666664, "fusion_lat": 0.0, "is_reserved": 0, "rental_uris": {"ios": "https://dc.lft.to/lastmile_qr_scan", "android": "https://dc.lft.to/lastmile_qr_scan"}, "fusion_lon": 0.0, "type": "electric_scooter", "bike_id": "b82e30ab399b425f4e2f4601aef1181b", "name": "b82e30ab399b425f4e2f4601aef1181b"}, {"lon": -77.01966216666666, "is_disabled": 0, "lat": 38.93577333333333, "fusion_lat": 0.0, "is_reserved": 0, "rental_uris": {"ios": "https://dc.lft.to/lastmile_qr_scan", "android": "https://dc.lft.to/lastmile_qr_scan"}, "fusion_lon": 0.0, "type": "electric_scooter", "bike_id": "1062a2c32aaa7ed7daa728bce75ba83e", "name": "1062a2c32aaa7ed7daa728bce75ba83e"}, {"lon": -77.024438, "is_disabled": 0, "lat": 38.89998283333333, "fusion_lat": 0.0, "is_reserved": 0, "rental_uris": {"ios": "https://dc.lft.to/lastmile_qr_scan", "android": "https://dc.lft.to/lastmile_qr_scan"}, "fusion_lon": 0.0, "type": "electric_scooter", "bike_id": "456dff82790130c3b285b03bcf9f268b", "name": "456dff82790130c3b285b03bcf9f268b"}, {"lon": -77.02289166666667, "is_disabled": 0, "lat": 38.9269795, "fusion_lat": 0.0, "is_reserved": 0, "rental_uris": {"ios": "https://dc.lft.to/lastmile_qr_scan", "android": "https://dc.lft.to/lastmile_qr_scan"}, "fusion_lon": 0.0, "type": "electric_scooter", "bike_id": "8e44924541674e95067145480789164e", "name": "8e44924541674e95067145480789164e"}, {"lon": -76.957586, "is_disabled": 0, "lat": 38.8843435, "fusion_lat": 0.0, "is_reserved": 0, "rental_uris": {"ios": "https://dc.lft.to/lastmile_qr_scan", "android": "https://dc.lft.to/lastmile_qr_scan"}, "fusion_lon": 0.0, "type": "electric_scooter", "bike_id": "1a9e8bb713e832c0791e3520df0b5c87", "name": "1a9e8bb713e832c0791e3520df0b5c87"}, {"lon": -77.0088545, "is_disabled": 0, "lat": 38.92514716666667, "fusion_lat": 0.0, "is_reserved": 0, "rental_uris": {"ios": "https://dc.lft.to/lastmile_qr_scan", "android": "https://dc.lft.to/lastmile_qr_scan"}, "fusion_lon": 0.0, "type": "electric_scooter", "bike_id": "3498ae6242a0823ff95b85a6830fc6bb", "name": "3498ae6242a0823ff95b85a6830fc6bb"}, {"lon": -77.0865845, "is_disabled": 0, "lat": 38.862506333333336, "fusion_lat": 0.0, "is_reserved": 0, "rental_uris": {"ios": "https://dc.lft.to/lastmile_qr_scan", "android": "https://dc.lft.to/lastmile_qr_scan"}, "fusion_lon": 0.0, "type": "electric_bike", "bike_id": "019a49c7f89822d1c9a7ad252b74c8c4", "name": "019a49c7f89822d1c9a7ad252b74c8c4"}, {"lon": -77.022388, "is_disabled": 0, "lat": 38.92245166666667, "fusion_lat": 0.0, "is_reserved": 0, "rental_uris": {"ios": "https://dc.lft.to/lastmile_qr_scan", "android": "https://dc.lft.to/lastmile_qr_scan"}, "fusion_lon": 0.0, "type": "electric_scooter", "bike_id": "0d0120d8bc8c236d4d6f6917e65f9e66", "name": "0d0120d8bc8c236d4d6f6917e65f9e66"}, {"lon": -77.051453, "is_disabled": 0, "lat": 38.89823033333333, "fusion_lat": 0.0, "is_reserved": 0, "rental_uris": {"ios": "https://dc.lft.to/lastmile_qr_scan", "android": "https://dc.lft.to/lastmile_qr_scan"}, "fusion_lon": 0.0, "type": "electric_scooter", "bike_id": "0b9dfd4465b593ab40922ee713b8d4ad", "name": "0b9dfd4465b593ab40922ee713b8d4ad"}, {"lon": -77.030573, "is_disabled": 0, "lat": 38.92374483333333, "fusion_lat": 0.0, "is_reserved": 0, "rental_uris": {"ios": "https://dc.lft.to/lastmile_qr_scan", "android": "https://dc.lft.to/lastmile_qr_scan"}, "fusion_lon": 0.0, "type": "electric_scooter", "bike_id": "66622a3ca35dda4c80cfb07987716be9", "name": "66622a3ca35dda4c80cfb07987716be9"}, {"lon": -77.043008, "is_disabled": 0, "lat": 38.927933333333335, "fusion_lat": 0.0, "is_reserved": 0, "rental_uris": {"ios": "https://dc.lft.to/lastmile_qr_scan", "android": "https://dc.lft.to/lastmile_qr_scan"}, "fusion_lon": 0.0, "type": "electric_scooter", "bike_id": "d3242b0544cbaf71dd9e2ebcbee94f44", "name": "d3242b0544cbaf71dd9e2ebcbee94f44"}, {"lon": -77.02638133333333, "is_disabled": 0, "lat": 38.936569666666664, "fusion_lat": 0.0, "is_reserved": 0, "rental_uris": {"ios": "https://dc.lft.to/lastmile_qr_scan", "android": "https://dc.lft.to/lastmile_qr_scan"}, "fusion_lon": 0.0, "type": "electric_scooter", "bike_id": "3acb3f0f939e14dcbd2bab9026eea988", "name": "3acb3f0f939e14dcbd2bab9026eea988"}, {"lon": -77.00341116666667, "is_disabled": 0, "lat": 38.895106, "fusion_lat": 0.0, "is_reserved": 0, "rental_uris": {"ios": "https://dc.lft.to/lastmile_qr_scan", "android": "https://dc.lft.to/lastmile_qr_scan"}, "fusion_lon": 0.0, "type": "electric_scooter", "bike_id": "dd5b104ad2474e8cb7f0c9ba8ae8d87c", "name": "dd5b104ad2474e8cb7f0c9ba8ae8d87c"}, {"lon": -76.99791583333334, "is_disabled": 0, "lat": 38.9509305, "fusion_lat": 0.0, "is_reserved": 0, "rental_uris": {"ios": "https://dc.lft.to/lastmile_qr_scan", "android": "https://dc.lft.to/lastmile_qr_scan"}, "fusion_lon": 0.0, "type": "electric_bike", "bike_id": "078a295f58a8ad6365aca81268ec6b51", "name": "078a295f58a8ad6365aca81268ec6b51"}, {"lon": -77.0490555, "is_disabled": 0, "lat": 38.905184, "fusion_lat": 0.0, "is_reserved": 0, "rental_uris": {"ios": "https://dc.lft.to/lastmile_qr_scan", "android": "https://dc.lft.to/lastmile_qr_scan"}, "fusion_lon": 0.0, "type": "electric_scooter", "bike_id": "601be35037f990f563cc28924e3d8076", "name": "601be35037f990f563cc28924e3d8076"}, {"lon": -77.0350235, "is_disabled": 0, "lat": 38.9028675, "fusion_lat": 0.0, "is_reserved": 0, "rental_uris": {"ios": "https://dc.lft.to/lastmile_qr_scan", "android": "https://dc.lft.to/lastmile_qr_scan"}, "fusion_lon": 0.0, "type": "electric_scooter", "bike_id": "6367accb7f29c7280c9b0b2688c53c0d", "name": "6367accb7f29c7280c9b0b2688c53c0d"}, {"lon": -77.007118, "is_disabled": 0, "lat": 38.884962, "fusion_lat": 0.0, "is_reserved": 0, "rental_uris": {"ios": "https://dc.lft.to/lastmile_qr_scan", "android": "https://dc.lft.to/lastmile_qr_scan"}, "fusion_lon": 0.0, "type": "electric_scooter", "bike_id": "9c83d38a826ed955716b5fda3000f95c", "name": "9c83d38a826ed955716b5fda3000f95c"}, {"lon": -77.02406233333333, "is_disabled": 0, "lat": 38.91405983333333, "fusion_lat": 0.0, "is_reserved": 0, "rental_uris": {"ios": "https://dc.lft.to/lastmile_qr_scan", "android": "https://dc.lft.to/lastmile_qr_scan"}, "fusion_lon": 0.0, "type": "electric_scooter", "bike_id": "c13e7b975dc58b4d41def4eb2c90fc09", "name": "c13e7b975dc58b4d41def4eb2c90fc09"}, {"lon": -77.03909933333334, "is_disabled": 0, "lat": 38.901834, "fusion_lat": 0.0, "is_reserved": 0, "rental_uris": {"ios": "https://dc.lft.to/lastmile_qr_scan", "android": "https://dc.lft.to/lastmile_qr_scan"}, "fusion_lon": 0.0, "type": "electric_bike", "bike_id": "c7dc9e8242cfb31b5478a2ef565b3283", "name": "c7dc9e8242cfb31b5478a2ef565b3283"}, {"lon": -77.00630533333333, "is_disabled": 0, "lat": 38.871793333333336, "fusion_lat": 0.0, "is_reserved": 0, "rental_uris": {"ios": "https://dc.lft.to/lastmile_qr_scan", "android": "https://dc.lft.to/lastmile_qr_scan"}, "fusion_lon": 0.0, "type": "electric_scooter", "bike_id": "ba23ba84d3f98c5611aac85456e448e6", "name": "ba23ba84d3f98c5611aac85456e448e6"}, {"lon": -77.05099066666666, "is_disabled": 0, "lat": 38.923468166666666, "fusion_lat": 0.0, "is_reserved": 0, "rental_uris": {"ios": "https://dc.lft.to/lastmile_qr_scan", "android": "https://dc.lft.to/lastmile_qr_scan"}, "fusion_lon": 0.0, "type": "electric_scooter", "bike_id": "66a40e7bf3642d8a51ebf55e23fc7955", "name": "66a40e7bf3642d8a51ebf55e23fc7955"}, {"lon": -77.031752, "is_disabled": 0, "lat": 38.91425366666667, "fusion_lat": 0.0, "is_reserved": 0, "rental_uris": {"ios": "https://dc.lft.to/lastmile_qr_scan", "android": "https://dc.lft.to/lastmile_qr_scan"}, "fusion_lon": 0.0, "type": "electric_scooter", "bike_id": "a056951632798747749c8ea375f1ff62", "name": "a056951632798747749c8ea375f1ff62"}, {"lon": -76.95193233333333, "is_disabled": 0, "lat": 38.891378333333336, "fusion_lat": 0.0, "is_reserved": 0, "rental_uris": {"ios": "https://dc.lft.to/lastmile_qr_scan", "android": "https://dc.lft.to/lastmile_qr_scan"}, "fusion_lon": 0.0, "type": "electric_scooter", "bike_id": "5afd9e8b8b3e6f52b832a5fe6bb2f57a", "name": "5afd9e8b8b3e6f52b832a5fe6bb2f57a"}, {"lon": -77.00915716666667, "is_disabled": 0, "lat": 38.89653783333333, "fusion_lat": 0.0, "is_reserved": 0, "rental_uris": {"ios": "https://dc.lft.to/lastmile_qr_scan", "android": "https://dc.lft.to/lastmile_qr_scan"}, "fusion_lon": 0.0, "type": "electric_scooter", "bike_id": "f2da2225e0bcf157a0f32a55eca203e7", "name": "f2da2225e0bcf157a0f32a55eca203e7"}, {"lon": -77.0296315, "is_disabled": 0, "lat": 38.922614833333334, "fusion_lat": 0.0, "is_reserved": 0, "rental_uris": {"ios": "https://dc.lft.to/lastmile_qr_scan", "android": "https://dc.lft.to/lastmile_qr_scan"}, "fusion_lon": 0.0, "type": "electric_scooter", "bike_id": "18aebefabd07336277c6ceb09211e1ac", "name": "18aebefabd07336277c6ceb09211e1ac"}, {"lon": -77.04297983333333, "is_disabled": 0, "lat": 38.90669166666667, "fusion_lat": 0.0, "is_reserved": 0, "rental_uris": {"ios": "https://dc.lft.to/lastmile_qr_scan", "android": "https://dc.lft.to/lastmile_qr_scan"}, "fusion_lon": 0.0, "type": "electric_scooter", "bike_id": "072a4051b29df4e2f7d8d74b1d9079ed", "name": "072a4051b29df4e2f7d8d74b1d9079ed"}, {"lon": -77.00061383333333, "is_disabled": 0, "lat": 38.876948666666664, "fusion_lat": 0.0, "is_reserved": 0, "rental_uris": {"ios": "https://dc.lft.to/lastmile_qr_scan", "android": "https://dc.lft.to/lastmile_qr_scan"}, "fusion_lon": 0.0, "type": "electric_scooter", "bike_id": "1ee65ce1b46ca6bc8d1cb8cfc4098322", "name": "1ee65ce1b46ca6bc8d1cb8cfc4098322"}, {"lon": -77.03380266666667, "is_disabled": 0, "lat": 38.9214785, "fusion_lat": 0.0, "is_reserved": 0, "rental_uris": {"ios": "https://dc.lft.to/lastmile_qr_scan", "android": "https://dc.lft.to/lastmile_qr_scan"}, "fusion_lon": 0.0, "type": "electric_scooter", "bike_id": "72b6722fd40b765af480d537c85dc699", "name": "72b6722fd40b765af480d537c85dc699"}, {"lon": -77.00056466666666, "is_disabled": 0, "lat": 38.916395333333334, "fusion_lat": 0.0, "is_reserved": 0, "rental_uris": {"ios": "https://dc.lft.to/lastmile_qr_scan", "android": "https://dc.lft.to/lastmile_qr_scan"}, "fusion_lon": 0.0, "type": "electric_scooter", "bike_id": "5d7f54b0fce650435aacf359059167d8", "name": "5d7f54b0fce650435aacf359059167d8"}, {"lon": -77.018912, "is_disabled": 0, "lat": 38.939912666666665, "fusion_lat": 0.0, "is_reserved": 0, "rental_uris": {"ios": "https://dc.lft.to/lastmile_qr_scan", "android": "https://dc.lft.to/lastmile_qr_scan"}, "fusion_lon": 0.0, "type": "electric_scooter", "bike_id": "fd4ddf5bfb46dad92e289b4d6ba09542", "name": "fd4ddf5bfb46dad92e289b4d6ba09542"}, {"lon": -77.04453783333334, "is_disabled": 0, "lat": 38.89732383333333, "fusion_lat": 0.0, "is_reserved": 0, "rental_uris": {"ios": "https://dc.lft.to/lastmile_qr_scan", "android": "https://dc.lft.to/lastmile_qr_scan"}, "fusion_lon": 0.0, "type": "electric_scooter", "bike_id": "f1ae55ae66b91d83754930216f869641", "name": "f1ae55ae66b91d83754930216f869641"}, {"lon": -77.04144266666667, "is_disabled": 0, "lat": 38.91690216666667, "fusion_lat": 0.0, "is_reserved": 0, "rental_uris": {"ios": "https://dc.lft.to/lastmile_qr_scan", "android": "https://dc.lft.to/lastmile_qr_scan"}, "fusion_lon": 0.0, "type": "electric_scooter", "bike_id": "2770b9e7d5c829310a4e019e2960a6c5", "name": "2770b9e7d5c829310a4e019e2960a6c5"}, {"lon": -77.03465666666666, "is_disabled": 0, "lat": 38.90430383333333, "fusion_lat": 0.0, "is_reserved": 0, "rental_uris": {"ios": "https://dc.lft.to/lastmile_qr_scan", "android": "https://dc.lft.to/lastmile_qr_scan"}, "fusion_lon": 0.0, "type": "electric_scooter", "bike_id": "20a56748b1248a900e2b3cfbba97d5a9", "name": "20a56748b1248a900e2b3cfbba97d5a9"}, {"lon": -77.02400783333333, "is_disabled": 0, "lat": 38.91152316666667, "fusion_lat": 0.0, "is_reserved": 0, "rental_uris": {"ios": "https://dc.lft.to/lastmile_qr_scan", "android": "https://dc.lft.to/lastmile_qr_scan"}, "fusion_lon": 0.0, "type": "electric_scooter", "bike_id": "2d2b991e3ed4155064507d4e080ec972", "name": "2d2b991e3ed4155064507d4e080ec972"}, {"lon": -77.00336966666667, "is_disabled": 0, "lat": 38.89364366666667, "fusion_lat": 0.0, "is_reserved": 0, "rental_uris": {"ios": "https://dc.lft.to/lastmile_qr_scan", "android": "https://dc.lft.to/lastmile_qr_scan"}, "fusion_lon": 0.0, "type": "electric_scooter", "bike_id": "9f0db80e6434c2498c918012a2a64219", "name": "9f0db80e6434c2498c918012a2a64219"}, {"lon": -77.02400933333334, "is_disabled": 0, "lat": 38.89871766666667, "fusion_lat": 0.0, "is_reserved": 0, "rental_uris": {"ios": "https://dc.lft.to/lastmile_qr_scan", "android": "https://dc.lft.to/lastmile_qr_scan"}, "fusion_lon": 0.0, "type": "electric_scooter", "bike_id": "35cf58fa2edb2f870dce6617789daa1a", "name": "35cf58fa2edb2f870dce6617789daa1a"}, {"lon": -77.072736, "is_disabled": 0, "lat": 38.934859333333335, "fusion_lat": 0.0, "is_reserved": 0, "rental_uris": {"ios": "https://dc.lft.to/lastmile_qr_scan", "android": "https://dc.lft.to/lastmile_qr_scan"}, "fusion_lon": 0.0, "type": "electric_scooter", "bike_id": "357de589abfa009bfed9864067d832a7", "name": "357de589abfa009bfed9864067d832a7"}, {"lon": -76.9823995, "is_disabled": 0, "lat": 38.9089535, "fusion_lat": 0.0, "is_reserved": 0, "rental_uris": {"ios": "https://dc.lft.to/lastmile_qr_scan", "android": "https://dc.lft.to/lastmile_qr_scan"}, "fusion_lon": 0.0, "type": "electric_scooter", "bike_id": "86b5995fadb07bd8813a07632f937585", "name": "86b5995fadb07bd8813a07632f937585"}, {"lon": -77.03838333333333, "is_disabled": 0, "lat": 38.91120566666667, "fusion_lat": 0.0, "is_reserved": 0, "rental_uris": {"ios": "https://dc.lft.to/lastmile_qr_scan", "android": "https://dc.lft.to/lastmile_qr_scan"}, "fusion_lon": 0.0, "type": "electric_scooter", "bike_id": "6c722c833a0c03596f512ff1d59a2609", "name": "6c722c833a0c03596f512ff1d59a2609"}, {"lon": -77.02758833333333, "is_disabled": 0, "lat": 38.91704583333333, "fusion_lat": 0.0, "is_reserved": 0, "rental_uris": {"ios": "https://dc.lft.to/lastmile_qr_scan", "android": "https://dc.lft.to/lastmile_qr_scan"}, "fusion_lon": 0.0, "type": "electric_scooter", "bike_id": "f593623487f2f7f9660ab30bbfb60589", "name": "f593623487f2f7f9660ab30bbfb60589"}, {"lon": -77.0237385, "is_disabled": 0, "lat": 38.916713, "fusion_lat": 0.0, "is_reserved": 0, "rental_uris": {"ios": "https://dc.lft.to/lastmile_qr_scan", "android": "https://dc.lft.to/lastmile_qr_scan"}, "fusion_lon": 0.0, "type": "electric_scooter", "bike_id": "58ae0f683b91917e9bce759368e97415", "name": "58ae0f683b91917e9bce759368e97415"}, {"lon": -77.026293, "is_disabled": 0, "lat": 38.929909, "fusion_lat": 0.0, "is_reserved": 0, "rental_uris": {"ios": "https://dc.lft.to/lastmile_qr_scan", "android": "https://dc.lft.to/lastmile_qr_scan"}, "fusion_lon": 0.0, "type": "electric_scooter", "bike_id": "459c29b0a749e0bc7de54cb362c12450", "name": "459c29b0a749e0bc7de54cb362c12450"}, {"lon": -77.04488083333334, "is_disabled": 0, "lat": 38.904732833333334, "fusion_lat": 0.0, "is_reserved": 0, "rental_uris": {"ios": "https://dc.lft.to/lastmile_qr_scan", "android": "https://dc.lft.to/lastmile_qr_scan"}, "fusion_lon": 0.0, "type": "electric_scooter", "bike_id": "61b8d2cd62591c66233fd84c186621fb", "name": "61b8d2cd62591c66233fd84c186621fb"}, {"lon": -77.12980283333333, "is_disabled": 0, "lat": 38.799899333333336, "fusion_lat": 0.0, "is_reserved": 0, "rental_uris": {"ios": "https://dc.lft.to/lastmile_qr_scan", "android": "https://dc.lft.to/lastmile_qr_scan"}, "fusion_lon": 0.0, "type": "electric_bike", "bike_id": "8cb421dc966832fc279e28d166d37922", "name": "8cb421dc966832fc279e28d166d37922"}, {"lon": -77.04127666666666, "is_disabled": 0, "lat": 38.93357133333333, "fusion_lat": 0.0, "is_reserved": 0, "rental_uris": {"ios": "https://dc.lft.to/lastmile_qr_scan", "android": "https://dc.lft.to/lastmile_qr_scan"}, "fusion_lon": 0.0, "type": "electric_scooter", "bike_id": "3772996ec12998e5dcd16cca4221ed12", "name": "3772996ec12998e5dcd16cca4221ed12"}, {"lon": -77.0410665, "is_disabled": 0, "lat": 38.901342666666665, "fusion_lat": 0.0, "is_reserved": 0, "rental_uris": {"ios": "https://dc.lft.to/lastmile_qr_scan", "android": "https://dc.lft.to/lastmile_qr_scan"}, "fusion_lon": 0.0, "type": "electric_scooter", "bike_id": "cabda66698bcd67feafcffe6e3b7a371", "name": "cabda66698bcd67feafcffe6e3b7a371"}, {"lon": -77.02215833333334, "is_disabled": 0, "lat": 38.9038445, "fusion_lat": 0.0, "is_reserved": 0, "rental_uris": {"ios": "https://dc.lft.to/lastmile_qr_scan", "android": "https://dc.lft.to/lastmile_qr_scan"}, "fusion_lon": 0.0, "type": "electric_scooter", "bike_id": "af4752ed5a854defd871e7594338ff50", "name": "af4752ed5a854defd871e7594338ff50"}, {"lon": -77.02583666666666, "is_disabled": 0, "lat": 38.89832833333333, "fusion_lat": 0.0, "is_reserved": 0, "rental_uris": {"ios": "https://dc.lft.to/lastmile_qr_scan", "android": "https://dc.lft.to/lastmile_qr_scan"}, "fusion_lon": 0.0, "type": "electric_scooter", "bike_id": "2df364f52f640d3d370f65135bcefdd2", "name": "2df364f52f640d3d370f65135bcefdd2"}, {"lon": -76.98592816666667, "is_disabled": 0, "lat": 38.858739166666666, "fusion_lat": 0.0, "is_reserved": 0, "rental_uris": {"ios": "https://dc.lft.to/lastmile_qr_scan", "android": "https://dc.lft.to/lastmile_qr_scan"}, "fusion_lon": 0.0, "type": "electric_scooter", "bike_id": "8d0bb7f6a18d3a4b7fe4f7d2841949c6", "name": "8d0bb7f6a18d3a4b7fe4f7d2841949c6"}, {"lon": -77.03634733333334, "is_disabled": 0, "lat": 38.93182316666667, "fusion_lat": 0.0, "is_reserved": 0, "rental_uris": {"ios": "https://dc.lft.to/lastmile_qr_scan", "android": "https://dc.lft.to/lastmile_qr_scan"}, "fusion_lon": 0.0, "type": "electric_scooter", "bike_id": "66e4eefcb1ec23675d08c506869da979", "name": "66e4eefcb1ec23675d08c506869da979"}, {"lon": -77.03862716666667, "is_disabled": 0, "lat": 38.9081425, "fusion_lat": 0.0, "is_reserved": 0, "rental_uris": {"ios": "https://dc.lft.to/lastmile_qr_scan", "android": "https://dc.lft.to/lastmile_qr_scan"}, "fusion_lon": 0.0, "type": "electric_scooter", "bike_id": "5d1fc22177d5b96e318b3d3d7e210714", "name": "5d1fc22177d5b96e318b3d3d7e210714"}, {"lon": -77.02438583333333, "is_disabled": 0, "lat": 38.92260983333333, "fusion_lat": 0.0, "is_reserved": 0, "rental_uris": {"ios": "https://dc.lft.to/lastmile_qr_scan", "android": "https://dc.lft.to/lastmile_qr_scan"}, "fusion_lon": 0.0, "type": "electric_scooter", "bike_id": "494d0ca07c0e258a19ae9772e82ec6ce", "name": "494d0ca07c0e258a19ae9772e82ec6ce"}, {"lon": -77.06397233333334, "is_disabled": 0, "lat": 38.94418616666667, "fusion_lat": 0.0, "is_reserved": 0, "rental_uris": {"ios": "https://dc.lft.to/lastmile_qr_scan", "android": "https://dc.lft.to/lastmile_qr_scan"}, "fusion_lon": 0.0, "type": "electric_scooter", "bike_id": "04f49f7011cd9edaba9d3d01f0833df5", "name": "04f49f7011cd9edaba9d3d01f0833df5"}, {"lon": -77.02281116666667, "is_disabled": 0, "lat": 38.89502233333333, "fusion_lat": 0.0, "is_reserved": 0, "rental_uris": {"ios": "https://dc.lft.to/lastmile_qr_scan", "android": "https://dc.lft.to/lastmile_qr_scan"}, "fusion_lon": 0.0, "type": "electric_scooter", "bike_id": "ff23760f3974391d37b90bc248d16ecb", "name": "ff23760f3974391d37b90bc248d16ecb"}, {"lon": -77.0038865, "is_disabled": 0, "lat": 38.895506166666664, "fusion_lat": 0.0, "is_reserved": 0, "rental_uris": {"ios": "https://dc.lft.to/lastmile_qr_scan", "android": "https://dc.lft.to/lastmile_qr_scan"}, "fusion_lon": 0.0, "type": "electric_scooter", "bike_id": "ada54ccdd9323579546cdfd7eab5b170", "name": "ada54ccdd9323579546cdfd7eab5b170"}, {"lon": -77.0561835, "is_disabled": 0, "lat": 38.93180983333333, "fusion_lat": 0.0, "is_reserved": 0, "rental_uris": {"ios": "https://dc.lft.to/lastmile_qr_scan", "android": "https://dc.lft.to/lastmile_qr_scan"}, "fusion_lon": 0.0, "type": "electric_scooter", "bike_id": "4df71f49ef55411c96043912cb42bdd9", "name": "4df71f49ef55411c96043912cb42bdd9"}, {"lon": -77.02821533333334, "is_disabled": 0, "lat": 38.90894016666667, "fusion_lat": 0.0, "is_reserved": 0, "rental_uris": {"ios": "https://dc.lft.to/lastmile_qr_scan", "android": "https://dc.lft.to/lastmile_qr_scan"}, "fusion_lon": 0.0, "type": "electric_scooter", "bike_id": "b489bcdf5220fb2db7163ae54b49c16f", "name": "b489bcdf5220fb2db7163ae54b49c16f"}, {"lon": -76.961161, "is_disabled": 0, "lat": 38.918618, "fusion_lat": 0.0, "is_reserved": 0, "rental_uris": {"ios": "https://dc.lft.to/lastmile_qr_scan", "android": "https://dc.lft.to/lastmile_qr_scan"}, "fusion_lon": 0.0, "type": "electric_scooter", "bike_id": "413f84debcd9e266148626a463a787ff", "name": "413f84debcd9e266148626a463a787ff"}, {"lon": -77.0332285, "is_disabled": 0, "lat": 38.8988385, "fusion_lat": 0.0, "is_reserved": 0, "rental_uris": {"ios": "https://dc.lft.to/lastmile_qr_scan", "android": "https://dc.lft.to/lastmile_qr_scan"}, "fusion_lon": 0.0, "type": "electric_scooter", "bike_id": "2d764d766b1639bc64c78d941ca491f8", "name": "2d764d766b1639bc64c78d941ca491f8"}, {"lon": -77.0448675, "is_disabled": 0, "lat": 38.911774, "fusion_lat": 0.0, "is_reserved": 0, "rental_uris": {"ios": "https://dc.lft.to/lastmile_qr_scan", "android": "https://dc.lft.to/lastmile_qr_scan"}, "fusion_lon": 0.0, "type": "electric_scooter", "bike_id": "f38032865879318dac8091ba2efc3105", "name": "f38032865879318dac8091ba2efc3105"}, {"lon": -77.030226, "is_disabled": 0, "lat": 38.93489733333333, "fusion_lat": 0.0, "is_reserved": 0, "rental_uris": {"ios": "https://dc.lft.to/lastmile_qr_scan", "android": "https://dc.lft.to/lastmile_qr_scan"}, "fusion_lon": 0.0, "type": "electric_scooter", "bike_id": "d665483474e398832ad0441b82937857", "name": "d665483474e398832ad0441b82937857"}, {"lon": -76.99721033333333, "is_disabled": 0, "lat": 38.91029866666667, "fusion_lat": 0.0, "is_reserved": 0, "rental_uris": {"ios": "https://dc.lft.to/lastmile_qr_scan", "android": "https://dc.lft.to/lastmile_qr_scan"}, "fusion_lon": 0.0, "type": "electric_scooter", "bike_id": "78ba893513c4d4bf33b6f56ca8579c37", "name": "78ba893513c4d4bf33b6f56ca8579c37"}, {"lon": -77.0243485, "is_disabled": 0, "lat": 38.92259216666667, "fusion_lat": 0.0, "is_reserved": 0, "rental_uris": {"ios": "https://dc.lft.to/lastmile_qr_scan", "android": "https://dc.lft.to/lastmile_qr_scan"}, "fusion_lon": 0.0, "type": "electric_scooter", "bike_id": "c4b8636c6c9e1d7c39cc51c3fc6d23c6", "name": "c4b8636c6c9e1d7c39cc51c3fc6d23c6"}, {"lon": -77.04226616666666, "is_disabled": 0, "lat": 38.920624, "fusion_lat": 0.0, "is_reserved": 0, "rental_uris": {"ios": "https://dc.lft.to/lastmile_qr_scan", "android": "https://dc.lft.to/lastmile_qr_scan"}, "fusion_lon": 0.0, "type": "electric_scooter", "bike_id": "5fa1a116fd0310c39dbacacfa02dcbe1", "name": "5fa1a116fd0310c39dbacacfa02dcbe1"}, {"lon": -77.03071283333334, "is_disabled": 0, "lat": 38.90575916666667, "fusion_lat": 0.0, "is_reserved": 0, "rental_uris": {"ios": "https://dc.lft.to/lastmile_qr_scan", "android": "https://dc.lft.to/lastmile_qr_scan"}, "fusion_lon": 0.0, "type": "electric_scooter", "bike_id": "e4bf9766467c7ea4c20926a370b8a2fe", "name": "e4bf9766467c7ea4c20926a370b8a2fe"}, {"lon": -77.01648016666667, "is_disabled": 0, "lat": 38.881198, "fusion_lat": 0.0, "is_reserved": 0, "rental_uris": {"ios": "https://dc.lft.to/lastmile_qr_scan", "android": "https://dc.lft.to/lastmile_qr_scan"}, "fusion_lon": 0.0, "type": "electric_scooter", "bike_id": "a65e8a9e51f6dd956c59548bfd09b506", "name": "a65e8a9e51f6dd956c59548bfd09b506"}, {"lon": -77.04505166666667, "is_disabled": 0, "lat": 38.908754333333334, "fusion_lat": 0.0, "is_reserved": 0, "rental_uris": {"ios": "https://dc.lft.to/lastmile_qr_scan", "android": "https://dc.lft.to/lastmile_qr_scan"}, "fusion_lon": 0.0, "type": "electric_scooter", "bike_id": "fba209ceb523415fef4d0a4e63441314", "name": "fba209ceb523415fef4d0a4e63441314"}, {"lon": -77.03041116666667, "is_disabled": 0, "lat": 38.916215666666666, "fusion_lat": 0.0, "is_reserved": 0, "rental_uris": {"ios": "https://dc.lft.to/lastmile_qr_scan", "android": "https://dc.lft.to/lastmile_qr_scan"}, "fusion_lon": 0.0, "type": "electric_scooter", "bike_id": "9a61fedb0ac65ead781af57fb0b1299a", "name": "9a61fedb0ac65ead781af57fb0b1299a"}, {"lon": -77.03198116666667, "is_disabled": 0, "lat": 38.9174715, "fusion_lat": 0.0, "is_reserved": 0, "rental_uris": {"ios": "https://dc.lft.to/lastmile_qr_scan", "android": "https://dc.lft.to/lastmile_qr_scan"}, "fusion_lon": 0.0, "type": "electric_scooter", "bike_id": "3fea9330a17e83b028978b08c71f6466", "name": "3fea9330a17e83b028978b08c71f6466"}, {"lon": -77.03127783333333, "is_disabled": 0, "lat": 38.920168333333336, "fusion_lat": 0.0, "is_reserved": 0, "rental_uris": {"ios": "https://dc.lft.to/lastmile_qr_scan", "android": "https://dc.lft.to/lastmile_qr_scan"}, "fusion_lon": 0.0, "type": "electric_scooter", "bike_id": "af4ca38d992b1a2594ec2d07680f8080", "name": "af4ca38d992b1a2594ec2d07680f8080"}, {"lon": -77.05430966666667, "is_disabled": 0, "lat": 38.928511666666665, "fusion_lat": 0.0, "is_reserved": 0, "rental_uris": {"ios": "https://dc.lft.to/lastmile_qr_scan", "android": "https://dc.lft.to/lastmile_qr_scan"}, "fusion_lon": 0.0, "type": "electric_scooter", "bike_id": "f5a423c4aa5f32a3b10c84cd27e136f2", "name": "f5a423c4aa5f32a3b10c84cd27e136f2"}, {"lon": -77.02703833333334, "is_disabled": 0, "lat": 38.909523, "fusion_lat": 0.0, "is_reserved": 0, "rental_uris": {"ios": "https://dc.lft.to/lastmile_qr_scan", "android": "https://dc.lft.to/lastmile_qr_scan"}, "fusion_lon": 0.0, "type": "electric_scooter", "bike_id": "e4adfc8fed6e97921d19490cb61ed429", "name": "e4adfc8fed6e97921d19490cb61ed429"}, {"lon": -77.03460016666666, "is_disabled": 0, "lat": 38.903417, "fusion_lat": 0.0, "is_reserved": 0, "rental_uris": {"ios": "https://dc.lft.to/lastmile_qr_scan", "android": "https://dc.lft.to/lastmile_qr_scan"}, "fusion_lon": 0.0, "type": "electric_scooter", "bike_id": "f7ac89a403e2bdd2094912209ba14eb6", "name": "f7ac89a403e2bdd2094912209ba14eb6"}, {"lon": -77.04548883333334, "is_disabled": 0, "lat": 38.898322666666665, "fusion_lat": 0.0, "is_reserved": 0, "rental_uris": {"ios": "https://dc.lft.to/lastmile_qr_scan", "android": "https://dc.lft.to/lastmile_qr_scan"}, "fusion_lon": 0.0, "type": "electric_scooter", "bike_id": "52a50766995293074d203f59669f56b1", "name": "52a50766995293074d203f59669f56b1"}, {"lon": -77.03443583333333, "is_disabled": 0, "lat": 38.91826833333333, "fusion_lat": 0.0, "is_reserved": 0, "rental_uris": {"ios": "https://dc.lft.to/lastmile_qr_scan", "android": "https://dc.lft.to/lastmile_qr_scan"}, "fusion_lon": 0.0, "type": "electric_scooter", "bike_id": "c7290e43e59fdaf4d8df9214ffe702a6", "name": "c7290e43e59fdaf4d8df9214ffe702a6"}, {"lon": -77.00078366666666, "is_disabled": 0, "lat": 38.87395266666667, "fusion_lat": 0.0, "is_reserved": 0, "rental_uris": {"ios": "https://dc.lft.to/lastmile_qr_scan", "android": "https://dc.lft.to/lastmile_qr_scan"}, "fusion_lon": 0.0, "type": "electric_scooter", "bike_id": "a986504d0c67b44bc95a3d19a895d025", "name": "a986504d0c67b44bc95a3d19a895d025"}, {"lon": -77.03408666666667, "is_disabled": 0, "lat": 38.922151, "fusion_lat": 0.0, "is_reserved": 0, "rental_uris": {"ios": "https://dc.lft.to/lastmile_qr_scan", "android": "https://dc.lft.to/lastmile_qr_scan"}, "fusion_lon": 0.0, "type": "electric_scooter", "bike_id": "7840d5237fadea372941e53d082adff3", "name": "7840d5237fadea372941e53d082adff3"}, {"lon": -77.046824, "is_disabled": 0, "lat": 38.902978833333336, "fusion_lat": 0.0, "is_reserved": 0, "rental_uris": {"ios": "https://dc.lft.to/lastmile_qr_scan", "android": "https://dc.lft.to/lastmile_qr_scan"}, "fusion_lon": 0.0, "type": "electric_scooter", "bike_id": "64530475ba3ea50ed7bc8631b4ce1d6d", "name": "64530475ba3ea50ed7bc8631b4ce1d6d"}, {"lon": -77.04182216666666, "is_disabled": 0, "lat": 38.9032215, "fusion_lat": 0.0, "is_reserved": 0, "rental_uris": {"ios": "https://dc.lft.to/lastmile_qr_scan", "android": "https://dc.lft.to/lastmile_qr_scan"}, "fusion_lon": 0.0, "type": "electric_scooter", "bike_id": "c5ae0d76687413d382c32fb94cdf9dd4", "name": "c5ae0d76687413d382c32fb94cdf9dd4"}, {"lon": -77.027184, "is_disabled": 0, "lat": 38.92761683333333, "fusion_lat": 0.0, "is_reserved": 0, "rental_uris": {"ios": "https://dc.lft.to/lastmile_qr_scan", "android": "https://dc.lft.to/lastmile_qr_scan"}, "fusion_lon": 0.0, "type": "electric_scooter", "bike_id": "7e0941aa85442f77437e5820dea83e3f", "name": "7e0941aa85442f77437e5820dea83e3f"}, {"lon": -76.991547, "is_disabled": 0, "lat": 38.90045166666667, "fusion_lat": 0.0, "is_reserved": 0, "rental_uris": {"ios": "https://dc.lft.to/lastmile_qr_scan", "android": "https://dc.lft.to/lastmile_qr_scan"}, "fusion_lon": 0.0, "type": "electric_scooter", "bike_id": "efa2dd3ea8097897103a1f24f0052036", "name": "efa2dd3ea8097897103a1f24f0052036"}, {"lon": -77.04143683333334, "is_disabled": 0, "lat": 38.90543233333333, "fusion_lat": 0.0, "is_reserved": 0, "rental_uris": {"ios": "https://dc.lft.to/lastmile_qr_scan", "android": "https://dc.lft.to/lastmile_qr_scan"}, "fusion_lon": 0.0, "type": "electric_scooter", "bike_id": "44b6850c0e70af031a959cfd4f7de725", "name": "44b6850c0e70af031a959cfd4f7de725"}, {"lon": -77.02727333333333, "is_disabled": 0, "lat": 38.95582683333333, "fusion_lat": 0.0, "is_reserved": 0, "rental_uris": {"ios": "https://dc.lft.to/lastmile_qr_scan", "android": "https://dc.lft.to/lastmile_qr_scan"}, "fusion_lon": 0.0, "type": "electric_scooter", "bike_id": "68118ab527c8abaa2436a506fdf908da", "name": "68118ab527c8abaa2436a506fdf908da"}, {"lon": -77.02727966666667, "is_disabled": 0, "lat": 38.8986185, "fusion_lat": 0.0, "is_reserved": 0, "rental_uris": {"ios": "https://dc.lft.to/lastmile_qr_scan", "android": "https://dc.lft.to/lastmile_qr_scan"}, "fusion_lon": 0.0, "type": "electric_scooter", "bike_id": "3e4c0e5aca5fe6700d3379490269ff15", "name": "3e4c0e5aca5fe6700d3379490269ff15"}, {"lon": -76.9900215, "is_disabled": 0, "lat": 38.8651055, "fusion_lat": 0.0, "is_reserved": 0, "rental_uris": {"ios": "https://dc.lft.to/lastmile_qr_scan", "android": "https://dc.lft.to/lastmile_qr_scan"}, "fusion_lon": 0.0, "type": "electric_scooter", "bike_id": "12465fbbf94494142896e8318132f587", "name": "12465fbbf94494142896e8318132f587"}, {"lon": -77.08307616666667, "is_disabled": 0, "lat": 38.85442466666667, "fusion_lat": 0.0, "is_reserved": 0, "rental_uris": {"ios": "https://dc.lft.to/lastmile_qr_scan", "android": "https://dc.lft.to/lastmile_qr_scan"}, "fusion_lon": 0.0, "type": "electric_bike", "bike_id": "f8c17bd12e0e67d56ca1acd1dda0894c", "name": "f8c17bd12e0e67d56ca1acd1dda0894c"}, {"lon": -77.02613933333333, "is_disabled": 0, "lat": 38.9142005, "fusion_lat": 0.0, "is_reserved": 0, "rental_uris": {"ios": "https://dc.lft.to/lastmile_qr_scan", "android": "https://dc.lft.to/lastmile_qr_scan"}, "fusion_lon": 0.0, "type": "electric_scooter", "bike_id": "820ed75d3d03efd564076d30570c308a", "name": "820ed75d3d03efd564076d30570c308a"}, {"lon": -77.04504966666667, "is_disabled": 0, "lat": 38.9002535, "fusion_lat": 0.0, "is_reserved": 0, "rental_uris": {"ios": "https://dc.lft.to/lastmile_qr_scan", "android": "https://dc.lft.to/lastmile_qr_scan"}, "fusion_lon": 0.0, "type": "electric_scooter", "bike_id": "a9308c0897f8d7e80ebf29330d14e215", "name": "a9308c0897f8d7e80ebf29330d14e215"}, {"lon": -77.03633416666666, "is_disabled": 0, "lat": 38.930583666666664, "fusion_lat": 0.0, "is_reserved": 0, "rental_uris": {"ios": "https://dc.lft.to/lastmile_qr_scan", "android": "https://dc.lft.to/lastmile_qr_scan"}, "fusion_lon": 0.0, "type": "electric_scooter", "bike_id": "7df16bd6733decdd8568cd159c69f538", "name": "7df16bd6733decdd8568cd159c69f538"}, {"lon": -77.03239666666667, "is_disabled": 0, "lat": 38.927533, "fusion_lat": 0.0, "is_reserved": 0, "rental_uris": {"ios": "https://dc.lft.to/lastmile_qr_scan", "android": "https://dc.lft.to/lastmile_qr_scan"}, "fusion_lon": 0.0, "type": "electric_scooter", "bike_id": "168e644f3448ef1e8c7a441fd58bb6c1", "name": "168e644f3448ef1e8c7a441fd58bb6c1"}, {"lon": -77.0242215, "is_disabled": 0, "lat": 38.920817666666665, "fusion_lat": 0.0, "is_reserved": 0, "rental_uris": {"ios": "https://dc.lft.to/lastmile_qr_scan", "android": "https://dc.lft.to/lastmile_qr_scan"}, "fusion_lon": 0.0, "type": "electric_scooter", "bike_id": "67aae06d42b987e2397672d1176b7dec", "name": "67aae06d42b987e2397672d1176b7dec"}, {"lon": -77.229259, "is_disabled": 0, "lat": 38.93190966666667, "fusion_lat": 0.0, "is_reserved": 0, "rental_uris": {"ios": "https://dc.lft.to/lastmile_qr_scan", "android": "https://dc.lft.to/lastmile_qr_scan"}, "fusion_lon": 0.0, "type": "electric_bike", "bike_id": "b24c30c613d01f1bf95a80d39c728a0b", "name": "b24c30c613d01f1bf95a80d39c728a0b"}, {"lon": -77.0285575, "is_disabled": 0, "lat": 38.896379833333334, "fusion_lat": 0.0, "is_reserved": 0, "rental_uris": {"ios": "https://dc.lft.to/lastmile_qr_scan", "android": "https://dc.lft.to/lastmile_qr_scan"}, "fusion_lon": 0.0, "type": "electric_scooter", "bike_id": "08b28ed844a8195c44e1eee9b1e39f65", "name": "08b28ed844a8195c44e1eee9b1e39f65"}, {"lon": -77.03557483333333, "is_disabled": 0, "lat": 38.90483016666667, "fusion_lat": 0.0, "is_reserved": 0, "rental_uris": {"ios": "https://dc.lft.to/lastmile_qr_scan", "android": "https://dc.lft.to/lastmile_qr_scan"}, "fusion_lon": 0.0, "type": "electric_scooter", "bike_id": "59c9bed13cd767b27f3297b0b9637a7b", "name": "59c9bed13cd767b27f3297b0b9637a7b"}, {"lon": -77.026683, "is_disabled": 0, "lat": 38.9310245, "fusion_lat": 0.0, "is_reserved": 0, "rental_uris": {"ios": "https://dc.lft.to/lastmile_qr_scan", "android": "https://dc.lft.to/lastmile_qr_scan"}, "fusion_lon": 0.0, "type": "electric_scooter", "bike_id": "4cea4617eb53b2fa42bf787584514302", "name": "4cea4617eb53b2fa42bf787584514302"}, {"lon": -77.04131333333333, "is_disabled": 0, "lat": 38.92382683333334, "fusion_lat": 0.0, "is_reserved": 0, "rental_uris": {"ios": "https://dc.lft.to/lastmile_qr_scan", "android": "https://dc.lft.to/lastmile_qr_scan"}, "fusion_lon": 0.0, "type": "electric_scooter", "bike_id": "99f39fa20bf0b6fc4169e1cb93368c41", "name": "99f39fa20bf0b6fc4169e1cb93368c41"}, {"lon": -77.05049833333334, "is_disabled": 0, "lat": 38.905338666666665, "fusion_lat": 0.0, "is_reserved": 0, "rental_uris": {"ios": "https://dc.lft.to/lastmile_qr_scan", "android": "https://dc.lft.to/lastmile_qr_scan"}, "fusion_lon": 0.0, "type": "electric_scooter", "bike_id": "df0298fb32f7788c7309a9d56e007e50", "name": "df0298fb32f7788c7309a9d56e007e50"}, {"lon": -77.05227016666667, "is_disabled": 0, "lat": 38.92512033333333, "fusion_lat": 0.0, "is_reserved": 0, "rental_uris": {"ios": "https://dc.lft.to/lastmile_qr_scan", "android": "https://dc.lft.to/lastmile_qr_scan"}, "fusion_lon": 0.0, "type": "electric_scooter", "bike_id": "41e2e951c2dfca39a005e3a52024cdbc", "name": "41e2e951c2dfca39a005e3a52024cdbc"}, {"lon": -76.98279533333333, "is_disabled": 0, "lat": 38.88537016666667, "fusion_lat": 0.0, "is_reserved": 0, "rental_uris": {"ios": "https://dc.lft.to/lastmile_qr_scan", "android": "https://dc.lft.to/lastmile_qr_scan"}, "fusion_lon": 0.0, "type": "electric_scooter", "bike_id": "9cca8c1233e80dbc9263ce27a5a675a6", "name": "9cca8c1233e80dbc9263ce27a5a675a6"}, {"lon": -77.02608983333333, "is_disabled": 0, "lat": 38.93492883333333, "fusion_lat": 0.0, "is_reserved": 0, "rental_uris": {"ios": "https://dc.lft.to/lastmile_qr_scan", "android": "https://dc.lft.to/lastmile_qr_scan"}, "fusion_lon": 0.0, "type": "electric_scooter", "bike_id": "ed9c0960ad2c5c1bec81ca41ce590767", "name": "ed9c0960ad2c5c1bec81ca41ce590767"}, {"lon": -77.03129533333333, "is_disabled": 0, "lat": 38.916094666666666, "fusion_lat": 0.0, "is_reserved": 0, "rental_uris": {"ios": "https://dc.lft.to/lastmile_qr_scan", "android": "https://dc.lft.to/lastmile_qr_scan"}, "fusion_lon": 0.0, "type": "electric_scooter", "bike_id": "bc964dec07dd9a8f4b1800c7cc81b64a", "name": "bc964dec07dd9a8f4b1800c7cc81b64a"}, {"lon": -77.04996116666666, "is_disabled": 0, "lat": 38.905244333333336, "fusion_lat": 0.0, "is_reserved": 0, "rental_uris": {"ios": "https://dc.lft.to/lastmile_qr_scan", "android": "https://dc.lft.to/lastmile_qr_scan"}, "fusion_lon": 0.0, "type": "electric_scooter", "bike_id": "b6dc403be0c22218ba22f03392e1803b", "name": "b6dc403be0c22218ba22f03392e1803b"}, {"lon": -77.23409466666666, "is_disabled": 0, "lat": 38.87575983333333, "fusion_lat": 0.0, "is_reserved": 0, "rental_uris": {"ios": "https://dc.lft.to/lastmile_qr_scan", "android": "https://dc.lft.to/lastmile_qr_scan"}, "fusion_lon": 0.0, "type": "electric_bike", "bike_id": "1b8e4a8c756538accd99628eda45c682", "name": "1b8e4a8c756538accd99628eda45c682"}, {"lon": -76.98965566666666, "is_disabled": 0, "lat": 38.86537516666667, "fusion_lat": 0.0, "is_reserved": 0, "rental_uris": {"ios": "https://dc.lft.to/lastmile_qr_scan", "android": "https://dc.lft.to/lastmile_qr_scan"}, "fusion_lon": 0.0, "type": "electric_scooter", "bike_id": "c6ecc3d2c0a2eded54888c85d2588633", "name": "c6ecc3d2c0a2eded54888c85d2588633"}, {"lon": -76.947036, "is_disabled": 0, "lat": 38.8936385, "fusion_lat": 0.0, "is_reserved": 0, "rental_uris": {"ios": "https://dc.lft.to/lastmile_qr_scan", "android": "https://dc.lft.to/lastmile_qr_scan"}, "fusion_lon": 0.0, "type": "electric_scooter", "bike_id": "03bffe912161ce912b66f0e78b2bc49b", "name": "03bffe912161ce912b66f0e78b2bc49b"}, {"lon": -77.03038783333334, "is_disabled": 0, "lat": 38.902717, "fusion_lat": 0.0, "is_reserved": 0, "rental_uris": {"ios": "https://dc.lft.to/lastmile_qr_scan", "android": "https://dc.lft.to/lastmile_qr_scan"}, "fusion_lon": 0.0, "type": "electric_scooter", "bike_id": "adda21b893e63f33788504e284ede5de", "name": "adda21b893e63f33788504e284ede5de"}, {"lon": -76.99032266666667, "is_disabled": 0, "lat": 38.8985445, "fusion_lat": 0.0, "is_reserved": 0, "rental_uris": {"ios": "https://dc.lft.to/lastmile_qr_scan", "android": "https://dc.lft.to/lastmile_qr_scan"}, "fusion_lon": 0.0, "type": "electric_scooter", "bike_id": "f9ae10dda2ca7b96de7437d561236347", "name": "f9ae10dda2ca7b96de7437d561236347"}, {"lon": -77.02447466666666, "is_disabled": 0, "lat": 38.89999383333333, "fusion_lat": 0.0, "is_reserved": 0, "rental_uris": {"ios": "https://dc.lft.to/lastmile_qr_scan", "android": "https://dc.lft.to/lastmile_qr_scan"}, "fusion_lon": 0.0, "type": "electric_scooter", "bike_id": "fa9434fa6403766da9a6ecd85c8fca5b", "name": "fa9434fa6403766da9a6ecd85c8fca5b"}, {"lon": -77.0487805, "is_disabled": 0, "lat": 38.90572066666667, "fusion_lat": 0.0, "is_reserved": 0, "rental_uris": {"ios": "https://dc.lft.to/lastmile_qr_scan", "android": "https://dc.lft.to/lastmile_qr_scan"}, "fusion_lon": 0.0, "type": "electric_scooter", "bike_id": "f0df9a3b3aa3378eabbde6a59946f1ef", "name": "f0df9a3b3aa3378eabbde6a59946f1ef"}, {"lon": -77.05250083333334, "is_disabled": 0, "lat": 38.92578116666667, "fusion_lat": 0.0, "is_reserved": 0, "rental_uris": {"ios": "https://dc.lft.to/lastmile_qr_scan", "android": "https://dc.lft.to/lastmile_qr_scan"}, "fusion_lon": 0.0, "type": "electric_scooter", "bike_id": "ee9d52d38c0ee1cef8ad66ec92bb3b5a", "name": "ee9d52d38c0ee1cef8ad66ec92bb3b5a"}, {"lon": -77.02968216666666, "is_disabled": 0, "lat": 38.91297616666667, "fusion_lat": 0.0, "is_reserved": 0, "rental_uris": {"ios": "https://dc.lft.to/lastmile_qr_scan", "android": "https://dc.lft.to/lastmile_qr_scan"}, "fusion_lon": 0.0, "type": "electric_scooter", "bike_id": "dd44e2ffde7883da74cdee88c86d22ce", "name": "dd44e2ffde7883da74cdee88c86d22ce"}, {"lon": -77.02356216666666, "is_disabled": 0, "lat": 38.90973566666667, "fusion_lat": 0.0, "is_reserved": 0, "rental_uris": {"ios": "https://dc.lft.to/lastmile_qr_scan", "android": "https://dc.lft.to/lastmile_qr_scan"}, "fusion_lon": 0.0, "type": "electric_scooter", "bike_id": "80c39669c4d9c49f161106c04d284973", "name": "80c39669c4d9c49f161106c04d284973"}, {"lon": -77.04504016666667, "is_disabled": 0, "lat": 38.903737166666666, "fusion_lat": 0.0, "is_reserved": 0, "rental_uris": {"ios": "https://dc.lft.to/lastmile_qr_scan", "android": "https://dc.lft.to/lastmile_qr_scan"}, "fusion_lon": 0.0, "type": "electric_scooter", "bike_id": "2303ef97ac154aba62c17922cd14cac1", "name": "2303ef97ac154aba62c17922cd14cac1"}, {"lon": -77.125267, "is_disabled": 0, "lat": 39.05637983333333, "fusion_lat": 0.0, "is_reserved": 0, "rental_uris": {"ios": "https://dc.lft.to/lastmile_qr_scan", "android": "https://dc.lft.to/lastmile_qr_scan"}, "fusion_lon": 0.0, "type": "electric_bike", "bike_id": "66cb94be438195cd5314280c695b24a9", "name": "66cb94be438195cd5314280c695b24a9"}, {"lon": -77.03183216666666, "is_disabled": 0, "lat": 38.910945, "fusion_lat": 0.0, "is_reserved": 0, "rental_uris": {"ios": "https://dc.lft.to/lastmile_qr_scan", "android": "https://dc.lft.to/lastmile_qr_scan"}, "fusion_lon": 0.0, "type": "electric_scooter", "bike_id": "44644261dcc693df1fd38dd977d363f5", "name": "44644261dcc693df1fd38dd977d363f5"}, {"lon": -77.03190466666666, "is_disabled": 0, "lat": 38.92045316666667, "fusion_lat": 0.0, "is_reserved": 0, "rental_uris": {"ios": "https://dc.lft.to/lastmile_qr_scan", "android": "https://dc.lft.to/lastmile_qr_scan"}, "fusion_lon": 0.0, "type": "electric_scooter", "bike_id": "a63de401955c03a465ece7ab4bee21f4", "name": "a63de401955c03a465ece7ab4bee21f4"}, {"lon": -77.06046683333334, "is_disabled": 0, "lat": 38.94469216666667, "fusion_lat": 0.0, "is_reserved": 0, "rental_uris": {"ios": "https://dc.lft.to/lastmile_qr_scan", "android": "https://dc.lft.to/lastmile_qr_scan"}, "fusion_lon": 0.0, "type": "electric_scooter", "bike_id": "5d27928f083572a28196a2c79c849f69", "name": "5d27928f083572a28196a2c79c849f69"}, {"lon": -76.94642783333333, "is_disabled": 0, "lat": 38.89866933333333, "fusion_lat": 0.0, "is_reserved": 0, "rental_uris": {"ios": "https://dc.lft.to/lastmile_qr_scan", "android": "https://dc.lft.to/lastmile_qr_scan"}, "fusion_lon": 0.0, "type": "electric_scooter", "bike_id": "afe77ce9efda3eba42c24101b51b29d8", "name": "afe77ce9efda3eba42c24101b51b29d8"}, {"lon": -77.02457883333334, "is_disabled": 0, "lat": 38.908683833333335, "fusion_lat": 0.0, "is_reserved": 0, "rental_uris": {"ios": "https://dc.lft.to/lastmile_qr_scan", "android": "https://dc.lft.to/lastmile_qr_scan"}, "fusion_lon": 0.0, "type": "electric_scooter", "bike_id": "e165b1b37d27f05f745b08b16d26edf6", "name": "e165b1b37d27f05f745b08b16d26edf6"}, {"lon": -77.03173283333334, "is_disabled": 0, "lat": 38.892305, "fusion_lat": 0.0, "is_reserved": 0, "rental_uris": {"ios": "https://dc.lft.to/lastmile_qr_scan", "android": "https://dc.lft.to/lastmile_qr_scan"}, "fusion_lon": 0.0, "type": "electric_scooter", "bike_id": "2584b152474661c2ca81a638f6b6e627", "name": "2584b152474661c2ca81a638f6b6e627"}, {"lon": -76.97179866666667, "is_disabled": 0, "lat": 38.86144433333333, "fusion_lat": 0.0, "is_reserved": 0, "rental_uris": {"ios": "https://dc.lft.to/lastmile_qr_scan", "android": "https://dc.lft.to/lastmile_qr_scan"}, "fusion_lon": 0.0, "type": "electric_scooter", "bike_id": "ad64c3feb84e737154d634c0264704f6", "name": "ad64c3feb84e737154d634c0264704f6"}, {"lon": -77.03243133333334, "is_disabled": 0, "lat": 38.90554066666667, "fusion_lat": 0.0, "is_reserved": 0, "rental_uris": {"ios": "https://dc.lft.to/lastmile_qr_scan", "android": "https://dc.lft.to/lastmile_qr_scan"}, "fusion_lon": 0.0, "type": "electric_scooter", "bike_id": "deaac8090675aa27a2716f8cb16e54ed", "name": "deaac8090675aa27a2716f8cb16e54ed"}, {"lon": -77.07165316666666, "is_disabled": 0, "lat": 38.9382415, "fusion_lat": 0.0, "is_reserved": 0, "rental_uris": {"ios": "https://dc.lft.to/lastmile_qr_scan", "android": "https://dc.lft.to/lastmile_qr_scan"}, "fusion_lon": 0.0, "type": "electric_scooter", "bike_id": "20162a968690a1fa036262fa50f9dfab", "name": "20162a968690a1fa036262fa50f9dfab"}, {"lon": -77.06520033333334, "is_disabled": 0, "lat": 38.904067833333336, "fusion_lat": 0.0, "is_reserved": 0, "rental_uris": {"ios": "https://dc.lft.to/lastmile_qr_scan", "android": "https://dc.lft.to/lastmile_qr_scan"}, "fusion_lon": 0.0, "type": "electric_scooter", "bike_id": "73fd15ae46b5750468116219b9799ae2", "name": "73fd15ae46b5750468116219b9799ae2"}, {"lon": -77.05727783333333, "is_disabled": 0, "lat": 38.933677833333334, "fusion_lat": 0.0, "is_reserved": 0, "rental_uris": {"ios": "https://dc.lft.to/lastmile_qr_scan", "android": "https://dc.lft.to/lastmile_qr_scan"}, "fusion_lon": 0.0, "type": "electric_scooter", "bike_id": "13d39b8403215e2e49bee3bcc59d45d6", "name": "13d39b8403215e2e49bee3bcc59d45d6"}, {"lon": -77.03985566666667, "is_disabled": 0, "lat": 38.90146433333334, "fusion_lat": 0.0, "is_reserved": 0, "rental_uris": {"ios": "https://dc.lft.to/lastmile_qr_scan", "android": "https://dc.lft.to/lastmile_qr_scan"}, "fusion_lon": 0.0, "type": "electric_scooter", "bike_id": "2eea1a801bb0731d8f7012a97e887a5b", "name": "2eea1a801bb0731d8f7012a97e887a5b"}, {"lon": -77.00194833333333, "is_disabled": 0, "lat": 38.9004055, "fusion_lat": 0.0, "is_reserved": 0, "rental_uris": {"ios": "https://dc.lft.to/lastmile_qr_scan", "android": "https://dc.lft.to/lastmile_qr_scan"}, "fusion_lon": 0.0, "type": "electric_scooter", "bike_id": "451f45ef71294d6356dfdc26ba36d635", "name": "451f45ef71294d6356dfdc26ba36d635"}, {"lon": -77.04156333333333, "is_disabled": 0, "lat": 38.905498, "fusion_lat": 0.0, "is_reserved": 0, "rental_uris": {"ios": "https://dc.lft.to/lastmile_qr_scan", "android": "https://dc.lft.to/lastmile_qr_scan"}, "fusion_lon": 0.0, "type": "electric_scooter", "bike_id": "b3f9bd9a9c007dff3c508d168c44cd76", "name": "b3f9bd9a9c007dff3c508d168c44cd76"}, {"lon": -77.04850833333333, "is_disabled": 0, "lat": 38.91526833333333, "fusion_lat": 0.0, "is_reserved": 0, "rental_uris": {"ios": "https://dc.lft.to/lastmile_qr_scan", "android": "https://dc.lft.to/lastmile_qr_scan"}, "fusion_lon": 0.0, "type": "electric_scooter", "bike_id": "4adafbaa6d517c8134b96e0ee7642ec4", "name": "4adafbaa6d517c8134b96e0ee7642ec4"}, {"lon": -77.04352733333333, "is_disabled": 0, "lat": 38.898402833333336, "fusion_lat": 0.0, "is_reserved": 0, "rental_uris": {"ios": "https://dc.lft.to/lastmile_qr_scan", "android": "https://dc.lft.to/lastmile_qr_scan"}, "fusion_lon": 0.0, "type": "electric_scooter", "bike_id": "6d3b1bcf31cd9d709b36e759ac5cd5f5", "name": "6d3b1bcf31cd9d709b36e759ac5cd5f5"}, {"lon": -77.02708766666667, "is_disabled": 0, "lat": 38.8999825, "fusion_lat": 0.0, "is_reserved": 0, "rental_uris": {"ios": "https://dc.lft.to/lastmile_qr_scan", "android": "https://dc.lft.to/lastmile_qr_scan"}, "fusion_lon": 0.0, "type": "electric_scooter", "bike_id": "439eba8fe14d0f62a765d080e901fc88", "name": "439eba8fe14d0f62a765d080e901fc88"}, {"lon": -77.06286833333333, "is_disabled": 0, "lat": 38.905756, "fusion_lat": 0.0, "is_reserved": 0, "rental_uris": {"ios": "https://dc.lft.to/lastmile_qr_scan", "android": "https://dc.lft.to/lastmile_qr_scan"}, "fusion_lon": 0.0, "type": "electric_scooter", "bike_id": "2a641a08646b45aa18c581bd6e1fdd95", "name": "2a641a08646b45aa18c581bd6e1fdd95"}, {"lon": -77.00055683333333, "is_disabled": 0, "lat": 38.88469716666667, "fusion_lat": 0.0, "is_reserved": 0, "rental_uris": {"ios": "https://dc.lft.to/lastmile_qr_scan", "android": "https://dc.lft.to/lastmile_qr_scan"}, "fusion_lon": 0.0, "type": "electric_scooter", "bike_id": "e1d51f0349e94e944046dbe2eeef4b1b", "name": "e1d51f0349e94e944046dbe2eeef4b1b"}, {"lon": -77.04146066666667, "is_disabled": 0, "lat": 38.92650916666667, "fusion_lat": 0.0, "is_reserved": 0, "rental_uris": {"ios": "https://dc.lft.to/lastmile_qr_scan", "android": "https://dc.lft.to/lastmile_qr_scan"}, "fusion_lon": 0.0, "type": "electric_scooter", "bike_id": "793cf118a4fa08b89961c2c85e16c762", "name": "793cf118a4fa08b89961c2c85e16c762"}, {"lon": -76.9990525, "is_disabled": 0, "lat": 38.92327083333333, "fusion_lat": 0.0, "is_reserved": 0, "rental_uris": {"ios": "https://dc.lft.to/lastmile_qr_scan", "android": "https://dc.lft.to/lastmile_qr_scan"}, "fusion_lon": 0.0, "type": "electric_bike", "bike_id": "dcd1800400c1c26d41afd92e22c03fa2", "name": "dcd1800400c1c26d41afd92e22c03fa2"}, {"lon": -77.02801816666667, "is_disabled": 0, "lat": 38.912313166666664, "fusion_lat": 0.0, "is_reserved": 0, "rental_uris": {"ios": "https://dc.lft.to/lastmile_qr_scan", "android": "https://dc.lft.to/lastmile_qr_scan"}, "fusion_lon": 0.0, "type": "electric_scooter", "bike_id": "084cfa780ed37684ec6667316670d255", "name": "084cfa780ed37684ec6667316670d255"}, {"lon": -77.04683483333334, "is_disabled": 0, "lat": 38.902977166666666, "fusion_lat": 0.0, "is_reserved": 0, "rental_uris": {"ios": "https://dc.lft.to/lastmile_qr_scan", "android": "https://dc.lft.to/lastmile_qr_scan"}, "fusion_lon": 0.0, "type": "electric_scooter", "bike_id": "8af844fd53ae76be7654a6d632d38d29", "name": "8af844fd53ae76be7654a6d632d38d29"}, {"lon": -77.04375116666667, "is_disabled": 0, "lat": 38.92236533333333, "fusion_lat": 0.0, "is_reserved": 0, "rental_uris": {"ios": "https://dc.lft.to/lastmile_qr_scan", "android": "https://dc.lft.to/lastmile_qr_scan"}, "fusion_lon": 0.0, "type": "electric_scooter", "bike_id": "6c10f5e06ba8f2945963c2f7751340e1", "name": "6c10f5e06ba8f2945963c2f7751340e1"}, {"lon": -77.0553905, "is_disabled": 0, "lat": 38.93005316666667, "fusion_lat": 0.0, "is_reserved": 0, "rental_uris": {"ios": "https://dc.lft.to/lastmile_qr_scan", "android": "https://dc.lft.to/lastmile_qr_scan"}, "fusion_lon": 0.0, "type": "electric_scooter", "bike_id": "6b5d3d5f18cb94cb18700aa20567a961", "name": "6b5d3d5f18cb94cb18700aa20567a961"}, {"lon": -77.01834433333333, "is_disabled": 0, "lat": 38.92147283333333, "fusion_lat": 0.0, "is_reserved": 0, "rental_uris": {"ios": "https://dc.lft.to/lastmile_qr_scan", "android": "https://dc.lft.to/lastmile_qr_scan"}, "fusion_lon": 0.0, "type": "electric_scooter", "bike_id": "dacbe5adb05a105d0a12d76c66b9e512", "name": "dacbe5adb05a105d0a12d76c66b9e512"}, {"lon": -77.00927066666667, "is_disabled": 0, "lat": 38.91806283333333, "fusion_lat": 0.0, "is_reserved": 0, "rental_uris": {"ios": "https://dc.lft.to/lastmile_qr_scan", "android": "https://dc.lft.to/lastmile_qr_scan"}, "fusion_lon": 0.0, "type": "electric_scooter", "bike_id": "76aca6959dd2c0246972b89256c4b8ae", "name": "76aca6959dd2c0246972b89256c4b8ae"}, {"lon": -77.02825566666667, "is_disabled": 0, "lat": 38.88661783333333, "fusion_lat": 0.0, "is_reserved": 0, "rental_uris": {"ios": "https://dc.lft.to/lastmile_qr_scan", "android": "https://dc.lft.to/lastmile_qr_scan"}, "fusion_lon": 0.0, "type": "electric_scooter", "bike_id": "6190e38c91b22520d2c8fad9f13ddd28", "name": "6190e38c91b22520d2c8fad9f13ddd28"}, {"lon": -77.00341866666666, "is_disabled": 0, "lat": 38.89356433333333, "fusion_lat": 0.0, "is_reserved": 0, "rental_uris": {"ios": "https://dc.lft.to/lastmile_qr_scan", "android": "https://dc.lft.to/lastmile_qr_scan"}, "fusion_lon": 0.0, "type": "electric_scooter", "bike_id": "5ee39192e67e1181431973ddde2984f1", "name": "5ee39192e67e1181431973ddde2984f1"}, {"lon": -77.012669, "is_disabled": 0, "lat": 38.89920583333333, "fusion_lat": 0.0, "is_reserved": 0, "rental_uris": {"ios": "https://dc.lft.to/lastmile_qr_scan", "android": "https://dc.lft.to/lastmile_qr_scan"}, "fusion_lon": 0.0, "type": "electric_scooter", "bike_id": "ffbfd42322d6cf7db6004fc1206506c6", "name": "ffbfd42322d6cf7db6004fc1206506c6"}, {"lon": -76.985127, "is_disabled": 0, "lat": 38.86056516666667, "fusion_lat": 0.0, "is_reserved": 0, "rental_uris": {"ios": "https://dc.lft.to/lastmile_qr_scan", "android": "https://dc.lft.to/lastmile_qr_scan"}, "fusion_lon": 0.0, "type": "electric_scooter", "bike_id": "82f686b5fdae319e632ad7c9032e483f", "name": "82f686b5fdae319e632ad7c9032e483f"}, {"lon": -77.047681, "is_disabled": 0, "lat": 38.91760516666667, "fusion_lat": 0.0, "is_reserved": 0, "rental_uris": {"ios": "https://dc.lft.to/lastmile_qr_scan", "android": "https://dc.lft.to/lastmile_qr_scan"}, "fusion_lon": 0.0, "type": "electric_scooter", "bike_id": "d24484caf3dd399db65694b33b62410d", "name": "d24484caf3dd399db65694b33b62410d"}, {"lon": -77.0438705, "is_disabled": 0, "lat": 38.91101366666667, "fusion_lat": 0.0, "is_reserved": 0, "rental_uris": {"ios": "https://dc.lft.to/lastmile_qr_scan", "android": "https://dc.lft.to/lastmile_qr_scan"}, "fusion_lon": 0.0, "type": "electric_scooter", "bike_id": "862640fa9166f33409209c3c9c5b394d", "name": "862640fa9166f33409209c3c9c5b394d"}, {"lon": -77.03459966666667, "is_disabled": 0, "lat": 38.909536833333334, "fusion_lat": 0.0, "is_reserved": 0, "rental_uris": {"ios": "https://dc.lft.to/lastmile_qr_scan", "android": "https://dc.lft.to/lastmile_qr_scan"}, "fusion_lon": 0.0, "type": "electric_scooter", "bike_id": "2427032d9c658e75e0f97eadabc4a555", "name": "2427032d9c658e75e0f97eadabc4a555"}, {"lon": -77.02362316666667, "is_disabled": 0, "lat": 38.92522433333333, "fusion_lat": 0.0, "is_reserved": 0, "rental_uris": {"ios": "https://dc.lft.to/lastmile_qr_scan", "android": "https://dc.lft.to/lastmile_qr_scan"}, "fusion_lon": 0.0, "type": "electric_scooter", "bike_id": "1de101b3ef01c0af87f94af8a2d8751d", "name": "1de101b3ef01c0af87f94af8a2d8751d"}, {"lon": -77.0343055, "is_disabled": 0, "lat": 38.919189, "fusion_lat": 0.0, "is_reserved": 0, "rental_uris": {"ios": "https://dc.lft.to/lastmile_qr_scan", "android": "https://dc.lft.to/lastmile_qr_scan"}, "fusion_lon": 0.0, "type": "electric_scooter", "bike_id": "4b1f9fcfebdde1e3cc24b8febaad6a2d", "name": "4b1f9fcfebdde1e3cc24b8febaad6a2d"}, {"lon": -77.03188833333333, "is_disabled": 0, "lat": 38.899874833333335, "fusion_lat": 0.0, "is_reserved": 0, "rental_uris": {"ios": "https://dc.lft.to/lastmile_qr_scan", "android": "https://dc.lft.to/lastmile_qr_scan"}, "fusion_lon": 0.0, "type": "electric_scooter", "bike_id": "8febfe8268947db6db1c5fc62f1dae38", "name": "8febfe8268947db6db1c5fc62f1dae38"}, {"lon": -77.02883933333334, "is_disabled": 0, "lat": 38.9988455, "fusion_lat": 0.0, "is_reserved": 0, "rental_uris": {"ios": "https://dc.lft.to/lastmile_qr_scan", "android": "https://dc.lft.to/lastmile_qr_scan"}, "fusion_lon": 0.0, "type": "electric_bike", "bike_id": "7505c4eb3c9aa799d453a5698f882712", "name": "7505c4eb3c9aa799d453a5698f882712"}, {"lon": -77.03170183333333, "is_disabled": 0, "lat": 38.92086616666667, "fusion_lat": 0.0, "is_reserved": 0, "rental_uris": {"ios": "https://dc.lft.to/lastmile_qr_scan", "android": "https://dc.lft.to/lastmile_qr_scan"}, "fusion_lon": 0.0, "type": "electric_scooter", "bike_id": "52cbdc99f26ed896dc41fe0cf68f16e1", "name": "52cbdc99f26ed896dc41fe0cf68f16e1"}, {"lon": -77.02092833333333, "is_disabled": 0, "lat": 38.927104166666666, "fusion_lat": 0.0, "is_reserved": 0, "rental_uris": {"ios": "https://dc.lft.to/lastmile_qr_scan", "android": "https://dc.lft.to/lastmile_qr_scan"}, "fusion_lon": 0.0, "type": "electric_scooter", "bike_id": "49ab44ba198a61fae50d560c3c87b1b0", "name": "49ab44ba198a61fae50d560c3c87b1b0"}, {"lon": -77.02277833333333, "is_disabled": 0, "lat": 38.91567966666667, "fusion_lat": 0.0, "is_reserved": 0, "rental_uris": {"ios": "https://dc.lft.to/lastmile_qr_scan", "android": "https://dc.lft.to/lastmile_qr_scan"}, "fusion_lon": 0.0, "type": "electric_scooter", "bike_id": "625e3e6e8bf499995ad36865fb37b11c", "name": "625e3e6e8bf499995ad36865fb37b11c"}, {"lon": -77.05127933333333, "is_disabled": 0, "lat": 38.906292, "fusion_lat": 0.0, "is_reserved": 0, "rental_uris": {"ios": "https://dc.lft.to/lastmile_qr_scan", "android": "https://dc.lft.to/lastmile_qr_scan"}, "fusion_lon": 0.0, "type": "electric_scooter", "bike_id": "26a7c84879f5cb1f95865f286143fc4e", "name": "26a7c84879f5cb1f95865f286143fc4e"}, {"lon": -77.034318, "is_disabled": 0, "lat": 38.91923216666667, "fusion_lat": 0.0, "is_reserved": 0, "rental_uris": {"ios": "https://dc.lft.to/lastmile_qr_scan", "android": "https://dc.lft.to/lastmile_qr_scan"}, "fusion_lon": 0.0, "type": "electric_scooter", "bike_id": "a8ca90b3d96bab97c9300031c050140c", "name": "a8ca90b3d96bab97c9300031c050140c"}, {"lon": -77.03285666666666, "is_disabled": 0, "lat": 38.898977, "fusion_lat": 0.0, "is_reserved": 0, "rental_uris": {"ios": "https://dc.lft.to/lastmile_qr_scan", "android": "https://dc.lft.to/lastmile_qr_scan"}, "fusion_lon": 0.0, "type": "electric_scooter", "bike_id": "19d47015e9c427fea448a1210cf68812", "name": "19d47015e9c427fea448a1210cf68812"}, {"lon": -77.03301316666666, "is_disabled": 0, "lat": 38.92454016666667, "fusion_lat": 0.0, "is_reserved": 0, "rental_uris": {"ios": "https://dc.lft.to/lastmile_qr_scan", "android": "https://dc.lft.to/lastmile_qr_scan"}, "fusion_lon": 0.0, "type": "electric_scooter", "bike_id": "eee8e29cd95bdd6011f0bbe3f1d2d1b6", "name": "eee8e29cd95bdd6011f0bbe3f1d2d1b6"}, {"lon": -77.08626766666667, "is_disabled": 0, "lat": 38.80977716666666, "fusion_lat": 0.0, "is_reserved": 0, "rental_uris": {"ios": "https://dc.lft.to/lastmile_qr_scan", "android": "https://dc.lft.to/lastmile_qr_scan"}, "fusion_lon": 0.0, "type": "electric_bike", "bike_id": "5ebf2cec3fdfcc73fe573d2427e78910", "name": "5ebf2cec3fdfcc73fe573d2427e78910"}, {"lon": -77.03673116666667, "is_disabled": 0, "lat": 38.931722666666666, "fusion_lat": 0.0, "is_reserved": 0, "rental_uris": {"ios": "https://dc.lft.to/lastmile_qr_scan", "android": "https://dc.lft.to/lastmile_qr_scan"}, "fusion_lon": 0.0, "type": "electric_scooter", "bike_id": "f6e2f36eb6fb475efb9be06fc632bf4e", "name": "f6e2f36eb6fb475efb9be06fc632bf4e"}, {"lon": -77.02222416666666, "is_disabled": 0, "lat": 38.89222516666667, "fusion_lat": 0.0, "is_reserved": 0, "rental_uris": {"ios": "https://dc.lft.to/lastmile_qr_scan", "android": "https://dc.lft.to/lastmile_qr_scan"}, "fusion_lon": 0.0, "type": "electric_scooter", "bike_id": "f8b26634fa05726cb41ac6694e1ba55d", "name": "f8b26634fa05726cb41ac6694e1ba55d"}, {"lon": -77.05002133333333, "is_disabled": 0, "lat": 38.892375666666666, "fusion_lat": 0.0, "is_reserved": 0, "rental_uris": {"ios": "https://dc.lft.to/lastmile_qr_scan", "android": "https://dc.lft.to/lastmile_qr_scan"}, "fusion_lon": 0.0, "type": "electric_scooter", "bike_id": "a9f7e93c14c45b826efc2e9f61151a8c", "name": "a9f7e93c14c45b826efc2e9f61151a8c"}, {"lon": -77.02803566666667, "is_disabled": 0, "lat": 38.89608583333333, "fusion_lat": 0.0, "is_reserved": 0, "rental_uris": {"ios": "https://dc.lft.to/lastmile_qr_scan", "android": "https://dc.lft.to/lastmile_qr_scan"}, "fusion_lon": 0.0, "type": "electric_scooter", "bike_id": "2c10ac5284f3e8fe53372faca5c13c40", "name": "2c10ac5284f3e8fe53372faca5c13c40"}, {"lon": -77.04204466666667, "is_disabled": 0, "lat": 38.903814, "fusion_lat": 0.0, "is_reserved": 0, "rental_uris": {"ios": "https://dc.lft.to/lastmile_qr_scan", "android": "https://dc.lft.to/lastmile_qr_scan"}, "fusion_lon": 0.0, "type": "electric_scooter", "bike_id": "a49e6201afb56f279f4617fcd20e8c97", "name": "a49e6201afb56f279f4617fcd20e8c97"}, {"lon": -77.0454555, "is_disabled": 0, "lat": 38.9346515, "fusion_lat": 0.0, "is_reserved": 0, "rental_uris": {"ios": "https://dc.lft.to/lastmile_qr_scan", "android": "https://dc.lft.to/lastmile_qr_scan"}, "fusion_lon": 0.0, "type": "electric_scooter", "bike_id": "3757dd90096861cf9379b7c8cdd03f5a", "name": "3757dd90096861cf9379b7c8cdd03f5a"}, {"lon": -77.042078, "is_disabled": 0, "lat": 38.90741666666667, "fusion_lat": 0.0, "is_reserved": 0, "rental_uris": {"ios": "https://dc.lft.to/lastmile_qr_scan", "android": "https://dc.lft.to/lastmile_qr_scan"}, "fusion_lon": 0.0, "type": "electric_scooter", "bike_id": "46613cb068906aa8e717afdf045b5fce", "name": "46613cb068906aa8e717afdf045b5fce"}, {"lon": -77.03819566666667, "is_disabled": 0, "lat": 38.91959, "fusion_lat": 0.0, "is_reserved": 0, "rental_uris": {"ios": "https://dc.lft.to/lastmile_qr_scan", "android": "https://dc.lft.to/lastmile_qr_scan"}, "fusion_lon": 0.0, "type": "electric_scooter", "bike_id": "f9e16fd7f2bb6c3950e067187d8f7a79", "name": "f9e16fd7f2bb6c3950e067187d8f7a79"}, {"lon": -77.03170916666667, "is_disabled": 0, "lat": 38.91825866666667, "fusion_lat": 0.0, "is_reserved": 0, "rental_uris": {"ios": "https://dc.lft.to/lastmile_qr_scan", "android": "https://dc.lft.to/lastmile_qr_scan"}, "fusion_lon": 0.0, "type": "electric_scooter", "bike_id": "c7ed25856f7cf228962bdafd5399ea86", "name": "c7ed25856f7cf228962bdafd5399ea86"}, {"lon": -77.04201, "is_disabled": 0, "lat": 38.922521333333336, "fusion_lat": 0.0, "is_reserved": 0, "rental_uris": {"ios": "https://dc.lft.to/lastmile_qr_scan", "android": "https://dc.lft.to/lastmile_qr_scan"}, "fusion_lon": 0.0, "type": "electric_scooter", "bike_id": "b4dc08d73c35387ce676db8cf8b7236a", "name": "b4dc08d73c35387ce676db8cf8b7236a"}, {"lon": -77.02407016666666, "is_disabled": 0, "lat": 38.907012, "fusion_lat": 0.0, "is_reserved": 0, "rental_uris": {"ios": "https://dc.lft.to/lastmile_qr_scan", "android": "https://dc.lft.to/lastmile_qr_scan"}, "fusion_lon": 0.0, "type": "electric_scooter", "bike_id": "e8f49bbb9203987538cb4a3c2f38543f", "name": "e8f49bbb9203987538cb4a3c2f38543f"}, {"lon": -76.94765516666666, "is_disabled": 0, "lat": 38.89624833333333, "fusion_lat": 0.0, "is_reserved": 0, "rental_uris": {"ios": "https://dc.lft.to/lastmile_qr_scan", "android": "https://dc.lft.to/lastmile_qr_scan"}, "fusion_lon": 0.0, "type": "electric_scooter", "bike_id": "1e26eb1cade61c64fe04d0986913a5f6", "name": "1e26eb1cade61c64fe04d0986913a5f6"}, {"lon": -77.03387183333334, "is_disabled": 0, "lat": 38.938484833333334, "fusion_lat": 0.0, "is_reserved": 0, "rental_uris": {"ios": "https://dc.lft.to/lastmile_qr_scan", "android": "https://dc.lft.to/lastmile_qr_scan"}, "fusion_lon": 0.0, "type": "electric_scooter", "bike_id": "28b4b6b69a00ff423be60faad8a7e694", "name": "28b4b6b69a00ff423be60faad8a7e694"}, {"lon": -76.98056816666667, "is_disabled": 0, "lat": 38.885364333333335, "fusion_lat": 0.0, "is_reserved": 0, "rental_uris": {"ios": "https://dc.lft.to/lastmile_qr_scan", "android": "https://dc.lft.to/lastmile_qr_scan"}, "fusion_lon": 0.0, "type": "electric_scooter", "bike_id": "2e92563938cb6871477513312f798f2d", "name": "2e92563938cb6871477513312f798f2d"}, {"lon": -76.9857245, "is_disabled": 0, "lat": 38.86683766666667, "fusion_lat": 0.0, "is_reserved": 0, "rental_uris": {"ios": "https://dc.lft.to/lastmile_qr_scan", "android": "https://dc.lft.to/lastmile_qr_scan"}, "fusion_lon": 0.0, "type": "electric_scooter", "bike_id": "08fb58bbfc62eafa2895af0707269f64", "name": "08fb58bbfc62eafa2895af0707269f64"}, {"lon": -77.0131115, "is_disabled": 0, "lat": 38.90139833333333, "fusion_lat": 0.0, "is_reserved": 0, "rental_uris": {"ios": "https://dc.lft.to/lastmile_qr_scan", "android": "https://dc.lft.to/lastmile_qr_scan"}, "fusion_lon": 0.0, "type": "electric_scooter", "bike_id": "1a09856db7a93dfa969bb970b991c0d7", "name": "1a09856db7a93dfa969bb970b991c0d7"}, {"lon": -77.02471866666667, "is_disabled": 0, "lat": 38.93757566666667, "fusion_lat": 0.0, "is_reserved": 0, "rental_uris": {"ios": "https://dc.lft.to/lastmile_qr_scan", "android": "https://dc.lft.to/lastmile_qr_scan"}, "fusion_lon": 0.0, "type": "electric_scooter", "bike_id": "a6bcb85a1d26adb650031d50fef815d9", "name": "a6bcb85a1d26adb650031d50fef815d9"}, {"lon": -76.9797675, "is_disabled": 0, "lat": 38.897495666666664, "fusion_lat": 0.0, "is_reserved": 0, "rental_uris": {"ios": "https://dc.lft.to/lastmile_qr_scan", "android": "https://dc.lft.to/lastmile_qr_scan"}, "fusion_lon": 0.0, "type": "electric_scooter", "bike_id": "ac91a5a579ea7e04b19bde94b24dccb3", "name": "ac91a5a579ea7e04b19bde94b24dccb3"}, {"lon": -77.023851, "is_disabled": 0, "lat": 38.9897485, "fusion_lat": 0.0, "is_reserved": 0, "rental_uris": {"ios": "https://dc.lft.to/lastmile_qr_scan", "android": "https://dc.lft.to/lastmile_qr_scan"}, "fusion_lon": 0.0, "type": "electric_bike", "bike_id": "084fb18421137194b8c902b0452af2eb", "name": "084fb18421137194b8c902b0452af2eb"}, {"lon": -77.0216335, "is_disabled": 0, "lat": 38.89891316666667, "fusion_lat": 0.0, "is_reserved": 0, "rental_uris": {"ios": "https://dc.lft.to/lastmile_qr_scan", "android": "https://dc.lft.to/lastmile_qr_scan"}, "fusion_lon": 0.0, "type": "electric_scooter", "bike_id": "60d65eda58b52d6217afe343e41154f5", "name": "60d65eda58b52d6217afe343e41154f5"}, {"lon": -77.04175433333333, "is_disabled": 0, "lat": 38.90535966666667, "fusion_lat": 0.0, "is_reserved": 0, "rental_uris": {"ios": "https://dc.lft.to/lastmile_qr_scan", "android": "https://dc.lft.to/lastmile_qr_scan"}, "fusion_lon": 0.0, "type": "electric_scooter", "bike_id": "b476a391f9eb7fada974feee495b65ac", "name": "b476a391f9eb7fada974feee495b65ac"}, {"lon": -77.04571433333334, "is_disabled": 0, "lat": 38.902378, "fusion_lat": 0.0, "is_reserved": 0, "rental_uris": {"ios": "https://dc.lft.to/lastmile_qr_scan", "android": "https://dc.lft.to/lastmile_qr_scan"}, "fusion_lon": 0.0, "type": "electric_scooter", "bike_id": "2f8d221ce80accf0f4186ebd7cd456b0", "name": "2f8d221ce80accf0f4186ebd7cd456b0"}, {"lon": -77.07268316666666, "is_disabled": 0, "lat": 38.934853, "fusion_lat": 0.0, "is_reserved": 0, "rental_uris": {"ios": "https://dc.lft.to/lastmile_qr_scan", "android": "https://dc.lft.to/lastmile_qr_scan"}, "fusion_lon": 0.0, "type": "electric_scooter", "bike_id": "7aca10fff6d5157cb8bb3aadbd1d9b2e", "name": "7aca10fff6d5157cb8bb3aadbd1d9b2e"}, {"lon": -77.038398, "is_disabled": 0, "lat": 38.902628166666666, "fusion_lat": 0.0, "is_reserved": 0, "rental_uris": {"ios": "https://dc.lft.to/lastmile_qr_scan", "android": "https://dc.lft.to/lastmile_qr_scan"}, "fusion_lon": 0.0, "type": "electric_scooter", "bike_id": "37ed8d573942cff63cdb8b30b4d7b227", "name": "37ed8d573942cff63cdb8b30b4d7b227"}, {"lon": -77.02693266666667, "is_disabled": 0, "lat": 38.90875533333333, "fusion_lat": 0.0, "is_reserved": 0, "rental_uris": {"ios": "https://dc.lft.to/lastmile_qr_scan", "android": "https://dc.lft.to/lastmile_qr_scan"}, "fusion_lon": 0.0, "type": "electric_scooter", "bike_id": "fd2a32a23e9ef37a5550371950d5f846", "name": "fd2a32a23e9ef37a5550371950d5f846"}, {"lon": -77.13474666666667, "is_disabled": 0, "lat": 38.853576333333336, "fusion_lat": 0.0, "is_reserved": 0, "rental_uris": {"ios": "https://dc.lft.to/lastmile_qr_scan", "android": "https://dc.lft.to/lastmile_qr_scan"}, "fusion_lon": 0.0, "type": "electric_bike", "bike_id": "3427d73353cbfabcb87308e07fec202b", "name": "3427d73353cbfabcb87308e07fec202b"}, {"lon": -77.02139116666666, "is_disabled": 0, "lat": 38.91554216666667, "fusion_lat": 0.0, "is_reserved": 0, "rental_uris": {"ios": "https://dc.lft.to/lastmile_qr_scan", "android": "https://dc.lft.to/lastmile_qr_scan"}, "fusion_lon": 0.0, "type": "electric_scooter", "bike_id": "d9d6a88fb164e59e1dba1b7f83b80ccd", "name": "d9d6a88fb164e59e1dba1b7f83b80ccd"}, {"lon": -76.98601116666667, "is_disabled": 0, "lat": 38.903701166666664, "fusion_lat": 0.0, "is_reserved": 0, "rental_uris": {"ios": "https://dc.lft.to/lastmile_qr_scan", "android": "https://dc.lft.to/lastmile_qr_scan"}, "fusion_lon": 0.0, "type": "electric_scooter", "bike_id": "e12076be9a902cc041dd439ac8d119db", "name": "e12076be9a902cc041dd439ac8d119db"}, {"lon": -77.05070916666666, "is_disabled": 0, "lat": 38.92535783333334, "fusion_lat": 0.0, "is_reserved": 0, "rental_uris": {"ios": "https://dc.lft.to/lastmile_qr_scan", "android": "https://dc.lft.to/lastmile_qr_scan"}, "fusion_lon": 0.0, "type": "electric_scooter", "bike_id": "6e0135ca109858b88ba304aaed6db63f", "name": "6e0135ca109858b88ba304aaed6db63f"}, {"lon": -77.04319183333334, "is_disabled": 0, "lat": 38.905918, "fusion_lat": 0.0, "is_reserved": 0, "rental_uris": {"ios": "https://dc.lft.to/lastmile_qr_scan", "android": "https://dc.lft.to/lastmile_qr_scan"}, "fusion_lon": 0.0, "type": "electric_scooter", "bike_id": "092fbb2c962b3a8cccb01cccfd32d504", "name": "092fbb2c962b3a8cccb01cccfd32d504"}, {"lon": -77.02723883333333, "is_disabled": 0, "lat": 38.90024716666667, "fusion_lat": 0.0, "is_reserved": 0, "rental_uris": {"ios": "https://dc.lft.to/lastmile_qr_scan", "android": "https://dc.lft.to/lastmile_qr_scan"}, "fusion_lon": 0.0, "type": "electric_scooter", "bike_id": "23c67ef0b57aa3997b0f827fecaeb2d2", "name": "23c67ef0b57aa3997b0f827fecaeb2d2"}, {"lon": -77.00071383333334, "is_disabled": 0, "lat": 38.901419, "fusion_lat": 0.0, "is_reserved": 0, "rental_uris": {"ios": "https://dc.lft.to/lastmile_qr_scan", "android": "https://dc.lft.to/lastmile_qr_scan"}, "fusion_lon": 0.0, "type": "electric_scooter", "bike_id": "ed828e11fd74ca8f3d29cb6a97093fac", "name": "ed828e11fd74ca8f3d29cb6a97093fac"}, {"lon": -77.01956533333333, "is_disabled": 0, "lat": 38.924224, "fusion_lat": 0.0, "is_reserved": 0, "rental_uris": {"ios": "https://dc.lft.to/lastmile_qr_scan", "android": "https://dc.lft.to/lastmile_qr_scan"}, "fusion_lon": 0.0, "type": "electric_scooter", "bike_id": "8fc1765c375ad7e9dd2c5ea60bb85936", "name": "8fc1765c375ad7e9dd2c5ea60bb85936"}, {"lon": -77.017708, "is_disabled": 0, "lat": 38.9205905, "fusion_lat": 0.0, "is_reserved": 0, "rental_uris": {"ios": "https://dc.lft.to/lastmile_qr_scan", "android": "https://dc.lft.to/lastmile_qr_scan"}, "fusion_lon": 0.0, "type": "electric_scooter", "bike_id": "8361096bef2b852ccce6c91a70d94af1", "name": "8361096bef2b852ccce6c91a70d94af1"}, {"lon": -77.041547, "is_disabled": 0, "lat": 38.90654583333333, "fusion_lat": 0.0, "is_reserved": 0, "rental_uris": {"ios": "https://dc.lft.to/lastmile_qr_scan", "android": "https://dc.lft.to/lastmile_qr_scan"}, "fusion_lon": 0.0, "type": "electric_scooter", "bike_id": "8d1d81d0b500a1b9d64d02a906f0fb88", "name": "8d1d81d0b500a1b9d64d02a906f0fb88"}, {"lon": -77.032155, "is_disabled": 0, "lat": 38.9185495, "fusion_lat": 0.0, "is_reserved": 0, "rental_uris": {"ios": "https://dc.lft.to/lastmile_qr_scan", "android": "https://dc.lft.to/lastmile_qr_scan"}, "fusion_lon": 0.0, "type": "electric_scooter", "bike_id": "01f4afec31bdeccd854c2377369b0ee1", "name": "01f4afec31bdeccd854c2377369b0ee1"}, {"lon": -76.99625833333333, "is_disabled": 0, "lat": 38.900675166666666, "fusion_lat": 0.0, "is_reserved": 0, "rental_uris": {"ios": "https://dc.lft.to/lastmile_qr_scan", "android": "https://dc.lft.to/lastmile_qr_scan"}, "fusion_lon": 0.0, "type": "electric_scooter", "bike_id": "3f59112c8b2e3983f0ce49c3ebb9e974", "name": "3f59112c8b2e3983f0ce49c3ebb9e974"}, {"lon": -77.02791883333333, "is_disabled": 0, "lat": 38.92973116666667, "fusion_lat": 0.0, "is_reserved": 0, "rental_uris": {"ios": "https://dc.lft.to/lastmile_qr_scan", "android": "https://dc.lft.to/lastmile_qr_scan"}, "fusion_lon": 0.0, "type": "electric_scooter", "bike_id": "c6b213024f7ec7b9449082d2e16c019d", "name": "c6b213024f7ec7b9449082d2e16c019d"}, {"lon": -77.04359783333334, "is_disabled": 0, "lat": 38.90524966666667, "fusion_lat": 0.0, "is_reserved": 0, "rental_uris": {"ios": "https://dc.lft.to/lastmile_qr_scan", "android": "https://dc.lft.to/lastmile_qr_scan"}, "fusion_lon": 0.0, "type": "electric_scooter", "bike_id": "6068b358b23c232ecce95160a3ef226a", "name": "6068b358b23c232ecce95160a3ef226a"}, {"lon": -77.02798383333334, "is_disabled": 0, "lat": 38.929689833333335, "fusion_lat": 0.0, "is_reserved": 0, "rental_uris": {"ios": "https://dc.lft.to/lastmile_qr_scan", "android": "https://dc.lft.to/lastmile_qr_scan"}, "fusion_lon": 0.0, "type": "electric_scooter", "bike_id": "5efb0dfa5dfd9515cb343d397fb2ab94", "name": "5efb0dfa5dfd9515cb343d397fb2ab94"},