{"data": {"bikes": [{"lat": 38.906025166666666, "type": "electric_bike", "is_disabled": 0, "name": "9fb2b55c925979e2d538307b7d454bc6", "bike_id": "9fb2b55c925979e2d538307b7d454bc6", "fusion_lon": 0.0, "rental_uris": {"ios": "https://dc.lft.to/lastmile_qr_scan", "android": "https://dc.lft.to/lastmile_qr_scan"}, "is_reserved": 0, "fusion_lat": 0.0, "lon": -77.12878033333334}, {"lat": 38.90492833333333, "type": "electric_scooter", "is_disabled": 0, "name": "cb1db6b10c3d897efdf301f6c3027d4a", "bike_id": "cb1db6b10c3d897efdf301f6c3027d4a", "fusion_lon": 0.0, "rental_uris": {"ios": "https://dc.lft.to/lastmile_qr_scan", "android": "https://dc.lft.to/lastmile_qr_scan"}, "is_reserved": 0, "fusion_lat": 0.0, "lon": -77.02715866666666}, {"lat": 38.900265, "type": "electric_scooter", "is_disabled": 0, "name": "e46a6e3a98097d950151be400faf4fec", "bike_id": "e46a6e3a98097d950151be400faf4fec", "fusion_lon": 0.0, "rental_uris": {"ios": "https://dc.lft.to/lastmile_qr_scan", "android": "https://dc.lft.to/lastmile_qr_scan"}, "is_reserved": 0, "fusion_lat": 0.0, "lon": -76.9875825}, {"lat": 38.922496333333335, "type": "electric_scooter", "is_disabled": 0, "name": "d9a0d71ddcda550f28db697ada1d0245", "bike_id": "d9a0d71ddcda550f28db697ada1d0245", "fusion_lon": 0.0, "rental_uris": {"ios": "https://dc.lft.to/lastmile_qr_scan", "android": "https://dc.lft.to/lastmile_qr_scan"}, "is_reserved": 0, "fusion_lat": 0.0, "lon": -77.0306505}, {"lat": 38.896070333333334, "type": "electric_scooter", "is_disabled": 0, "name": "3c3bf584e766fd50e753134205870ed2", "bike_id": "3c3bf584e766fd50e753134205870ed2", "fusion_lon": 0.0, "rental_uris": {"ios": "https://dc.lft.to/lastmile_qr_scan", "android": "https://dc.lft.to/lastmile_qr_scan"}, "is_reserved": 0, "fusion_lat": 0.0, "lon": -77.045159}, {"lat": 38.902236333333335, "type": "electric_scooter", "is_disabled": 0, "name": "e22b5c94bbd01b9389d933078b529754", "bike_id": "e22b5c94bbd01b9389d933078b529754", "fusion_lon": 0.0, "rental_uris": {"ios": "https://dc.lft.to/lastmile_qr_scan", "android": "https://dc.lft.to/lastmile_qr_scan"}, "is_reserved": 0, "fusion_lat": 0.0, "lon": -77.00881033333333}, {"lat": 38.90103716666667, "type": "electric_scooter", "is_disabled": 0, "name": "5a39c90336e4b83376e0e6b58547cadb", "bike_id": "5a39c90336e4b83376e0e6b58547cadb", "fusion_lon": 0.0, "rental_uris": {"ios": "https://dc.lft.to/lastmile_qr_scan", "android": "https://dc.lft.to/lastmile_qr_scan"}, "is_reserved": 0, "fusion_lat": 0.0, "lon": -77.02274933333334}, {"lat": 38.926386, "type": "electric_scooter", "is_disabled": 0, "name": "98d50fc56093db61791cb0440bc07b09", "bike_id": "98d50fc56093db61791cb0440bc07b09", "fusion_lon": 0.0, "rental_uris": {"ios": "https://dc.lft.to/lastmile_qr_scan", "android": "https://dc.lft.to/lastmile_qr_scan"}, "is_reserved": 0, "fusion_lat": 0.0, "lon": -77.03704833333333}, {"lat": 38.90810483333333, "type": "electric_scooter", "is_disabled": 0, "name": "2001a9bf2814733ee537d3fce98e36b3", "bike_id": "2001a9bf2814733ee537d3fce98e36b3", "fusion_lon": 0.0, "rental_uris": {"ios": "https://dc.lft.to/lastmile_qr_scan", "android": "https://dc.lft.to/lastmile_qr_scan"}, "is_reserved": 0, "fusion_lat": 0.0, "lon": -77.0394955}, {"lat": 38.880501333333335, "type": "electric_scooter", "is_disabled": 0, "name": "76436dfeb7a056cd414c4d77cfabf508", "bike_id": "76436dfeb7a056cd414c4d77cfabf508", "fusion_lon": 0.0, "rental_uris": {"ios": "https://dc.lft.to/lastmile_qr_scan", "android": "https://dc.lft.to/lastmile_qr_scan"}, "is_reserved": 0, "fusion_lat": 0.0, "lon": -77.0116545}, {"lat": 38.89575466666667, "type": "electric_scooter", "is_disabled": 0, "name": "afda7f4d1d725583143a438920a327b6", "bike_id": "afda7f4d1d725583143a438920a327b6", "fusion_lon": 0.0, "rental_uris": {"ios": "https://dc.lft.to/lastmile_qr_scan", "android": "https://dc.lft.to/lastmile_qr_scan"}, "is_reserved": 0, "fusion_lat": 0.0, "lon": -77.03182533333333}, {"lat": 38.88514983333334, "type": "electric_scooter", "is_disabled": 0, "name": "b9c264a95e9b08cb6eb5f3a0d196c518", "bike_id": "b9c264a95e9b08cb6eb5f3a0d196c518", "fusion_lon": 0.0, "rental_uris": {"ios": "https://dc.lft.to/lastmile_qr_scan", "android": "https://dc.lft.to/lastmile_qr_scan"}, "is_reserved": 0, "fusion_lat": 0.0, "lon": -77.02104966666667}, {"lat": 38.922621, "type": "electric_scooter", "is_disabled": 0, "name": "299e65d30dd4ea1109c18db12d735bfd", "bike_id": "299e65d30dd4ea1109c18db12d735bfd", "fusion_lon": 0.0, "rental_uris": {"ios": "https://dc.lft.to/lastmile_qr_scan", "android": "https://dc.lft.to/lastmile_qr_scan"}, "is_reserved": 0, "fusion_lat": 0.0, "lon": -77.01951233333334}, {"lat": 38.92590466666667, "type": "electric_scooter", "is_disabled": 0, "name": "eec17204e38a079fdaff7feed394c8c6", "bike_id": "eec17204e38a079fdaff7feed394c8c6", "fusion_lon": 0.0, "rental_uris": {"ios": "https://dc.lft.to/lastmile_qr_scan", "android": "https://dc.lft.to/lastmile_qr_scan"}, "is_reserved": 0, "fusion_lat": 0.0, "lon": -77.00917333333334}, {"lat": 38.916032666666666, "type": "electric_scooter", "is_disabled": 0, "name": "5f3a9ff01bf5fb0889d11cacbfd48cfd", "bike_id": "5f3a9ff01bf5fb0889d11cacbfd48cfd", "fusion_lon": 0.0, "rental_uris": {"ios": "https://dc.lft.to/lastmile_qr_scan", "android": "https://dc.lft.to/lastmile_qr_scan"}, "is_reserved": 0, "fusion_lat": 0.0, "lon": -77.04623683333334}, {"lat": 38.9362675, "type": "electric_scooter", "is_disabled": 0, "name": "f6b462c19c94ae3c8b51054ef82bb4e9", "bike_id": "f6b462c19c94ae3c8b51054ef82bb4e9", "fusion_lon": 0.0, "rental_uris": {"ios": "https://dc.lft.to/lastmile_qr_scan", "android": "https://dc.lft.to/lastmile_qr_scan"}, "is_reserved": 0, "fusion_lat": 0.0, "lon": -77.06432083333333}, {"lat": 38.896143333333335, "type": "electric_scooter", "is_disabled": 0, "name": "64f9460617a0130f14c32a74e50badf6", "bike_id": "64f9460617a0130f14c32a74e50badf6", "fusion_lon": 0.0, "rental_uris": {"ios": "https://dc.lft.to/lastmile_qr_scan", "android": "https://dc.lft.to/lastmile_qr_scan"}, "is_reserved": 0, "fusion_lat": 0.0, "lon": -77.04410916666667}, {"lat": 38.989371166666665, "type": "electric_bike", "is_disabled": 0, "name": "dc1baefdf34bf73fca9bf9209a23778e", "bike_id": "dc1baefdf34bf73fca9bf9209a23778e", "fusion_lon": 0.0, "rental_uris": {"ios": "https://dc.lft.to/lastmile_qr_scan", "android": "https://dc.lft.to/lastmile_qr_scan"}, "is_reserved": 0, "fusion_lat": 0.0, "lon": -77.10104016666666}, {"lat": 38.9194665, "type": "electric_scooter", "is_disabled": 0, "name": "e9d572317fc913ecc9da6dd04db99aee", "bike_id": "e9d572317fc913ecc9da6dd04db99aee", "fusion_lon": 0.0, "rental_uris": {"ios": "https://dc.lft.to/lastmile_qr_scan", "android": "https://dc.lft.to/lastmile_qr_scan"}, "is_reserved": 0, "fusion_lat": 0.0, "lon": -77.019142}, {"lat": 38.9237305, "type": "electric_scooter", "is_disabled": 0, "name": "454a8a4e648aba8f2c0e54f5908f17cb", "bike_id": "454a8a4e648aba8f2c0e54f5908f17cb", "fusion_lon": 0.0, "rental_uris": {"ios": "https://dc.lft.to/lastmile_qr_scan", "android": "https://dc.lft.to/lastmile_qr_scan"}, "is_reserved": 0, "fusion_lat": 0.0, "lon": -77.01913933333333}, {"lat": 38.91405066666667, "type": "electric_scooter", "is_disabled": 0, "name": "46fb4d403126190f888c4d680aa20b1b", "bike_id": "46fb4d403126190f888c4d680aa20b1b", "fusion_lon": 0.0, "rental_uris": {"ios": "https://dc.lft.to/lastmile_qr_scan", "android": "https://dc.lft.to/lastmile_qr_scan"}, "is_reserved": 0, "fusion_lat": 0.0, "lon": -77.01822133333333}, {"lat": 38.907889, "type": "electric_scooter", "is_disabled": 0, "name": "e272a26ccdb74396b248a412dcdd9293", "bike_id": "e272a26ccdb74396b248a412dcdd9293", "fusion_lon": 0.0, "rental_uris": {"ios": "https://dc.lft.to/lastmile_qr_scan", "android": "https://dc.lft.to/lastmile_qr_scan"}, "is_reserved": 0, "fusion_lat": 0.0, "lon": -76.99729083333334}, {"lat": 38.89957583333333, "type": "electric_scooter", "is_disabled": 0, "name": "2cb06f380ba81fbf83b168b4b4cac758", "bike_id": "2cb06f380ba81fbf83b168b4b4cac758", "fusion_lon": 0.0, "rental_uris": {"ios": "https://dc.lft.to/lastmile_qr_scan", "android": "https://dc.lft.to/lastmile_qr_scan"}, "is_reserved": 0, "fusion_lat": 0.0, "lon": -77.0450695}, {"lat": 38.89954816666667, "type": "electric_scooter", "is_disabled": 0, "name": "5f1c10d3f8f883f1e4581ecb3937df4c", "bike_id": "5f1c10d3f8f883f1e4581ecb3937df4c", "fusion_lon": 0.0, "rental_uris": {"ios": "https://dc.lft.to/lastmile_qr_scan", "android": "https://dc.lft.to/lastmile_qr_scan"}, "is_reserved": 0, "fusion_lat": 0.0, "lon": -77.02012083333334}, {"lat": 38.90175766666667, "type": "electric_scooter", "is_disabled": 0, "name": "87ee8282429c45977fb2bec070058749", "bike_id": "87ee8282429c45977fb2bec070058749", "fusion_lon": 0.0, "rental_uris": {"ios": "https://dc.lft.to/lastmile_qr_scan", "android": "https://dc.lft.to/lastmile_qr_scan"}, "is_reserved": 0, "fusion_lat": 0.0, "lon": -77.05003433333333}, {"lat": 38.89747416666667, "type": "electric_scooter", "is_disabled": 0, "name": "7cb3162aa89025dfa850e6b94ff18401", "bike_id": "7cb3162aa89025dfa850e6b94ff18401", "fusion_lon": 0.0, "rental_uris": {"ios": "https://dc.lft.to/lastmile_qr_scan", "android": "https://dc.lft.to/lastmile_qr_scan"}, "is_reserved": 0, "fusion_lat": 0.0, "lon": -77.02208033333334}, {"lat": 38.97344966666667, "type": "electric_bike", "is_disabled": 0, "name": "738f991b8d69b013eec560f8804900ea", "bike_id": "738f991b8d69b013eec560f8804900ea", "fusion_lon": 0.0, "rental_uris": {"ios": "https://dc.lft.to/lastmile_qr_scan", "android": "https://dc.lft.to/lastmile_qr_scan"}, "is_reserved": 0, "fusion_lat": 0.0, "lon": -76.99593616666667}, {"lat": 38.92220483333333, "type": "electric_scooter", "is_disabled": 0, "name": "6f813251ab54ab907e2e8a0b9ac7ee6d", "bike_id": "6f813251ab54ab907e2e8a0b9ac7ee6d", "fusion_lon": 0.0, "rental_uris": {"ios": "https://dc.lft.to/lastmile_qr_scan", "android": "https://dc.lft.to/lastmile_qr_scan"}, "is_reserved": 0, "fusion_lat": 0.0, "lon": -77.02127566666667}, {"lat": 38.858728666666664, "type": "electric_scooter", "is_disabled": 0, "name": "1cfe4ba0284857a6189809b85a64ded4", "bike_id": "1cfe4ba0284857a6189809b85a64ded4", "fusion_lon": 0.0, "rental_uris": {"ios": "https://dc.lft.to/lastmile_qr_scan", "android": "https://dc.lft.to/lastmile_qr_scan"}, "is_reserved": 0, "fusion_lat": 0.0, "lon": -76.98941783333333}, {"lat": 38.9352535, "type": "electric_scooter", "is_disabled": 0, "name": "0d17e9d294ab36b90f4cbfc9abc68e53", "bike_id": "0d17e9d294ab36b90f4cbfc9abc68e53", "fusion_lon": 0.0, "rental_uris": {"ios": "https://dc.lft.to/lastmile_qr_scan", "android": "https://dc.lft.to/lastmile_qr_scan"}, "is_reserved": 0, "fusion_lat": 0.0, "lon": -77.02351083333333}, {"lat": 38.920511833333336, "type": "electric_scooter", "is_disabled": 0, "name": "e4de5c9b2383e4ac4716217696e93ea0", "bike_id": "e4de5c9b2383e4ac4716217696e93ea0", "fusion_lon": 0.0, "rental_uris": {"ios": "https://dc.lft.to/lastmile_qr_scan", "android": "https://dc.lft.to/lastmile_qr_scan"}, "is_reserved": 0, "fusion_lat": 0.0, "lon": -76.984324}, {"lat": 38.87720483333333, "type": "electric_scooter", "is_disabled": 0, "name": "099ada417ab339f8f80ae3136361c1e1", "bike_id": "099ada417ab339f8f80ae3136361c1e1", "fusion_lon": 0.0, "rental_uris": {"ios": "https://dc.lft.to/lastmile_qr_scan", "android": "https://dc.lft.to/lastmile_qr_scan"}, "is_reserved": 0, "fusion_lat": 0.0, "lon": -77.01756633333333}, {"lat": 38.91340116666667, "type": "electric_scooter", "is_disabled": 0, "name": "d9332c079783f251033e585df3962460", "bike_id": "d9332c079783f251033e585df3962460", "fusion_lon": 0.0, "rental_uris": {"ios": "https://dc.lft.to/lastmile_qr_scan", "android": "https://dc.lft.to/lastmile_qr_scan"}, "is_reserved": 0, "fusion_lat": 0.0, "lon": -77.02044433333333}, {"lat": 38.913245, "type": "electric_scooter", "is_disabled": 0, "name": "d4dd4b47c1baa6449b1d0a8b762dabea", "bike_id": "d4dd4b47c1baa6449b1d0a8b762dabea", "fusion_lon": 0.0, "rental_uris": {"ios": "https://dc.lft.to/lastmile_qr_scan", "android": "https://dc.lft.to/lastmile_qr_scan"}, "is_reserved": 0, "fusion_lat": 0.0, "lon": -77.04539666666666}, {"lat": 38.900588666666664, "type": "electric_scooter", "is_disabled": 0, "name": "71a99d4d3ae97ec4e03f5d7eda559e3e", "bike_id": "71a99d4d3ae97ec4e03f5d7eda559e3e", "fusion_lon": 0.0, "rental_uris": {"ios": "https://dc.lft.to/lastmile_qr_scan", "android": "https://dc.lft.to/lastmile_qr_scan"}, "is_reserved": 0, "fusion_lat": 0.0, "lon": -76.98487666666666}, {"lat": 38.92411083333333, "type": "electric_scooter", "is_disabled": 0, "name": "a0ebffed6e30771942edf34d760ccc06", "bike_id": "a0ebffed6e30771942edf34d760ccc06", "fusion_lon": 0.0, "rental_uris": {"ios": "https://dc.lft.to/lastmile_qr_scan", "android": "https://dc.lft.to/lastmile_qr_scan"}, "is_reserved": 0, "fusion_lat": 0.0, "lon": -77.0203665}, {"lat": 39.04230666666667, "type": "electric_bike", "is_disabled": 0, "name": "b1026399e4c17797b18df559b2c07d46", "bike_id": "b1026399e4c17797b18df559b2c07d46", "fusion_lon": 0.0, "rental_uris": {"ios": "https://dc.lft.to/lastmile_qr_scan", "android": "https://dc.lft.to/lastmile_qr_scan"}, "is_reserved": 0, "fusion_lat": 0.0, "lon": -76.99737266666666}, {"lat": 38.92963233333333, "type": "electric_scooter", "is_disabled": 0, "name": "556b04835cbc76f9dc378e4869bf37a1", "bike_id": "556b04835cbc76f9dc378e4869bf37a1", "fusion_lon": 0.0, "rental_uris": {"ios": "https://dc.lft.to/lastmile_qr_scan", "android": "https://dc.lft.to/lastmile_qr_scan"}, "is_reserved": 0, "fusion_lat": 0.0, "lon": -77.04113866666667}, {"lat": 38.905047833333334, "type": "electric_scooter", "is_disabled": 0, "name": "9a974b8f8b6b1dd2a3fe4d5915f0aa37", "bike_id": "9a974b8f8b6b1dd2a3fe4d5915f0aa37", "fusion_lon": 0.0, "rental_uris": {"ios": "https://dc.lft.to/lastmile_qr_scan", "android": "https://dc.lft.to/lastmile_qr_scan"}, "is_reserved": 0, "fusion_lat": 0.0, "lon": -77.054856}, {"lat": 38.919386333333335, "type": "electric_scooter", "is_disabled": 0, "name": "b7a12a43990e28080eecc3a818f03f98", "bike_id": "b7a12a43990e28080eecc3a818f03f98", "fusion_lon": 0.0, "rental_uris": {"ios": "https://dc.lft.to/lastmile_qr_scan", "android": "https://dc.lft.to/lastmile_qr_scan"}, "is_reserved": 0, "fusion_lat": 0.0, "lon": -77.01801866666666}, {"lat": 38.921172166666665, "type": "electric_scooter", "is_disabled": 0, "name": "5b2c7d49f80b8f9b8d1ce8f0172a67ae", "bike_id": "5b2c7d49f80b8f9b8d1ce8f0172a67ae", "fusion_lon": 0.0, "rental_uris": {"ios": "https://dc.lft.to/lastmile_qr_scan", "android": "https://dc.lft.to/lastmile_qr_scan"}, "is_reserved": 0, "fusion_lat": 0.0, "lon": -77.02067416666667}, {"lat": 38.936583, "type": "electric_scooter", "is_disabled": 0, "name": "b39656161b7a599cc7a85664f6430eb8", "bike_id": "b39656161b7a599cc7a85664f6430eb8", "fusion_lon": 0.0, "rental_uris": {"ios": "https://dc.lft.to/lastmile_qr_scan", "android": "https://dc.lft.to/lastmile_qr_scan"}, "is_reserved": 0, "fusion_lat": 0.0, "lon": -77.06609116666667}, {"lat": 38.88269283333333, "type": "electric_scooter", "is_disabled": 0, "name": "4b759d40931ac96b32c99081ad34f743", "bike_id": "4b759d40931ac96b32c99081ad34f743", "fusion_lon": 0.0, "rental_uris": {"ios": "https://dc.lft.to/lastmile_qr_scan", "android": "https://dc.lft.to/lastmile_qr_scan"}, "is_reserved": 0, "fusion_lat": 0.0, "lon": -77.0035765}, {"lat": 38.900392333333336, "type": "electric_scooter", "is_disabled": 0, "name": "918f0302e1ec52e807b5e0feaa8b95ad", "bike_id": "918f0302e1ec52e807b5e0feaa8b95ad", "fusion_lon": 0.0, "rental_uris": {"ios": "https://dc.lft.to/lastmile_qr_scan", "android": "https://dc.lft.to/lastmile_qr_scan"}, "is_reserved": 0, "fusion_lat": 0.0, "lon": -77.02406083333334}, {"lat": 38.88640916666667, "type": "electric_scooter", "is_disabled": 0, "name": "dc7c0092f81cc357679212ee11bfc8c4", "bike_id": "dc7c0092f81cc357679212ee11bfc8c4", "fusion_lon": 0.0, "rental_uris": {"ios": "https://dc.lft.to/lastmile_qr_scan", "android": "https://dc.lft.to/lastmile_qr_scan"}, "is_reserved": 0, "fusion_lat": 0.0, "lon": -77.002083}, {"lat": 38.91196733333334, "type": "electric_scooter", "is_disabled": 0, "name": "00dcd7a77dc8e1fb2eea0837e04250cc", "bike_id": "00dcd7a77dc8e1fb2eea0837e04250cc", "fusion_lon": 0.0, "rental_uris": {"ios": "https://dc.lft.to/lastmile_qr_scan", "android": "https://dc.lft.to/lastmile_qr_scan"}, "is_reserved": 0, "fusion_lat": 0.0, "lon": -77.01979683333333}, {"lat": 38.8861765, "type": "electric_scooter", "is_disabled": 0, "name": "c142fc4a25f41f510bfd48a646b2ca0f", "bike_id": "c142fc4a25f41f510bfd48a646b2ca0f", "fusion_lon": 0.0, "rental_uris": {"ios": "https://dc.lft.to/lastmile_qr_scan", "android": "https://dc.lft.to/lastmile_qr_scan"}, "is_reserved": 0, "fusion_lat": 0.0, "lon": -77.01516066666667}, {"lat": 38.8994575, "type": "electric_scooter", "is_disabled": 0, "name": "1f8e87806872d579bbe0056d37e63e68", "bike_id": "1f8e87806872d579bbe0056d37e63e68", "fusion_lon": 0.0, "rental_uris": {"ios": "https://dc.lft.to/lastmile_qr_scan", "android": "https://dc.lft.to/lastmile_qr_scan"}, "is_reserved": 0, "fusion_lat": 0.0, "lon": -77.01447883333333}, {"lat": 38.918176833333334, "type": "electric_scooter", "is_disabled": 0, "name": "59d07cfc9125209a3ca1805bbb86e688", "bike_id": "59d07cfc9125209a3ca1805bbb86e688", "fusion_lon": 0.0, "rental_uris": {"ios": "https://dc.lft.to/lastmile_qr_scan", "android": "https://dc.lft.to/lastmile_qr_scan"}, "is_reserved": 0, "fusion_lat": 0.0, "lon": -77.03826233333334}, {"lat": 38.8983385, "type": "electric_scooter", "is_disabled": 0, "name": "2f7ce307400609d4ab4509319a1c2d53", "bike_id": "2f7ce307400609d4ab4509319a1c2d53", "fusion_lon": 0.0, "rental_uris": {"ios": "https://dc.lft.to/lastmile_qr_scan", "android": "https://dc.lft.to/lastmile_qr_scan"}, "is_reserved": 0, "fusion_lat": 0.0, "lon": -76.94644533333333}, {"lat": 38.9143965, "type": "electric_scooter", "is_disabled": 0, "name": "f97e7603610d1e82a43571cffe003383", "bike_id": "f97e7603610d1e82a43571cffe003383", "fusion_lon": 0.0, "rental_uris": {"ios": "https://dc.lft.to/lastmile_qr_scan", "android": "https://dc.lft.to/lastmile_qr_scan"}, "is_reserved": 0, "fusion_lat": 0.0, "lon": -77.01819166666667}, {"lat": 38.892175333333334, "type": "electric_scooter", "is_disabled": 0, "name": "2f0d1b0b2ee1ad79aa11207703ef9654", "bike_id": "2f0d1b0b2ee1ad79aa11207703ef9654", "fusion_lon": 0.0, "rental_uris": {"ios": "https://dc.lft.to/lastmile_qr_scan", "android": "https://dc.lft.to/lastmile_qr_scan"}, "is_reserved": 0, "fusion_lat": 0.0, "lon": -77.04645733333334}, {"lat": 38.91114816666666, "type": "electric_scooter", "is_disabled": 0, "name": "7c6adc352935cf2d5bd93ffb1f743698", "bike_id": "7c6adc352935cf2d5bd93ffb1f743698", "fusion_lon": 0.0, "rental_uris": {"ios": "https://dc.lft.to/lastmile_qr_scan", "android": "https://dc.lft.to/lastmile_qr_scan"}, "is_reserved": 0, "fusion_lat": 0.0, "lon": -77.00610333333333}, {"lat": 38.91241016666667, "type": "electric_scooter", "is_disabled": 0, "name": "91e029c80effa7452ea3e7fd078e58ed", "bike_id": "91e029c80effa7452ea3e7fd078e58ed", "fusion_lon": 0.0, "rental_uris": {"ios": "https://dc.lft.to/lastmile_qr_scan", "android": "https://dc.lft.to/lastmile_qr_scan"}, "is_reserved": 0, "fusion_lat": 0.0, "lon": -76.98670916666667}, {"lat": 38.9236555, "type": "electric_scooter", "is_disabled": 0, "name": "a93cb9462075e400f181348e0e1e0405", "bike_id": "a93cb9462075e400f181348e0e1e0405", "fusion_lon": 0.0, "rental_uris": {"ios": "https://dc.lft.to/lastmile_qr_scan", "android": "https://dc.lft.to/lastmile_qr_scan"}, "is_reserved": 0, "fusion_lat": 0.0, "lon": -77.05028216666666}, {"lat": 38.9191255, "type": "electric_scooter", "is_disabled": 0, "name": "5ecd7814690b7aef013ae228e69dfe1f", "bike_id": "5ecd7814690b7aef013ae228e69dfe1f", "fusion_lon": 0.0, "rental_uris": {"ios": "https://dc.lft.to/lastmile_qr_scan", "android": "https://dc.lft.to/lastmile_qr_scan"}, "is_reserved": 0, "fusion_lat": 0.0, "lon": -77.02137666666667}, {"lat": 38.896977666666665, "type": "electric_scooter", "is_disabled": 0, "name": "d5602b68884ad4ac336d7f53ff1cb7ee", "bike_id": "d5602b68884ad4ac336d7f53ff1cb7ee", "fusion_lon": 0.0, "rental_uris": {"ios": "https://dc.lft.to/lastmile_qr_scan", "android": "https://dc.lft.to/lastmile_qr_scan"}, "is_reserved": 0, "fusion_lat": 0.0, "lon": -77.0219245}, {"lat": 38.897342, "type": "electric_scooter", "is_disabled": 0, "name": "d8f12991e0b49179cb7ee97e7a3fdcf6", "bike_id": "d8f12991e0b49179cb7ee97e7a3fdcf6", "fusion_lon": 0.0, "rental_uris": {"ios": "https://dc.lft.to/lastmile_qr_scan", "android": "https://dc.lft.to/lastmile_qr_scan"}, "is_reserved": 0, "fusion_lat": 0.0, "lon": -77.024898}, {"lat": 38.91853316666667, "type": "electric_bike", "is_disabled": 0, "name": "9854e892f7114de214d1cf4eff30d3cc", "bike_id": "9854e892f7114de214d1cf4eff30d3cc", "fusion_lon": 0.0, "rental_uris": {"ios": "https://dc.lft.to/lastmile_qr_scan", "android": "https://dc.lft.to/lastmile_qr_scan"}, "is_reserved": 0, "fusion_lat": 0.0, "lon": -76.96082116666666}, {"lat": 38.948942, "type": "electric_scooter", "is_disabled": 0, "name": "ebb4f21daf0c3e07a4c5eb00cea68939", "bike_id": "ebb4f21daf0c3e07a4c5eb00cea68939", "fusion_lon": 0.0, "rental_uris": {"ios": "https://dc.lft.to/lastmile_qr_scan", "android": "https://dc.lft.to/lastmile_qr_scan"}, "is_reserved": 0, "fusion_lat": 0.0, "lon": -77.0333855}, {"lat": 38.91738516666667, "type": "electric_scooter", "is_disabled": 0, "name": "ec5b9c042c7c00670064fc14fc326a59", "bike_id": "ec5b9c042c7c00670064fc14fc326a59", "fusion_lon": 0.0, "rental_uris": {"ios": "https://dc.lft.to/lastmile_qr_scan", "android": "https://dc.lft.to/lastmile_qr_scan"}, "is_reserved": 0, "fusion_lat": 0.0, "lon": -77.02114666666667}, {"lat": 38.90151016666667, "type": "electric_scooter", "is_disabled": 0, "name": "980428abccf4dafc1efbb97bcb8ef5d0", "bike_id": "980428abccf4dafc1efbb97bcb8ef5d0", "fusion_lon": 0.0, "rental_uris": {"ios": "https://dc.lft.to/lastmile_qr_scan", "android": "https://dc.lft.to/lastmile_qr_scan"}, "is_reserved": 0, "fusion_lat": 0.0, "lon": -76.974267}, {"lat": 38.922113833333334, "type": "electric_scooter", "is_disabled": 0, "name": "e248e53fdf14668eba18669e6314c97a", "bike_id": "e248e53fdf14668eba18669e6314c97a", "fusion_lon": 0.0, "rental_uris": {"ios": "https://dc.lft.to/lastmile_qr_scan", "android": "https://dc.lft.to/lastmile_qr_scan"}, "is_reserved": 0, "fusion_lat": 0.0, "lon": -77.04261383333333}, {"lat": 38.886249666666664, "type": "electric_scooter", "is_disabled": 0, "name": "c89b975638d613795323411fab16f575", "bike_id": "c89b975638d613795323411fab16f575", "fusion_lon": 0.0, "rental_uris": {"ios": "https://dc.lft.to/lastmile_qr_scan", "android": "https://dc.lft.to/lastmile_qr_scan"}, "is_reserved": 0, "fusion_lat": 0.0, "lon": -77.02160516666666}, {"lat": 38.909682833333335, "type": "electric_scooter", "is_disabled": 0, "name": "d54edb696276bf03f69c82e9e459c078", "bike_id": "d54edb696276bf03f69c82e9e459c078", "fusion_lon": 0.0, "rental_uris": {"ios": "https://dc.lft.to/lastmile_qr_scan", "android": "https://dc.lft.to/lastmile_qr_scan"}, "is_reserved": 0, "fusion_lat": 0.0, "lon": -77.04522766666666}, {"lat": 38.891969, "type": "electric_scooter", "is_disabled": 0, "name": "1bd033b0f0ba8b6d52756e6809cec3e1", "bike_id": "1bd033b0f0ba8b6d52756e6809cec3e1", "fusion_lon": 0.0, "rental_uris": {"ios": "https://dc.lft.to/lastmile_qr_scan", "android": "https://dc.lft.to/lastmile_qr_scan"}, "is_reserved": 0, "fusion_lat": 0.0, "lon": -77.00296233333333}, {"lat": 38.91720183333334, "type": "electric_scooter", "is_disabled": 0, "name": "dd1738d33f823db6836d237e3b538091", "bike_id": "dd1738d33f823db6836d237e3b538091", "fusion_lon": 0.0, "rental_uris": {"ios": "https://dc.lft.to/lastmile_qr_scan", "android": "https://dc.lft.to/lastmile_qr_scan"}, "is_reserved": 0, "fusion_lat": 0.0, "lon": -77.03216866666666}, {"lat": 38.89504566666667, "type": "electric_scooter", "is_disabled": 0, "name": "65a4415226c11df6e39f096d8f15abdd", "bike_id": "65a4415226c11df6e39f096d8f15abdd", "fusion_lon": 0.0, "rental_uris": {"ios": "https://dc.lft.to/lastmile_qr_scan", "android": "https://dc.lft.to/lastmile_qr_scan"}, "is_reserved": 0, "fusion_lat": 0.0, "lon": -77.04641583333333}, {"lat": 38.898974, "type": "electric_scooter", "is_disabled": 0, "name": "46fd1e3fa7984a52266f2b8e3df9baeb", "bike_id": "46fd1e3fa7984a52266f2b8e3df9baeb", "fusion_lon": 0.0, "rental_uris": {"ios": "https://dc.lft.to/lastmile_qr_scan", "android": "https://dc.lft.to/lastmile_qr_scan"}, "is_reserved": 0, "fusion_lat": 0.0, "lon": -77.04038366666667}, {"lat": 38.87182116666666, "type": "electric_scooter", "is_disabled": 0, "name": "1f06a3435783e14fd831367193960bf8", "bike_id": "1f06a3435783e14fd831367193960bf8", "fusion_lon": 0.0, "rental_uris": {"ios": "https://dc.lft.to/lastmile_qr_scan", "android": "https://dc.lft.to/lastmile_qr_scan"}, "is_reserved": 0, "fusion_lat": 0.0, "lon": -77.00645266666666}, {"lat": 38.92463016666667, "type": "electric_scooter", "is_disabled": 0, "name": "1e423f60581d37b985ae24f5625c62ba", "bike_id": "1e423f60581d37b985ae24f5625c62ba", "fusion_lon": 0.0, "rental_uris": {"ios": "https://dc.lft.to/lastmile_qr_scan", "android": "https://dc.lft.to/lastmile_qr_scan"}, "is_reserved": 0, "fusion_lat": 0.0, "lon": -77.03380933333334}, {"lat": 38.897398, "type": "electric_scooter", "is_disabled": 0, "name": "fb89119cf700e617f3ebf5b1f87cf90a", "bike_id": "fb89119cf700e617f3ebf5b1f87cf90a", "fusion_lon": 0.0, "rental_uris": {"ios": "https://dc.lft.to/lastmile_qr_scan", "android": "https://dc.lft.to/lastmile_qr_scan"}, "is_reserved": 0, "fusion_lat": 0.0, "lon": -76.9757815}, {"lat": 38.90901516666667, "type": "electric_scooter", "is_disabled": 0, "name": "e70e93e78b37580962791506b60165e7", "bike_id": "e70e93e78b37580962791506b60165e7", "fusion_lon": 0.0, "rental_uris": {"ios": "https://dc.lft.to/lastmile_qr_scan", "android": "https://dc.lft.to/lastmile_qr_scan"}, "is_reserved": 0, "fusion_lat": 0.0, "lon": -77.03380833333334}, {"lat": 38.92149333333333, "type": "electric_scooter", "is_disabled": 0, "name": "b1bf573af1b62282e697dcf005bae753", "bike_id": "b1bf573af1b62282e697dcf005bae753", "fusion_lon": 0.0, "rental_uris": {"ios": "https://dc.lft.to/lastmile_qr_scan", "android": "https://dc.lft.to/lastmile_qr_scan"}, "is_reserved": 0, "fusion_lat": 0.0, "lon": -77.03535683333334}, {"lat": 38.89231866666667, "type": "electric_scooter", "is_disabled": 0, "name": "4cd7900d4e70e03eb52072ef1d89b6ea", "bike_id": "4cd7900d4e70e03eb52072ef1d89b6ea", "fusion_lon": 0.0, "rental_uris": {"ios": "https://dc.lft.to/lastmile_qr_scan", "android": "https://dc.lft.to/lastmile_qr_scan"}, "is_reserved": 0, "fusion_lat": 0.0, "lon": -77.03183666666666}, {"lat": 38.920644833333334, "type": "electric_scooter", "is_disabled": 0, "name": "cd718370227ef3c26e27680ac9b90880", "bike_id": "cd718370227ef3c26e27680ac9b90880", "fusion_lon": 0.0, "rental_uris": {"ios": "https://dc.lft.to/lastmile_qr_scan", "android": "https://dc.lft.to/lastmile_qr_scan"}, "is_reserved": 0, "fusion_lat": 0.0, "lon": -77.04255116666667}, {"lat": 38.9285905, "type": "electric_scooter", "is_disabled": 0, "name": "6d104a22f62363773ac912bc70f9fe50", "bike_id": "6d104a22f62363773ac912bc70f9fe50", "fusion_lon": 0.0, "rental_uris": {"ios": "https://dc.lft.to/lastmile_qr_scan", "android": "https://dc.lft.to/lastmile_qr_scan"}, "is_reserved": 0, "fusion_lat": 0.0, "lon": -77.01420183333333}, {"lat": 38.9255515, "type": "electric_scooter", "is_disabled": 0, "name": "81bde96cd5d84861c514008ef753b678", "bike_id": "81bde96cd5d84861c514008ef753b678", "fusion_lon": 0.0, "rental_uris": {"ios": "https://dc.lft.to/lastmile_qr_scan", "android": "https://dc.lft.to/lastmile_qr_scan"}, "is_reserved": 0, "fusion_lat": 0.0, "lon": -77.0214595}, {"lat": 38.87881216666667, "type": "electric_scooter", "is_disabled": 0, "name": "ce8e7e7426f34cfedf1b1d23759edfe2", "bike_id": "ce8e7e7426f34cfedf1b1d23759edfe2", "fusion_lon": 0.0, "rental_uris": {"ios": "https://dc.lft.to/lastmile_qr_scan", "android": "https://dc.lft.to/lastmile_qr_scan"}, "is_reserved": 0, "fusion_lat": 0.0, "lon": -77.00045333333334}, {"lat": 38.896100833333335, "type": "electric_scooter", "is_disabled": 0, "name": "764120edac2b81130c9001bc5bdbe50a", "bike_id": "764120edac2b81130c9001bc5bdbe50a", "fusion_lon": 0.0, "rental_uris": {"ios": "https://dc.lft.to/lastmile_qr_scan", "android": "https://dc.lft.to/lastmile_qr_scan"}, "is_reserved": 0, "fusion_lat": 0.0, "lon": -77.046534}, {"lat": 38.944102, "type": "electric_scooter", "is_disabled": 0, "name": "c4cb693f2bdd7f39f3967b1cca500a13", "bike_id": "c4cb693f2bdd7f39f3967b1cca500a13", "fusion_lon": 0.0, "rental_uris": {"ios": "https://dc.lft.to/lastmile_qr_scan", "android": "https://dc.lft.to/lastmile_qr_scan"}, "is_reserved": 0, "fusion_lat": 0.0, "lon": -77.06330916666667}, {"lat": 38.9129055, "type": "electric_scooter", "is_disabled": 0, "name": "af2efb1c56df9eccb790eaa7c1c72648", "bike_id": "af2efb1c56df9eccb790eaa7c1c72648", "fusion_lon": 0.0, "rental_uris": {"ios": "https://dc.lft.to/lastmile_qr_scan", "android": "https://dc.lft.to/lastmile_qr_scan"}, "is_reserved": 0, "fusion_lat": 0.0, "lon": -76.98541}, {"lat": 38.922589333333335, "type": "electric_scooter", "is_disabled": 0, "name": "0f31bd546da0981a2b77923908771091", "bike_id": "0f31bd546da0981a2b77923908771091", "fusion_lon": 0.0, "rental_uris": {"ios": "https://dc.lft.to/lastmile_qr_scan", "android": "https://dc.lft.to/lastmile_qr_scan"}, "is_reserved": 0, "fusion_lat": 0.0, "lon": -77.0195245}, {"lat": 38.887083833333335, "type": "electric_scooter", "is_disabled": 0, "name": "3a8a9d669fe8f2b03ffddc0cdb73831c", "bike_id": "3a8a9d669fe8f2b03ffddc0cdb73831c", "fusion_lon": 0.0, "rental_uris": {"ios": "https://dc.lft.to/lastmile_qr_scan", "android": "https://dc.lft.to/lastmile_qr_scan"}, "is_reserved": 0, "fusion_lat": 0.0, "lon": -77.02838783333333}, {"lat": 38.92256916666667, "type": "electric_scooter", "is_disabled": 0, "name": "3e47b0e05b2473dc4b1b97f44a8a5192", "bike_id": "3e47b0e05b2473dc4b1b97f44a8a5192", "fusion_lon": 0.0, "rental_uris": {"ios": "https://dc.lft.to/lastmile_qr_scan", "android": "https://dc.lft.to/lastmile_qr_scan"}, "is_reserved": 0, "fusion_lat": 0.0, "lon": -77.019513}, {"lat": 38.89371766666667, "type": "electric_scooter", "is_disabled": 0, "name": "9e2a3fad59bd0b732dc289e95400f2ec", "bike_id": "9e2a3fad59bd0b732dc289e95400f2ec", "fusion_lon": 0.0, "rental_uris": {"ios": "https://dc.lft.to/lastmile_qr_scan", "android": "https://dc.lft.to/lastmile_qr_scan"}, "is_reserved": 0, "fusion_lat": 0.0, "lon": -77.00346183333333}, {"lat": 38.944505666666664, "type": "electric_scooter", "is_disabled": 0, "name": "3c6057491faeebdd53a3eb9efe59ef49", "bike_id": "3c6057491faeebdd53a3eb9efe59ef49", "fusion_lon": 0.0, "rental_uris": {"ios": "https://dc.lft.to/lastmile_qr_scan", "android": "https://dc.lft.to/lastmile_qr_scan"}, "is_reserved": 0, "fusion_lat": 0.0, "lon": -77.06354333333333}, {"lat": 38.90385066666666, "type": "electric_scooter", "is_disabled": 0, "name": "29bfc12975c0841425ba10f227edde6b", "bike_id": "29bfc12975c0841425ba10f227edde6b", "fusion_lon": 0.0, "rental_uris": {"ios": "https://dc.lft.to/lastmile_qr_scan", "android": "https://dc.lft.to/lastmile_qr_scan"}, "is_reserved": 0, "fusion_lat": 0.0, "lon": -77.038611}, {"lat": 38.935416333333336, "type": "electric_scooter", "is_disabled": 0, "name": "943d02128eed1dd67fea036c2b94d2a6", "bike_id": "943d02128eed1dd67fea036c2b94d2a6", "fusion_lon": 0.0, "rental_uris": {"ios": "https://dc.lft.to/lastmile_qr_scan", "android": "https://dc.lft.to/lastmile_qr_scan"}, "is_reserved": 0, "fusion_lat": 0.0, "lon": -77.07288633333333}, {"lat": 38.955411, "type": "electric_bike", "is_disabled": 0, "name": "794d497676f51aedf03d551d97d83f8e", "bike_id": "794d497676f51aedf03d551d97d83f8e", "fusion_lon": 0.0, "rental_uris": {"ios": "https://dc.lft.to/lastmile_qr_scan", "android": "https://dc.lft.to/lastmile_qr_scan"}, "is_reserved": 0, "fusion_lat": 0.0, "lon": -76.96848616666666}, {"lat": 38.900272, "type": "electric_scooter", "is_disabled": 0, "name": "d1d9904e7c3d93fbee8b9b541a51968b", "bike_id": "d1d9904e7c3d93fbee8b9b541a51968b", "fusion_lon": 0.0, "rental_uris": {"ios": "https://dc.lft.to/lastmile_qr_scan", "android": "https://dc.lft.to/lastmile_qr_scan"}, "is_reserved": 0, "fusion_lat": 0.0, "lon": -76.9909585}, {"lat": 38.902611666666665, "type": "electric_scooter", "is_disabled": 0, "name": "d19884b64c6dec34f35b9b281927cc1a", "bike_id": "d19884b64c6dec34f35b9b281927cc1a", "fusion_lon": 0.0, "rental_uris": {"ios": "https://dc.lft.to/lastmile_qr_scan", "android": "https://dc.lft.to/lastmile_qr_scan"}, "is_reserved": 0, "fusion_lat": 0.0, "lon": -77.03424183333334}, {"lat": 38.88793183333333, "type": "electric_scooter", "is_disabled": 0, "name": "a8631131ea3f9dc94facac102e355bf8", "bike_id": "a8631131ea3f9dc94facac102e355bf8", "fusion_lon": 0.0, "rental_uris": {"ios": "https://dc.lft.to/lastmile_qr_scan", "android": "https://dc.lft.to/lastmile_qr_scan"}, "is_reserved": 0, "fusion_lat": 0.0, "lon": -76.95335366666667}, {"lat": 38.925023, "type": "electric_scooter", "is_disabled": 0, "name": "95551ebf9c57616b049c717aa3d164a8", "bike_id": "95551ebf9c57616b049c717aa3d164a8", "fusion_lon": 0.0, "rental_uris": {"ios": "https://dc.lft.to/lastmile_qr_scan", "android": "https://dc.lft.to/lastmile_qr_scan"}, "is_reserved": 0, "fusion_lat": 0.0, "lon": -77.0257605}, {"lat": 38.925104166666664, "type": "electric_scooter", "is_disabled": 0, "name": "8dd60d3b6e4c82e707c7f8d714b3e0b0", "bike_id": "8dd60d3b6e4c82e707c7f8d714b3e0b0", "fusion_lon": 0.0, "rental_uris": {"ios": "https://dc.lft.to/lastmile_qr_scan", "android": "https://dc.lft.to/lastmile_qr_scan"}, "is_reserved": 0, "fusion_lat": 0.0, "lon": -77.00229383333334}, {"lat": 38.8799605, "type": "electric_scooter", "is_disabled": 0, "name": "a6307579799b6c78e19717eb58ab0194", "bike_id": "a6307579799b6c78e19717eb58ab0194", "fusion_lon": 0.0, "rental_uris": {"ios": "https://dc.lft.to/lastmile_qr_scan", "android": "https://dc.lft.to/lastmile_qr_scan"}, "is_reserved": 0, "fusion_lat": 0.0, "lon": -76.98544633333333}, {"lat": 38.89739083333333, "type": "electric_scooter", "is_disabled": 0, "name": "7fbf9a90632bd6ac6b049e3ec2dfeb95", "bike_id": "7fbf9a90632bd6ac6b049e3ec2dfeb95", "fusion_lon": 0.0, "rental_uris": {"ios": "https://dc.lft.to/lastmile_qr_scan", "android": "https://dc.lft.to/lastmile_qr_scan"}, "is_reserved": 0, "fusion_lat": 0.0, "lon": -77.0250035}, {"lat": 38.9013595, "type": "electric_scooter", "is_disabled": 0, "name": "9dc7f3880fa2ab250fd48b0997abaa2a", "bike_id": "9dc7f3880fa2ab250fd48b0997abaa2a", "fusion_lon": 0.0, "rental_uris": {"ios": "https://dc.lft.to/lastmile_qr_scan", "android": "https://dc.lft.to/lastmile_qr_scan"}, "is_reserved": 0, "fusion_lat": 0.0, "lon": -76.98967516666667}, {"lat": 38.905299666666664, "type": "electric_scooter", "is_disabled": 0, "name": "2c40c5ea3e060269cbf93a71565b2fae", "bike_id": "2c40c5ea3e060269cbf93a71565b2fae", "fusion_lon": 0.0, "rental_uris": {"ios": "https://dc.lft.to/lastmile_qr_scan", "android": "https://dc.lft.to/lastmile_qr_scan"}, "is_reserved": 0, "fusion_lat": 0.0, "lon": -77.06098883333334}, {"lat": 38.90391433333333, "type": "electric_scooter", "is_disabled": 0, "name": "eebad3e00a5e7b7dcb0df7f50874c0c0", "bike_id": "eebad3e00a5e7b7dcb0df7f50874c0c0", "fusion_lon": 0.0, "rental_uris": {"ios": "https://dc.lft.to/lastmile_qr_scan", "android": "https://dc.lft.to/lastmile_qr_scan"}, "is_reserved": 0, "fusion_lat": 0.0, "lon": -76.98108166666667}, {"lat": 38.92077883333333, "type": "electric_scooter", "is_disabled": 0, "name": "5d1087c357c0ab03021751a264634ccf", "bike_id": "5d1087c357c0ab03021751a264634ccf", "fusion_lon": 0.0, "rental_uris": {"ios": "https://dc.lft.to/lastmile_qr_scan", "android": "https://dc.lft.to/lastmile_qr_scan"}, "is_reserved": 0, "fusion_lat": 0.0, "lon": -77.0327365}, {"lat": 38.89257966666667, "type": "electric_scooter", "is_disabled": 0, "name": "247a73fb18cbe38256052377720cf89d", "bike_id": "247a73fb18cbe38256052377720cf89d", "fusion_lon": 0.0, "rental_uris": {"ios": "https://dc.lft.to/lastmile_qr_scan", "android": "https://dc.lft.to/lastmile_qr_scan"}, "is_reserved": 0, "fusion_lat": 0.0, "lon": -77.00213666666667}, {"lat": 38.916477666666665, "type": "electric_scooter", "is_disabled": 0, "name": "ddaa75c6add6e6643d0dbf7364d64c54", "bike_id": "ddaa75c6add6e6643d0dbf7364d64c54", "fusion_lon": 0.0, "rental_uris": {"ios": "https://dc.lft.to/lastmile_qr_scan", "android": "https://dc.lft.to/lastmile_qr_scan"}, "is_reserved": 0, "fusion_lat": 0.0, "lon": -77.04820066666667}, {"lat": 38.90040883333333, "type": "electric_scooter", "is_disabled": 0, "name": "82620fc0a9cdf1a80f7acff5ff7ab7cb", "bike_id": "82620fc0a9cdf1a80f7acff5ff7ab7cb", "fusion_lon": 0.0, "rental_uris": {"ios": "https://dc.lft.to/lastmile_qr_scan", "android": "https://dc.lft.to/lastmile_qr_scan"}, "is_reserved": 0, "fusion_lat": 0.0, "lon": -77.04359566666666}, {"lat": 38.89236316666667, "type": "electric_scooter", "is_disabled": 0, "name": "5e1817cf897152a18c404051af8c75f5", "bike_id": "5e1817cf897152a18c404051af8c75f5", "fusion_lon": 0.0, "rental_uris": {"ios": "https://dc.lft.to/lastmile_qr_scan", "android": "https://dc.lft.to/lastmile_qr_scan"}, "is_reserved": 0, "fusion_lat": 0.0, "lon": -77.03207933333333}, {"lat": 38.903727333333336, "type": "electric_scooter", "is_disabled": 0, "name": "95a0d816c632fe2458d7699ec192042e", "bike_id": "95a0d816c632fe2458d7699ec192042e", "fusion_lon": 0.0, "rental_uris": {"ios": "https://dc.lft.to/lastmile_qr_scan", "android": "https://dc.lft.to/lastmile_qr_scan"}, "is_reserved": 0, "fusion_lat": 0.0, "lon": -77.06847}, {"lat": 38.88710316666667, "type": "electric_scooter", "is_disabled": 0, "name": "ad39408d3918d295125bf573cc8b5803", "bike_id": "ad39408d3918d295125bf573cc8b5803", "fusion_lon": 0.0, "rental_uris": {"ios": "https://dc.lft.to/lastmile_qr_scan", "android": "https://dc.lft.to/lastmile_qr_scan"}, "is_reserved": 0, "fusion_lat": 0.0, "lon": -77.02831383333333}, {"lat": 38.903392833333335, "type": "electric_scooter", "is_disabled": 0, "name": "5d1c10fd663fbc388f94db6b1778df3a", "bike_id": "5d1c10fd663fbc388f94db6b1778df3a", "fusion_lon": 0.0, "rental_uris": {"ios": "https://dc.lft.to/lastmile_qr_scan", "android": "https://dc.lft.to/lastmile_qr_scan"}, "is_reserved": 0, "fusion_lat": 0.0, "lon": -76.982772}, {"lat": 38.9275605, "type": "electric_scooter", "is_disabled": 0, "name": "f27b61b17317f144e4f9344c8c97d1d9", "bike_id": "f27b61b17317f144e4f9344c8c97d1d9", "fusion_lon": 0.0, "rental_uris": {"ios": "https://dc.lft.to/lastmile_qr_scan", "android": "https://dc.lft.to/lastmile_qr_scan"}, "is_reserved": 0, "fusion_lat": 0.0, "lon": -77.03202716666667}, {"lat": 38.90446383333333, "type": "electric_scooter", "is_disabled": 0, "name": "490d92d01ad2b3e1654a11d9865ad38c", "bike_id": "490d92d01ad2b3e1654a11d9865ad38c", "fusion_lon": 0.0, "rental_uris": {"ios": "https://dc.lft.to/lastmile_qr_scan", "android": "https://dc.lft.to/lastmile_qr_scan"}, "is_reserved": 0, "fusion_lat": 0.0, "lon": -77.034502}, {"lat": 38.88492883333333, "type": "electric_scooter", "is_disabled": 0, "name": "8f5da49789227b7adf90194f7aae5355", "bike_id": "8f5da49789227b7adf90194f7aae5355", "fusion_lon": 0.0, "rental_uris": {"ios": "https://dc.lft.to/lastmile_qr_scan", "android": "https://dc.lft.to/lastmile_qr_scan"}, "is_reserved": 0, "fusion_lat": 0.0, "lon": -77.00714516666666}, {"lat": 38.90519316666666, "type": "electric_scooter", "is_disabled": 0, "name": "fc69d2f642b49cebe55e6b9db751dda3", "bike_id": "fc69d2f642b49cebe55e6b9db751dda3", "fusion_lon": 0.0, "rental_uris": {"ios": "https://dc.lft.to/lastmile_qr_scan", "android": "https://dc.lft.to/lastmile_qr_scan"}, "is_reserved": 0, "fusion_lat": 0.0, "lon": -77.06449083333334}, {"lat": 38.934262, "type": "electric_scooter", "is_disabled": 0, "name": "a9de096da67d39f47e5d3e9cbe69e4a7", "bike_id": "a9de096da67d39f47e5d3e9cbe69e4a7", "fusion_lon": 0.0, "rental_uris": {"ios": "https://dc.lft.to/lastmile_qr_scan", "android": "https://dc.lft.to/lastmile_qr_scan"}, "is_reserved": 0, "fusion_lat": 0.0, "lon": -77.0400085}, {"lat": 38.892238166666665, "type": "electric_scooter", "is_disabled": 0, "name": "5e9101347877efe9d7a48de723267c6e", "bike_id": "5e9101347877efe9d7a48de723267c6e", "fusion_lon": 0.0, "rental_uris": {"ios": "https://dc.lft.to/lastmile_qr_scan", "android": "https://dc.lft.to/lastmile_qr_scan"}, "is_reserved": 0, "fusion_lat": 0.0, "lon": -77.043731}, {"lat": 38.938152, "type": "electric_scooter", "is_disabled": 0, "name": "faee469dc43afdd4d0f2f5b98de1fce4", "bike_id": "faee469dc43afdd4d0f2f5b98de1fce4", "fusion_lon": 0.0, "rental_uris": {"ios": "https://dc.lft.to/lastmile_qr_scan", "android": "https://dc.lft.to/lastmile_qr_scan"}, "is_reserved": 0, "fusion_lat": 0.0, "lon": -77.05991733333333}, {"lat": 38.91110716666667, "type": "electric_scooter", "is_disabled": 0, "name": "a8a6b585faa81f4bd96e601a9bbfad50", "bike_id": "a8a6b585faa81f4bd96e601a9bbfad50", "fusion_lon": 0.0, "rental_uris": {"ios": "https://dc.lft.to/lastmile_qr_scan", "android": "https://dc.lft.to/lastmile_qr_scan"}, "is_reserved": 0, "fusion_lat": 0.0, "lon": -77.04523616666667}, {"lat": 38.89965983333333, "type": "electric_scooter", "is_disabled": 0, "name": "dfea8e15463cfce3217142437e8c7c22", "bike_id": "dfea8e15463cfce3217142437e8c7c22", "fusion_lon": 0.0, "rental_uris": {"ios": "https://dc.lft.to/lastmile_qr_scan", "android": "https://dc.lft.to/lastmile_qr_scan"}, "is_reserved": 0, "fusion_lat": 0.0, "lon": -77.03363433333334}, {"lat": 38.89618933333333, "type": "electric_scooter", "is_disabled": 0, "name": "ab2846ae52962fd62b6f6688c2c6a376", "bike_id": "ab2846ae52962fd62b6f6688c2c6a376", "fusion_lon": 0.0, "rental_uris": {"ios": "https://dc.lft.to/lastmile_qr_scan", "android": "https://dc.lft.to/lastmile_qr_scan"}, "is_reserved": 0, "fusion_lat": 0.0, "lon": -77.05028483333334}, {"lat": 38.87971133333333, "type": "electric_bike", "is_disabled": 0, "name": "adeb89fda4fc786b20cef48fb67e6989", "bike_id": "adeb89fda4fc786b20cef48fb67e6989", "fusion_lon": 0.0, "rental_uris": {"ios": "https://dc.lft.to/lastmile_qr_scan", "android": "https://dc.lft.to/lastmile_qr_scan"}, "is_reserved": 0, "fusion_lat": 0.0, "lon": -76.98538466666666}, {"lat": 38.902959833333334, "type": "electric_scooter", "is_disabled": 0, "name": "12b0e22db9587c4612dc8c35969238f8", "bike_id": "12b0e22db9587c4612dc8c35969238f8", "fusion_lon": 0.0, "rental_uris": {"ios": "https://dc.lft.to/lastmile_qr_scan", "android": "https://dc.lft.to/lastmile_qr_scan"}, "is_reserved": 0, "fusion_lat": 0.0, "lon": -77.02383533333334}, {"lat": 38.9572735, "type": "electric_scooter", "is_disabled": 0, "name": "9e90cdc34da7f3b0e6fbf0d88caab316", "bike_id": "9e90cdc34da7f3b0e6fbf0d88caab316", "fusion_lon": 0.0, "rental_uris": {"ios": "https://dc.lft.to/lastmile_qr_scan", "android": "https://dc.lft.to/lastmile_qr_scan"}, "is_reserved": 0, "fusion_lat": 0.0, "lon": -77.027536}, {"lat": 38.91996866666667, "type": "electric_scooter", "is_disabled": 0, "name": "3e9baa94943a76f6b5a28786f8dae2b8", "bike_id": "3e9baa94943a76f6b5a28786f8dae2b8", "fusion_lon": 0.0, "rental_uris": {"ios": "https://dc.lft.to/lastmile_qr_scan", "android": "https://dc.lft.to/lastmile_qr_scan"}, "is_reserved": 0, "fusion_lat": 0.0, "lon": -77.03884333333333}, {"lat": 38.93531983333333, "type": "electric_scooter", "is_disabled": 0, "name": "ce80d270c2fdd0fa40915dd61f5f7345", "bike_id": "ce80d270c2fdd0fa40915dd61f5f7345", "fusion_lon": 0.0, "rental_uris": {"ios": "https://dc.lft.to/lastmile_qr_scan", "android": "https://dc.lft.to/lastmile_qr_scan"}, "is_reserved": 0, "fusion_lat": 0.0, "lon": -77.02368633333333}, {"lat": 38.89220433333333, "type": "electric_scooter", "is_disabled": 0, "name": "bf27fba8288523cc894908caa1d8cd42", "bike_id": "bf27fba8288523cc894908caa1d8cd42", "fusion_lon": 0.0, "rental_uris": {"ios": "https://dc.lft.to/lastmile_qr_scan", "android": "https://dc.lft.to/lastmile_qr_scan"}, "is_reserved": 0, "fusion_lat": 0.0, "lon": -77.041515}, {"lat": 38.92644383333333, "type": "electric_bike", "is_disabled": 0, "name": "0963799a0ef7fa1d624822970272130c", "bike_id": "0963799a0ef7fa1d624822970272130c", "fusion_lon": 0.0, "rental_uris": {"ios": "https://dc.lft.to/lastmile_qr_scan", "android": "https://dc.lft.to/lastmile_qr_scan"}, "is_reserved": 0, "fusion_lat": 0.0, "lon": -77.02835866666666}, {"lat": 38.82887983333333, "type": "electric_bike", "is_disabled": 0, "name": "196bd8756699d7b586ee17e4b48ecfd1", "bike_id": "196bd8756699d7b586ee17e4b48ecfd1", "fusion_lon": 0.0, "rental_uris": {"ios": "https://dc.lft.to/lastmile_qr_scan", "android": "https://dc.lft.to/lastmile_qr_scan"}, "is_reserved": 0, "fusion_lat": 0.0, "lon": -77.012012}, {"lat": 38.961566833333336, "type": "electric_bike", "is_disabled": 0, "name": "b1f0b8cb49413c815b38a1f1a46af896", "bike_id": "b1f0b8cb49413c815b38a1f1a46af896", "fusion_lon": 0.0, "rental_uris": {"ios": "https://dc.lft.to/lastmile_qr_scan", "android": "https://dc.lft.to/lastmile_qr_scan"}, "is_reserved": 0, "fusion_lat": 0.0, "lon": -76.9978195}, {"lat": 38.92500066666667, "type": "electric_scooter", "is_disabled": 0, "name": "33def11f48fe786245eb7ea4547b70ce", "bike_id": "33def11f48fe786245eb7ea4547b70ce", "fusion_lon": 0.0, "rental_uris": {"ios": "https://dc.lft.to/lastmile_qr_scan", "android": "https://dc.lft.to/lastmile_qr_scan"}, "is_reserved": 0, "fusion_lat": 0.0, "lon": -77.021601}, {"lat": 38.905639, "type": "electric_scooter", "is_disabled": 0, "name": "50ef42c7d7e26d9a0b2c9f26af3aacc7", "bike_id": "50ef42c7d7e26d9a0b2c9f26af3aacc7", "fusion_lon": 0.0, "rental_uris": {"ios": "https://dc.lft.to/lastmile_qr_scan", "android": "https://dc.lft.to/lastmile_qr_scan"}, "is_reserved": 0, "fusion_lat": 0.0, "lon": -77.03188933333334}, {"lat": 38.89630966666667, "type": "electric_scooter", "is_disabled": 0, "name": "f0c0b48e5f8b6847e7887b4a731778bf", "bike_id": "f0c0b48e5f8b6847e7887b4a731778bf", "fusion_lon": 0.0, "rental_uris": {"ios": "https://dc.lft.to/lastmile_qr_scan", "android": "https://dc.lft.to/lastmile_qr_scan"}, "is_reserved": 0, "fusion_lat": 0.0, "lon": -76.92962766666666}, {"lat": 38.927533333333336, "type": "electric_scooter", "is_disabled": 0, "name": "065c7b3ad4f58d2fbed822d37a728a74", "bike_id": "065c7b3ad4f58d2fbed822d37a728a74", "fusion_lon": 0.0, "rental_uris": {"ios": "https://dc.lft.to/lastmile_qr_scan", "android": "https://dc.lft.to/lastmile_qr_scan"}, "is_reserved": 0, "fusion_lat": 0.0, "lon": -77.03213666666667}, {"lat": 38.900155, "type": "electric_scooter", "is_disabled": 0, "name": "3fff615dbbd871e912a936cfac61cb13", "bike_id": "3fff615dbbd871e912a936cfac61cb13", "fusion_lon": 0.0, "rental_uris": {"ios": "https://dc.lft.to/lastmile_qr_scan", "android": "https://dc.lft.to/lastmile_qr_scan"}, "is_reserved": 0, "fusion_lat": 0.0, "lon": -76.99352583333334}, {"lat": 38.911184, "type": "electric_scooter", "is_disabled": 0, "name": "d94db7b58fc4a94599082d1daa0ba8c1", "bike_id": "d94db7b58fc4a94599082d1daa0ba8c1", "fusion_lon": 0.0, "rental_uris": {"ios": "https://dc.lft.to/lastmile_qr_scan", "android": "https://dc.lft.to/lastmile_qr_scan"}, "is_reserved": 0, "fusion_lat": 0.0, "lon": -77.04369183333333}, {"lat": 38.99814116666667, "type": "electric_bike", "is_disabled": 0, "name": "996f2f19120704095670b6c0368ac81b", "bike_id": "996f2f19120704095670b6c0368ac81b", "fusion_lon": 0.0, "rental_uris": {"ios": "https://dc.lft.to/lastmile_qr_scan", "android": "https://dc.lft.to/lastmile_qr_scan"}, "is_reserved": 0, "fusion_lat": 0.0, "lon": -77.0290015}, {"lat": 38.90280716666667, "type": "electric_scooter", "is_disabled": 0, "name": "0bc6ad65b8770591e1ac8a3071bc15b0", "bike_id": "0bc6ad65b8770591e1ac8a3071bc15b0", "fusion_lon": 0.0, "rental_uris": {"ios": "https://dc.lft.to/lastmile_qr_scan", "android": "https://dc.lft.to/lastmile_qr_scan"}, "is_reserved": 0, "fusion_lat": 0.0, "lon": -77.0227695}, {"lat": 38.880478, "type": "electric_scooter", "is_disabled": 0, "name": "22a47e448fec18f62b4de4a9697e0e5c", "bike_id": "22a47e448fec18f62b4de4a9697e0e5c", "fusion_lon": 0.0, "rental_uris": {"ios": "https://dc.lft.to/lastmile_qr_scan", "android": "https://dc.lft.to/lastmile_qr_scan"}, "is_reserved": 0, "fusion_lat": 0.0, "lon": -77.0052875}, {"lat": 38.928836833333335, "type": "electric_scooter", "is_disabled": 0, "name": "9274d2af50069a428b5406bdc439b370", "bike_id": "9274d2af50069a428b5406bdc439b370", "fusion_lon": 0.0, "rental_uris": {"ios": "https://dc.lft.to/lastmile_qr_scan", "android": "https://dc.lft.to/lastmile_qr_scan"}, "is_reserved": 0, "fusion_lat": 0.0, "lon": -77.032627}, {"lat": 38.942298666666666, "type": "electric_scooter", "is_disabled": 0, "name": "7f437b98e5b5cb1192e60f50606b1087", "bike_id": "7f437b98e5b5cb1192e60f50606b1087", "fusion_lon": 0.0, "rental_uris": {"ios": "https://dc.lft.to/lastmile_qr_scan", "android": "https://dc.lft.to/lastmile_qr_scan"}, "is_reserved": 0, "fusion_lat": 0.0, "lon": -77.01437766666666}, {"lat": 38.9239025, "type": "electric_scooter", "is_disabled": 0, "name": "07c9f261626295b4018a51e0e5ef927f", "bike_id": "07c9f261626295b4018a51e0e5ef927f", "fusion_lon": 0.0, "rental_uris": {"ios": "https://dc.lft.to/lastmile_qr_scan", "android": "https://dc.lft.to/lastmile_qr_scan"}, "is_reserved": 0, "fusion_lat": 0.0, "lon": -77.04062233333333}, {"lat": 38.876429333333334, "type": "electric_scooter", "is_disabled": 0, "name": "9f78a8b0eed1f24580acdd29943fe42b", "bike_id": "9f78a8b0eed1f24580acdd29943fe42b", "fusion_lon": 0.0, "rental_uris": {"ios": "https://dc.lft.to/lastmile_qr_scan", "android": "https://dc.lft.to/lastmile_qr_scan"}, "is_reserved": 0, "fusion_lat": 0.0, "lon": -77.00230816666667}, {"lat": 38.891981333333334, "type": "electric_scooter", "is_disabled": 0, "name": "1a37b90afffa3edc10fe3e8ededf665f", "bike_id": "1a37b90afffa3edc10fe3e8ededf665f", "fusion_lon": 0.0, "rental_uris": {"ios": "https://dc.lft.to/lastmile_qr_scan", "android": "https://dc.lft.to/lastmile_qr_scan"}, "is_reserved": 0, "fusion_lat": 0.0, "lon": -77.002954}, {"lat": 38.92927566666667, "type": "electric_scooter", "is_disabled": 0, "name": "778487924f218cf22f847d8836c69da8", "bike_id": "778487924f218cf22f847d8836c69da8", "fusion_lon": 0.0, "rental_uris": {"ios": "https://dc.lft.to/lastmile_qr_scan", "android": "https://dc.lft.to/lastmile_qr_scan"}, "is_reserved": 0, "fusion_lat": 0.0, "lon": -77.03263933333334}, {"lat": 38.92672183333333, "type": "electric_scooter", "is_disabled": 0, "name": "a2aa5cfe79027960977d8d8fe7a7fc49", "bike_id": "a2aa5cfe79027960977d8d8fe7a7fc49", "fusion_lon": 0.0, "rental_uris": {"ios": "https://dc.lft.to/lastmile_qr_scan", "android": "https://dc.lft.to/lastmile_qr_scan"}, "is_reserved": 0, "fusion_lat": 0.0, "lon": -77.02743616666666}, {"lat": 38.876435, "type": "electric_bike", "is_disabled": 0, "name": "a2f06730b8de6de315fb3da6119276c3", "bike_id": "a2f06730b8de6de315fb3da6119276c3", "fusion_lon": 0.0, "rental_uris": {"ios": "https://dc.lft.to/lastmile_qr_scan", "android": "https://dc.lft.to/lastmile_qr_scan"}, "is_reserved": 0, "fusion_lat": 0.0, "lon": -76.93549616666667}, {"lat": 38.906823, "type": "electric_scooter", "is_disabled": 0, "name": "dd2e16b9c91764a952e7784dd332de25", "bike_id": "dd2e16b9c91764a952e7784dd332de25", "fusion_lon": 0.0, "rental_uris": {"ios": "https://dc.lft.to/lastmile_qr_scan", "android": "https://dc.lft.to/lastmile_qr_scan"}, "is_reserved": 0, "fusion_lat": 0.0, "lon": -77.02696583333334}, {"lat": 38.8792065, "type": "electric_scooter", "is_disabled": 0, "name": "d45035d77ef85cd8861831bc9d8638ed", "bike_id": "d45035d77ef85cd8861831bc9d8638ed", "fusion_lon": 0.0, "rental_uris": {"ios": "https://dc.lft.to/lastmile_qr_scan", "android": "https://dc.lft.to/lastmile_qr_scan"}, "is_reserved": 0, "fusion_lat": 0.0, "lon": -77.02361583333334}, {"lat": 38.925454333333334, "type": "electric_scooter", "is_disabled": 0, "name": "6a6ffbec363325f61af7d3f64a855e01", "bike_id": "6a6ffbec363325f61af7d3f64a855e01", "fusion_lon": 0.0, "rental_uris": {"ios": "https://dc.lft.to/lastmile_qr_scan", "android": "https://dc.lft.to/lastmile_qr_scan"}, "is_reserved": 0, "fusion_lat": 0.0, "lon": -77.03267583333333}, {"lat": 38.897728, "type": "electric_scooter", "is_disabled": 0, "name": "40f0444f44ad7f2aea25719a3e260902", "bike_id": "40f0444f44ad7f2aea25719a3e260902", "fusion_lon": 0.0, "rental_uris": {"ios": "https://dc.lft.to/lastmile_qr_scan", "android": "https://dc.lft.to/lastmile_qr_scan"}, "is_reserved": 0, "fusion_lat": 0.0, "lon": -77.0122705}, {"lat": 38.91602666666667, "type": "electric_scooter", "is_disabled": 0, "name": "89692493d1caa8a07fd8092c9e159b8c", "bike_id": "89692493d1caa8a07fd8092c9e159b8c", "fusion_lon": 0.0, "rental_uris": {"ios": "https://dc.lft.to/lastmile_qr_scan", "android": "https://dc.lft.to/lastmile_qr_scan"}, "is_reserved": 0, "fusion_lat": 0.0, "lon": -77.049072}, {"lat": 38.892561666666666, "type": "electric_scooter", "is_disabled": 0, "name": "6565acafdb2acb2ad1744598aeff29aa", "bike_id": "6565acafdb2acb2ad1744598aeff29aa", "fusion_lon": 0.0, "rental_uris": {"ios": "https://dc.lft.to/lastmile_qr_scan", "android": "https://dc.lft.to/lastmile_qr_scan"}, "is_reserved": 0, "fusion_lat": 0.0, "lon": -77.050236}, {"lat": 38.917958166666665, "type": "electric_scooter", "is_disabled": 0, "name": "62c520e077ab9369523ace2e963db234", "bike_id": "62c520e077ab9369523ace2e963db234", "fusion_lon": 0.0, "rental_uris": {"ios": "https://dc.lft.to/lastmile_qr_scan", "android": "https://dc.lft.to/lastmile_qr_scan"}, "is_reserved": 0, "fusion_lat": 0.0, "lon": -77.040194}, {"lat": 38.91807933333333, "type": "electric_scooter", "is_disabled": 0, "name": "fd71acd06956190a47865e23476cbc17", "bike_id": "fd71acd06956190a47865e23476cbc17", "fusion_lon": 0.0, "rental_uris": {"ios": "https://dc.lft.to/lastmile_qr_scan", "android": "https://dc.lft.to/lastmile_qr_scan"}, "is_reserved": 0, "fusion_lat": 0.0, "lon": -77.03646866666666}, {"lat": 38.9318715, "type": "electric_scooter", "is_disabled": 0, "name": "06931cb2e5ff70fb329c3d624fd89f19", "bike_id": "06931cb2e5ff70fb329c3d624fd89f19", "fusion_lon": 0.0, "rental_uris": {"ios": "https://dc.lft.to/lastmile_qr_scan", "android": "https://dc.lft.to/lastmile_qr_scan"}, "is_reserved": 0, "fusion_lat": 0.0, "lon": -77.0283165}, {"lat": 38.92124066666667, "type": "electric_scooter", "is_disabled": 0, "name": "c66015a1aaa7d53779cd1db0125b4ef4", "bike_id": "c66015a1aaa7d53779cd1db0125b4ef4", "fusion_lon": 0.0, "rental_uris": {"ios": "https://dc.lft.to/lastmile_qr_scan", "android": "https://dc.lft.to/lastmile_qr_scan"}, "is_reserved": 0, "fusion_lat": 0.0, "lon": -77.02074666666667}, {"lat": 38.89623566666667, "type": "electric_scooter", "is_disabled": 0, "name": "8295b644ec676467dcc8b6e5b538e062", "bike_id": "8295b644ec676467dcc8b6e5b538e062", "fusion_lon": 0.0, "rental_uris": {"ios": "https://dc.lft.to/lastmile_qr_scan", "android": "https://dc.lft.to/lastmile_qr_scan"}, "is_reserved": 0, "fusion_lat": 0.0, "lon": -77.0303595}, {"lat": 38.92601616666666, "type": "electric_scooter", "is_disabled": 0, "name": "7307eb596e48655776e01c27d6e70c31", "bike_id": "7307eb596e48655776e01c27d6e70c31", "fusion_lon": 0.0, "rental_uris": {"ios": "https://dc.lft.to/lastmile_qr_scan", "android": "https://dc.lft.to/lastmile_qr_scan"}, "is_reserved": 0, "fusion_lat": 0.0, "lon": -77.02156016666666}, {"lat": 38.89600333333333, "type": "electric_bike", "is_disabled": 0, "name": "6920b3216a61e551b7ac5d375b971888", "bike_id": "6920b3216a61e551b7ac5d375b971888", "fusion_lon": 0.0, "rental_uris": {"ios": "https://dc.lft.to/lastmile_qr_scan", "android": "https://dc.lft.to/lastmile_qr_scan"}, "is_reserved": 0, "fusion_lat": 0.0, "lon": -76.96783066666667}, {"lat": 38.807323333333336, "type": "electric_bike", "is_disabled": 0, "name": "674bc9123d07cccf6085aecfd049b725", "bike_id": "674bc9123d07cccf6085aecfd049b725", "fusion_lon": 0.0, "rental_uris": {"ios": "https://dc.lft.to/lastmile_qr_scan", "android": "https://dc.lft.to/lastmile_qr_scan"}, "is_reserved": 0, "fusion_lat": 0.0, "lon": -76.992543}, {"lat": 38.892173, "type": "electric_scooter", "is_disabled": 0, "name": "c2e9a902e5f6f084800f7f63a69790d4", "bike_id": "c2e9a902e5f6f084800f7f63a69790d4", "fusion_lon": 0.0, "rental_uris": {"ios": "https://dc.lft.to/lastmile_qr_scan", "android": "https://dc.lft.to/lastmile_qr_scan"}, "is_reserved": 0, "fusion_lat": 0.0, "lon": -77.04369433333333}, {"lat": 38.91117916666666, "type": "electric_scooter", "is_disabled": 0, "name": "06055fade996ccb3e3ab5d1c40434076", "bike_id": "06055fade996ccb3e3ab5d1c40434076", "fusion_lon": 0.0, "rental_uris": {"ios": "https://dc.lft.to/lastmile_qr_scan", "android": "https://dc.lft.to/lastmile_qr_scan"}, "is_reserved": 0, "fusion_lat": 0.0, "lon": -77.04462416666667}, {"lat": 38.89219933333333, "type": "electric_scooter", "is_disabled": 0, "name": "b4aa0d531695ed5129534485337f5a5f", "bike_id": "b4aa0d531695ed5129534485337f5a5f", "fusion_lon": 0.0, "rental_uris": {"ios": "https://dc.lft.to/lastmile_qr_scan", "android": "https://dc.lft.to/lastmile_qr_scan"}, "is_reserved": 0, "fusion_lat": 0.0, "lon": -77.04272333333333}, {"lat": 38.9261115, "type": "electric_scooter", "is_disabled": 0, "name": "c163994fc9458ea06e9a4a7faf879f66", "bike_id": "c163994fc9458ea06e9a4a7faf879f66", "fusion_lon": 0.0, "rental_uris": {"ios": "https://dc.lft.to/lastmile_qr_scan", "android": "https://dc.lft.to/lastmile_qr_scan"}, "is_reserved": 0, "fusion_lat": 0.0, "lon": -77.021635}, {"lat": 38.9170875, "type": "electric_scooter", "is_disabled": 0, "name": "e15d550bb3bbf49a45a520a741192249", "bike_id": "e15d550bb3bbf49a45a520a741192249", "fusion_lon": 0.0, "rental_uris": {"ios": "https://dc.lft.to/lastmile_qr_scan", "android": "https://dc.lft.to/lastmile_qr_scan"}, "is_reserved": 0, "fusion_lat": 0.0, "lon": -77.025543}, {"lat": 38.926835833333335, "type": "electric_scooter", "is_disabled": 0, "name": "0724f123170138561190691745d93a02", "bike_id": "0724f123170138561190691745d93a02", "fusion_lon": 0.0, "rental_uris": {"ios": "https://dc.lft.to/lastmile_qr_scan", "android": "https://dc.lft.to/lastmile_qr_scan"}, "is_reserved": 0, "fusion_lat": 0.0, "lon": -77.02971866666667}, {"lat": 38.90274433333333, "type": "electric_scooter", "is_disabled": 0, "name": "46b869dd383fe88c4c5929e9b5e20b0b", "bike_id": "46b869dd383fe88c4c5929e9b5e20b0b", "fusion_lon": 0.0, "rental_uris": {"ios": "https://dc.lft.to/lastmile_qr_scan", "android": "https://dc.lft.to/lastmile_qr_scan"}, "is_reserved": 0, "fusion_lat": 0.0, "lon": -77.0313735}, {"lat": 38.91800933333333, "type": "electric_scooter", "is_disabled": 0, "name": "2a52819818500a566d6a2c6498132925", "bike_id": "2a52819818500a566d6a2c6498132925", "fusion_lon": 0.0, "rental_uris": {"ios": "https://dc.lft.to/lastmile_qr_scan", "android": "https://dc.lft.to/lastmile_qr_scan"}, "is_reserved": 0, "fusion_lat": 0.0, "lon": -77.0248875}, {"lat": 38.931009833333334, "type": "electric_scooter", "is_disabled": 0, "name": "04e6bc41c5adb0392715b31f6196c5fe", "bike_id": "04e6bc41c5adb0392715b31f6196c5fe", "fusion_lon": 0.0, "rental_uris": {"ios": "https://dc.lft.to/lastmile_qr_scan", "android": "https://dc.lft.to/lastmile_qr_scan"}, "is_reserved": 0, "fusion_lat": 0.0, "lon": -77.03093216666667}, {"lat": 38.897190333333334, "type": "electric_scooter", "is_disabled": 0, "name": "b2c3f969bac8fc3f1539a4843bf42bee", "bike_id": "b2c3f969bac8fc3f1539a4843bf42bee", "fusion_lon": 0.0, "rental_uris": {"ios": "https://dc.lft.to/lastmile_qr_scan", "android": "https://dc.lft.to/lastmile_qr_scan"}, "is_reserved": 0, "fusion_lat": 0.0, "lon": -77.00211416666667}, {"lat": 38.9165555, "type": "electric_scooter", "is_disabled": 0, "name": "1a09b5d43361d15192807623fd19955c", "bike_id": "1a09b5d43361d15192807623fd19955c", "fusion_lon": 0.0, "rental_uris": {"ios": "https://dc.lft.to/lastmile_qr_scan", "android": "https://dc.lft.to/lastmile_qr_scan"}, "is_reserved": 0, "fusion_lat": 0.0, "lon": -77.020303}, {"lat": 38.899678333333334, "type": "electric_scooter", "is_disabled": 0, "name": "e0d271055c9c4c4e2f6c52a9dd98eae8", "bike_id": "e0d271055c9c4c4e2f6c52a9dd98eae8", "fusion_lon": 0.0, "rental_uris": {"ios": "https://dc.lft.to/lastmile_qr_scan", "android": "https://dc.lft.to/lastmile_qr_scan"}, "is_reserved": 0, "fusion_lat": 0.0, "lon": -77.04718916666667}, {"lat": 38.9508435, "type": "electric_scooter", "is_disabled": 0, "name": "f9977e859745dcf0db193d6ed03b79e3", "bike_id": "f9977e859745dcf0db193d6ed03b79e3", "fusion_lon": 0.0, "rental_uris": {"ios": "https://dc.lft.to/lastmile_qr_scan", "android": "https://dc.lft.to/lastmile_qr_scan"}, "is_reserved": 0, "fusion_lat": 0.0, "lon": -76.9979725}, {"lat": 38.9236575, "type": "electric_scooter", "is_disabled": 0, "name": "8c944e411f9b200a33e742b6022d9915", "bike_id": "8c944e411f9b200a33e742b6022d9915", "fusion_lon": 0.0, "rental_uris": {"ios": "https://dc.lft.to/lastmile_qr_scan", "android": "https://dc.lft.to/lastmile_qr_scan"}, "is_reserved": 0, "fusion_lat": 0.0, "lon": -77.05027633333333}, {"lat": 38.884318, "type": "electric_scooter", "is_disabled": 0, "name": "b4cce57f348ab2c02173b9527ded2db6", "bike_id": "b4cce57f348ab2c02173b9527ded2db6", "fusion_lon": 0.0, "rental_uris": {"ios": "https://dc.lft.to/lastmile_qr_scan", "android": "https://dc.lft.to/lastmile_qr_scan"}, "is_reserved": 0, "fusion_lat": 0.0, "lon": -76.95749016666667}, {"lat": 38.896118666666666, "type": "electric_scooter", "is_disabled": 0, "name": "ffc71b9bc6293d6eff4e9ea637fe1f8a", "bike_id": "ffc71b9bc6293d6eff4e9ea637fe1f8a", "fusion_lon": 0.0, "rental_uris": {"ios": "https://dc.lft.to/lastmile_qr_scan", "android": "https://dc.lft.to/lastmile_qr_scan"}, "is_reserved": 0, "fusion_lat": 0.0, "lon": -77.0237975}, {"lat": 38.91364866666667, "type": "electric_scooter", "is_disabled": 0, "name": "e74ba96cacfe15fa6131b71c9a8b4127", "bike_id": "e74ba96cacfe15fa6131b71c9a8b4127", "fusion_lon": 0.0, "rental_uris": {"ios": "https://dc.lft.to/lastmile_qr_scan", "android": "https://dc.lft.to/lastmile_qr_scan"}, "is_reserved": 0, "fusion_lat": 0.0, "lon": -77.09190666666667}, {"lat": 38.899769166666665, "type": "electric_scooter", "is_disabled": 0, "name": "bdd0e163139f9ccb2c86798dd188ef8d", "bike_id": "bdd0e163139f9ccb2c86798dd188ef8d", "fusion_lon": 0.0, "rental_uris": {"ios": "https://dc.lft.to/lastmile_qr_scan", "android": "https://dc.lft.to/lastmile_qr_scan"}, "is_reserved": 0, "fusion_lat": 0.0, "lon": -77.04196166666667}, {"lat": 38.92365983333333, "type": "electric_scooter", "is_disabled": 0, "name": "f810d73ce1bc023c6da019479e5a1d5e", "bike_id": "f810d73ce1bc023c6da019479e5a1d5e", "fusion_lon": 0.0, "rental_uris": {"ios": "https://dc.lft.to/lastmile_qr_scan", "android": "https://dc.lft.to/lastmile_qr_scan"}, "is_reserved": 0, "fusion_lat": 0.0, "lon": -77.019599}, {"lat": 38.8959895, "type": "electric_scooter", "is_disabled": 0, "name": "5f82a3ebe217158096ea7b62ac021e0f", "bike_id": "5f82a3ebe217158096ea7b62ac021e0f", "fusion_lon": 0.0, "rental_uris": {"ios": "https://dc.lft.to/lastmile_qr_scan", "android": "https://dc.lft.to/lastmile_qr_scan"}, "is_reserved": 0, "fusion_lat": 0.0, "lon": -77.02672133333333}, {"lat": 38.92483716666667, "type": "electric_scooter", "is_disabled": 0, "name": "5835ac5cd1356350ad422e309e130836", "bike_id": "5835ac5cd1356350ad422e309e130836", "fusion_lon": 0.0, "rental_uris": {"ios": "https://dc.lft.to/lastmile_qr_scan", "android": "https://dc.lft.to/lastmile_qr_scan"}, "is_reserved": 0, "fusion_lat": 0.0, "lon": -77.02141466666667}, {"lat": 38.84062383333333, "type": "electric_bike", "is_disabled": 0, "name": "c450731f5cc58c91dd9e621a320085ba", "bike_id": "c450731f5cc58c91dd9e621a320085ba", "fusion_lon": 0.0, "rental_uris": {"ios": "https://dc.lft.to/lastmile_qr_scan", "android": "https://dc.lft.to/lastmile_qr_scan"}, "is_reserved": 0, "fusion_lat": 0.0, "lon": -76.9759035}, {"lat": 38.900014, "type": "electric_scooter", "is_disabled": 0, "name": "86c067540ac117394fdd54d4f57a8089", "bike_id": "86c067540ac117394fdd54d4f57a8089", "fusion_lon": 0.0, "rental_uris": {"ios": "https://dc.lft.to/lastmile_qr_scan", "android": "https://dc.lft.to/lastmile_qr_scan"}, "is_reserved": 0, "fusion_lat": 0.0, "lon": -76.998414}, {"lat": 38.901333666666666, "type": "electric_scooter", "is_disabled": 0, "name": "43ecee62bb0be5f361dbed234b14ee3a", "bike_id": "43ecee62bb0be5f361dbed234b14ee3a", "fusion_lon": 0.0, "rental_uris": {"ios": "https://dc.lft.to/lastmile_qr_scan", "android": "https://dc.lft.to/lastmile_qr_scan"}, "is_reserved": 0, "fusion_lat": 0.0, "lon": -77.0217225}, {"lat": 38.922481833333336, "type": "electric_scooter", "is_disabled": 0, "name": "10c368de23f992b1d7db4789e4effef7", "bike_id": "10c368de23f992b1d7db4789e4effef7", "fusion_lon": 0.0, "rental_uris": {"ios": "https://dc.lft.to/lastmile_qr_scan", "android": "https://dc.lft.to/lastmile_qr_scan"}, "is_reserved": 0, "fusion_lat": 0.0, "lon": -77.03065433333333}, {"lat": 38.89556316666667, "type": "electric_scooter", "is_disabled": 0, "name": "0471891fc4e07d60252fa0b200c76cbd", "bike_id": "0471891fc4e07d60252fa0b200c76cbd", "fusion_lon": 0.0, "rental_uris": {"ios": "https://dc.lft.to/lastmile_qr_scan", "android": "https://dc.lft.to/lastmile_qr_scan"}, "is_reserved": 0, "fusion_lat": 0.0, "lon": -77.00914433333334}, {"lat": 38.9043905, "type": "electric_scooter", "is_disabled": 0, "name": "bfd6cd95a8d411dd01fa2807c44710ee", "bike_id": "bfd6cd95a8d411dd01fa2807c44710ee", "fusion_lon": 0.0, "rental_uris": {"ios": "https://dc.lft.to/lastmile_qr_scan", "android": "https://dc.lft.to/lastmile_qr_scan"}, "is_reserved": 0, "fusion_lat": 0.0, "lon": -77.03281266666667}, {"lat": 38.926034666666666, "type": "electric_scooter", "is_disabled": 0, "name": "010fb59f281fcfeb4457df02add1b5d6", "bike_id": "010fb59f281fcfeb4457df02add1b5d6", "fusion_lon": 0.0, "rental_uris": {"ios": "https://dc.lft.to/lastmile_qr_scan", "android": "https://dc.lft.to/lastmile_qr_scan"}, "is_reserved": 0, "fusion_lat": 0.0, "lon": -77.0215685}, {"lat": 38.923328166666664, "type": "electric_scooter", "is_disabled": 0, "name": "7baacd6c7b97cab02a61330ae2e422e1", "bike_id": "7baacd6c7b97cab02a61330ae2e422e1", "fusion_lon": 0.0, "rental_uris": {"ios": "https://dc.lft.to/lastmile_qr_scan", "android": "https://dc.lft.to/lastmile_qr_scan"}, "is_reserved": 0, "fusion_lat": 0.0, "lon": -77.0568405}, {"lat": 38.93251033333333, "type": "electric_scooter", "is_disabled": 0, "name": "d057f357837aa12c275dd7232cd36f7e", "bike_id": "d057f357837aa12c275dd7232cd36f7e", "fusion_lon": 0.0, "rental_uris": {"ios": "https://dc.lft.to/lastmile_qr_scan", "android": "https://dc.lft.to/lastmile_qr_scan"}, "is_reserved": 0, "fusion_lat": 0.0, "lon": -77.03878916666666}, {"lat": 38.902200666666666, "type": "electric_scooter", "is_disabled": 0, "name": "fbf156de5a034a65f7cbfce9cc3179d2", "bike_id": "fbf156de5a034a65f7cbfce9cc3179d2", "fusion_lon": 0.0, "rental_uris": {"ios": "https://dc.lft.to/lastmile_qr_scan", "android": "https://dc.lft.to/lastmile_qr_scan"}, "is_reserved": 0, "fusion_lat": 0.0, "lon": -77.02420816666667}, {"lat": 38.89859533333333, "type": "electric_scooter", "is_disabled": 0, "name": "b40bb2a893386350c0ec092acf9ae598", "bike_id": "b40bb2a893386350c0ec092acf9ae598", "fusion_lon": 0.0, "rental_uris": {"ios": "https://dc.lft.to/lastmile_qr_scan", "android": "https://dc.lft.to/lastmile_qr_scan"}, "is_reserved": 0, "fusion_lat": 0.0, "lon": -77.0395895}, {"lat": 38.902338666666665, "type": "electric_scooter", "is_disabled": 0, "name": "33ab96b770eb8bf9d68729f5a3cb9966", "bike_id": "33ab96b770eb8bf9d68729f5a3cb9966", "fusion_lon": 0.0, "rental_uris": {"ios": "https://dc.lft.to/lastmile_qr_scan", "android": "https://dc.lft.to/lastmile_qr_scan"}, "is_reserved": 0, "fusion_lat": 0.0, "lon": -77.05919016666667}, {"lat": 38.9128555, "type": "electric_scooter", "is_disabled": 0, "name": "313631ea1aaac93018b6d63c23a9479f", "bike_id": "313631ea1aaac93018b6d63c23a9479f", "fusion_lon": 0.0, "rental_uris": {"ios": "https://dc.lft.to/lastmile_qr_scan", "android": "https://dc.lft.to/lastmile_qr_scan"}, "is_reserved": 0, "fusion_lat": 0.0, "lon": -77.03204033333333}, {"lat": 38.916858500000004, "type": "electric_scooter", "is_disabled": 0, "name": "a40ee97bc4ff9413299a239229e4da72", "bike_id": "a40ee97bc4ff9413299a239229e4da72", "fusion_lon": 0.0, "rental_uris": {"ios": "https://dc.lft.to/lastmile_qr_scan", "android": "https://dc.lft.to/lastmile_qr_scan"}, "is_reserved": 0, "fusion_lat": 0.0, "lon": -77.029624}, {"lat": 38.92114616666667, "type": "electric_bike", "is_disabled": 0, "name": "4d9b5e09ce428f7925e6b9df8d9be4ec", "bike_id": "4d9b5e09ce428f7925e6b9df8d9be4ec", "fusion_lon": 0.0, "rental_uris": {"ios": "https://dc.lft.to/lastmile_qr_scan", "android": "https://dc.lft.to/lastmile_qr_scan"}, "is_reserved": 0, "fusion_lat": 0.0, "lon": -76.988836}, {"lat": 38.902756, "type": "electric_scooter", "is_disabled": 0, "name": "7b3a95868946e8ed03b5c938f735813d", "bike_id": "7b3a95868946e8ed03b5c938f735813d", "fusion_lon": 0.0, "rental_uris": {"ios": "https://dc.lft.to/lastmile_qr_scan", "android": "https://dc.lft.to/lastmile_qr_scan"}, "is_reserved": 0, "fusion_lat": 0.0, "lon": -77.0385615}, {"lat": 38.898723833333335, "type": "electric_scooter", "is_disabled": 0, "name": "ea318e6a88b85d3f09ff772456e1eb2f", "bike_id": "ea318e6a88b85d3f09ff772456e1eb2f", "fusion_lon": 0.0, "rental_uris": {"ios": "https://dc.lft.to/lastmile_qr_scan", "android": "https://dc.lft.to/lastmile_qr_scan"}, "is_reserved": 0, "fusion_lat": 0.0, "lon": -77.03336666666667}, {"lat": 38.9370045, "type": "electric_scooter", "is_disabled": 0, "name": "2f2fc38060e5864c7bea7188701eb039", "bike_id": "2f2fc38060e5864c7bea7188701eb039", "fusion_lon": 0.0, "rental_uris": {"ios": "https://dc.lft.to/lastmile_qr_scan", "android": "https://dc.lft.to/lastmile_qr_scan"}, "is_reserved": 0, "fusion_lat": 0.0, "lon": -77.03282483333334}, {"lat": 38.89674483333334, "type": "electric_scooter", "is_disabled": 0, "name": "8dd22dd54d632f5474c50a23fec63414", "bike_id": "8dd22dd54d632f5474c50a23fec63414", "fusion_lon": 0.0, "rental_uris": {"ios": "https://dc.lft.to/lastmile_qr_scan", "android": "https://dc.lft.to/lastmile_qr_scan"}, "is_reserved": 0, "fusion_lat": 0.0, "lon": -77.04348416666667}, {"lat": 38.89852033333333, "type": "electric_scooter", "is_disabled": 0, "name": "24f01a33b1589fc65ee13b51b1cc8065", "bike_id": "24f01a33b1589fc65ee13b51b1cc8065", "fusion_lon": 0.0, "rental_uris": {"ios": "https://dc.lft.to/lastmile_qr_scan", "android": "https://dc.lft.to/lastmile_qr_scan"}, "is_reserved": 0, "fusion_lat": 0.0, "lon": -76.99031633333334}, {"lat": 38.907728, "type": "electric_scooter", "is_disabled": 0, "name": "4014f5d875dbe12d3648727e3af646c7", "bike_id": "4014f5d875dbe12d3648727e3af646c7", "fusion_lon": 0.0, "rental_uris": {"ios": "https://dc.lft.to/lastmile_qr_scan", "android": "https://dc.lft.to/lastmile_qr_scan"}, "is_reserved": 0, "fusion_lat": 0.0, "lon": -77.02195133333333}, {"lat": 38.9291285, "type": "electric_scooter", "is_disabled": 0, "name": "9b4d12b8eb46b79d8c1ba40a9ba8169f", "bike_id": "9b4d12b8eb46b79d8c1ba40a9ba8169f", "fusion_lon": 0.0, "rental_uris": {"ios": "https://dc.lft.to/lastmile_qr_scan", "android": "https://dc.lft.to/lastmile_qr_scan"}, "is_reserved": 0, "fusion_lat": 0.0, "lon": -76.99817233333333}, {"lat": 38.91001383333333, "type": "electric_scooter", "is_disabled": 0, "name": "5bd794350516a48b6ebc98dd841b79cd", "bike_id": "5bd794350516a48b6ebc98dd841b79cd", "fusion_lon": 0.0, "rental_uris": {"ios": "https://dc.lft.to/lastmile_qr_scan", "android": "https://dc.lft.to/lastmile_qr_scan"}, "is_reserved": 0, "fusion_lat": 0.0, "lon": -77.0450025}, {"lat": 38.92065133333333, "type": "electric_scooter", "is_disabled": 0, "name": "70024953672119143cef2a4a9d7e1d9c", "bike_id": "70024953672119143cef2a4a9d7e1d9c", "fusion_lon": 0.0, "rental_uris": {"ios": "https://dc.lft.to/lastmile_qr_scan", "android": "https://dc.lft.to/lastmile_qr_scan"}, "is_reserved": 0, "fusion_lat": 0.0, "lon": -77.03795283333334}, {"lat": 38.900434, "type": "electric_scooter", "is_disabled": 0, "name": "f9584bcdfc5ddbb0d02421e0f29cd7db", "bike_id": "f9584bcdfc5ddbb0d02421e0f29cd7db", "fusion_lon": 0.0, "rental_uris": {"ios": "https://dc.lft.to/lastmile_qr_scan", "android": "https://dc.lft.to/lastmile_qr_scan"}, "is_reserved": 0, "fusion_lat": 0.0, "lon": -76.98555166666667}, {"lat": 38.922386833333334, "type": "electric_scooter", "is_disabled": 0, "name": "45e724a8dc9b0781b756aef51d157945", "bike_id": "45e724a8dc9b0781b756aef51d157945", "fusion_lon": 0.0, "rental_uris": {"ios": "https://dc.lft.to/lastmile_qr_scan", "android": "https://dc.lft.to/lastmile_qr_scan"}, "is_reserved": 0, "fusion_lat": 0.0, "lon": -77.0436145}, {"lat": 38.900074833333335, "type": "electric_scooter", "is_disabled": 0, "name": "10d3a4f106d9e4f650dfb449a308fa34", "bike_id": "10d3a4f106d9e4f650dfb449a308fa34", "fusion_lon": 0.0, "rental_uris": {"ios": "https://dc.lft.to/lastmile_qr_scan", "android": "https://dc.lft.to/lastmile_qr_scan"}, "is_reserved": 0, "fusion_lat": 0.0, "lon": -77.0435965}, {"lat": 38.9099675, "type": "electric_scooter", "is_disabled": 0, "name": "16609d47a99bccd06fa857437c9500b3", "bike_id": "16609d47a99bccd06fa857437c9500b3", "fusion_lon": 0.0, "rental_uris": {"ios": "https://dc.lft.to/lastmile_qr_scan", "android": "https://dc.lft.to/lastmile_qr_scan"}, "is_reserved": 0, "fusion_lat": 0.0, "lon": -77.0150585}, {"lat": 38.92900816666667, "type": "electric_scooter", "is_disabled": 0, "name": "811807002895d0c8a7bad7bda1d5f01c", "bike_id": "811807002895d0c8a7bad7bda1d5f01c", "fusion_lon": 0.0, "rental_uris": {"ios": "https://dc.lft.to/lastmile_qr_scan", "android": "https://dc.lft.to/lastmile_qr_scan"}, "is_reserved": 0, "fusion_lat": 0.0, "lon": -77.03256866666666}, {"lat": 38.920441, "type": "electric_scooter", "is_disabled": 0, "name": "f07d9e556988cc4abbf9ba54d7c403e6", "bike_id": "f07d9e556988cc4abbf9ba54d7c403e6", "fusion_lon": 0.0, "rental_uris": {"ios": "https://dc.lft.to/lastmile_qr_scan", "android": "https://dc.lft.to/lastmile_qr_scan"}, "is_reserved": 0, "fusion_lat": 0.0, "lon": -77.01670616666667}, {"lat": 38.925602, "type": "electric_scooter", "is_disabled": 0, "name": "03f19c6a513c44d97f72717c7fb53e24", "bike_id": "03f19c6a513c44d97f72717c7fb53e24", "fusion_lon": 0.0, "rental_uris": {"ios": "https://dc.lft.to/lastmile_qr_scan", "android": "https://dc.lft.to/lastmile_qr_scan"}, "is_reserved": 0, "fusion_lat": 0.0, "lon": -77.0381965}, {"lat": 38.89632983333333, "type": "electric_scooter", "is_disabled": 0, "name": "a96b6507e8aa997292eca8923f8452d1", "bike_id": "a96b6507e8aa997292eca8923f8452d1", "fusion_lon": 0.0, "rental_uris": {"ios": "https://dc.lft.to/lastmile_qr_scan", "android": "https://dc.lft.to/lastmile_qr_scan"}, "is_reserved": 0, "fusion_lat": 0.0, "lon": -77.028601}, {"lat": 38.90603216666667, "type": "electric_scooter", "is_disabled": 0, "name": "d535cb98389e396f5132521449fbc91c", "bike_id": "d535cb98389e396f5132521449fbc91c", "fusion_lon": 0.0, "rental_uris": {"ios": "https://dc.lft.to/lastmile_qr_scan", "android": "https://dc.lft.to/lastmile_qr_scan"}, "is_reserved": 0, "fusion_lat": 0.0, "lon": -77.04339483333334}, {"lat": 38.916141333333336, "type": "electric_scooter", "is_disabled": 0, "name": "2acbeadfef162afa718caf4a33934b80", "bike_id": "2acbeadfef162afa718caf4a33934b80", "fusion_lon": 0.0, "rental_uris": {"ios": "https://dc.lft.to/lastmile_qr_scan", "android": "https://dc.lft.to/lastmile_qr_scan"}, "is_reserved": 0, "fusion_lat": 0.0, "lon": -77.03198116666667}, {"lat": 38.871826166666665, "type": "electric_scooter", "is_disabled": 0, "name": "26af8df1cb88a43fe2237ed114896a1d", "bike_id": "26af8df1cb88a43fe2237ed114896a1d", "fusion_lon": 0.0, "rental_uris": {"ios": "https://dc.lft.to/lastmile_qr_scan", "android": "https://dc.lft.to/lastmile_qr_scan"}, "is_reserved": 0, "fusion_lat": 0.0, "lon": -77.0064665}, {"lat": 38.913269166666666, "type": "electric_scooter", "is_disabled": 0, "name": "932a00e005157509f7eafeb5803c001b", "bike_id": "932a00e005157509f7eafeb5803c001b", "fusion_lon": 0.0, "rental_uris": {"ios": "https://dc.lft.to/lastmile_qr_scan", "android": "https://dc.lft.to/lastmile_qr_scan"}, "is_reserved": 0, "fusion_lat": 0.0, "lon": -77.032037}, {"lat": 38.927623833333335, "type": "electric_scooter", "is_disabled": 0, "name": "59341ac942c4839cab443538165be561", "bike_id": "59341ac942c4839cab443538165be561", "fusion_lon": 0.0, "rental_uris": {"ios": "https://dc.lft.to/lastmile_qr_scan", "android": "https://dc.lft.to/lastmile_qr_scan"}, "is_reserved": 0, "fusion_lat": 0.0, "lon": -77.03205483333333}, {"lat": 38.91013683333333, "type": "electric_scooter", "is_disabled": 0, "name": "05b31a285db059ba112b105c6e46edbc", "bike_id": "05b31a285db059ba112b105c6e46edbc", "fusion_lon": 0.0, "rental_uris": {"ios": "https://dc.lft.to/lastmile_qr_scan", "android": "https://dc.lft.to/lastmile_qr_scan"}, "is_reserved": 0, "fusion_lat": 0.0, "lon": -77.04450616666666}, {"lat": 38.926953166666664, "type": "electric_scooter", "is_disabled": 0, "name": "2b089a883312ea380d8480b2feca1b94", "bike_id": "2b089a883312ea380d8480b2feca1b94", "fusion_lon": 0.0, "rental_uris": {"ios": "https://dc.lft.to/lastmile_qr_scan", "android": "https://dc.lft.to/lastmile_qr_scan"}, "is_reserved": 0, "fusion_lat": 0.0, "lon": -77.00779633333333}, {"lat": 38.924467666666665, "type": "electric_scooter", "is_disabled": 0, "name": "84ada6fcb2a167a0e780333e7139aec1", "bike_id": "84ada6fcb2a167a0e780333e7139aec1", "fusion_lon": 0.0, "rental_uris": {"ios": "https://dc.lft.to/lastmile_qr_scan", "android": "https://dc.lft.to/lastmile_qr_scan"}, "is_reserved": 0, "fusion_lat": 0.0, "lon": -77.04019833333334}, {"lat": 38.921853, "type": "electric_scooter", "is_disabled": 0, "name": "d7d86bce3dc67c2c8c24c6f203dca817", "bike_id": "d7d86bce3dc67c2c8c24c6f203dca817", "fusion_lon": 0.0, "rental_uris": {"ios": "https://dc.lft.to/lastmile_qr_scan", "android": "https://dc.lft.to/lastmile_qr_scan"}, "is_reserved": 0, "fusion_lat": 0.0, "lon": -77.04013616666667}, {"lat": 38.89691583333333, "type": "electric_scooter", "is_disabled": 0, "name": "2bee2f3e83f77b837b4bfc0cad6b46ad", "bike_id": "2bee2f3e83f77b837b4bfc0cad6b46ad", "fusion_lon": 0.0, "rental_uris": {"ios": "https://dc.lft.to/lastmile_qr_scan", "android": "https://dc.lft.to/lastmile_qr_scan"}, "is_reserved": 0, "fusion_lat": 0.0, "lon": -77.00590216666667}, {"lat": 38.942966, "type": "electric_scooter", "is_disabled": 0, "name": "cb8c6718110c5aa44f42363dfdb9e827", "bike_id": "cb8c6718110c5aa44f42363dfdb9e827", "fusion_lon": 0.0, "rental_uris": {"ios": "https://dc.lft.to/lastmile_qr_scan", "android": "https://dc.lft.to/lastmile_qr_scan"}, "is_reserved": 0, "fusion_lat": 0.0, "lon": -77.02638116666667}, {"lat": 38.92775366666667, "type": "electric_scooter", "is_disabled": 0, "name": "46dd6611947687b99653e3b1b6bec681", "bike_id": "46dd6611947687b99653e3b1b6bec681", "fusion_lon": 0.0, "rental_uris": {"ios": "https://dc.lft.to/lastmile_qr_scan", "android": "https://dc.lft.to/lastmile_qr_scan"}, "is_reserved": 0, "fusion_lat": 0.0, "lon": -77.03707933333334}, {"lat": 38.86700783333333, "type": "electric_scooter", "is_disabled": 0, "name": "3c91076d9d6dd4b07e90b6ed2e3bce47", "bike_id": "3c91076d9d6dd4b07e90b6ed2e3bce47", "fusion_lon": 0.0, "rental_uris": {"ios": "https://dc.lft.to/lastmile_qr_scan", "android": "https://dc.lft.to/lastmile_qr_scan"}, "is_reserved": 0, "fusion_lat": 0.0, "lon": -76.985983}, {"lat": 38.91107016666667, "type": "electric_scooter", "is_disabled": 0, "name": "6d2620b48e5456502df45607927412bf", "bike_id": "6d2620b48e5456502df45607927412bf", "fusion_lon": 0.0, "rental_uris": {"ios": "https://dc.lft.to/lastmile_qr_scan", "android": "https://dc.lft.to/lastmile_qr_scan"}, "is_reserved": 0, "fusion_lat": 0.0, "lon": -77.02234066666666}, {"lat": 38.91400566666667, "type": "electric_scooter", "is_disabled": 0, "name": "da5f238ebb643ec596a4ccd66ba62580", "bike_id": "da5f238ebb643ec596a4ccd66ba62580", "fusion_lon": 0.0, "rental_uris": {"ios": "https://dc.lft.to/lastmile_qr_scan", "android": "https://dc.lft.to/lastmile_qr_scan"}, "is_reserved": 0, "fusion_lat": 0.0, "lon": -77.048841}, {"lat": 38.91991683333333, "type": "electric_scooter", "is_disabled": 0, "name": "8c30e7bfdc0f445061f9a1553c685c52", "bike_id": "8c30e7bfdc0f445061f9a1553c685c52", "fusion_lon": 0.0, "rental_uris": {"ios": "https://dc.lft.to/lastmile_qr_scan", "android": "https://dc.lft.to/lastmile_qr_scan"}, "is_reserved": 0, "fusion_lat": 0.0, "lon": -77.02373716666666}, {"lat": 38.915680333333334, "type": "electric_scooter", "is_disabled": 0, "name": "636dd3629dd6c8b5a343d6f1b68bef7d", "bike_id": "636dd3629dd6c8b5a343d6f1b68bef7d", "fusion_lon": 0.0, "rental_uris": {"ios": "https://dc.lft.to/lastmile_qr_scan", "android": "https://dc.lft.to/lastmile_qr_scan"}, "is_reserved": 0, "fusion_lat": 0.0, "lon": -77.020086}, {"lat": 38.920081333333336, "type": "electric_scooter", "is_disabled": 0, "name": "1b91bac45e550c380192d7102df5ca98", "bike_id": "1b91bac45e550c380192d7102df5ca98", "fusion_lon": 0.0, "rental_uris": {"ios": "https://dc.lft.to/lastmile_qr_scan", "android": "https://dc.lft.to/lastmile_qr_scan"}, "is_reserved": 0, "fusion_lat": 0.0, "lon": -76.98503183333334}, {"lat": 38.924175, "type": "electric_scooter", "is_disabled": 0, "name": "ff6d1ddfb7ce6f1e745fc140a335a17f", "bike_id": "ff6d1ddfb7ce6f1e745fc140a335a17f", "fusion_lon": 0.0, "rental_uris": {"ios": "https://dc.lft.to/lastmile_qr_scan", "android": "https://dc.lft.to/lastmile_qr_scan"}, "is_reserved": 0, "fusion_lat": 0.0, "lon": -77.0213265}, {"lat": 38.88123316666667, "type": "electric_scooter", "is_disabled": 0, "name": "8c9a290150c4c4589089bfdb6d1b6a71", "bike_id": "8c9a290150c4c4589089bfdb6d1b6a71", "fusion_lon": 0.0, "rental_uris": {"ios": "https://dc.lft.to/lastmile_qr_scan", "android": "https://dc.lft.to/lastmile_qr_scan"}, "is_reserved": 0, "fusion_lat": 0.0, "lon": -76.99346633333333}, {"lat": 38.916231, "type": "electric_scooter", "is_disabled": 0, "name": "d7ec47cd311c5785fea40c498c74ee41", "bike_id": "d7ec47cd311c5785fea40c498c74ee41", "fusion_lon": 0.0, "rental_uris": {"ios": "https://dc.lft.to/lastmile_qr_scan", "android": "https://dc.lft.to/lastmile_qr_scan"}, "is_reserved": 0, "fusion_lat": 0.0, "lon": -77.05056683333333}, {"lat": 38.935239333333335, "type": "electric_scooter", "is_disabled": 0, "name": "65793f06d11a707b3178e8254c630fec", "bike_id": "65793f06d11a707b3178e8254c630fec", "fusion_lon": 0.0, "rental_uris": {"ios": "https://dc.lft.to/lastmile_qr_scan", "android": "https://dc.lft.to/lastmile_qr_scan"}, "is_reserved": 0, "fusion_lat": 0.0, "lon": -77.03491233333334}, {"lat": 38.921518, "type": "electric_scooter", "is_disabled": 0, "name": "ca9fb2c57918aee53e0c4d8e79c5274b", "bike_id": "ca9fb2c57918aee53e0c4d8e79c5274b", "fusion_lon": 0.0, "rental_uris": {"ios": "https://dc.lft.to/lastmile_qr_scan", "android": "https://dc.lft.to/lastmile_qr_scan"}, "is_reserved": 0, "fusion_lat": 0.0, "lon": -77.04222733333333}, {"lat": 38.902921, "type": "electric_scooter", "is_disabled": 0, "name": "0430b080353923120adac3e9fa21f55f", "bike_id": "0430b080353923120adac3e9fa21f55f", "fusion_lon": 0.0, "rental_uris": {"ios": "https://dc.lft.to/lastmile_qr_scan", "android": "https://dc.lft.to/lastmile_qr_scan"}, "is_reserved": 0, "fusion_lat": 0.0, "lon": -77.03365566666666}, {"lat": 38.89823633333334, "type": "electric_scooter", "is_disabled": 0, "name": "5aebd8d0ab1313ad1cc7b8b1c72ca2d2", "bike_id": "5aebd8d0ab1313ad1cc7b8b1c72ca2d2", "fusion_lon": 0.0, "rental_uris": {"ios": "https://dc.lft.to/lastmile_qr_scan", "android": "https://dc.lft.to/lastmile_qr_scan"}, "is_reserved": 0, "fusion_lat": 0.0, "lon": -76.930109}, {"lat": 38.93861016666666, "type": "electric_scooter", "is_disabled": 0, "name": "e20abdb04662ba16d4576b5fa94b588c", "bike_id": "e20abdb04662ba16d4576b5fa94b588c", "fusion_lon": 0.0, "rental_uris": {"ios": "https://dc.lft.to/lastmile_qr_scan", "android": "https://dc.lft.to/lastmile_qr_scan"}, "is_reserved": 0, "fusion_lat": 0.0, "lon": -77.025211}, {"lat": 38.90046016666667, "type": "electric_scooter", "is_disabled": 0, "name": "b237b11102e3f4e13bf64fee4537e99c", "bike_id": "b237b11102e3f4e13bf64fee4537e99c", "fusion_lon": 0.0, "rental_uris": {"ios": "https://dc.lft.to/lastmile_qr_scan", "android": "https://dc.lft.to/lastmile_qr_scan"}, "is_reserved": 0, "fusion_lat": 0.0, "lon": -77.0296335}, {"lat": 38.8621865, "type": "electric_scooter", "is_disabled": 0, "name": "4e77f3867ec432d6b6a0d380874a25e5", "bike_id": "4e77f3867ec432d6b6a0d380874a25e5", "fusion_lon": 0.0, "rental_uris": {"ios": "https://dc.lft.to/lastmile_qr_scan", "android": "https://dc.lft.to/lastmile_qr_scan"}, "is_reserved": 0, "fusion_lat": 0.0, "lon": -76.99464233333333}, {"lat": 38.892268666666666, "type": "electric_scooter", "is_disabled": 0, "name": "4e88ae6dc17bb7d769bcf296059810c6", "bike_id": "4e88ae6dc17bb7d769bcf296059810c6", "fusion_lon": 0.0, "rental_uris": {"ios": "https://dc.lft.to/lastmile_qr_scan", "android": "https://dc.lft.to/lastmile_qr_scan"}, "is_reserved": 0, "fusion_lat": 0.0, "lon": -77.0274065}, {"lat": 38.89040816666667, "type": "electric_scooter", "is_disabled": 0, "name": "4d0f3470186b087ed4e6e95bef6aa1ee", "bike_id": "4d0f3470186b087ed4e6e95bef6aa1ee", "fusion_lon": 0.0, "rental_uris": {"ios": "https://dc.lft.to/lastmile_qr_scan", "android": "https://dc.lft.to/lastmile_qr_scan"}, "is_reserved": 0, "fusion_lat": 0.0, "lon": -76.93753333333333}, {"lat": 38.92442233333333, "type": "electric_scooter", "is_disabled": 0, "name": "fcad4ef4ad1e8a7dd3302a9761df2955", "bike_id": "fcad4ef4ad1e8a7dd3302a9761df2955", "fusion_lon": 0.0, "rental_uris": {"ios": "https://dc.lft.to/lastmile_qr_scan", "android": "https://dc.lft.to/lastmile_qr_scan"}, "is_reserved": 0, "fusion_lat": 0.0, "lon": -77.052063}, {"lat": 38.900374166666666, "type": "electric_scooter", "is_disabled": 0, "name": "b8f03835272496a7ac6650971bd16b58", "bike_id": "b8f03835272496a7ac6650971bd16b58", "fusion_lon": 0.0, "rental_uris": {"ios": "https://dc.lft.to/lastmile_qr_scan", "android": "https://dc.lft.to/lastmile_qr_scan"}, "is_reserved": 0, "fusion_lat": 0.0, "lon": -76.98848916666667}, {"lat": 38.8358625, "type": "electric_bike", "is_disabled": 0, "name": "d4ba11237f5f1293adca1b76380ea1b0", "bike_id": "d4ba11237f5f1293adca1b76380ea1b0", "fusion_lon": 0.0, "rental_uris": {"ios": "https://dc.lft.to/lastmile_qr_scan", "android": "https://dc.lft.to/lastmile_qr_scan"}, "is_reserved": 0, "fusion_lat": 0.0, "lon": -76.99026333333333}, {"lat": 38.90010633333333, "type": "electric_scooter", "is_disabled": 0, "name": "d3cf39cafb72230bb65d94c4efe80ba7", "bike_id": "d3cf39cafb72230bb65d94c4efe80ba7", "fusion_lon": 0.0, "rental_uris": {"ios": "https://dc.lft.to/lastmile_qr_scan", "android": "https://dc.lft.to/lastmile_qr_scan"}, "is_reserved": 0, "fusion_lat": 0.0, "lon": -77.03161966666667}, {"lat": 38.87287716666667, "type": "electric_scooter", "is_disabled": 0, "name": "c05a3ea6a23f43875dfdeea13b856c28", "bike_id": "c05a3ea6a23f43875dfdeea13b856c28", "fusion_lon": 0.0, "rental_uris": {"ios": "https://dc.lft.to/lastmile_qr_scan", "android": "https://dc.lft.to/lastmile_qr_scan"}, "is_reserved": 0, "fusion_lat": 0.0, "lon": -77.00987483333333}, {"lat": 38.9282115, "type": "electric_scooter", "is_disabled": 0, "name": "82b52c204adae2333a628512c7ce67c3", "bike_id": "82b52c204adae2333a628512c7ce67c3", "fusion_lon": 0.0, "rental_uris": {"ios": "https://dc.lft.to/lastmile_qr_scan", "android": "https://dc.lft.to/lastmile_qr_scan"}, "is_reserved": 0, "fusion_lat": 0.0, "lon": -77.022993}, {"lat": 38.8752535, "type": "electric_scooter", "is_disabled": 0, "name": "dee62c84862cf1fb2a344377f474c9ca", "bike_id": "dee62c84862cf1fb2a344377f474c9ca", "fusion_lon": 0.0, "rental_uris": {"ios": "https://dc.lft.to/lastmile_qr_scan", "android": "https://dc.lft.to/lastmile_qr_scan"}, "is_reserved": 0, "fusion_lat": 0.0, "lon": -77.0123095}, {"lat": 38.94493116666666, "type": "electric_scooter", "is_disabled": 0, "name": "9aea57071d427cb85165e8def34d366d", "bike_id": "9aea57071d427cb85165e8def34d366d", "fusion_lon": 0.0, "rental_uris": {"ios": "https://dc.lft.to/lastmile_qr_scan", "android": "https://dc.lft.to/lastmile_qr_scan"}, "is_reserved": 0, "fusion_lat": 0.0, "lon": -77.0261905}, {"lat": 38.9254365, "type": "electric_scooter", "is_disabled": 0, "name": "84f93113d5ea4f5ac5aa890ffacef635", "bike_id": "84f93113d5ea4f5ac5aa890ffacef635", "fusion_lon": 0.0, "rental_uris": {"ios": "https://dc.lft.to/lastmile_qr_scan", "android": "https://dc.lft.to/lastmile_qr_scan"}, "is_reserved": 0, "fusion_lat": 0.0, "lon": -77.00063616666667}, {"lat": 38.90858766666667, "type": "electric_bike", "is_disabled": 0, "name": "d0a7785b1e87d287512cf0f4d620018a", "bike_id": "d0a7785b1e87d287512cf0f4d620018a", "fusion_lon": 0.0, "rental_uris": {"ios": "https://dc.lft.to/lastmile_qr_scan", "android": "https://dc.lft.to/lastmile_qr_scan"}, "is_reserved": 0, "fusion_lat": 0.0, "lon": -77.080758}, {"lat": 38.908017, "type": "electric_scooter", "is_disabled": 0, "name": "60ea609f974e4dcc502cce8278cd38a1", "bike_id": "60ea609f974e4dcc502cce8278cd38a1", "fusion_lon": 0.0, "rental_uris": {"ios": "https://dc.lft.to/lastmile_qr_scan", "android": "https://dc.lft.to/lastmile_qr_scan"}, "is_reserved": 0, "fusion_lat": 0.0, "lon": -77.08395216666666}, {"lat": 38.97256633333333, "type": "electric_bike", "is_disabled": 0, "name": "2c330823924d3d312afaa69f1d9c4fd0", "bike_id": "2c330823924d3d312afaa69f1d9c4fd0", "fusion_lon": 0.0, "rental_uris": {"ios": "https://dc.lft.to/lastmile_qr_scan", "android": "https://dc.lft.to/lastmile_qr_scan"}, "is_reserved": 0, "fusion_lat": 0.0, "lon": -76.99276866666666}, {"lat": 38.9042025, "type": "electric_scooter", "is_disabled": 0, "name": "19818b9551d4c4539da2aaacd29257eb", "bike_id": "19818b9551d4c4539da2aaacd29257eb", "fusion_lon": 0.0, "rental_uris": {"ios": "https://dc.lft.to/lastmile_qr_scan", "android": "https://dc.lft.to/lastmile_qr_scan"}, "is_reserved": 0, "fusion_lat": 0.0, "lon": -77.0329595}, {"lat": 38.92351816666667, "type": "electric_scooter", "is_disabled": 0, "name": "7d9d429ae06e021174c15fe165d7e9a5", "bike_id": "7d9d429ae06e021174c15fe165d7e9a5", "fusion_lon": 0.0, "rental_uris": {"ios": "https://dc.lft.to/lastmile_qr_scan", "android": "https://dc.lft.to/lastmile_qr_scan"}, "is_reserved": 0, "fusion_lat": 0.0, "lon": -77.02109883333334}, {"lat": 38.892183833333334, "type": "electric_scooter", "is_disabled": 0, "name": "d96a71c5894c61c3d913de24b53cbf43", "bike_id": "d96a71c5894c61c3d913de24b53cbf43", "fusion_lon": 0.0, "rental_uris": {"ios": "https://dc.lft.to/lastmile_qr_scan", "android": "https://dc.lft.to/lastmile_qr_scan"}, "is_reserved": 0, "fusion_lat": 0.0, "lon": -77.04147983333333}, {"lat": 38.975403, "type": "electric_scooter", "is_disabled": 0, "name": "47d5348c52ac43688405f2c55c3a9178", "bike_id": "47d5348c52ac43688405f2c55c3a9178", "fusion_lon": 0.0, "rental_uris": {"ios": "https://dc.lft.to/lastmile_qr_scan", "android": "https://dc.lft.to/lastmile_qr_scan"}, "is_reserved": 0, "fusion_lat": 0.0, "lon": -77.02660666666667}, {"lat": 38.902534833333334, "type": "electric_scooter", "is_disabled": 0, "name": "b143ac76b99bf65c99ff85d00db4bb00", "bike_id": "b143ac76b99bf65c99ff85d00db4bb00", "fusion_lon": 0.0, "rental_uris": {"ios": "https://dc.lft.to/lastmile_qr_scan", "android": "https://dc.lft.to/lastmile_qr_scan"}, "is_reserved": 0, "fusion_lat": 0.0, "lon": -77.0342235}, {"lat": 38.921372166666664, "type": "electric_scooter", "is_disabled": 0, "name": "55ad9bc268224638eccf5b0bc961f091", "bike_id": "55ad9bc268224638eccf5b0bc961f091", "fusion_lon": 0.0, "rental_uris": {"ios": "https://dc.lft.to/lastmile_qr_scan", "android": "https://dc.lft.to/lastmile_qr_scan"}, "is_reserved": 0, "fusion_lat": 0.0, "lon": -77.01806233333333}, {"lat": 38.906128, "type": "electric_scooter", "is_disabled": 0, "name": "93813189b188743d0bd02a4d780df3a7", "bike_id": "93813189b188743d0bd02a4d780df3a7", "fusion_lon": 0.0, "rental_uris": {"ios": "https://dc.lft.to/lastmile_qr_scan", "android": "https://dc.lft.to/lastmile_qr_scan"}, "is_reserved": 0, "fusion_lat": 0.0, "lon": -77.0148995}, {"lat": 38.855706833333336, "type": "electric_bike", "is_disabled": 0, "name": "079f07b9e4619dc798fe2b010f18453b", "bike_id": "079f07b9e4619dc798fe2b010f18453b", "fusion_lon": 0.0, "rental_uris": {"ios": "https://dc.lft.to/lastmile_qr_scan", "android": "https://dc.lft.to/lastmile_qr_scan"}, "is_reserved": 0, "fusion_lat": 0.0, "lon": -77.05335166666667}, {"lat": 38.92040216666667, "type": "electric_scooter", "is_disabled": 0, "name": "59edb199d825f683ee357fda0903f53c", "bike_id": "59edb199d825f683ee357fda0903f53c", "fusion_lon": 0.0, "rental_uris": {"ios": "https://dc.lft.to/lastmile_qr_scan", "android": "https://dc.lft.to/lastmile_qr_scan"}, "is_reserved": 0, "fusion_lat": 0.0, "lon": -77.0167285}, {"lat": 38.877020333333334, "type": "electric_scooter", "is_disabled": 0, "name": "13984d67d0073f57045239e447bf1d9a", "bike_id": "13984d67d0073f57045239e447bf1d9a", "fusion_lon": 0.0, "rental_uris": {"ios": "https://dc.lft.to/lastmile_qr_scan", "android": "https://dc.lft.to/lastmile_qr_scan"}, "is_reserved": 0, "fusion_lat": 0.0, "lon": -76.99320816666666}, {"lat": 38.93463083333333, "type": "electric_scooter", "is_disabled": 0, "name": "f8df4cd3e19cb7496e4a8813fc4568fc", "bike_id": "f8df4cd3e19cb7496e4a8813fc4568fc", "fusion_lon": 0.0, "rental_uris": {"ios": "https://dc.lft.to/lastmile_qr_scan", "android": "https://dc.lft.to/lastmile_qr_scan"}, "is_reserved": 0, "fusion_lat": 0.0, "lon": -77.05808133333333}, {"lat": 38.951152, "type": "electric_bike", "is_disabled": 0, "name": "954c81e42cda09138dda369d41b04c34", "bike_id": "954c81e42cda09138dda369d41b04c34", "fusion_lon": 0.0, "rental_uris": {"ios": "https://dc.lft.to/lastmile_qr_scan", "android": "https://dc.lft.to/lastmile_qr_scan"}, "is_reserved": 0, "fusion_lat": 0.0, "lon": -77.08874333333333}, {"lat": 38.903825166666664, "type": "electric_scooter", "is_disabled": 0, "name": "b008e4f8966bee1104a6136219efa7ff", "bike_id": "b008e4f8966bee1104a6136219efa7ff", "fusion_lon": 0.0, "rental_uris": {"ios": "https://dc.lft.to/lastmile_qr_scan", "android": "https://dc.lft.to/lastmile_qr_scan"}, "is_reserved": 0, "fusion_lat": 0.0, "lon": -77.0504375}, {"lat": 38.928542666666665, "type": "electric_bike", "is_disabled": 0, "name": "8a6fae4b701db9e92e9f2e4f2efb0d49", "bike_id": "8a6fae4b701db9e92e9f2e4f2efb0d49", "fusion_lon": 0.0, "rental_uris": {"ios": "https://dc.lft.to/lastmile_qr_scan", "android": "https://dc.lft.to/lastmile_qr_scan"}, "is_reserved": 0, "fusion_lat": 0.0, "lon": -76.990099}, {"lat": 38.906836, "type": "electric_scooter", "is_disabled": 0, "name": "f9630bcf0193fcc03cc3d1f97b60f8e5", "bike_id": "f9630bcf0193fcc03cc3d1f97b60f8e5", "fusion_lon": 0.0, "rental_uris": {"ios": "https://dc.lft.to/lastmile_qr_scan", "android": "https://dc.lft.to/lastmile_qr_scan"}, "is_reserved": 0, "fusion_lat": 0.0, "lon": -77.02692816666666}, {"lat": 38.904203333333335, "type": "electric_scooter", "is_disabled": 0, "name": "cbd5f0c4b45d5f83abbbeab9a93ad7fe", "bike_id": "cbd5f0c4b45d5f83abbbeab9a93ad7fe", "fusion_lon": 0.0, "rental_uris": {"ios": "https://dc.lft.to/lastmile_qr_scan", "android": "https://dc.lft.to/lastmile_qr_scan"}, "is_reserved": 0, "fusion_lat": 0.0, "lon": -77.03296}, {"lat": 38.923154333333336, "type": "electric_scooter", "is_disabled": 0, "name": "873a6afac9296269403f214ba3f274f6", "bike_id": "873a6afac9296269403f214ba3f274f6", "fusion_lon": 0.0, "rental_uris": {"ios": "https://dc.lft.to/lastmile_qr_scan", "android": "https://dc.lft.to/lastmile_qr_scan"}, "is_reserved": 0, "fusion_lat": 0.0, "lon": -77.02896366666667}, {"lat": 38.92466066666667, "type": "electric_scooter", "is_disabled": 0, "name": "4bb4cdd6b5c5e06421bd60a9ae50a177", "bike_id": "4bb4cdd6b5c5e06421bd60a9ae50a177", "fusion_lon": 0.0, "rental_uris": {"ios": "https://dc.lft.to/lastmile_qr_scan", "android": "https://dc.lft.to/lastmile_qr_scan"}, "is_reserved": 0, "fusion_lat": 0.0, "lon": -77.03004466666667}, {"lat": 38.935972, "type": "electric_scooter", "is_disabled": 0, "name": "49b90635ae6f5342681d18b4bcbc1fed", "bike_id": "49b90635ae6f5342681d18b4bcbc1fed", "fusion_lon": 0.0, "rental_uris": {"ios": "https://dc.lft.to/lastmile_qr_scan", "android": "https://dc.lft.to/lastmile_qr_scan"}, "is_reserved": 0, "fusion_lat": 0.0, "lon": -77.0588995}, {"lat": 38.88731583333333, "type": "electric_scooter", "is_disabled": 0, "name": "4913d624a542b0c379c8b676818050ac", "bike_id": "4913d624a542b0c379c8b676818050ac", "fusion_lon": 0.0, "rental_uris": {"ios": "https://dc.lft.to/lastmile_qr_scan", "android": "https://dc.lft.to/lastmile_qr_scan"}, "is_reserved": 0, "fusion_lat": 0.0, "lon": -77.01388266666666}, {"lat": 38.90328733333333, "type": "electric_scooter", "is_disabled": 0, "name": "30c0cef6c21cbccf84a33c3317ca3c12", "bike_id": "30c0cef6c21cbccf84a33c3317ca3c12", "fusion_lon": 0.0, "rental_uris": {"ios": "https://dc.lft.to/lastmile_qr_scan", "android": "https://dc.lft.to/lastmile_qr_scan"}, "is_reserved": 0, "fusion_lat": 0.0, "lon": -77.02470983333333}, {"lat": 38.894893833333334, "type": "electric_scooter", "is_disabled": 0, "name": "544f516711b15ce569df62aa5a4e2440", "bike_id": "544f516711b15ce569df62aa5a4e2440", "fusion_lon": 0.0, "rental_uris": {"ios": "https://dc.lft.to/lastmile_qr_scan", "android": "https://dc.lft.to/lastmile_qr_scan"}, "is_reserved": 0, "fusion_lat": 0.0, "lon": -76.9489005}, {"lat": 38.888401333333334, "type": "electric_scooter", "is_disabled": 0, "name": "70a7540884bf3962589260a678cafcd9", "bike_id": "70a7540884bf3962589260a678cafcd9", "fusion_lon": 0.0, "rental_uris": {"ios": "https://dc.lft.to/lastmile_qr_scan", "android": "https://dc.lft.to/lastmile_qr_scan"}, "is_reserved": 0, "fusion_lat": 0.0, "lon": -76.97722766666666}, {"lat": 38.9298695, "type": "electric_scooter", "is_disabled": 0, "name": "2ca8f1c3e49f3971524ef539e0866f97", "bike_id": "2ca8f1c3e49f3971524ef539e0866f97", "fusion_lon": 0.0, "rental_uris": {"ios": "https://dc.lft.to/lastmile_qr_scan", "android": "https://dc.lft.to/lastmile_qr_scan"}, "is_reserved": 0, "fusion_lat": 0.0, "lon": -77.03475333333333}, {"lat": 38.92136683333333, "type": "electric_scooter", "is_disabled": 0, "name": "73e8e383443b0a1303e8d994ee5cfe32", "bike_id": "73e8e383443b0a1303e8d994ee5cfe32", "fusion_lon": 0.0, "rental_uris": {"ios": "https://dc.lft.to/lastmile_qr_scan", "android": "https://dc.lft.to/lastmile_qr_scan"}, "is_reserved": 0, "fusion_lat": 0.0, "lon": -77.021479}, {"lat": 38.912657333333335, "type": "electric_scooter", "is_disabled": 0, "name": "3918ce7ddbec400bd3240ab7ba498a3e", "bike_id": "3918ce7ddbec400bd3240ab7ba498a3e", "fusion_lon": 0.0, "rental_uris": {"ios": "https://dc.lft.to/lastmile_qr_scan", "android": "https://dc.lft.to/lastmile_qr_scan"}, "is_reserved": 0, "fusion_lat": 0.0, "lon": -77.01475733333334}, {"lat": 38.896916833333336, "type": "electric_bike", "is_disabled": 0, "name": "32f2fcde505ff973a7e9bb36322a2d67", "bike_id": "32f2fcde505ff973a7e9bb36322a2d67", "fusion_lon": 0.0, "rental_uris": {"ios": "https://dc.lft.to/lastmile_qr_scan", "android": "https://dc.lft.to/lastmile_qr_scan"}, "is_reserved": 0, "fusion_lat": 0.0, "lon": -76.93241733333333}, {"lat": 38.92151616666666, "type": "electric_scooter", "is_disabled": 0, "name": "04ebcf350af2aa01bf44b987907a3c5b", "bike_id": "04ebcf350af2aa01bf44b987907a3c5b", "fusion_lon": 0.0, "rental_uris": {"ios": "https://dc.lft.to/lastmile_qr_scan", "android": "https://dc.lft.to/lastmile_qr_scan"}, "is_reserved": 0, "fusion_lat": 0.0, "lon": -77.04239983333333}, {"lat": 38.8961695, "type": "electric_scooter", "is_disabled": 0, "name": "9b78966aad0aba8ed37c1576d7ce4bf3", "bike_id": "9b78966aad0aba8ed37c1576d7ce4bf3", "fusion_lon": 0.0, "rental_uris": {"ios": "https://dc.lft.to/lastmile_qr_scan", "android": "https://dc.lft.to/lastmile_qr_scan"}, "is_reserved": 0, "fusion_lat": 0.0, "lon": -77.03037766666667},