{"data": {"bikes": [{"bike_id": "1b8f512b77537c5cbf584e15bf1ec5dc", "type": "electric_scooter", "is_disabled": 0, "lat": 38.916082333333335, "rental_uris": {"ios": "https://dc.lft.to/lastmile_qr_scan", "android": "https://dc.lft.to/lastmile_qr_scan"}, "is_reserved": 0, "fusion_lon": 0.0, "fusion_lat": 0.0, "lon": -77.02302916666666, "name": "1b8f512b77537c5cbf584e15bf1ec5dc"}, {"bike_id": "ff0724db38c918612c81005268dc3219", "type": "electric_scooter", "is_disabled": 0, "lat": 38.87871233333333, "rental_uris": {"ios": "https://dc.lft.to/lastmile_qr_scan", "android": "https://dc.lft.to/lastmile_qr_scan"}, "is_reserved": 0, "fusion_lon": 0.0, "fusion_lat": 0.0, "lon": -76.96985533333333, "name": "ff0724db38c918612c81005268dc3219"}, {"bike_id": "f72311870014ee9b208a3dcb2ba943a9", "type": "electric_scooter", "is_disabled": 0, "lat": 38.87422866666667, "rental_uris": {"ios": "https://dc.lft.to/lastmile_qr_scan", "android": "https://dc.lft.to/lastmile_qr_scan"}, "is_reserved": 0, "fusion_lon": 0.0, "fusion_lat": 0.0, "lon": -76.96909433333333, "name": "f72311870014ee9b208a3dcb2ba943a9"}, {"bike_id": "1552b779b257c6af2d1a9b9840d3d47e", "type": "electric_scooter", "is_disabled": 0, "lat": 38.908574, "rental_uris": {"ios": "https://dc.lft.to/lastmile_qr_scan", "android": "https://dc.lft.to/lastmile_qr_scan"}, "is_reserved": 0, "fusion_lon": 0.0, "fusion_lat": 0.0, "lon": -76.99949733333334, "name": "1552b779b257c6af2d1a9b9840d3d47e"}, {"bike_id": "b3338a096c68090f21b0c71524911890", "type": "electric_scooter", "is_disabled": 0, "lat": 38.907514166666665, "rental_uris": {"ios": "https://dc.lft.to/lastmile_qr_scan", "android": "https://dc.lft.to/lastmile_qr_scan"}, "is_reserved": 0, "fusion_lon": 0.0, "fusion_lat": 0.0, "lon": -77.036049, "name": "b3338a096c68090f21b0c71524911890"}, {"bike_id": "2555c52df786fa7f7665443e934851b6", "type": "electric_scooter", "is_disabled": 0, "lat": 38.9157295, "rental_uris": {"ios": "https://dc.lft.to/lastmile_qr_scan", "android": "https://dc.lft.to/lastmile_qr_scan"}, "is_reserved": 0, "fusion_lon": 0.0, "fusion_lat": 0.0, "lon": -77.0206255, "name": "2555c52df786fa7f7665443e934851b6"}, {"bike_id": "9ac41f4f355883de20d3d1e404660bc8", "type": "electric_scooter", "is_disabled": 0, "lat": 38.94273833333333, "rental_uris": {"ios": "https://dc.lft.to/lastmile_qr_scan", "android": "https://dc.lft.to/lastmile_qr_scan"}, "is_reserved": 0, "fusion_lon": 0.0, "fusion_lat": 0.0, "lon": -77.03257, "name": "9ac41f4f355883de20d3d1e404660bc8"}, {"bike_id": "7ca86e0e97752c2274f74270558c3b4e", "type": "electric_scooter", "is_disabled": 0, "lat": 38.866895, "rental_uris": {"ios": "https://dc.lft.to/lastmile_qr_scan", "android": "https://dc.lft.to/lastmile_qr_scan"}, "is_reserved": 0, "fusion_lon": 0.0, "fusion_lat": 0.0, "lon": -76.98591433333333, "name": "7ca86e0e97752c2274f74270558c3b4e"}, {"bike_id": "28f9007a3aeee8f2400b92c72b614aae", "type": "electric_scooter", "is_disabled": 0, "lat": 38.9247635, "rental_uris": {"ios": "https://dc.lft.to/lastmile_qr_scan", "android": "https://dc.lft.to/lastmile_qr_scan"}, "is_reserved": 0, "fusion_lon": 0.0, "fusion_lat": 0.0, "lon": -77.02830616666667, "name": "28f9007a3aeee8f2400b92c72b614aae"}, {"bike_id": "97286d9d82b511bc7db7675b0faa07f6", "type": "electric_scooter", "is_disabled": 0, "lat": 38.8900205, "rental_uris": {"ios": "https://dc.lft.to/lastmile_qr_scan", "android": "https://dc.lft.to/lastmile_qr_scan"}, "is_reserved": 0, "fusion_lon": 0.0, "fusion_lat": 0.0, "lon": -76.93746983333334, "name": "97286d9d82b511bc7db7675b0faa07f6"}, {"bike_id": "031015d2532dfbd175a509ef7537e98d", "type": "electric_scooter", "is_disabled": 0, "lat": 38.853194333333334, "rental_uris": {"ios": "https://dc.lft.to/lastmile_qr_scan", "android": "https://dc.lft.to/lastmile_qr_scan"}, "is_reserved": 0, "fusion_lon": 0.0, "fusion_lat": 0.0, "lon": -76.98010183333334, "name": "031015d2532dfbd175a509ef7537e98d"}, {"bike_id": "cf6e3dcf9415701bcdd5794ae53ccfbe", "type": "electric_scooter", "is_disabled": 0, "lat": 38.893299666666664, "rental_uris": {"ios": "https://dc.lft.to/lastmile_qr_scan", "android": "https://dc.lft.to/lastmile_qr_scan"}, "is_reserved": 0, "fusion_lon": 0.0, "fusion_lat": 0.0, "lon": -77.048825, "name": "cf6e3dcf9415701bcdd5794ae53ccfbe"}, {"bike_id": "f9c7e200604c54986ad0dc4ea724712e", "type": "electric_scooter", "is_disabled": 0, "lat": 38.91215716666667, "rental_uris": {"ios": "https://dc.lft.to/lastmile_qr_scan", "android": "https://dc.lft.to/lastmile_qr_scan"}, "is_reserved": 0, "fusion_lon": 0.0, "fusion_lat": 0.0, "lon": -77.03466466666667, "name": "f9c7e200604c54986ad0dc4ea724712e"}, {"bike_id": "481468ba2ec80bbff14796ca27f57af8", "type": "electric_scooter", "is_disabled": 0, "lat": 38.911776, "rental_uris": {"ios": "https://dc.lft.to/lastmile_qr_scan", "android": "https://dc.lft.to/lastmile_qr_scan"}, "is_reserved": 0, "fusion_lon": 0.0, "fusion_lat": 0.0, "lon": -77.02376833333334, "name": "481468ba2ec80bbff14796ca27f57af8"}, {"bike_id": "78355d03e799049f5449eae4eb957c41", "type": "electric_bike", "is_disabled": 0, "lat": 38.92011316666667, "rental_uris": {"ios": "https://dc.lft.to/lastmile_qr_scan", "android": "https://dc.lft.to/lastmile_qr_scan"}, "is_reserved": 0, "fusion_lon": 0.0, "fusion_lat": 0.0, "lon": -76.99281066666667, "name": "78355d03e799049f5449eae4eb957c41"}, {"bike_id": "52593c22e34197f558862577a7f121c6", "type": "electric_scooter", "is_disabled": 0, "lat": 38.87457033333333, "rental_uris": {"ios": "https://dc.lft.to/lastmile_qr_scan", "android": "https://dc.lft.to/lastmile_qr_scan"}, "is_reserved": 0, "fusion_lon": 0.0, "fusion_lat": 0.0, "lon": -77.0094015, "name": "52593c22e34197f558862577a7f121c6"}, {"bike_id": "1c5381982f0dba5a78177aa716724946", "type": "electric_scooter", "is_disabled": 0, "lat": 38.931132, "rental_uris": {"ios": "https://dc.lft.to/lastmile_qr_scan", "android": "https://dc.lft.to/lastmile_qr_scan"}, "is_reserved": 0, "fusion_lon": 0.0, "fusion_lat": 0.0, "lon": -77.03469033333333, "name": "1c5381982f0dba5a78177aa716724946"}, {"bike_id": "7931c345c65b3fa008c0939ff6ee37be", "type": "electric_scooter", "is_disabled": 0, "lat": 38.915832333333334, "rental_uris": {"ios": "https://dc.lft.to/lastmile_qr_scan", "android": "https://dc.lft.to/lastmile_qr_scan"}, "is_reserved": 0, "fusion_lon": 0.0, "fusion_lat": 0.0, "lon": -77.01144866666667, "name": "7931c345c65b3fa008c0939ff6ee37be"}, {"bike_id": "7fdd46e0beb3ba99d933324a243a2ebe", "type": "electric_scooter", "is_disabled": 0, "lat": 38.92181716666666, "rental_uris": {"ios": "https://dc.lft.to/lastmile_qr_scan", "android": "https://dc.lft.to/lastmile_qr_scan"}, "is_reserved": 0, "fusion_lon": 0.0, "fusion_lat": 0.0, "lon": -77.04230116666666, "name": "7fdd46e0beb3ba99d933324a243a2ebe"}, {"bike_id": "0f101bce6708b9e5ff43a7fa59186366", "type": "electric_scooter", "is_disabled": 0, "lat": 38.936870666666664, "rental_uris": {"ios": "https://dc.lft.to/lastmile_qr_scan", "android": "https://dc.lft.to/lastmile_qr_scan"}, "is_reserved": 0, "fusion_lon": 0.0, "fusion_lat": 0.0, "lon": -77.0662865, "name": "0f101bce6708b9e5ff43a7fa59186366"}, {"bike_id": "0ec27e2981837cd3a7bfe91c758ee733", "type": "electric_scooter", "is_disabled": 0, "lat": 38.92294733333333, "rental_uris": {"ios": "https://dc.lft.to/lastmile_qr_scan", "android": "https://dc.lft.to/lastmile_qr_scan"}, "is_reserved": 0, "fusion_lon": 0.0, "fusion_lat": 0.0, "lon": -77.0731905, "name": "0ec27e2981837cd3a7bfe91c758ee733"}, {"bike_id": "1ffcc5e3824bd20a6279c4d2d785740f", "type": "electric_scooter", "is_disabled": 0, "lat": 38.908762833333334, "rental_uris": {"ios": "https://dc.lft.to/lastmile_qr_scan", "android": "https://dc.lft.to/lastmile_qr_scan"}, "is_reserved": 0, "fusion_lon": 0.0, "fusion_lat": 0.0, "lon": -77.04493566666666, "name": "1ffcc5e3824bd20a6279c4d2d785740f"}, {"bike_id": "bcae2980fe4b352848e000f7d0aaeb95", "type": "electric_scooter", "is_disabled": 0, "lat": 38.916953166666666, "rental_uris": {"ios": "https://dc.lft.to/lastmile_qr_scan", "android": "https://dc.lft.to/lastmile_qr_scan"}, "is_reserved": 0, "fusion_lon": 0.0, "fusion_lat": 0.0, "lon": -77.02903216666667, "name": "bcae2980fe4b352848e000f7d0aaeb95"}, {"bike_id": "ee77f2f66f4d0e99d59823770302f300", "type": "electric_bike", "is_disabled": 0, "lat": 38.957041333333336, "rental_uris": {"ios": "https://dc.lft.to/lastmile_qr_scan", "android": "https://dc.lft.to/lastmile_qr_scan"}, "is_reserved": 0, "fusion_lon": 0.0, "fusion_lat": 0.0, "lon": -77.023991, "name": "ee77f2f66f4d0e99d59823770302f300"}, {"bike_id": "559d95ec7b978c9311e83e93d8822774", "type": "electric_bike", "is_disabled": 0, "lat": 39.02441816666666, "rental_uris": {"ios": "https://dc.lft.to/lastmile_qr_scan", "android": "https://dc.lft.to/lastmile_qr_scan"}, "is_reserved": 0, "fusion_lon": 0.0, "fusion_lat": 0.0, "lon": -77.1310385, "name": "559d95ec7b978c9311e83e93d8822774"}, {"bike_id": "e29f7b30ee345bb1038165f32d7229a8", "type": "electric_scooter", "is_disabled": 0, "lat": 38.913505, "rental_uris": {"ios": "https://dc.lft.to/lastmile_qr_scan", "android": "https://dc.lft.to/lastmile_qr_scan"}, "is_reserved": 0, "fusion_lon": 0.0, "fusion_lat": 0.0, "lon": -77.03190866666667, "name": "e29f7b30ee345bb1038165f32d7229a8"}, {"bike_id": "d93f859c73182e9394d8d7ad7d7e2c8e", "type": "electric_scooter", "is_disabled": 0, "lat": 38.93148466666667, "rental_uris": {"ios": "https://dc.lft.to/lastmile_qr_scan", "android": "https://dc.lft.to/lastmile_qr_scan"}, "is_reserved": 0, "fusion_lon": 0.0, "fusion_lat": 0.0, "lon": -77.04516433333333, "name": "d93f859c73182e9394d8d7ad7d7e2c8e"}, {"bike_id": "a1d50e3df5bbf5000885c18864f993d9", "type": "electric_scooter", "is_disabled": 0, "lat": 38.9266995, "rental_uris": {"ios": "https://dc.lft.to/lastmile_qr_scan", "android": "https://dc.lft.to/lastmile_qr_scan"}, "is_reserved": 0, "fusion_lon": 0.0, "fusion_lat": 0.0, "lon": -77.03200183333334, "name": "a1d50e3df5bbf5000885c18864f993d9"}, {"bike_id": "c469d96246b90189116b239f2e09abf3", "type": "electric_scooter", "is_disabled": 0, "lat": 38.92056383333333, "rental_uris": {"ios": "https://dc.lft.to/lastmile_qr_scan", "android": "https://dc.lft.to/lastmile_qr_scan"}, "is_reserved": 0, "fusion_lon": 0.0, "fusion_lat": 0.0, "lon": -77.07178083333334, "name": "c469d96246b90189116b239f2e09abf3"}, {"bike_id": "ec467ec0cbc7c508e0de8c55b2c0cbb6", "type": "electric_scooter", "is_disabled": 0, "lat": 38.939763166666665, "rental_uris": {"ios": "https://dc.lft.to/lastmile_qr_scan", "android": "https://dc.lft.to/lastmile_qr_scan"}, "is_reserved": 0, "fusion_lon": 0.0, "fusion_lat": 0.0, "lon": -77.0314815, "name": "ec467ec0cbc7c508e0de8c55b2c0cbb6"}, {"bike_id": "173c1cfb260d6cb5e59a25be498edc05", "type": "electric_scooter", "is_disabled": 0, "lat": 38.93462916666667, "rental_uris": {"ios": "https://dc.lft.to/lastmile_qr_scan", "android": "https://dc.lft.to/lastmile_qr_scan"}, "is_reserved": 0, "fusion_lon": 0.0, "fusion_lat": 0.0, "lon": -76.96441466666667, "name": "173c1cfb260d6cb5e59a25be498edc05"}, {"bike_id": "fb4f27fca66310533bfa4599957b34ca", "type": "electric_scooter", "is_disabled": 0, "lat": 38.914159, "rental_uris": {"ios": "https://dc.lft.to/lastmile_qr_scan", "android": "https://dc.lft.to/lastmile_qr_scan"}, "is_reserved": 0, "fusion_lon": 0.0, "fusion_lat": 0.0, "lon": -77.021427, "name": "fb4f27fca66310533bfa4599957b34ca"}, {"bike_id": "23fcf41e3fc92d4bb371ae56b21e99bf", "type": "electric_scooter", "is_disabled": 0, "lat": 38.86695566666667, "rental_uris": {"ios": "https://dc.lft.to/lastmile_qr_scan", "android": "https://dc.lft.to/lastmile_qr_scan"}, "is_reserved": 0, "fusion_lon": 0.0, "fusion_lat": 0.0, "lon": -76.987164, "name": "23fcf41e3fc92d4bb371ae56b21e99bf"}, {"bike_id": "676a367bc2e8d28cc6c3637827c5ba2e", "type": "electric_scooter", "is_disabled": 0, "lat": 38.923072166666664, "rental_uris": {"ios": "https://dc.lft.to/lastmile_qr_scan", "android": "https://dc.lft.to/lastmile_qr_scan"}, "is_reserved": 0, "fusion_lon": 0.0, "fusion_lat": 0.0, "lon": -76.9980175, "name": "676a367bc2e8d28cc6c3637827c5ba2e"}, {"bike_id": "985978a28919c9cf9903b11efacfce42", "type": "electric_scooter", "is_disabled": 0, "lat": 38.92845366666667, "rental_uris": {"ios": "https://dc.lft.to/lastmile_qr_scan", "android": "https://dc.lft.to/lastmile_qr_scan"}, "is_reserved": 0, "fusion_lon": 0.0, "fusion_lat": 0.0, "lon": -77.0325355, "name": "985978a28919c9cf9903b11efacfce42"}, {"bike_id": "425149bd2dc94bd0d0c89cd0ca5d7766", "type": "electric_scooter", "is_disabled": 0, "lat": 38.913317, "rental_uris": {"ios": "https://dc.lft.to/lastmile_qr_scan", "android": "https://dc.lft.to/lastmile_qr_scan"}, "is_reserved": 0, "fusion_lon": 0.0, "fusion_lat": 0.0, "lon": -77.02694733333334, "name": "425149bd2dc94bd0d0c89cd0ca5d7766"}, {"bike_id": "3975281a8a0c2b3458f61b9e3bafb099", "type": "electric_scooter", "is_disabled": 0, "lat": 38.92116933333333, "rental_uris": {"ios": "https://dc.lft.to/lastmile_qr_scan", "android": "https://dc.lft.to/lastmile_qr_scan"}, "is_reserved": 0, "fusion_lon": 0.0, "fusion_lat": 0.0, "lon": -77.012116, "name": "3975281a8a0c2b3458f61b9e3bafb099"}, {"bike_id": "78f185e2e51c691af5fd353342c6ac62", "type": "electric_scooter", "is_disabled": 0, "lat": 38.898469166666665, "rental_uris": {"ios": "https://dc.lft.to/lastmile_qr_scan", "android": "https://dc.lft.to/lastmile_qr_scan"}, "is_reserved": 0, "fusion_lon": 0.0, "fusion_lat": 0.0, "lon": -76.946376, "name": "78f185e2e51c691af5fd353342c6ac62"}, {"bike_id": "df19028e7e1800e3eb7ed299f582a73f", "type": "electric_scooter", "is_disabled": 0, "lat": 38.90340116666667, "rental_uris": {"ios": "https://dc.lft.to/lastmile_qr_scan", "android": "https://dc.lft.to/lastmile_qr_scan"}, "is_reserved": 0, "fusion_lon": 0.0, "fusion_lat": 0.0, "lon": -77.05255033333333, "name": "df19028e7e1800e3eb7ed299f582a73f"}, {"bike_id": "5d80f22fdb0239e53e78315553bde49e", "type": "electric_scooter", "is_disabled": 0, "lat": 38.927982166666666, "rental_uris": {"ios": "https://dc.lft.to/lastmile_qr_scan", "android": "https://dc.lft.to/lastmile_qr_scan"}, "is_reserved": 0, "fusion_lon": 0.0, "fusion_lat": 0.0, "lon": -77.0213205, "name": "5d80f22fdb0239e53e78315553bde49e"}, {"bike_id": "2d12e05f6277d015870ba561e0e9de56", "type": "electric_scooter", "is_disabled": 0, "lat": 38.933127166666665, "rental_uris": {"ios": "https://dc.lft.to/lastmile_qr_scan", "android": "https://dc.lft.to/lastmile_qr_scan"}, "is_reserved": 0, "fusion_lon": 0.0, "fusion_lat": 0.0, "lon": -77.07229533333333, "name": "2d12e05f6277d015870ba561e0e9de56"}, {"bike_id": "6707b4997b1ea6768058c61b519d5fb7", "type": "electric_bike", "is_disabled": 0, "lat": 38.92966916666666, "rental_uris": {"ios": "https://dc.lft.to/lastmile_qr_scan", "android": "https://dc.lft.to/lastmile_qr_scan"}, "is_reserved": 0, "fusion_lon": 0.0, "fusion_lat": 0.0, "lon": -77.18562883333334, "name": "6707b4997b1ea6768058c61b519d5fb7"}, {"bike_id": "23318130e2997ba7c4b2f1ffc10103d8", "type": "electric_scooter", "is_disabled": 0, "lat": 38.93637783333333, "rental_uris": {"ios": "https://dc.lft.to/lastmile_qr_scan", "android": "https://dc.lft.to/lastmile_qr_scan"}, "is_reserved": 0, "fusion_lon": 0.0, "fusion_lat": 0.0, "lon": -77.058903, "name": "23318130e2997ba7c4b2f1ffc10103d8"}, {"bike_id": "1baa94da2c1418b152ff16a298c1f29a", "type": "electric_scooter", "is_disabled": 0, "lat": 38.90282166666667, "rental_uris": {"ios": "https://dc.lft.to/lastmile_qr_scan", "android": "https://dc.lft.to/lastmile_qr_scan"}, "is_reserved": 0, "fusion_lon": 0.0, "fusion_lat": 0.0, "lon": -77.05810933333333, "name": "1baa94da2c1418b152ff16a298c1f29a"}, {"bike_id": "97d536e0414e73d431825bd78e18d582", "type": "electric_bike", "is_disabled": 0, "lat": 38.971658, "rental_uris": {"ios": "https://dc.lft.to/lastmile_qr_scan", "android": "https://dc.lft.to/lastmile_qr_scan"}, "is_reserved": 0, "fusion_lon": 0.0, "fusion_lat": 0.0, "lon": -77.02730666666666, "name": "97d536e0414e73d431825bd78e18d582"}, {"bike_id": "88898a5bff9e6a77f41c79ab77d3a02b", "type": "electric_scooter", "is_disabled": 0, "lat": 38.870749833333335, "rental_uris": {"ios": "https://dc.lft.to/lastmile_qr_scan", "android": "https://dc.lft.to/lastmile_qr_scan"}, "is_reserved": 0, "fusion_lon": 0.0, "fusion_lat": 0.0, "lon": -76.98136416666667, "name": "88898a5bff9e6a77f41c79ab77d3a02b"}, {"bike_id": "c9c57fa991d2f75a66bac124b5a539c3", "type": "electric_scooter", "is_disabled": 0, "lat": 38.93254366666667, "rental_uris": {"ios": "https://dc.lft.to/lastmile_qr_scan", "android": "https://dc.lft.to/lastmile_qr_scan"}, "is_reserved": 0, "fusion_lon": 0.0, "fusion_lat": 0.0, "lon": -77.0200795, "name": "c9c57fa991d2f75a66bac124b5a539c3"}, {"bike_id": "821acb5b72e5077ec3a999ba85a14841", "type": "electric_scooter", "is_disabled": 0, "lat": 38.917434, "rental_uris": {"ios": "https://dc.lft.to/lastmile_qr_scan", "android": "https://dc.lft.to/lastmile_qr_scan"}, "is_reserved": 0, "fusion_lon": 0.0, "fusion_lat": 0.0, "lon": -77.04769066666667, "name": "821acb5b72e5077ec3a999ba85a14841"}, {"bike_id": "c7abe226ecc1be980ce5421bd9855fcb", "type": "electric_scooter", "is_disabled": 0, "lat": 38.9843395, "rental_uris": {"ios": "https://dc.lft.to/lastmile_qr_scan", "android": "https://dc.lft.to/lastmile_qr_scan"}, "is_reserved": 0, "fusion_lon": 0.0, "fusion_lat": 0.0, "lon": -77.02682833333333, "name": "c7abe226ecc1be980ce5421bd9855fcb"}, {"bike_id": "b9293ea9ea910752231bd99772dafbf6", "type": "electric_scooter", "is_disabled": 0, "lat": 38.931811, "rental_uris": {"ios": "https://dc.lft.to/lastmile_qr_scan", "android": "https://dc.lft.to/lastmile_qr_scan"}, "is_reserved": 0, "fusion_lon": 0.0, "fusion_lat": 0.0, "lon": -77.023588, "name": "b9293ea9ea910752231bd99772dafbf6"}, {"bike_id": "61a2e04c80d3985149488da6ca1ffdf5", "type": "electric_scooter", "is_disabled": 0, "lat": 38.902453333333334, "rental_uris": {"ios": "https://dc.lft.to/lastmile_qr_scan", "android": "https://dc.lft.to/lastmile_qr_scan"}, "is_reserved": 0, "fusion_lon": 0.0, "fusion_lat": 0.0, "lon": -77.000779, "name": "61a2e04c80d3985149488da6ca1ffdf5"}, {"bike_id": "2bc5a2a06de2b2c9ed9c1211a30f3469", "type": "electric_scooter", "is_disabled": 0, "lat": 38.921261666666666, "rental_uris": {"ios": "https://dc.lft.to/lastmile_qr_scan", "android": "https://dc.lft.to/lastmile_qr_scan"}, "is_reserved": 0, "fusion_lon": 0.0, "fusion_lat": 0.0, "lon": -77.01803483333333, "name": "2bc5a2a06de2b2c9ed9c1211a30f3469"}, {"bike_id": "470e140c0fba8f6330ba2e6b702270ee", "type": "electric_scooter", "is_disabled": 0, "lat": 38.92834933333334, "rental_uris": {"ios": "https://dc.lft.to/lastmile_qr_scan", "android": "https://dc.lft.to/lastmile_qr_scan"}, "is_reserved": 0, "fusion_lon": 0.0, "fusion_lat": 0.0, "lon": -77.05504833333333, "name": "470e140c0fba8f6330ba2e6b702270ee"}, {"bike_id": "f6aadd753a78b0576b45b14a98762e4b", "type": "electric_scooter", "is_disabled": 0, "lat": 38.921093166666665, "rental_uris": {"ios": "https://dc.lft.to/lastmile_qr_scan", "android": "https://dc.lft.to/lastmile_qr_scan"}, "is_reserved": 0, "fusion_lon": 0.0, "fusion_lat": 0.0, "lon": -77.04217783333333, "name": "f6aadd753a78b0576b45b14a98762e4b"}, {"bike_id": "6681861e3aaf97ab17a5875890f883ef", "type": "electric_scooter", "is_disabled": 0, "lat": 38.88011366666667, "rental_uris": {"ios": "https://dc.lft.to/lastmile_qr_scan", "android": "https://dc.lft.to/lastmile_qr_scan"}, "is_reserved": 0, "fusion_lon": 0.0, "fusion_lat": 0.0, "lon": -77.0053345, "name": "6681861e3aaf97ab17a5875890f883ef"}, {"bike_id": "29a05c14ffa3ae1dd895ff080491b805", "type": "electric_scooter", "is_disabled": 0, "lat": 38.86372016666667, "rental_uris": {"ios": "https://dc.lft.to/lastmile_qr_scan", "android": "https://dc.lft.to/lastmile_qr_scan"}, "is_reserved": 0, "fusion_lon": 0.0, "fusion_lat": 0.0, "lon": -76.99058683333334, "name": "29a05c14ffa3ae1dd895ff080491b805"}, {"bike_id": "4a1b10147455bdf0cf58c6f076b02428", "type": "electric_bike", "is_disabled": 0, "lat": 38.9563195, "rental_uris": {"ios": "https://dc.lft.to/lastmile_qr_scan", "android": "https://dc.lft.to/lastmile_qr_scan"}, "is_reserved": 0, "fusion_lon": 0.0, "fusion_lat": 0.0, "lon": -76.93864916666666, "name": "4a1b10147455bdf0cf58c6f076b02428"}, {"bike_id": "110ca8bd5e8007a706957fe7567b4dbe", "type": "electric_scooter", "is_disabled": 0, "lat": 38.927996, "rental_uris": {"ios": "https://dc.lft.to/lastmile_qr_scan", "android": "https://dc.lft.to/lastmile_qr_scan"}, "is_reserved": 0, "fusion_lon": 0.0, "fusion_lat": 0.0, "lon": -77.02599516666666, "name": "110ca8bd5e8007a706957fe7567b4dbe"}, {"bike_id": "291bd58ae396aa04bb01b50c5783996e", "type": "electric_scooter", "is_disabled": 0, "lat": 38.902613, "rental_uris": {"ios": "https://dc.lft.to/lastmile_qr_scan", "android": "https://dc.lft.to/lastmile_qr_scan"}, "is_reserved": 0, "fusion_lon": 0.0, "fusion_lat": 0.0, "lon": -77.04489966666667, "name": "291bd58ae396aa04bb01b50c5783996e"}, {"bike_id": "70f234434cddf7028632705674769d5f", "type": "electric_scooter", "is_disabled": 0, "lat": 38.8744815, "rental_uris": {"ios": "https://dc.lft.to/lastmile_qr_scan", "android": "https://dc.lft.to/lastmile_qr_scan"}, "is_reserved": 0, "fusion_lon": 0.0, "fusion_lat": 0.0, "lon": -77.00922783333333, "name": "70f234434cddf7028632705674769d5f"}, {"bike_id": "3c69042c4b21f91597550e986150ac57", "type": "electric_bike", "is_disabled": 0, "lat": 38.940217833333335, "rental_uris": {"ios": "https://dc.lft.to/lastmile_qr_scan", "android": "https://dc.lft.to/lastmile_qr_scan"}, "is_reserved": 0, "fusion_lon": 0.0, "fusion_lat": 0.0, "lon": -76.976133, "name": "3c69042c4b21f91597550e986150ac57"}, {"bike_id": "58303e42a47972ed5418c8e5072a37a4", "type": "electric_scooter", "is_disabled": 0, "lat": 38.89972933333333, "rental_uris": {"ios": "https://dc.lft.to/lastmile_qr_scan", "android": "https://dc.lft.to/lastmile_qr_scan"}, "is_reserved": 0, "fusion_lon": 0.0, "fusion_lat": 0.0, "lon": -77.02395733333333, "name": "58303e42a47972ed5418c8e5072a37a4"}, {"bike_id": "86e2468e7ab520b44a490eb47284d33c", "type": "electric_scooter", "is_disabled": 0, "lat": 38.90761583333333, "rental_uris": {"ios": "https://dc.lft.to/lastmile_qr_scan", "android": "https://dc.lft.to/lastmile_qr_scan"}, "is_reserved": 0, "fusion_lon": 0.0, "fusion_lat": 0.0, "lon": -77.028069, "name": "86e2468e7ab520b44a490eb47284d33c"}, {"bike_id": "387ed8e8cc298d84a88a30f6b5129ea5", "type": "electric_scooter", "is_disabled": 0, "lat": 38.844420166666666, "rental_uris": {"ios": "https://dc.lft.to/lastmile_qr_scan", "android": "https://dc.lft.to/lastmile_qr_scan"}, "is_reserved": 0, "fusion_lon": 0.0, "fusion_lat": 0.0, "lon": -76.99869766666667, "name": "387ed8e8cc298d84a88a30f6b5129ea5"}, {"bike_id": "562f6edd0f293920fc9e1b07237528c8", "type": "electric_scooter", "is_disabled": 0, "lat": 38.9385125, "rental_uris": {"ios": "https://dc.lft.to/lastmile_qr_scan", "android": "https://dc.lft.to/lastmile_qr_scan"}, "is_reserved": 0, "fusion_lon": 0.0, "fusion_lat": 0.0, "lon": -77.07237516666666, "name": "562f6edd0f293920fc9e1b07237528c8"}, {"bike_id": "35574ad004320de36c49f67317f85deb", "type": "electric_scooter", "is_disabled": 0, "lat": 38.90242416666667, "rental_uris": {"ios": "https://dc.lft.to/lastmile_qr_scan", "android": "https://dc.lft.to/lastmile_qr_scan"}, "is_reserved": 0, "fusion_lon": 0.0, "fusion_lat": 0.0, "lon": -77.05331233333334, "name": "35574ad004320de36c49f67317f85deb"}, {"bike_id": "5d313a10c8a37d1ff0172cefd6ad1878", "type": "electric_scooter", "is_disabled": 0, "lat": 38.92485, "rental_uris": {"ios": "https://dc.lft.to/lastmile_qr_scan", "android": "https://dc.lft.to/lastmile_qr_scan"}, "is_reserved": 0, "fusion_lon": 0.0, "fusion_lat": 0.0, "lon": -77.05227366666666, "name": "5d313a10c8a37d1ff0172cefd6ad1878"}, {"bike_id": "db2e4e41ecb3f662a848f7c68cb8f67d", "type": "electric_scooter", "is_disabled": 0, "lat": 38.93403266666667, "rental_uris": {"ios": "https://dc.lft.to/lastmile_qr_scan", "android": "https://dc.lft.to/lastmile_qr_scan"}, "is_reserved": 0, "fusion_lon": 0.0, "fusion_lat": 0.0, "lon": -77.03526616666667, "name": "db2e4e41ecb3f662a848f7c68cb8f67d"}, {"bike_id": "0e827a8e9164fbf862985e2c87ad2eab", "type": "electric_scooter", "is_disabled": 0, "lat": 38.938941166666666, "rental_uris": {"ios": "https://dc.lft.to/lastmile_qr_scan", "android": "https://dc.lft.to/lastmile_qr_scan"}, "is_reserved": 0, "fusion_lon": 0.0, "fusion_lat": 0.0, "lon": -77.02493933333334, "name": "0e827a8e9164fbf862985e2c87ad2eab"}, {"bike_id": "8a3e70216a28e9a68c44c321e3320395", "type": "electric_scooter", "is_disabled": 0, "lat": 38.90927116666667, "rental_uris": {"ios": "https://dc.lft.to/lastmile_qr_scan", "android": "https://dc.lft.to/lastmile_qr_scan"}, "is_reserved": 0, "fusion_lon": 0.0, "fusion_lat": 0.0, "lon": -77.06406916666667, "name": "8a3e70216a28e9a68c44c321e3320395"}, {"bike_id": "2c1f9e9858b0c531c5549751a66a7b0e", "type": "electric_scooter", "is_disabled": 0, "lat": 38.8720865, "rental_uris": {"ios": "https://dc.lft.to/lastmile_qr_scan", "android": "https://dc.lft.to/lastmile_qr_scan"}, "is_reserved": 0, "fusion_lon": 0.0, "fusion_lat": 0.0, "lon": -77.0093075, "name": "2c1f9e9858b0c531c5549751a66a7b0e"}, {"bike_id": "2e9747790ec466d5339403a9cdf1c749", "type": "electric_scooter", "is_disabled": 0, "lat": 38.909436166666666, "rental_uris": {"ios": "https://dc.lft.to/lastmile_qr_scan", "android": "https://dc.lft.to/lastmile_qr_scan"}, "is_reserved": 0, "fusion_lon": 0.0, "fusion_lat": 0.0, "lon": -77.0556815, "name": "2e9747790ec466d5339403a9cdf1c749"}, {"bike_id": "a8b19ca065c2696595bde417ff451eb5", "type": "electric_scooter", "is_disabled": 0, "lat": 38.92759983333333, "rental_uris": {"ios": "https://dc.lft.to/lastmile_qr_scan", "android": "https://dc.lft.to/lastmile_qr_scan"}, "is_reserved": 0, "fusion_lon": 0.0, "fusion_lat": 0.0, "lon": -77.02967133333334, "name": "a8b19ca065c2696595bde417ff451eb5"}, {"bike_id": "4c93ad75b29444dfdab2b6c66332edc2", "type": "electric_scooter", "is_disabled": 0, "lat": 38.86235533333333, "rental_uris": {"ios": "https://dc.lft.to/lastmile_qr_scan", "android": "https://dc.lft.to/lastmile_qr_scan"}, "is_reserved": 0, "fusion_lon": 0.0, "fusion_lat": 0.0, "lon": -76.99509, "name": "4c93ad75b29444dfdab2b6c66332edc2"}, {"bike_id": "1ca9aa4c0882fde610e39b355669c114", "type": "electric_scooter", "is_disabled": 0, "lat": 38.8660845, "rental_uris": {"ios": "https://dc.lft.to/lastmile_qr_scan", "android": "https://dc.lft.to/lastmile_qr_scan"}, "is_reserved": 0, "fusion_lon": 0.0, "fusion_lat": 0.0, "lon": -76.98173283333334, "name": "1ca9aa4c0882fde610e39b355669c114"}, {"bike_id": "3c51476d4dc04eda47f5c4406dd29795", "type": "electric_scooter", "is_disabled": 0, "lat": 38.9245065, "rental_uris": {"ios": "https://dc.lft.to/lastmile_qr_scan", "android": "https://dc.lft.to/lastmile_qr_scan"}, "is_reserved": 0, "fusion_lon": 0.0, "fusion_lat": 0.0, "lon": -77.02414183333333, "name": "3c51476d4dc04eda47f5c4406dd29795"}, {"bike_id": "b62c06e52ce524cae296790a7411a498", "type": "electric_scooter", "is_disabled": 0, "lat": 38.92964533333333, "rental_uris": {"ios": "https://dc.lft.to/lastmile_qr_scan", "android": "https://dc.lft.to/lastmile_qr_scan"}, "is_reserved": 0, "fusion_lon": 0.0, "fusion_lat": 0.0, "lon": -77.01849316666667, "name": "b62c06e52ce524cae296790a7411a498"}, {"bike_id": "6e0a3496c4620050f3d7847a80a15967", "type": "electric_scooter", "is_disabled": 0, "lat": 38.94295616666667, "rental_uris": {"ios": "https://dc.lft.to/lastmile_qr_scan", "android": "https://dc.lft.to/lastmile_qr_scan"}, "is_reserved": 0, "fusion_lon": 0.0, "fusion_lat": 0.0, "lon": -77.02171416666667, "name": "6e0a3496c4620050f3d7847a80a15967"}, {"bike_id": "f784c359329d119511b776ab0d7ff5a1", "type": "electric_scooter", "is_disabled": 0, "lat": 38.934189, "rental_uris": {"ios": "https://dc.lft.to/lastmile_qr_scan", "android": "https://dc.lft.to/lastmile_qr_scan"}, "is_reserved": 0, "fusion_lon": 0.0, "fusion_lat": 0.0, "lon": -77.03914733333333, "name": "f784c359329d119511b776ab0d7ff5a1"}, {"bike_id": "c549b4ab3e454c906ac0347f7f970ab8", "type": "electric_scooter", "is_disabled": 0, "lat": 38.948411, "rental_uris": {"ios": "https://dc.lft.to/lastmile_qr_scan", "android": "https://dc.lft.to/lastmile_qr_scan"}, "is_reserved": 0, "fusion_lon": 0.0, "fusion_lat": 0.0, "lon": -77.025512, "name": "c549b4ab3e454c906ac0347f7f970ab8"}, {"bike_id": "7fb075ebbf6fb582dfc279cf0f99c6fb", "type": "electric_bike", "is_disabled": 0, "lat": 38.854004, "rental_uris": {"ios": "https://dc.lft.to/lastmile_qr_scan", "android": "https://dc.lft.to/lastmile_qr_scan"}, "is_reserved": 0, "fusion_lon": 0.0, "fusion_lat": 0.0, "lon": -77.12088466666667, "name": "7fb075ebbf6fb582dfc279cf0f99c6fb"}, {"bike_id": "2af767fa63e37f68d3ab2ae5c09dad18", "type": "electric_scooter", "is_disabled": 0, "lat": 38.9041575, "rental_uris": {"ios": "https://dc.lft.to/lastmile_qr_scan", "android": "https://dc.lft.to/lastmile_qr_scan"}, "is_reserved": 0, "fusion_lon": 0.0, "fusion_lat": 0.0, "lon": -76.97370066666667, "name": "2af767fa63e37f68d3ab2ae5c09dad18"}, {"bike_id": "52d4dd415a35197b5c313b1aef8863d9", "type": "electric_scooter", "is_disabled": 0, "lat": 38.933394, "rental_uris": {"ios": "https://dc.lft.to/lastmile_qr_scan", "android": "https://dc.lft.to/lastmile_qr_scan"}, "is_reserved": 0, "fusion_lon": 0.0, "fusion_lat": 0.0, "lon": -77.02928466666667, "name": "52d4dd415a35197b5c313b1aef8863d9"}, {"bike_id": "a940fa87047031c765ec33e6377b8871", "type": "electric_scooter", "is_disabled": 0, "lat": 38.88747033333333, "rental_uris": {"ios": "https://dc.lft.to/lastmile_qr_scan", "android": "https://dc.lft.to/lastmile_qr_scan"}, "is_reserved": 0, "fusion_lon": 0.0, "fusion_lat": 0.0, "lon": -76.99632833333334, "name": "a940fa87047031c765ec33e6377b8871"}, {"bike_id": "7c6d88ebec5c1e92fac3c3db664e37dc", "type": "electric_scooter", "is_disabled": 0, "lat": 38.900591166666665, "rental_uris": {"ios": "https://dc.lft.to/lastmile_qr_scan", "android": "https://dc.lft.to/lastmile_qr_scan"}, "is_reserved": 0, "fusion_lon": 0.0, "fusion_lat": 0.0, "lon": -76.990224, "name": "7c6d88ebec5c1e92fac3c3db664e37dc"}, {"bike_id": "3969cd9f7d22822086146dab4bf0a252", "type": "electric_scooter", "is_disabled": 0, "lat": 38.901701, "rental_uris": {"ios": "https://dc.lft.to/lastmile_qr_scan", "android": "https://dc.lft.to/lastmile_qr_scan"}, "is_reserved": 0, "fusion_lon": 0.0, "fusion_lat": 0.0, "lon": -76.98450533333333, "name": "3969cd9f7d22822086146dab4bf0a252"}, {"bike_id": "b4adf1f680f918c4f855d66a87a585c5", "type": "electric_scooter", "is_disabled": 0, "lat": 38.8621045, "rental_uris": {"ios": "https://dc.lft.to/lastmile_qr_scan", "android": "https://dc.lft.to/lastmile_qr_scan"}, "is_reserved": 0, "fusion_lon": 0.0, "fusion_lat": 0.0, "lon": -76.99478533333334, "name": "b4adf1f680f918c4f855d66a87a585c5"}, {"bike_id": "f4c5805413ef6929bb033247e266de08", "type": "electric_scooter", "is_disabled": 0, "lat": 38.8954875, "rental_uris": {"ios": "https://dc.lft.to/lastmile_qr_scan", "android": "https://dc.lft.to/lastmile_qr_scan"}, "is_reserved": 0, "fusion_lon": 0.0, "fusion_lat": 0.0, "lon": -76.9494235, "name": "f4c5805413ef6929bb033247e266de08"}, {"bike_id": "b03ad359db1670961ab25d129c0b1ba9", "type": "electric_scooter", "is_disabled": 0, "lat": 38.92449716666667, "rental_uris": {"ios": "https://dc.lft.to/lastmile_qr_scan", "android": "https://dc.lft.to/lastmile_qr_scan"}, "is_reserved": 0, "fusion_lon": 0.0, "fusion_lat": 0.0, "lon": -77.0327055, "name": "b03ad359db1670961ab25d129c0b1ba9"}, {"bike_id": "57b200f8a0117e45d60903381829a6b2", "type": "electric_scooter", "is_disabled": 0, "lat": 38.92353383333333, "rental_uris": {"ios": "https://dc.lft.to/lastmile_qr_scan", "android": "https://dc.lft.to/lastmile_qr_scan"}, "is_reserved": 0, "fusion_lon": 0.0, "fusion_lat": 0.0, "lon": -77.03904566666667, "name": "57b200f8a0117e45d60903381829a6b2"}, {"bike_id": "42cca307bfa5bbc26d996c4d9dbfd85c", "type": "electric_bike", "is_disabled": 0, "lat": 38.9436375, "rental_uris": {"ios": "https://dc.lft.to/lastmile_qr_scan", "android": "https://dc.lft.to/lastmile_qr_scan"}, "is_reserved": 0, "fusion_lon": 0.0, "fusion_lat": 0.0, "lon": -76.96777516666667, "name": "42cca307bfa5bbc26d996c4d9dbfd85c"}, {"bike_id": "ef54167ab053e4e32b15d74d85ca91a6", "type": "electric_scooter", "is_disabled": 0, "lat": 38.9065195, "rental_uris": {"ios": "https://dc.lft.to/lastmile_qr_scan", "android": "https://dc.lft.to/lastmile_qr_scan"}, "is_reserved": 0, "fusion_lon": 0.0, "fusion_lat": 0.0, "lon": -77.03811716666667, "name": "ef54167ab053e4e32b15d74d85ca91a6"}, {"bike_id": "e3cb47745861c577cc196ba7619dca3b", "type": "electric_scooter", "is_disabled": 0, "lat": 38.92298433333333, "rental_uris": {"ios": "https://dc.lft.to/lastmile_qr_scan", "android": "https://dc.lft.to/lastmile_qr_scan"}, "is_reserved": 0, "fusion_lon": 0.0, "fusion_lat": 0.0, "lon": -77.04207883333333, "name": "e3cb47745861c577cc196ba7619dca3b"}, {"bike_id": "d0b93f8a22ae4ba291ecaedff341fb02", "type": "electric_scooter", "is_disabled": 0, "lat": 38.938565833333335, "rental_uris": {"ios": "https://dc.lft.to/lastmile_qr_scan", "android": "https://dc.lft.to/lastmile_qr_scan"}, "is_reserved": 0, "fusion_lon": 0.0, "fusion_lat": 0.0, "lon": -77.03392283333334, "name": "d0b93f8a22ae4ba291ecaedff341fb02"}, {"bike_id": "c2040886aef16a60e1e8d1b0aa254350", "type": "electric_scooter", "is_disabled": 0, "lat": 38.916951166666664, "rental_uris": {"ios": "https://dc.lft.to/lastmile_qr_scan", "android": "https://dc.lft.to/lastmile_qr_scan"}, "is_reserved": 0, "fusion_lon": 0.0, "fusion_lat": 0.0, "lon": -77.0377385, "name": "c2040886aef16a60e1e8d1b0aa254350"}, {"bike_id": "fb3e15edabf532559fb951750a4b0a15", "type": "electric_scooter", "is_disabled": 0, "lat": 38.906282, "rental_uris": {"ios": "https://dc.lft.to/lastmile_qr_scan", "android": "https://dc.lft.to/lastmile_qr_scan"}, "is_reserved": 0, "fusion_lon": 0.0, "fusion_lat": 0.0, "lon": -77.0512745, "name": "fb3e15edabf532559fb951750a4b0a15"}, {"bike_id": "ab29a3be8f2b93289f08ac4095a8825f", "type": "electric_scooter", "is_disabled": 0, "lat": 38.889145, "rental_uris": {"ios": "https://dc.lft.to/lastmile_qr_scan", "android": "https://dc.lft.to/lastmile_qr_scan"}, "is_reserved": 0, "fusion_lon": 0.0, "fusion_lat": 0.0, "lon": -76.98953666666667, "name": "ab29a3be8f2b93289f08ac4095a8825f"}, {"bike_id": "5b76844f868a0286c0d0404f66129a72", "type": "electric_scooter", "is_disabled": 0, "lat": 38.939155, "rental_uris": {"ios": "https://dc.lft.to/lastmile_qr_scan", "android": "https://dc.lft.to/lastmile_qr_scan"}, "is_reserved": 0, "fusion_lon": 0.0, "fusion_lat": 0.0, "lon": -77.06055433333333, "name": "5b76844f868a0286c0d0404f66129a72"}, {"bike_id": "86b27df2a336fa8d9dc74a4767eb7d10", "type": "electric_scooter", "is_disabled": 0, "lat": 38.95937983333334, "rental_uris": {"ios": "https://dc.lft.to/lastmile_qr_scan", "android": "https://dc.lft.to/lastmile_qr_scan"}, "is_reserved": 0, "fusion_lon": 0.0, "fusion_lat": 0.0, "lon": -77.03131283333333, "name": "86b27df2a336fa8d9dc74a4767eb7d10"}, {"bike_id": "a41091db4133726c8a63c25df2037a14", "type": "electric_scooter", "is_disabled": 0, "lat": 38.8749525, "rental_uris": {"ios": "https://dc.lft.to/lastmile_qr_scan", "android": "https://dc.lft.to/lastmile_qr_scan"}, "is_reserved": 0, "fusion_lon": 0.0, "fusion_lat": 0.0, "lon": -76.99979533333334, "name": "a41091db4133726c8a63c25df2037a14"}, {"bike_id": "bd4e2c2fb645489ea8894d3466c58d01", "type": "electric_scooter", "is_disabled": 0, "lat": 38.94510366666667, "rental_uris": {"ios": "https://dc.lft.to/lastmile_qr_scan", "android": "https://dc.lft.to/lastmile_qr_scan"}, "is_reserved": 0, "fusion_lon": 0.0, "fusion_lat": 0.0, "lon": -77.021719, "name": "bd4e2c2fb645489ea8894d3466c58d01"}, {"bike_id": "e068ab3b5012bd61e3969b01dba095c8", "type": "electric_scooter", "is_disabled": 0, "lat": 38.90388266666667, "rental_uris": {"ios": "https://dc.lft.to/lastmile_qr_scan", "android": "https://dc.lft.to/lastmile_qr_scan"}, "is_reserved": 0, "fusion_lon": 0.0, "fusion_lat": 0.0, "lon": -77.01773666666666, "name": "e068ab3b5012bd61e3969b01dba095c8"}, {"bike_id": "9f3d93ba5649f3b1d921fcf5f3b4b364", "type": "electric_bike", "is_disabled": 0, "lat": 39.03698516666667, "rental_uris": {"ios": "https://dc.lft.to/lastmile_qr_scan", "android": "https://dc.lft.to/lastmile_qr_scan"}, "is_reserved": 0, "fusion_lon": 0.0, "fusion_lat": 0.0, "lon": -77.02855583333333, "name": "9f3d93ba5649f3b1d921fcf5f3b4b364"}, {"bike_id": "6e47090b21d7323c2c2779cb698cce92", "type": "electric_scooter", "is_disabled": 0, "lat": 38.923766, "rental_uris": {"ios": "https://dc.lft.to/lastmile_qr_scan", "android": "https://dc.lft.to/lastmile_qr_scan"}, "is_reserved": 0, "fusion_lon": 0.0, "fusion_lat": 0.0, "lon": -77.03024316666666, "name": "6e47090b21d7323c2c2779cb698cce92"}, {"bike_id": "292cec53a832de6686a91217d7bfc760", "type": "electric_scooter", "is_disabled": 0, "lat": 38.87559816666667, "rental_uris": {"ios": "https://dc.lft.to/lastmile_qr_scan", "android": "https://dc.lft.to/lastmile_qr_scan"}, "is_reserved": 0, "fusion_lon": 0.0, "fusion_lat": 0.0, "lon": -76.95865066666667, "name": "292cec53a832de6686a91217d7bfc760"}, {"bike_id": "164e700dcef4e6c6e64cb414900eea67", "type": "electric_scooter", "is_disabled": 0, "lat": 38.912426333333336, "rental_uris": {"ios": "https://dc.lft.to/lastmile_qr_scan", "android": "https://dc.lft.to/lastmile_qr_scan"}, "is_reserved": 0, "fusion_lon": 0.0, "fusion_lat": 0.0, "lon": -77.00924483333333, "name": "164e700dcef4e6c6e64cb414900eea67"}, {"bike_id": "117e248b4771271fb6ca075da7b08790", "type": "electric_scooter", "is_disabled": 0, "lat": 38.92980516666667, "rental_uris": {"ios": "https://dc.lft.to/lastmile_qr_scan", "android": "https://dc.lft.to/lastmile_qr_scan"}, "is_reserved": 0, "fusion_lon": 0.0, "fusion_lat": 0.0, "lon": -77.03191066666666, "name": "117e248b4771271fb6ca075da7b08790"}, {"bike_id": "bbf2d248ebe5d9bc9084da23246d97bb", "type": "electric_scooter", "is_disabled": 0, "lat": 38.91822716666667, "rental_uris": {"ios": "https://dc.lft.to/lastmile_qr_scan", "android": "https://dc.lft.to/lastmile_qr_scan"}, "is_reserved": 0, "fusion_lon": 0.0, "fusion_lat": 0.0, "lon": -77.02419716666667, "name": "bbf2d248ebe5d9bc9084da23246d97bb"}, {"bike_id": "00343c93d91fd78c11cc54184b9cddc0", "type": "electric_scooter", "is_disabled": 0, "lat": 38.957400666666665, "rental_uris": {"ios": "https://dc.lft.to/lastmile_qr_scan", "android": "https://dc.lft.to/lastmile_qr_scan"}, "is_reserved": 0, "fusion_lon": 0.0, "fusion_lat": 0.0, "lon": -77.02422016666667, "name": "00343c93d91fd78c11cc54184b9cddc0"}, {"bike_id": "7689a2fb710cdae3d72458a2bf4149aa", "type": "electric_scooter", "is_disabled": 0, "lat": 38.8874835, "rental_uris": {"ios": "https://dc.lft.to/lastmile_qr_scan", "android": "https://dc.lft.to/lastmile_qr_scan"}, "is_reserved": 0, "fusion_lon": 0.0, "fusion_lat": 0.0, "lon": -77.01533216666667, "name": "7689a2fb710cdae3d72458a2bf4149aa"}, {"bike_id": "c39a146c5826eaf9ff6637de2757794d", "type": "electric_scooter", "is_disabled": 0, "lat": 38.903206, "rental_uris": {"ios": "https://dc.lft.to/lastmile_qr_scan", "android": "https://dc.lft.to/lastmile_qr_scan"}, "is_reserved": 0, "fusion_lon": 0.0, "fusion_lat": 0.0, "lon": -77.036475, "name": "c39a146c5826eaf9ff6637de2757794d"}, {"bike_id": "77fdb4b1261f39feb9f3e814b72d86ae", "type": "electric_scooter", "is_disabled": 0, "lat": 38.919616833333336, "rental_uris": {"ios": "https://dc.lft.to/lastmile_qr_scan", "android": "https://dc.lft.to/lastmile_qr_scan"}, "is_reserved": 0, "fusion_lon": 0.0, "fusion_lat": 0.0, "lon": -77.04499, "name": "77fdb4b1261f39feb9f3e814b72d86ae"}, {"bike_id": "1178ee49ae8ec7518b3555c1a0a346fd", "type": "electric_scooter", "is_disabled": 0, "lat": 38.87474616666667, "rental_uris": {"ios": "https://dc.lft.to/lastmile_qr_scan", "android": "https://dc.lft.to/lastmile_qr_scan"}, "is_reserved": 0, "fusion_lon": 0.0, "fusion_lat": 0.0, "lon": -77.01078783333334, "name": "1178ee49ae8ec7518b3555c1a0a346fd"}, {"bike_id": "1ff0a9b21445bf1cc3648d5493861789", "type": "electric_scooter", "is_disabled": 0, "lat": 38.92861, "rental_uris": {"ios": "https://dc.lft.to/lastmile_qr_scan", "android": "https://dc.lft.to/lastmile_qr_scan"}, "is_reserved": 0, "fusion_lon": 0.0, "fusion_lat": 0.0, "lon": -77.023007, "name": "1ff0a9b21445bf1cc3648d5493861789"}, {"bike_id": "1506369e204b0bfb3b823c17a12cca30", "type": "electric_scooter", "is_disabled": 0, "lat": 38.9365915, "rental_uris": {"ios": "https://dc.lft.to/lastmile_qr_scan", "android": "https://dc.lft.to/lastmile_qr_scan"}, "is_reserved": 0, "fusion_lon": 0.0, "fusion_lat": 0.0, "lon": -77.02640916666667, "name": "1506369e204b0bfb3b823c17a12cca30"}, {"bike_id": "debe15e8fa77639c2dbe89c05b61b5f7", "type": "electric_scooter", "is_disabled": 0, "lat": 38.890194, "rental_uris": {"ios": "https://dc.lft.to/lastmile_qr_scan", "android": "https://dc.lft.to/lastmile_qr_scan"}, "is_reserved": 0, "fusion_lon": 0.0, "fusion_lat": 0.0, "lon": -76.93705566666667, "name": "debe15e8fa77639c2dbe89c05b61b5f7"}, {"bike_id": "275450ccfdc1edd64bdb54d3e9b88c62", "type": "electric_scooter", "is_disabled": 0, "lat": 38.90385883333333, "rental_uris": {"ios": "https://dc.lft.to/lastmile_qr_scan", "android": "https://dc.lft.to/lastmile_qr_scan"}, "is_reserved": 0, "fusion_lon": 0.0, "fusion_lat": 0.0, "lon": -76.982066, "name": "275450ccfdc1edd64bdb54d3e9b88c62"}, {"bike_id": "2988aac64da7cd74034313b9c7a67233", "type": "electric_bike", "is_disabled": 0, "lat": 38.83848866666666, "rental_uris": {"ios": "https://dc.lft.to/lastmile_qr_scan", "android": "https://dc.lft.to/lastmile_qr_scan"}, "is_reserved": 0, "fusion_lon": 0.0, "fusion_lat": 0.0, "lon": -77.05032466666667, "name": "2988aac64da7cd74034313b9c7a67233"}, {"bike_id": "b7f116de20f3918450b83bc2937f4037", "type": "electric_scooter", "is_disabled": 0, "lat": 38.909774166666665, "rental_uris": {"ios": "https://dc.lft.to/lastmile_qr_scan", "android": "https://dc.lft.to/lastmile_qr_scan"}, "is_reserved": 0, "fusion_lon": 0.0, "fusion_lat": 0.0, "lon": -77.0281055, "name": "b7f116de20f3918450b83bc2937f4037"}, {"bike_id": "619bca37a67214a7b438e2118b6398cf", "type": "electric_scooter", "is_disabled": 0, "lat": 38.91822783333333, "rental_uris": {"ios": "https://dc.lft.to/lastmile_qr_scan", "android": "https://dc.lft.to/lastmile_qr_scan"}, "is_reserved": 0, "fusion_lon": 0.0, "fusion_lat": 0.0, "lon": -77.02431616666667, "name": "619bca37a67214a7b438e2118b6398cf"}, {"bike_id": "d84842e30560f18acb64636d4ce4d51f", "type": "electric_scooter", "is_disabled": 0, "lat": 38.884314833333335, "rental_uris": {"ios": "https://dc.lft.to/lastmile_qr_scan", "android": "https://dc.lft.to/lastmile_qr_scan"}, "is_reserved": 0, "fusion_lon": 0.0, "fusion_lat": 0.0, "lon": -76.95747316666667, "name": "d84842e30560f18acb64636d4ce4d51f"}, {"bike_id": "0fb25c2880a9439e204d70d04c7d5e40", "type": "electric_bike", "is_disabled": 0, "lat": 38.9049545, "rental_uris": {"ios": "https://dc.lft.to/lastmile_qr_scan", "android": "https://dc.lft.to/lastmile_qr_scan"}, "is_reserved": 0, "fusion_lon": 0.0, "fusion_lat": 0.0, "lon": -77.0679785, "name": "0fb25c2880a9439e204d70d04c7d5e40"}, {"bike_id": "eeed32e8f5c65fb6a9517cbc61032955", "type": "electric_scooter", "is_disabled": 0, "lat": 38.952119, "rental_uris": {"ios": "https://dc.lft.to/lastmile_qr_scan", "android": "https://dc.lft.to/lastmile_qr_scan"}, "is_reserved": 0, "fusion_lon": 0.0, "fusion_lat": 0.0, "lon": -77.07065916666667, "name": "eeed32e8f5c65fb6a9517cbc61032955"}, {"bike_id": "19f55fa031e97ccbd1c2270541490856", "type": "electric_scooter", "is_disabled": 0, "lat": 38.9208345, "rental_uris": {"ios": "https://dc.lft.to/lastmile_qr_scan", "android": "https://dc.lft.to/lastmile_qr_scan"}, "is_reserved": 0, "fusion_lon": 0.0, "fusion_lat": 0.0, "lon": -77.00450266666667, "name": "19f55fa031e97ccbd1c2270541490856"}, {"bike_id": "0c6cb7802acaa68e608bc909f247f3fe", "type": "electric_bike", "is_disabled": 0, "lat": 38.908718666666665, "rental_uris": {"ios": "https://dc.lft.to/lastmile_qr_scan", "android": "https://dc.lft.to/lastmile_qr_scan"}, "is_reserved": 0, "fusion_lon": 0.0, "fusion_lat": 0.0, "lon": -77.03194483333333, "name": "0c6cb7802acaa68e608bc909f247f3fe"}, {"bike_id": "653d7af449ed732c5d60baef9f023e49", "type": "electric_scooter", "is_disabled": 0, "lat": 38.91948883333333, "rental_uris": {"ios": "https://dc.lft.to/lastmile_qr_scan", "android": "https://dc.lft.to/lastmile_qr_scan"}, "is_reserved": 0, "fusion_lon": 0.0, "fusion_lat": 0.0, "lon": -77.04875816666667, "name": "653d7af449ed732c5d60baef9f023e49"}, {"bike_id": "84cf8085dd387e235120c501b24b459c", "type": "electric_scooter", "is_disabled": 0, "lat": 38.9170315, "rental_uris": {"ios": "https://dc.lft.to/lastmile_qr_scan", "android": "https://dc.lft.to/lastmile_qr_scan"}, "is_reserved": 0, "fusion_lon": 0.0, "fusion_lat": 0.0, "lon": -77.0080595, "name": "84cf8085dd387e235120c501b24b459c"}, {"bike_id": "e21b70b1c005f9b5899ac33934671d98", "type": "electric_scooter", "is_disabled": 0, "lat": 38.91983716666667, "rental_uris": {"ios": "https://dc.lft.to/lastmile_qr_scan", "android": "https://dc.lft.to/lastmile_qr_scan"}, "is_reserved": 0, "fusion_lon": 0.0, "fusion_lat": 0.0, "lon": -77.041878, "name": "e21b70b1c005f9b5899ac33934671d98"}, {"bike_id": "be41a02a8b23ddf60f29e01e9a37139c", "type": "electric_scooter", "is_disabled": 0, "lat": 38.901986, "rental_uris": {"ios": "https://dc.lft.to/lastmile_qr_scan", "android": "https://dc.lft.to/lastmile_qr_scan"}, "is_reserved": 0, "fusion_lon": 0.0, "fusion_lat": 0.0, "lon": -77.03957666666666, "name": "be41a02a8b23ddf60f29e01e9a37139c"}, {"bike_id": "d6cda85abcddedb64a321dfa568b2534", "type": "electric_scooter", "is_disabled": 0, "lat": 38.91419883333333, "rental_uris": {"ios": "https://dc.lft.to/lastmile_qr_scan", "android": "https://dc.lft.to/lastmile_qr_scan"}, "is_reserved": 0, "fusion_lon": 0.0, "fusion_lat": 0.0, "lon": -77.03907116666667, "name": "d6cda85abcddedb64a321dfa568b2534"}, {"bike_id": "01d0d55c55dd559a05162e39e38ae23d", "type": "electric_scooter", "is_disabled": 0, "lat": 38.911823, "rental_uris": {"ios": "https://dc.lft.to/lastmile_qr_scan", "android": "https://dc.lft.to/lastmile_qr_scan"}, "is_reserved": 0, "fusion_lon": 0.0, "fusion_lat": 0.0, "lon": -77.01018, "name": "01d0d55c55dd559a05162e39e38ae23d"}, {"bike_id": "56680ed2e56b16d641d3e677fe95dfa4", "type": "electric_scooter", "is_disabled": 0, "lat": 38.928559, "rental_uris": {"ios": "https://dc.lft.to/lastmile_qr_scan", "android": "https://dc.lft.to/lastmile_qr_scan"}, "is_reserved": 0, "fusion_lon": 0.0, "fusion_lat": 0.0, "lon": -77.02174983333333, "name": "56680ed2e56b16d641d3e677fe95dfa4"}, {"bike_id": "7edbb36e22e634b0a5289e40cda7a80e", "type": "electric_bike", "is_disabled": 0, "lat": 38.908986666666664, "rental_uris": {"ios": "https://dc.lft.to/lastmile_qr_scan", "android": "https://dc.lft.to/lastmile_qr_scan"}, "is_reserved": 0, "fusion_lon": 0.0, "fusion_lat": 0.0, "lon": -77.05719733333333, "name": "7edbb36e22e634b0a5289e40cda7a80e"}, {"bike_id": "d809ab0a2cfe8e3039bd3e388b1dd527", "type": "electric_scooter", "is_disabled": 0, "lat": 38.935883833333335, "rental_uris": {"ios": "https://dc.lft.to/lastmile_qr_scan", "android": "https://dc.lft.to/lastmile_qr_scan"}, "is_reserved": 0, "fusion_lon": 0.0, "fusion_lat": 0.0, "lon": -77.03836683333333, "name": "d809ab0a2cfe8e3039bd3e388b1dd527"}, {"bike_id": "25d95162f821f9445816b9d4c7d709ee", "type": "electric_scooter", "is_disabled": 0, "lat": 38.941236833333335, "rental_uris": {"ios": "https://dc.lft.to/lastmile_qr_scan", "android": "https://dc.lft.to/lastmile_qr_scan"}, "is_reserved": 0, "fusion_lon": 0.0, "fusion_lat": 0.0, "lon": -77.02543333333334, "name": "25d95162f821f9445816b9d4c7d709ee"}, {"bike_id": "32e086039b9caa94258ff21910e6c19e", "type": "electric_scooter", "is_disabled": 0, "lat": 38.92493416666667, "rental_uris": {"ios": "https://dc.lft.to/lastmile_qr_scan", "android": "https://dc.lft.to/lastmile_qr_scan"}, "is_reserved": 0, "fusion_lon": 0.0, "fusion_lat": 0.0, "lon": -77.03182666666666, "name": "32e086039b9caa94258ff21910e6c19e"}, {"bike_id": "19c0c1bb332c4b2110c6d15eefd95483", "type": "electric_scooter", "is_disabled": 0, "lat": 38.90053916666667, "rental_uris": {"ios": "https://dc.lft.to/lastmile_qr_scan", "android": "https://dc.lft.to/lastmile_qr_scan"}, "is_reserved": 0, "fusion_lon": 0.0, "fusion_lat": 0.0, "lon": -77.01727933333333, "name": "19c0c1bb332c4b2110c6d15eefd95483"}, {"bike_id": "caea733fed8a9fcd9b27c27a852383ab", "type": "electric_scooter", "is_disabled": 0, "lat": 38.92378816666667, "rental_uris": {"ios": "https://dc.lft.to/lastmile_qr_scan", "android": "https://dc.lft.to/lastmile_qr_scan"}, "is_reserved": 0, "fusion_lon": 0.0, "fusion_lat": 0.0, "lon": -77.0122045, "name": "caea733fed8a9fcd9b27c27a852383ab"}, {"bike_id": "25d0a25ae51051bd182f551db7ad5dff", "type": "electric_scooter", "is_disabled": 0, "lat": 38.91338183333333, "rental_uris": {"ios": "https://dc.lft.to/lastmile_qr_scan", "android": "https://dc.lft.to/lastmile_qr_scan"}, "is_reserved": 0, "fusion_lon": 0.0, "fusion_lat": 0.0, "lon": -77.03856333333333, "name": "25d0a25ae51051bd182f551db7ad5dff"}, {"bike_id": "731c71a8b666cf3e9f9f9bfb29a292ef", "type": "electric_bike", "is_disabled": 0, "lat": 38.9517575, "rental_uris": {"ios": "https://dc.lft.to/lastmile_qr_scan", "android": "https://dc.lft.to/lastmile_qr_scan"}, "is_reserved": 0, "fusion_lon": 0.0, "fusion_lat": 0.0, "lon": -76.97734933333334, "name": "731c71a8b666cf3e9f9f9bfb29a292ef"}, {"bike_id": "7fbb96545e490af7e00e8be61d74a909", "type": "electric_scooter", "is_disabled": 0, "lat": 38.90536683333333, "rental_uris": {"ios": "https://dc.lft.to/lastmile_qr_scan", "android": "https://dc.lft.to/lastmile_qr_scan"}, "is_reserved": 0, "fusion_lon": 0.0, "fusion_lat": 0.0, "lon": -77.0433125, "name": "7fbb96545e490af7e00e8be61d74a909"}, {"bike_id": "ea98f468761f55e838c3aa739dec8de8", "type": "electric_scooter", "is_disabled": 0, "lat": 38.916162666666665, "rental_uris": {"ios": "https://dc.lft.to/lastmile_qr_scan", "android": "https://dc.lft.to/lastmile_qr_scan"}, "is_reserved": 0, "fusion_lon": 0.0, "fusion_lat": 0.0, "lon": -77.02299216666667, "name": "ea98f468761f55e838c3aa739dec8de8"}, {"bike_id": "9915da2258432ef0e0926ddd3a4c1953", "type": "electric_scooter", "is_disabled": 0, "lat": 38.919617, "rental_uris": {"ios": "https://dc.lft.to/lastmile_qr_scan", "android": "https://dc.lft.to/lastmile_qr_scan"}, "is_reserved": 0, "fusion_lon": 0.0, "fusion_lat": 0.0, "lon": -77.01438083333333, "name": "9915da2258432ef0e0926ddd3a4c1953"}, {"bike_id": "e61086e17db73e72ada3cf7f446444ad", "type": "electric_scooter", "is_disabled": 0, "lat": 38.90713783333333, "rental_uris": {"ios": "https://dc.lft.to/lastmile_qr_scan", "android": "https://dc.lft.to/lastmile_qr_scan"}, "is_reserved": 0, "fusion_lon": 0.0, "fusion_lat": 0.0, "lon": -77.00068966666667, "name": "e61086e17db73e72ada3cf7f446444ad"}, {"bike_id": "fce48a30c0cc169d1ec438d33aff4af5", "type": "electric_bike", "is_disabled": 0, "lat": 39.014873333333334, "rental_uris": {"ios": "https://dc.lft.to/lastmile_qr_scan", "android": "https://dc.lft.to/lastmile_qr_scan"}, "is_reserved": 0, "fusion_lon": 0.0, "fusion_lat": 0.0, "lon": -77.05497016666666, "name": "fce48a30c0cc169d1ec438d33aff4af5"}, {"bike_id": "1127166e78976ed32e13c0bf2749d790", "type": "electric_scooter", "is_disabled": 0, "lat": 38.910552833333334, "rental_uris": {"ios": "https://dc.lft.to/lastmile_qr_scan", "android": "https://dc.lft.to/lastmile_qr_scan"}, "is_reserved": 0, "fusion_lon": 0.0, "fusion_lat": 0.0, "lon": -77.00470116666666, "name": "1127166e78976ed32e13c0bf2749d790"}, {"bike_id": "aca0adf90ab39fd39db87fb708e7b3c9", "type": "electric_scooter", "is_disabled": 0, "lat": 38.9010565, "rental_uris": {"ios": "https://dc.lft.to/lastmile_qr_scan", "android": "https://dc.lft.to/lastmile_qr_scan"}, "is_reserved": 0, "fusion_lon": 0.0, "fusion_lat": 0.0, "lon": -77.05897483333334, "name": "aca0adf90ab39fd39db87fb708e7b3c9"}, {"bike_id": "5c23a050acb52ef4b1887bf54fdec0de", "type": "electric_scooter", "is_disabled": 0, "lat": 38.909618333333334, "rental_uris": {"ios": "https://dc.lft.to/lastmile_qr_scan", "android": "https://dc.lft.to/lastmile_qr_scan"}, "is_reserved": 0, "fusion_lon": 0.0, "fusion_lat": 0.0, "lon": -77.0221735, "name": "5c23a050acb52ef4b1887bf54fdec0de"}, {"bike_id": "9ffaaba7c9421cbf9b32736affeb8f71", "type": "electric_scooter", "is_disabled": 0, "lat": 38.91617883333333, "rental_uris": {"ios": "https://dc.lft.to/lastmile_qr_scan", "android": "https://dc.lft.to/lastmile_qr_scan"}, "is_reserved": 0, "fusion_lon": 0.0, "fusion_lat": 0.0, "lon": -77.03038983333333, "name": "9ffaaba7c9421cbf9b32736affeb8f71"}, {"bike_id": "4a208229a6fa0e2f4ce90a6675372459", "type": "electric_scooter", "is_disabled": 0, "lat": 38.90522383333333, "rental_uris": {"ios": "https://dc.lft.to/lastmile_qr_scan", "android": "https://dc.lft.to/lastmile_qr_scan"}, "is_reserved": 0, "fusion_lon": 0.0, "fusion_lat": 0.0, "lon": -77.06463583333333, "name": "4a208229a6fa0e2f4ce90a6675372459"}, {"bike_id": "ab76aee4a8825059373d4fce7b7c1d92", "type": "electric_scooter", "is_disabled": 0, "lat": 38.93636433333333, "rental_uris": {"ios": "https://dc.lft.to/lastmile_qr_scan", "android": "https://dc.lft.to/lastmile_qr_scan"}, "is_reserved": 0, "fusion_lon": 0.0, "fusion_lat": 0.0, "lon": -77.05892533333333, "name": "ab76aee4a8825059373d4fce7b7c1d92"}, {"bike_id": "2f1d25e38f6fb9e0fda2e267dc24a312", "type": "electric_scooter", "is_disabled": 0, "lat": 38.914029, "rental_uris": {"ios": "https://dc.lft.to/lastmile_qr_scan", "android": "https://dc.lft.to/lastmile_qr_scan"}, "is_reserved": 0, "fusion_lon": 0.0, "fusion_lat": 0.0, "lon": -77.032624, "name": "2f1d25e38f6fb9e0fda2e267dc24a312"}, {"bike_id": "49563fe8ef4ff04f81ae8613008391b3", "type": "electric_scooter", "is_disabled": 0, "lat": 38.94216766666667, "rental_uris": {"ios": "https://dc.lft.to/lastmile_qr_scan", "android": "https://dc.lft.to/lastmile_qr_scan"}, "is_reserved": 0, "fusion_lon": 0.0, "fusion_lat": 0.0, "lon": -77.02596283333334, "name": "49563fe8ef4ff04f81ae8613008391b3"}, {"bike_id": "7f2c06a5bc16db83cae8edb37d41a691", "type": "electric_scooter", "is_disabled": 0, "lat": 38.930013833333334, "rental_uris": {"ios": "https://dc.lft.to/lastmile_qr_scan", "android": "https://dc.lft.to/lastmile_qr_scan"}, "is_reserved": 0, "fusion_lon": 0.0, "fusion_lat": 0.0, "lon": -77.03275933333333, "name": "7f2c06a5bc16db83cae8edb37d41a691"}, {"bike_id": "cceb2cb8aeb5d98419e6e002d3c201a2", "type": "electric_scooter", "is_disabled": 0, "lat": 38.9133145, "rental_uris": {"ios": "https://dc.lft.to/lastmile_qr_scan", "android": "https://dc.lft.to/lastmile_qr_scan"}, "is_reserved": 0, "fusion_lon": 0.0, "fusion_lat": 0.0, "lon": -77.02697916666666, "name": "cceb2cb8aeb5d98419e6e002d3c201a2"}, {"bike_id": "efc1ecdb1829d85e0e8a6559ac5af7e4", "type": "electric_scooter", "is_disabled": 0, "lat": 38.91573733333333, "rental_uris": {"ios": "https://dc.lft.to/lastmile_qr_scan", "android": "https://dc.lft.to/lastmile_qr_scan"}, "is_reserved": 0, "fusion_lon": 0.0, "fusion_lat": 0.0, "lon": -77.03220933333333, "name": "efc1ecdb1829d85e0e8a6559ac5af7e4"}, {"bike_id": "63e76290162ffd6830d93187218f2315", "type": "electric_scooter", "is_disabled": 0, "lat": 38.918228166666665, "rental_uris": {"ios": "https://dc.lft.to/lastmile_qr_scan", "android": "https://dc.lft.to/lastmile_qr_scan"}, "is_reserved": 0, "fusion_lon": 0.0, "fusion_lat": 0.0, "lon": -77.02450066666667, "name": "63e76290162ffd6830d93187218f2315"}, {"bike_id": "eff6740a5f9a30385f7274a58a700e51", "type": "electric_scooter", "is_disabled": 0, "lat": 38.9248185, "rental_uris": {"ios": "https://dc.lft.to/lastmile_qr_scan", "android": "https://dc.lft.to/lastmile_qr_scan"}, "is_reserved": 0, "fusion_lon": 0.0, "fusion_lat": 0.0, "lon": -77.05758883333333, "name": "eff6740a5f9a30385f7274a58a700e51"}, {"bike_id": "17afa23374c8ef09386d760dd328c65e", "type": "electric_scooter", "is_disabled": 0, "lat": 38.92349466666667, "rental_uris": {"ios": "https://dc.lft.to/lastmile_qr_scan", "android": "https://dc.lft.to/lastmile_qr_scan"}, "is_reserved": 0, "fusion_lon": 0.0, "fusion_lat": 0.0, "lon": -77.0335305, "name": "17afa23374c8ef09386d760dd328c65e"}, {"bike_id": "205eb2c19348971219564f0d3098398c", "type": "electric_scooter", "is_disabled": 0, "lat": 38.910105333333334, "rental_uris": {"ios": "https://dc.lft.to/lastmile_qr_scan", "android": "https://dc.lft.to/lastmile_qr_scan"}, "is_reserved": 0, "fusion_lon": 0.0, "fusion_lat": 0.0, "lon": -77.03339666666666, "name": "205eb2c19348971219564f0d3098398c"}, {"bike_id": "690acb73971460aa7ddc526ded3c2973", "type": "electric_bike", "is_disabled": 0, "lat": 38.87565566666667, "rental_uris": {"ios": "https://dc.lft.to/lastmile_qr_scan", "android": "https://dc.lft.to/lastmile_qr_scan"}, "is_reserved": 0, "fusion_lon": 0.0, "fusion_lat": 0.0, "lon": -76.96510283333333, "name": "690acb73971460aa7ddc526ded3c2973"}, {"bike_id": "6932d39f97b7d20ae6be0e301303f8ca", "type": "electric_scooter", "is_disabled": 0, "lat": 38.9073705, "rental_uris": {"ios": "https://dc.lft.to/lastmile_qr_scan", "android": "https://dc.lft.to/lastmile_qr_scan"}, "is_reserved": 0, "fusion_lon": 0.0, "fusion_lat": 0.0, "lon": -76.99913866666667, "name": "6932d39f97b7d20ae6be0e301303f8ca"}, {"bike_id": "d3b2dce918d6508f08b7875dc83c4bd1", "type": "electric_scooter", "is_disabled": 0, "lat": 38.92534716666667, "rental_uris": {"ios": "https://dc.lft.to/lastmile_qr_scan", "android": "https://dc.lft.to/lastmile_qr_scan"}, "is_reserved": 0, "fusion_lon": 0.0, "fusion_lat": 0.0, "lon": -77.042778, "name": "d3b2dce918d6508f08b7875dc83c4bd1"}, {"bike_id": "f19dcbf84036a82e88ae34c8e656b110", "type": "electric_scooter", "is_disabled": 0, "lat": 38.894763, "rental_uris": {"ios": "https://dc.lft.to/lastmile_qr_scan", "android": "https://dc.lft.to/lastmile_qr_scan"}, "is_reserved": 0, "fusion_lon": 0.0, "fusion_lat": 0.0, "lon": -76.94860583333333, "name": "f19dcbf84036a82e88ae34c8e656b110"}, {"bike_id": "2ef32b330dccc96f9593983072ab8a13", "type": "electric_scooter", "is_disabled": 0, "lat": 38.8971995, "rental_uris": {"ios": "https://dc.lft.to/lastmile_qr_scan", "android": "https://dc.lft.to/lastmile_qr_scan"}, "is_reserved": 0, "fusion_lon": 0.0, "fusion_lat": 0.0, "lon": -77.0268055, "name": "2ef32b330dccc96f9593983072ab8a13"}, {"bike_id": "a2ac4b3092d93fb1e8d864ba6eb41980", "type": "electric_scooter", "is_disabled": 0, "lat": 38.907236, "rental_uris": {"ios": "https://dc.lft.to/lastmile_qr_scan", "android": "https://dc.lft.to/lastmile_qr_scan"}, "is_reserved": 0, "fusion_lon": 0.0, "fusion_lat": 0.0, "lon": -77.0231785, "name": "a2ac4b3092d93fb1e8d864ba6eb41980"}, {"bike_id": "bca439884a61aa083bfd417bed5680e3", "type": "electric_scooter", "is_disabled": 0, "lat": 38.87794733333333, "rental_uris": {"ios": "https://dc.lft.to/lastmile_qr_scan", "android": "https://dc.lft.to/lastmile_qr_scan"}, "is_reserved": 0, "fusion_lon": 0.0, "fusion_lat": 0.0, "lon": -76.93091916666667, "name": "bca439884a61aa083bfd417bed5680e3"}, {"bike_id": "42ffedad852043a980bbf1f180e2dfef", "type": "electric_scooter", "is_disabled": 0, "lat": 38.90790366666667, "rental_uris": {"ios": "https://dc.lft.to/lastmile_qr_scan", "android": "https://dc.lft.to/lastmile_qr_scan"}, "is_reserved": 0, "fusion_lon": 0.0, "fusion_lat": 0.0, "lon": -77.03422866666666, "name": "42ffedad852043a980bbf1f180e2dfef"}, {"bike_id": "413168c417433ea4e6a996b1864dde75", "type": "electric_scooter", "is_disabled": 0, "lat": 38.88663366666667, "rental_uris": {"ios": "https://dc.lft.to/lastmile_qr_scan", "android": "https://dc.lft.to/lastmile_qr_scan"}, "is_reserved": 0, "fusion_lon": 0.0, "fusion_lat": 0.0, "lon": -77.00118066666667, "name": "413168c417433ea4e6a996b1864dde75"}, {"bike_id": "342a314082e80b1d9b27c180166c3bd6", "type": "electric_scooter", "is_disabled": 0, "lat": 38.935222, "rental_uris": {"ios": "https://dc.lft.to/lastmile_qr_scan", "android": "https://dc.lft.to/lastmile_qr_scan"}, "is_reserved": 0, "fusion_lon": 0.0, "fusion_lat": 0.0, "lon": -77.05840416666666, "name": "342a314082e80b1d9b27c180166c3bd6"}, {"bike_id": "72dee9ea7491b888e9bec6606a92da16", "type": "electric_scooter", "is_disabled": 0, "lat": 38.90262766666667, "rental_uris": {"ios": "https://dc.lft.to/lastmile_qr_scan", "android": "https://dc.lft.to/lastmile_qr_scan"}, "is_reserved": 0, "fusion_lon": 0.0, "fusion_lat": 0.0, "lon": -77.05496966666666, "name": "72dee9ea7491b888e9bec6606a92da16"}, {"bike_id": "6a42327327277a7d0aa564d0fc532a3f", "type": "electric_scooter", "is_disabled": 0, "lat": 38.8984075, "rental_uris": {"ios": "https://dc.lft.to/lastmile_qr_scan", "android": "https://dc.lft.to/lastmile_qr_scan"}, "is_reserved": 0, "fusion_lon": 0.0, "fusion_lat": 0.0, "lon": -76.94641, "name": "6a42327327277a7d0aa564d0fc532a3f"}, {"bike_id": "4e1280006e76f3fcc77a63bdfca9716e", "type": "electric_scooter", "is_disabled": 0, "lat": 38.89541033333333, "rental_uris": {"ios": "https://dc.lft.to/lastmile_qr_scan", "android": "https://dc.lft.to/lastmile_qr_scan"}, "is_reserved": 0, "fusion_lon": 0.0, "fusion_lat": 0.0, "lon": -77.0399245, "name": "4e1280006e76f3fcc77a63bdfca9716e"}, {"bike_id": "d7386e2ae6022fc889df5d663ca8e0e8", "type": "electric_scooter", "is_disabled": 0, "lat": 38.91584816666666, "rental_uris": {"ios": "https://dc.lft.to/lastmile_qr_scan", "android": "https://dc.lft.to/lastmile_qr_scan"}, "is_reserved": 0, "fusion_lon": 0.0, "fusion_lat": 0.0, "lon": -77.03198216666667, "name": "d7386e2ae6022fc889df5d663ca8e0e8"}, {"bike_id": "5dd81dfa4f0aa7f0e27b8a04a19a272e", "type": "electric_bike", "is_disabled": 0, "lat": 38.990871166666665, "rental_uris": {"ios": "https://dc.lft.to/lastmile_qr_scan", "android": "https://dc.lft.to/lastmile_qr_scan"}, "is_reserved": 0, "fusion_lon": 0.0, "fusion_lat": 0.0, "lon": -76.87493366666666, "name": "5dd81dfa4f0aa7f0e27b8a04a19a272e"}, {"bike_id": "dbd7df1f90f12c3959804d4a94de8e89", "type": "electric_scooter", "is_disabled": 0, "lat": 38.908608, "rental_uris": {"ios": "https://dc.lft.to/lastmile_qr_scan", "android": "https://dc.lft.to/lastmile_qr_scan"}, "is_reserved": 0, "fusion_lon": 0.0, "fusion_lat": 0.0, "lon": -77.04820616666667, "name": "dbd7df1f90f12c3959804d4a94de8e89"}, {"bike_id": "636cc7dd26fecf1709f6d8deee2b78e9", "type": "electric_scooter", "is_disabled": 0, "lat": 38.843139, "rental_uris": {"ios": "https://dc.lft.to/lastmile_qr_scan", "android": "https://dc.lft.to/lastmile_qr_scan"}, "is_reserved": 0, "fusion_lon": 0.0, "fusion_lat": 0.0, "lon": -76.99926066666667, "name": "636cc7dd26fecf1709f6d8deee2b78e9"}, {"bike_id": "cf62f7fbe02dcca543093685ade68e87", "type": "electric_scooter", "is_disabled": 0, "lat": 38.9292675, "rental_uris": {"ios": "https://dc.lft.to/lastmile_qr_scan", "android": "https://dc.lft.to/lastmile_qr_scan"}, "is_reserved": 0, "fusion_lon": 0.0, "fusion_lat": 0.0, "lon": -77.032629, "name": "cf62f7fbe02dcca543093685ade68e87"}, {"bike_id": "8aea3006ca1e128aac422fab83b527b5", "type": "electric_scooter", "is_disabled": 0, "lat": 38.911135333333334, "rental_uris": {"ios": "https://dc.lft.to/lastmile_qr_scan", "android": "https://dc.lft.to/lastmile_qr_scan"}, "is_reserved": 0, "fusion_lon": 0.0, "fusion_lat": 0.0, "lon": -77.04912366666667, "name": "8aea3006ca1e128aac422fab83b527b5"}, {"bike_id": "cbcf021273ea04b077ba0f5b15a8f636", "type": "electric_scooter", "is_disabled": 0, "lat": 38.9026915, "rental_uris": {"ios": "https://dc.lft.to/lastmile_qr_scan", "android": "https://dc.lft.to/lastmile_qr_scan"}, "is_reserved": 0, "fusion_lon": 0.0, "fusion_lat": 0.0, "lon": -77.00367683333333, "name": "cbcf021273ea04b077ba0f5b15a8f636"}, {"bike_id": "f9d6b53745599216423b50551a23cda0", "type": "electric_scooter", "is_disabled": 0, "lat": 38.9118095, "rental_uris": {"ios": "https://dc.lft.to/lastmile_qr_scan", "android": "https://dc.lft.to/lastmile_qr_scan"}, "is_reserved": 0, "fusion_lon": 0.0, "fusion_lat": 0.0, "lon": -77.02288033333333, "name": "f9d6b53745599216423b50551a23cda0"}, {"bike_id": "a3434bf081f39ba56f03c97fec703b6a", "type": "electric_scooter", "is_disabled": 0, "lat": 38.902471, "rental_uris": {"ios": "https://dc.lft.to/lastmile_qr_scan", "android": "https://dc.lft.to/lastmile_qr_scan"}, "is_reserved": 0, "fusion_lon": 0.0, "fusion_lat": 0.0, "lon": -77.04699016666666, "name": "a3434bf081f39ba56f03c97fec703b6a"}, {"bike_id": "2896fff6beb491f6e887778135e33a4c", "type": "electric_scooter", "is_disabled": 0, "lat": 38.900891, "rental_uris": {"ios": "https://dc.lft.to/lastmile_qr_scan", "android": "https://dc.lft.to/lastmile_qr_scan"}, "is_reserved": 0, "fusion_lon": 0.0, "fusion_lat": 0.0, "lon": -77.017787, "name": "2896fff6beb491f6e887778135e33a4c"}, {"bike_id": "06635e1d88df705f85eaced66660cdbe", "type": "electric_scooter", "is_disabled": 0, "lat": 38.845358166666664, "rental_uris": {"ios": "https://dc.lft.to/lastmile_qr_scan", "android": "https://dc.lft.to/lastmile_qr_scan"}, "is_reserved": 0, "fusion_lon": 0.0, "fusion_lat": 0.0, "lon": -76.98546433333334, "name": "06635e1d88df705f85eaced66660cdbe"}, {"bike_id": "7736ad3d201e25dc63544af261d29dad", "type": "electric_scooter", "is_disabled": 0, "lat": 38.934674666666666, "rental_uris": {"ios": "https://dc.lft.to/lastmile_qr_scan", "android": "https://dc.lft.to/lastmile_qr_scan"}, "is_reserved": 0, "fusion_lon": 0.0, "fusion_lat": 0.0, "lon": -77.072802, "name": "7736ad3d201e25dc63544af261d29dad"}, {"bike_id": "280800e327e5f26ae0932ecb83a5560f", "type": "electric_scooter", "is_disabled": 0, "lat": 38.900071, "rental_uris": {"ios": "https://dc.lft.to/lastmile_qr_scan", "android": "https://dc.lft.to/lastmile_qr_scan"}, "is_reserved": 0, "fusion_lon": 0.0, "fusion_lat": 0.0, "lon": -76.98169583333333, "name": "280800e327e5f26ae0932ecb83a5560f"}, {"bike_id": "1bf2e965c32f8f8c68d43f58241ab7fe", "type": "electric_bike", "is_disabled": 0, "lat": 38.8651485, "rental_uris": {"ios": "https://dc.lft.to/lastmile_qr_scan", "android": "https://dc.lft.to/lastmile_qr_scan"}, "is_reserved": 0, "fusion_lon": 0.0, "fusion_lat": 0.0, "lon": -76.97348133333334, "name": "1bf2e965c32f8f8c68d43f58241ab7fe"}, {"bike_id": "1e6e19707c7fa8ac7d6035cb4547287c", "type": "electric_scooter", "is_disabled": 0, "lat": 38.92221266666667, "rental_uris": {"ios": "https://dc.lft.to/lastmile_qr_scan", "android": "https://dc.lft.to/lastmile_qr_scan"}, "is_reserved": 0, "fusion_lon": 0.0, "fusion_lat": 0.0, "lon": -77.02375716666667, "name": "1e6e19707c7fa8ac7d6035cb4547287c"}, {"bike_id": "cea0cf7451396c4d6761b7a1aa51223a", "type": "electric_scooter", "is_disabled": 0, "lat": 38.908045666666666, "rental_uris": {"ios": "https://dc.lft.to/lastmile_qr_scan", "android": "https://dc.lft.to/lastmile_qr_scan"}, "is_reserved": 0, "fusion_lon": 0.0, "fusion_lat": 0.0, "lon": -77.02041, "name": "cea0cf7451396c4d6761b7a1aa51223a"}, {"bike_id": "b2c6eeb2913b6a08da177f3208e0f0af", "type": "electric_scooter", "is_disabled": 0, "lat": 38.916940833333335, "rental_uris": {"ios": "https://dc.lft.to/lastmile_qr_scan", "android": "https://dc.lft.to/lastmile_qr_scan"}, "is_reserved": 0, "fusion_lon": 0.0, "fusion_lat": 0.0, "lon": -77.02294833333333, "name": "b2c6eeb2913b6a08da177f3208e0f0af"}, {"bike_id": "ec84f3cb465c35e59809e4d8e6a8dc59", "type": "electric_scooter", "is_disabled": 0, "lat": 38.90226916666667, "rental_uris": {"ios": "https://dc.lft.to/lastmile_qr_scan", "android": "https://dc.lft.to/lastmile_qr_scan"}, "is_reserved": 0, "fusion_lon": 0.0, "fusion_lat": 0.0, "lon": -77.037624, "name": "ec84f3cb465c35e59809e4d8e6a8dc59"}, {"bike_id": "b3a5cb4898a20e784e6af317e4107e49", "type": "electric_scooter", "is_disabled": 0, "lat": 38.90690266666667, "rental_uris": {"ios": "https://dc.lft.to/lastmile_qr_scan", "android": "https://dc.lft.to/lastmile_qr_scan"}, "is_reserved": 0, "fusion_lon": 0.0, "fusion_lat": 0.0, "lon": -77.01037366666667, "name": "b3a5cb4898a20e784e6af317e4107e49"}, {"bike_id": "3f2be964aef1cba4201042d87bd5c970", "type": "electric_bike", "is_disabled": 0, "lat": 38.90828233333333, "rental_uris": {"ios": "https://dc.lft.to/lastmile_qr_scan", "android": "https://dc.lft.to/lastmile_qr_scan"}, "is_reserved": 0, "fusion_lon": 0.0, "fusion_lat": 0.0, "lon": -76.94160783333334, "name": "3f2be964aef1cba4201042d87bd5c970"}, {"bike_id": "45e4379cd0736dbbccaf45718dfef7f2", "type": "electric_scooter", "is_disabled": 0, "lat": 38.93279016666666, "rental_uris": {"ios": "https://dc.lft.to/lastmile_qr_scan", "android": "https://dc.lft.to/lastmile_qr_scan"}, "is_reserved": 0, "fusion_lon": 0.0, "fusion_lat": 0.0, "lon": -77.04035766666667, "name": "45e4379cd0736dbbccaf45718dfef7f2"}, {"bike_id": "f01bb7bebffbb31474cf4f611e631e02", "type": "electric_scooter", "is_disabled": 0, "lat": 38.9212245, "rental_uris": {"ios": "https://dc.lft.to/lastmile_qr_scan", "android": "https://dc.lft.to/lastmile_qr_scan"}, "is_reserved": 0, "fusion_lon": 0.0, "fusion_lat": 0.0, "lon": -77.0180115, "name": "f01bb7bebffbb31474cf4f611e631e02"}, {"bike_id": "4e4f091aa5fbb408b64f1349fdfae98b", "type": "electric_scooter", "is_disabled": 0, "lat": 38.9127075, "rental_uris": {"ios": "https://dc.lft.to/lastmile_qr_scan", "android": "https://dc.lft.to/lastmile_qr_scan"}, "is_reserved": 0, "fusion_lon": 0.0, "fusion_lat": 0.0, "lon": -77.04511233333334, "name": "4e4f091aa5fbb408b64f1349fdfae98b"}, {"bike_id": "6f333d2d6da4b9f9b94bf37321a3e9d3", "type": "electric_scooter", "is_disabled": 0, "lat": 38.906868833333334, "rental_uris": {"ios": "https://dc.lft.to/lastmile_qr_scan", "android": "https://dc.lft.to/lastmile_qr_scan"}, "is_reserved": 0, "fusion_lon": 0.0, "fusion_lat": 0.0, "lon": -77.053317, "name": "6f333d2d6da4b9f9b94bf37321a3e9d3"}, {"bike_id": "abb6ad6312f63242fe48a97af40e5bc0", "type": "electric_scooter", "is_disabled": 0, "lat": 38.888488333333335, "rental_uris": {"ios": "https://dc.lft.to/lastmile_qr_scan", "android": "https://dc.lft.to/lastmile_qr_scan"}, "is_reserved": 0, "fusion_lon": 0.0, "fusion_lat": 0.0, "lon": -76.98917016666667, "name": "abb6ad6312f63242fe48a97af40e5bc0"}, {"bike_id": "49afee41a0e9b21288dacfc98e90be6b", "type": "electric_scooter", "is_disabled": 0, "lat": 38.87666933333333, "rental_uris": {"ios": "https://dc.lft.to/lastmile_qr_scan", "android": "https://dc.lft.to/lastmile_qr_scan"}, "is_reserved": 0, "fusion_lon": 0.0, "fusion_lat": 0.0, "lon": -77.00771383333333, "name": "49afee41a0e9b21288dacfc98e90be6b"}, {"bike_id": "4673c12524529c08b36a1499ef544406", "type": "electric_scooter", "is_disabled": 0, "lat": 38.8637645, "rental_uris": {"ios": "https://dc.lft.to/lastmile_qr_scan", "android": "https://dc.lft.to/lastmile_qr_scan"}, "is_reserved": 0, "fusion_lon": 0.0, "fusion_lat": 0.0, "lon": -76.99061616666667, "name": "4673c12524529c08b36a1499ef544406"}, {"bike_id": "ef2953637ccc57642a69a0dc9d073f4e", "type": "electric_scooter", "is_disabled": 0, "lat": 38.9169315, "rental_uris": {"ios": "https://dc.lft.to/lastmile_qr_scan", "android": "https://dc.lft.to/lastmile_qr_scan"}, "is_reserved": 0, "fusion_lon": 0.0, "fusion_lat": 0.0, "lon": -77.02878816666667, "name": "ef2953637ccc57642a69a0dc9d073f4e"}, {"bike_id": "3a006f93fffacb3a2e8b97db92b545bd", "type": "electric_scooter", "is_disabled": 0, "lat": 38.862047833333335, "rental_uris": {"ios": "https://dc.lft.to/lastmile_qr_scan", "android": "https://dc.lft.to/lastmile_qr_scan"}, "is_reserved": 0, "fusion_lon": 0.0, "fusion_lat": 0.0, "lon": -76.99474, "name": "3a006f93fffacb3a2e8b97db92b545bd"}, {"bike_id": "8a036266497df2b6feb8354c1dcedd32", "type": "electric_scooter", "is_disabled": 0, "lat": 38.866923166666666, "rental_uris": {"ios": "https://dc.lft.to/lastmile_qr_scan", "android": "https://dc.lft.to/lastmile_qr_scan"}, "is_reserved": 0, "fusion_lon": 0.0, "fusion_lat": 0.0, "lon": -76.98712733333333, "name": "8a036266497df2b6feb8354c1dcedd32"}, {"bike_id": "2961311fcddd122cfc7af9fdbc981f01", "type": "electric_scooter", "is_disabled": 0, "lat": 38.862194333333335, "rental_uris": {"ios": "https://dc.lft.to/lastmile_qr_scan", "android": "https://dc.lft.to/lastmile_qr_scan"}, "is_reserved": 0, "fusion_lon": 0.0, "fusion_lat": 0.0, "lon": -76.99478933333333, "name": "2961311fcddd122cfc7af9fdbc981f01"}, {"bike_id": "7dd8ef26675a52724208450187f1e53c", "type": "electric_scooter", "is_disabled": 0, "lat": 38.93817166666667, "rental_uris": {"ios": "https://dc.lft.to/lastmile_qr_scan", "android": "https://dc.lft.to/lastmile_qr_scan"}, "is_reserved": 0, "fusion_lon": 0.0, "fusion_lat": 0.0, "lon": -77.02720233333334, "name": "7dd8ef26675a52724208450187f1e53c"}, {"bike_id": "c19272efc9a91b6afb796d5e86c74647", "type": "electric_scooter", "is_disabled": 0, "lat": 38.913343, "rental_uris": {"ios": "https://dc.lft.to/lastmile_qr_scan", "android": "https://dc.lft.to/lastmile_qr_scan"}, "is_reserved": 0, "fusion_lon": 0.0, "fusion_lat": 0.0, "lon": -77.0318405, "name": "c19272efc9a91b6afb796d5e86c74647"}, {"bike_id": "5c9fb81e5ff8c2d3b52b345e32ef85a6", "type": "electric_scooter", "is_disabled": 0, "lat": 38.9251335, "rental_uris": {"ios": "https://dc.lft.to/lastmile_qr_scan", "android": "https://dc.lft.to/lastmile_qr_scan"}, "is_reserved": 0, "fusion_lon": 0.0, "fusion_lat": 0.0, "lon": -77.00892566666667, "name": "5c9fb81e5ff8c2d3b52b345e32ef85a6"}, {"bike_id": "08083e572838eb4700d4bbf5ef841118", "type": "electric_scooter", "is_disabled": 0, "lat": 38.91823466666666, "rental_uris": {"ios": "https://dc.lft.to/lastmile_qr_scan", "android": "https://dc.lft.to/lastmile_qr_scan"}, "is_reserved": 0, "fusion_lon": 0.0, "fusion_lat": 0.0, "lon": -77.045674, "name": "08083e572838eb4700d4bbf5ef841118"}, {"bike_id": "970103efd96ea43a49cb0859b7fec4ae", "type": "electric_scooter", "is_disabled": 0, "lat": 38.931329833333336, "rental_uris": {"ios": "https://dc.lft.to/lastmile_qr_scan", "android": "https://dc.lft.to/lastmile_qr_scan"}, "is_reserved": 0, "fusion_lon": 0.0, "fusion_lat": 0.0, "lon": -77.05724916666667, "name": "970103efd96ea43a49cb0859b7fec4ae"}, {"bike_id": "67e5f83bdfa3af519471a5a17b323a4e", "type": "electric_bike", "is_disabled": 0, "lat": 38.829391, "rental_uris": {"ios": "https://dc.lft.to/lastmile_qr_scan", "android": "https://dc.lft.to/lastmile_qr_scan"}, "is_reserved": 0, "fusion_lon": 0.0, "fusion_lat": 0.0, "lon": -77.12363866666666, "name": "67e5f83bdfa3af519471a5a17b323a4e"}, {"bike_id": "7614c819ca688e92574016cddbae3e03", "type": "electric_scooter", "is_disabled": 0, "lat": 38.942259666666665, "rental_uris": {"ios": "https://dc.lft.to/lastmile_qr_scan", "android": "https://dc.lft.to/lastmile_qr_scan"}, "is_reserved": 0, "fusion_lon": 0.0, "fusion_lat": 0.0, "lon": -77.01438633333333, "name": "7614c819ca688e92574016cddbae3e03"}, {"bike_id": "273c55a8f9590afcdfe15e49df21bcf5", "type": "electric_scooter", "is_disabled": 0, "lat": 38.86682283333333, "rental_uris": {"ios": "https://dc.lft.to/lastmile_qr_scan", "android": "https://dc.lft.to/lastmile_qr_scan"}, "is_reserved": 0, "fusion_lon": 0.0, "fusion_lat": 0.0, "lon": -76.9852565, "name": "273c55a8f9590afcdfe15e49df21bcf5"}, {"bike_id": "14248419230f452c8e7af6feae6cc936", "type": "electric_scooter", "is_disabled": 0, "lat": 38.9241045, "rental_uris": {"ios": "https://dc.lft.to/lastmile_qr_scan", "android": "https://dc.lft.to/lastmile_qr_scan"}, "is_reserved": 0, "fusion_lon": 0.0, "fusion_lat": 0.0, "lon": -77.05061783333333, "name": "14248419230f452c8e7af6feae6cc936"}, {"bike_id": "3d058d118de1dc255b680a2a56549161", "type": "electric_scooter", "is_disabled": 0, "lat": 38.9287735, "rental_uris": {"ios": "https://dc.lft.to/lastmile_qr_scan", "android": "https://dc.lft.to/lastmile_qr_scan"}, "is_reserved": 0, "fusion_lon": 0.0, "fusion_lat": 0.0, "lon": -77.03269666666667, "name": "3d058d118de1dc255b680a2a56549161"}, {"bike_id": "b1c0bd7b6368973fa6ff13c7fb76da36", "type": "electric_scooter", "is_disabled": 0, "lat": 38.874694, "rental_uris": {"ios": "https://dc.lft.to/lastmile_qr_scan", "android": "https://dc.lft.to/lastmile_qr_scan"}, "is_reserved": 0, "fusion_lon": 0.0, "fusion_lat": 0.0, "lon": -77.00563466666667, "name": "b1c0bd7b6368973fa6ff13c7fb76da36"}, {"bike_id": "2bb238d973534d6375831e664d7b9ec2", "type": "electric_scooter", "is_disabled": 0, "lat": 38.9173095, "rental_uris": {"ios": "https://dc.lft.to/lastmile_qr_scan", "android": "https://dc.lft.to/lastmile_qr_scan"}, "is_reserved": 0, "fusion_lon": 0.0, "fusion_lat": 0.0, "lon": -77.04178133333333, "name": "2bb238d973534d6375831e664d7b9ec2"}, {"bike_id": "e2aa2920d8e5522b1d20e5956d508d14", "type": "electric_scooter", "is_disabled": 0, "lat": 38.9337285, "rental_uris": {"ios": "https://dc.lft.to/lastmile_qr_scan", "android": "https://dc.lft.to/lastmile_qr_scan"}, "is_reserved": 0, "fusion_lon": 0.0, "fusion_lat": 0.0, "lon": -77.05730033333333, "name": "e2aa2920d8e5522b1d20e5956d508d14"}, {"bike_id": "49732ade57ff52e66173e4ef2a3803cb", "type": "electric_scooter", "is_disabled": 0, "lat": 38.9096385, "rental_uris": {"ios": "https://dc.lft.to/lastmile_qr_scan", "android": "https://dc.lft.to/lastmile_qr_scan"}, "is_reserved": 0, "fusion_lon": 0.0, "fusion_lat": 0.0, "lon": -77.02286983333333, "name": "49732ade57ff52e66173e4ef2a3803cb"}, {"bike_id": "dce57760dcca9288c336b84183fae8ff", "type": "electric_scooter", "is_disabled": 0, "lat": 38.911064, "rental_uris": {"ios": "https://dc.lft.to/lastmile_qr_scan", "android": "https://dc.lft.to/lastmile_qr_scan"}, "is_reserved": 0, "fusion_lon": 0.0, "fusion_lat": 0.0, "lon": -77.02446533333334, "name": "dce57760dcca9288c336b84183fae8ff"}, {"bike_id": "97d93be8fa038ece655c91f28135399c", "type": "electric_scooter", "is_disabled": 0, "lat": 38.9472065, "rental_uris": {"ios": "https://dc.lft.to/lastmile_qr_scan", "android": "https://dc.lft.to/lastmile_qr_scan"}, "is_reserved": 0, "fusion_lon": 0.0, "fusion_lat": 0.0, "lon": -77.02782383333333, "name": "97d93be8fa038ece655c91f28135399c"}, {"bike_id": "aa3eff972def414e4db71589494725a3", "type": "electric_scooter", "is_disabled": 0, "lat": 38.90379383333333, "rental_uris": {"ios": "https://dc.lft.to/lastmile_qr_scan", "android": "https://dc.lft.to/lastmile_qr_scan"}, "is_reserved": 0, "fusion_lon": 0.0, "fusion_lat": 0.0, "lon": -77.008881, "name": "aa3eff972def414e4db71589494725a3"}, {"bike_id": "4358101a7a233bb7f471a94af8b151cd", "type": "electric_scooter", "is_disabled": 0, "lat": 38.91428583333333, "rental_uris": {"ios": "https://dc.lft.to/lastmile_qr_scan", "android": "https://dc.lft.to/lastmile_qr_scan"}, "is_reserved": 0, "fusion_lon": 0.0, "fusion_lat": 0.0, "lon": -77.0318745, "name": "4358101a7a233bb7f471a94af8b151cd"}, {"bike_id": "a6cb9e6a2d86b40591c5b673657a3927", "type": "electric_scooter", "is_disabled": 0, "lat": 38.89901233333333, "rental_uris": {"ios": "https://dc.lft.to/lastmile_qr_scan", "android": "https://dc.lft.to/lastmile_qr_scan"}, "is_reserved": 0, "fusion_lon": 0.0, "fusion_lat": 0.0, "lon": -77.01520683333334, "name": "a6cb9e6a2d86b40591c5b673657a3927"}, {"bike_id": "902c3a8f1e5d333b6a3045111f1dc1c1", "type": "electric_scooter", "is_disabled": 0, "lat": 38.877357, "rental_uris": {"ios": "https://dc.lft.to/lastmile_qr_scan", "android": "https://dc.lft.to/lastmile_qr_scan"}, "is_reserved": 0, "fusion_lon": 0.0, "fusion_lat": 0.0, "lon": -77.007667, "name": "902c3a8f1e5d333b6a3045111f1dc1c1"}, {"bike_id": "4630804eae294c51a34c7216a414079b", "type": "electric_scooter", "is_disabled": 0, "lat": 38.89003483333333, "rental_uris": {"ios": "https://dc.lft.to/lastmile_qr_scan", "android": "https://dc.lft.to/lastmile_qr_scan"}, "is_reserved": 0, "fusion_lon": 0.0, "fusion_lat": 0.0, "lon": -76.93745366666667, "name": "4630804eae294c51a34c7216a414079b"}, {"bike_id": "0eff79cb73094cc952a40e392e496673", "type": "electric_scooter", "is_disabled": 0, "lat": 38.89540183333333, "rental_uris": {"ios": "https://dc.lft.to/lastmile_qr_scan", "android": "https://dc.lft.to/lastmile_qr_scan"}, "is_reserved": 0, "fusion_lon": 0.0, "fusion_lat": 0.0, "lon": -76.948967, "name": "0eff79cb73094cc952a40e392e496673"}, {"bike_id": "95f36b9630611ac0303db00b3595805e", "type": "electric_scooter", "is_disabled": 0, "lat": 38.94141783333333, "rental_uris": {"ios": "https://dc.lft.to/lastmile_qr_scan", "android": "https://dc.lft.to/lastmile_qr_scan"}, "is_reserved": 0, "fusion_lon": 0.0, "fusion_lat": 0.0, "lon": -77.0233175, "name": "95f36b9630611ac0303db00b3595805e"}, {"bike_id": "3eef61678fcf5078fd3367ab38d80930", "type": "electric_scooter", "is_disabled": 0, "lat": 38.917022833333334, "rental_uris": {"ios": "https://dc.lft.to/lastmile_qr_scan", "android": "https://dc.lft.to/lastmile_qr_scan"}, "is_reserved": 0, "fusion_lon": 0.0, "fusion_lat": 0.0, "lon": -77.095765, "name": "3eef61678fcf5078fd3367ab38d80930"}, {"bike_id": "efd4f35a48a32321f98d86dde7c48fca", "type": "electric_scooter", "is_disabled": 0, "lat": 38.923331833333336, "rental_uris": {"ios": "https://dc.lft.to/lastmile_qr_scan", "android": "https://dc.lft.to/lastmile_qr_scan"}, "is_reserved": 0, "fusion_lon": 0.0, "fusion_lat": 0.0, "lon": -77.02132416666667, "name": "efd4f35a48a32321f98d86dde7c48fca"}, {"bike_id": "38b5ed3db2043c08aa19df7ca3269f86", "type": "electric_scooter", "is_disabled": 0, "lat": 38.923934333333335, "rental_uris": {"ios": "https://dc.lft.to/lastmile_qr_scan", "android": "https://dc.lft.to/lastmile_qr_scan"}, "is_reserved": 0, "fusion_lon": 0.0, "fusion_lat": 0.0, "lon": -77.04472866666667, "name": "38b5ed3db2043c08aa19df7ca3269f86"}, {"bike_id": "b9569b1025842424a180e644d3dc3f2b", "type": "electric_scooter", "is_disabled": 0, "lat": 38.904150666666666, "rental_uris": {"ios": "https://dc.lft.to/lastmile_qr_scan", "android": "https://dc.lft.to/lastmile_qr_scan"}, "is_reserved": 0, "fusion_lon": 0.0, "fusion_lat": 0.0, "lon": -76.97332683333333, "name": "b9569b1025842424a180e644d3dc3f2b"}, {"bike_id": "6a7c801cf8c65a881e7d776a29ce383f", "type": "electric_scooter", "is_disabled": 0, "lat": 38.939127166666665, "rental_uris": {"ios": "https://dc.lft.to/lastmile_qr_scan", "android": "https://dc.lft.to/lastmile_qr_scan"}, "is_reserved": 0, "fusion_lon": 0.0, "fusion_lat": 0.0, "lon": -77.0326495, "name": "6a7c801cf8c65a881e7d776a29ce383f"}, {"bike_id": "124178d3ea5e007d671e8e58c4e7424a", "type": "electric_scooter", "is_disabled": 0, "lat": 38.92201083333333, "rental_uris": {"ios": "https://dc.lft.to/lastmile_qr_scan", "android": "https://dc.lft.to/lastmile_qr_scan"}, "is_reserved": 0, "fusion_lon": 0.0, "fusion_lat": 0.0, "lon": -77.02412116666666, "name": "124178d3ea5e007d671e8e58c4e7424a"}, {"bike_id": "e44054cb0537df7faf557c79a0004981", "type": "electric_scooter", "is_disabled": 0, "lat": 38.89850533333333, "rental_uris": {"ios": "https://dc.lft.to/lastmile_qr_scan", "android": "https://dc.lft.to/lastmile_qr_scan"}, "is_reserved": 0, "fusion_lon": 0.0, "fusion_lat": 0.0, "lon": -77.02321516666666, "name": "e44054cb0537df7faf557c79a0004981"}, {"bike_id": "1fcb54f9ce0702ca967c99edddc45e17", "type": "electric_scooter", "is_disabled": 0, "lat": 38.957337833333334, "rental_uris": {"ios": "https://dc.lft.to/lastmile_qr_scan", "android": "https://dc.lft.to/lastmile_qr_scan"}, "is_reserved": 0, "fusion_lon": 0.0, "fusion_lat": 0.0, "lon": -77.02402933333333, "name": "1fcb54f9ce0702ca967c99edddc45e17"}, {"bike_id": "e6b8402badced75f6f4107e08bf6ffb4", "type": "electric_scooter", "is_disabled": 0, "lat": 38.922770166666666, "rental_uris": {"ios": "https://dc.lft.to/lastmile_qr_scan", "android": "https://dc.lft.to/lastmile_qr_scan"}, "is_reserved": 0, "fusion_lon": 0.0, "fusion_lat": 0.0, "lon": -76.99451733333333, "name": "e6b8402badced75f6f4107e08bf6ffb4"}, {"bike_id": "3da5e8542a45f4ee1320460550e0f1c7", "type": "electric_scooter", "is_disabled": 0, "lat": 38.92775233333333, "rental_uris": {"ios": "https://dc.lft.to/lastmile_qr_scan", "android": "https://dc.lft.to/lastmile_qr_scan"}, "is_reserved": 0, "fusion_lon": 0.0, "fusion_lat": 0.0, "lon": -76.98766416666666, "name": "3da5e8542a45f4ee1320460550e0f1c7"}, {"bike_id": "72db76c0c72528b6405c448af4240b1d", "type": "electric_scooter", "is_disabled": 0, "lat": 38.920248666666666, "rental_uris": {"ios": "https://dc.lft.to/lastmile_qr_scan", "android": "https://dc.lft.to/lastmile_qr_scan"}, "is_reserved": 0, "fusion_lon": 0.0, "fusion_lat": 0.0, "lon": -76.99557033333333, "name": "72db76c0c72528b6405c448af4240b1d"}, {"bike_id": "757574acc813fc52ab435ef8788104ac", "type": "electric_scooter", "is_disabled": 0, "lat": 38.866874, "rental_uris": {"ios": "https://dc.lft.to/lastmile_qr_scan", "android": "https://dc.lft.to/lastmile_qr_scan"}, "is_reserved": 0, "fusion_lon": 0.0, "fusion_lat": 0.0, "lon": -76.98591616666667, "name": "757574acc813fc52ab435ef8788104ac"}, {"bike_id": "08f5f265f11ea99bb4a8599395b66b7c", "type": "electric_scooter", "is_disabled": 0, "lat": 38.91812516666667, "rental_uris": {"ios": "https://dc.lft.to/lastmile_qr_scan", "android": "https://dc.lft.to/lastmile_qr_scan"}, "is_reserved": 0, "fusion_lon": 0.0, "fusion_lat": 0.0, "lon": -77.040129, "name": "08f5f265f11ea99bb4a8599395b66b7c"}, {"bike_id": "a2686b3ee8cfcee659cec5e8494cfe23", "type": "electric_bike", "is_disabled": 0, "lat": 38.93778183333333, "rental_uris": {"ios": "https://dc.lft.to/lastmile_qr_scan", "android": "https://dc.lft.to/lastmile_qr_scan"}, "is_reserved": 0, "fusion_lon": 0.0, "fusion_lat": 0.0, "lon": -77.0191185, "name": "a2686b3ee8cfcee659cec5e8494cfe23"}, {"bike_id": "8892f85a4585235b42fac4aedfcc711f", "type": "electric_scooter", "is_disabled": 0, "lat": 38.87145783333333, "rental_uris": {"ios": "https://dc.lft.to/lastmile_qr_scan", "android": "https://dc.lft.to/lastmile_qr_scan"}, "is_reserved": 0, "fusion_lon": 0.0, "fusion_lat": 0.0, "lon": -77.007054, "name": "8892f85a4585235b42fac4aedfcc711f"}, {"bike_id": "14f47cd3e486e167489c27503658a9e1", "type": "electric_scooter", "is_disabled": 0, "lat": 38.92918733333333, "rental_uris": {"ios": "https://dc.lft.to/lastmile_qr_scan", "android": "https://dc.lft.to/lastmile_qr_scan"}, "is_reserved": 0, "fusion_lon": 0.0, "fusion_lat": 0.0, "lon": -77.032565, "name": "14f47cd3e486e167489c27503658a9e1"}, {"bike_id": "23c139ccbd86bbc7855f3ef8d4121ca4", "type": "electric_scooter", "is_disabled": 0, "lat": 38.9215595, "rental_uris": {"ios": "https://dc.lft.to/lastmile_qr_scan", "android": "https://dc.lft.to/lastmile_qr_scan"}, "is_reserved": 0, "fusion_lon": 0.0, "fusion_lat": 0.0, "lon": -77.0331425, "name": "23c139ccbd86bbc7855f3ef8d4121ca4"}, {"bike_id": "7fb01e0cbce4019419d89ceab44e18c6", "type": "electric_scooter", "is_disabled": 0, "lat": 38.9050455, "rental_uris": {"ios": "https://dc.lft.to/lastmile_qr_scan", "android": "https://dc.lft.to/lastmile_qr_scan"}, "is_reserved": 0, "fusion_lon": 0.0, "fusion_lat": 0.0, "lon": -77.063788, "name": "7fb01e0cbce4019419d89ceab44e18c6"}, {"bike_id": "b83112d5d078d4c98ebc578847fdcf52", "type": "electric_scooter", "is_disabled": 0, "lat": 38.9085025, "rental_uris": {"ios": "https://dc.lft.to/lastmile_qr_scan", "android": "https://dc.lft.to/lastmile_qr_scan"}, "is_reserved": 0, "fusion_lon": 0.0, "fusion_lat": 0.0, "lon": -77.05569283333334, "name": "b83112d5d078d4c98ebc578847fdcf52"}, {"bike_id": "7e06c7a6ea0bfa1c231b7d5872cd6df4", "type": "electric_scooter", "is_disabled": 0, "lat": 38.906835, "rental_uris": {"ios": "https://dc.lft.to/lastmile_qr_scan", "android": "https://dc.lft.to/lastmile_qr_scan"}, "is_reserved": 0, "fusion_lon": 0.0, "fusion_lat": 0.0, "lon": -77.06340233333333, "name": "7e06c7a6ea0bfa1c231b7d5872cd6df4"}, {"bike_id": "be16588e38a2fd35a84fe5a9492275ac", "type": "electric_scooter", "is_disabled": 0, "lat": 38.90368633333333, "rental_uris": {"ios": "https://dc.lft.to/lastmile_qr_scan", "android": "https://dc.lft.to/lastmile_qr_scan"}, "is_reserved": 0, "fusion_lon": 0.0, "fusion_lat": 0.0, "lon": -77.06884216666667, "name": "be16588e38a2fd35a84fe5a9492275ac"}, {"bike_id": "f0088c572a624c0d251446a480a9f6ba", "type": "electric_scooter", "is_disabled": 0, "lat": 38.921061, "rental_uris": {"ios": "https://dc.lft.to/lastmile_qr_scan", "android": "https://dc.lft.to/lastmile_qr_scan"}, "is_reserved": 0, "fusion_lon": 0.0, "fusion_lat": 0.0, "lon": -77.03180866666666, "name": "f0088c572a624c0d251446a480a9f6ba"}, {"bike_id": "f11f1b8b4bfd73a46514b8188524e7f2", "type": "electric_scooter", "is_disabled": 0, "lat": 38.908745333333336, "rental_uris": {"ios": "https://dc.lft.to/lastmile_qr_scan", "android": "https://dc.lft.to/lastmile_qr_scan"}, "is_reserved": 0, "fusion_lon": 0.0, "fusion_lat": 0.0, "lon": -77.0427305, "name": "f11f1b8b4bfd73a46514b8188524e7f2"}, {"bike_id": "c2eda12f48cfee898ebf5ba246136c7a", "type": "electric_scooter", "is_disabled": 0, "lat": 38.9191775, "rental_uris": {"ios": "https://dc.lft.to/lastmile_qr_scan", "android": "https://dc.lft.to/lastmile_qr_scan"}, "is_reserved": 0, "fusion_lon": 0.0, "fusion_lat": 0.0, "lon": -77.03428816666667, "name": "c2eda12f48cfee898ebf5ba246136c7a"}, {"bike_id": "b83f90536f2399c30b3776858ff7784e", "type": "electric_scooter", "is_disabled": 0, "lat": 38.943309666666664, "rental_uris": {"ios": "https://dc.lft.to/lastmile_qr_scan", "android": "https://dc.lft.to/lastmile_qr_scan"}, "is_reserved": 0, "fusion_lon": 0.0, "fusion_lat": 0.0, "lon": -77.01493083333334, "name": "b83f90536f2399c30b3776858ff7784e"}, {"bike_id": "2e4b04fb2d62fc3c99ea601ffc25e640", "type": "electric_scooter", "is_disabled": 0, "lat": 38.88268883333333, "rental_uris": {"ios": "https://dc.lft.to/lastmile_qr_scan", "android": "https://dc.lft.to/lastmile_qr_scan"}, "is_reserved": 0, "fusion_lon": 0.0, "fusion_lat": 0.0, "lon": -76.99258033333334, "name": "2e4b04fb2d62fc3c99ea601ffc25e640"}, {"bike_id": "830d70c2a5c2f9aa4cabd507c07cb936", "type": "electric_scooter", "is_disabled": 0, "lat": 38.956527333333334, "rental_uris": {"ios": "https://dc.lft.to/lastmile_qr_scan", "android": "https://dc.lft.to/lastmile_qr_scan"}, "is_reserved": 0, "fusion_lon": 0.0, "fusion_lat": 0.0, "lon": -77.01008266666666, "name": "830d70c2a5c2f9aa4cabd507c07cb936"}, {"bike_id": "84f82d5a049ea77f408c1de342bd39e6", "type": "electric_scooter", "is_disabled": 0, "lat": 38.95636233333333, "rental_uris": {"ios": "https://dc.lft.to/lastmile_qr_scan", "android": "https://dc.lft.to/lastmile_qr_scan"}, "is_reserved": 0, "fusion_lon": 0.0, "fusion_lat": 0.0, "lon": -77.01150483333333, "name": "84f82d5a049ea77f408c1de342bd39e6"}, {"bike_id": "c1a4a49c9fa619d1bd015fe1172cb159", "type": "electric_scooter", "is_disabled": 0, "lat": 38.90080416666667, "rental_uris": {"ios": "https://dc.lft.to/lastmile_qr_scan", "android": "https://dc.lft.to/lastmile_qr_scan"}, "is_reserved": 0, "fusion_lon": 0.0, "fusion_lat": 0.0, "lon": -77.04896833333333, "name": "c1a4a49c9fa619d1bd015fe1172cb159"}, {"bike_id": "4d8c0daaec286c0b853c1fba6e59d6a6", "type": "electric_scooter", "is_disabled": 0, "lat": 38.88747, "rental_uris": {"ios": "https://dc.lft.to/lastmile_qr_scan", "android": "https://dc.lft.to/lastmile_qr_scan"}, "is_reserved": 0, "fusion_lon": 0.0, "fusion_lat": 0.0, "lon": -77.01535916666667, "name": "4d8c0daaec286c0b853c1fba6e59d6a6"}, {"bike_id": "8057f8adce75b6f80e289dbb9cd5fd41", "type": "electric_scooter", "is_disabled": 0, "lat": 38.9102625, "rental_uris": {"ios": "https://dc.lft.to/lastmile_qr_scan", "android": "https://dc.lft.to/lastmile_qr_scan"}, "is_reserved": 0, "fusion_lon": 0.0, "fusion_lat": 0.0, "lon": -77.04887116666667, "name": "8057f8adce75b6f80e289dbb9cd5fd41"}, {"bike_id": "5bd95ff518d1927d954dc46e8a66c8da", "type": "electric_scooter", "is_disabled": 0, "lat": 38.91633733333333, "rental_uris": {"ios": "https://dc.lft.to/lastmile_qr_scan", "android": "https://dc.lft.to/lastmile_qr_scan"}, "is_reserved": 0, "fusion_lon": 0.0, "fusion_lat": 0.0, "lon": -77.02107066666666, "name": "5bd95ff518d1927d954dc46e8a66c8da"}, {"bike_id": "b5760e71c8dc01bfff2b37ef2e0e5057", "type": "electric_scooter", "is_disabled": 0, "lat": 38.88666533333333, "rental_uris": {"ios": "https://dc.lft.to/lastmile_qr_scan", "android": "https://dc.lft.to/lastmile_qr_scan"}, "is_reserved": 0, "fusion_lon": 0.0, "fusion_lat": 0.0, "lon": -77.00115116666667, "name": "b5760e71c8dc01bfff2b37ef2e0e5057"}, {"bike_id": "3bd441f5e59c76d3cf92a54c11bc0c49", "type": "electric_scooter", "is_disabled": 0, "lat": 38.88697, "rental_uris": {"ios": "https://dc.lft.to/lastmile_qr_scan", "android": "https://dc.lft.to/lastmile_qr_scan"}, "is_reserved": 0, "fusion_lon": 0.0, "fusion_lat": 0.0, "lon": -76.99612, "name": "3bd441f5e59c76d3cf92a54c11bc0c49"}, {"bike_id": "c551aa362a8d4bc3f52ec77d3a793311", "type": "electric_bike", "is_disabled": 0, "lat": 38.874826666666664, "rental_uris": {"ios": "https://dc.lft.to/lastmile_qr_scan", "android": "https://dc.lft.to/lastmile_qr_scan"}, "is_reserved": 0, "fusion_lon": 0.0, "fusion_lat": 0.0, "lon": -76.965408, "name": "c551aa362a8d4bc3f52ec77d3a793311"}, {"bike_id": "8ecd88de45dcf0a5935920fffca6d168", "type": "electric_scooter", "is_disabled": 0, "lat": 38.925327833333334, "rental_uris": {"ios": "https://dc.lft.to/lastmile_qr_scan", "android": "https://dc.lft.to/lastmile_qr_scan"}, "is_reserved": 0, "fusion_lon": 0.0, "fusion_lat": 0.0, "lon": -77.042559, "name": "8ecd88de45dcf0a5935920fffca6d168"}, {"bike_id": "7ff9058e1ba1c57b7e05d5efb8f85b84", "type": "electric_scooter", "is_disabled": 0, "lat": 38.93252783333333, "rental_uris": {"ios": "https://dc.lft.to/lastmile_qr_scan", "android": "https://dc.lft.to/lastmile_qr_scan"}, "is_reserved": 0, "fusion_lon": 0.0, "fusion_lat": 0.0, "lon": -77.038868, "name": "7ff9058e1ba1c57b7e05d5efb8f85b84"}, {"bike_id": "bc04794176cb62f3fa935e14298089e1", "type": "electric_bike", "is_disabled": 0, "lat": 38.81315516666667, "rental_uris": {"ios": "https://dc.lft.to/lastmile_qr_scan", "android": "https://dc.lft.to/lastmile_qr_scan"}, "is_reserved": 0, "fusion_lon": 0.0, "fusion_lat": 0.0, "lon": -77.1098, "name": "bc04794176cb62f3fa935e14298089e1"}, {"bike_id": "b1630bb2fd7fd9cda2d2f7db30f041b7", "type": "electric_scooter", "is_disabled": 0, "lat": 38.9353645, "rental_uris": {"ios": "https://dc.lft.to/lastmile_qr_scan", "android": "https://dc.lft.to/lastmile_qr_scan"}, "is_reserved": 0, "fusion_lon": 0.0, "fusion_lat": 0.0, "lon": -77.0582665, "name": "b1630bb2fd7fd9cda2d2f7db30f041b7"}, {"bike_id": "753359f159e291f0e915668352e493d2", "type": "electric_scooter", "is_disabled": 0, "lat": 38.90164866666667, "rental_uris": {"ios": "https://dc.lft.to/lastmile_qr_scan", "android": "https://dc.lft.to/lastmile_qr_scan"}, "is_reserved": 0, "fusion_lon": 0.0, "fusion_lat": 0.0, "lon": -76.93020633333333, "name": "753359f159e291f0e915668352e493d2"}, {"bike_id": "e1bcfff17ace26693ebb3cba3539c490", "type": "electric_scooter", "is_disabled": 0, "lat": 38.9082905, "rental_uris": {"ios": "https://dc.lft.to/lastmile_qr_scan", "android": "https://dc.lft.to/lastmile_qr_scan"}, "is_reserved": 0, "fusion_lon": 0.0, "fusion_lat": 0.0, "lon": -77.02947516666667, "name": "e1bcfff17ace26693ebb3cba3539c490"}, {"bike_id": "9ae2c8f6757bc84cb14e24b6e141becc", "type": "electric_scooter", "is_disabled": 0, "lat": 38.92579516666667, "rental_uris": {"ios": "https://dc.lft.to/lastmile_qr_scan", "android": "https://dc.lft.to/lastmile_qr_scan"}, "is_reserved": 0, "fusion_lon": 0.0, "fusion_lat": 0.0, "lon": -76.99487916666666, "name": "9ae2c8f6757bc84cb14e24b6e141becc"}, {"bike_id": "d8643c9f839bf67abf4efaca9a4410c8", "type": "electric_scooter", "is_disabled": 0, "lat": 38.925019166666665, "rental_uris": {"ios": "https://dc.lft.to/lastmile_qr_scan", "android": "https://dc.lft.to/lastmile_qr_scan"}, "is_reserved": 0, "fusion_lon": 0.0, "fusion_lat": 0.0, "lon": -77.03790166666667, "name": "d8643c9f839bf67abf4efaca9a4410c8"}, {"bike_id": "7de8d35ab0611b775e2d1b8e5cafacde", "type": "electric_bike", "is_disabled": 0, "lat": 38.90863316666667, "rental_uris": {"ios": "https://dc.lft.to/lastmile_qr_scan", "android": "https://dc.lft.to/lastmile_qr_scan"}, "is_reserved": 0, "fusion_lon": 0.0, "fusion_lat": 0.0, "lon": -76.99147033333334, "name": "7de8d35ab0611b775e2d1b8e5cafacde"}, {"bike_id": "0b20067a41f5c8b1a5ff0e2c23fa686a", "type": "electric_scooter", "is_disabled": 0, "lat": 38.9199675, "rental_uris": {"ios": "https://dc.lft.to/lastmile_qr_scan", "android": "https://dc.lft.to/lastmile_qr_scan"}, "is_reserved": 0, "fusion_lon": 0.0, "fusion_lat": 0.0, "lon": -77.031878, "name": "0b20067a41f5c8b1a5ff0e2c23fa686a"}, {"bike_id": "9ace787922c5c95b25241537215cbd6e", "type": "electric_scooter", "is_disabled": 0, "lat": 38.922372833333334, "rental_uris": {"ios": "https://dc.lft.to/lastmile_qr_scan", "android": "https://dc.lft.to/lastmile_qr_scan"}, "is_reserved": 0, "fusion_lon": 0.0, "fusion_lat": 0.0, "lon": -77.07313933333333, "name": "9ace787922c5c95b25241537215cbd6e"}, {"bike_id": "642baac587a90d2abb10897016e92694", "type": "electric_scooter", "is_disabled": 0, "lat": 38.886820166666666, "rental_uris": {"ios": "https://dc.lft.to/lastmile_qr_scan", "android": "https://dc.lft.to/lastmile_qr_scan"}, "is_reserved": 0, "fusion_lon": 0.0, "fusion_lat": 0.0, "lon": -77.01981266666667, "name": "642baac587a90d2abb10897016e92694"}, {"bike_id": "87ce1245aed4036b13a43b3637c8995c", "type": "electric_scooter", "is_disabled": 0, "lat": 38.9070745, "rental_uris": {"ios": "https://dc.lft.to/lastmile_qr_scan", "android": "https://dc.lft.to/lastmile_qr_scan"}, "is_reserved": 0, "fusion_lon": 0.0, "fusion_lat": 0.0, "lon": -77.02392716666667, "name": "87ce1245aed4036b13a43b3637c8995c"}, {"bike_id": "bc2d3910c7ad5ecd8672e7a990ff2edb", "type": "electric_scooter", "is_disabled": 0, "lat": 38.87647916666667, "rental_uris": {"ios": "https://dc.lft.to/lastmile_qr_scan", "android": "https://dc.lft.to/lastmile_qr_scan"}, "is_reserved": 0, "fusion_lon": 0.0, "fusion_lat": 0.0, "lon": -76.96512033333333, "name": "bc2d3910c7ad5ecd8672e7a990ff2edb"}, {"bike_id": "9b91355c6591ae2870c89e670ef8c9dc", "type": "electric_scooter", "is_disabled": 0, "lat": 38.924837, "rental_uris": {"ios": "https://dc.lft.to/lastmile_qr_scan", "android": "https://dc.lft.to/lastmile_qr_scan"}, "is_reserved": 0, "fusion_lon": 0.0, "fusion_lat": 0.0, "lon": -77.02724, "name": "9b91355c6591ae2870c89e670ef8c9dc"}, {"bike_id": "68c29a77001825e3d89059d25964e9c1", "type": "electric_scooter", "is_disabled": 0, "lat": 38.921366666666664, "rental_uris": {"ios": "https://dc.lft.to/lastmile_qr_scan", "android": "https://dc.lft.to/lastmile_qr_scan"}, "is_reserved": 0, "fusion_lon": 0.0, "fusion_lat": 0.0, "lon": -77.04134133333334, "name": "68c29a77001825e3d89059d25964e9c1"}, {"bike_id": "4b2236e4d62771e0a5592787d1f3b0ae", "type": "electric_scooter", "is_disabled": 0, "lat": 38.93470583333333, "rental_uris": {"ios": "https://dc.lft.to/lastmile_qr_scan", "android": "https://dc.lft.to/lastmile_qr_scan"}, "is_reserved": 0, "fusion_lon": 0.0, "fusion_lat": 0.0, "lon": -77.07282166666667, "name": "4b2236e4d62771e0a5592787d1f3b0ae"}, {"bike_id": "b0f52f011b3de85bda960200cc560460", "type": "electric_scooter", "is_disabled": 0, "lat": 38.915648833333336, "rental_uris": {"ios": "https://dc.lft.to/lastmile_qr_scan", "android": "https://dc.lft.to/lastmile_qr_scan"}, "is_reserved": 0, "fusion_lon": 0.0, "fusion_lat": 0.0, "lon": -77.02395233333333, "name": "b0f52f011b3de85bda960200cc560460"}, {"bike_id": "6df2887fbc1a5a1235d267f702679045", "type": "electric_scooter", "is_disabled": 0, "lat": 38.900137, "rental_uris": {"ios": "https://dc.lft.to/lastmile_qr_scan", "android": "https://dc.lft.to/lastmile_qr_scan"}, "is_reserved": 0, "fusion_lon": 0.0, "fusion_lat": 0.0, "lon": -76.98532, "name": "6df2887fbc1a5a1235d267f702679045"}, {"bike_id": "602c9adfec67417c5ed78b54a46cae8a", "type": "electric_scooter", "is_disabled": 0, "lat": 38.955329, "rental_uris": {"ios": "https://dc.lft.to/lastmile_qr_scan", "android": "https://dc.lft.to/lastmile_qr_scan"}, "is_reserved": 0, "fusion_lon": 0.0, "fusion_lat": 0.0, "lon": -77.0278115, "name": "602c9adfec67417c5ed78b54a46cae8a"},