{"data": {"bikes": [{"name": "e3eeafff18396437332348290d159638", "lon": -77.03325333333333, "lat": 38.913211, "type": "electric_scooter", "fusion_lon": 0.0, "is_reserved": 0, "bike_id": "e3eeafff18396437332348290d159638", "fusion_lat": 0.0, "is_disabled": 0, "rental_uris": {"ios": "https://dc.lft.to/lastmile_qr_scan", "android": "https://dc.lft.to/lastmile_qr_scan"}}, {"name": "9f6f08f2540f05198add87b4b44df680", "lon": -77.03177383333333, "lat": 38.9182465, "type": "electric_scooter", "fusion_lon": 0.0, "is_reserved": 0, "bike_id": "9f6f08f2540f05198add87b4b44df680", "fusion_lat": 0.0, "is_disabled": 0, "rental_uris": {"ios": "https://dc.lft.to/lastmile_qr_scan", "android": "https://dc.lft.to/lastmile_qr_scan"}}, {"name": "4bcb1f4da4cc3cae5a91f5f522a143a8", "lon": -76.99903283333333, "lat": 38.94693633333333, "type": "electric_scooter", "fusion_lon": 0.0, "is_reserved": 0, "bike_id": "4bcb1f4da4cc3cae5a91f5f522a143a8", "fusion_lat": 0.0, "is_disabled": 0, "rental_uris": {"ios": "https://dc.lft.to/lastmile_qr_scan", "android": "https://dc.lft.to/lastmile_qr_scan"}}, {"name": "4414eb91872ebf33ff7b789e67a96e03", "lon": -77.02092516666667, "lat": 38.92153316666667, "type": "electric_scooter", "fusion_lon": 0.0, "is_reserved": 0, "bike_id": "4414eb91872ebf33ff7b789e67a96e03", "fusion_lat": 0.0, "is_disabled": 0, "rental_uris": {"ios": "https://dc.lft.to/lastmile_qr_scan", "android": "https://dc.lft.to/lastmile_qr_scan"}}, {"name": "b0f3f11dede065f2f8f429e5a25abec0", "lon": -77.02347266666666, "lat": 38.94616533333333, "type": "electric_scooter", "fusion_lon": 0.0, "is_reserved": 0, "bike_id": "b0f3f11dede065f2f8f429e5a25abec0", "fusion_lat": 0.0, "is_disabled": 0, "rental_uris": {"ios": "https://dc.lft.to/lastmile_qr_scan", "android": "https://dc.lft.to/lastmile_qr_scan"}}, {"name": "ee444c2ae09eafd7c52b07f0fe7343dd", "lon": -76.98713933333333, "lat": 38.866987333333334, "type": "electric_scooter", "fusion_lon": 0.0, "is_reserved": 0, "bike_id": "ee444c2ae09eafd7c52b07f0fe7343dd", "fusion_lat": 0.0, "is_disabled": 0, "rental_uris": {"ios": "https://dc.lft.to/lastmile_qr_scan", "android": "https://dc.lft.to/lastmile_qr_scan"}}, {"name": "58c96f5497f6717929058c1cc5048e34", "lon": -77.024284, "lat": 38.9215325, "type": "electric_scooter", "fusion_lon": 0.0, "is_reserved": 0, "bike_id": "58c96f5497f6717929058c1cc5048e34", "fusion_lat": 0.0, "is_disabled": 0, "rental_uris": {"ios": "https://dc.lft.to/lastmile_qr_scan", "android": "https://dc.lft.to/lastmile_qr_scan"}}, {"name": "957d36c20fd344e5cf5a63c7aa763ad8", "lon": -77.0240105, "lat": 38.9208285, "type": "electric_scooter", "fusion_lon": 0.0, "is_reserved": 0, "bike_id": "957d36c20fd344e5cf5a63c7aa763ad8", "fusion_lat": 0.0, "is_disabled": 0, "rental_uris": {"ios": "https://dc.lft.to/lastmile_qr_scan", "android": "https://dc.lft.to/lastmile_qr_scan"}}, {"name": "ca29ff5ad9522494adea2f1582508c48", "lon": -77.02303283333333, "lat": 38.91776, "type": "electric_scooter", "fusion_lon": 0.0, "is_reserved": 0, "bike_id": "ca29ff5ad9522494adea2f1582508c48", "fusion_lat": 0.0, "is_disabled": 0, "rental_uris": {"ios": "https://dc.lft.to/lastmile_qr_scan", "android": "https://dc.lft.to/lastmile_qr_scan"}}, {"name": "e8f7cdc08089451e2607c484917ce4d0", "lon": -77.02206366666667, "lat": 38.896236333333334, "type": "electric_scooter", "fusion_lon": 0.0, "is_reserved": 0, "bike_id": "e8f7cdc08089451e2607c484917ce4d0", "fusion_lat": 0.0, "is_disabled": 0, "rental_uris": {"ios": "https://dc.lft.to/lastmile_qr_scan", "android": "https://dc.lft.to/lastmile_qr_scan"}}, {"name": "6be11926b54cee6d19edddf6bf189c68", "lon": -77.0224985, "lat": 38.924758, "type": "electric_scooter", "fusion_lon": 0.0, "is_reserved": 0, "bike_id": "6be11926b54cee6d19edddf6bf189c68", "fusion_lat": 0.0, "is_disabled": 0, "rental_uris": {"ios": "https://dc.lft.to/lastmile_qr_scan", "android": "https://dc.lft.to/lastmile_qr_scan"}}, {"name": "49f08510b148cecbde3a2ae627854365", "lon": -76.9987585, "lat": 38.90024316666667, "type": "electric_scooter", "fusion_lon": 0.0, "is_reserved": 0, "bike_id": "49f08510b148cecbde3a2ae627854365", "fusion_lat": 0.0, "is_disabled": 0, "rental_uris": {"ios": "https://dc.lft.to/lastmile_qr_scan", "android": "https://dc.lft.to/lastmile_qr_scan"}}, {"name": "cf0759c648005dfe1f7d9f8226a26044", "lon": -77.0020725, "lat": 38.92457683333333, "type": "electric_scooter", "fusion_lon": 0.0, "is_reserved": 0, "bike_id": "cf0759c648005dfe1f7d9f8226a26044", "fusion_lat": 0.0, "is_disabled": 0, "rental_uris": {"ios": "https://dc.lft.to/lastmile_qr_scan", "android": "https://dc.lft.to/lastmile_qr_scan"}}, {"name": "5813069988e47422450005ed07ed819a", "lon": -77.1185205, "lat": 38.877317, "type": "electric_bike", "fusion_lon": 0.0, "is_reserved": 0, "bike_id": "5813069988e47422450005ed07ed819a", "fusion_lat": 0.0, "is_disabled": 0, "rental_uris": {"ios": "https://dc.lft.to/lastmile_qr_scan", "android": "https://dc.lft.to/lastmile_qr_scan"}}, {"name": "bde4923b9c1fa205c98ad01924a7b08a", "lon": -76.93546816666667, "lat": 38.95185566666667, "type": "electric_bike", "fusion_lon": 0.0, "is_reserved": 0, "bike_id": "bde4923b9c1fa205c98ad01924a7b08a", "fusion_lat": 0.0, "is_disabled": 0, "rental_uris": {"ios": "https://dc.lft.to/lastmile_qr_scan", "android": "https://dc.lft.to/lastmile_qr_scan"}}, {"name": "6ecda05f1baa4b666c94b106c7d783c2", "lon": -77.0395945, "lat": 38.906113, "type": "electric_scooter", "fusion_lon": 0.0, "is_reserved": 0, "bike_id": "6ecda05f1baa4b666c94b106c7d783c2", "fusion_lat": 0.0, "is_disabled": 0, "rental_uris": {"ios": "https://dc.lft.to/lastmile_qr_scan", "android": "https://dc.lft.to/lastmile_qr_scan"}}, {"name": "9df90a941300582d9999e77a1aeef04f", "lon": -77.01347783333334, "lat": 38.869672666666666, "type": "electric_scooter", "fusion_lon": 0.0, "is_reserved": 0, "bike_id": "9df90a941300582d9999e77a1aeef04f", "fusion_lat": 0.0, "is_disabled": 0, "rental_uris": {"ios": "https://dc.lft.to/lastmile_qr_scan", "android": "https://dc.lft.to/lastmile_qr_scan"}}, {"name": "781d33b3ba7a6fc398a9ffc1b530de1a", "lon": -77.04690333333333, "lat": 38.89221233333333, "type": "electric_scooter", "fusion_lon": 0.0, "is_reserved": 0, "bike_id": "781d33b3ba7a6fc398a9ffc1b530de1a", "fusion_lat": 0.0, "is_disabled": 0, "rental_uris": {"ios": "https://dc.lft.to/lastmile_qr_scan", "android": "https://dc.lft.to/lastmile_qr_scan"}}, {"name": "e4db33a67cbf4eccf778fae97772fd7c", "lon": -77.02758966666667, "lat": 38.90730416666667, "type": "electric_scooter", "fusion_lon": 0.0, "is_reserved": 0, "bike_id": "e4db33a67cbf4eccf778fae97772fd7c", "fusion_lat": 0.0, "is_disabled": 0, "rental_uris": {"ios": "https://dc.lft.to/lastmile_qr_scan", "android": "https://dc.lft.to/lastmile_qr_scan"}}, {"name": "ed0b23eb0ea89b5c820d478e0452e199", "lon": -77.1179995, "lat": 38.87374966666667, "type": "electric_bike", "fusion_lon": 0.0, "is_reserved": 0, "bike_id": "ed0b23eb0ea89b5c820d478e0452e199", "fusion_lat": 0.0, "is_disabled": 0, "rental_uris": {"ios": "https://dc.lft.to/lastmile_qr_scan", "android": "https://dc.lft.to/lastmile_qr_scan"}}, {"name": "80560e3a244b6675c1eee2f16655b8cd", "lon": -76.9939875, "lat": 38.939288833333336, "type": "electric_bike", "fusion_lon": 0.0, "is_reserved": 0, "bike_id": "80560e3a244b6675c1eee2f16655b8cd", "fusion_lat": 0.0, "is_disabled": 0, "rental_uris": {"ios": "https://dc.lft.to/lastmile_qr_scan", "android": "https://dc.lft.to/lastmile_qr_scan"}}, {"name": "f49818c41e4e14c7ccc63daf5feec839", "lon": -77.0352715, "lat": 38.91699583333333, "type": "electric_scooter", "fusion_lon": 0.0, "is_reserved": 0, "bike_id": "f49818c41e4e14c7ccc63daf5feec839", "fusion_lat": 0.0, "is_disabled": 0, "rental_uris": {"ios": "https://dc.lft.to/lastmile_qr_scan", "android": "https://dc.lft.to/lastmile_qr_scan"}}, {"name": "3c2be81f323e70c53e8db7b3f128e819", "lon": -77.02900633333333, "lat": 38.928156333333334, "type": "electric_scooter", "fusion_lon": 0.0, "is_reserved": 0, "bike_id": "3c2be81f323e70c53e8db7b3f128e819", "fusion_lat": 0.0, "is_disabled": 0, "rental_uris": {"ios": "https://dc.lft.to/lastmile_qr_scan", "android": "https://dc.lft.to/lastmile_qr_scan"}}, {"name": "55cd703d3e9f0ba8569c28e3609600bb", "lon": -76.9925965, "lat": 38.90300516666667, "type": "electric_scooter", "fusion_lon": 0.0, "is_reserved": 0, "bike_id": "55cd703d3e9f0ba8569c28e3609600bb", "fusion_lat": 0.0, "is_disabled": 0, "rental_uris": {"ios": "https://dc.lft.to/lastmile_qr_scan", "android": "https://dc.lft.to/lastmile_qr_scan"}}, {"name": "6397be05a0e2e620dfe98109b4ae1baf", "lon": -76.93732483333334, "lat": 38.890123833333334, "type": "electric_scooter", "fusion_lon": 0.0, "is_reserved": 0, "bike_id": "6397be05a0e2e620dfe98109b4ae1baf", "fusion_lat": 0.0, "is_disabled": 0, "rental_uris": {"ios": "https://dc.lft.to/lastmile_qr_scan", "android": "https://dc.lft.to/lastmile_qr_scan"}}, {"name": "9b6fbb57db471f726c0e6fce48927a21", "lon": -77.04160833333333, "lat": 38.91192866666667, "type": "electric_scooter", "fusion_lon": 0.0, "is_reserved": 0, "bike_id": "9b6fbb57db471f726c0e6fce48927a21", "fusion_lat": 0.0, "is_disabled": 0, "rental_uris": {"ios": "https://dc.lft.to/lastmile_qr_scan", "android": "https://dc.lft.to/lastmile_qr_scan"}}, {"name": "fb7a41282df2763f4f5df02f8cb76948", "lon": -76.98290883333334, "lat": 38.915544833333335, "type": "electric_scooter", "fusion_lon": 0.0, "is_reserved": 0, "bike_id": "fb7a41282df2763f4f5df02f8cb76948", "fusion_lat": 0.0, "is_disabled": 0, "rental_uris": {"ios": "https://dc.lft.to/lastmile_qr_scan", "android": "https://dc.lft.to/lastmile_qr_scan"}}, {"name": "a209bb07039a79bda135f43f0045b7f4", "lon": -76.97015383333333, "lat": 38.8636855, "type": "electric_bike", "fusion_lon": 0.0, "is_reserved": 0, "bike_id": "a209bb07039a79bda135f43f0045b7f4", "fusion_lat": 0.0, "is_disabled": 0, "rental_uris": {"ios": "https://dc.lft.to/lastmile_qr_scan", "android": "https://dc.lft.to/lastmile_qr_scan"}}, {"name": "2ef1814bceb8ed68e6be1bcf608c88b4", "lon": -77.01128033333333, "lat": 38.91586866666667, "type": "electric_scooter", "fusion_lon": 0.0, "is_reserved": 0, "bike_id": "2ef1814bceb8ed68e6be1bcf608c88b4", "fusion_lat": 0.0, "is_disabled": 0, "rental_uris": {"ios": "https://dc.lft.to/lastmile_qr_scan", "android": "https://dc.lft.to/lastmile_qr_scan"}}, {"name": "afac0e5704b10304d049d3efa918e9c1", "lon": -77.0652495, "lat": 38.9053655, "type": "electric_bike", "fusion_lon": 0.0, "is_reserved": 0, "bike_id": "afac0e5704b10304d049d3efa918e9c1", "fusion_lat": 0.0, "is_disabled": 0, "rental_uris": {"ios": "https://dc.lft.to/lastmile_qr_scan", "android": "https://dc.lft.to/lastmile_qr_scan"}}, {"name": "d7da2a709331a48abf90e2ec13f3abe2", "lon": -77.02182683333334, "lat": 38.897468833333335, "type": "electric_scooter", "fusion_lon": 0.0, "is_reserved": 0, "bike_id": "d7da2a709331a48abf90e2ec13f3abe2", "fusion_lat": 0.0, "is_disabled": 0, "rental_uris": {"ios": "https://dc.lft.to/lastmile_qr_scan", "android": "https://dc.lft.to/lastmile_qr_scan"}}, {"name": "02c4101c013190e01c65c28eb4fc03a5", "lon": -76.96524766666667, "lat": 38.87629533333333, "type": "electric_scooter", "fusion_lon": 0.0, "is_reserved": 0, "bike_id": "02c4101c013190e01c65c28eb4fc03a5", "fusion_lat": 0.0, "is_disabled": 0, "rental_uris": {"ios": "https://dc.lft.to/lastmile_qr_scan", "android": "https://dc.lft.to/lastmile_qr_scan"}}, {"name": "c194c2d96a6e7c49eda5648f7b24e74a", "lon": -77.006849, "lat": 38.87062433333333, "type": "electric_scooter", "fusion_lon": 0.0, "is_reserved": 0, "bike_id": "c194c2d96a6e7c49eda5648f7b24e74a", "fusion_lat": 0.0, "is_disabled": 0, "rental_uris": {"ios": "https://dc.lft.to/lastmile_qr_scan", "android": "https://dc.lft.to/lastmile_qr_scan"}}, {"name": "327c056150c2abf4545e1422e5d10b23", "lon": -76.96525483333333, "lat": 38.876313333333336, "type": "electric_scooter", "fusion_lon": 0.0, "is_reserved": 0, "bike_id": "327c056150c2abf4545e1422e5d10b23", "fusion_lat": 0.0, "is_disabled": 0, "rental_uris": {"ios": "https://dc.lft.to/lastmile_qr_scan", "android": "https://dc.lft.to/lastmile_qr_scan"}}, {"name": "3d0623283d3871ebe8acdc9a3ab2cdf0", "lon": -77.00213683333334, "lat": 38.911044, "type": "electric_scooter", "fusion_lon": 0.0, "is_reserved": 0, "bike_id": "3d0623283d3871ebe8acdc9a3ab2cdf0", "fusion_lat": 0.0, "is_disabled": 0, "rental_uris": {"ios": "https://dc.lft.to/lastmile_qr_scan", "android": "https://dc.lft.to/lastmile_qr_scan"}}, {"name": "6982bf41aefc1bf354cfcc8796eb7ee6", "lon": -77.05041216666666, "lat": 38.9235285, "type": "electric_scooter", "fusion_lon": 0.0, "is_reserved": 0, "bike_id": "6982bf41aefc1bf354cfcc8796eb7ee6", "fusion_lat": 0.0, "is_disabled": 0, "rental_uris": {"ios": "https://dc.lft.to/lastmile_qr_scan", "android": "https://dc.lft.to/lastmile_qr_scan"}}, {"name": "79b43d90825bc36f6956453fd769aefe", "lon": -77.05233033333333, "lat": 38.9246395, "type": "electric_scooter", "fusion_lon": 0.0, "is_reserved": 0, "bike_id": "79b43d90825bc36f6956453fd769aefe", "fusion_lat": 0.0, "is_disabled": 0, "rental_uris": {"ios": "https://dc.lft.to/lastmile_qr_scan", "android": "https://dc.lft.to/lastmile_qr_scan"}}, {"name": "6d7c72618589895ce13a2fa9308102f4", "lon": -77.069165, "lat": 38.913577, "type": "electric_scooter", "fusion_lon": 0.0, "is_reserved": 0, "bike_id": "6d7c72618589895ce13a2fa9308102f4", "fusion_lat": 0.0, "is_disabled": 0, "rental_uris": {"ios": "https://dc.lft.to/lastmile_qr_scan", "android": "https://dc.lft.to/lastmile_qr_scan"}}, {"name": "3e411132d2410942cb56a51bbf993a7f", "lon": -76.98280616666666, "lat": 38.89983483333334, "type": "electric_scooter", "fusion_lon": 0.0, "is_reserved": 0, "bike_id": "3e411132d2410942cb56a51bbf993a7f", "fusion_lat": 0.0, "is_disabled": 0, "rental_uris": {"ios": "https://dc.lft.to/lastmile_qr_scan", "android": "https://dc.lft.to/lastmile_qr_scan"}}, {"name": "9d0f4a13699716e38fc76bc18c2541cd", "lon": -77.0175145, "lat": 38.91717516666667, "type": "electric_scooter", "fusion_lon": 0.0, "is_reserved": 0, "bike_id": "9d0f4a13699716e38fc76bc18c2541cd", "fusion_lat": 0.0, "is_disabled": 0, "rental_uris": {"ios": "https://dc.lft.to/lastmile_qr_scan", "android": "https://dc.lft.to/lastmile_qr_scan"}}, {"name": "66d0a9e5bc2a76547519848ba34d485a", "lon": -77.02695266666667, "lat": 38.90873416666667, "type": "electric_scooter", "fusion_lon": 0.0, "is_reserved": 0, "bike_id": "66d0a9e5bc2a76547519848ba34d485a", "fusion_lat": 0.0, "is_disabled": 0, "rental_uris": {"ios": "https://dc.lft.to/lastmile_qr_scan", "android": "https://dc.lft.to/lastmile_qr_scan"}}, {"name": "2791f71d99adbb22cb8f70280e651c6a", "lon": -76.99881066666667, "lat": 38.9012745, "type": "electric_scooter", "fusion_lon": 0.0, "is_reserved": 0, "bike_id": "2791f71d99adbb22cb8f70280e651c6a", "fusion_lat": 0.0, "is_disabled": 0, "rental_uris": {"ios": "https://dc.lft.to/lastmile_qr_scan", "android": "https://dc.lft.to/lastmile_qr_scan"}}, {"name": "752ce0ee98d5783fe312a2a4fd24ef5c", "lon": -77.008889, "lat": 38.9109105, "type": "electric_bike", "fusion_lon": 0.0, "is_reserved": 0, "bike_id": "752ce0ee98d5783fe312a2a4fd24ef5c", "fusion_lat": 0.0, "is_disabled": 0, "rental_uris": {"ios": "https://dc.lft.to/lastmile_qr_scan", "android": "https://dc.lft.to/lastmile_qr_scan"}}, {"name": "88b89204ff5c9b9f873cb34880288359", "lon": -77.01238383333333, "lat": 38.91694833333333, "type": "electric_scooter", "fusion_lon": 0.0, "is_reserved": 0, "bike_id": "88b89204ff5c9b9f873cb34880288359", "fusion_lat": 0.0, "is_disabled": 0, "rental_uris": {"ios": "https://dc.lft.to/lastmile_qr_scan", "android": "https://dc.lft.to/lastmile_qr_scan"}}, {"name": "313b665387eb3ad7eb269133d3e10fc3", "lon": -77.03845316666667, "lat": 38.910507, "type": "electric_scooter", "fusion_lon": 0.0, "is_reserved": 0, "bike_id": "313b665387eb3ad7eb269133d3e10fc3", "fusion_lat": 0.0, "is_disabled": 0, "rental_uris": {"ios": "https://dc.lft.to/lastmile_qr_scan", "android": "https://dc.lft.to/lastmile_qr_scan"}}, {"name": "5664bd99ed5fdf78683f95f36d5cfc1f", "lon": -77.0576705, "lat": 38.90521833333333, "type": "electric_scooter", "fusion_lon": 0.0, "is_reserved": 0, "bike_id": "5664bd99ed5fdf78683f95f36d5cfc1f", "fusion_lat": 0.0, "is_disabled": 0, "rental_uris": {"ios": "https://dc.lft.to/lastmile_qr_scan", "android": "https://dc.lft.to/lastmile_qr_scan"}}, {"name": "8cb8de1a816b65209649e3337221586c", "lon": -76.95143066666667, "lat": 38.89037, "type": "electric_scooter", "fusion_lon": 0.0, "is_reserved": 0, "bike_id": "8cb8de1a816b65209649e3337221586c", "fusion_lat": 0.0, "is_disabled": 0, "rental_uris": {"ios": "https://dc.lft.to/lastmile_qr_scan", "android": "https://dc.lft.to/lastmile_qr_scan"}}, {"name": "4b7e062f269c6fa7409c827836eeda9d", "lon": -77.04183083333334, "lat": 38.9199215, "type": "electric_scooter", "fusion_lon": 0.0, "is_reserved": 0, "bike_id": "4b7e062f269c6fa7409c827836eeda9d", "fusion_lat": 0.0, "is_disabled": 0, "rental_uris": {"ios": "https://dc.lft.to/lastmile_qr_scan", "android": "https://dc.lft.to/lastmile_qr_scan"}}, {"name": "f9c321a1024f284818431d5c908f8f7a", "lon": -76.97699766666666, "lat": 38.94918933333334, "type": "electric_bike", "fusion_lon": 0.0, "is_reserved": 0, "bike_id": "f9c321a1024f284818431d5c908f8f7a", "fusion_lat": 0.0, "is_disabled": 0, "rental_uris": {"ios": "https://dc.lft.to/lastmile_qr_scan", "android": "https://dc.lft.to/lastmile_qr_scan"}}, {"name": "14f4de064e64658b3b600d2431730d7e", "lon": -77.03275583333334, "lat": 38.899858333333334, "type": "electric_scooter", "fusion_lon": 0.0, "is_reserved": 0, "bike_id": "14f4de064e64658b3b600d2431730d7e", "fusion_lat": 0.0, "is_disabled": 0, "rental_uris": {"ios": "https://dc.lft.to/lastmile_qr_scan", "android": "https://dc.lft.to/lastmile_qr_scan"}}, {"name": "d4d41b273be7d1dcdc375bd278a5daa2", "lon": -77.03978433333333, "lat": 38.9118985, "type": "electric_scooter", "fusion_lon": 0.0, "is_reserved": 0, "bike_id": "d4d41b273be7d1dcdc375bd278a5daa2", "fusion_lat": 0.0, "is_disabled": 0, "rental_uris": {"ios": "https://dc.lft.to/lastmile_qr_scan", "android": "https://dc.lft.to/lastmile_qr_scan"}}, {"name": "2aad33b605897c2faaad6a4d12a89932", "lon": -77.03235833333333, "lat": 38.917103833333336, "type": "electric_scooter", "fusion_lon": 0.0, "is_reserved": 0, "bike_id": "2aad33b605897c2faaad6a4d12a89932", "fusion_lat": 0.0, "is_disabled": 0, "rental_uris": {"ios": "https://dc.lft.to/lastmile_qr_scan", "android": "https://dc.lft.to/lastmile_qr_scan"}}, {"name": "6cb0eacec2f937dba45bd52d25dd1467", "lon": -77.017021, "lat": 38.97494016666667, "type": "electric_scooter", "fusion_lon": 0.0, "is_reserved": 0, "bike_id": "6cb0eacec2f937dba45bd52d25dd1467", "fusion_lat": 0.0, "is_disabled": 0, "rental_uris": {"ios": "https://dc.lft.to/lastmile_qr_scan", "android": "https://dc.lft.to/lastmile_qr_scan"}}, {"name": "51d2946de67038082b2ccceb662d326b", "lon": -77.360927, "lat": 38.939635833333334, "type": "electric_bike", "fusion_lon": 0.0, "is_reserved": 0, "bike_id": "51d2946de67038082b2ccceb662d326b", "fusion_lat": 0.0, "is_disabled": 0, "rental_uris": {"ios": "https://dc.lft.to/lastmile_qr_scan", "android": "https://dc.lft.to/lastmile_qr_scan"}}, {"name": "4ce17f081fb672eaa40713d0abbef7fb", "lon": -77.026227, "lat": 38.962244, "type": "electric_bike", "fusion_lon": 0.0, "is_reserved": 0, "bike_id": "4ce17f081fb672eaa40713d0abbef7fb", "fusion_lat": 0.0, "is_disabled": 0, "rental_uris": {"ios": "https://dc.lft.to/lastmile_qr_scan", "android": "https://dc.lft.to/lastmile_qr_scan"}}, {"name": "caa52d4610b10273838d06c6c789016f", "lon": -77.02277233333334, "lat": 38.92484266666666, "type": "electric_scooter", "fusion_lon": 0.0, "is_reserved": 0, "bike_id": "caa52d4610b10273838d06c6c789016f", "fusion_lat": 0.0, "is_disabled": 0, "rental_uris": {"ios": "https://dc.lft.to/lastmile_qr_scan", "android": "https://dc.lft.to/lastmile_qr_scan"}}, {"name": "ecb602939ff1ed71d6472e170b0352c5", "lon": -77.03848583333334, "lat": 38.902779, "type": "electric_scooter", "fusion_lon": 0.0, "is_reserved": 0, "bike_id": "ecb602939ff1ed71d6472e170b0352c5", "fusion_lat": 0.0, "is_disabled": 0, "rental_uris": {"ios": "https://dc.lft.to/lastmile_qr_scan", "android": "https://dc.lft.to/lastmile_qr_scan"}}, {"name": "f14cdfb8c34017564c0595db40218f1d", "lon": -77.02982383333334, "lat": 38.89563483333333, "type": "electric_scooter", "fusion_lon": 0.0, "is_reserved": 0, "bike_id": "f14cdfb8c34017564c0595db40218f1d", "fusion_lat": 0.0, "is_disabled": 0, "rental_uris": {"ios": "https://dc.lft.to/lastmile_qr_scan", "android": "https://dc.lft.to/lastmile_qr_scan"}}, {"name": "9718446c91e3b4fb1a8a2c64e7a20111", "lon": -77.04324016666666, "lat": 38.908966, "type": "electric_scooter", "fusion_lon": 0.0, "is_reserved": 0, "bike_id": "9718446c91e3b4fb1a8a2c64e7a20111", "fusion_lat": 0.0, "is_disabled": 0, "rental_uris": {"ios": "https://dc.lft.to/lastmile_qr_scan", "android": "https://dc.lft.to/lastmile_qr_scan"}}, {"name": "610d532b29d1c35ba27e2cd8c543abd1", "lon": -76.883689, "lat": 38.998341, "type": "electric_bike", "fusion_lon": 0.0, "is_reserved": 0, "bike_id": "610d532b29d1c35ba27e2cd8c543abd1", "fusion_lat": 0.0, "is_disabled": 0, "rental_uris": {"ios": "https://dc.lft.to/lastmile_qr_scan", "android": "https://dc.lft.to/lastmile_qr_scan"}}, {"name": "cf5fbdc6ee31650b9875c961ce9081bb", "lon": -77.05191466666666, "lat": 38.903679833333335, "type": "electric_scooter", "fusion_lon": 0.0, "is_reserved": 0, "bike_id": "cf5fbdc6ee31650b9875c961ce9081bb", "fusion_lat": 0.0, "is_disabled": 0, "rental_uris": {"ios": "https://dc.lft.to/lastmile_qr_scan", "android": "https://dc.lft.to/lastmile_qr_scan"}}, {"name": "a49c63942c9bcded08e75d8aad399810", "lon": -77.032365, "lat": 38.92355333333333, "type": "electric_scooter", "fusion_lon": 0.0, "is_reserved": 0, "bike_id": "a49c63942c9bcded08e75d8aad399810", "fusion_lat": 0.0, "is_disabled": 0, "rental_uris": {"ios": "https://dc.lft.to/lastmile_qr_scan", "android": "https://dc.lft.to/lastmile_qr_scan"}}, {"name": "1042cdbddee2619225788d1ef6ebdda0", "lon": -77.02878066666666, "lat": 38.904438666666664, "type": "electric_scooter", "fusion_lon": 0.0, "is_reserved": 0, "bike_id": "1042cdbddee2619225788d1ef6ebdda0", "fusion_lat": 0.0, "is_disabled": 0, "rental_uris": {"ios": "https://dc.lft.to/lastmile_qr_scan", "android": "https://dc.lft.to/lastmile_qr_scan"}}, {"name": "d232978d00e706568f65e61e55f07c14", "lon": -77.02800033333334, "lat": 38.932989166666665, "type": "electric_scooter", "fusion_lon": 0.0, "is_reserved": 0, "bike_id": "d232978d00e706568f65e61e55f07c14", "fusion_lat": 0.0, "is_disabled": 0, "rental_uris": {"ios": "https://dc.lft.to/lastmile_qr_scan", "android": "https://dc.lft.to/lastmile_qr_scan"}}, {"name": "c4165a2ababce0071e07cce481dc58da", "lon": -77.00272016666666, "lat": 38.887171333333335, "type": "electric_scooter", "fusion_lon": 0.0, "is_reserved": 0, "bike_id": "c4165a2ababce0071e07cce481dc58da", "fusion_lat": 0.0, "is_disabled": 0, "rental_uris": {"ios": "https://dc.lft.to/lastmile_qr_scan", "android": "https://dc.lft.to/lastmile_qr_scan"}}, {"name": "bf5e5948d39451a8859981e6c46ef8f8", "lon": -77.04698833333333, "lat": 38.902238, "type": "electric_scooter", "fusion_lon": 0.0, "is_reserved": 0, "bike_id": "bf5e5948d39451a8859981e6c46ef8f8", "fusion_lat": 0.0, "is_disabled": 0, "rental_uris": {"ios": "https://dc.lft.to/lastmile_qr_scan", "android": "https://dc.lft.to/lastmile_qr_scan"}}, {"name": "8bde12275bf6c67d1b4660143459c738", "lon": -77.0239755, "lat": 38.917426166666665, "type": "electric_scooter", "fusion_lon": 0.0, "is_reserved": 0, "bike_id": "8bde12275bf6c67d1b4660143459c738", "fusion_lat": 0.0, "is_disabled": 0, "rental_uris": {"ios": "https://dc.lft.to/lastmile_qr_scan", "android": "https://dc.lft.to/lastmile_qr_scan"}}, {"name": "694630f5259769b06134c3d33d235f9f", "lon": -76.96712333333333, "lat": 38.8479675, "type": "electric_scooter", "fusion_lon": 0.0, "is_reserved": 0, "bike_id": "694630f5259769b06134c3d33d235f9f", "fusion_lat": 0.0, "is_disabled": 0, "rental_uris": {"ios": "https://dc.lft.to/lastmile_qr_scan", "android": "https://dc.lft.to/lastmile_qr_scan"}}, {"name": "914e5554cc4bcd0f91b234d9190a6b9c", "lon": -76.92329783333334, "lat": 38.87111766666666, "type": "electric_bike", "fusion_lon": 0.0, "is_reserved": 0, "bike_id": "914e5554cc4bcd0f91b234d9190a6b9c", "fusion_lat": 0.0, "is_disabled": 0, "rental_uris": {"ios": "https://dc.lft.to/lastmile_qr_scan", "android": "https://dc.lft.to/lastmile_qr_scan"}}, {"name": "98a2f566eeff493f062843e9491373fa", "lon": -77.0344745, "lat": 38.904974333333335, "type": "electric_scooter", "fusion_lon": 0.0, "is_reserved": 0, "bike_id": "98a2f566eeff493f062843e9491373fa", "fusion_lat": 0.0, "is_disabled": 0, "rental_uris": {"ios": "https://dc.lft.to/lastmile_qr_scan", "android": "https://dc.lft.to/lastmile_qr_scan"}}, {"name": "f79a8f35ac37a43769f335e49fce7208", "lon": -77.0335815, "lat": 38.928949, "type": "electric_scooter", "fusion_lon": 0.0, "is_reserved": 0, "bike_id": "f79a8f35ac37a43769f335e49fce7208", "fusion_lat": 0.0, "is_disabled": 0, "rental_uris": {"ios": "https://dc.lft.to/lastmile_qr_scan", "android": "https://dc.lft.to/lastmile_qr_scan"}}, {"name": "d91fb9d9f53c2c29ddf24c6c7bda5e4e", "lon": -77.023507, "lat": 38.946114666666666, "type": "electric_scooter", "fusion_lon": 0.0, "is_reserved": 0, "bike_id": "d91fb9d9f53c2c29ddf24c6c7bda5e4e", "fusion_lat": 0.0, "is_disabled": 0, "rental_uris": {"ios": "https://dc.lft.to/lastmile_qr_scan", "android": "https://dc.lft.to/lastmile_qr_scan"}}, {"name": "ed73b9cf4609283c80e318b2513c7279", "lon": -77.0513485, "lat": 38.907152833333335, "type": "electric_scooter", "fusion_lon": 0.0, "is_reserved": 0, "bike_id": "ed73b9cf4609283c80e318b2513c7279", "fusion_lat": 0.0, "is_disabled": 0, "rental_uris": {"ios": "https://dc.lft.to/lastmile_qr_scan", "android": "https://dc.lft.to/lastmile_qr_scan"}}, {"name": "e0e095907f1109d0fc6349b47c46cc1e", "lon": -77.02166316666667, "lat": 38.914428666666666, "type": "electric_scooter", "fusion_lon": 0.0, "is_reserved": 0, "bike_id": "e0e095907f1109d0fc6349b47c46cc1e", "fusion_lat": 0.0, "is_disabled": 0, "rental_uris": {"ios": "https://dc.lft.to/lastmile_qr_scan", "android": "https://dc.lft.to/lastmile_qr_scan"}}, {"name": "df49659459e278dba7f59bcf85e524be", "lon": -76.94426633333333, "lat": 38.966181666666664, "type": "electric_bike", "fusion_lon": 0.0, "is_reserved": 0, "bike_id": "df49659459e278dba7f59bcf85e524be", "fusion_lat": 0.0, "is_disabled": 0, "rental_uris": {"ios": "https://dc.lft.to/lastmile_qr_scan", "android": "https://dc.lft.to/lastmile_qr_scan"}}, {"name": "9c5b246c77a3370c7e19f30d0539d402", "lon": -77.024839, "lat": 38.92049033333333, "type": "electric_scooter", "fusion_lon": 0.0, "is_reserved": 0, "bike_id": "9c5b246c77a3370c7e19f30d0539d402", "fusion_lat": 0.0, "is_disabled": 0, "rental_uris": {"ios": "https://dc.lft.to/lastmile_qr_scan", "android": "https://dc.lft.to/lastmile_qr_scan"}}, {"name": "3f772638392b60b0332d20cf47b5a214", "lon": -77.05415516666666, "lat": 38.9024385, "type": "electric_scooter", "fusion_lon": 0.0, "is_reserved": 0, "bike_id": "3f772638392b60b0332d20cf47b5a214", "fusion_lat": 0.0, "is_disabled": 0, "rental_uris": {"ios": "https://dc.lft.to/lastmile_qr_scan", "android": "https://dc.lft.to/lastmile_qr_scan"}}, {"name": "1bf1926367855fc9a3c9a628ad616256", "lon": -76.94633866666666, "lat": 38.898437333333334, "type": "electric_scooter", "fusion_lon": 0.0, "is_reserved": 0, "bike_id": "1bf1926367855fc9a3c9a628ad616256", "fusion_lat": 0.0, "is_disabled": 0, "rental_uris": {"ios": "https://dc.lft.to/lastmile_qr_scan", "android": "https://dc.lft.to/lastmile_qr_scan"}}, {"name": "b028020cec955286e426f8482addbb63", "lon": -76.99947366666666, "lat": 38.8429685, "type": "electric_scooter", "fusion_lon": 0.0, "is_reserved": 0, "bike_id": "b028020cec955286e426f8482addbb63", "fusion_lat": 0.0, "is_disabled": 0, "rental_uris": {"ios": "https://dc.lft.to/lastmile_qr_scan", "android": "https://dc.lft.to/lastmile_qr_scan"}}, {"name": "200d3286ba62396521ead21e10e77aa5", "lon": -76.91134133333334, "lat": 38.894269666666666, "type": "electric_scooter", "fusion_lon": 0.0, "is_reserved": 0, "bike_id": "200d3286ba62396521ead21e10e77aa5", "fusion_lat": 0.0, "is_disabled": 0, "rental_uris": {"ios": "https://dc.lft.to/lastmile_qr_scan", "android": "https://dc.lft.to/lastmile_qr_scan"}}, {"name": "50819130ec87eab95fd4ce54027a2995", "lon": -77.03447516666667, "lat": 38.911435833333336, "type": "electric_scooter", "fusion_lon": 0.0, "is_reserved": 0, "bike_id": "50819130ec87eab95fd4ce54027a2995", "fusion_lat": 0.0, "is_disabled": 0, "rental_uris": {"ios": "https://dc.lft.to/lastmile_qr_scan", "android": "https://dc.lft.to/lastmile_qr_scan"}}, {"name": "f6ef20c3ecdb2adafb0959db0a9b78f9", "lon": -77.04137866666666, "lat": 38.908539166666664, "type": "electric_scooter", "fusion_lon": 0.0, "is_reserved": 0, "bike_id": "f6ef20c3ecdb2adafb0959db0a9b78f9", "fusion_lat": 0.0, "is_disabled": 0, "rental_uris": {"ios": "https://dc.lft.to/lastmile_qr_scan", "android": "https://dc.lft.to/lastmile_qr_scan"}}, {"name": "03406e899a5ef10028b11b6ff0ed4603", "lon": -77.04197566666667, "lat": 38.926190166666665, "type": "electric_scooter", "fusion_lon": 0.0, "is_reserved": 0, "bike_id": "03406e899a5ef10028b11b6ff0ed4603", "fusion_lat": 0.0, "is_disabled": 0, "rental_uris": {"ios": "https://dc.lft.to/lastmile_qr_scan", "android": "https://dc.lft.to/lastmile_qr_scan"}}, {"name": "3e428d3539e4d6e7e6ae7839db958efa", "lon": -77.032614, "lat": 38.91405066666667, "type": "electric_scooter", "fusion_lon": 0.0, "is_reserved": 0, "bike_id": "3e428d3539e4d6e7e6ae7839db958efa", "fusion_lat": 0.0, "is_disabled": 0, "rental_uris": {"ios": "https://dc.lft.to/lastmile_qr_scan", "android": "https://dc.lft.to/lastmile_qr_scan"}}, {"name": "6ea586a5cb27d08e929d2f37ca1e97d9", "lon": -76.998542, "lat": 38.887445, "type": "electric_scooter", "fusion_lon": 0.0, "is_reserved": 0, "bike_id": "6ea586a5cb27d08e929d2f37ca1e97d9", "fusion_lat": 0.0, "is_disabled": 0, "rental_uris": {"ios": "https://dc.lft.to/lastmile_qr_scan", "android": "https://dc.lft.to/lastmile_qr_scan"}}, {"name": "8a6205e76d8ea7740897307ca368b6e6", "lon": -77.020055, "lat": 38.913103166666666, "type": "electric_scooter", "fusion_lon": 0.0, "is_reserved": 0, "bike_id": "8a6205e76d8ea7740897307ca368b6e6", "fusion_lat": 0.0, "is_disabled": 0, "rental_uris": {"ios": "https://dc.lft.to/lastmile_qr_scan", "android": "https://dc.lft.to/lastmile_qr_scan"}}, {"name": "0e67c90049e424cfffd09dc1718037ac", "lon": -77.02942616666667, "lat": 38.89874983333333, "type": "electric_scooter", "fusion_lon": 0.0, "is_reserved": 0, "bike_id": "0e67c90049e424cfffd09dc1718037ac", "fusion_lat": 0.0, "is_disabled": 0, "rental_uris": {"ios": "https://dc.lft.to/lastmile_qr_scan", "android": "https://dc.lft.to/lastmile_qr_scan"}}, {"name": "a23379fcb5e1a7dad6f428316b304911", "lon": -77.02132616666667, "lat": 38.9248485, "type": "electric_scooter", "fusion_lon": 0.0, "is_reserved": 0, "bike_id": "a23379fcb5e1a7dad6f428316b304911", "fusion_lat": 0.0, "is_disabled": 0, "rental_uris": {"ios": "https://dc.lft.to/lastmile_qr_scan", "android": "https://dc.lft.to/lastmile_qr_scan"}}, {"name": "b8c6169a6ad398fe6bba134e6e1f9e1b", "lon": -76.98237066666667, "lat": 38.908891, "type": "electric_scooter", "fusion_lon": 0.0, "is_reserved": 0, "bike_id": "b8c6169a6ad398fe6bba134e6e1f9e1b", "fusion_lat": 0.0, "is_disabled": 0, "rental_uris": {"ios": "https://dc.lft.to/lastmile_qr_scan", "android": "https://dc.lft.to/lastmile_qr_scan"}}, {"name": "4737d26ddf239d0f490554d59c68555a", "lon": -77.02691233333333, "lat": 38.88128066666667, "type": "electric_scooter", "fusion_lon": 0.0, "is_reserved": 0, "bike_id": "4737d26ddf239d0f490554d59c68555a", "fusion_lat": 0.0, "is_disabled": 0, "rental_uris": {"ios": "https://dc.lft.to/lastmile_qr_scan", "android": "https://dc.lft.to/lastmile_qr_scan"}}, {"name": "aa71f73d4e64c5f0e3e8006d4f16dd6e", "lon": -77.03329466666666, "lat": 38.928883666666664, "type": "electric_scooter", "fusion_lon": 0.0, "is_reserved": 0, "bike_id": "aa71f73d4e64c5f0e3e8006d4f16dd6e", "fusion_lat": 0.0, "is_disabled": 0, "rental_uris": {"ios": "https://dc.lft.to/lastmile_qr_scan", "android": "https://dc.lft.to/lastmile_qr_scan"}}, {"name": "beecc9f9a2dde1744b279bcb805699c1", "lon": -77.03996466666666, "lat": 38.90415683333333, "type": "electric_scooter", "fusion_lon": 0.0, "is_reserved": 0, "bike_id": "beecc9f9a2dde1744b279bcb805699c1", "fusion_lat": 0.0, "is_disabled": 0, "rental_uris": {"ios": "https://dc.lft.to/lastmile_qr_scan", "android": "https://dc.lft.to/lastmile_qr_scan"}}, {"name": "5678dc97b6488bad320f4b7506f77a1e", "lon": -77.041872, "lat": 38.90115566666667, "type": "electric_scooter", "fusion_lon": 0.0, "is_reserved": 0, "bike_id": "5678dc97b6488bad320f4b7506f77a1e", "fusion_lat": 0.0, "is_disabled": 0, "rental_uris": {"ios": "https://dc.lft.to/lastmile_qr_scan", "android": "https://dc.lft.to/lastmile_qr_scan"}}, {"name": "b61199e1791d80ac7cc12479efc76755", "lon": -77.02646133333333, "lat": 38.98448066666667, "type": "electric_scooter", "fusion_lon": 0.0, "is_reserved": 0, "bike_id": "b61199e1791d80ac7cc12479efc76755", "fusion_lat": 0.0, "is_disabled": 0, "rental_uris": {"ios": "https://dc.lft.to/lastmile_qr_scan", "android": "https://dc.lft.to/lastmile_qr_scan"}}, {"name": "82542846f9c6a850d1c12fed27208fee", "lon": -77.02809216666667, "lat": 38.910427166666665, "type": "electric_scooter", "fusion_lon": 0.0, "is_reserved": 0, "bike_id": "82542846f9c6a850d1c12fed27208fee", "fusion_lat": 0.0, "is_disabled": 0, "rental_uris": {"ios": "https://dc.lft.to/lastmile_qr_scan", "android": "https://dc.lft.to/lastmile_qr_scan"}}, {"name": "8b27756672063aa37db08cfe60f50917", "lon": -77.0426585, "lat": 38.909818333333334, "type": "electric_scooter", "fusion_lon": 0.0, "is_reserved": 0, "bike_id": "8b27756672063aa37db08cfe60f50917", "fusion_lat": 0.0, "is_disabled": 0, "rental_uris": {"ios": "https://dc.lft.to/lastmile_qr_scan", "android": "https://dc.lft.to/lastmile_qr_scan"}}, {"name": "faedef2b88764764999573eaa2818590", "lon": -77.004827, "lat": 38.87475233333333, "type": "electric_scooter", "fusion_lon": 0.0, "is_reserved": 0, "bike_id": "faedef2b88764764999573eaa2818590", "fusion_lat": 0.0, "is_disabled": 0, "rental_uris": {"ios": "https://dc.lft.to/lastmile_qr_scan", "android": "https://dc.lft.to/lastmile_qr_scan"}}, {"name": "f71dda4caad9a3bf34c75402fe3596d5", "lon": -76.9652455, "lat": 38.8763035, "type": "electric_scooter", "fusion_lon": 0.0, "is_reserved": 0, "bike_id": "f71dda4caad9a3bf34c75402fe3596d5", "fusion_lat": 0.0, "is_disabled": 0, "rental_uris": {"ios": "https://dc.lft.to/lastmile_qr_scan", "android": "https://dc.lft.to/lastmile_qr_scan"}}, {"name": "b43889359986386b22ba8a4d22977504", "lon": -76.90976933333333, "lat": 38.854265, "type": "electric_bike", "fusion_lon": 0.0, "is_reserved": 0, "bike_id": "b43889359986386b22ba8a4d22977504", "fusion_lat": 0.0, "is_disabled": 0, "rental_uris": {"ios": "https://dc.lft.to/lastmile_qr_scan", "android": "https://dc.lft.to/lastmile_qr_scan"}}, {"name": "fcebe3f626bc84840ded2553c2e5a834", "lon": -77.02818583333334, "lat": 38.916850833333335, "type": "electric_scooter", "fusion_lon": 0.0, "is_reserved": 0, "bike_id": "fcebe3f626bc84840ded2553c2e5a834", "fusion_lat": 0.0, "is_disabled": 0, "rental_uris": {"ios": "https://dc.lft.to/lastmile_qr_scan", "android": "https://dc.lft.to/lastmile_qr_scan"}}, {"name": "76d508afc0c9792f24ea0f66b8fc3aad", "lon": -77.04096033333333, "lat": 38.917877833333336, "type": "electric_scooter", "fusion_lon": 0.0, "is_reserved": 0, "bike_id": "76d508afc0c9792f24ea0f66b8fc3aad", "fusion_lat": 0.0, "is_disabled": 0, "rental_uris": {"ios": "https://dc.lft.to/lastmile_qr_scan", "android": "https://dc.lft.to/lastmile_qr_scan"}}, {"name": "da98adb836178d5dca562f50e0a5dd4d", "lon": -77.04332783333334, "lat": 38.89220616666667, "type": "electric_scooter", "fusion_lon": 0.0, "is_reserved": 0, "bike_id": "da98adb836178d5dca562f50e0a5dd4d", "fusion_lat": 0.0, "is_disabled": 0, "rental_uris": {"ios": "https://dc.lft.to/lastmile_qr_scan", "android": "https://dc.lft.to/lastmile_qr_scan"}}, {"name": "05f8a690a11d7967939451b45d7e3e07", "lon": -77.03265283333333, "lat": 38.946239, "type": "electric_scooter", "fusion_lon": 0.0, "is_reserved": 0, "bike_id": "05f8a690a11d7967939451b45d7e3e07", "fusion_lat": 0.0, "is_disabled": 0, "rental_uris": {"ios": "https://dc.lft.to/lastmile_qr_scan", "android": "https://dc.lft.to/lastmile_qr_scan"}}, {"name": "8a868dfd089a1b70868f19741d4f4c11", "lon": -76.980987, "lat": 38.921038, "type": "electric_bike", "fusion_lon": 0.0, "is_reserved": 0, "bike_id": "8a868dfd089a1b70868f19741d4f4c11", "fusion_lat": 0.0, "is_disabled": 0, "rental_uris": {"ios": "https://dc.lft.to/lastmile_qr_scan", "android": "https://dc.lft.to/lastmile_qr_scan"}}, {"name": "3284d61760b6bef4e0f49e344f3afc33", "lon": -76.95096716666667, "lat": 38.88450183333333, "type": "electric_scooter", "fusion_lon": 0.0, "is_reserved": 0, "bike_id": "3284d61760b6bef4e0f49e344f3afc33", "fusion_lat": 0.0, "is_disabled": 0, "rental_uris": {"ios": "https://dc.lft.to/lastmile_qr_scan", "android": "https://dc.lft.to/lastmile_qr_scan"}}, {"name": "47527f03a16d75e0380e1e844f370755", "lon": -77.045338, "lat": 38.913274, "type": "electric_scooter", "fusion_lon": 0.0, "is_reserved": 0, "bike_id": "47527f03a16d75e0380e1e844f370755", "fusion_lat": 0.0, "is_disabled": 0, "rental_uris": {"ios": "https://dc.lft.to/lastmile_qr_scan", "android": "https://dc.lft.to/lastmile_qr_scan"}}, {"name": "4981cce5ede50d53218d7f03e67db01e", "lon": -76.99039983333333, "lat": 38.93814316666667, "type": "electric_bike", "fusion_lon": 0.0, "is_reserved": 0, "bike_id": "4981cce5ede50d53218d7f03e67db01e", "fusion_lat": 0.0, "is_disabled": 0, "rental_uris": {"ios": "https://dc.lft.to/lastmile_qr_scan", "android": "https://dc.lft.to/lastmile_qr_scan"}}, {"name": "c5eb2ab2c72d3e9c84b524661c6ab4da", "lon": -77.0239575, "lat": 38.916082, "type": "electric_scooter", "fusion_lon": 0.0, "is_reserved": 0, "bike_id": "c5eb2ab2c72d3e9c84b524661c6ab4da", "fusion_lat": 0.0, "is_disabled": 0, "rental_uris": {"ios": "https://dc.lft.to/lastmile_qr_scan", "android": "https://dc.lft.to/lastmile_qr_scan"}}, {"name": "ef2b66e51fdcad8f48900004aa5ddaa6", "lon": -77.04132733333333, "lat": 38.92169083333334, "type": "electric_scooter", "fusion_lon": 0.0, "is_reserved": 0, "bike_id": "ef2b66e51fdcad8f48900004aa5ddaa6", "fusion_lat": 0.0, "is_disabled": 0, "rental_uris": {"ios": "https://dc.lft.to/lastmile_qr_scan", "android": "https://dc.lft.to/lastmile_qr_scan"}}, {"name": "417649ac01c30abfcf82d6e688037327", "lon": -77.0235825, "lat": 38.920729666666666, "type": "electric_scooter", "fusion_lon": 0.0, "is_reserved": 0, "bike_id": "417649ac01c30abfcf82d6e688037327", "fusion_lat": 0.0, "is_disabled": 0, "rental_uris": {"ios": "https://dc.lft.to/lastmile_qr_scan", "android": "https://dc.lft.to/lastmile_qr_scan"}}, {"name": "fee4fdb406accfc2982dfb06dca01a99", "lon": -77.04136316666667, "lat": 38.8050505, "type": "electric_bike", "fusion_lon": 0.0, "is_reserved": 0, "bike_id": "fee4fdb406accfc2982dfb06dca01a99", "fusion_lat": 0.0, "is_disabled": 0, "rental_uris": {"ios": "https://dc.lft.to/lastmile_qr_scan", "android": "https://dc.lft.to/lastmile_qr_scan"}}, {"name": "6bbee17f473b55794fb081e1481c6c3a", "lon": -77.02604216666667, "lat": 38.92760633333333, "type": "electric_scooter", "fusion_lon": 0.0, "is_reserved": 0, "bike_id": "6bbee17f473b55794fb081e1481c6c3a", "fusion_lat": 0.0, "is_disabled": 0, "rental_uris": {"ios": "https://dc.lft.to/lastmile_qr_scan", "android": "https://dc.lft.to/lastmile_qr_scan"}}, {"name": "b31396f3abfa35c857f67c2c36bbfdce", "lon": -77.0270915, "lat": 38.92712783333333, "type": "electric_scooter", "fusion_lon": 0.0, "is_reserved": 0, "bike_id": "b31396f3abfa35c857f67c2c36bbfdce", "fusion_lat": 0.0, "is_disabled": 0, "rental_uris": {"ios": "https://dc.lft.to/lastmile_qr_scan", "android": "https://dc.lft.to/lastmile_qr_scan"}}, {"name": "f6168d122e26ebb2bea1f57c9e41799f", "lon": -77.04023, "lat": 38.922663, "type": "electric_scooter", "fusion_lon": 0.0, "is_reserved": 0, "bike_id": "f6168d122e26ebb2bea1f57c9e41799f", "fusion_lat": 0.0, "is_disabled": 0, "rental_uris": {"ios": "https://dc.lft.to/lastmile_qr_scan", "android": "https://dc.lft.to/lastmile_qr_scan"}}, {"name": "75c35655e74d6e43c7f1dfd55fa97703", "lon": -77.04132733333333, "lat": 38.92315583333333, "type": "electric_scooter", "fusion_lon": 0.0, "is_reserved": 0, "bike_id": "75c35655e74d6e43c7f1dfd55fa97703", "fusion_lat": 0.0, "is_disabled": 0, "rental_uris": {"ios": "https://dc.lft.to/lastmile_qr_scan", "android": "https://dc.lft.to/lastmile_qr_scan"}}, {"name": "168d5f88ae4cf58d8812d41fe44c59aa", "lon": -77.02411383333333, "lat": 38.917031, "type": "electric_scooter", "fusion_lon": 0.0, "is_reserved": 0, "bike_id": "168d5f88ae4cf58d8812d41fe44c59aa", "fusion_lat": 0.0, "is_disabled": 0, "rental_uris": {"ios": "https://dc.lft.to/lastmile_qr_scan", "android": "https://dc.lft.to/lastmile_qr_scan"}}, {"name": "5b7427d7f28bfd36d4d5e9e738aaffdf", "lon": -77.02303283333333, "lat": 38.915482833333336, "type": "electric_scooter", "fusion_lon": 0.0, "is_reserved": 0, "bike_id": "5b7427d7f28bfd36d4d5e9e738aaffdf", "fusion_lat": 0.0, "is_disabled": 0, "rental_uris": {"ios": "https://dc.lft.to/lastmile_qr_scan", "android": "https://dc.lft.to/lastmile_qr_scan"}}, {"name": "01b1052dccf822ecb3d4f13f2f2d93e7", "lon": -77.022085, "lat": 38.9141635, "type": "electric_bike", "fusion_lon": 0.0, "is_reserved": 0, "bike_id": "01b1052dccf822ecb3d4f13f2f2d93e7", "fusion_lat": 0.0, "is_disabled": 0, "rental_uris": {"ios": "https://dc.lft.to/lastmile_qr_scan", "android": "https://dc.lft.to/lastmile_qr_scan"}}, {"name": "11dc4f647dda0613e1b36f74a1bc2258", "lon": -77.0020375, "lat": 38.81935333333333, "type": "electric_bike", "fusion_lon": 0.0, "is_reserved": 0, "bike_id": "11dc4f647dda0613e1b36f74a1bc2258", "fusion_lat": 0.0, "is_disabled": 0, "rental_uris": {"ios": "https://dc.lft.to/lastmile_qr_scan", "android": "https://dc.lft.to/lastmile_qr_scan"}}, {"name": "b585f06cad5aec4d557705dc866a4477", "lon": -77.04687816666667, "lat": 38.90542816666667, "type": "electric_scooter", "fusion_lon": 0.0, "is_reserved": 0, "bike_id": "b585f06cad5aec4d557705dc866a4477", "fusion_lat": 0.0, "is_disabled": 0, "rental_uris": {"ios": "https://dc.lft.to/lastmile_qr_scan", "android": "https://dc.lft.to/lastmile_qr_scan"}}, {"name": "1676b393b567f5d52d051c96cc8bb528", "lon": -77.03186283333334, "lat": 38.91170966666667, "type": "electric_scooter", "fusion_lon": 0.0, "is_reserved": 0, "bike_id": "1676b393b567f5d52d051c96cc8bb528", "fusion_lat": 0.0, "is_disabled": 0, "rental_uris": {"ios": "https://dc.lft.to/lastmile_qr_scan", "android": "https://dc.lft.to/lastmile_qr_scan"}}, {"name": "5dfdc2bc38dd06fb6c315f473f2e7bdd", "lon": -77.03502366666666, "lat": 38.91704683333333, "type": "electric_scooter", "fusion_lon": 0.0, "is_reserved": 0, "bike_id": "5dfdc2bc38dd06fb6c315f473f2e7bdd", "fusion_lat": 0.0, "is_disabled": 0, "rental_uris": {"ios": "https://dc.lft.to/lastmile_qr_scan", "android": "https://dc.lft.to/lastmile_qr_scan"}}, {"name": "caf8186ab89f9a373f9bcc7f06efbe3b", "lon": -77.038733, "lat": 38.921526, "type": "electric_scooter", "fusion_lon": 0.0, "is_reserved": 0, "bike_id": "caf8186ab89f9a373f9bcc7f06efbe3b", "fusion_lat": 0.0, "is_disabled": 0, "rental_uris": {"ios": "https://dc.lft.to/lastmile_qr_scan", "android": "https://dc.lft.to/lastmile_qr_scan"}}, {"name": "f58885125510c5493b1337cc01a3d561", "lon": -77.021907, "lat": 38.908513166666665, "type": "electric_scooter", "fusion_lon": 0.0, "is_reserved": 0, "bike_id": "f58885125510c5493b1337cc01a3d561", "fusion_lat": 0.0, "is_disabled": 0, "rental_uris": {"ios": "https://dc.lft.to/lastmile_qr_scan", "android": "https://dc.lft.to/lastmile_qr_scan"}}, {"name": "7d6514ff3896ed77586a2187968fc7a4", "lon": -77.0576825, "lat": 38.93387833333333, "type": "electric_scooter", "fusion_lon": 0.0, "is_reserved": 0, "bike_id": "7d6514ff3896ed77586a2187968fc7a4", "fusion_lat": 0.0, "is_disabled": 0, "rental_uris": {"ios": "https://dc.lft.to/lastmile_qr_scan", "android": "https://dc.lft.to/lastmile_qr_scan"}}, {"name": "a00c226cff31985f426c155104fc9a86", "lon": -77.03825783333333, "lat": 38.9247095, "type": "electric_scooter", "fusion_lon": 0.0, "is_reserved": 0, "bike_id": "a00c226cff31985f426c155104fc9a86", "fusion_lat": 0.0, "is_disabled": 0, "rental_uris": {"ios": "https://dc.lft.to/lastmile_qr_scan", "android": "https://dc.lft.to/lastmile_qr_scan"}}, {"name": "757513cf5de38a5c76a166ab11c58d8a", "lon": -77.0481335, "lat": 38.900397166666664, "type": "electric_scooter", "fusion_lon": 0.0, "is_reserved": 0, "bike_id": "757513cf5de38a5c76a166ab11c58d8a", "fusion_lat": 0.0, "is_disabled": 0, "rental_uris": {"ios": "https://dc.lft.to/lastmile_qr_scan", "android": "https://dc.lft.to/lastmile_qr_scan"}}, {"name": "638dab3742461744216ebd041c672f78", "lon": -77.0019095, "lat": 38.9525745, "type": "electric_bike", "fusion_lon": 0.0, "is_reserved": 0, "bike_id": "638dab3742461744216ebd041c672f78", "fusion_lat": 0.0, "is_disabled": 0, "rental_uris": {"ios": "https://dc.lft.to/lastmile_qr_scan", "android": "https://dc.lft.to/lastmile_qr_scan"}}, {"name": "ea9cf9e10f67ef49e03178c81f153976", "lon": -77.04175433333333, "lat": 38.91704816666667, "type": "electric_scooter", "fusion_lon": 0.0, "is_reserved": 0, "bike_id": "ea9cf9e10f67ef49e03178c81f153976", "fusion_lat": 0.0, "is_disabled": 0, "rental_uris": {"ios": "https://dc.lft.to/lastmile_qr_scan", "android": "https://dc.lft.to/lastmile_qr_scan"}}, {"name": "24748b475cffbb606efa68e2709d2e02", "lon": -77.03705266666667, "lat": 38.935579, "type": "electric_bike", "fusion_lon": 0.0, "is_reserved": 0, "bike_id": "24748b475cffbb606efa68e2709d2e02", "fusion_lat": 0.0, "is_disabled": 0, "rental_uris": {"ios": "https://dc.lft.to/lastmile_qr_scan", "android": "https://dc.lft.to/lastmile_qr_scan"}}, {"name": "7b16f1752af220a9fb1b7f9dffd1f6dd", "lon": -77.02970266666667, "lat": 38.92326883333333, "type": "electric_scooter", "fusion_lon": 0.0, "is_reserved": 0, "bike_id": "7b16f1752af220a9fb1b7f9dffd1f6dd", "fusion_lat": 0.0, "is_disabled": 0, "rental_uris": {"ios": "https://dc.lft.to/lastmile_qr_scan", "android": "https://dc.lft.to/lastmile_qr_scan"}}, {"name": "2466ed23a93b6398b81f862fa4d99f1c", "lon": -77.0501135, "lat": 38.906288, "type": "electric_scooter", "fusion_lon": 0.0, "is_reserved": 0, "bike_id": "2466ed23a93b6398b81f862fa4d99f1c", "fusion_lat": 0.0, "is_disabled": 0, "rental_uris": {"ios": "https://dc.lft.to/lastmile_qr_scan", "android": "https://dc.lft.to/lastmile_qr_scan"}}, {"name": "1fc2587f48418a7006591c114e96dbba", "lon": -77.03718033333334, "lat": 38.91695633333333, "type": "electric_scooter", "fusion_lon": 0.0, "is_reserved": 0, "bike_id": "1fc2587f48418a7006591c114e96dbba", "fusion_lat": 0.0, "is_disabled": 0, "rental_uris": {"ios": "https://dc.lft.to/lastmile_qr_scan", "android": "https://dc.lft.to/lastmile_qr_scan"}}, {"name": "7ab36565524ca093a697234a2c99600c", "lon": -77.02393616666667, "lat": 38.9196135, "type": "electric_scooter", "fusion_lon": 0.0, "is_reserved": 0, "bike_id": "7ab36565524ca093a697234a2c99600c", "fusion_lat": 0.0, "is_disabled": 0, "rental_uris": {"ios": "https://dc.lft.to/lastmile_qr_scan", "android": "https://dc.lft.to/lastmile_qr_scan"}}, {"name": "4f274eb2ce05766eaf3918e5955e2f3d", "lon": -76.99223166666667, "lat": 38.889913666666665, "type": "electric_bike", "fusion_lon": 0.0, "is_reserved": 0, "bike_id": "4f274eb2ce05766eaf3918e5955e2f3d", "fusion_lat": 0.0, "is_disabled": 0, "rental_uris": {"ios": "https://dc.lft.to/lastmile_qr_scan", "android": "https://dc.lft.to/lastmile_qr_scan"}}, {"name": "6ba278335312046774d744d7b8241870", "lon": -77.0468775, "lat": 39.023963333333334, "type": "electric_bike", "fusion_lon": 0.0, "is_reserved": 0, "bike_id": "6ba278335312046774d744d7b8241870", "fusion_lat": 0.0, "is_disabled": 0, "rental_uris": {"ios": "https://dc.lft.to/lastmile_qr_scan", "android": "https://dc.lft.to/lastmile_qr_scan"}}, {"name": "cf5025b34103324a5618cac6865a19df", "lon": -77.03252183333333, "lat": 38.9118665, "type": "electric_scooter", "fusion_lon": 0.0, "is_reserved": 0, "bike_id": "cf5025b34103324a5618cac6865a19df", "fusion_lat": 0.0, "is_disabled": 0, "rental_uris": {"ios": "https://dc.lft.to/lastmile_qr_scan", "android": "https://dc.lft.to/lastmile_qr_scan"}}, {"name": "744df5cfc0368b3757614121fe8414c8", "lon": -77.0120485, "lat": 38.8709405, "type": "electric_scooter", "fusion_lon": 0.0, "is_reserved": 0, "bike_id": "744df5cfc0368b3757614121fe8414c8", "fusion_lat": 0.0, "is_disabled": 0, "rental_uris": {"ios": "https://dc.lft.to/lastmile_qr_scan", "android": "https://dc.lft.to/lastmile_qr_scan"}}, {"name": "d5f4cb7ce63d618c7eea250300693c32", "lon": -77.044417, "lat": 38.9036405, "type": "electric_scooter", "fusion_lon": 0.0, "is_reserved": 0, "bike_id": "d5f4cb7ce63d618c7eea250300693c32", "fusion_lat": 0.0, "is_disabled": 0, "rental_uris": {"ios": "https://dc.lft.to/lastmile_qr_scan", "android": "https://dc.lft.to/lastmile_qr_scan"}}, {"name": "2d6394cfce7d769bf02a657dbc6b211f", "lon": -77.04231116666666, "lat": 38.90588483333333, "type": "electric_scooter", "fusion_lon": 0.0, "is_reserved": 0, "bike_id": "2d6394cfce7d769bf02a657dbc6b211f", "fusion_lat": 0.0, "is_disabled": 0, "rental_uris": {"ios": "https://dc.lft.to/lastmile_qr_scan", "android": "https://dc.lft.to/lastmile_qr_scan"}}, {"name": "c74fae981e3ead793616b18bd0a87226", "lon": -77.18738883333333, "lat": 38.8935385, "type": "electric_bike", "fusion_lon": 0.0, "is_reserved": 0, "bike_id": "c74fae981e3ead793616b18bd0a87226", "fusion_lat": 0.0, "is_disabled": 0, "rental_uris": {"ios": "https://dc.lft.to/lastmile_qr_scan", "android": "https://dc.lft.to/lastmile_qr_scan"}}, {"name": "9e834677e7093e730dfdda3b237f9a8a", "lon": -77.043702, "lat": 38.89225283333333, "type": "electric_scooter", "fusion_lon": 0.0, "is_reserved": 0, "bike_id": "9e834677e7093e730dfdda3b237f9a8a", "fusion_lat": 0.0, "is_disabled": 0, "rental_uris": {"ios": "https://dc.lft.to/lastmile_qr_scan", "android": "https://dc.lft.to/lastmile_qr_scan"}}, {"name": "0f68eba3e8355abe8d3d429d26cb9408", "lon": -77.05173283333333, "lat": 38.924245, "type": "electric_scooter", "fusion_lon": 0.0, "is_reserved": 0, "bike_id": "0f68eba3e8355abe8d3d429d26cb9408", "fusion_lat": 0.0, "is_disabled": 0, "rental_uris": {"ios": "https://dc.lft.to/lastmile_qr_scan", "android": "https://dc.lft.to/lastmile_qr_scan"}}, {"name": "79859af4d358affa900bfab03e818e23", "lon": -77.041809, "lat": 38.9166515, "type": "electric_scooter", "fusion_lon": 0.0, "is_reserved": 0, "bike_id": "79859af4d358affa900bfab03e818e23", "fusion_lat": 0.0, "is_disabled": 0, "rental_uris": {"ios": "https://dc.lft.to/lastmile_qr_scan", "android": "https://dc.lft.to/lastmile_qr_scan"}}, {"name": "6bb99eefd13eca7d3ceb132a51f6bac1", "lon": -77.022865, "lat": 38.9277555, "type": "electric_scooter", "fusion_lon": 0.0, "is_reserved": 0, "bike_id": "6bb99eefd13eca7d3ceb132a51f6bac1", "fusion_lat": 0.0, "is_disabled": 0, "rental_uris": {"ios": "https://dc.lft.to/lastmile_qr_scan", "android": "https://dc.lft.to/lastmile_qr_scan"}}, {"name": "45e6cfa20997fba24b1af34d99897cc5", "lon": -77.0512305, "lat": 38.92346766666667, "type": "electric_scooter", "fusion_lon": 0.0, "is_reserved": 0, "bike_id": "45e6cfa20997fba24b1af34d99897cc5", "fusion_lat": 0.0, "is_disabled": 0, "rental_uris": {"ios": "https://dc.lft.to/lastmile_qr_scan", "android": "https://dc.lft.to/lastmile_qr_scan"}}, {"name": "8a27ae4f667334cbf4857dcb688cdf63", "lon": -77.05004, "lat": 38.892306166666664, "type": "electric_scooter", "fusion_lon": 0.0, "is_reserved": 0, "bike_id": "8a27ae4f667334cbf4857dcb688cdf63", "fusion_lat": 0.0, "is_disabled": 0, "rental_uris": {"ios": "https://dc.lft.to/lastmile_qr_scan", "android": "https://dc.lft.to/lastmile_qr_scan"}}, {"name": "5e70eaa2abea35a3fad4a0c26dcc9f4a", "lon": -76.9770135, "lat": 38.902539, "type": "electric_scooter", "fusion_lon": 0.0, "is_reserved": 0, "bike_id": "5e70eaa2abea35a3fad4a0c26dcc9f4a", "fusion_lat": 0.0, "is_disabled": 0, "rental_uris": {"ios": "https://dc.lft.to/lastmile_qr_scan", "android": "https://dc.lft.to/lastmile_qr_scan"}}, {"name": "a638c0c3c155e16bf3beda4c260b97c0", "lon": -77.03669966666666, "lat": 38.927237, "type": "electric_scooter", "fusion_lon": 0.0, "is_reserved": 0, "bike_id": "a638c0c3c155e16bf3beda4c260b97c0", "fusion_lat": 0.0, "is_disabled": 0, "rental_uris": {"ios": "https://dc.lft.to/lastmile_qr_scan", "android": "https://dc.lft.to/lastmile_qr_scan"}}, {"name": "827dc0ffc4f62c1192efcc6f47ae1d0a", "lon": -77.03262866666667, "lat": 38.935399333333336, "type": "electric_scooter", "fusion_lon": 0.0, "is_reserved": 0, "bike_id": "827dc0ffc4f62c1192efcc6f47ae1d0a", "fusion_lat": 0.0, "is_disabled": 0, "rental_uris": {"ios": "https://dc.lft.to/lastmile_qr_scan", "android": "https://dc.lft.to/lastmile_qr_scan"}}, {"name": "21b2a93782a93ef33e72b643161701bb", "lon": -77.03678833333333, "lat": 38.90826466666667, "type": "electric_scooter", "fusion_lon": 0.0, "is_reserved": 0, "bike_id": "21b2a93782a93ef33e72b643161701bb", "fusion_lat": 0.0, "is_disabled": 0, "rental_uris": {"ios": "https://dc.lft.to/lastmile_qr_scan", "android": "https://dc.lft.to/lastmile_qr_scan"}}, {"name": "b6353c41509bd427870d922b0b910b64", "lon": -77.02897583333333, "lat": 38.887557, "type": "electric_scooter", "fusion_lon": 0.0, "is_reserved": 0, "bike_id": "b6353c41509bd427870d922b0b910b64", "fusion_lat": 0.0, "is_disabled": 0, "rental_uris": {"ios": "https://dc.lft.to/lastmile_qr_scan", "android": "https://dc.lft.to/lastmile_qr_scan"}}, {"name": "cbc47991a338fc71c11dfe12c54e996c", "lon": -77.00335783333334, "lat": 38.889893666666666, "type": "electric_scooter", "fusion_lon": 0.0, "is_reserved": 0, "bike_id": "cbc47991a338fc71c11dfe12c54e996c", "fusion_lat": 0.0, "is_disabled": 0, "rental_uris": {"ios": "https://dc.lft.to/lastmile_qr_scan", "android": "https://dc.lft.to/lastmile_qr_scan"}}, {"name": "acafad5c1f562a41cd00ebc3da0ec83e", "lon": -77.04999233333334, "lat": 38.8923325, "type": "electric_scooter", "fusion_lon": 0.0, "is_reserved": 0, "bike_id": "acafad5c1f562a41cd00ebc3da0ec83e", "fusion_lat": 0.0, "is_disabled": 0, "rental_uris": {"ios": "https://dc.lft.to/lastmile_qr_scan", "android": "https://dc.lft.to/lastmile_qr_scan"}}, {"name": "b91bf9514e1d19018ef231dbd27d6f58", "lon": -77.04114983333334, "lat": 38.921788166666666, "type": "electric_scooter", "fusion_lon": 0.0, "is_reserved": 0, "bike_id": "b91bf9514e1d19018ef231dbd27d6f58", "fusion_lat": 0.0, "is_disabled": 0, "rental_uris": {"ios": "https://dc.lft.to/lastmile_qr_scan", "android": "https://dc.lft.to/lastmile_qr_scan"}}, {"name": "32424030d2d47fc8ca0361c150547790", "lon": -77.06999383333333, "lat": 38.95502366666667, "type": "electric_bike", "fusion_lon": 0.0, "is_reserved": 0, "bike_id": "32424030d2d47fc8ca0361c150547790", "fusion_lat": 0.0, "is_disabled": 0, "rental_uris": {"ios": "https://dc.lft.to/lastmile_qr_scan", "android": "https://dc.lft.to/lastmile_qr_scan"}}, {"name": "35ff3fbe2f6357269f1d7c14298acf4a", "lon": -77.02757283333334, "lat": 38.91552633333333, "type": "electric_scooter", "fusion_lon": 0.0, "is_reserved": 0, "bike_id": "35ff3fbe2f6357269f1d7c14298acf4a", "fusion_lat": 0.0, "is_disabled": 0, "rental_uris": {"ios": "https://dc.lft.to/lastmile_qr_scan", "android": "https://dc.lft.to/lastmile_qr_scan"}}, {"name": "3aaca3dcff4b1ba7dcf1959c98a4635a", "lon": -77.04211483333333, "lat": 38.923175, "type": "electric_scooter", "fusion_lon": 0.0, "is_reserved": 0, "bike_id": "3aaca3dcff4b1ba7dcf1959c98a4635a", "fusion_lat": 0.0, "is_disabled": 0, "rental_uris": {"ios": "https://dc.lft.to/lastmile_qr_scan", "android": "https://dc.lft.to/lastmile_qr_scan"}}, {"name": "670675c5db23b9cad8c155d5e697092c", "lon": -77.04183183333333, "lat": 38.892247833333336, "type": "electric_scooter", "fusion_lon": 0.0, "is_reserved": 0, "bike_id": "670675c5db23b9cad8c155d5e697092c", "fusion_lat": 0.0, "is_disabled": 0, "rental_uris": {"ios": "https://dc.lft.to/lastmile_qr_scan", "android": "https://dc.lft.to/lastmile_qr_scan"}}, {"name": "d0083cc9401d4ff529f27a16ce8c7779", "lon": -77.03122316666666, "lat": 38.9156135, "type": "electric_scooter", "fusion_lon": 0.0, "is_reserved": 0, "bike_id": "d0083cc9401d4ff529f27a16ce8c7779", "fusion_lat": 0.0, "is_disabled": 0, "rental_uris": {"ios": "https://dc.lft.to/lastmile_qr_scan", "android": "https://dc.lft.to/lastmile_qr_scan"}}, {"name": "1b81533dabc7f697683a08484a79fafc", "lon": -76.98839416666667, "lat": 38.900318166666665, "type": "electric_scooter", "fusion_lon": 0.0, "is_reserved": 0, "bike_id": "1b81533dabc7f697683a08484a79fafc", "fusion_lat": 0.0, "is_disabled": 0, "rental_uris": {"ios": "https://dc.lft.to/lastmile_qr_scan", "android": "https://dc.lft.to/lastmile_qr_scan"}}, {"name": "7817c0ac43c44aa72efbdbed1165d643", "lon": -77.04481566666666, "lat": 38.92243166666667, "type": "electric_scooter", "fusion_lon": 0.0, "is_reserved": 0, "bike_id": "7817c0ac43c44aa72efbdbed1165d643", "fusion_lat": 0.0, "is_disabled": 0, "rental_uris": {"ios": "https://dc.lft.to/lastmile_qr_scan", "android": "https://dc.lft.to/lastmile_qr_scan"}}, {"name": "b8a11c9781ab56f7b8ecc7acecf6f6ec", "lon": -76.99307883333333, "lat": 38.9000975, "type": "electric_scooter", "fusion_lon": 0.0, "is_reserved": 0, "bike_id": "b8a11c9781ab56f7b8ecc7acecf6f6ec", "fusion_lat": 0.0, "is_disabled": 0, "rental_uris": {"ios": "https://dc.lft.to/lastmile_qr_scan", "android": "https://dc.lft.to/lastmile_qr_scan"}}, {"name": "577d1d137b235aa23d414becc3025365", "lon": -77.032535, "lat": 38.929734833333335, "type": "electric_scooter", "fusion_lon": 0.0, "is_reserved": 0, "bike_id": "577d1d137b235aa23d414becc3025365", "fusion_lat": 0.0, "is_disabled": 0, "rental_uris": {"ios": "https://dc.lft.to/lastmile_qr_scan", "android": "https://dc.lft.to/lastmile_qr_scan"}}, {"name": "d80e2748512f0990cff00748216f9431", "lon": -76.93737633333333, "lat": 38.890146666666666, "type": "electric_scooter", "fusion_lon": 0.0, "is_reserved": 0, "bike_id": "d80e2748512f0990cff00748216f9431", "fusion_lat": 0.0, "is_disabled": 0, "rental_uris": {"ios": "https://dc.lft.to/lastmile_qr_scan", "android": "https://dc.lft.to/lastmile_qr_scan"}}, {"name": "da3ceeefded2016c67a5d892449e0f54", "lon": -77.03309783333333, "lat": 38.95636066666667, "type": "electric_scooter", "fusion_lon": 0.0, "is_reserved": 0, "bike_id": "da3ceeefded2016c67a5d892449e0f54", "fusion_lat": 0.0, "is_disabled": 0, "rental_uris": {"ios": "https://dc.lft.to/lastmile_qr_scan", "android": "https://dc.lft.to/lastmile_qr_scan"}}, {"name": "6d4c539461c421b5e7bdda91b4cb2674", "lon": -77.0140765, "lat": 38.887447, "type": "electric_scooter", "fusion_lon": 0.0, "is_reserved": 0, "bike_id": "6d4c539461c421b5e7bdda91b4cb2674", "fusion_lat": 0.0, "is_disabled": 0, "rental_uris": {"ios": "https://dc.lft.to/lastmile_qr_scan", "android": "https://dc.lft.to/lastmile_qr_scan"}}, {"name": "50a6b5db2973c29863586d0c822121d0", "lon": -76.9480585, "lat": 38.86191266666667, "type": "electric_bike", "fusion_lon": 0.0, "is_reserved": 0, "bike_id": "50a6b5db2973c29863586d0c822121d0", "fusion_lat": 0.0, "is_disabled": 0, "rental_uris": {"ios": "https://dc.lft.to/lastmile_qr_scan", "android": "https://dc.lft.to/lastmile_qr_scan"}}, {"name": "404a96246e3f5bf3b590433a86f98455", "lon": -77.01987283333334, "lat": 38.899766666666665, "type": "electric_scooter", "fusion_lon": 0.0, "is_reserved": 0, "bike_id": "404a96246e3f5bf3b590433a86f98455", "fusion_lat": 0.0, "is_disabled": 0, "rental_uris": {"ios": "https://dc.lft.to/lastmile_qr_scan", "android": "https://dc.lft.to/lastmile_qr_scan"}}, {"name": "b09e20d5172659722b6eebb287b31b78", "lon": -77.03661816666667, "lat": 38.910009, "type": "electric_scooter", "fusion_lon": 0.0, "is_reserved": 0, "bike_id": "b09e20d5172659722b6eebb287b31b78", "fusion_lat": 0.0, "is_disabled": 0, "rental_uris": {"ios": "https://dc.lft.to/lastmile_qr_scan", "android": "https://dc.lft.to/lastmile_qr_scan"}}, {"name": "aea67bcb4e723362caaff955383d6786", "lon": -77.02334683333333, "lat": 38.92479083333333, "type": "electric_scooter", "fusion_lon": 0.0, "is_reserved": 0, "bike_id": "aea67bcb4e723362caaff955383d6786", "fusion_lat": 0.0, "is_disabled": 0, "rental_uris": {"ios": "https://dc.lft.to/lastmile_qr_scan", "android": "https://dc.lft.to/lastmile_qr_scan"}}, {"name": "505751c72a57b4aac6cfad40b94bd5c8", "lon": -76.97473633333334, "lat": 38.903498666666664, "type": "electric_scooter", "fusion_lon": 0.0, "is_reserved": 0, "bike_id": "505751c72a57b4aac6cfad40b94bd5c8", "fusion_lat": 0.0, "is_disabled": 0, "rental_uris": {"ios": "https://dc.lft.to/lastmile_qr_scan", "android": "https://dc.lft.to/lastmile_qr_scan"}}, {"name": "351bf06b5f3b63a5576c75d82b2f59ce", "lon": -77.032057, "lat": 38.914775166666665, "type": "electric_scooter", "fusion_lon": 0.0, "is_reserved": 0, "bike_id": "351bf06b5f3b63a5576c75d82b2f59ce", "fusion_lat": 0.0, "is_disabled": 0, "rental_uris": {"ios": "https://dc.lft.to/lastmile_qr_scan", "android": "https://dc.lft.to/lastmile_qr_scan"}}, {"name": "d15fcc335b9c7462d839082885437ac0", "lon": -77.09483266666666, "lat": 39.0304995, "type": "electric_bike", "fusion_lon": 0.0, "is_reserved": 0, "bike_id": "d15fcc335b9c7462d839082885437ac0", "fusion_lat": 0.0, "is_disabled": 0, "rental_uris": {"ios": "https://dc.lft.to/lastmile_qr_scan", "android": "https://dc.lft.to/lastmile_qr_scan"}}, {"name": "ec55e0151e4faf16f811c224af8886a0", "lon": -77.026943, "lat": 38.90871533333333, "type": "electric_scooter", "fusion_lon": 0.0, "is_reserved": 0, "bike_id": "ec55e0151e4faf16f811c224af8886a0", "fusion_lat": 0.0, "is_disabled": 0, "rental_uris": {"ios": "https://dc.lft.to/lastmile_qr_scan", "android": "https://dc.lft.to/lastmile_qr_scan"}}, {"name": "3f40b37abf3c0a8d3797fe34a23610cc", "lon": -77.04674333333334, "lat": 38.9021385, "type": "electric_scooter", "fusion_lon": 0.0, "is_reserved": 0, "bike_id": "3f40b37abf3c0a8d3797fe34a23610cc", "fusion_lat": 0.0, "is_disabled": 0, "rental_uris": {"ios": "https://dc.lft.to/lastmile_qr_scan", "android": "https://dc.lft.to/lastmile_qr_scan"}}, {"name": "e90ffc5da99886dd57bf285988c99d9a", "lon": -76.9742745, "lat": 38.9044615, "type": "electric_scooter", "fusion_lon": 0.0, "is_reserved": 0, "bike_id": "e90ffc5da99886dd57bf285988c99d9a", "fusion_lat": 0.0, "is_disabled": 0, "rental_uris": {"ios": "https://dc.lft.to/lastmile_qr_scan", "android": "https://dc.lft.to/lastmile_qr_scan"}}, {"name": "5cd78a9c5bb0fcaa6fe6c293059c532a", "lon": -77.01860833333333, "lat": 38.87730416666667, "type": "electric_scooter", "fusion_lon": 0.0, "is_reserved": 0, "bike_id": "5cd78a9c5bb0fcaa6fe6c293059c532a", "fusion_lat": 0.0, "is_disabled": 0, "rental_uris": {"ios": "https://dc.lft.to/lastmile_qr_scan", "android": "https://dc.lft.to/lastmile_qr_scan"}}, {"name": "ed155cd3b0085c00c48d4f9349f48437", "lon": -77.0251165, "lat": 38.920608333333334, "type": "electric_scooter", "fusion_lon": 0.0, "is_reserved": 0, "bike_id": "ed155cd3b0085c00c48d4f9349f48437", "fusion_lat": 0.0, "is_disabled": 0, "rental_uris": {"ios": "https://dc.lft.to/lastmile_qr_scan", "android": "https://dc.lft.to/lastmile_qr_scan"}}, {"name": "5447c44b28002d2847069d6cceb7b90d", "lon": -77.0373815, "lat": 38.91106083333333, "type": "electric_scooter", "fusion_lon": 0.0, "is_reserved": 0, "bike_id": "5447c44b28002d2847069d6cceb7b90d", "fusion_lat": 0.0, "is_disabled": 0, "rental_uris": {"ios": "https://dc.lft.to/lastmile_qr_scan", "android": "https://dc.lft.to/lastmile_qr_scan"}}, {"name": "f078f7ba589588c749791cc79d85586e", "lon": -77.0271315, "lat": 38.899962, "type": "electric_scooter", "fusion_lon": 0.0, "is_reserved": 0, "bike_id": "f078f7ba589588c749791cc79d85586e", "fusion_lat": 0.0, "is_disabled": 0, "rental_uris": {"ios": "https://dc.lft.to/lastmile_qr_scan", "android": "https://dc.lft.to/lastmile_qr_scan"}}, {"name": "cd6260cc072bdda868cf33afb8712a1c", "lon": -77.0436355, "lat": 38.90629233333333, "type": "electric_scooter", "fusion_lon": 0.0, "is_reserved": 0, "bike_id": "cd6260cc072bdda868cf33afb8712a1c", "fusion_lat": 0.0, "is_disabled": 0, "rental_uris": {"ios": "https://dc.lft.to/lastmile_qr_scan", "android": "https://dc.lft.to/lastmile_qr_scan"}}, {"name": "71c7bdad8c8cef2ee2a2b0f495e1b98d", "lon": -77.029776, "lat": 38.934508, "type": "electric_scooter", "fusion_lon": 0.0, "is_reserved": 0, "bike_id": "71c7bdad8c8cef2ee2a2b0f495e1b98d", "fusion_lat": 0.0, "is_disabled": 0, "rental_uris": {"ios": "https://dc.lft.to/lastmile_qr_scan", "android": "https://dc.lft.to/lastmile_qr_scan"}}, {"name": "ff352f02692a9e9fc911779616e32f1c", "lon": -77.01338566666666, "lat": 38.90052083333333, "type": "electric_scooter", "fusion_lon": 0.0, "is_reserved": 0, "bike_id": "ff352f02692a9e9fc911779616e32f1c", "fusion_lat": 0.0, "is_disabled": 0, "rental_uris": {"ios": "https://dc.lft.to/lastmile_qr_scan", "android": "https://dc.lft.to/lastmile_qr_scan"}}, {"name": "ea7df1a2d8a5bd2423e4b336f12fe8fb", "lon": -77.03838483333334, "lat": 38.9123635, "type": "electric_scooter", "fusion_lon": 0.0, "is_reserved": 0, "bike_id": "ea7df1a2d8a5bd2423e4b336f12fe8fb", "fusion_lat": 0.0, "is_disabled": 0, "rental_uris": {"ios": "https://dc.lft.to/lastmile_qr_scan", "android": "https://dc.lft.to/lastmile_qr_scan"}}, {"name": "5c859925e2248937ebc9a172d1540f89", "lon": -76.98331383333333, "lat": 38.90870983333333, "type": "electric_scooter", "fusion_lon": 0.0, "is_reserved": 0, "bike_id": "5c859925e2248937ebc9a172d1540f89", "fusion_lat": 0.0, "is_disabled": 0, "rental_uris": {"ios": "https://dc.lft.to/lastmile_qr_scan", "android": "https://dc.lft.to/lastmile_qr_scan"}}, {"name": "8f309b37340636082df60ca7555d0dbe", "lon": -77.04599766666666, "lat": 38.919166, "type": "electric_scooter", "fusion_lon": 0.0, "is_reserved": 0, "bike_id": "8f309b37340636082df60ca7555d0dbe", "fusion_lat": 0.0, "is_disabled": 0, "rental_uris": {"ios": "https://dc.lft.to/lastmile_qr_scan", "android": "https://dc.lft.to/lastmile_qr_scan"}}, {"name": "0073f72d684ba03de700d3973bb402b4", "lon": -77.03128916666667, "lat": 38.923776833333335, "type": "electric_scooter", "fusion_lon": 0.0, "is_reserved": 0, "bike_id": "0073f72d684ba03de700d3973bb402b4", "fusion_lat": 0.0, "is_disabled": 0, "rental_uris": {"ios": "https://dc.lft.to/lastmile_qr_scan", "android": "https://dc.lft.to/lastmile_qr_scan"}}, {"name": "c956cb9ad06cf2092f30760e5f8e3053", "lon": -77.01214516666667, "lat": 38.921193333333335, "type": "electric_scooter", "fusion_lon": 0.0, "is_reserved": 0, "bike_id": "c956cb9ad06cf2092f30760e5f8e3053", "fusion_lat": 0.0, "is_disabled": 0, "rental_uris": {"ios": "https://dc.lft.to/lastmile_qr_scan", "android": "https://dc.lft.to/lastmile_qr_scan"}}, {"name": "38304ab9591327677de213dbe7570d2a", "lon": -77.04354233333333, "lat": 38.91043633333334, "type": "electric_scooter", "fusion_lon": 0.0, "is_reserved": 0, "bike_id": "38304ab9591327677de213dbe7570d2a", "fusion_lat": 0.0, "is_disabled": 0, "rental_uris": {"ios": "https://dc.lft.to/lastmile_qr_scan", "android": "https://dc.lft.to/lastmile_qr_scan"}}, {"name": "ec90a2424e3bb1bffd88bfdcb798a458", "lon": -77.082802, "lat": 38.93013933333334, "type": "electric_scooter", "fusion_lon": 0.0, "is_reserved": 0, "bike_id": "ec90a2424e3bb1bffd88bfdcb798a458", "fusion_lat": 0.0, "is_disabled": 0, "rental_uris": {"ios": "https://dc.lft.to/lastmile_qr_scan", "android": "https://dc.lft.to/lastmile_qr_scan"}}, {"name": "d04fa3498b9c8bde824fb0aa6f0467cf", "lon": -77.0281935, "lat": 38.91627733333333, "type": "electric_scooter", "fusion_lon": 0.0, "is_reserved": 0, "bike_id": "d04fa3498b9c8bde824fb0aa6f0467cf", "fusion_lat": 0.0, "is_disabled": 0, "rental_uris": {"ios": "https://dc.lft.to/lastmile_qr_scan", "android": "https://dc.lft.to/lastmile_qr_scan"}}, {"name": "007bc64cbefab49dce09c62fa466220a", "lon": -77.03240983333333, "lat": 38.9155435, "type": "electric_scooter", "fusion_lon": 0.0, "is_reserved": 0, "bike_id": "007bc64cbefab49dce09c62fa466220a", "fusion_lat": 0.0, "is_disabled": 0, "rental_uris": {"ios": "https://dc.lft.to/lastmile_qr_scan", "android": "https://dc.lft.to/lastmile_qr_scan"}}, {"name": "2c5daf7196e57aff0140d7178b9e6af2", "lon": -77.04687466666667, "lat": 38.90553, "type": "electric_scooter", "fusion_lon": 0.0, "is_reserved": 0, "bike_id": "2c5daf7196e57aff0140d7178b9e6af2", "fusion_lat": 0.0, "is_disabled": 0, "rental_uris": {"ios": "https://dc.lft.to/lastmile_qr_scan", "android": "https://dc.lft.to/lastmile_qr_scan"}}, {"name": "402ef6efd3e29d1f41eb21d58a2f3db6", "lon": -77.03534616666667, "lat": 38.93285633333333, "type": "electric_scooter", "fusion_lon": 0.0, "is_reserved": 0, "bike_id": "402ef6efd3e29d1f41eb21d58a2f3db6", "fusion_lat": 0.0, "is_disabled": 0, "rental_uris": {"ios": "https://dc.lft.to/lastmile_qr_scan", "android": "https://dc.lft.to/lastmile_qr_scan"}}, {"name": "4ac59ac23a472d60b285594f9fce1b81", "lon": -77.03240166666667, "lat": 38.91490866666667, "type": "electric_scooter", "fusion_lon": 0.0, "is_reserved": 0, "bike_id": "4ac59ac23a472d60b285594f9fce1b81", "fusion_lat": 0.0, "is_disabled": 0, "rental_uris": {"ios": "https://dc.lft.to/lastmile_qr_scan", "android": "https://dc.lft.to/lastmile_qr_scan"}}, {"name": "29c3147e40466e314fcef7e8197dcab6", "lon": -76.99552483333333, "lat": 38.9267045, "type": "electric_scooter", "fusion_lon": 0.0, "is_reserved": 0, "bike_id": "29c3147e40466e314fcef7e8197dcab6", "fusion_lat": 0.0, "is_disabled": 0, "rental_uris": {"ios": "https://dc.lft.to/lastmile_qr_scan", "android": "https://dc.lft.to/lastmile_qr_scan"}}, {"name": "7004ba91c33f23c68c683f855e261d02", "lon": -77.01933983333333, "lat": 38.8998695, "type": "electric_scooter", "fusion_lon": 0.0, "is_reserved": 0, "bike_id": "7004ba91c33f23c68c683f855e261d02", "fusion_lat": 0.0, "is_disabled": 0, "rental_uris": {"ios": "https://dc.lft.to/lastmile_qr_scan", "android": "https://dc.lft.to/lastmile_qr_scan"}}, {"name": "9f815a1fe36c199e6821652d10d7276d", "lon": -76.97945466666667, "lat": 38.94527333333333, "type": "electric_scooter", "fusion_lon": 0.0, "is_reserved": 0, "bike_id": "9f815a1fe36c199e6821652d10d7276d", "fusion_lat": 0.0, "is_disabled": 0, "rental_uris": {"ios": "https://dc.lft.to/lastmile_qr_scan", "android": "https://dc.lft.to/lastmile_qr_scan"}}, {"name": "57b0300ef533e98be939ac2f461edf50", "lon": -77.0247735, "lat": 38.90974216666667, "type": "electric_scooter", "fusion_lon": 0.0, "is_reserved": 0, "bike_id": "57b0300ef533e98be939ac2f461edf50", "fusion_lat": 0.0, "is_disabled": 0, "rental_uris": {"ios": "https://dc.lft.to/lastmile_qr_scan", "android": "https://dc.lft.to/lastmile_qr_scan"}}, {"name": "8ca8bf92a795c8db45cf87e5e5e566b6", "lon": -76.96936383333333, "lat": 38.95191333333333, "type": "electric_bike", "fusion_lon": 0.0, "is_reserved": 0, "bike_id": "8ca8bf92a795c8db45cf87e5e5e566b6", "fusion_lat": 0.0, "is_disabled": 0, "rental_uris": {"ios": "https://dc.lft.to/lastmile_qr_scan", "android": "https://dc.lft.to/lastmile_qr_scan"}}, {"name": "5216b8b6dcaab89fcd53e9f2e710e8d1", "lon": -77.04617766666667, "lat": 38.8961205, "type": "electric_scooter", "fusion_lon": 0.0, "is_reserved": 0, "bike_id": "5216b8b6dcaab89fcd53e9f2e710e8d1", "fusion_lat": 0.0, "is_disabled": 0, "rental_uris": {"ios": "https://dc.lft.to/lastmile_qr_scan", "android": "https://dc.lft.to/lastmile_qr_scan"}}, {"name": "25bf383637c478f217eabbe5a9ba8f2a", "lon": -77.02627333333334, "lat": 38.896669833333334, "type": "electric_scooter", "fusion_lon": 0.0, "is_reserved": 0, "bike_id": "25bf383637c478f217eabbe5a9ba8f2a", "fusion_lat": 0.0, "is_disabled": 0, "rental_uris": {"ios": "https://dc.lft.to/lastmile_qr_scan", "android": "https://dc.lft.to/lastmile_qr_scan"}}, {"name": "71131701ebce7c3803561d406c16a405", "lon": -77.09801466666667, "lat": 38.85031466666667, "type": "electric_bike", "fusion_lon": 0.0, "is_reserved": 0, "bike_id": "71131701ebce7c3803561d406c16a405", "fusion_lat": 0.0, "is_disabled": 0, "rental_uris": {"ios": "https://dc.lft.to/lastmile_qr_scan", "android": "https://dc.lft.to/lastmile_qr_scan"}}, {"name": "4aeae0d14ce250d512bc71be6dfce088", "lon": -77.02404183333333, "lat": 38.898929833333334, "type": "electric_scooter", "fusion_lon": 0.0, "is_reserved": 0, "bike_id": "4aeae0d14ce250d512bc71be6dfce088", "fusion_lat": 0.0, "is_disabled": 0, "rental_uris": {"ios": "https://dc.lft.to/lastmile_qr_scan", "android": "https://dc.lft.to/lastmile_qr_scan"}}, {"name": "532d93b93e76f22acae7d5fecd5b3912", "lon": -77.02553783333333, "lat": 38.880659333333334, "type": "electric_scooter", "fusion_lon": 0.0, "is_reserved": 0, "bike_id": "532d93b93e76f22acae7d5fecd5b3912", "fusion_lat": 0.0, "is_disabled": 0, "rental_uris": {"ios": "https://dc.lft.to/lastmile_qr_scan", "android": "https://dc.lft.to/lastmile_qr_scan"}}, {"name": "605787bd89ef7fd7cba7d3644cccb932", "lon": -76.93338433333334, "lat": 38.89918866666667, "type": "electric_scooter", "fusion_lon": 0.0, "is_reserved": 0, "bike_id": "605787bd89ef7fd7cba7d3644cccb932", "fusion_lat": 0.0, "is_disabled": 0, "rental_uris": {"ios": "https://dc.lft.to/lastmile_qr_scan", "android": "https://dc.lft.to/lastmile_qr_scan"}}, {"name": "a962b53b5106dc946a5e068a9a8b335b", "lon": -77.01746933333334, "lat": 38.875007833333335, "type": "electric_scooter", "fusion_lon": 0.0, "is_reserved": 0, "bike_id": "a962b53b5106dc946a5e068a9a8b335b", "fusion_lat": 0.0, "is_disabled": 0, "rental_uris": {"ios": "https://dc.lft.to/lastmile_qr_scan", "android": "https://dc.lft.to/lastmile_qr_scan"}}, {"name": "9d4072c3c1a6dbc5b226f155e801ca4d", "lon": -77.034969, "lat": 38.916959, "type": "electric_scooter", "fusion_lon": 0.0, "is_reserved": 0, "bike_id": "9d4072c3c1a6dbc5b226f155e801ca4d", "fusion_lat": 0.0, "is_disabled": 0, "rental_uris": {"ios": "https://dc.lft.to/lastmile_qr_scan", "android": "https://dc.lft.to/lastmile_qr_scan"}}, {"name": "e705ab51b99c2cc1d0dd643c82f1a22a", "lon": -77.023801, "lat": 38.896352666666665, "type": "electric_scooter", "fusion_lon": 0.0, "is_reserved": 0, "bike_id": "e705ab51b99c2cc1d0dd643c82f1a22a", "fusion_lat": 0.0, "is_disabled": 0, "rental_uris": {"ios": "https://dc.lft.to/lastmile_qr_scan", "android": "https://dc.lft.to/lastmile_qr_scan"}}, {"name": "de3cac9688feeaf4e9d3975eb31cb79f", "lon": -77.08824066666666, "lat": 38.909699333333336, "type": "electric_bike", "fusion_lon": 0.0, "is_reserved": 0, "bike_id": "de3cac9688feeaf4e9d3975eb31cb79f", "fusion_lat": 0.0, "is_disabled": 0, "rental_uris": {"ios": "https://dc.lft.to/lastmile_qr_scan", "android": "https://dc.lft.to/lastmile_qr_scan"}}, {"name": "1ec83a88e7537674566db2f5260a72e8", "lon": -77.02519466666666, "lat": 38.9385975, "type": "electric_scooter", "fusion_lon": 0.0, "is_reserved": 0, "bike_id": "1ec83a88e7537674566db2f5260a72e8", "fusion_lat": 0.0, "is_disabled": 0, "rental_uris": {"ios": "https://dc.lft.to/lastmile_qr_scan", "android": "https://dc.lft.to/lastmile_qr_scan"}}, {"name": "6723361fb51b6745122fb234d4110d03", "lon": -77.05856716666666, "lat": 38.935850333333335, "type": "electric_scooter", "fusion_lon": 0.0, "is_reserved": 0, "bike_id": "6723361fb51b6745122fb234d4110d03", "fusion_lat": 0.0, "is_disabled": 0, "rental_uris": {"ios": "https://dc.lft.to/lastmile_qr_scan", "android": "https://dc.lft.to/lastmile_qr_scan"}}, {"name": "ea123faafa3230045b27dde50760a04a", "lon": -77.04497716666667, "lat": 38.91326933333333, "type": "electric_scooter", "fusion_lon": 0.0, "is_reserved": 0, "bike_id": "ea123faafa3230045b27dde50760a04a", "fusion_lat": 0.0, "is_disabled": 0, "rental_uris": {"ios": "https://dc.lft.to/lastmile_qr_scan", "android": "https://dc.lft.to/lastmile_qr_scan"}}, {"name": "63c05e7388406e52454441b6955c4ce9", "lon": -77.02696, "lat": 38.91122033333333, "type": "electric_scooter", "fusion_lon": 0.0, "is_reserved": 0, "bike_id": "63c05e7388406e52454441b6955c4ce9", "fusion_lat": 0.0, "is_disabled": 0, "rental_uris": {"ios": "https://dc.lft.to/lastmile_qr_scan", "android": "https://dc.lft.to/lastmile_qr_scan"}}, {"name": "880e0cfe6e53668848ef990a07585635", "lon": -77.013148, "lat": 38.90186966666667, "type": "electric_scooter", "fusion_lon": 0.0, "is_reserved": 0, "bike_id": "880e0cfe6e53668848ef990a07585635", "fusion_lat": 0.0, "is_disabled": 0, "rental_uris": {"ios": "https://dc.lft.to/lastmile_qr_scan", "android": "https://dc.lft.to/lastmile_qr_scan"}}, {"name": "673e6c8b93dbc0b8975b918330cc6153", "lon": -77.04494833333334, "lat": 38.91928033333333, "type": "electric_scooter", "fusion_lon": 0.0, "is_reserved": 0, "bike_id": "673e6c8b93dbc0b8975b918330cc6153", "fusion_lat": 0.0, "is_disabled": 0, "rental_uris": {"ios": "https://dc.lft.to/lastmile_qr_scan", "android": "https://dc.lft.to/lastmile_qr_scan"}}, {"name": "f37cfc61c415b924fbde611c9b0a6b9e", "lon": -77.017525, "lat": 38.872738, "type": "electric_scooter", "fusion_lon": 0.0, "is_reserved": 0, "bike_id": "f37cfc61c415b924fbde611c9b0a6b9e", "fusion_lat": 0.0, "is_disabled": 0, "rental_uris": {"ios": "https://dc.lft.to/lastmile_qr_scan", "android": "https://dc.lft.to/lastmile_qr_scan"}}, {"name": "d65b60087ba98e7fdea7bae00180671b", "lon": -77.0419565, "lat": 38.9187475, "type": "electric_scooter", "fusion_lon": 0.0, "is_reserved": 0, "bike_id": "d65b60087ba98e7fdea7bae00180671b", "fusion_lat": 0.0, "is_disabled": 0, "rental_uris": {"ios": "https://dc.lft.to/lastmile_qr_scan", "android": "https://dc.lft.to/lastmile_qr_scan"}}, {"name": "dd7a9b2464a72669bfba731f2c9b2c1a", "lon": -77.02981033333333, "lat": 38.95196683333333, "type": "electric_scooter", "fusion_lon": 0.0, "is_reserved": 0, "bike_id": "dd7a9b2464a72669bfba731f2c9b2c1a", "fusion_lat": 0.0, "is_disabled": 0, "rental_uris": {"ios": "https://dc.lft.to/lastmile_qr_scan", "android": "https://dc.lft.to/lastmile_qr_scan"}}, {"name": "60506183a553e845dabb3f5c2aaa9426", "lon": -77.04477416666667, "lat": 38.92134433333333, "type": "electric_scooter", "fusion_lon": 0.0, "is_reserved": 0, "bike_id": "60506183a553e845dabb3f5c2aaa9426", "fusion_lat": 0.0, "is_disabled": 0, "rental_uris": {"ios": "https://dc.lft.to/lastmile_qr_scan", "android": "https://dc.lft.to/lastmile_qr_scan"}}, {"name": "cb67a3d3c56f70ebc06f49279c1d564f", "lon": -77.02717266666667, "lat": 38.90907466666667, "type": "electric_scooter", "fusion_lon": 0.0, "is_reserved": 0, "bike_id": "cb67a3d3c56f70ebc06f49279c1d564f", "fusion_lat": 0.0, "is_disabled": 0, "rental_uris": {"ios": "https://dc.lft.to/lastmile_qr_scan", "android": "https://dc.lft.to/lastmile_qr_scan"}}, {"name": "a257afdb8e663a2393cc45f927267b52", "lon": -77.01229516666666, "lat": 38.9169455, "type": "electric_scooter", "fusion_lon": 0.0, "is_reserved": 0, "bike_id": "a257afdb8e663a2393cc45f927267b52", "fusion_lat": 0.0, "is_disabled": 0, "rental_uris": {"ios": "https://dc.lft.to/lastmile_qr_scan", "android": "https://dc.lft.to/lastmile_qr_scan"}}, {"name": "65ce96a36d346e24487f123be1e5454f", "lon": -77.02690633333333, "lat": 38.911369, "type": "electric_scooter", "fusion_lon": 0.0, "is_reserved": 0, "bike_id": "65ce96a36d346e24487f123be1e5454f", "fusion_lat": 0.0, "is_disabled": 0, "rental_uris": {"ios": "https://dc.lft.to/lastmile_qr_scan", "android": "https://dc.lft.to/lastmile_qr_scan"}}, {"name": "33df2eff9fa6f0bd2aa5cc90bf78310f", "lon": -77.03562716666667, "lat": 38.9318715, "type": "electric_bike", "fusion_lon": 0.0, "is_reserved": 0, "bike_id": "33df2eff9fa6f0bd2aa5cc90bf78310f", "fusion_lat": 0.0, "is_disabled": 0, "rental_uris": {"ios": "https://dc.lft.to/lastmile_qr_scan", "android": "https://dc.lft.to/lastmile_qr_scan"}}, {"name": "2bef8ed316cf868de65bb90047f7b7ba", "lon": -76.99937483333333, "lat": 38.905717333333335, "type": "electric_scooter", "fusion_lon": 0.0, "is_reserved": 0, "bike_id": "2bef8ed316cf868de65bb90047f7b7ba", "fusion_lat": 0.0, "is_disabled": 0, "rental_uris": {"ios": "https://dc.lft.to/lastmile_qr_scan", "android": "https://dc.lft.to/lastmile_qr_scan"}}, {"name": "03c4981746b1c1e0c58ed22632f679bd", "lon": -77.025649, "lat": 38.918122833333335, "type": "electric_scooter", "fusion_lon": 0.0, "is_reserved": 0, "bike_id": "03c4981746b1c1e0c58ed22632f679bd", "fusion_lat": 0.0, "is_disabled": 0, "rental_uris": {"ios": "https://dc.lft.to/lastmile_qr_scan", "android": "https://dc.lft.to/lastmile_qr_scan"}}, {"name": "0f4192d30d82d031f128c15cb97eb482", "lon": -76.98504066666666, "lat": 38.88081116666667, "type": "electric_bike", "fusion_lon": 0.0, "is_reserved": 0, "bike_id": "0f4192d30d82d031f128c15cb97eb482", "fusion_lat": 0.0, "is_disabled": 0, "rental_uris": {"ios": "https://dc.lft.to/lastmile_qr_scan", "android": "https://dc.lft.to/lastmile_qr_scan"}}, {"name": "7b9365a42dce99b1290c315fde583fcf", "lon": -77.02513766666667, "lat": 38.907299, "type": "electric_scooter", "fusion_lon": 0.0, "is_reserved": 0, "bike_id": "7b9365a42dce99b1290c315fde583fcf", "fusion_lat": 0.0, "is_disabled": 0, "rental_uris": {"ios": "https://dc.lft.to/lastmile_qr_scan", "android": "https://dc.lft.to/lastmile_qr_scan"}}, {"name": "2a0a4ed64b1530cefce0628445bd51b4", "lon": -77.00375683333333, "lat": 38.87631066666667, "type": "electric_scooter", "fusion_lon": 0.0, "is_reserved": 0, "bike_id": "2a0a4ed64b1530cefce0628445bd51b4", "fusion_lat": 0.0, "is_disabled": 0, "rental_uris": {"ios": "https://dc.lft.to/lastmile_qr_scan", "android": "https://dc.lft.to/lastmile_qr_scan"}}, {"name": "57358f5bbfd6cdadd03abd8bcfe5639d", "lon": -77.02377483333333, "lat": 38.917485, "type": "electric_scooter", "fusion_lon": 0.0, "is_reserved": 0, "bike_id": "57358f5bbfd6cdadd03abd8bcfe5639d", "fusion_lat": 0.0, "is_disabled": 0, "rental_uris": {"ios": "https://dc.lft.to/lastmile_qr_scan", "android": "https://dc.lft.to/lastmile_qr_scan"}}, {"name": "d8d3a8c69e5494b5149dc958c835db19", "lon": -76.9968555, "lat": 38.90046683333333, "type": "electric_scooter", "fusion_lon": 0.0, "is_reserved": 0, "bike_id": "d8d3a8c69e5494b5149dc958c835db19", "fusion_lat": 0.0, "is_disabled": 0, "rental_uris": {"ios": "https://dc.lft.to/lastmile_qr_scan", "android": "https://dc.lft.to/lastmile_qr_scan"}}, {"name": "51e36fdbc8bc341491525bd816840fd2", "lon": -77.037726, "lat": 38.916991333333335, "type": "electric_scooter", "fusion_lon": 0.0, "is_reserved": 0, "bike_id": "51e36fdbc8bc341491525bd816840fd2", "fusion_lat": 0.0, "is_disabled": 0, "rental_uris": {"ios": "https://dc.lft.to/lastmile_qr_scan", "android": "https://dc.lft.to/lastmile_qr_scan"}}, {"name": "8d228620d564999da20a9bdcde8243d5", "lon": -77.03616933333333, "lat": 38.923344, "type": "electric_scooter", "fusion_lon": 0.0, "is_reserved": 0, "bike_id": "8d228620d564999da20a9bdcde8243d5", "fusion_lat": 0.0, "is_disabled": 0, "rental_uris": {"ios": "https://dc.lft.to/lastmile_qr_scan", "android": "https://dc.lft.to/lastmile_qr_scan"}}, {"name": "25c66064846a289efd8051d38adcad51", "lon": -77.05857483333334, "lat": 38.936037, "type": "electric_scooter", "fusion_lon": 0.0, "is_reserved": 0, "bike_id": "25c66064846a289efd8051d38adcad51", "fusion_lat": 0.0, "is_disabled": 0, "rental_uris": {"ios": "https://dc.lft.to/lastmile_qr_scan", "android": "https://dc.lft.to/lastmile_qr_scan"}}, {"name": "a363b51636a2599cfbf783fdebe5756e", "lon": -77.02186483333334, "lat": 38.91985483333333, "type": "electric_scooter", "fusion_lon": 0.0, "is_reserved": 0, "bike_id": "a363b51636a2599cfbf783fdebe5756e", "fusion_lat": 0.0, "is_disabled": 0, "rental_uris": {"ios": "https://dc.lft.to/lastmile_qr_scan", "android": "https://dc.lft.to/lastmile_qr_scan"}}, {"name": "a7701db15b9629a81867c649678116e5", "lon": -77.041873, "lat": 38.91981416666667, "type": "electric_scooter", "fusion_lon": 0.0, "is_reserved": 0, "bike_id": "a7701db15b9629a81867c649678116e5", "fusion_lat": 0.0, "is_disabled": 0, "rental_uris": {"ios": "https://dc.lft.to/lastmile_qr_scan", "android": "https://dc.lft.to/lastmile_qr_scan"}}, {"name": "642ca360cd58e3e5a93c5ffc75036d3a", "lon": -77.05094466666667, "lat": 38.9233725, "type": "electric_scooter", "fusion_lon": 0.0, "is_reserved": 0, "bike_id": "642ca360cd58e3e5a93c5ffc75036d3a", "fusion_lat": 0.0, "is_disabled": 0, "rental_uris": {"ios": "https://dc.lft.to/lastmile_qr_scan", "android": "https://dc.lft.to/lastmile_qr_scan"}}, {"name": "0dcf089769d7d0f88341b8540ef2f1fa", "lon": -77.01815516666667, "lat": 38.9236945, "type": "electric_scooter", "fusion_lon": 0.0, "is_reserved": 0, "bike_id": "0dcf089769d7d0f88341b8540ef2f1fa", "fusion_lat": 0.0, "is_disabled": 0, "rental_uris": {"ios": "https://dc.lft.to/lastmile_qr_scan", "android": "https://dc.lft.to/lastmile_qr_scan"}}, {"name": "20c0594f3eb5210e954fb01917f28578", "lon": -77.03517516666666, "lat": 38.96205483333333, "type": "electric_bike", "fusion_lon": 0.0, "is_reserved": 0, "bike_id": "20c0594f3eb5210e954fb01917f28578", "fusion_lat": 0.0, "is_disabled": 0, "rental_uris": {"ios": "https://dc.lft.to/lastmile_qr_scan", "android": "https://dc.lft.to/lastmile_qr_scan"}}, {"name": "150b132288253bfccf7eee53ab99d9e2", "lon": -77.01534766666667, "lat": 38.887388666666666, "type": "electric_scooter", "fusion_lon": 0.0, "is_reserved": 0, "bike_id": "150b132288253bfccf7eee53ab99d9e2", "fusion_lat": 0.0, "is_disabled": 0, "rental_uris": {"ios": "https://dc.lft.to/lastmile_qr_scan", "android": "https://dc.lft.to/lastmile_qr_scan"}}, {"name": "aaf8679229d8c80e136c2b775289eedd", "lon": -77.045655, "lat": 38.913391833333336, "type": "electric_scooter", "fusion_lon": 0.0, "is_reserved": 0, "bike_id": "aaf8679229d8c80e136c2b775289eedd", "fusion_lat": 0.0, "is_disabled": 0, "rental_uris": {"ios": "https://dc.lft.to/lastmile_qr_scan", "android": "https://dc.lft.to/lastmile_qr_scan"}}, {"name": "72b22e4969cbe65f06798c2d0689cbc1", "lon": -77.03504183333334, "lat": 38.900591166666665, "type": "electric_scooter", "fusion_lon": 0.0, "is_reserved": 0, "bike_id": "72b22e4969cbe65f06798c2d0689cbc1", "fusion_lat": 0.0, "is_disabled": 0, "rental_uris": {"ios": "https://dc.lft.to/lastmile_qr_scan", "android": "https://dc.lft.to/lastmile_qr_scan"}}, {"name": "fc95693de43c9ccfc8f10a0d07760934", "lon": -77.01860716666667, "lat": 38.91491366666666, "type": "electric_scooter", "fusion_lon": 0.0, "is_reserved": 0, "bike_id": "fc95693de43c9ccfc8f10a0d07760934", "fusion_lat": 0.0, "is_disabled": 0, "rental_uris": {"ios": "https://dc.lft.to/lastmile_qr_scan", "android": "https://dc.lft.to/lastmile_qr_scan"}}, {"name": "bf683ad9629acffa31f2aa32c0cd72ed", "lon": -77.0454855, "lat": 38.93412583333333, "type": "electric_scooter", "fusion_lon": 0.0, "is_reserved": 0, "bike_id": "bf683ad9629acffa31f2aa32c0cd72ed", "fusion_lat": 0.0, "is_disabled": 0, "rental_uris": {"ios": "https://dc.lft.to/lastmile_qr_scan", "android": "https://dc.lft.to/lastmile_qr_scan"}}, {"name": "ce59d776048da2290d7e7ca62de685f1", "lon": -77.025072, "lat": 38.90571583333333, "type": "electric_scooter", "fusion_lon": 0.0, "is_reserved": 0, "bike_id": "ce59d776048da2290d7e7ca62de685f1", "fusion_lat": 0.0, "is_disabled": 0, "rental_uris": {"ios": "https://dc.lft.to/lastmile_qr_scan", "android": "https://dc.lft.to/lastmile_qr_scan"}}, {"name": "32880c9f3b2b2061651b12248f57a742", "lon": -77.04744633333334, "lat": 38.916553, "type": "electric_scooter", "fusion_lon": 0.0, "is_reserved": 0, "bike_id": "32880c9f3b2b2061651b12248f57a742", "fusion_lat": 0.0, "is_disabled": 0, "rental_uris": {"ios": "https://dc.lft.to/lastmile_qr_scan", "android": "https://dc.lft.to/lastmile_qr_scan"}}, {"name": "69fca758102b711a9f2c3f598d4f5440", "lon": -77.01916933333334, "lat": 38.92359483333333, "type": "electric_scooter", "fusion_lon": 0.0, "is_reserved": 0, "bike_id": "69fca758102b711a9f2c3f598d4f5440", "fusion_lat": 0.0, "is_disabled": 0, "rental_uris": {"ios": "https://dc.lft.to/lastmile_qr_scan", "android": "https://dc.lft.to/lastmile_qr_scan"}}, {"name": "284a66cadf11f4929ff938e2e20d2567", "lon": -77.05502366666667, "lat": 38.93655583333334, "type": "electric_scooter", "fusion_lon": 0.0, "is_reserved": 0, "bike_id": "284a66cadf11f4929ff938e2e20d2567", "fusion_lat": 0.0, "is_disabled": 0, "rental_uris": {"ios": "https://dc.lft.to/lastmile_qr_scan", "android": "https://dc.lft.to/lastmile_qr_scan"}}, {"name": "9810a77e6ceca466317f3bdfbb289ade", "lon": -77.13143433333333, "lat": 38.86170333333333, "type": "electric_bike", "fusion_lon": 0.0, "is_reserved": 0, "bike_id": "9810a77e6ceca466317f3bdfbb289ade", "fusion_lat": 0.0, "is_disabled": 0, "rental_uris": {"ios": "https://dc.lft.to/lastmile_qr_scan", "android": "https://dc.lft.to/lastmile_qr_scan"}}, {"name": "e7d021de62654a1884b3cfc6bbae54df", "lon": -77.11760283333334, "lat": 39.04911216666667, "type": "electric_bike", "fusion_lon": 0.0, "is_reserved": 0, "bike_id": "e7d021de62654a1884b3cfc6bbae54df", "fusion_lat": 0.0, "is_disabled": 0, "rental_uris": {"ios": "https://dc.lft.to/lastmile_qr_scan", "android": "https://dc.lft.to/lastmile_qr_scan"}}, {"name": "2198906cc3c918e659d42d306b034da3", "lon": -76.97308683333333, "lat": 38.9198995, "type": "electric_scooter", "fusion_lon": 0.0, "is_reserved": 0, "bike_id": "2198906cc3c918e659d42d306b034da3", "fusion_lat": 0.0, "is_disabled": 0, "rental_uris": {"ios": "https://dc.lft.to/lastmile_qr_scan", "android": "https://dc.lft.to/lastmile_qr_scan"}}, {"name": "d43c75e3027041818fc0f568ac5648f8", "lon": -77.02130016666666, "lat": 38.893927, "type": "electric_scooter", "fusion_lon": 0.0, "is_reserved": 0, "bike_id": "d43c75e3027041818fc0f568ac5648f8", "fusion_lat": 0.0, "is_disabled": 0, "rental_uris": {"ios": "https://dc.lft.to/lastmile_qr_scan", "android": "https://dc.lft.to/lastmile_qr_scan"}}, {"name": "22fc08dce4d63729910a1114b451a68d", "lon": -77.0513405, "lat": 38.90393133333333, "type": "electric_scooter", "fusion_lon": 0.0, "is_reserved": 0, "bike_id": "22fc08dce4d63729910a1114b451a68d", "fusion_lat": 0.0, "is_disabled": 0, "rental_uris": {"ios": "https://dc.lft.to/lastmile_qr_scan", "android": "https://dc.lft.to/lastmile_qr_scan"}}, {"name": "f5a32f1f5acd376cc166d7fbc895bdc6", "lon": -77.031025, "lat": 38.894651333333336, "type": "electric_scooter", "fusion_lon": 0.0, "is_reserved": 0, "bike_id": "f5a32f1f5acd376cc166d7fbc895bdc6", "fusion_lat": 0.0, "is_disabled": 0, "rental_uris": {"ios": "https://dc.lft.to/lastmile_qr_scan", "android": "https://dc.lft.to/lastmile_qr_scan"}}, {"name": "2e08a8f23abcf89a493745f81f9f23b9", "lon": -77.043094, "lat": 38.881088166666665, "type": "electric_scooter", "fusion_lon": 0.0, "is_reserved": 0, "bike_id": "2e08a8f23abcf89a493745f81f9f23b9", "fusion_lat": 0.0, "is_disabled": 0, "rental_uris": {"ios": "https://dc.lft.to/lastmile_qr_scan", "android": "https://dc.lft.to/lastmile_qr_scan"}}, {"name": "f4ad730342f88cfadb34dd4e70bf2c67", "lon": -77.04497133333334, "lat": 38.90370933333333, "type": "electric_scooter", "fusion_lon": 0.0, "is_reserved": 0, "bike_id": "f4ad730342f88cfadb34dd4e70bf2c67", "fusion_lat": 0.0, "is_disabled": 0, "rental_uris": {"ios": "https://dc.lft.to/lastmile_qr_scan", "android": "https://dc.lft.to/lastmile_qr_scan"}}, {"name": "f59b5abc53f630216096f568153b4047", "lon": -77.04107916666666, "lat": 38.91698183333333, "type": "electric_scooter", "fusion_lon": 0.0, "is_reserved": 0, "bike_id": "f59b5abc53f630216096f568153b4047", "fusion_lat": 0.0, "is_disabled": 0, "rental_uris": {"ios": "https://dc.lft.to/lastmile_qr_scan", "android": "https://dc.lft.to/lastmile_qr_scan"}}, {"name": "abf9a2cd696725b47f6671f7ab21fd15", "lon": -76.99613916666667, "lat": 38.884950333333336, "type": "electric_scooter", "fusion_lon": 0.0, "is_reserved": 0, "bike_id": "abf9a2cd696725b47f6671f7ab21fd15", "fusion_lat": 0.0, "is_disabled": 0, "rental_uris": {"ios": "https://dc.lft.to/lastmile_qr_scan", "android": "https://dc.lft.to/lastmile_qr_scan"}}, {"name": "90ce924945edcce2db020f6c5868ac23", "lon": -77.02617483333333, "lat": 38.9170925, "type": "electric_scooter", "fusion_lon": 0.0, "is_reserved": 0, "bike_id": "90ce924945edcce2db020f6c5868ac23", "fusion_lat": 0.0, "is_disabled": 0, "rental_uris": {"ios": "https://dc.lft.to/lastmile_qr_scan", "android": "https://dc.lft.to/lastmile_qr_scan"}}, {"name": "f9d30fab8ee05cc5377aa964d580bec1", "lon": -77.01133383333334, "lat": 38.885245833333336, "type": "electric_scooter", "fusion_lon": 0.0, "is_reserved": 0, "bike_id": "f9d30fab8ee05cc5377aa964d580bec1", "fusion_lat": 0.0, "is_disabled": 0, "rental_uris": {"ios": "https://dc.lft.to/lastmile_qr_scan", "android": "https://dc.lft.to/lastmile_qr_scan"}}, {"name": "dbd0dcf7f8d88c876c1999fcd82b65be", "lon": -76.9718485, "lat": 38.917874, "type": "electric_bike", "fusion_lon": 0.0, "is_reserved": 0, "bike_id": "dbd0dcf7f8d88c876c1999fcd82b65be", "fusion_lat": 0.0, "is_disabled": 0, "rental_uris": {"ios": "https://dc.lft.to/lastmile_qr_scan", "android": "https://dc.lft.to/lastmile_qr_scan"}}, {"name": "5cec5534262935505e12dfe32f583413", "lon": -77.021718, "lat": 38.94292, "type": "electric_scooter", "fusion_lon": 0.0, "is_reserved": 0, "bike_id": "5cec5534262935505e12dfe32f583413", "fusion_lat": 0.0, "is_disabled": 0, "rental_uris": {"ios": "https://dc.lft.to/lastmile_qr_scan", "android": "https://dc.lft.to/lastmile_qr_scan"}}, {"name": "5216d9b55d3a52f01f713162bdfc68b5", "lon": -76.950168, "lat": 38.893898166666666, "type": "electric_scooter", "fusion_lon": 0.0, "is_reserved": 0, "bike_id": "5216d9b55d3a52f01f713162bdfc68b5", "fusion_lat": 0.0, "is_disabled": 0, "rental_uris": {"ios": "https://dc.lft.to/lastmile_qr_scan", "android": "https://dc.lft.to/lastmile_qr_scan"}}, {"name": "13df655ad0a646189ebe6f1805adf840", "lon": -77.0412585, "lat": 38.92315716666667, "type": "electric_scooter", "fusion_lon": 0.0, "is_reserved": 0, "bike_id": "13df655ad0a646189ebe6f1805adf840", "fusion_lat": 0.0, "is_disabled": 0, "rental_uris": {"ios": "https://dc.lft.to/lastmile_qr_scan", "android": "https://dc.lft.to/lastmile_qr_scan"}}, {"name": "49c0d198a6c4ab6691a4983bf8b88792", "lon": -76.98825066666667, "lat": 38.90031033333333, "type": "electric_scooter", "fusion_lon": 0.0, "is_reserved": 0, "bike_id": "49c0d198a6c4ab6691a4983bf8b88792", "fusion_lat": 0.0, "is_disabled": 0, "rental_uris": {"ios": "https://dc.lft.to/lastmile_qr_scan", "android": "https://dc.lft.to/lastmile_qr_scan"}}, {"name": "ba45acdf90fad914d855e2818e7d77c6", "lon": -77.02533316666667, "lat": 38.90628, "type": "electric_scooter", "fusion_lon": 0.0, "is_reserved": 0, "bike_id": "ba45acdf90fad914d855e2818e7d77c6", "fusion_lat": 0.0, "is_disabled": 0, "rental_uris": {"ios": "https://dc.lft.to/lastmile_qr_scan", "android": "https://dc.lft.to/lastmile_qr_scan"}}, {"name": "92c5a70b6d62d63b0ed9fda16d8e05fe", "lon": -77.02979766666667, "lat": 38.91553783333333, "type": "electric_scooter", "fusion_lon": 0.0, "is_reserved": 0, "bike_id": "92c5a70b6d62d63b0ed9fda16d8e05fe", "fusion_lat": 0.0, "is_disabled": 0, "rental_uris": {"ios": "https://dc.lft.to/lastmile_qr_scan", "android": "https://dc.lft.to/lastmile_qr_scan"}}, {"name": "a928b403f22dcbb639464026934f2bdb", "lon": -77.0272375, "lat": 38.94082016666667, "type": "electric_scooter", "fusion_lon": 0.0, "is_reserved": 0, "bike_id": "a928b403f22dcbb639464026934f2bdb", "fusion_lat": 0.0, "is_disabled": 0, "rental_uris": {"ios": "https://dc.lft.to/lastmile_qr_scan", "android": "https://dc.lft.to/lastmile_qr_scan"}}, {"name": "68433171fbe3710cb75f3531aa014d5b", "lon": -77.034091, "lat": 38.92038816666667, "type": "electric_scooter", "fusion_lon": 0.0, "is_reserved": 0, "bike_id": "68433171fbe3710cb75f3531aa014d5b", "fusion_lat": 0.0, "is_disabled": 0, "rental_uris": {"ios": "https://dc.lft.to/lastmile_qr_scan", "android": "https://dc.lft.to/lastmile_qr_scan"}}, {"name": "9bbe415c9bca9ccf7f53aea1b6f85483", "lon": -77.0257095, "lat": 38.914123833333335, "type": "electric_scooter", "fusion_lon": 0.0, "is_reserved": 0, "bike_id": "9bbe415c9bca9ccf7f53aea1b6f85483", "fusion_lat": 0.0, "is_disabled": 0, "rental_uris": {"ios": "https://dc.lft.to/lastmile_qr_scan", "android": "https://dc.lft.to/lastmile_qr_scan"}}, {"name": "5be55580b937763337444dfb769edea5", "lon": -77.02486683333333, "lat": 38.92753733333333, "type": "electric_scooter", "fusion_lon": 0.0, "is_reserved": 0, "bike_id": "5be55580b937763337444dfb769edea5", "fusion_lat": 0.0, "is_disabled": 0, "rental_uris": {"ios": "https://dc.lft.to/lastmile_qr_scan", "android": "https://dc.lft.to/lastmile_qr_scan"}}, {"name": "43ec458d8ea3e79d5f7d3f35817ce260", "lon": -77.03301516666667, "lat": 38.916198, "type": "electric_scooter", "fusion_lon": 0.0, "is_reserved": 0, "bike_id": "43ec458d8ea3e79d5f7d3f35817ce260", "fusion_lat": 0.0, "is_disabled": 0, "rental_uris": {"ios": "https://dc.lft.to/lastmile_qr_scan", "android": "https://dc.lft.to/lastmile_qr_scan"}}, {"name": "a7354efd0e48a194eac0e846486c427a", "lon": -77.05763483333334, "lat": 38.9249, "type": "electric_bike", "fusion_lon": 0.0, "is_reserved": 0, "bike_id": "a7354efd0e48a194eac0e846486c427a", "fusion_lat": 0.0, "is_disabled": 0, "rental_uris": {"ios": "https://dc.lft.to/lastmile_qr_scan", "android": "https://dc.lft.to/lastmile_qr_scan"}}, {"name": "cd7da58dcf590470c3585aaa001a8751", "lon": -77.100956, "lat": 38.959522666666665, "type": "electric_bike", "fusion_lon": 0.0, "is_reserved": 0, "bike_id": "cd7da58dcf590470c3585aaa001a8751", "fusion_lat": 0.0, "is_disabled": 0, "rental_uris": {"ios": "https://dc.lft.to/lastmile_qr_scan", "android": "https://dc.lft.to/lastmile_qr_scan"}}, {"name": "4121726b4e265fe06a35db6687b360a4", "lon": -77.03155933333333, "lat": 38.91176266666667, "type": "electric_scooter", "fusion_lon": 0.0, "is_reserved": 0, "bike_id": "4121726b4e265fe06a35db6687b360a4", "fusion_lat": 0.0, "is_disabled": 0, "rental_uris": {"ios": "https://dc.lft.to/lastmile_qr_scan", "android": "https://dc.lft.to/lastmile_qr_scan"}}, {"name": "9d93b2c8a49ab87d48b50be2b7dabdbd", "lon": -77.03779983333334, "lat": 38.91700516666667, "type": "electric_scooter", "fusion_lon": 0.0, "is_reserved": 0, "bike_id": "9d93b2c8a49ab87d48b50be2b7dabdbd", "fusion_lat": 0.0, "is_disabled": 0, "rental_uris": {"ios": "https://dc.lft.to/lastmile_qr_scan", "android": "https://dc.lft.to/lastmile_qr_scan"}}, {"name": "80a5744381e61d9a2ac6c811092f6a82", "lon": -77.03368316666666, "lat": 38.928534, "type": "electric_scooter", "fusion_lon": 0.0, "is_reserved": 0, "bike_id": "80a5744381e61d9a2ac6c811092f6a82", "fusion_lat": 0.0, "is_disabled": 0, "rental_uris": {"ios": "https://dc.lft.to/lastmile_qr_scan", "android": "https://dc.lft.to/lastmile_qr_scan"}}, {"name": "036af277b82c0b9c7bc08ed07dc9b915", "lon": -76.99994283333334, "lat": 38.900302, "type": "electric_scooter", "fusion_lon": 0.0, "is_reserved": 0, "bike_id": "036af277b82c0b9c7bc08ed07dc9b915", "fusion_lat": 0.0, "is_disabled": 0, "rental_uris": {"ios": "https://dc.lft.to/lastmile_qr_scan", "android": "https://dc.lft.to/lastmile_qr_scan"}}, {"name": "a746e1c70787aec500616ce52edb1db6", "lon": -77.03781716666667, "lat": 38.924784833333334, "type": "electric_scooter", "fusion_lon": 0.0, "is_reserved": 0, "bike_id": "a746e1c70787aec500616ce52edb1db6", "fusion_lat": 0.0, "is_disabled": 0, "rental_uris": {"ios": "https://dc.lft.to/lastmile_qr_scan", "android": "https://dc.lft.to/lastmile_qr_scan"}}, {"name": "2e2f2bcd676f331af56ffa91bc95326e", "lon": -77.0381225, "lat": 38.925011833333336, "type": "electric_scooter", "fusion_lon": 0.0, "is_reserved": 0, "bike_id": "2e2f2bcd676f331af56ffa91bc95326e", "fusion_lat": 0.0, "is_disabled": 0, "rental_uris": {"ios": "https://dc.lft.to/lastmile_qr_scan", "android": "https://dc.lft.to/lastmile_qr_scan"}}, {"name": "7a1b450e126c555de1c567903eb17f6e", "lon": -77.03607166666667, "lat": 38.927997, "type": "electric_scooter", "fusion_lon": 0.0, "is_reserved": 0, "bike_id": "7a1b450e126c555de1c567903eb17f6e", "fusion_lat": 0.0, "is_disabled": 0, "rental_uris": {"ios": "https://dc.lft.to/lastmile_qr_scan", "android": "https://dc.lft.to/lastmile_qr_scan"}},