{"data": {"bikes": [{"name": "f9a893ea5182756ca1c21656eeb44fea", "lon": -77.027696, "lat": 38.904280666666665, "type": "electric_bike", "fusion_lon": 0.0, "is_reserved": 0, "bike_id": "f9a893ea5182756ca1c21656eeb44fea", "fusion_lat": 0.0, "is_disabled": 0, "rental_uris": {"ios": "https://dc.lft.to/lastmile_qr_scan", "android": "https://dc.lft.to/lastmile_qr_scan"}}, {"name": "f3833c7b7d20bc1443b3548e7cf98e42", "lon": -77.04027466666666, "lat": 38.9235715, "type": "electric_scooter", "fusion_lon": 0.0, "is_reserved": 0, "bike_id": "f3833c7b7d20bc1443b3548e7cf98e42", "fusion_lat": 0.0, "is_disabled": 0, "rental_uris": {"ios": "https://dc.lft.to/lastmile_qr_scan", "android": "https://dc.lft.to/lastmile_qr_scan"}}, {"name": "f7752bbf66a3b91197b52173fb6a125e", "lon": -77.03823983333334, "lat": 38.9036315, "type": "electric_scooter", "fusion_lon": 0.0, "is_reserved": 0, "bike_id": "f7752bbf66a3b91197b52173fb6a125e", "fusion_lat": 0.0, "is_disabled": 0, "rental_uris": {"ios": "https://dc.lft.to/lastmile_qr_scan", "android": "https://dc.lft.to/lastmile_qr_scan"}}, {"name": "e4989eb4697283a014c99ad5969a17ce", "lon": -77.002632, "lat": 38.9224075, "type": "electric_scooter", "fusion_lon": 0.0, "is_reserved": 0, "bike_id": "e4989eb4697283a014c99ad5969a17ce", "fusion_lat": 0.0, "is_disabled": 0, "rental_uris": {"ios": "https://dc.lft.to/lastmile_qr_scan", "android": "https://dc.lft.to/lastmile_qr_scan"}}, {"name": "6cfbf3bfd5c44e50f2fc1b892c15ea2d", "lon": -77.02436016666667, "lat": 38.909674833333334, "type": "electric_scooter", "fusion_lon": 0.0, "is_reserved": 0, "bike_id": "6cfbf3bfd5c44e50f2fc1b892c15ea2d", "fusion_lat": 0.0, "is_disabled": 0, "rental_uris": {"ios": "https://dc.lft.to/lastmile_qr_scan", "android": "https://dc.lft.to/lastmile_qr_scan"}}, {"name": "2a191a081e6886976ad9218318d6d147", "lon": -77.00889966666666, "lat": 38.92486016666667, "type": "electric_scooter", "fusion_lon": 0.0, "is_reserved": 0, "bike_id": "2a191a081e6886976ad9218318d6d147", "fusion_lat": 0.0, "is_disabled": 0, "rental_uris": {"ios": "https://dc.lft.to/lastmile_qr_scan", "android": "https://dc.lft.to/lastmile_qr_scan"}}, {"name": "c7d99f07e57275e205a2951f25dc29ef", "lon": -77.0714895, "lat": 38.920384166666665, "type": "electric_scooter", "fusion_lon": 0.0, "is_reserved": 0, "bike_id": "c7d99f07e57275e205a2951f25dc29ef", "fusion_lat": 0.0, "is_disabled": 0, "rental_uris": {"ios": "https://dc.lft.to/lastmile_qr_scan", "android": "https://dc.lft.to/lastmile_qr_scan"}}, {"name": "d060561bed97a7d51b2adb3506fac277", "lon": -76.99448416666667, "lat": 38.908212, "type": "electric_scooter", "fusion_lon": 0.0, "is_reserved": 0, "bike_id": "d060561bed97a7d51b2adb3506fac277", "fusion_lat": 0.0, "is_disabled": 0, "rental_uris": {"ios": "https://dc.lft.to/lastmile_qr_scan", "android": "https://dc.lft.to/lastmile_qr_scan"}}, {"name": "4b4700e477ea114e547c0136f9f2b909", "lon": -77.03019883333333, "lat": 38.931022166666665, "type": "electric_scooter", "fusion_lon": 0.0, "is_reserved": 0, "bike_id": "4b4700e477ea114e547c0136f9f2b909", "fusion_lat": 0.0, "is_disabled": 0, "rental_uris": {"ios": "https://dc.lft.to/lastmile_qr_scan", "android": "https://dc.lft.to/lastmile_qr_scan"}}, {"name": "dad7f8a7a07f3896967cc55aaaf5e177", "lon": -77.03996616666667, "lat": 38.914149, "type": "electric_scooter", "fusion_lon": 0.0, "is_reserved": 0, "bike_id": "dad7f8a7a07f3896967cc55aaaf5e177", "fusion_lat": 0.0, "is_disabled": 0, "rental_uris": {"ios": "https://dc.lft.to/lastmile_qr_scan", "android": "https://dc.lft.to/lastmile_qr_scan"}}, {"name": "906deaf3b61300fc2b8bf2be03904910", "lon": -76.99806433333333, "lat": 38.9085035, "type": "electric_scooter", "fusion_lon": 0.0, "is_reserved": 0, "bike_id": "906deaf3b61300fc2b8bf2be03904910", "fusion_lat": 0.0, "is_disabled": 0, "rental_uris": {"ios": "https://dc.lft.to/lastmile_qr_scan", "android": "https://dc.lft.to/lastmile_qr_scan"}}, {"name": "1524e3beb296acd499c7d52f3aab3bbb", "lon": -76.990644, "lat": 38.863544833333336, "type": "electric_scooter", "fusion_lon": 0.0, "is_reserved": 0, "bike_id": "1524e3beb296acd499c7d52f3aab3bbb", "fusion_lat": 0.0, "is_disabled": 0, "rental_uris": {"ios": "https://dc.lft.to/lastmile_qr_scan", "android": "https://dc.lft.to/lastmile_qr_scan"}}, {"name": "170f748c6d58291138d66e0cc100588c", "lon": -77.03012533333333, "lat": 38.9049465, "type": "electric_scooter", "fusion_lon": 0.0, "is_reserved": 0, "bike_id": "170f748c6d58291138d66e0cc100588c", "fusion_lat": 0.0, "is_disabled": 0, "rental_uris": {"ios": "https://dc.lft.to/lastmile_qr_scan", "android": "https://dc.lft.to/lastmile_qr_scan"}}, {"name": "10cd0751c9903bec7a583c9308833c39", "lon": -77.043342, "lat": 38.895224166666665, "type": "electric_scooter", "fusion_lon": 0.0, "is_reserved": 0, "bike_id": "10cd0751c9903bec7a583c9308833c39", "fusion_lat": 0.0, "is_disabled": 0, "rental_uris": {"ios": "https://dc.lft.to/lastmile_qr_scan", "android": "https://dc.lft.to/lastmile_qr_scan"}}, {"name": "c5dc3dde69ada471c81a7571da0a4313", "lon": -76.98147216666666, "lat": 38.92257933333333, "type": "electric_bike", "fusion_lon": 0.0, "is_reserved": 0, "bike_id": "c5dc3dde69ada471c81a7571da0a4313", "fusion_lat": 0.0, "is_disabled": 0, "rental_uris": {"ios": "https://dc.lft.to/lastmile_qr_scan", "android": "https://dc.lft.to/lastmile_qr_scan"}}, {"name": "c95dd986298eea196c44077e1438e201", "lon": -76.99406733333333, "lat": 38.92093633333333, "type": "electric_scooter", "fusion_lon": 0.0, "is_reserved": 0, "bike_id": "c95dd986298eea196c44077e1438e201", "fusion_lat": 0.0, "is_disabled": 0, "rental_uris": {"ios": "https://dc.lft.to/lastmile_qr_scan", "android": "https://dc.lft.to/lastmile_qr_scan"}}, {"name": "7ead5b0bb1d962b30fa9a46ad2faf378", "lon": -77.04926483333334, "lat": 39.029293333333335, "type": "electric_bike", "fusion_lon": 0.0, "is_reserved": 0, "bike_id": "7ead5b0bb1d962b30fa9a46ad2faf378", "fusion_lat": 0.0, "is_disabled": 0, "rental_uris": {"ios": "https://dc.lft.to/lastmile_qr_scan", "android": "https://dc.lft.to/lastmile_qr_scan"}}, {"name": "5da22faf9392a12834e3a0b076ffc99a", "lon": -77.04340466666666, "lat": 38.90808216666667, "type": "electric_scooter", "fusion_lon": 0.0, "is_reserved": 0, "bike_id": "5da22faf9392a12834e3a0b076ffc99a", "fusion_lat": 0.0, "is_disabled": 0, "rental_uris": {"ios": "https://dc.lft.to/lastmile_qr_scan", "android": "https://dc.lft.to/lastmile_qr_scan"}}, {"name": "f505452318e49baa194bb5f10ab9ba0d", "lon": -77.04429483333334, "lat": 38.92126183333333, "type": "electric_scooter", "fusion_lon": 0.0, "is_reserved": 0, "bike_id": "f505452318e49baa194bb5f10ab9ba0d", "fusion_lat": 0.0, "is_disabled": 0, "rental_uris": {"ios": "https://dc.lft.to/lastmile_qr_scan", "android": "https://dc.lft.to/lastmile_qr_scan"}}, {"name": "58116d72d39e9061591b4961e4f5f2d2", "lon": -77.02729733333334, "lat": 38.915617833333336, "type": "electric_scooter", "fusion_lon": 0.0, "is_reserved": 0, "bike_id": "58116d72d39e9061591b4961e4f5f2d2", "fusion_lat": 0.0, "is_disabled": 0, "rental_uris": {"ios": "https://dc.lft.to/lastmile_qr_scan", "android": "https://dc.lft.to/lastmile_qr_scan"}}, {"name": "ac17fc58aa374b7430aad9be6ae3e2d5", "lon": -76.9646755, "lat": 38.93446566666667, "type": "electric_scooter", "fusion_lon": 0.0, "is_reserved": 0, "bike_id": "ac17fc58aa374b7430aad9be6ae3e2d5", "fusion_lat": 0.0, "is_disabled": 0, "rental_uris": {"ios": "https://dc.lft.to/lastmile_qr_scan", "android": "https://dc.lft.to/lastmile_qr_scan"}}, {"name": "8dc5841b7a45e53c10e1b29890618672", "lon": -77.02370466666666, "lat": 38.87927033333333, "type": "electric_scooter", "fusion_lon": 0.0, "is_reserved": 0, "bike_id": "8dc5841b7a45e53c10e1b29890618672", "fusion_lat": 0.0, "is_disabled": 0, "rental_uris": {"ios": "https://dc.lft.to/lastmile_qr_scan", "android": "https://dc.lft.to/lastmile_qr_scan"}}, {"name": "f27a2eef3e81375c88fc8f3a981952d6", "lon": -77.0221855, "lat": 38.9056615, "type": "electric_scooter", "fusion_lon": 0.0, "is_reserved": 0, "bike_id": "f27a2eef3e81375c88fc8f3a981952d6", "fusion_lat": 0.0, "is_disabled": 0, "rental_uris": {"ios": "https://dc.lft.to/lastmile_qr_scan", "android": "https://dc.lft.to/lastmile_qr_scan"}}, {"name": "d1b253af93083c0be8b2e3ae5682b3c8", "lon": -77.02193266666667, "lat": 38.89973616666666, "type": "electric_scooter", "fusion_lon": 0.0, "is_reserved": 0, "bike_id": "d1b253af93083c0be8b2e3ae5682b3c8", "fusion_lat": 0.0, "is_disabled": 0, "rental_uris": {"ios": "https://dc.lft.to/lastmile_qr_scan", "android": "https://dc.lft.to/lastmile_qr_scan"}}, {"name": "2332e5ff69dc76cd623960cf1251daa8", "lon": -77.03642166666667, "lat": 38.90382116666667, "type": "electric_scooter", "fusion_lon": 0.0, "is_reserved": 0, "bike_id": "2332e5ff69dc76cd623960cf1251daa8", "fusion_lat": 0.0, "is_disabled": 0, "rental_uris": {"ios": "https://dc.lft.to/lastmile_qr_scan", "android": "https://dc.lft.to/lastmile_qr_scan"}}, {"name": "f7dfbd6817a50b8a14f7c5f993dc420c", "lon": -77.02889333333333, "lat": 38.913307333333336, "type": "electric_scooter", "fusion_lon": 0.0, "is_reserved": 0, "bike_id": "f7dfbd6817a50b8a14f7c5f993dc420c", "fusion_lat": 0.0, "is_disabled": 0, "rental_uris": {"ios": "https://dc.lft.to/lastmile_qr_scan", "android": "https://dc.lft.to/lastmile_qr_scan"}}, {"name": "2702aa47a3a0d37fdc352c184efdb58f", "lon": -77.024333, "lat": 38.93741816666667, "type": "electric_scooter", "fusion_lon": 0.0, "is_reserved": 0, "bike_id": "2702aa47a3a0d37fdc352c184efdb58f", "fusion_lat": 0.0, "is_disabled": 0, "rental_uris": {"ios": "https://dc.lft.to/lastmile_qr_scan", "android": "https://dc.lft.to/lastmile_qr_scan"}}, {"name": "b31c1451918bdf0cf8dd8f325f86867f", "lon": -77.08594533333333, "lat": 38.90864933333334, "type": "electric_scooter", "fusion_lon": 0.0, "is_reserved": 0, "bike_id": "b31c1451918bdf0cf8dd8f325f86867f", "fusion_lat": 0.0, "is_disabled": 0, "rental_uris": {"ios": "https://dc.lft.to/lastmile_qr_scan", "android": "https://dc.lft.to/lastmile_qr_scan"}}, {"name": "0ab4dbe8f94d9d6494bbf3f42a44aaca", "lon": -77.0337775, "lat": 38.910403, "type": "electric_scooter", "fusion_lon": 0.0, "is_reserved": 0, "bike_id": "0ab4dbe8f94d9d6494bbf3f42a44aaca", "fusion_lat": 0.0, "is_disabled": 0, "rental_uris": {"ios": "https://dc.lft.to/lastmile_qr_scan", "android": "https://dc.lft.to/lastmile_qr_scan"}}, {"name": "446de17d5bde782d14b1f8b7c22953a5", "lon": -76.99942333333334, "lat": 38.84287233333333, "type": "electric_scooter", "fusion_lon": 0.0, "is_reserved": 0, "bike_id": "446de17d5bde782d14b1f8b7c22953a5", "fusion_lat": 0.0, "is_disabled": 0, "rental_uris": {"ios": "https://dc.lft.to/lastmile_qr_scan", "android": "https://dc.lft.to/lastmile_qr_scan"}}, {"name": "5b532ebe3edb6db2f5332105f56f87ea", "lon": -77.04332866666667, "lat": 38.895214333333335, "type": "electric_scooter", "fusion_lon": 0.0, "is_reserved": 0, "bike_id": "5b532ebe3edb6db2f5332105f56f87ea", "fusion_lat": 0.0, "is_disabled": 0, "rental_uris": {"ios": "https://dc.lft.to/lastmile_qr_scan", "android": "https://dc.lft.to/lastmile_qr_scan"}}, {"name": "38f035f6a098616a25daa25677d76337", "lon": -76.9501555, "lat": 38.893864, "type": "electric_scooter", "fusion_lon": 0.0, "is_reserved": 0, "bike_id": "38f035f6a098616a25daa25677d76337", "fusion_lat": 0.0, "is_disabled": 0, "rental_uris": {"ios": "https://dc.lft.to/lastmile_qr_scan", "android": "https://dc.lft.to/lastmile_qr_scan"}}, {"name": "d78a795e757d19e3165c5cc159be7679", "lon": -77.0335555, "lat": 38.88618816666666, "type": "electric_scooter", "fusion_lon": 0.0, "is_reserved": 0, "bike_id": "d78a795e757d19e3165c5cc159be7679", "fusion_lat": 0.0, "is_disabled": 0, "rental_uris": {"ios": "https://dc.lft.to/lastmile_qr_scan", "android": "https://dc.lft.to/lastmile_qr_scan"}}, {"name": "0fe978d9a89dab41e275c6002c5744c9", "lon": -77.02726166666666, "lat": 38.927631, "type": "electric_scooter", "fusion_lon": 0.0, "is_reserved": 0, "bike_id": "0fe978d9a89dab41e275c6002c5744c9", "fusion_lat": 0.0, "is_disabled": 0, "rental_uris": {"ios": "https://dc.lft.to/lastmile_qr_scan", "android": "https://dc.lft.to/lastmile_qr_scan"}}, {"name": "79c721e749b15eec2be3748e3809019f", "lon": -77.025045, "lat": 38.91974866666666, "type": "electric_scooter", "fusion_lon": 0.0, "is_reserved": 0, "bike_id": "79c721e749b15eec2be3748e3809019f", "fusion_lat": 0.0, "is_disabled": 0, "rental_uris": {"ios": "https://dc.lft.to/lastmile_qr_scan", "android": "https://dc.lft.to/lastmile_qr_scan"}}, {"name": "6ae28a0db6e4070d181d046cde276b5d", "lon": -77.02424333333333, "lat": 38.95622483333333, "type": "electric_scooter", "fusion_lon": 0.0, "is_reserved": 0, "bike_id": "6ae28a0db6e4070d181d046cde276b5d", "fusion_lat": 0.0, "is_disabled": 0, "rental_uris": {"ios": "https://dc.lft.to/lastmile_qr_scan", "android": "https://dc.lft.to/lastmile_qr_scan"}}, {"name": "07a28181acb1fe215dba833267c6fb2e", "lon": -77.0432675, "lat": 38.908008, "type": "electric_scooter", "fusion_lon": 0.0, "is_reserved": 0, "bike_id": "07a28181acb1fe215dba833267c6fb2e", "fusion_lat": 0.0, "is_disabled": 0, "rental_uris": {"ios": "https://dc.lft.to/lastmile_qr_scan", "android": "https://dc.lft.to/lastmile_qr_scan"}}, {"name": "af811601a651347dda112597b1c27e14", "lon": -77.03049266666666, "lat": 38.884158, "type": "electric_scooter", "fusion_lon": 0.0, "is_reserved": 0, "bike_id": "af811601a651347dda112597b1c27e14", "fusion_lat": 0.0, "is_disabled": 0, "rental_uris": {"ios": "https://dc.lft.to/lastmile_qr_scan", "android": "https://dc.lft.to/lastmile_qr_scan"}}, {"name": "695eb2b53dbeb0170fb056209544d8bc", "lon": -77.03192266666667, "lat": 38.90885183333333, "type": "electric_scooter", "fusion_lon": 0.0, "is_reserved": 0, "bike_id": "695eb2b53dbeb0170fb056209544d8bc", "fusion_lat": 0.0, "is_disabled": 0, "rental_uris": {"ios": "https://dc.lft.to/lastmile_qr_scan", "android": "https://dc.lft.to/lastmile_qr_scan"}}, {"name": "3eeb989174a5e5f004bbd760681c98b1", "lon": -77.034736, "lat": 38.92537166666666, "type": "electric_scooter", "fusion_lon": 0.0, "is_reserved": 0, "bike_id": "3eeb989174a5e5f004bbd760681c98b1", "fusion_lat": 0.0, "is_disabled": 0, "rental_uris": {"ios": "https://dc.lft.to/lastmile_qr_scan", "android": "https://dc.lft.to/lastmile_qr_scan"}}, {"name": "fd87903e3f41e3278109296b934305af", "lon": -77.0259605, "lat": 38.91693383333333, "type": "electric_scooter", "fusion_lon": 0.0, "is_reserved": 0, "bike_id": "fd87903e3f41e3278109296b934305af", "fusion_lat": 0.0, "is_disabled": 0, "rental_uris": {"ios": "https://dc.lft.to/lastmile_qr_scan", "android": "https://dc.lft.to/lastmile_qr_scan"}}, {"name": "8b232e60c7ae9712df3a40a810f525eb", "lon": -77.02960133333333, "lat": 38.8962155, "type": "electric_scooter", "fusion_lon": 0.0, "is_reserved": 0, "bike_id": "8b232e60c7ae9712df3a40a810f525eb", "fusion_lat": 0.0, "is_disabled": 0, "rental_uris": {"ios": "https://dc.lft.to/lastmile_qr_scan", "android": "https://dc.lft.to/lastmile_qr_scan"}}, {"name": "320f803b21f331ea4c052c62c936d578", "lon": -77.0479225, "lat": 38.9187495, "type": "electric_scooter", "fusion_lon": 0.0, "is_reserved": 0, "bike_id": "320f803b21f331ea4c052c62c936d578", "fusion_lat": 0.0, "is_disabled": 0, "rental_uris": {"ios": "https://dc.lft.to/lastmile_qr_scan", "android": "https://dc.lft.to/lastmile_qr_scan"}}, {"name": "f2b216eccfe4767a237694d7187e7edc", "lon": -76.932638, "lat": 38.898919166666666, "type": "electric_scooter", "fusion_lon": 0.0, "is_reserved": 0, "bike_id": "f2b216eccfe4767a237694d7187e7edc", "fusion_lat": 0.0, "is_disabled": 0, "rental_uris": {"ios": "https://dc.lft.to/lastmile_qr_scan", "android": "https://dc.lft.to/lastmile_qr_scan"}}, {"name": "469a9b6e226755287d05c7f3c32c0ae2", "lon": -77.05727433333334, "lat": 38.924279166666665, "type": "electric_scooter", "fusion_lon": 0.0, "is_reserved": 0, "bike_id": "469a9b6e226755287d05c7f3c32c0ae2", "fusion_lat": 0.0, "is_disabled": 0, "rental_uris": {"ios": "https://dc.lft.to/lastmile_qr_scan", "android": "https://dc.lft.to/lastmile_qr_scan"}}, {"name": "6aeaad5de09b89ec15f430afccefb556", "lon": -77.06981116666667, "lat": 38.953027666666664, "type": "electric_scooter", "fusion_lon": 0.0, "is_reserved": 0, "bike_id": "6aeaad5de09b89ec15f430afccefb556", "fusion_lat": 0.0, "is_disabled": 0, "rental_uris": {"ios": "https://dc.lft.to/lastmile_qr_scan", "android": "https://dc.lft.to/lastmile_qr_scan"}}, {"name": "e6f53fa2b81d9bbb54ce9b0e8db83c37", "lon": -77.01362533333334, "lat": 38.8637055, "type": "electric_bike", "fusion_lon": 0.0, "is_reserved": 0, "bike_id": "e6f53fa2b81d9bbb54ce9b0e8db83c37", "fusion_lat": 0.0, "is_disabled": 0, "rental_uris": {"ios": "https://dc.lft.to/lastmile_qr_scan", "android": "https://dc.lft.to/lastmile_qr_scan"}}, {"name": "0d796ae586d2f2b7ff0ac259945fe6e0", "lon": -77.0136235, "lat": 38.8870725, "type": "electric_scooter", "fusion_lon": 0.0, "is_reserved": 0, "bike_id": "0d796ae586d2f2b7ff0ac259945fe6e0", "fusion_lat": 0.0, "is_disabled": 0, "rental_uris": {"ios": "https://dc.lft.to/lastmile_qr_scan", "android": "https://dc.lft.to/lastmile_qr_scan"}}, {"name": "06d46bbb343a4f5857708b43c47d82dd", "lon": -77.03444783333333, "lat": 38.908881666666666, "type": "electric_scooter", "fusion_lon": 0.0, "is_reserved": 0, "bike_id": "06d46bbb343a4f5857708b43c47d82dd", "fusion_lat": 0.0, "is_disabled": 0, "rental_uris": {"ios": "https://dc.lft.to/lastmile_qr_scan", "android": "https://dc.lft.to/lastmile_qr_scan"}}, {"name": "e1607baedb5b3dbe18d05782c50f214b", "lon": -77.05005833333334, "lat": 38.892314166666665, "type": "electric_scooter", "fusion_lon": 0.0, "is_reserved": 0, "bike_id": "e1607baedb5b3dbe18d05782c50f214b", "fusion_lat": 0.0, "is_disabled": 0, "rental_uris": {"ios": "https://dc.lft.to/lastmile_qr_scan", "android": "https://dc.lft.to/lastmile_qr_scan"}}, {"name": "4ba45994e96d8b5c88d859378ffb8398", "lon": -76.99611066666667, "lat": 38.9002795, "type": "electric_scooter", "fusion_lon": 0.0, "is_reserved": 0, "bike_id": "4ba45994e96d8b5c88d859378ffb8398", "fusion_lat": 0.0, "is_disabled": 0, "rental_uris": {"ios": "https://dc.lft.to/lastmile_qr_scan", "android": "https://dc.lft.to/lastmile_qr_scan"}}, {"name": "a3bc5e95bc617078180f5a79ad69dbd5", "lon": -77.03944616666666, "lat": 38.902491833333336, "type": "electric_scooter", "fusion_lon": 0.0, "is_reserved": 0, "bike_id": "a3bc5e95bc617078180f5a79ad69dbd5", "fusion_lat": 0.0, "is_disabled": 0, "rental_uris": {"ios": "https://dc.lft.to/lastmile_qr_scan", "android": "https://dc.lft.to/lastmile_qr_scan"}}, {"name": "c1163420a0bcc1429df2f7024c9e817e", "lon": -77.02172766666666, "lat": 38.915609833333335, "type": "electric_scooter", "fusion_lon": 0.0, "is_reserved": 0, "bike_id": "c1163420a0bcc1429df2f7024c9e817e", "fusion_lat": 0.0, "is_disabled": 0, "rental_uris": {"ios": "https://dc.lft.to/lastmile_qr_scan", "android": "https://dc.lft.to/lastmile_qr_scan"}}, {"name": "0270b91224b582f055aed2537873d8a6", "lon": -77.02762116666666, "lat": 38.954239666666666, "type": "electric_scooter", "fusion_lon": 0.0, "is_reserved": 0, "bike_id": "0270b91224b582f055aed2537873d8a6", "fusion_lat": 0.0, "is_disabled": 0, "rental_uris": {"ios": "https://dc.lft.to/lastmile_qr_scan", "android": "https://dc.lft.to/lastmile_qr_scan"}}, {"name": "80afd5e43db03aa08be88956680ec2a5", "lon": -76.93349866666667, "lat": 38.89902633333333, "type": "electric_scooter", "fusion_lon": 0.0, "is_reserved": 0, "bike_id": "80afd5e43db03aa08be88956680ec2a5", "fusion_lat": 0.0, "is_disabled": 0, "rental_uris": {"ios": "https://dc.lft.to/lastmile_qr_scan", "android": "https://dc.lft.to/lastmile_qr_scan"}}, {"name": "10ece0f23a83a49945333fa80c3de103", "lon": -77.01997383333334, "lat": 38.96626033333333, "type": "electric_scooter", "fusion_lon": 0.0, "is_reserved": 0, "bike_id": "10ece0f23a83a49945333fa80c3de103", "fusion_lat": 0.0, "is_disabled": 0, "rental_uris": {"ios": "https://dc.lft.to/lastmile_qr_scan", "android": "https://dc.lft.to/lastmile_qr_scan"}}, {"name": "3175d60163c8245dea6db6b022c4174b", "lon": -77.03330666666666, "lat": 38.8983125, "type": "electric_scooter", "fusion_lon": 0.0, "is_reserved": 0, "bike_id": "3175d60163c8245dea6db6b022c4174b", "fusion_lat": 0.0, "is_disabled": 0, "rental_uris": {"ios": "https://dc.lft.to/lastmile_qr_scan", "android": "https://dc.lft.to/lastmile_qr_scan"}}, {"name": "cdd8e3524afea7c8d699395541090d96", "lon": -77.00485416666666, "lat": 38.87471816666667, "type": "electric_scooter", "fusion_lon": 0.0, "is_reserved": 0, "bike_id": "cdd8e3524afea7c8d699395541090d96", "fusion_lat": 0.0, "is_disabled": 0, "rental_uris": {"ios": "https://dc.lft.to/lastmile_qr_scan", "android": "https://dc.lft.to/lastmile_qr_scan"}}, {"name": "bb93e37ec556e64750234e5f4c7185b5", "lon": -77.03208383333333, "lat": 38.896823833333336, "type": "electric_scooter", "fusion_lon": 0.0, "is_reserved": 0, "bike_id": "bb93e37ec556e64750234e5f4c7185b5", "fusion_lat": 0.0, "is_disabled": 0, "rental_uris": {"ios": "https://dc.lft.to/lastmile_qr_scan", "android": "https://dc.lft.to/lastmile_qr_scan"}}, {"name": "7f1e9444bad97a4715db2d7060cf27a2", "lon": -76.97909983333334, "lat": 38.86347283333333, "type": "electric_scooter", "fusion_lon": 0.0, "is_reserved": 0, "bike_id": "7f1e9444bad97a4715db2d7060cf27a2", "fusion_lat": 0.0, "is_disabled": 0, "rental_uris": {"ios": "https://dc.lft.to/lastmile_qr_scan", "android": "https://dc.lft.to/lastmile_qr_scan"}}, {"name": "198ca7636adf28a58bab95eca9ed13e7", "lon": -77.01745633333333, "lat": 38.88332483333333, "type": "electric_scooter", "fusion_lon": 0.0, "is_reserved": 0, "bike_id": "198ca7636adf28a58bab95eca9ed13e7", "fusion_lat": 0.0, "is_disabled": 0, "rental_uris": {"ios": "https://dc.lft.to/lastmile_qr_scan", "android": "https://dc.lft.to/lastmile_qr_scan"}}, {"name": "2053eb7cbc033901851eedef46a3cdd6", "lon": -77.05120716666667, "lat": 38.89959316666667, "type": "electric_scooter", "fusion_lon": 0.0, "is_reserved": 0, "bike_id": "2053eb7cbc033901851eedef46a3cdd6", "fusion_lat": 0.0, "is_disabled": 0, "rental_uris": {"ios": "https://dc.lft.to/lastmile_qr_scan", "android": "https://dc.lft.to/lastmile_qr_scan"}}, {"name": "aba48116e0404304f9852d5aeaa25380", "lon": -77.05398066666666, "lat": 38.92811666666667, "type": "electric_scooter", "fusion_lon": 0.0, "is_reserved": 0, "bike_id": "aba48116e0404304f9852d5aeaa25380", "fusion_lat": 0.0, "is_disabled": 0, "rental_uris": {"ios": "https://dc.lft.to/lastmile_qr_scan", "android": "https://dc.lft.to/lastmile_qr_scan"}}, {"name": "757d5ae40084bde6fd26587dab8be3b7", "lon": -76.994105, "lat": 38.92082283333333, "type": "electric_scooter", "fusion_lon": 0.0, "is_reserved": 0, "bike_id": "757d5ae40084bde6fd26587dab8be3b7", "fusion_lat": 0.0, "is_disabled": 0, "rental_uris": {"ios": "https://dc.lft.to/lastmile_qr_scan", "android": "https://dc.lft.to/lastmile_qr_scan"}}, {"name": "ea1608b139f1ffe839bee799f43ebee3", "lon": -77.023726, "lat": 38.8921885, "type": "electric_scooter", "fusion_lon": 0.0, "is_reserved": 0, "bike_id": "ea1608b139f1ffe839bee799f43ebee3", "fusion_lat": 0.0, "is_disabled": 0, "rental_uris": {"ios": "https://dc.lft.to/lastmile_qr_scan", "android": "https://dc.lft.to/lastmile_qr_scan"}}, {"name": "2ea4a61b12dce6dd80bdb028595dd2b7", "lon": -77.032575, "lat": 38.931510333333335, "type": "electric_scooter", "fusion_lon": 0.0, "is_reserved": 0, "bike_id": "2ea4a61b12dce6dd80bdb028595dd2b7", "fusion_lat": 0.0, "is_disabled": 0, "rental_uris": {"ios": "https://dc.lft.to/lastmile_qr_scan", "android": "https://dc.lft.to/lastmile_qr_scan"}}, {"name": "d6c1564fed02776c1ea467482e2432d7", "lon": -76.99067166666667, "lat": 38.863577, "type": "electric_scooter", "fusion_lon": 0.0, "is_reserved": 0, "bike_id": "d6c1564fed02776c1ea467482e2432d7", "fusion_lat": 0.0, "is_disabled": 0, "rental_uris": {"ios": "https://dc.lft.to/lastmile_qr_scan", "android": "https://dc.lft.to/lastmile_qr_scan"}}, {"name": "2a36d3cd4e168d0199b8dbb121313f1b", "lon": -77.011882, "lat": 38.915553833333334, "type": "electric_scooter", "fusion_lon": 0.0, "is_reserved": 0, "bike_id": "2a36d3cd4e168d0199b8dbb121313f1b", "fusion_lat": 0.0, "is_disabled": 0, "rental_uris": {"ios": "https://dc.lft.to/lastmile_qr_scan", "android": "https://dc.lft.to/lastmile_qr_scan"}}, {"name": "c90700c0691e16a564fe045260777948", "lon": -76.95366433333334, "lat": 38.8920735, "type": "electric_scooter", "fusion_lon": 0.0, "is_reserved": 0, "bike_id": "c90700c0691e16a564fe045260777948", "fusion_lat": 0.0, "is_disabled": 0, "rental_uris": {"ios": "https://dc.lft.to/lastmile_qr_scan", "android": "https://dc.lft.to/lastmile_qr_scan"}}, {"name": "77d2172c4efcaaff23b945ce55825d53", "lon": -76.98714666666666, "lat": 38.866991666666664, "type": "electric_scooter", "fusion_lon": 0.0, "is_reserved": 0, "bike_id": "77d2172c4efcaaff23b945ce55825d53", "fusion_lat": 0.0, "is_disabled": 0, "rental_uris": {"ios": "https://dc.lft.to/lastmile_qr_scan", "android": "https://dc.lft.to/lastmile_qr_scan"}}, {"name": "49718f4a780883e410fb1d731e09c0f2", "lon": -77.03305316666666, "lat": 38.9264005, "type": "electric_bike", "fusion_lon": 0.0, "is_reserved": 0, "bike_id": "49718f4a780883e410fb1d731e09c0f2", "fusion_lat": 0.0, "is_disabled": 0, "rental_uris": {"ios": "https://dc.lft.to/lastmile_qr_scan", "android": "https://dc.lft.to/lastmile_qr_scan"}}, {"name": "81c42e679b0ccf7eaa0848e020f62e22", "lon": -77.04357466666667, "lat": 38.898537, "type": "electric_scooter", "fusion_lon": 0.0, "is_reserved": 0, "bike_id": "81c42e679b0ccf7eaa0848e020f62e22", "fusion_lat": 0.0, "is_disabled": 0, "rental_uris": {"ios": "https://dc.lft.to/lastmile_qr_scan", "android": "https://dc.lft.to/lastmile_qr_scan"}}, {"name": "38877585308488d3ec0c328c7092f5ea", "lon": -76.9961005, "lat": 38.90187316666667, "type": "electric_bike", "fusion_lon": 0.0, "is_reserved": 0, "bike_id": "38877585308488d3ec0c328c7092f5ea", "fusion_lat": 0.0, "is_disabled": 0, "rental_uris": {"ios": "https://dc.lft.to/lastmile_qr_scan", "android": "https://dc.lft.to/lastmile_qr_scan"}}, {"name": "f597586cc85a523ef28c063cc30ec9a4", "lon": -77.04335733333333, "lat": 38.90763833333333, "type": "electric_scooter", "fusion_lon": 0.0, "is_reserved": 0, "bike_id": "f597586cc85a523ef28c063cc30ec9a4", "fusion_lat": 0.0, "is_disabled": 0, "rental_uris": {"ios": "https://dc.lft.to/lastmile_qr_scan", "android": "https://dc.lft.to/lastmile_qr_scan"}}, {"name": "0625ec038ecb04ea83b9eab5e7f4cd88", "lon": -77.01214616666667, "lat": 38.86418833333333, "type": "electric_scooter", "fusion_lon": 0.0, "is_reserved": 0, "bike_id": "0625ec038ecb04ea83b9eab5e7f4cd88", "fusion_lat": 0.0, "is_disabled": 0, "rental_uris": {"ios": "https://dc.lft.to/lastmile_qr_scan", "android": "https://dc.lft.to/lastmile_qr_scan"}}, {"name": "28091a9347811a55b9009aef467e718d", "lon": -77.0780985, "lat": 38.92457666666667, "type": "electric_scooter", "fusion_lon": 0.0, "is_reserved": 0, "bike_id": "28091a9347811a55b9009aef467e718d", "fusion_lat": 0.0, "is_disabled": 0, "rental_uris": {"ios": "https://dc.lft.to/lastmile_qr_scan", "android": "https://dc.lft.to/lastmile_qr_scan"}}, {"name": "ebbccab0b5b2db8008f868b04f066d00", "lon": -77.04102516666667, "lat": 38.902114166666664, "type": "electric_scooter", "fusion_lon": 0.0, "is_reserved": 0, "bike_id": "ebbccab0b5b2db8008f868b04f066d00", "fusion_lat": 0.0, "is_disabled": 0, "rental_uris": {"ios": "https://dc.lft.to/lastmile_qr_scan", "android": "https://dc.lft.to/lastmile_qr_scan"}}, {"name": "34f5d71ff40f027a56a0737512403c00", "lon": -77.0081305, "lat": 38.9480185, "type": "electric_bike", "fusion_lon": 0.0, "is_reserved": 0, "bike_id": "34f5d71ff40f027a56a0737512403c00", "fusion_lat": 0.0, "is_disabled": 0, "rental_uris": {"ios": "https://dc.lft.to/lastmile_qr_scan", "android": "https://dc.lft.to/lastmile_qr_scan"}}, {"name": "38c5d7e942da054214010e1ddde7f58e", "lon": -77.02769033333334, "lat": 38.96078116666666, "type": "electric_scooter", "fusion_lon": 0.0, "is_reserved": 0, "bike_id": "38c5d7e942da054214010e1ddde7f58e", "fusion_lat": 0.0, "is_disabled": 0, "rental_uris": {"ios": "https://dc.lft.to/lastmile_qr_scan", "android": "https://dc.lft.to/lastmile_qr_scan"}}, {"name": "861c85d6067557eec06495eb67f8f684", "lon": -77.12961116666666, "lat": 38.852195333333334, "type": "electric_bike", "fusion_lon": 0.0, "is_reserved": 0, "bike_id": "861c85d6067557eec06495eb67f8f684", "fusion_lat": 0.0, "is_disabled": 0, "rental_uris": {"ios": "https://dc.lft.to/lastmile_qr_scan", "android": "https://dc.lft.to/lastmile_qr_scan"}}, {"name": "2b4463edd1f91413ef7460cf1a1befd8", "lon": -77.03753516666667, "lat": 38.929027, "type": "electric_scooter", "fusion_lon": 0.0, "is_reserved": 0, "bike_id": "2b4463edd1f91413ef7460cf1a1befd8", "fusion_lat": 0.0, "is_disabled": 0, "rental_uris": {"ios": "https://dc.lft.to/lastmile_qr_scan", "android": "https://dc.lft.to/lastmile_qr_scan"}}, {"name": "e7b03e586b97d52f06888c6b7dbf2688", "lon": -77.02567133333334, "lat": 38.904162666666664, "type": "electric_scooter", "fusion_lon": 0.0, "is_reserved": 0, "bike_id": "e7b03e586b97d52f06888c6b7dbf2688", "fusion_lat": 0.0, "is_disabled": 0, "rental_uris": {"ios": "https://dc.lft.to/lastmile_qr_scan", "android": "https://dc.lft.to/lastmile_qr_scan"}}, {"name": "146a28e59ef0314ca25f67d7db48086b", "lon": -76.98355066666667, "lat": 38.9154995, "type": "electric_scooter", "fusion_lon": 0.0, "is_reserved": 0, "bike_id": "146a28e59ef0314ca25f67d7db48086b", "fusion_lat": 0.0, "is_disabled": 0, "rental_uris": {"ios": "https://dc.lft.to/lastmile_qr_scan", "android": "https://dc.lft.to/lastmile_qr_scan"}}, {"name": "560cb9fc95ef9aec7617947790726cf0", "lon": -77.0893715, "lat": 38.862626166666665, "type": "electric_bike", "fusion_lon": 0.0, "is_reserved": 0, "bike_id": "560cb9fc95ef9aec7617947790726cf0", "fusion_lat": 0.0, "is_disabled": 0, "rental_uris": {"ios": "https://dc.lft.to/lastmile_qr_scan", "android": "https://dc.lft.to/lastmile_qr_scan"}}, {"name": "d7bc86e12bb11522a5007f3bc8f38176", "lon": -77.005878, "lat": 38.90571033333333, "type": "electric_scooter", "fusion_lon": 0.0, "is_reserved": 0, "bike_id": "d7bc86e12bb11522a5007f3bc8f38176", "fusion_lat": 0.0, "is_disabled": 0, "rental_uris": {"ios": "https://dc.lft.to/lastmile_qr_scan", "android": "https://dc.lft.to/lastmile_qr_scan"}}, {"name": "66c21cc5a0afcd5958c5e564eb2f4172", "lon": -77.00750066666667, "lat": 38.92667333333333, "type": "electric_scooter", "fusion_lon": 0.0, "is_reserved": 0, "bike_id": "66c21cc5a0afcd5958c5e564eb2f4172", "fusion_lat": 0.0, "is_disabled": 0, "rental_uris": {"ios": "https://dc.lft.to/lastmile_qr_scan", "android": "https://dc.lft.to/lastmile_qr_scan"}}, {"name": "ace162d45358622f6b09d03305123058", "lon": -77.01205033333333, "lat": 38.8952775, "type": "electric_scooter", "fusion_lon": 0.0, "is_reserved": 0, "bike_id": "ace162d45358622f6b09d03305123058", "fusion_lat": 0.0, "is_disabled": 0, "rental_uris": {"ios": "https://dc.lft.to/lastmile_qr_scan", "android": "https://dc.lft.to/lastmile_qr_scan"}}, {"name": "b3c296109a55f446dfac62b6305aa31a", "lon": -76.9968515, "lat": 38.908273333333334, "type": "electric_scooter", "fusion_lon": 0.0, "is_reserved": 0, "bike_id": "b3c296109a55f446dfac62b6305aa31a", "fusion_lat": 0.0, "is_disabled": 0, "rental_uris": {"ios": "https://dc.lft.to/lastmile_qr_scan", "android": "https://dc.lft.to/lastmile_qr_scan"}}, {"name": "f7f6b4ab3e681262b3089fcd596b01ec", "lon": -77.04403416666666, "lat": 38.920297, "type": "electric_scooter", "fusion_lon": 0.0, "is_reserved": 0, "bike_id": "f7f6b4ab3e681262b3089fcd596b01ec", "fusion_lat": 0.0, "is_disabled": 0, "rental_uris": {"ios": "https://dc.lft.to/lastmile_qr_scan", "android": "https://dc.lft.to/lastmile_qr_scan"}}, {"name": "56c7c4f21e45b86d6e97b05f255a69b2", "lon": -77.05306133333333, "lat": 38.898490333333335, "type": "electric_scooter", "fusion_lon": 0.0, "is_reserved": 0, "bike_id": "56c7c4f21e45b86d6e97b05f255a69b2", "fusion_lat": 0.0, "is_disabled": 0, "rental_uris": {"ios": "https://dc.lft.to/lastmile_qr_scan", "android": "https://dc.lft.to/lastmile_qr_scan"}}, {"name": "286cff79b866547b00f1a9932311826a", "lon": -77.0279345, "lat": 38.930783166666664, "type": "electric_scooter", "fusion_lon": 0.0, "is_reserved": 0, "bike_id": "286cff79b866547b00f1a9932311826a", "fusion_lat": 0.0, "is_disabled": 0, "rental_uris": {"ios": "https://dc.lft.to/lastmile_qr_scan", "android": "https://dc.lft.to/lastmile_qr_scan"}}, {"name": "92045f96baa6342ae8fced89629e1f1d", "lon": -76.998177, "lat": 38.84431283333333, "type": "electric_scooter", "fusion_lon": 0.0, "is_reserved": 0, "bike_id": "92045f96baa6342ae8fced89629e1f1d", "fusion_lat": 0.0, "is_disabled": 0, "rental_uris": {"ios": "https://dc.lft.to/lastmile_qr_scan", "android": "https://dc.lft.to/lastmile_qr_scan"}}, {"name": "301eba032921e0ab0145e5da6b322a5d", "lon": -77.0434845, "lat": 38.907711, "type": "electric_scooter", "fusion_lon": 0.0, "is_reserved": 0, "bike_id": "301eba032921e0ab0145e5da6b322a5d", "fusion_lat": 0.0, "is_disabled": 0, "rental_uris": {"ios": "https://dc.lft.to/lastmile_qr_scan", "android": "https://dc.lft.to/lastmile_qr_scan"}}, {"name": "cf9635989a58235b30f2c25469ebb67f", "lon": -76.99756466666666, "lat": 38.90023933333333, "type": "electric_scooter", "fusion_lon": 0.0, "is_reserved": 0, "bike_id": "cf9635989a58235b30f2c25469ebb67f", "fusion_lat": 0.0, "is_disabled": 0, "rental_uris": {"ios": "https://dc.lft.to/lastmile_qr_scan", "android": "https://dc.lft.to/lastmile_qr_scan"}}, {"name": "415598107d8a72615a08171bf3fb1a75", "lon": -77.04589983333334, "lat": 38.902151333333336, "type": "electric_scooter", "fusion_lon": 0.0, "is_reserved": 0, "bike_id": "415598107d8a72615a08171bf3fb1a75", "fusion_lat": 0.0, "is_disabled": 0, "rental_uris": {"ios": "https://dc.lft.to/lastmile_qr_scan", "android": "https://dc.lft.to/lastmile_qr_scan"}}, {"name": "f0007f9cd14e0811b49930ca1cda23d3", "lon": -77.00196216666667, "lat": 38.90233683333334, "type": "electric_scooter", "fusion_lon": 0.0, "is_reserved": 0, "bike_id": "f0007f9cd14e0811b49930ca1cda23d3", "fusion_lat": 0.0, "is_disabled": 0, "rental_uris": {"ios": "https://dc.lft.to/lastmile_qr_scan", "android": "https://dc.lft.to/lastmile_qr_scan"}}, {"name": "94dc9bee5419de4754b9d72a4298d813", "lon": -77.0199105, "lat": 38.92277083333333, "type": "electric_bike", "fusion_lon": 0.0, "is_reserved": 0, "bike_id": "94dc9bee5419de4754b9d72a4298d813", "fusion_lat": 0.0, "is_disabled": 0, "rental_uris": {"ios": "https://dc.lft.to/lastmile_qr_scan", "android": "https://dc.lft.to/lastmile_qr_scan"}}, {"name": "5f8a0cfda402bd685ad7d2c3096bbe09", "lon": -76.98923316666666, "lat": 38.858108, "type": "electric_scooter", "fusion_lon": 0.0, "is_reserved": 0, "bike_id": "5f8a0cfda402bd685ad7d2c3096bbe09", "fusion_lat": 0.0, "is_disabled": 0, "rental_uris": {"ios": "https://dc.lft.to/lastmile_qr_scan", "android": "https://dc.lft.to/lastmile_qr_scan"}}, {"name": "1f583dd28ab5c3ceb3338199cfc5ff85", "lon": -77.0343695, "lat": 38.9180235, "type": "electric_scooter", "fusion_lon": 0.0, "is_reserved": 0, "bike_id": "1f583dd28ab5c3ceb3338199cfc5ff85", "fusion_lat": 0.0, "is_disabled": 0, "rental_uris": {"ios": "https://dc.lft.to/lastmile_qr_scan", "android": "https://dc.lft.to/lastmile_qr_scan"}}, {"name": "da02b1510aca9286b6c44a5e440765c9", "lon": -76.99029433333334, "lat": 38.8984955, "type": "electric_scooter", "fusion_lon": 0.0, "is_reserved": 0, "bike_id": "da02b1510aca9286b6c44a5e440765c9", "fusion_lat": 0.0, "is_disabled": 0, "rental_uris": {"ios": "https://dc.lft.to/lastmile_qr_scan", "android": "https://dc.lft.to/lastmile_qr_scan"}}, {"name": "429597801e188fcb898d32b6d8026f4c", "lon": -76.90708433333333, "lat": 38.89593383333333, "type": "electric_bike", "fusion_lon": 0.0, "is_reserved": 0, "bike_id": "429597801e188fcb898d32b6d8026f4c", "fusion_lat": 0.0, "is_disabled": 0, "rental_uris": {"ios": "https://dc.lft.to/lastmile_qr_scan", "android": "https://dc.lft.to/lastmile_qr_scan"}}, {"name": "4aa874b753cdcd789ce30ae283f1bf0a", "lon": -77.0382245, "lat": 38.906768666666665, "type": "electric_scooter", "fusion_lon": 0.0, "is_reserved": 0, "bike_id": "4aa874b753cdcd789ce30ae283f1bf0a", "fusion_lat": 0.0, "is_disabled": 0, "rental_uris": {"ios": "https://dc.lft.to/lastmile_qr_scan", "android": "https://dc.lft.to/lastmile_qr_scan"}}, {"name": "7b3d8ef5c3816d4c810d6b2cb7ca6598", "lon": -77.07309733333334, "lat": 38.86483333333334, "type": "electric_bike", "fusion_lon": 0.0, "is_reserved": 0, "bike_id": "7b3d8ef5c3816d4c810d6b2cb7ca6598", "fusion_lat": 0.0, "is_disabled": 0, "rental_uris": {"ios": "https://dc.lft.to/lastmile_qr_scan", "android": "https://dc.lft.to/lastmile_qr_scan"}}, {"name": "494722d28f1df2f5692f63f22118013f", "lon": -77.03862683333334, "lat": 38.9325825, "type": "electric_scooter", "fusion_lon": 0.0, "is_reserved": 0, "bike_id": "494722d28f1df2f5692f63f22118013f", "fusion_lat": 0.0, "is_disabled": 0, "rental_uris": {"ios": "https://dc.lft.to/lastmile_qr_scan", "android": "https://dc.lft.to/lastmile_qr_scan"}}, {"name": "cd76b3ac19a2e8a07757cb77627fd2b0", "lon": -77.032033, "lat": 38.91893433333333, "type": "electric_scooter", "fusion_lon": 0.0, "is_reserved": 0, "bike_id": "cd76b3ac19a2e8a07757cb77627fd2b0", "fusion_lat": 0.0, "is_disabled": 0, "rental_uris": {"ios": "https://dc.lft.to/lastmile_qr_scan", "android": "https://dc.lft.to/lastmile_qr_scan"}}, {"name": "fcc9b8346cb2e341211b351534ecf70a", "lon": -76.93754283333334, "lat": 38.89047733333334, "type": "electric_scooter", "fusion_lon": 0.0, "is_reserved": 0, "bike_id": "fcc9b8346cb2e341211b351534ecf70a", "fusion_lat": 0.0, "is_disabled": 0, "rental_uris": {"ios": "https://dc.lft.to/lastmile_qr_scan", "android": "https://dc.lft.to/lastmile_qr_scan"}}, {"name": "9a4c043300e1f8a9ef99cd12e41a36e0", "lon": -77.007821, "lat": 38.907336666666666, "type": "electric_scooter", "fusion_lon": 0.0, "is_reserved": 0, "bike_id": "9a4c043300e1f8a9ef99cd12e41a36e0", "fusion_lat": 0.0, "is_disabled": 0, "rental_uris": {"ios": "https://dc.lft.to/lastmile_qr_scan", "android": "https://dc.lft.to/lastmile_qr_scan"}}, {"name": "b843aad05025fd798a9dd864439cf1d6", "lon": -76.97825566666667, "lat": 38.84365316666667, "type": "electric_bike", "fusion_lon": 0.0, "is_reserved": 0, "bike_id": "b843aad05025fd798a9dd864439cf1d6", "fusion_lat": 0.0, "is_disabled": 0, "rental_uris": {"ios": "https://dc.lft.to/lastmile_qr_scan", "android": "https://dc.lft.to/lastmile_qr_scan"}}, {"name": "9d4807265e94a51b1852a96eba143415", "lon": -77.03193316666666, "lat": 38.89674816666667, "type": "electric_scooter", "fusion_lon": 0.0, "is_reserved": 0, "bike_id": "9d4807265e94a51b1852a96eba143415", "fusion_lat": 0.0, "is_disabled": 0, "rental_uris": {"ios": "https://dc.lft.to/lastmile_qr_scan", "android": "https://dc.lft.to/lastmile_qr_scan"}}, {"name": "1ea2fc95b338f2d9c7db56a6322b951f", "lon": -77.02193616666666, "lat": 38.898556666666664, "type": "electric_scooter", "fusion_lon": 0.0, "is_reserved": 0, "bike_id": "1ea2fc95b338f2d9c7db56a6322b951f", "fusion_lat": 0.0, "is_disabled": 0, "rental_uris": {"ios": "https://dc.lft.to/lastmile_qr_scan", "android": "https://dc.lft.to/lastmile_qr_scan"}}, {"name": "5c618ada192f0f6783a812807acb3839", "lon": -77.04332766666667, "lat": 38.91776983333333, "type": "electric_scooter", "fusion_lon": 0.0, "is_reserved": 0, "bike_id": "5c618ada192f0f6783a812807acb3839", "fusion_lat": 0.0, "is_disabled": 0, "rental_uris": {"ios": "https://dc.lft.to/lastmile_qr_scan", "android": "https://dc.lft.to/lastmile_qr_scan"}}, {"name": "b82cbbd081c5b6c51f84d3ac2bb10a5b", "lon": -77.01229916666666, "lat": 38.9310715, "type": "electric_scooter", "fusion_lon": 0.0, "is_reserved": 0, "bike_id": "b82cbbd081c5b6c51f84d3ac2bb10a5b", "fusion_lat": 0.0, "is_disabled": 0, "rental_uris": {"ios": "https://dc.lft.to/lastmile_qr_scan", "android": "https://dc.lft.to/lastmile_qr_scan"}}, {"name": "bd81aed966ce80e2c85bb530440770b9", "lon": -76.997767, "lat": 38.84431333333333, "type": "electric_scooter", "fusion_lon": 0.0, "is_reserved": 0, "bike_id": "bd81aed966ce80e2c85bb530440770b9", "fusion_lat": 0.0, "is_disabled": 0, "rental_uris": {"ios": "https://dc.lft.to/lastmile_qr_scan", "android": "https://dc.lft.to/lastmile_qr_scan"}}, {"name": "dd834cb144594cab1af2fc3c97a6b323", "lon": -77.03735416666666, "lat": 38.9291975, "type": "electric_scooter", "fusion_lon": 0.0, "is_reserved": 0, "bike_id": "dd834cb144594cab1af2fc3c97a6b323", "fusion_lat": 0.0, "is_disabled": 0, "rental_uris": {"ios": "https://dc.lft.to/lastmile_qr_scan", "android": "https://dc.lft.to/lastmile_qr_scan"}}, {"name": "fab7d15892e15a2da6726fa1d2c7d6dc", "lon": -77.02095216666666, "lat": 38.92139933333333, "type": "electric_scooter", "fusion_lon": 0.0, "is_reserved": 0, "bike_id": "fab7d15892e15a2da6726fa1d2c7d6dc", "fusion_lat": 0.0, "is_disabled": 0, "rental_uris": {"ios": "https://dc.lft.to/lastmile_qr_scan", "android": "https://dc.lft.to/lastmile_qr_scan"}}, {"name": "a9ca830fdab4d6ee00a869ad797ff9d9", "lon": -76.94380816666667, "lat": 38.89323383333333, "type": "electric_scooter", "fusion_lon": 0.0, "is_reserved": 0, "bike_id": "a9ca830fdab4d6ee00a869ad797ff9d9", "fusion_lat": 0.0, "is_disabled": 0, "rental_uris": {"ios": "https://dc.lft.to/lastmile_qr_scan", "android": "https://dc.lft.to/lastmile_qr_scan"}}, {"name": "bee105dc92d1261051eb8272cc9185a9", "lon": -76.97440616666667, "lat": 38.904411, "type": "electric_scooter", "fusion_lon": 0.0, "is_reserved": 0, "bike_id": "bee105dc92d1261051eb8272cc9185a9", "fusion_lat": 0.0, "is_disabled": 0, "rental_uris": {"ios": "https://dc.lft.to/lastmile_qr_scan", "android": "https://dc.lft.to/lastmile_qr_scan"}}, {"name": "e729d61d3b73eba70cd4bb928cc88cbc", "lon": -76.94962116666666, "lat": 38.8943765, "type": "electric_scooter", "fusion_lon": 0.0, "is_reserved": 0, "bike_id": "e729d61d3b73eba70cd4bb928cc88cbc", "fusion_lat": 0.0, "is_disabled": 0, "rental_uris": {"ios": "https://dc.lft.to/lastmile_qr_scan", "android": "https://dc.lft.to/lastmile_qr_scan"}}, {"name": "2196c61a7242d2f6f35ca646858cb16c", "lon": -77.03202833333333, "lat": 38.91889233333333, "type": "electric_scooter", "fusion_lon": 0.0, "is_reserved": 0, "bike_id": "2196c61a7242d2f6f35ca646858cb16c", "fusion_lat": 0.0, "is_disabled": 0, "rental_uris": {"ios": "https://dc.lft.to/lastmile_qr_scan", "android": "https://dc.lft.to/lastmile_qr_scan"}}, {"name": "b3bcabe9194303ebf05171e20073f604", "lon": -77.0365625, "lat": 38.912441, "type": "electric_scooter", "fusion_lon": 0.0, "is_reserved": 0, "bike_id": "b3bcabe9194303ebf05171e20073f604", "fusion_lat": 0.0, "is_disabled": 0, "rental_uris": {"ios": "https://dc.lft.to/lastmile_qr_scan", "android": "https://dc.lft.to/lastmile_qr_scan"}}, {"name": "773c60b86bcd0b12612316a96919877c", "lon": -77.04154366666667, "lat": 38.91832816666667, "type": "electric_scooter", "fusion_lon": 0.0, "is_reserved": 0, "bike_id": "773c60b86bcd0b12612316a96919877c", "fusion_lat": 0.0, "is_disabled": 0, "rental_uris": {"ios": "https://dc.lft.to/lastmile_qr_scan", "android": "https://dc.lft.to/lastmile_qr_scan"}}, {"name": "1c058e8b0a7461dbd7705a21979caeb5", "lon": -76.99848916666667, "lat": 38.88094533333334, "type": "electric_scooter", "fusion_lon": 0.0, "is_reserved": 0, "bike_id": "1c058e8b0a7461dbd7705a21979caeb5", "fusion_lat": 0.0, "is_disabled": 0, "rental_uris": {"ios": "https://dc.lft.to/lastmile_qr_scan", "android": "https://dc.lft.to/lastmile_qr_scan"}}, {"name": "bb16d5f3f618f22cc2c5b67b73c74f5e", "lon": -77.04130133333334, "lat": 38.913986666666666, "type": "electric_scooter", "fusion_lon": 0.0, "is_reserved": 0, "bike_id": "bb16d5f3f618f22cc2c5b67b73c74f5e", "fusion_lat": 0.0, "is_disabled": 0, "rental_uris": {"ios": "https://dc.lft.to/lastmile_qr_scan", "android": "https://dc.lft.to/lastmile_qr_scan"}}, {"name": "2fb1b08532564727681dce72db72c8a4", "lon": -77.0315705, "lat": 38.99946033333333, "type": "electric_bike", "fusion_lon": 0.0, "is_reserved": 0, "bike_id": "2fb1b08532564727681dce72db72c8a4", "fusion_lat": 0.0, "is_disabled": 0, "rental_uris": {"ios": "https://dc.lft.to/lastmile_qr_scan", "android": "https://dc.lft.to/lastmile_qr_scan"}}, {"name": "98c9d046feeb84b52898facccb327b3c", "lon": -77.03282866666666, "lat": 38.92048233333333, "type": "electric_scooter", "fusion_lon": 0.0, "is_reserved": 0, "bike_id": "98c9d046feeb84b52898facccb327b3c", "fusion_lat": 0.0, "is_disabled": 0, "rental_uris": {"ios": "https://dc.lft.to/lastmile_qr_scan", "android": "https://dc.lft.to/lastmile_qr_scan"}}, {"name": "f342bd469c87e79063f80e1d32ef0573", "lon": -77.02878166666666, "lat": 38.92820783333333, "type": "electric_scooter", "fusion_lon": 0.0, "is_reserved": 0, "bike_id": "f342bd469c87e79063f80e1d32ef0573", "fusion_lat": 0.0, "is_disabled": 0, "rental_uris": {"ios": "https://dc.lft.to/lastmile_qr_scan", "android": "https://dc.lft.to/lastmile_qr_scan"}}, {"name": "6ff16c8efeb45797a8627a336ccb29f1", "lon": -77.0412155, "lat": 38.933993666666666, "type": "electric_scooter", "fusion_lon": 0.0, "is_reserved": 0, "bike_id": "6ff16c8efeb45797a8627a336ccb29f1", "fusion_lat": 0.0, "is_disabled": 0, "rental_uris": {"ios": "https://dc.lft.to/lastmile_qr_scan", "android": "https://dc.lft.to/lastmile_qr_scan"}}, {"name": "62ec1e619058fa0d9108a9223695d09e", "lon": -77.0333765, "lat": 38.89221216666667, "type": "electric_scooter", "fusion_lon": 0.0, "is_reserved": 0, "bike_id": "62ec1e619058fa0d9108a9223695d09e", "fusion_lat": 0.0, "is_disabled": 0, "rental_uris": {"ios": "https://dc.lft.to/lastmile_qr_scan", "android": "https://dc.lft.to/lastmile_qr_scan"}}, {"name": "30ebf6b2e8a8ab77072dcff4b81ea600", "lon": -77.0447845, "lat": 38.92238483333333, "type": "electric_scooter", "fusion_lon": 0.0, "is_reserved": 0, "bike_id": "30ebf6b2e8a8ab77072dcff4b81ea600", "fusion_lat": 0.0, "is_disabled": 0, "rental_uris": {"ios": "https://dc.lft.to/lastmile_qr_scan", "android": "https://dc.lft.to/lastmile_qr_scan"}}, {"name": "77a94ac980140e587b36a9d2563f79dd", "lon": -76.997217, "lat": 38.927532, "type": "electric_bike", "fusion_lon": 0.0, "is_reserved": 0, "bike_id": "77a94ac980140e587b36a9d2563f79dd", "fusion_lat": 0.0, "is_disabled": 0, "rental_uris": {"ios": "https://dc.lft.to/lastmile_qr_scan", "android": "https://dc.lft.to/lastmile_qr_scan"}}, {"name": "f1ce63c81262035533e92ffb87e151bf", "lon": -76.93548833333334, "lat": 38.95548816666667, "type": "electric_bike", "fusion_lon": 0.0, "is_reserved": 0, "bike_id": "f1ce63c81262035533e92ffb87e151bf", "fusion_lat": 0.0, "is_disabled": 0, "rental_uris": {"ios": "https://dc.lft.to/lastmile_qr_scan", "android": "https://dc.lft.to/lastmile_qr_scan"}}, {"name": "6dffc832cdd4cad9cf2419eef3fa2e63", "lon": -77.04479533333334, "lat": 38.918709, "type": "electric_scooter", "fusion_lon": 0.0, "is_reserved": 0, "bike_id": "6dffc832cdd4cad9cf2419eef3fa2e63", "fusion_lat": 0.0, "is_disabled": 0, "rental_uris": {"ios": "https://dc.lft.to/lastmile_qr_scan", "android": "https://dc.lft.to/lastmile_qr_scan"}}, {"name": "530429ed328315951366ccb937bc3b08", "lon": -77.03277366666667, "lat": 38.902522, "type": "electric_scooter", "fusion_lon": 0.0, "is_reserved": 0, "bike_id": "530429ed328315951366ccb937bc3b08", "fusion_lat": 0.0, "is_disabled": 0, "rental_uris": {"ios": "https://dc.lft.to/lastmile_qr_scan", "android": "https://dc.lft.to/lastmile_qr_scan"}}, {"name": "639d27137de0c2d5ec68e35a866240db", "lon": -77.0449535, "lat": 38.900132666666664, "type": "electric_scooter", "fusion_lon": 0.0, "is_reserved": 0, "bike_id": "639d27137de0c2d5ec68e35a866240db", "fusion_lat": 0.0, "is_disabled": 0, "rental_uris": {"ios": "https://dc.lft.to/lastmile_qr_scan", "android": "https://dc.lft.to/lastmile_qr_scan"}}, {"name": "e5d788e1d3918e729b33f2b011c62e49", "lon": -76.98514883333333, "lat": 38.86668216666666, "type": "electric_scooter", "fusion_lon": 0.0, "is_reserved": 0, "bike_id": "e5d788e1d3918e729b33f2b011c62e49", "fusion_lat": 0.0, "is_disabled": 0, "rental_uris": {"ios": "https://dc.lft.to/lastmile_qr_scan", "android": "https://dc.lft.to/lastmile_qr_scan"}}, {"name": "df4e1d633a9dab7dd7e842a8b4da9e06", "lon": -77.0477255, "lat": 38.9124705, "type": "electric_scooter", "fusion_lon": 0.0, "is_reserved": 0, "bike_id": "df4e1d633a9dab7dd7e842a8b4da9e06", "fusion_lat": 0.0, "is_disabled": 0, "rental_uris": {"ios": "https://dc.lft.to/lastmile_qr_scan", "android": "https://dc.lft.to/lastmile_qr_scan"}}, {"name": "f147afc517f96367be59283a3c7ceeb8", "lon": -77.04372416666666, "lat": 38.925702, "type": "electric_scooter", "fusion_lon": 0.0, "is_reserved": 0, "bike_id": "f147afc517f96367be59283a3c7ceeb8", "fusion_lat": 0.0, "is_disabled": 0, "rental_uris": {"ios": "https://dc.lft.to/lastmile_qr_scan", "android": "https://dc.lft.to/lastmile_qr_scan"}}, {"name": "c287ed88df0b29d6e0ea7362716a588e", "lon": -77.05123433333333, "lat": 38.90528333333334, "type": "electric_scooter", "fusion_lon": 0.0, "is_reserved": 0, "bike_id": "c287ed88df0b29d6e0ea7362716a588e", "fusion_lat": 0.0, "is_disabled": 0, "rental_uris": {"ios": "https://dc.lft.to/lastmile_qr_scan", "android": "https://dc.lft.to/lastmile_qr_scan"}}, {"name": "a9c157d727ccb51f9a49c81c84deae9b", "lon": -76.9319645, "lat": 38.898807, "type": "electric_scooter", "fusion_lon": 0.0, "is_reserved": 0, "bike_id": "a9c157d727ccb51f9a49c81c84deae9b", "fusion_lat": 0.0, "is_disabled": 0, "rental_uris": {"ios": "https://dc.lft.to/lastmile_qr_scan", "android": "https://dc.lft.to/lastmile_qr_scan"}}, {"name": "20c0c05b6acc96fddf3466f82da72128", "lon": -76.9947455, "lat": 38.902941, "type": "electric_scooter", "fusion_lon": 0.0, "is_reserved": 0, "bike_id": "20c0c05b6acc96fddf3466f82da72128", "fusion_lat": 0.0, "is_disabled": 0, "rental_uris": {"ios": "https://dc.lft.to/lastmile_qr_scan", "android": "https://dc.lft.to/lastmile_qr_scan"}}, {"name": "0f9c0674f4761aa775834defa41c0dce", "lon": -77.0533535, "lat": 38.90002033333333, "type": "electric_scooter", "fusion_lon": 0.0, "is_reserved": 0, "bike_id": "0f9c0674f4761aa775834defa41c0dce", "fusion_lat": 0.0, "is_disabled": 0, "rental_uris": {"ios": "https://dc.lft.to/lastmile_qr_scan", "android": "https://dc.lft.to/lastmile_qr_scan"}}, {"name": "d8eddb1fa932399a8662f9cdce2a91cf", "lon": -77.03645716666666, "lat": 38.903875166666666, "type": "electric_scooter", "fusion_lon": 0.0, "is_reserved": 0, "bike_id": "d8eddb1fa932399a8662f9cdce2a91cf", "fusion_lat": 0.0, "is_disabled": 0, "rental_uris": {"ios": "https://dc.lft.to/lastmile_qr_scan", "android": "https://dc.lft.to/lastmile_qr_scan"}}, {"name": "e03cfb7a45675e172db6c91ca9298682", "lon": -77.0060805, "lat": 38.90570266666667, "type": "electric_scooter", "fusion_lon": 0.0, "is_reserved": 0, "bike_id": "e03cfb7a45675e172db6c91ca9298682", "fusion_lat": 0.0, "is_disabled": 0, "rental_uris": {"ios": "https://dc.lft.to/lastmile_qr_scan", "android": "https://dc.lft.to/lastmile_qr_scan"}}, {"name": "d1c89f33f94554f70a3f74ba3b7db2f4", "lon": -77.017418, "lat": 38.88334066666667, "type": "electric_scooter", "fusion_lon": 0.0, "is_reserved": 0, "bike_id": "d1c89f33f94554f70a3f74ba3b7db2f4", "fusion_lat": 0.0, "is_disabled": 0, "rental_uris": {"ios": "https://dc.lft.to/lastmile_qr_scan", "android": "https://dc.lft.to/lastmile_qr_scan"}}, {"name": "acb3ddbb9d11e00e7d75f4c2b0a21d37", "lon": -77.0116595, "lat": 38.91696366666667, "type": "electric_scooter", "fusion_lon": 0.0, "is_reserved": 0, "bike_id": "acb3ddbb9d11e00e7d75f4c2b0a21d37", "fusion_lat": 0.0, "is_disabled": 0, "rental_uris": {"ios": "https://dc.lft.to/lastmile_qr_scan", "android": "https://dc.lft.to/lastmile_qr_scan"}}, {"name": "11536cb652558e2ac87deda8d6cbe20a", "lon": -77.03846483333334, "lat": 38.91185383333333, "type": "electric_scooter", "fusion_lon": 0.0, "is_reserved": 0, "bike_id": "11536cb652558e2ac87deda8d6cbe20a", "fusion_lat": 0.0, "is_disabled": 0, "rental_uris": {"ios": "https://dc.lft.to/lastmile_qr_scan", "android": "https://dc.lft.to/lastmile_qr_scan"}}, {"name": "e6b9804ea589bd52f6eb85d77b748b07", "lon": -76.9977615, "lat": 38.84429383333333, "type": "electric_scooter", "fusion_lon": 0.0, "is_reserved": 0, "bike_id": "e6b9804ea589bd52f6eb85d77b748b07", "fusion_lat": 0.0, "is_disabled": 0, "rental_uris": {"ios": "https://dc.lft.to/lastmile_qr_scan", "android": "https://dc.lft.to/lastmile_qr_scan"}}, {"name": "634c8931a834889bcf4b06c243bb62bf", "lon": -77.03906916666666, "lat": 38.918261666666666, "type": "electric_scooter", "fusion_lon": 0.0, "is_reserved": 0, "bike_id": "634c8931a834889bcf4b06c243bb62bf", "fusion_lat": 0.0, "is_disabled": 0, "rental_uris": {"ios": "https://dc.lft.to/lastmile_qr_scan", "android": "https://dc.lft.to/lastmile_qr_scan"}}, {"name": "47d813a4f2309f88fb17b57f0320fb7c", "lon": -77.01168733333333, "lat": 38.91564316666667, "type": "electric_scooter", "fusion_lon": 0.0, "is_reserved": 0, "bike_id": "47d813a4f2309f88fb17b57f0320fb7c", "fusion_lat": 0.0, "is_disabled": 0, "rental_uris": {"ios": "https://dc.lft.to/lastmile_qr_scan", "android": "https://dc.lft.to/lastmile_qr_scan"}}, {"name": "09728699f6ecb25595a7b3755f752753", "lon": -77.02257533333334, "lat": 38.923065666666666, "type": "electric_scooter", "fusion_lon": 0.0, "is_reserved": 0, "bike_id": "09728699f6ecb25595a7b3755f752753", "fusion_lat": 0.0, "is_disabled": 0, "rental_uris": {"ios": "https://dc.lft.to/lastmile_qr_scan", "android": "https://dc.lft.to/lastmile_qr_scan"}}, {"name": "5b65966e931972d1aea55af84981bbf0", "lon": -77.02899666666667, "lat": 38.916820666666666, "type": "electric_scooter", "fusion_lon": 0.0, "is_reserved": 0, "bike_id": "5b65966e931972d1aea55af84981bbf0", "fusion_lat": 0.0, "is_disabled": 0, "rental_uris": {"ios": "https://dc.lft.to/lastmile_qr_scan", "android": "https://dc.lft.to/lastmile_qr_scan"}}, {"name": "d05ce5d165ecce4e43077f66a438a234", "lon": -77.00201583333333, "lat": 38.907108666666666, "type": "electric_scooter", "fusion_lon": 0.0, "is_reserved": 0, "bike_id": "d05ce5d165ecce4e43077f66a438a234", "fusion_lat": 0.0, "is_disabled": 0, "rental_uris": {"ios": "https://dc.lft.to/lastmile_qr_scan", "android": "https://dc.lft.to/lastmile_qr_scan"}}, {"name": "b388174503fde069ce6220a95aae8e8a", "lon": -77.03047116666667, "lat": 38.884069, "type": "electric_scooter", "fusion_lon": 0.0, "is_reserved": 0, "bike_id": "b388174503fde069ce6220a95aae8e8a", "fusion_lat": 0.0, "is_disabled": 0, "rental_uris": {"ios": "https://dc.lft.to/lastmile_qr_scan", "android": "https://dc.lft.to/lastmile_qr_scan"}}, {"name": "bf51b9e992b7cc513bce634442d5af44", "lon": -77.02777966666666, "lat": 38.96075716666667, "type": "electric_scooter", "fusion_lon": 0.0, "is_reserved": 0, "bike_id": "bf51b9e992b7cc513bce634442d5af44", "fusion_lat": 0.0, "is_disabled": 0, "rental_uris": {"ios": "https://dc.lft.to/lastmile_qr_scan", "android": "https://dc.lft.to/lastmile_qr_scan"}}, {"name": "45f6eba3392900c7eec467033d0e3f07", "lon": -77.04695, "lat": 38.921611166666665, "type": "electric_scooter", "fusion_lon": 0.0, "is_reserved": 0, "bike_id": "45f6eba3392900c7eec467033d0e3f07", "fusion_lat": 0.0, "is_disabled": 0, "rental_uris": {"ios": "https://dc.lft.to/lastmile_qr_scan", "android": "https://dc.lft.to/lastmile_qr_scan"}}, {"name": "952700f96f05a0f9ec9e2345141c6752", "lon": -77.032604, "lat": 38.93522766666667, "type": "electric_scooter", "fusion_lon": 0.0, "is_reserved": 0, "bike_id": "952700f96f05a0f9ec9e2345141c6752", "fusion_lat": 0.0, "is_disabled": 0, "rental_uris": {"ios": "https://dc.lft.to/lastmile_qr_scan", "android": "https://dc.lft.to/lastmile_qr_scan"}}, {"name": "41e29557fab8fabe75adf96570ef0732", "lon": -77.04257466666667, "lat": 38.90855483333333, "type": "electric_scooter", "fusion_lon": 0.0, "is_reserved": 0, "bike_id": "41e29557fab8fabe75adf96570ef0732", "fusion_lat": 0.0, "is_disabled": 0, "rental_uris": {"ios": "https://dc.lft.to/lastmile_qr_scan", "android": "https://dc.lft.to/lastmile_qr_scan"}}, {"name": "d9ac8485b5d9f29cf3b6c4ad45da46ed", "lon": -77.02301616666666, "lat": 38.901718333333335, "type": "electric_bike", "fusion_lon": 0.0, "is_reserved": 0, "bike_id": "d9ac8485b5d9f29cf3b6c4ad45da46ed", "fusion_lat": 0.0, "is_disabled": 0, "rental_uris": {"ios": "https://dc.lft.to/lastmile_qr_scan", "android": "https://dc.lft.to/lastmile_qr_scan"}}, {"name": "dd69c7319bad22fc66f8fd62887f6011", "lon": -77.00451616666666, "lat": 38.87669566666667, "type": "electric_scooter", "fusion_lon": 0.0, "is_reserved": 0, "bike_id": "dd69c7319bad22fc66f8fd62887f6011", "fusion_lat": 0.0, "is_disabled": 0, "rental_uris": {"ios": "https://dc.lft.to/lastmile_qr_scan", "android": "https://dc.lft.to/lastmile_qr_scan"}}, {"name": "3803bbaad93d228eac3cf1f214749af8", "lon": -77.02974066666667, "lat": 38.9243725, "type": "electric_scooter", "fusion_lon": 0.0, "is_reserved": 0, "bike_id": "3803bbaad93d228eac3cf1f214749af8", "fusion_lat": 0.0, "is_disabled": 0, "rental_uris": {"ios": "https://dc.lft.to/lastmile_qr_scan", "android": "https://dc.lft.to/lastmile_qr_scan"}}, {"name": "529a4af4acbc3d1e532a252a9e66156f", "lon": -77.04998733333333, "lat": 38.89227116666667, "type": "electric_scooter", "fusion_lon": 0.0, "is_reserved": 0, "bike_id": "529a4af4acbc3d1e532a252a9e66156f", "fusion_lat": 0.0, "is_disabled": 0, "rental_uris": {"ios": "https://dc.lft.to/lastmile_qr_scan", "android": "https://dc.lft.to/lastmile_qr_scan"}}, {"name": "fb9846f679b3607f8aa0128e5e98735a", "lon": -77.036683, "lat": 38.927225666666665, "type": "electric_scooter", "fusion_lon": 0.0, "is_reserved": 0, "bike_id": "fb9846f679b3607f8aa0128e5e98735a", "fusion_lat": 0.0, "is_disabled": 0, "rental_uris": {"ios": "https://dc.lft.to/lastmile_qr_scan", "android": "https://dc.lft.to/lastmile_qr_scan"}}, {"name": "a1825b9ea0d13b53a4583f66831f2d76", "lon": -77.077398, "lat": 38.923715666666666, "type": "electric_scooter", "fusion_lon": 0.0, "is_reserved": 0, "bike_id": "a1825b9ea0d13b53a4583f66831f2d76", "fusion_lat": 0.0, "is_disabled": 0, "rental_uris": {"ios": "https://dc.lft.to/lastmile_qr_scan", "android": "https://dc.lft.to/lastmile_qr_scan"}}, {"name": "dc2d7baa25be1fca1da3249b84f93abd", "lon": -77.02340066666666, "lat": 38.94502966666667, "type": "electric_scooter", "fusion_lon": 0.0, "is_reserved": 0, "bike_id": "dc2d7baa25be1fca1da3249b84f93abd", "fusion_lat": 0.0, "is_disabled": 0, "rental_uris": {"ios": "https://dc.lft.to/lastmile_qr_scan", "android": "https://dc.lft.to/lastmile_qr_scan"}}, {"name": "7b5d0018110111924a28d917ab86037a", "lon": -77.0178635, "lat": 38.91991983333333, "type": "electric_scooter", "fusion_lon": 0.0, "is_reserved": 0, "bike_id": "7b5d0018110111924a28d917ab86037a", "fusion_lat": 0.0, "is_disabled": 0, "rental_uris": {"ios": "https://dc.lft.to/lastmile_qr_scan", "android": "https://dc.lft.to/lastmile_qr_scan"}}, {"name": "0be9f8be8830e41a93d2f34867cc3d9c", "lon": -76.97705216666667, "lat": 38.902472833333334, "type": "electric_scooter", "fusion_lon": 0.0, "is_reserved": 0, "bike_id": "0be9f8be8830e41a93d2f34867cc3d9c", "fusion_lat": 0.0, "is_disabled": 0, "rental_uris": {"ios": "https://dc.lft.to/lastmile_qr_scan", "android": "https://dc.lft.to/lastmile_qr_scan"}}, {"name": "ac2884d1f710b49c932723b465e52bfc", "lon": -77.0434625, "lat": 38.92349016666667, "type": "electric_scooter", "fusion_lon": 0.0, "is_reserved": 0, "bike_id": "ac2884d1f710b49c932723b465e52bfc", "fusion_lat": 0.0, "is_disabled": 0, "rental_uris": {"ios": "https://dc.lft.to/lastmile_qr_scan", "android": "https://dc.lft.to/lastmile_qr_scan"}}, {"name": "89a059d0949b907dd386cafbfe768ce7", "lon": -77.0321885, "lat": 38.90970216666667, "type": "electric_scooter", "fusion_lon": 0.0, "is_reserved": 0, "bike_id": "89a059d0949b907dd386cafbfe768ce7", "fusion_lat": 0.0, "is_disabled": 0, "rental_uris": {"ios": "https://dc.lft.to/lastmile_qr_scan", "android": "https://dc.lft.to/lastmile_qr_scan"}}, {"name": "c887c073e59fb359c896ba355bf458a9", "lon": -76.99513833333333, "lat": 38.88368083333334, "type": "electric_scooter", "fusion_lon": 0.0, "is_reserved": 0, "bike_id": "c887c073e59fb359c896ba355bf458a9", "fusion_lat": 0.0, "is_disabled": 0, "rental_uris": {"ios": "https://dc.lft.to/lastmile_qr_scan", "android": "https://dc.lft.to/lastmile_qr_scan"}}, {"name": "bc6498cfc58e0503c4918bb9362d37ba", "lon": -77.02955333333334, "lat": 38.91672366666667, "type": "electric_scooter", "fusion_lon": 0.0, "is_reserved": 0, "bike_id": "bc6498cfc58e0503c4918bb9362d37ba", "fusion_lat": 0.0, "is_disabled": 0, "rental_uris": {"ios": "https://dc.lft.to/lastmile_qr_scan", "android": "https://dc.lft.to/lastmile_qr_scan"}}, {"name": "e0bb17572bddc7eb0ec603518f2b4a3a", "lon": -76.9933455, "lat": 38.871430333333336, "type": "electric_scooter", "fusion_lon": 0.0, "is_reserved": 0, "bike_id": "e0bb17572bddc7eb0ec603518f2b4a3a", "fusion_lat": 0.0, "is_disabled": 0, "rental_uris": {"ios": "https://dc.lft.to/lastmile_qr_scan", "android": "https://dc.lft.to/lastmile_qr_scan"}}, {"name": "e1d99d9ae7e38fdd0835727700b86a6d", "lon": -76.98862966666667, "lat": 38.954825, "type": "electric_bike", "fusion_lon": 0.0, "is_reserved": 0, "bike_id": "e1d99d9ae7e38fdd0835727700b86a6d", "fusion_lat": 0.0, "is_disabled": 0, "rental_uris": {"ios": "https://dc.lft.to/lastmile_qr_scan", "android": "https://dc.lft.to/lastmile_qr_scan"}}, {"name": "2db523a342bed1e91dba05718765a30b", "lon": -76.94804683333334, "lat": 38.89402233333333, "type": "electric_bike", "fusion_lon": 0.0, "is_reserved": 0, "bike_id": "2db523a342bed1e91dba05718765a30b", "fusion_lat": 0.0, "is_disabled": 0, "rental_uris": {"ios": "https://dc.lft.to/lastmile_qr_scan", "android": "https://dc.lft.to/lastmile_qr_scan"}}, {"name": "5633d99cf620fdd324e0e78e9775dddc", "lon": -77.01694166666667, "lat": 38.974965, "type": "electric_scooter", "fusion_lon": 0.0, "is_reserved": 0, "bike_id": "5633d99cf620fdd324e0e78e9775dddc", "fusion_lat": 0.0, "is_disabled": 0, "rental_uris": {"ios": "https://dc.lft.to/lastmile_qr_scan", "android": "https://dc.lft.to/lastmile_qr_scan"}}, {"name": "ec74ae167a06d186b946b644b318c62c", "lon": -77.0260975, "lat": 38.93145883333333, "type": "electric_scooter", "fusion_lon": 0.0, "is_reserved": 0, "bike_id": "ec74ae167a06d186b946b644b318c62c", "fusion_lat": 0.0, "is_disabled": 0, "rental_uris": {"ios": "https://dc.lft.to/lastmile_qr_scan", "android": "https://dc.lft.to/lastmile_qr_scan"}}, {"name": "0dfb0be724451da8fbfd290e94e6eb93", "lon": -77.034403, "lat": 38.90978366666667, "type": "electric_scooter", "fusion_lon": 0.0, "is_reserved": 0, "bike_id": "0dfb0be724451da8fbfd290e94e6eb93", "fusion_lat": 0.0, "is_disabled": 0, "rental_uris": {"ios": "https://dc.lft.to/lastmile_qr_scan", "android": "https://dc.lft.to/lastmile_qr_scan"}}, {"name": "325103142b43ef55af3a3008f995a091", "lon": -77.0334805, "lat": 38.920475833333334, "type": "electric_scooter", "fusion_lon": 0.0, "is_reserved": 0, "bike_id": "325103142b43ef55af3a3008f995a091", "fusion_lat": 0.0, "is_disabled": 0, "rental_uris": {"ios": "https://dc.lft.to/lastmile_qr_scan", "android": "https://dc.lft.to/lastmile_qr_scan"}}, {"name": "d1fbb4a16d4a432ed4fa5656b7794cf3", "lon": -77.05817633333334, "lat": 38.9356265, "type": "electric_scooter", "fusion_lon": 0.0, "is_reserved": 0, "bike_id": "d1fbb4a16d4a432ed4fa5656b7794cf3", "fusion_lat": 0.0, "is_disabled": 0, "rental_uris": {"ios": "https://dc.lft.to/lastmile_qr_scan", "android": "https://dc.lft.to/lastmile_qr_scan"}}, {"name": "afa28a0c02d64c98be2489662f12c2ab", "lon": -77.02309566666666, "lat": 38.9274915, "type": "electric_scooter", "fusion_lon": 0.0, "is_reserved": 0, "bike_id": "afa28a0c02d64c98be2489662f12c2ab", "fusion_lat": 0.0, "is_disabled": 0, "rental_uris": {"ios": "https://dc.lft.to/lastmile_qr_scan", "android": "https://dc.lft.to/lastmile_qr_scan"}}, {"name": "7afbfe07ec77dff8dd7e2e7b2261cb8c", "lon": -77.00198916666666, "lat": 38.936796, "type": "electric_bike", "fusion_lon": 0.0, "is_reserved": 0, "bike_id": "7afbfe07ec77dff8dd7e2e7b2261cb8c", "fusion_lat": 0.0, "is_disabled": 0, "rental_uris": {"ios": "https://dc.lft.to/lastmile_qr_scan", "android": "https://dc.lft.to/lastmile_qr_scan"}}, {"name": "c69d81bfe9b4cafc353945b3a7cd95ab", "lon": -77.02171333333334, "lat": 38.905595, "type": "electric_scooter", "fusion_lon": 0.0, "is_reserved": 0, "bike_id": "c69d81bfe9b4cafc353945b3a7cd95ab", "fusion_lat": 0.0, "is_disabled": 0, "rental_uris": {"ios": "https://dc.lft.to/lastmile_qr_scan", "android": "https://dc.lft.to/lastmile_qr_scan"}}, {"name": "940873ea312fdeb7f101ef0ec07b2c63", "lon": -76.9374905, "lat": 38.89044833333333, "type": "electric_scooter", "fusion_lon": 0.0, "is_reserved": 0, "bike_id": "940873ea312fdeb7f101ef0ec07b2c63", "fusion_lat": 0.0, "is_disabled": 0, "rental_uris": {"ios": "https://dc.lft.to/lastmile_qr_scan", "android": "https://dc.lft.to/lastmile_qr_scan"}}, {"name": "fec6ee886c3dfebbd4621eda19e992c6", "lon": -76.96059366666667, "lat": 38.8840255, "type": "electric_bike", "fusion_lon": 0.0, "is_reserved": 0, "bike_id": "fec6ee886c3dfebbd4621eda19e992c6", "fusion_lat": 0.0, "is_disabled": 0, "rental_uris": {"ios": "https://dc.lft.to/lastmile_qr_scan", "android": "https://dc.lft.to/lastmile_qr_scan"}}, {"name": "62cbae58c0d0561d00e4dfd833031b8a", "lon": -77.04462783333334, "lat": 38.91895533333334, "type": "electric_scooter", "fusion_lon": 0.0, "is_reserved": 0, "bike_id": "62cbae58c0d0561d00e4dfd833031b8a", "fusion_lat": 0.0, "is_disabled": 0, "rental_uris": {"ios": "https://dc.lft.to/lastmile_qr_scan", "android": "https://dc.lft.to/lastmile_qr_scan"}}, {"name": "bc1166c73d2fe3c361104c22c3124bc3", "lon": -77.04708716666667, "lat": 38.89735833333334, "type": "electric_scooter", "fusion_lon": 0.0, "is_reserved": 0, "bike_id": "bc1166c73d2fe3c361104c22c3124bc3", "fusion_lat": 0.0, "is_disabled": 0, "rental_uris": {"ios": "https://dc.lft.to/lastmile_qr_scan", "android": "https://dc.lft.to/lastmile_qr_scan"}}, {"name": "82cbec257b88eb5d2b775fc0906b9146", "lon": -77.001831, "lat": 38.90006366666667, "type": "electric_scooter", "fusion_lon": 0.0, "is_reserved": 0, "bike_id": "82cbec257b88eb5d2b775fc0906b9146", "fusion_lat": 0.0, "is_disabled": 0, "rental_uris": {"ios": "https://dc.lft.to/lastmile_qr_scan", "android": "https://dc.lft.to/lastmile_qr_scan"}}, {"name": "4f115f3b0dd1c63ad5e7dffcef097200", "lon": -76.96599783333333, "lat": 38.87381516666667, "type": "electric_scooter", "fusion_lon": 0.0, "is_reserved": 0, "bike_id": "4f115f3b0dd1c63ad5e7dffcef097200", "fusion_lat": 0.0, "is_disabled": 0, "rental_uris": {"ios": "https://dc.lft.to/lastmile_qr_scan", "android": "https://dc.lft.to/lastmile_qr_scan"}}, {"name": "d30337ce337e8efd873d4fa6b034e9f9", "lon": -77.059144, "lat": 38.901021666666665, "type": "electric_scooter", "fusion_lon": 0.0, "is_reserved": 0, "bike_id": "d30337ce337e8efd873d4fa6b034e9f9", "fusion_lat": 0.0, "is_disabled": 0, "rental_uris": {"ios": "https://dc.lft.to/lastmile_qr_scan", "android": "https://dc.lft.to/lastmile_qr_scan"}}, {"name": "2a5f76337f333683f645c62ea9d96b16", "lon": -77.01527616666667, "lat": 38.88737533333333, "type": "electric_scooter", "fusion_lon": 0.0, "is_reserved": 0, "bike_id": "2a5f76337f333683f645c62ea9d96b16", "fusion_lat": 0.0, "is_disabled": 0, "rental_uris": {"ios": "https://dc.lft.to/lastmile_qr_scan", "android": "https://dc.lft.to/lastmile_qr_scan"}}, {"name": "caf0bc7fd1452638942ad0b7a82196a7", "lon": -76.9808785, "lat": 38.95352616666667, "type": "electric_bike", "fusion_lon": 0.0, "is_reserved": 0, "bike_id": "caf0bc7fd1452638942ad0b7a82196a7", "fusion_lat": 0.0, "is_disabled": 0, "rental_uris": {"ios": "https://dc.lft.to/lastmile_qr_scan", "android": "https://dc.lft.to/lastmile_qr_scan"}}, {"name": "10c455ec0bac7698e934bbea632b3da8", "lon": -77.04695366666667, "lat": 38.92177366666667, "type": "electric_scooter", "fusion_lon": 0.0, "is_reserved": 0, "bike_id": "10c455ec0bac7698e934bbea632b3da8", "fusion_lat": 0.0, "is_disabled": 0, "rental_uris": {"ios": "https://dc.lft.to/lastmile_qr_scan", "android": "https://dc.lft.to/lastmile_qr_scan"}}, {"name": "26a6a63e7858d485e75524a4252c2e76", "lon": -77.01196016666667, "lat": 38.917039833333334, "type": "electric_scooter", "fusion_lon": 0.0, "is_reserved": 0, "bike_id": "26a6a63e7858d485e75524a4252c2e76", "fusion_lat": 0.0, "is_disabled": 0, "rental_uris": {"ios": "https://dc.lft.to/lastmile_qr_scan", "android": "https://dc.lft.to/lastmile_qr_scan"}}, {"name": "e3b9df4212adaa3d1a65ca71d6861f82", "lon": -77.01744316666667, "lat": 38.88735833333333, "type": "electric_scooter", "fusion_lon": 0.0, "is_reserved": 0, "bike_id": "e3b9df4212adaa3d1a65ca71d6861f82", "fusion_lat": 0.0, "is_disabled": 0, "rental_uris": {"ios": "https://dc.lft.to/lastmile_qr_scan", "android": "https://dc.lft.to/lastmile_qr_scan"}}, {"name": "d9c70a391788759e73e122ec8fa2e99c", "lon": -77.05142266666667, "lat": 38.90436783333333, "type": "electric_scooter", "fusion_lon": 0.0, "is_reserved": 0, "bike_id": "d9c70a391788759e73e122ec8fa2e99c", "fusion_lat": 0.0, "is_disabled": 0, "rental_uris": {"ios": "https://dc.lft.to/lastmile_qr_scan", "android": "https://dc.lft.to/lastmile_qr_scan"}}, {"name": "52e3b7a94e5f8f6f588bc5c358595505", "lon": -76.96863416666666, "lat": 38.87092833333333, "type": "electric_scooter", "fusion_lon": 0.0, "is_reserved": 0, "bike_id": "52e3b7a94e5f8f6f588bc5c358595505", "fusion_lat": 0.0, "is_disabled": 0, "rental_uris": {"ios": "https://dc.lft.to/lastmile_qr_scan", "android": "https://dc.lft.to/lastmile_qr_scan"}}, {"name": "0c72babe0ab87e9684f1651621c6bc39", "lon": -77.02683566666667, "lat": 38.927802666666665, "type": "electric_scooter", "fusion_lon": 0.0, "is_reserved": 0, "bike_id": "0c72babe0ab87e9684f1651621c6bc39", "fusion_lat": 0.0, "is_disabled": 0, "rental_uris": {"ios": "https://dc.lft.to/lastmile_qr_scan", "android": "https://dc.lft.to/lastmile_qr_scan"}}, {"name": "7499fdc45fd63e77f326a1814aab8fa5", "lon": -76.96007983333334, "lat": 38.89645816666667, "type": "electric_scooter", "fusion_lon": 0.0, "is_reserved": 0, "bike_id": "7499fdc45fd63e77f326a1814aab8fa5", "fusion_lat": 0.0, "is_disabled": 0, "rental_uris": {"ios": "https://dc.lft.to/lastmile_qr_scan", "android": "https://dc.lft.to/lastmile_qr_scan"}}, {"name": "0220e7e24d9a6f7c9c38515f480acc49", "lon": -76.98968483333333, "lat": 38.86537216666667, "type": "electric_scooter", "fusion_lon": 0.0, "is_reserved": 0, "bike_id": "0220e7e24d9a6f7c9c38515f480acc49", "fusion_lat": 0.0, "is_disabled": 0, "rental_uris": {"ios": "https://dc.lft.to/lastmile_qr_scan", "android": "https://dc.lft.to/lastmile_qr_scan"}}, {"name": "a8a0015d44b01fcf3afefe3faa00506e", "lon": -77.03441233333334, "lat": 38.9101095, "type": "electric_scooter", "fusion_lon": 0.0, "is_reserved": 0, "bike_id": "a8a0015d44b01fcf3afefe3faa00506e", "fusion_lat": 0.0, "is_disabled": 0, "rental_uris": {"ios": "https://dc.lft.to/lastmile_qr_scan", "android": "https://dc.lft.to/lastmile_qr_scan"}}, {"name": "69614f493c91d9437099ceb105075cb2", "lon": -77.03838616666667, "lat": 38.921581, "type": "electric_scooter", "fusion_lon": 0.0, "is_reserved": 0, "bike_id": "69614f493c91d9437099ceb105075cb2", "fusion_lat": 0.0, "is_disabled": 0, "rental_uris": {"ios": "https://dc.lft.to/lastmile_qr_scan", "android": "https://dc.lft.to/lastmile_qr_scan"}}, {"name": "5b0bed6317eb694722d02552d114cded", "lon": -77.03111133333333, "lat": 38.91711316666667, "type": "electric_scooter", "fusion_lon": 0.0, "is_reserved": 0, "bike_id": "5b0bed6317eb694722d02552d114cded", "fusion_lat": 0.0, "is_disabled": 0, "rental_uris": {"ios": "https://dc.lft.to/lastmile_qr_scan", "android": "https://dc.lft.to/lastmile_qr_scan"}}, {"name": "0562ed5f8eca0b621124964861cebc14", "lon": -77.01136416666667, "lat": 38.90637533333334, "type": "electric_scooter", "fusion_lon": 0.0, "is_reserved": 0, "bike_id": "0562ed5f8eca0b621124964861cebc14", "fusion_lat": 0.0, "is_disabled": 0, "rental_uris": {"ios": "https://dc.lft.to/lastmile_qr_scan", "android": "https://dc.lft.to/lastmile_qr_scan"}}, {"name": "03f5f4a41ecfc128f0c3288d00ab1c65", "lon": -76.93643083333333, "lat": 38.87147083333333, "type": "electric_bike", "fusion_lon": 0.0, "is_reserved": 0, "bike_id": "03f5f4a41ecfc128f0c3288d00ab1c65", "fusion_lat": 0.0, "is_disabled": 0, "rental_uris": {"ios": "https://dc.lft.to/lastmile_qr_scan", "android": "https://dc.lft.to/lastmile_qr_scan"}}, {"name": "288f930281554138745d26cc75cdfacd", "lon": -77.02438683333334, "lat": 38.90970333333333, "type": "electric_scooter", "fusion_lon": 0.0, "is_reserved": 0, "bike_id": "288f930281554138745d26cc75cdfacd", "fusion_lat": 0.0, "is_disabled": 0, "rental_uris": {"ios": "https://dc.lft.to/lastmile_qr_scan", "android": "https://dc.lft.to/lastmile_qr_scan"}}, {"name": "587b96553605d74ac1dc69dd17202176", "lon": -76.9901365, "lat": 38.90500333333333, "type": "electric_scooter", "fusion_lon": 0.0, "is_reserved": 0, "bike_id": "587b96553605d74ac1dc69dd17202176", "fusion_lat": 0.0, "is_disabled": 0, "rental_uris": {"ios": "https://dc.lft.to/lastmile_qr_scan", "android": "https://dc.lft.to/lastmile_qr_scan"}}, {"name": "518acbc8487f1cf7928024b332fb3bd5", "lon": -77.03758866666666, "lat": 38.91693566666667, "type": "electric_scooter", "fusion_lon": 0.0, "is_reserved": 0, "bike_id": "518acbc8487f1cf7928024b332fb3bd5", "fusion_lat": 0.0, "is_disabled": 0, "rental_uris": {"ios": "https://dc.lft.to/lastmile_qr_scan", "android": "https://dc.lft.to/lastmile_qr_scan"}}, {"name": "395576a867c943d640c42502f1b06797", "lon": -77.0297195, "lat": 38.91677283333333, "type": "electric_scooter", "fusion_lon": 0.0, "is_reserved": 0, "bike_id": "395576a867c943d640c42502f1b06797", "fusion_lat": 0.0, "is_disabled": 0, "rental_uris": {"ios": "https://dc.lft.to/lastmile_qr_scan", "android": "https://dc.lft.to/lastmile_qr_scan"}}, {"name": "e73c33a7432a898c1dc110246b25fb63", "lon": -76.97584783333333, "lat": 38.84029133333333, "type": "electric_bike", "fusion_lon": 0.0, "is_reserved": 0, "bike_id": "e73c33a7432a898c1dc110246b25fb63", "fusion_lat": 0.0, "is_disabled": 0, "rental_uris": {"ios": "https://dc.lft.to/lastmile_qr_scan", "android": "https://dc.lft.to/lastmile_qr_scan"}}, {"name": "dfa0233c659669bcf150bae8d6f56125", "lon": -77.03736833333333, "lat": 38.93571283333333, "type": "electric_scooter", "fusion_lon": 0.0, "is_reserved": 0, "bike_id": "dfa0233c659669bcf150bae8d6f56125", "fusion_lat": 0.0, "is_disabled": 0, "rental_uris": {"ios": "https://dc.lft.to/lastmile_qr_scan", "android": "https://dc.lft.to/lastmile_qr_scan"}}, {"name": "1c14c53c552a782ea065f0387a522732", "lon": -77.04940283333333, "lat": 38.90972633333333, "type": "electric_scooter", "fusion_lon": 0.0, "is_reserved": 0, "bike_id": "1c14c53c552a782ea065f0387a522732", "fusion_lat": 0.0, "is_disabled": 0, "rental_uris": {"ios": "https://dc.lft.to/lastmile_qr_scan", "android": "https://dc.lft.to/lastmile_qr_scan"}}, {"name": "afa3309cdaa574dbf5f71b1d282cd57d", "lon": -77.049099, "lat": 38.900747833333334, "type": "electric_scooter", "fusion_lon": 0.0, "is_reserved": 0, "bike_id": "afa3309cdaa574dbf5f71b1d282cd57d", "fusion_lat": 0.0, "is_disabled": 0, "rental_uris": {"ios": "https://dc.lft.to/lastmile_qr_scan", "android": "https://dc.lft.to/lastmile_qr_scan"}}, {"name": "f72a026392a9c01e650b08405c824d84", "lon": -77.0050465, "lat": 38.9168795, "type": "electric_scooter", "fusion_lon": 0.0, "is_reserved": 0, "bike_id": "f72a026392a9c01e650b08405c824d84", "fusion_lat": 0.0, "is_disabled": 0, "rental_uris": {"ios": "https://dc.lft.to/lastmile_qr_scan", "android": "https://dc.lft.to/lastmile_qr_scan"}}, {"name": "9299e66adc0e42713d1f3213e8fc30f5", "lon": -77.0222535, "lat": 38.956879666666666, "type": "electric_bike", "fusion_lon": 0.0, "is_reserved": 0, "bike_id": "9299e66adc0e42713d1f3213e8fc30f5", "fusion_lat": 0.0, "is_disabled": 0, "rental_uris": {"ios": "https://dc.lft.to/lastmile_qr_scan", "android": "https://dc.lft.to/lastmile_qr_scan"}}, {"name": "1ae60c33e4442e125502de424be15ab4", "lon": -77.02493966666667, "lat": 38.92070916666667, "type": "electric_scooter", "fusion_lon": 0.0, "is_reserved": 0, "bike_id": "1ae60c33e4442e125502de424be15ab4", "fusion_lat": 0.0, "is_disabled": 0, "rental_uris": {"ios": "https://dc.lft.to/lastmile_qr_scan", "android": "https://dc.lft.to/lastmile_qr_scan"}}, {"name": "d1e07643bfa679a807b5b3a09390cf96", "lon": -77.04604283333333, "lat": 38.916915833333334, "type": "electric_scooter", "fusion_lon": 0.0, "is_reserved": 0, "bike_id": "d1e07643bfa679a807b5b3a09390cf96", "fusion_lat": 0.0, "is_disabled": 0, "rental_uris": {"ios": "https://dc.lft.to/lastmile_qr_scan", "android": "https://dc.lft.to/lastmile_qr_scan"}}, {"name": "10af2285897f6f05db921bb95931fc40", "lon": -77.03296533333334, "lat": 38.91620566666667, "type": "electric_scooter", "fusion_lon": 0.0, "is_reserved": 0, "bike_id": "10af2285897f6f05db921bb95931fc40", "fusion_lat": 0.0, "is_disabled": 0, "rental_uris": {"ios": "https://dc.lft.to/lastmile_qr_scan", "android": "https://dc.lft.to/lastmile_qr_scan"}}, {"name": "fc4a2dd36a56626b2528c69d8b815070", "lon": -77.04495533333333, "lat": 38.9193445, "type": "electric_scooter", "fusion_lon": 0.0, "is_reserved": 0, "bike_id": "fc4a2dd36a56626b2528c69d8b815070", "fusion_lat": 0.0, "is_disabled": 0, "rental_uris": {"ios": "https://dc.lft.to/lastmile_qr_scan", "android": "https://dc.lft.to/lastmile_qr_scan"}}, {"name": "354ece8ad0e5bb79d58f78624b74a49d", "lon": -77.0109275, "lat": 38.9034445, "type": "electric_scooter", "fusion_lon": 0.0, "is_reserved": 0, "bike_id": "354ece8ad0e5bb79d58f78624b74a49d", "fusion_lat": 0.0, "is_disabled": 0, "rental_uris": {"ios": "https://dc.lft.to/lastmile_qr_scan", "android": "https://dc.lft.to/lastmile_qr_scan"}}, {"name": "35cc6f96ddfc8673ee950da90dca1a9c", "lon": -77.0925775, "lat": 38.941519666666665, "type": "electric_scooter", "fusion_lon": 0.0, "is_reserved": 0, "bike_id": "35cc6f96ddfc8673ee950da90dca1a9c", "fusion_lat": 0.0, "is_disabled": 0, "rental_uris": {"ios": "https://dc.lft.to/lastmile_qr_scan", "android": "https://dc.lft.to/lastmile_qr_scan"}}, {"name": "f4abf11411d98d5f0022e3ecb25f209f", "lon": -77.03121616666667, "lat": 38.91559633333333, "type": "electric_scooter", "fusion_lon": 0.0, "is_reserved": 0, "bike_id": "f4abf11411d98d5f0022e3ecb25f209f", "fusion_lat": 0.0, "is_disabled": 0, "rental_uris": {"ios": "https://dc.lft.to/lastmile_qr_scan", "android": "https://dc.lft.to/lastmile_qr_scan"}}, {"name": "3e37b3fd513e5a648dd090ab23d22b88", "lon": -77.02677666666666, "lat": 38.90229733333334, "type": "electric_scooter", "fusion_lon": 0.0, "is_reserved": 0, "bike_id": "3e37b3fd513e5a648dd090ab23d22b88", "fusion_lat": 0.0, "is_disabled": 0, "rental_uris": {"ios": "https://dc.lft.to/lastmile_qr_scan", "android": "https://dc.lft.to/lastmile_qr_scan"}}, {"name": "3fbd32bb10da210d59a455751baaf4dd", "lon": -77.030796, "lat": 38.91109216666667, "type": "electric_scooter", "fusion_lon": 0.0, "is_reserved": 0, "bike_id": "3fbd32bb10da210d59a455751baaf4dd", "fusion_lat": 0.0, "is_disabled": 0, "rental_uris": {"ios": "https://dc.lft.to/lastmile_qr_scan", "android": "https://dc.lft.to/lastmile_qr_scan"}}, {"name": "b15388bd56869980d2b2a63b6a804b21", "lon": -77.05574016666667, "lat": 38.936248666666664, "type": "electric_scooter", "fusion_lon": 0.0, "is_reserved": 0, "bike_id": "b15388bd56869980d2b2a63b6a804b21", "fusion_lat": 0.0, "is_disabled": 0, "rental_uris": {"ios": "https://dc.lft.to/lastmile_qr_scan", "android": "https://dc.lft.to/lastmile_qr_scan"}}, {"name": "7496faa5c8343a64cd9a7a0bf8756ca5", "lon": -77.04484116666667, "lat": 38.92408416666667, "type": "electric_scooter", "fusion_lon": 0.0, "is_reserved": 0, "bike_id": "7496faa5c8343a64cd9a7a0bf8756ca5", "fusion_lat": 0.0, "is_disabled": 0, "rental_uris": {"ios": "https://dc.lft.to/lastmile_qr_scan", "android": "https://dc.lft.to/lastmile_qr_scan"}}, {"name": "a0d8d53207ae19f850a9f22b51cadda1", "lon": -77.0219865, "lat": 38.89978033333333, "type": "electric_scooter", "fusion_lon": 0.0, "is_reserved": 0, "bike_id": "a0d8d53207ae19f850a9f22b51cadda1", "fusion_lat": 0.0, "is_disabled": 0, "rental_uris": {"ios": "https://dc.lft.to/lastmile_qr_scan", "android": "https://dc.lft.to/lastmile_qr_scan"}}, {"name": "0f586162dae28be75e4e6a3e442e99d2", "lon": -77.052192, "lat": 38.92486066666667, "type": "electric_scooter", "fusion_lon": 0.0, "is_reserved": 0, "bike_id": "0f586162dae28be75e4e6a3e442e99d2", "fusion_lat": 0.0, "is_disabled": 0, "rental_uris": {"ios": "https://dc.lft.to/lastmile_qr_scan", "android": "https://dc.lft.to/lastmile_qr_scan"}}, {"name": "cc9f601ae2a1f7eac671fb30f019a3a1", "lon": -77.00594616666666, "lat": 38.90645983333334, "type": "electric_scooter", "fusion_lon": 0.0, "is_reserved": 0, "bike_id": "cc9f601ae2a1f7eac671fb30f019a3a1", "fusion_lat": 0.0, "is_disabled": 0, "rental_uris": {"ios": "https://dc.lft.to/lastmile_qr_scan", "android": "https://dc.lft.to/lastmile_qr_scan"}}, {"name": "10a33b388db0df5b8dc832a4e1fadb46", "lon": -77.00916633333334, "lat": 38.82783166666667, "type": "electric_scooter", "fusion_lon": 0.0, "is_reserved": 0, "bike_id": "10a33b388db0df5b8dc832a4e1fadb46", "fusion_lat": 0.0, "is_disabled": 0, "rental_uris": {"ios": "https://dc.lft.to/lastmile_qr_scan", "android": "https://dc.lft.to/lastmile_qr_scan"}}, {"name": "273c93dc87eb4b1c10e2a54903122789", "lon": -77.03308033333333, "lat": 38.9263015, "type": "electric_bike", "fusion_lon": 0.0, "is_reserved": 0, "bike_id": "273c93dc87eb4b1c10e2a54903122789", "fusion_lat": 0.0, "is_disabled": 0, "rental_uris": {"ios": "https://dc.lft.to/lastmile_qr_scan", "android": "https://dc.lft.to/lastmile_qr_scan"}}, {"name": "7ad995aef0057046cfaa20058d1b5adc", "lon": -76.99381766666667, "lat": 38.877619333333335, "type": "electric_scooter", "fusion_lon": 0.0, "is_reserved": 0, "bike_id": "7ad995aef0057046cfaa20058d1b5adc", "fusion_lat": 0.0, "is_disabled": 0, "rental_uris": {"ios": "https://dc.lft.to/lastmile_qr_scan", "android": "https://dc.lft.to/lastmile_qr_scan"}}, {"name": "e99815ef2b18b95ed59a6365060bf2ee", "lon": -77.021605, "lat": 38.92612783333333, "type": "electric_scooter", "fusion_lon": 0.0, "is_reserved": 0, "bike_id": "e99815ef2b18b95ed59a6365060bf2ee", "fusion_lat": 0.0, "is_disabled": 0, "rental_uris": {"ios": "https://dc.lft.to/lastmile_qr_scan", "android": "https://dc.lft.to/lastmile_qr_scan"}}, {"name": "58a0398387452f831339b78bf07d97f0", "lon": -76.95017716666666, "lat": 38.893878, "type": "electric_scooter", "fusion_lon": 0.0, "is_reserved": 0, "bike_id": "58a0398387452f831339b78bf07d97f0", "fusion_lat": 0.0, "is_disabled": 0, "rental_uris": {"ios": "https://dc.lft.to/lastmile_qr_scan", "android": "https://dc.lft.to/lastmile_qr_scan"}}, {"name": "780a1e59a023e3b4b59efccfaba06408", "lon": -77.036009, "lat": 38.927986, "type": "electric_scooter", "fusion_lon": 0.0, "is_reserved": 0, "bike_id": "780a1e59a023e3b4b59efccfaba06408", "fusion_lat": 0.0, "is_disabled": 0, "rental_uris": {"ios": "https://dc.lft.to/lastmile_qr_scan", "android": "https://dc.lft.to/lastmile_qr_scan"}}, {"name": "22d121a8a11b2f7ed251d93620b77187", "lon": -77.03465783333333, "lat": 38.920541, "type": "electric_scooter", "fusion_lon": 0.0, "is_reserved": 0, "bike_id": "22d121a8a11b2f7ed251d93620b77187", "fusion_lat": 0.0, "is_disabled": 0, "rental_uris": {"ios": "https://dc.lft.to/lastmile_qr_scan", "android": "https://dc.lft.to/lastmile_qr_scan"}}, {"name": "f8811089bbaf5e4eacf6dbd045b12a30", "lon": -77.02714266666666, "lat": 38.92455833333333, "type": "electric_scooter", "fusion_lon": 0.0, "is_reserved": 0, "bike_id": "f8811089bbaf5e4eacf6dbd045b12a30", "fusion_lat": 0.0, "is_disabled": 0, "rental_uris": {"ios": "https://dc.lft.to/lastmile_qr_scan", "android": "https://dc.lft.to/lastmile_qr_scan"}}, {"name": "33fee61c668c410a68db4d061baad536", "lon": -76.98831166666666, "lat": 38.9003275, "type": "electric_scooter", "fusion_lon": 0.0, "is_reserved": 0, "bike_id": "33fee61c668c410a68db4d061baad536", "fusion_lat": 0.0, "is_disabled": 0, "rental_uris": {"ios": "https://dc.lft.to/lastmile_qr_scan", "android": "https://dc.lft.to/lastmile_qr_scan"}}, {"name": "59a1ecd40a6dd6a9e8bba66b019cff51", "lon": -77.01672866666667, "lat": 38.88112816666667, "type": "electric_scooter", "fusion_lon": 0.0, "is_reserved": 0, "bike_id": "59a1ecd40a6dd6a9e8bba66b019cff51", "fusion_lat": 0.0, "is_disabled": 0, "rental_uris": {"ios": "https://dc.lft.to/lastmile_qr_scan", "android": "https://dc.lft.to/lastmile_qr_scan"}}, {"name": "e4e6d34f332a2a3b1ea8a6cb0baa17a1", "lon": -77.02721916666667, "lat": 38.940855166666665, "type": "electric_scooter", "fusion_lon": 0.0, "is_reserved": 0, "bike_id": "e4e6d34f332a2a3b1ea8a6cb0baa17a1", "fusion_lat": 0.0, "is_disabled": 0, "rental_uris": {"ios": "https://dc.lft.to/lastmile_qr_scan", "android": "https://dc.lft.to/lastmile_qr_scan"}}, {"name": "5c7f634bb0d5efb61279e10ea627f50b", "lon": -77.0499685, "lat": 38.8922865, "type": "electric_scooter", "fusion_lon": 0.0, "is_reserved": 0, "bike_id": "5c7f634bb0d5efb61279e10ea627f50b", "fusion_lat": 0.0, "is_disabled": 0, "rental_uris": {"ios": "https://dc.lft.to/lastmile_qr_scan", "android": "https://dc.lft.to/lastmile_qr_scan"}}, {"name": "3eba49b8b1bef2c8d41fb666b0696407", "lon": -77.10090933333333, "lat": 38.95956416666667, "type": "electric_bike", "fusion_lon": 0.0, "is_reserved": 0, "bike_id": "3eba49b8b1bef2c8d41fb666b0696407", "fusion_lat": 0.0, "is_disabled": 0, "rental_uris": {"ios": "https://dc.lft.to/lastmile_qr_scan", "android": "https://dc.lft.to/lastmile_qr_scan"}}, {"name": "1bcf3be73fff940fe08d15ec63615d09", "lon": -77.037908, "lat": 38.9247775, "type": "electric_scooter", "fusion_lon": 0.0, "is_reserved": 0, "bike_id": "1bcf3be73fff940fe08d15ec63615d09", "fusion_lat": 0.0, "is_disabled": 0, "rental_uris": {"ios": "https://dc.lft.to/lastmile_qr_scan", "android": "https://dc.lft.to/lastmile_qr_scan"}}, {"name": "9b178846b526cb309dac279290e33aa6", "lon": -77.03166416666667, "lat": 38.91181733333333, "type": "electric_scooter", "fusion_lon": 0.0, "is_reserved": 0, "bike_id": "9b178846b526cb309dac279290e33aa6", "fusion_lat": 0.0, "is_disabled": 0, "rental_uris": {"ios": "https://dc.lft.to/lastmile_qr_scan", "android": "https://dc.lft.to/lastmile_qr_scan"}}, {"name": "3e2c99c1b4187caf9e9503d41489fd8b", "lon": -77.0393835, "lat": 38.914138333333334, "type": "electric_scooter", "fusion_lon": 0.0, "is_reserved": 0, "bike_id": "3e2c99c1b4187caf9e9503d41489fd8b", "fusion_lat": 0.0, "is_disabled": 0, "rental_uris": {"ios": "https://dc.lft.to/lastmile_qr_scan", "android": "https://dc.lft.to/lastmile_qr_scan"}}, {"name": "30e730d060aa37ddadb97193a4d6f0b4", "lon": -77.03408466666667, "lat": 38.920403666666665, "type": "electric_scooter", "fusion_lon": 0.0, "is_reserved": 0, "bike_id": "30e730d060aa37ddadb97193a4d6f0b4", "fusion_lat": 0.0, "is_disabled": 0, "rental_uris": {"ios": "https://dc.lft.to/lastmile_qr_scan", "android": "https://dc.lft.to/lastmile_qr_scan"}}, {"name": "9a32eaeaf661edfc1fb7997fa5efca1d", "lon": -77.03217433333333, "lat": 38.9361615, "type": "electric_scooter", "fusion_lon": 0.0, "is_reserved": 0, "bike_id": "9a32eaeaf661edfc1fb7997fa5efca1d", "fusion_lat": 0.0, "is_disabled": 0, "rental_uris": {"ios": "https://dc.lft.to/lastmile_qr_scan", "android": "https://dc.lft.to/lastmile_qr_scan"}}, {"name": "6e7562fb262ccfde969564897cd7fc58", "lon": -77.01317983333334, "lat": 38.929911833333335, "type": "electric_scooter", "fusion_lon": 0.0, "is_reserved": 0, "bike_id": "6e7562fb262ccfde969564897cd7fc58", "fusion_lat": 0.0, "is_disabled": 0, "rental_uris": {"ios": "https://dc.lft.to/lastmile_qr_scan", "android": "https://dc.lft.to/lastmile_qr_scan"}}, {"name": "b1105d406c4e29a5193c82f0cb337206", "lon": -77.016054, "lat": 38.895057333333334, "type": "electric_scooter", "fusion_lon": 0.0, "is_reserved": 0, "bike_id": "b1105d406c4e29a5193c82f0cb337206", "fusion_lat": 0.0, "is_disabled": 0, "rental_uris": {"ios": "https://dc.lft.to/lastmile_qr_scan", "android": "https://dc.lft.to/lastmile_qr_scan"}}, {"name": "279e7acd1ec4f575213e1d352874725c", "lon": -77.03195033333333, "lat": 38.90820983333333, "type": "electric_scooter", "fusion_lon": 0.0, "is_reserved": 0, "bike_id": "279e7acd1ec4f575213e1d352874725c", "fusion_lat": 0.0, "is_disabled": 0, "rental_uris": {"ios": "https://dc.lft.to/lastmile_qr_scan", "android": "https://dc.lft.to/lastmile_qr_scan"}}, {"name": "51e01e1a787dbd39130a93e93fdc7c5e", "lon": -77.03465466666667, "lat": 38.91708633333333, "type": "electric_scooter", "fusion_lon": 0.0, "is_reserved": 0, "bike_id": "51e01e1a787dbd39130a93e93fdc7c5e", "fusion_lat": 0.0, "is_disabled": 0, "rental_uris": {"ios": "https://dc.lft.to/lastmile_qr_scan", "android": "https://dc.lft.to/lastmile_qr_scan"}}, {"name": "2158a90a4763fe2d3e0ff2fedb7e6117", "lon": -77.03070416666667, "lat": 38.91756016666667, "type": "electric_scooter", "fusion_lon": 0.0, "is_reserved": 0, "bike_id": "2158a90a4763fe2d3e0ff2fedb7e6117", "fusion_lat": 0.0, "is_disabled": 0, "rental_uris": {"ios": "https://dc.lft.to/lastmile_qr_scan", "android": "https://dc.lft.to/lastmile_qr_scan"}}, {"name": "db0d6487934d2d5c0584c73ad3e9280e", "lon": -77.02151583333334, "lat": 38.901688666666665, "type": "electric_scooter", "fusion_lon": 0.0, "is_reserved": 0, "bike_id": "db0d6487934d2d5c0584c73ad3e9280e", "fusion_lat": 0.0, "is_disabled": 0, "rental_uris": {"ios": "https://dc.lft.to/lastmile_qr_scan", "android": "https://dc.lft.to/lastmile_qr_scan"}}, {"name": "dd9eabb1858812868cf01cceba54f5c8", "lon": -76.97649416666667, "lat": 38.898577333333336, "type": "electric_scooter", "fusion_lon": 0.0, "is_reserved": 0, "bike_id": "dd9eabb1858812868cf01cceba54f5c8", "fusion_lat": 0.0, "is_disabled": 0, "rental_uris": {"ios": "https://dc.lft.to/lastmile_qr_scan", "android": "https://dc.lft.to/lastmile_qr_scan"}}, {"name": "53d0ba6ed14b5cbdd761f63c0a1b3bae", "lon": -77.026805, "lat": 38.927822166666665, "type": "electric_scooter", "fusion_lon": 0.0, "is_reserved": 0, "bike_id": "53d0ba6ed14b5cbdd761f63c0a1b3bae", "fusion_lat": 0.0, "is_disabled": 0, "rental_uris": {"ios": "https://dc.lft.to/lastmile_qr_scan", "android": "https://dc.lft.to/lastmile_qr_scan"}}, {"name": "e551fbebadc0cc8bb543c81343d50e1b", "lon": -77.03415633333333, "lat": 38.923111166666665, "type": "electric_scooter", "fusion_lon": 0.0, "is_reserved": 0, "bike_id": "e551fbebadc0cc8bb543c81343d50e1b", "fusion_lat": 0.0, "is_disabled": 0, "rental_uris": {"ios": "https://dc.lft.to/lastmile_qr_scan", "android": "https://dc.lft.to/lastmile_qr_scan"}}, {"name": "62cab438c23d14f3d643ed1c4c63ee49", "lon": -77.03941083333333, "lat": 38.9156145, "type": "electric_scooter", "fusion_lon": 0.0, "is_reserved": 0, "bike_id": "62cab438c23d14f3d643ed1c4c63ee49", "fusion_lat": 0.0, "is_disabled": 0, "rental_uris": {"ios": "https://dc.lft.to/lastmile_qr_scan", "android": "https://dc.lft.to/lastmile_qr_scan"}}, {"name": "4ae673c7295449f49fcbab30deb6a98a", "lon": -77.02605516666667, "lat": 38.90123833333333, "type": "electric_scooter", "fusion_lon": 0.0, "is_reserved": 0, "bike_id": "4ae673c7295449f49fcbab30deb6a98a", "fusion_lat": 0.0, "is_disabled": 0, "rental_uris": {"ios": "https://dc.lft.to/lastmile_qr_scan", "android": "https://dc.lft.to/lastmile_qr_scan"}}, {"name": "da7832ae65905786e9ef4490d79b28cd", "lon": -76.9938575, "lat": 38.89726233333333, "type": "electric_scooter", "fusion_lon": 0.0, "is_reserved": 0, "bike_id": "da7832ae65905786e9ef4490d79b28cd", "fusion_lat": 0.0, "is_disabled": 0, "rental_uris": {"ios": "https://dc.lft.to/lastmile_qr_scan", "android": "https://dc.lft.to/lastmile_qr_scan"}}, {"name": "c8bcadd2d81e19e8abf94a9f669413b8", "lon": -77.0296345, "lat": 38.92331866666667, "type": "electric_scooter", "fusion_lon": 0.0, "is_reserved": 0, "bike_id": "c8bcadd2d81e19e8abf94a9f669413b8", "fusion_lat": 0.0, "is_disabled": 0, "rental_uris": {"ios": "https://dc.lft.to/lastmile_qr_scan", "android": "https://dc.lft.to/lastmile_qr_scan"}}, {"name": "3e2c858d9d6d8848bca10e35c6eafcd9", "lon": -76.99945516666666, "lat": 38.84294116666667, "type": "electric_scooter", "fusion_lon": 0.0, "is_reserved": 0, "bike_id": "3e2c858d9d6d8848bca10e35c6eafcd9", "fusion_lat": 0.0, "is_disabled": 0, "rental_uris": {"ios": "https://dc.lft.to/lastmile_qr_scan", "android": "https://dc.lft.to/lastmile_qr_scan"}}, {"name": "c306c2124c649190c2ae99e7153d5a00", "lon": -76.96261383333334, "lat": 38.882447166666665, "type": "electric_bike", "fusion_lon": 0.0, "is_reserved": 0, "bike_id": "c306c2124c649190c2ae99e7153d5a00", "fusion_lat": 0.0, "is_disabled": 0, "rental_uris": {"ios": "https://dc.lft.to/lastmile_qr_scan", "android": "https://dc.lft.to/lastmile_qr_scan"}}, {"name": "c08758f48c7c36e178d338d3ea75c71e", "lon": -77.10327083333334, "lat": 38.874179166666664, "type": "electric_bike", "fusion_lon": 0.0, "is_reserved": 0, "bike_id": "c08758f48c7c36e178d338d3ea75c71e", "fusion_lat": 0.0, "is_disabled": 0, "rental_uris": {"ios": "https://dc.lft.to/lastmile_qr_scan", "android": "https://dc.lft.to/lastmile_qr_scan"}}, {"name": "79b03a6d44dd52798e48ecd3d05b6dd5", "lon": -77.04357216666666, "lat": 38.91784666666667, "type": "electric_scooter", "fusion_lon": 0.0, "is_reserved": 0, "bike_id": "79b03a6d44dd52798e48ecd3d05b6dd5", "fusion_lat": 0.0, "is_disabled": 0, "rental_uris": {"ios": "https://dc.lft.to/lastmile_qr_scan", "android": "https://dc.lft.to/lastmile_qr_scan"}}, {"name": "d7a1a8669fc302349ba1f931b373dee6", "lon": -77.08290666666667, "lat": 38.930065166666665, "type": "electric_scooter", "fusion_lon": 0.0, "is_reserved": 0, "bike_id": "d7a1a8669fc302349ba1f931b373dee6", "fusion_lat": 0.0, "is_disabled": 0, "rental_uris": {"ios": "https://dc.lft.to/lastmile_qr_scan", "android": "https://dc.lft.to/lastmile_qr_scan"}}, {"name": "15263313b3f362dce18f55fc0a5099d0", "lon": -77.04347316666667, "lat": 38.906282, "type": "electric_scooter", "fusion_lon": 0.0, "is_reserved": 0, "bike_id": "15263313b3f362dce18f55fc0a5099d0", "fusion_lat": 0.0, "is_disabled": 0, "rental_uris": {"ios": "https://dc.lft.to/lastmile_qr_scan", "android": "https://dc.lft.to/lastmile_qr_scan"}}, {"name": "59a8e77eebce065ccfb402ce3e3db1f7", "lon": -77.04251966666666, "lat": 38.920593333333336, "type": "electric_scooter", "fusion_lon": 0.0, "is_reserved": 0, "bike_id": "59a8e77eebce065ccfb402ce3e3db1f7", "fusion_lat": 0.0, "is_disabled": 0, "rental_uris": {"ios": "https://dc.lft.to/lastmile_qr_scan", "android": "https://dc.lft.to/lastmile_qr_scan"}}, {"name": "74541c7fe71f99c8f78938ec5c2333a6", "lon": -77.030524, "lat": 38.923745833333335, "type": "electric_scooter", "fusion_lon": 0.0, "is_reserved": 0, "bike_id": "74541c7fe71f99c8f78938ec5c2333a6", "fusion_lat": 0.0, "is_disabled": 0, "rental_uris": {"ios": "https://dc.lft.to/lastmile_qr_scan", "android": "https://dc.lft.to/lastmile_qr_scan"}}, {"name": "a13aa402aaf51d57c3ce9a330b4439b1", "lon": -77.02405133333333, "lat": 38.90953833333333, "type": "electric_scooter", "fusion_lon": 0.0, "is_reserved": 0, "bike_id": "a13aa402aaf51d57c3ce9a330b4439b1", "fusion_lat": 0.0, "is_disabled": 0, "rental_uris": {"ios": "https://dc.lft.to/lastmile_qr_scan", "android": "https://dc.lft.to/lastmile_qr_scan"}}, {"name": "99dc18db81d7ad95e18377cab06e6bc2", "lon": -77.04599983333334, "lat": 38.91905283333333, "type": "electric_scooter", "fusion_lon": 0.0, "is_reserved": 0, "bike_id": "99dc18db81d7ad95e18377cab06e6bc2", "fusion_lat": 0.0, "is_disabled": 0, "rental_uris": {"ios": "https://dc.lft.to/lastmile_qr_scan", "android": "https://dc.lft.to/lastmile_qr_scan"}}, {"name": "80322b9860618983ef3af1551ae7e813", "lon": -77.02200283333333, "lat": 38.901998666666664, "type": "electric_scooter", "fusion_lon": 0.0, "is_reserved": 0, "bike_id": "80322b9860618983ef3af1551ae7e813", "fusion_lat": 0.0, "is_disabled": 0, "rental_uris": {"ios": "https://dc.lft.to/lastmile_qr_scan", "android": "https://dc.lft.to/lastmile_qr_scan"}}, {"name": "40f805c59878e8d2525da6c945ea96fa", "lon": -77.029493, "lat": 38.91558666666667, "type": "electric_scooter", "fusion_lon": 0.0, "is_reserved": 0, "bike_id": "40f805c59878e8d2525da6c945ea96fa", "fusion_lat": 0.0, "is_disabled": 0, "rental_uris": {"ios": "https://dc.lft.to/lastmile_qr_scan", "android": "https://dc.lft.to/lastmile_qr_scan"}}, {"name": "a268217d51696fe4563baa04f561e672", "lon": -77.0328295, "lat": 38.9325195, "type": "electric_scooter", "fusion_lon": 0.0, "is_reserved": 0, "bike_id": "a268217d51696fe4563baa04f561e672", "fusion_lat": 0.0, "is_disabled": 0, "rental_uris": {"ios": "https://dc.lft.to/lastmile_qr_scan", "android": "https://dc.lft.to/lastmile_qr_scan"}}, {"name": "37276128e0839e78408d43b6837d07ec", "lon": -77.02707383333333, "lat": 38.92874916666667, "type": "electric_scooter", "fusion_lon": 0.0, "is_reserved": 0, "bike_id": "37276128e0839e78408d43b6837d07ec", "fusion_lat": 0.0, "is_disabled": 0, "rental_uris": {"ios": "https://dc.lft.to/lastmile_qr_scan", "android": "https://dc.lft.to/lastmile_qr_scan"}}, {"name": "3fe3c7776076a678ce9746324ace511d", "lon": -77.110519, "lat": 38.870817, "type": "electric_bike", "fusion_lon": 0.0, "is_reserved": 0, "bike_id": "3fe3c7776076a678ce9746324ace511d", "fusion_lat": 0.0, "is_disabled": 0, "rental_uris": {"ios": "https://dc.lft.to/lastmile_qr_scan", "android": "https://dc.lft.to/lastmile_qr_scan"}}, {"name": "bee8ddc2490312c8afbe96917203eb50", "lon": -77.116099, "lat": 38.854867, "type": "electric_bike", "fusion_lon": 0.0, "is_reserved": 0, "bike_id": "bee8ddc2490312c8afbe96917203eb50", "fusion_lat": 0.0, "is_disabled": 0, "rental_uris": {"ios": "https://dc.lft.to/lastmile_qr_scan", "android": "https://dc.lft.to/lastmile_qr_scan"}}, {"name": "9b4b7db595d072c9e68a9e8aa272b4e8", "lon": -76.99904366666667, "lat": 38.948153166666664, "type": "electric_scooter", "fusion_lon": 0.0, "is_reserved": 0, "bike_id": "9b4b7db595d072c9e68a9e8aa272b4e8", "fusion_lat": 0.0, "is_disabled": 0, "rental_uris": {"ios": "https://dc.lft.to/lastmile_qr_scan", "android": "https://dc.lft.to/lastmile_qr_scan"}}, {"name": "2bd75c2bcf4e9e9ad870992a720de791", "lon": -77.0292355, "lat": 38.8994175, "type": "electric_scooter", "fusion_lon": 0.0, "is_reserved": 0, "bike_id": "2bd75c2bcf4e9e9ad870992a720de791", "fusion_lat": 0.0, "is_disabled": 0, "rental_uris": {"ios": "https://dc.lft.to/lastmile_qr_scan", "android": "https://dc.lft.to/lastmile_qr_scan"}}, {"name": "853e9fd5e9da3c69e4bd426ba020c61c", "lon": -77.03260566666667, "lat": 38.93521483333333, "type": "electric_scooter", "fusion_lon": 0.0, "is_reserved": 0, "bike_id": "853e9fd5e9da3c69e4bd426ba020c61c", "fusion_lat": 0.0, "is_disabled": 0, "rental_uris": {"ios": "https://dc.lft.to/lastmile_qr_scan", "android": "https://dc.lft.to/lastmile_qr_scan"}}, {"name": "04d2bd2d41c95a3ae7a192e2d881e226", "lon": -77.02716466666666, "lat": 38.9245765, "type": "electric_scooter", "fusion_lon": 0.0, "is_reserved": 0, "bike_id": "04d2bd2d41c95a3ae7a192e2d881e226", "fusion_lat": 0.0, "is_disabled": 0, "rental_uris": {"ios": "https://dc.lft.to/lastmile_qr_scan", "android": "https://dc.lft.to/lastmile_qr_scan"}}, {"name": "de08b6cc570eaa9def56ebeb2f071649", "lon": -77.02297766666666, "lat": 38.916140666666664, "type": "electric_scooter", "fusion_lon": 0.0, "is_reserved": 0, "bike_id": "de08b6cc570eaa9def56ebeb2f071649", "fusion_lat": 0.0, "is_disabled": 0, "rental_uris": {"ios": "https://dc.lft.to/lastmile_qr_scan", "android": "https://dc.lft.to/lastmile_qr_scan"}}, {"name": "2c05cab46d383e7429100ee8fffc0ded", "lon": -77.12729266666666, "lat": 38.89560683333333, "type": "electric_bike", "fusion_lon": 0.0, "is_reserved": 0, "bike_id": "2c05cab46d383e7429100ee8fffc0ded", "fusion_lat": 0.0, "is_disabled": 0, "rental_uris": {"ios": "https://dc.lft.to/lastmile_qr_scan", "android": "https://dc.lft.to/lastmile_qr_scan"}}, {"name": "3f3c6efa34340ab78c9b61b80c0bee02", "lon": -77.036391, "lat": 38.92745733333334, "type": "electric_scooter", "fusion_lon": 0.0, "is_reserved": 0, "bike_id": "3f3c6efa34340ab78c9b61b80c0bee02", "fusion_lat": 0.0, "is_disabled": 0, "rental_uris": {"ios": "https://dc.lft.to/lastmile_qr_scan", "android": "https://dc.lft.to/lastmile_qr_scan"}}, {"name": "483b1cf9d88742cd6f3c698511ac19b6", "lon": -77.02393866666667, "lat": 38.927446833333335, "type": "electric_bike", "fusion_lon": 0.0, "is_reserved": 0, "bike_id": "483b1cf9d88742cd6f3c698511ac19b6", "fusion_lat": 0.0, "is_disabled": 0, "rental_uris": {"ios": "https://dc.lft.to/lastmile_qr_scan", "android": "https://dc.lft.to/lastmile_qr_scan"}},