{"data": {"bikes": [{"rental_uris": {"ios": "https://dc.lft.to/lastmile_qr_scan", "android": "https://dc.lft.to/lastmile_qr_scan"}, "type": "electric_scooter", "name": "f689d35bd765d184857f342d1a304446", "is_reserved": 0, "lon": -77.03459083333334, "is_disabled": 0, "fusion_lat": 0.0, "lat": 38.908298, "bike_id": "f689d35bd765d184857f342d1a304446", "fusion_lon": 0.0}, {"rental_uris": {"ios": "https://dc.lft.to/lastmile_qr_scan", "android": "https://dc.lft.to/lastmile_qr_scan"}, "type": "electric_scooter", "name": "c0b9faf6bb3af9856cf7d047af6eec8c", "is_reserved": 0, "lon": -77.05169633333334, "is_disabled": 0, "fusion_lat": 0.0, "lat": 38.90315966666667, "bike_id": "c0b9faf6bb3af9856cf7d047af6eec8c", "fusion_lon": 0.0}, {"rental_uris": {"ios": "https://dc.lft.to/lastmile_qr_scan", "android": "https://dc.lft.to/lastmile_qr_scan"}, "type": "electric_bike", "name": "7049611add57df2371dca5e44e590469", "is_reserved": 0, "lon": -77.04467433333333, "is_disabled": 0, "fusion_lat": 0.0, "lat": 38.91083016666666, "bike_id": "7049611add57df2371dca5e44e590469", "fusion_lon": 0.0}, {"rental_uris": {"ios": "https://dc.lft.to/lastmile_qr_scan", "android": "https://dc.lft.to/lastmile_qr_scan"}, "type": "electric_scooter", "name": "dd0b73b8848677d6cf09f63c2b71c1b9", "is_reserved": 0, "lon": -77.028623, "is_disabled": 0, "fusion_lat": 0.0, "lat": 38.902370833333336, "bike_id": "dd0b73b8848677d6cf09f63c2b71c1b9", "fusion_lon": 0.0}, {"rental_uris": {"ios": "https://dc.lft.to/lastmile_qr_scan", "android": "https://dc.lft.to/lastmile_qr_scan"}, "type": "electric_scooter", "name": "1bbf2157e8c00c775638facfcd892566", "is_reserved": 0, "lon": -77.0423775, "is_disabled": 0, "fusion_lat": 0.0, "lat": 38.921664, "bike_id": "1bbf2157e8c00c775638facfcd892566", "fusion_lon": 0.0}, {"rental_uris": {"ios": "https://dc.lft.to/lastmile_qr_scan", "android": "https://dc.lft.to/lastmile_qr_scan"}, "type": "electric_scooter", "name": "26e3494b9fa7c271eb7c469dacf26552", "is_reserved": 0, "lon": -77.04245333333333, "is_disabled": 0, "fusion_lat": 0.0, "lat": 38.92233266666667, "bike_id": "26e3494b9fa7c271eb7c469dacf26552", "fusion_lon": 0.0}, {"rental_uris": {"ios": "https://dc.lft.to/lastmile_qr_scan", "android": "https://dc.lft.to/lastmile_qr_scan"}, "type": "electric_scooter", "name": "b3cba563b5b60dec1bfd467cb4f4a733", "is_reserved": 0, "lon": -77.047622, "is_disabled": 0, "fusion_lat": 0.0, "lat": 38.91245083333333, "bike_id": "b3cba563b5b60dec1bfd467cb4f4a733", "fusion_lon": 0.0}, {"rental_uris": {"ios": "https://dc.lft.to/lastmile_qr_scan", "android": "https://dc.lft.to/lastmile_qr_scan"}, "type": "electric_scooter", "name": "680bc7f924bfc91278e11ee116dafcaa", "is_reserved": 0, "lon": -77.04162216666667, "is_disabled": 0, "fusion_lat": 0.0, "lat": 38.91599983333333, "bike_id": "680bc7f924bfc91278e11ee116dafcaa", "fusion_lon": 0.0}, {"rental_uris": {"ios": "https://dc.lft.to/lastmile_qr_scan", "android": "https://dc.lft.to/lastmile_qr_scan"}, "type": "electric_scooter", "name": "1e614c083f4c732f208c8c8e9e001322", "is_reserved": 0, "lon": -77.04107516666667, "is_disabled": 0, "fusion_lat": 0.0, "lat": 38.92704766666667, "bike_id": "1e614c083f4c732f208c8c8e9e001322", "fusion_lon": 0.0}, {"rental_uris": {"ios": "https://dc.lft.to/lastmile_qr_scan", "android": "https://dc.lft.to/lastmile_qr_scan"}, "type": "electric_scooter", "name": "2b795dc73ecaa941dda6107ecfec5773", "is_reserved": 0, "lon": -77.03842083333333, "is_disabled": 0, "fusion_lat": 0.0, "lat": 38.91015983333333, "bike_id": "2b795dc73ecaa941dda6107ecfec5773", "fusion_lon": 0.0}, {"rental_uris": {"ios": "https://dc.lft.to/lastmile_qr_scan", "android": "https://dc.lft.to/lastmile_qr_scan"}, "type": "electric_scooter", "name": "03c0a48a470c6bdeed842ae7e7b0adc7", "is_reserved": 0, "lon": -77.02666183333334, "is_disabled": 0, "fusion_lat": 0.0, "lat": 38.92180916666667, "bike_id": "03c0a48a470c6bdeed842ae7e7b0adc7", "fusion_lon": 0.0}, {"rental_uris": {"ios": "https://dc.lft.to/lastmile_qr_scan", "android": "https://dc.lft.to/lastmile_qr_scan"}, "type": "electric_scooter", "name": "380cc19d29a35e87c65ec1d046aaa397", "is_reserved": 0, "lon": -77.06900433333334, "is_disabled": 0, "fusion_lat": 0.0, "lat": 38.907622833333335, "bike_id": "380cc19d29a35e87c65ec1d046aaa397", "fusion_lon": 0.0}, {"rental_uris": {"ios": "https://dc.lft.to/lastmile_qr_scan", "android": "https://dc.lft.to/lastmile_qr_scan"}, "type": "electric_scooter", "name": "c5cf5b83362aee0db657db40284c354d", "is_reserved": 0, "lon": -77.031805, "is_disabled": 0, "fusion_lat": 0.0, "lat": 38.90947383333334, "bike_id": "c5cf5b83362aee0db657db40284c354d", "fusion_lon": 0.0}, {"rental_uris": {"ios": "https://dc.lft.to/lastmile_qr_scan", "android": "https://dc.lft.to/lastmile_qr_scan"}, "type": "electric_scooter", "name": "1fb2d1fc0703436404079454581d82e2", "is_reserved": 0, "lon": -77.01795366666667, "is_disabled": 0, "fusion_lat": 0.0, "lat": 38.92038183333333, "bike_id": "1fb2d1fc0703436404079454581d82e2", "fusion_lon": 0.0}, {"rental_uris": {"ios": "https://dc.lft.to/lastmile_qr_scan", "android": "https://dc.lft.to/lastmile_qr_scan"}, "type": "electric_scooter", "name": "a2e233cb2a88ad84c8cfe2b6cc8199e9", "is_reserved": 0, "lon": -76.9836795, "is_disabled": 0, "fusion_lat": 0.0, "lat": 38.892612666666665, "bike_id": "a2e233cb2a88ad84c8cfe2b6cc8199e9", "fusion_lon": 0.0}, {"rental_uris": {"ios": "https://dc.lft.to/lastmile_qr_scan", "android": "https://dc.lft.to/lastmile_qr_scan"}, "type": "electric_scooter", "name": "c70d2f96c027f3dbd2c20e746167ca4e", "is_reserved": 0, "lon": -76.95741783333334, "is_disabled": 0, "fusion_lat": 0.0, "lat": 38.88392533333333, "bike_id": "c70d2f96c027f3dbd2c20e746167ca4e", "fusion_lon": 0.0}, {"rental_uris": {"ios": "https://dc.lft.to/lastmile_qr_scan", "android": "https://dc.lft.to/lastmile_qr_scan"}, "type": "electric_scooter", "name": "744b58c8ecb61eceb588941536cfce91", "is_reserved": 0, "lon": -77.0364035, "is_disabled": 0, "fusion_lat": 0.0, "lat": 38.92411333333333, "bike_id": "744b58c8ecb61eceb588941536cfce91", "fusion_lon": 0.0}, {"rental_uris": {"ios": "https://dc.lft.to/lastmile_qr_scan", "android": "https://dc.lft.to/lastmile_qr_scan"}, "type": "electric_scooter", "name": "a6f01f53b28e13327d2aeb604b5cf20c", "is_reserved": 0, "lon": -77.03380066666666, "is_disabled": 0, "fusion_lat": 0.0, "lat": 38.924691333333335, "bike_id": "a6f01f53b28e13327d2aeb604b5cf20c", "fusion_lon": 0.0}, {"rental_uris": {"ios": "https://dc.lft.to/lastmile_qr_scan", "android": "https://dc.lft.to/lastmile_qr_scan"}, "type": "electric_scooter", "name": "2eb7b8837a979bb134bcf41336ce01c1", "is_reserved": 0, "lon": -77.0179125, "is_disabled": 0, "fusion_lat": 0.0, "lat": 38.919916666666666, "bike_id": "2eb7b8837a979bb134bcf41336ce01c1", "fusion_lon": 0.0}, {"rental_uris": {"ios": "https://dc.lft.to/lastmile_qr_scan", "android": "https://dc.lft.to/lastmile_qr_scan"}, "type": "electric_scooter", "name": "6526d0853d17507a25c5051efb8027da", "is_reserved": 0, "lon": -77.042461, "is_disabled": 0, "fusion_lat": 0.0, "lat": 38.903628833333336, "bike_id": "6526d0853d17507a25c5051efb8027da", "fusion_lon": 0.0}, {"rental_uris": {"ios": "https://dc.lft.to/lastmile_qr_scan", "android": "https://dc.lft.to/lastmile_qr_scan"}, "type": "electric_scooter", "name": "50f59562c9aa9db2442893e059aa7203", "is_reserved": 0, "lon": -77.0215605, "is_disabled": 0, "fusion_lat": 0.0, "lat": 38.90299566666667, "bike_id": "50f59562c9aa9db2442893e059aa7203", "fusion_lon": 0.0}, {"rental_uris": {"ios": "https://dc.lft.to/lastmile_qr_scan", "android": "https://dc.lft.to/lastmile_qr_scan"}, "type": "electric_scooter", "name": "a0504e3b054b96c4909190963c2cc17c", "is_reserved": 0, "lon": -77.0341815, "is_disabled": 0, "fusion_lat": 0.0, "lat": 38.909657, "bike_id": "a0504e3b054b96c4909190963c2cc17c", "fusion_lon": 0.0}, {"rental_uris": {"ios": "https://dc.lft.to/lastmile_qr_scan", "android": "https://dc.lft.to/lastmile_qr_scan"}, "type": "electric_scooter", "name": "c33ab6779be87e557b805515bc436be1", "is_reserved": 0, "lon": -77.04026633333334, "is_disabled": 0, "fusion_lat": 0.0, "lat": 38.911871, "bike_id": "c33ab6779be87e557b805515bc436be1", "fusion_lon": 0.0}, {"rental_uris": {"ios": "https://dc.lft.to/lastmile_qr_scan", "android": "https://dc.lft.to/lastmile_qr_scan"}, "type": "electric_scooter", "name": "f31391ca5514e708454de83fa18d4fb6", "is_reserved": 0, "lon": -77.002492, "is_disabled": 0, "fusion_lat": 0.0, "lat": 38.9118195, "bike_id": "f31391ca5514e708454de83fa18d4fb6", "fusion_lon": 0.0}, {"rental_uris": {"ios": "https://dc.lft.to/lastmile_qr_scan", "android": "https://dc.lft.to/lastmile_qr_scan"}, "type": "electric_bike", "name": "e38116832b554e6037a49763c3ef2c6e", "is_reserved": 0, "lon": -77.07972866666667, "is_disabled": 0, "fusion_lat": 0.0, "lat": 38.919447, "bike_id": "e38116832b554e6037a49763c3ef2c6e", "fusion_lon": 0.0}, {"rental_uris": {"ios": "https://dc.lft.to/lastmile_qr_scan", "android": "https://dc.lft.to/lastmile_qr_scan"}, "type": "electric_scooter", "name": "0c92cce55d0752b998538c92fa5853d4", "is_reserved": 0, "lon": -77.00538566666667, "is_disabled": 0, "fusion_lat": 0.0, "lat": 38.87467083333333, "bike_id": "0c92cce55d0752b998538c92fa5853d4", "fusion_lon": 0.0}, {"rental_uris": {"ios": "https://dc.lft.to/lastmile_qr_scan", "android": "https://dc.lft.to/lastmile_qr_scan"}, "type": "electric_scooter", "name": "e4d9c5a94c90be39b3f1fa271f024063", "is_reserved": 0, "lon": -77.05221283333333, "is_disabled": 0, "fusion_lat": 0.0, "lat": 38.92495133333333, "bike_id": "e4d9c5a94c90be39b3f1fa271f024063", "fusion_lon": 0.0}, {"rental_uris": {"ios": "https://dc.lft.to/lastmile_qr_scan", "android": "https://dc.lft.to/lastmile_qr_scan"}, "type": "electric_scooter", "name": "a9e2f9c34c156d15f3b3c29cd8070b54", "is_reserved": 0, "lon": -77.02405166666667, "is_disabled": 0, "fusion_lat": 0.0, "lat": 38.93812916666667, "bike_id": "a9e2f9c34c156d15f3b3c29cd8070b54", "fusion_lon": 0.0}, {"rental_uris": {"ios": "https://dc.lft.to/lastmile_qr_scan", "android": "https://dc.lft.to/lastmile_qr_scan"}, "type": "electric_scooter", "name": "68ae3586900f69efd196cd18823b86ad", "is_reserved": 0, "lon": -77.02864433333333, "is_disabled": 0, "fusion_lat": 0.0, "lat": 38.91360933333333, "bike_id": "68ae3586900f69efd196cd18823b86ad", "fusion_lon": 0.0}, {"rental_uris": {"ios": "https://dc.lft.to/lastmile_qr_scan", "android": "https://dc.lft.to/lastmile_qr_scan"}, "type": "electric_bike", "name": "2dbd82b2800359873fbc916eaca9bb11", "is_reserved": 0, "lon": -76.99281416666666, "is_disabled": 0, "fusion_lat": 0.0, "lat": 38.972584833333336, "bike_id": "2dbd82b2800359873fbc916eaca9bb11", "fusion_lon": 0.0}, {"rental_uris": {"ios": "https://dc.lft.to/lastmile_qr_scan", "android": "https://dc.lft.to/lastmile_qr_scan"}, "type": "electric_bike", "name": "fcca7a2ceca7759dd61d77a689b4c5e6", "is_reserved": 0, "lon": -76.99701016666667, "is_disabled": 0, "fusion_lat": 0.0, "lat": 38.8386665, "bike_id": "fcca7a2ceca7759dd61d77a689b4c5e6", "fusion_lon": 0.0}, {"rental_uris": {"ios": "https://dc.lft.to/lastmile_qr_scan", "android": "https://dc.lft.to/lastmile_qr_scan"}, "type": "electric_scooter", "name": "f0c3d924e4fc1db13375c680b85394e8", "is_reserved": 0, "lon": -77.01789283333333, "is_disabled": 0, "fusion_lat": 0.0, "lat": 38.8768085, "bike_id": "f0c3d924e4fc1db13375c680b85394e8", "fusion_lon": 0.0}, {"rental_uris": {"ios": "https://dc.lft.to/lastmile_qr_scan", "android": "https://dc.lft.to/lastmile_qr_scan"}, "type": "electric_scooter", "name": "06ac90afa42f8251f1e12a8c3dcd57f7", "is_reserved": 0, "lon": -76.98085433333334, "is_disabled": 0, "fusion_lat": 0.0, "lat": 38.901729, "bike_id": "06ac90afa42f8251f1e12a8c3dcd57f7", "fusion_lon": 0.0}, {"rental_uris": {"ios": "https://dc.lft.to/lastmile_qr_scan", "android": "https://dc.lft.to/lastmile_qr_scan"}, "type": "electric_scooter", "name": "b8f8b764d332a93c200f5e0d8dc43cc4", "is_reserved": 0, "lon": -77.03579783333333, "is_disabled": 0, "fusion_lat": 0.0, "lat": 38.91773833333333, "bike_id": "b8f8b764d332a93c200f5e0d8dc43cc4", "fusion_lon": 0.0}, {"rental_uris": {"ios": "https://dc.lft.to/lastmile_qr_scan", "android": "https://dc.lft.to/lastmile_qr_scan"}, "type": "electric_scooter", "name": "7ef210eb30e0bc926897d34b28c11d3c", "is_reserved": 0, "lon": -77.00299783333334, "is_disabled": 0, "fusion_lat": 0.0, "lat": 38.87669283333334, "bike_id": "7ef210eb30e0bc926897d34b28c11d3c", "fusion_lon": 0.0}, {"rental_uris": {"ios": "https://dc.lft.to/lastmile_qr_scan", "android": "https://dc.lft.to/lastmile_qr_scan"}, "type": "electric_scooter", "name": "d7985aedce0b0b55cd33d65dbde12aa7", "is_reserved": 0, "lon": -77.06131483333333, "is_disabled": 0, "fusion_lat": 0.0, "lat": 38.94308083333333, "bike_id": "d7985aedce0b0b55cd33d65dbde12aa7", "fusion_lon": 0.0}, {"rental_uris": {"ios": "https://dc.lft.to/lastmile_qr_scan", "android": "https://dc.lft.to/lastmile_qr_scan"}, "type": "electric_scooter", "name": "45bb4956846cb3e9343ed1c8d84bc317", "is_reserved": 0, "lon": -77.0611105, "is_disabled": 0, "fusion_lat": 0.0, "lat": 38.912846333333334, "bike_id": "45bb4956846cb3e9343ed1c8d84bc317", "fusion_lon": 0.0}, {"rental_uris": {"ios": "https://dc.lft.to/lastmile_qr_scan", "android": "https://dc.lft.to/lastmile_qr_scan"}, "type": "electric_scooter", "name": "f96234bfd23e1c2fefe70ff7e517633f", "is_reserved": 0, "lon": -76.92999783333333, "is_disabled": 0, "fusion_lat": 0.0, "lat": 38.8899265, "bike_id": "f96234bfd23e1c2fefe70ff7e517633f", "fusion_lon": 0.0}, {"rental_uris": {"ios": "https://dc.lft.to/lastmile_qr_scan", "android": "https://dc.lft.to/lastmile_qr_scan"}, "type": "electric_scooter", "name": "f26e0988e0dff25e2040a6aaf89a21f6", "is_reserved": 0, "lon": -76.99156333333333, "is_disabled": 0, "fusion_lat": 0.0, "lat": 38.90038116666667, "bike_id": "f26e0988e0dff25e2040a6aaf89a21f6", "fusion_lon": 0.0}, {"rental_uris": {"ios": "https://dc.lft.to/lastmile_qr_scan", "android": "https://dc.lft.to/lastmile_qr_scan"}, "type": "electric_scooter", "name": "b8e746d12f9ec52fb76152781c87d342", "is_reserved": 0, "lon": -77.02295583333333, "is_disabled": 0, "fusion_lat": 0.0, "lat": 38.895050166666664, "bike_id": "b8e746d12f9ec52fb76152781c87d342", "fusion_lon": 0.0}, {"rental_uris": {"ios": "https://dc.lft.to/lastmile_qr_scan", "android": "https://dc.lft.to/lastmile_qr_scan"}, "type": "electric_scooter", "name": "90a3ee094e806bb509a3581940827d2f", "is_reserved": 0, "lon": -77.02090416666667, "is_disabled": 0, "fusion_lat": 0.0, "lat": 38.929174333333336, "bike_id": "90a3ee094e806bb509a3581940827d2f", "fusion_lon": 0.0}, {"rental_uris": {"ios": "https://dc.lft.to/lastmile_qr_scan", "android": "https://dc.lft.to/lastmile_qr_scan"}, "type": "electric_scooter", "name": "44f87799d6685351bc90d22518159034", "is_reserved": 0, "lon": -77.00561783333333, "is_disabled": 0, "fusion_lat": 0.0, "lat": 38.88037033333333, "bike_id": "44f87799d6685351bc90d22518159034", "fusion_lon": 0.0}, {"rental_uris": {"ios": "https://dc.lft.to/lastmile_qr_scan", "android": "https://dc.lft.to/lastmile_qr_scan"}, "type": "electric_scooter", "name": "bf4600e2596dc3fd390d4420331338cc", "is_reserved": 0, "lon": -77.0183195, "is_disabled": 0, "fusion_lat": 0.0, "lat": 38.90955666666667, "bike_id": "bf4600e2596dc3fd390d4420331338cc", "fusion_lon": 0.0}, {"rental_uris": {"ios": "https://dc.lft.to/lastmile_qr_scan", "android": "https://dc.lft.to/lastmile_qr_scan"}, "type": "electric_scooter", "name": "4ee62c217a60b18b4f47356f22ee9152", "is_reserved": 0, "lon": -77.0443875, "is_disabled": 0, "fusion_lat": 0.0, "lat": 38.9125255, "bike_id": "4ee62c217a60b18b4f47356f22ee9152", "fusion_lon": 0.0}, {"rental_uris": {"ios": "https://dc.lft.to/lastmile_qr_scan", "android": "https://dc.lft.to/lastmile_qr_scan"}, "type": "electric_scooter", "name": "c23d8c19afd60951995ae160377c7f27", "is_reserved": 0, "lon": -76.98274066666667, "is_disabled": 0, "fusion_lat": 0.0, "lat": 38.903411, "bike_id": "c23d8c19afd60951995ae160377c7f27", "fusion_lon": 0.0}, {"rental_uris": {"ios": "https://dc.lft.to/lastmile_qr_scan", "android": "https://dc.lft.to/lastmile_qr_scan"}, "type": "electric_scooter", "name": "d85dcb8621663b2efce4ac94de93b6a9", "is_reserved": 0, "lon": -77.02220766666667, "is_disabled": 0, "fusion_lat": 0.0, "lat": 38.8956925, "bike_id": "d85dcb8621663b2efce4ac94de93b6a9", "fusion_lon": 0.0}, {"rental_uris": {"ios": "https://dc.lft.to/lastmile_qr_scan", "android": "https://dc.lft.to/lastmile_qr_scan"}, "type": "electric_scooter", "name": "245b67ce7b316d58bcf68fbc779a44aa", "is_reserved": 0, "lon": -77.00723033333334, "is_disabled": 0, "fusion_lat": 0.0, "lat": 38.911882, "bike_id": "245b67ce7b316d58bcf68fbc779a44aa", "fusion_lon": 0.0}, {"rental_uris": {"ios": "https://dc.lft.to/lastmile_qr_scan", "android": "https://dc.lft.to/lastmile_qr_scan"}, "type": "electric_scooter", "name": "111d8639c2133a49845f3e33ef02e5b9", "is_reserved": 0, "lon": -77.05930616666667, "is_disabled": 0, "fusion_lat": 0.0, "lat": 38.936644666666666, "bike_id": "111d8639c2133a49845f3e33ef02e5b9", "fusion_lon": 0.0}, {"rental_uris": {"ios": "https://dc.lft.to/lastmile_qr_scan", "android": "https://dc.lft.to/lastmile_qr_scan"}, "type": "electric_scooter", "name": "eed09e364a18838d818f0337b8f5dbb8", "is_reserved": 0, "lon": -77.03863433333333, "is_disabled": 0, "fusion_lat": 0.0, "lat": 38.911968333333334, "bike_id": "eed09e364a18838d818f0337b8f5dbb8", "fusion_lon": 0.0}, {"rental_uris": {"ios": "https://dc.lft.to/lastmile_qr_scan", "android": "https://dc.lft.to/lastmile_qr_scan"}, "type": "electric_scooter", "name": "8fe61671c70ae3bc0ebdb6d3d8392af3", "is_reserved": 0, "lon": -77.01996883333334, "is_disabled": 0, "fusion_lat": 0.0, "lat": 38.91488733333333, "bike_id": "8fe61671c70ae3bc0ebdb6d3d8392af3", "fusion_lon": 0.0}, {"rental_uris": {"ios": "https://dc.lft.to/lastmile_qr_scan", "android": "https://dc.lft.to/lastmile_qr_scan"}, "type": "electric_scooter", "name": "274fc0a0248847f7e8139ed7beb96621", "is_reserved": 0, "lon": -77.0290855, "is_disabled": 0, "fusion_lat": 0.0, "lat": 38.89731416666667, "bike_id": "274fc0a0248847f7e8139ed7beb96621", "fusion_lon": 0.0}, {"rental_uris": {"ios": "https://dc.lft.to/lastmile_qr_scan", "android": "https://dc.lft.to/lastmile_qr_scan"}, "type": "electric_scooter", "name": "d04e6d5cd3d3ebd9d45f5a56cc503128", "is_reserved": 0, "lon": -77.01580983333334, "is_disabled": 0, "fusion_lat": 0.0, "lat": 38.876406, "bike_id": "d04e6d5cd3d3ebd9d45f5a56cc503128", "fusion_lon": 0.0}, {"rental_uris": {"ios": "https://dc.lft.to/lastmile_qr_scan", "android": "https://dc.lft.to/lastmile_qr_scan"}, "type": "electric_scooter", "name": "e955003d245e9dbf0d62f41d31afc719", "is_reserved": 0, "lon": -77.018167, "is_disabled": 0, "fusion_lat": 0.0, "lat": 38.92214716666667, "bike_id": "e955003d245e9dbf0d62f41d31afc719", "fusion_lon": 0.0}, {"rental_uris": {"ios": "https://dc.lft.to/lastmile_qr_scan", "android": "https://dc.lft.to/lastmile_qr_scan"}, "type": "electric_scooter", "name": "8b557e9291b1cb9752d6dfc74d3cb70f", "is_reserved": 0, "lon": -77.04525333333333, "is_disabled": 0, "fusion_lat": 0.0, "lat": 38.911116, "bike_id": "8b557e9291b1cb9752d6dfc74d3cb70f", "fusion_lon": 0.0}, {"rental_uris": {"ios": "https://dc.lft.to/lastmile_qr_scan", "android": "https://dc.lft.to/lastmile_qr_scan"}, "type": "electric_scooter", "name": "4e64be58097a0481506c958b4de7caf6", "is_reserved": 0, "lon": -77.03212483333333, "is_disabled": 0, "fusion_lat": 0.0, "lat": 38.91636033333333, "bike_id": "4e64be58097a0481506c958b4de7caf6", "fusion_lon": 0.0}, {"rental_uris": {"ios": "https://dc.lft.to/lastmile_qr_scan", "android": "https://dc.lft.to/lastmile_qr_scan"}, "type": "electric_bike", "name": "2f0d8d322be7da02a3c04375e75060c0", "is_reserved": 0, "lon": -77.01227783333333, "is_disabled": 0, "fusion_lat": 0.0, "lat": 38.9508395, "bike_id": "2f0d8d322be7da02a3c04375e75060c0", "fusion_lon": 0.0}, {"rental_uris": {"ios": "https://dc.lft.to/lastmile_qr_scan", "android": "https://dc.lft.to/lastmile_qr_scan"}, "type": "electric_scooter", "name": "7685bc8100de2c1e2c6895091368eada", "is_reserved": 0, "lon": -77.037398, "is_disabled": 0, "fusion_lat": 0.0, "lat": 38.879951166666665, "bike_id": "7685bc8100de2c1e2c6895091368eada", "fusion_lon": 0.0}, {"rental_uris": {"ios": "https://dc.lft.to/lastmile_qr_scan", "android": "https://dc.lft.to/lastmile_qr_scan"}, "type": "electric_scooter", "name": "a494330f6862f280d2a8765d114aecaa", "is_reserved": 0, "lon": -77.022071, "is_disabled": 0, "fusion_lat": 0.0, "lat": 38.8922965, "bike_id": "a494330f6862f280d2a8765d114aecaa", "fusion_lon": 0.0}, {"rental_uris": {"ios": "https://dc.lft.to/lastmile_qr_scan", "android": "https://dc.lft.to/lastmile_qr_scan"}, "type": "electric_scooter", "name": "3cc8d0327dbaabb94a1255e0cba8b941", "is_reserved": 0, "lon": -77.04556766666667, "is_disabled": 0, "fusion_lat": 0.0, "lat": 38.900764333333335, "bike_id": "3cc8d0327dbaabb94a1255e0cba8b941", "fusion_lon": 0.0}, {"rental_uris": {"ios": "https://dc.lft.to/lastmile_qr_scan", "android": "https://dc.lft.to/lastmile_qr_scan"}, "type": "electric_scooter", "name": "cd28de1aa593361dc3ff8b7775a784ed", "is_reserved": 0, "lon": -77.06609783333333, "is_disabled": 0, "fusion_lat": 0.0, "lat": 38.90387366666667, "bike_id": "cd28de1aa593361dc3ff8b7775a784ed", "fusion_lon": 0.0}, {"rental_uris": {"ios": "https://dc.lft.to/lastmile_qr_scan", "android": "https://dc.lft.to/lastmile_qr_scan"}, "type": "electric_scooter", "name": "ecd5130bf28e5d118d858337f6faf723", "is_reserved": 0, "lon": -77.043385, "is_disabled": 0, "fusion_lat": 0.0, "lat": 38.913718833333334, "bike_id": "ecd5130bf28e5d118d858337f6faf723", "fusion_lon": 0.0}, {"rental_uris": {"ios": "https://dc.lft.to/lastmile_qr_scan", "android": "https://dc.lft.to/lastmile_qr_scan"}, "type": "electric_scooter", "name": "3662023992307e665b22e70b78ea762c", "is_reserved": 0, "lon": -77.02785, "is_disabled": 0, "fusion_lat": 0.0, "lat": 38.95620516666666, "bike_id": "3662023992307e665b22e70b78ea762c", "fusion_lon": 0.0}, {"rental_uris": {"ios": "https://dc.lft.to/lastmile_qr_scan", "android": "https://dc.lft.to/lastmile_qr_scan"}, "type": "electric_scooter", "name": "fd5172baf5953a9d49aaf2ecd7d42330", "is_reserved": 0, "lon": -76.99779983333333, "is_disabled": 0, "fusion_lat": 0.0, "lat": 38.922820333333334, "bike_id": "fd5172baf5953a9d49aaf2ecd7d42330", "fusion_lon": 0.0}, {"rental_uris": {"ios": "https://dc.lft.to/lastmile_qr_scan", "android": "https://dc.lft.to/lastmile_qr_scan"}, "type": "electric_scooter", "name": "e768e42a8f0139f7dd682009ab7fc404", "is_reserved": 0, "lon": -76.93740016666666, "is_disabled": 0, "fusion_lat": 0.0, "lat": 38.8901325, "bike_id": "e768e42a8f0139f7dd682009ab7fc404", "fusion_lon": 0.0}, {"rental_uris": {"ios": "https://dc.lft.to/lastmile_qr_scan", "android": "https://dc.lft.to/lastmile_qr_scan"}, "type": "electric_scooter", "name": "a676ea271c2278c38dd7f2b47278a7c9", "is_reserved": 0, "lon": -77.028117, "is_disabled": 0, "fusion_lat": 0.0, "lat": 38.93083, "bike_id": "a676ea271c2278c38dd7f2b47278a7c9", "fusion_lon": 0.0}, {"rental_uris": {"ios": "https://dc.lft.to/lastmile_qr_scan", "android": "https://dc.lft.to/lastmile_qr_scan"}, "type": "electric_scooter", "name": "74808c0c22279385cb918a1ebabde5c6", "is_reserved": 0, "lon": -77.020865, "is_disabled": 0, "fusion_lat": 0.0, "lat": 38.8818015, "bike_id": "74808c0c22279385cb918a1ebabde5c6", "fusion_lon": 0.0}, {"rental_uris": {"ios": "https://dc.lft.to/lastmile_qr_scan", "android": "https://dc.lft.to/lastmile_qr_scan"}, "type": "electric_scooter", "name": "de63a006f1333f2f0d0f0206ac0ea1f0", "is_reserved": 0, "lon": -77.02947583333334, "is_disabled": 0, "fusion_lat": 0.0, "lat": 38.9072935, "bike_id": "de63a006f1333f2f0d0f0206ac0ea1f0", "fusion_lon": 0.0}, {"rental_uris": {"ios": "https://dc.lft.to/lastmile_qr_scan", "android": "https://dc.lft.to/lastmile_qr_scan"}, "type": "electric_scooter", "name": "669c90b5c3a9cd2f8a792865f250fe92", "is_reserved": 0, "lon": -77.01761183333333, "is_disabled": 0, "fusion_lat": 0.0, "lat": 38.8768375, "bike_id": "669c90b5c3a9cd2f8a792865f250fe92", "fusion_lon": 0.0}, {"rental_uris": {"ios": "https://dc.lft.to/lastmile_qr_scan", "android": "https://dc.lft.to/lastmile_qr_scan"}, "type": "electric_scooter", "name": "5015d9c199012b6a3694f31b7389c667", "is_reserved": 0, "lon": -77.00755733333334, "is_disabled": 0, "fusion_lat": 0.0, "lat": 38.910267833333336, "bike_id": "5015d9c199012b6a3694f31b7389c667", "fusion_lon": 0.0}, {"rental_uris": {"ios": "https://dc.lft.to/lastmile_qr_scan", "android": "https://dc.lft.to/lastmile_qr_scan"}, "type": "electric_bike", "name": "a06d0b4f370db60679dd304cdfbabf62", "is_reserved": 0, "lon": -76.942288, "is_disabled": 0, "fusion_lat": 0.0, "lat": 38.89048583333334, "bike_id": "a06d0b4f370db60679dd304cdfbabf62", "fusion_lon": 0.0}, {"rental_uris": {"ios": "https://dc.lft.to/lastmile_qr_scan", "android": "https://dc.lft.to/lastmile_qr_scan"}, "type": "electric_scooter", "name": "e42e23043b412d2be430a7bb6ce87bd3", "is_reserved": 0, "lon": -77.04183683333333, "is_disabled": 0, "fusion_lat": 0.0, "lat": 38.92041533333333, "bike_id": "e42e23043b412d2be430a7bb6ce87bd3", "fusion_lon": 0.0}, {"rental_uris": {"ios": "https://dc.lft.to/lastmile_qr_scan", "android": "https://dc.lft.to/lastmile_qr_scan"}, "type": "electric_scooter", "name": "44631f57d50c933fea4c2f0f0c5c81c9", "is_reserved": 0, "lon": -77.00771333333333, "is_disabled": 0, "fusion_lat": 0.0, "lat": 38.875743, "bike_id": "44631f57d50c933fea4c2f0f0c5c81c9", "fusion_lon": 0.0}, {"rental_uris": {"ios": "https://dc.lft.to/lastmile_qr_scan", "android": "https://dc.lft.to/lastmile_qr_scan"}, "type": "electric_scooter", "name": "b6672744263d3d9ba83dee615a3bdcc2", "is_reserved": 0, "lon": -77.0721495, "is_disabled": 0, "fusion_lat": 0.0, "lat": 38.89898616666667, "bike_id": "b6672744263d3d9ba83dee615a3bdcc2", "fusion_lon": 0.0}, {"rental_uris": {"ios": "https://dc.lft.to/lastmile_qr_scan", "android": "https://dc.lft.to/lastmile_qr_scan"}, "type": "electric_scooter", "name": "0f10ebbd3db0b66da6b6b6e8988a33e2", "is_reserved": 0, "lon": -77.03487666666666, "is_disabled": 0, "fusion_lat": 0.0, "lat": 38.920508, "bike_id": "0f10ebbd3db0b66da6b6b6e8988a33e2", "fusion_lon": 0.0}, {"rental_uris": {"ios": "https://dc.lft.to/lastmile_qr_scan", "android": "https://dc.lft.to/lastmile_qr_scan"}, "type": "electric_bike", "name": "1382a53aa07ea63b1e37476d8e18cb89", "is_reserved": 0, "lon": -77.06698833333333, "is_disabled": 0, "fusion_lat": 0.0, "lat": 38.831698833333334, "bike_id": "1382a53aa07ea63b1e37476d8e18cb89", "fusion_lon": 0.0}, {"rental_uris": {"ios": "https://dc.lft.to/lastmile_qr_scan", "android": "https://dc.lft.to/lastmile_qr_scan"}, "type": "electric_scooter", "name": "07c1fd77487cb3c258aeadda7a4e0374", "is_reserved": 0, "lon": -77.03836616666666, "is_disabled": 0, "fusion_lat": 0.0, "lat": 38.909861, "bike_id": "07c1fd77487cb3c258aeadda7a4e0374", "fusion_lon": 0.0}, {"rental_uris": {"ios": "https://dc.lft.to/lastmile_qr_scan", "android": "https://dc.lft.to/lastmile_qr_scan"}, "type": "electric_scooter", "name": "0094c93a5bcd842b8f767482661c2be2", "is_reserved": 0, "lon": -76.97037033333334, "is_disabled": 0, "fusion_lat": 0.0, "lat": 38.87316583333333, "bike_id": "0094c93a5bcd842b8f767482661c2be2", "fusion_lon": 0.0}, {"rental_uris": {"ios": "https://dc.lft.to/lastmile_qr_scan", "android": "https://dc.lft.to/lastmile_qr_scan"}, "type": "electric_scooter", "name": "450597004b07fbb354971842df3d0b1a", "is_reserved": 0, "lon": -77.0449945, "is_disabled": 0, "fusion_lat": 0.0, "lat": 38.89050433333333, "bike_id": "450597004b07fbb354971842df3d0b1a", "fusion_lon": 0.0}, {"rental_uris": {"ios": "https://dc.lft.to/lastmile_qr_scan", "android": "https://dc.lft.to/lastmile_qr_scan"}, "type": "electric_scooter", "name": "a67eba04b5481d66c77211ec30a4978e", "is_reserved": 0, "lon": -77.01443083333334, "is_disabled": 0, "fusion_lat": 0.0, "lat": 38.909602166666666, "bike_id": "a67eba04b5481d66c77211ec30a4978e", "fusion_lon": 0.0}, {"rental_uris": {"ios": "https://dc.lft.to/lastmile_qr_scan", "android": "https://dc.lft.to/lastmile_qr_scan"}, "type": "electric_bike", "name": "e5acb63070e1272436e9ae6f5e39ae27", "is_reserved": 0, "lon": -77.0000655, "is_disabled": 0, "fusion_lat": 0.0, "lat": 38.923929, "bike_id": "e5acb63070e1272436e9ae6f5e39ae27", "fusion_lon": 0.0}, {"rental_uris": {"ios": "https://dc.lft.to/lastmile_qr_scan", "android": "https://dc.lft.to/lastmile_qr_scan"}, "type": "electric_scooter", "name": "24df7a0a388bc3e076767c203b6b9bb6", "is_reserved": 0, "lon": -77.052209, "is_disabled": 0, "fusion_lat": 0.0, "lat": 38.8995265, "bike_id": "24df7a0a388bc3e076767c203b6b9bb6", "fusion_lon": 0.0}, {"rental_uris": {"ios": "https://dc.lft.to/lastmile_qr_scan", "android": "https://dc.lft.to/lastmile_qr_scan"}, "type": "electric_bike", "name": "af90a5f1771f4f33eb2fea321fa90c6a", "is_reserved": 0, "lon": -77.10609933333333, "is_disabled": 0, "fusion_lat": 0.0, "lat": 38.8372445, "bike_id": "af90a5f1771f4f33eb2fea321fa90c6a", "fusion_lon": 0.0}, {"rental_uris": {"ios": "https://dc.lft.to/lastmile_qr_scan", "android": "https://dc.lft.to/lastmile_qr_scan"}, "type": "electric_scooter", "name": "663b48e96c0676b0a818a4e679cf1479", "is_reserved": 0, "lon": -77.04185566666666, "is_disabled": 0, "fusion_lat": 0.0, "lat": 38.91980216666666, "bike_id": "663b48e96c0676b0a818a4e679cf1479", "fusion_lon": 0.0}, {"rental_uris": {"ios": "https://dc.lft.to/lastmile_qr_scan", "android": "https://dc.lft.to/lastmile_qr_scan"}, "type": "electric_bike", "name": "9e7746158929aba9e9be146a57831a63", "is_reserved": 0, "lon": -76.941656, "is_disabled": 0, "fusion_lat": 0.0, "lat": 38.865526333333335, "bike_id": "9e7746158929aba9e9be146a57831a63", "fusion_lon": 0.0}, {"rental_uris": {"ios": "https://dc.lft.to/lastmile_qr_scan", "android": "https://dc.lft.to/lastmile_qr_scan"}, "type": "electric_scooter", "name": "d03884b2286fb68a5a23f29d3dfa553e", "is_reserved": 0, "lon": -76.98028533333333, "is_disabled": 0, "fusion_lat": 0.0, "lat": 38.91681766666667, "bike_id": "d03884b2286fb68a5a23f29d3dfa553e", "fusion_lon": 0.0}, {"rental_uris": {"ios": "https://dc.lft.to/lastmile_qr_scan", "android": "https://dc.lft.to/lastmile_qr_scan"}, "type": "electric_scooter", "name": "bc7e85c91d9490b0b0d588b17cc8732d", "is_reserved": 0, "lon": -77.03448966666667, "is_disabled": 0, "fusion_lat": 0.0, "lat": 38.9221245, "bike_id": "bc7e85c91d9490b0b0d588b17cc8732d", "fusion_lon": 0.0}, {"rental_uris": {"ios": "https://dc.lft.to/lastmile_qr_scan", "android": "https://dc.lft.to/lastmile_qr_scan"}, "type": "electric_scooter", "name": "937f9bb36e87ff19a3c42be7c9f78a4b", "is_reserved": 0, "lon": -77.03868433333334, "is_disabled": 0, "fusion_lat": 0.0, "lat": 38.921479166666664, "bike_id": "937f9bb36e87ff19a3c42be7c9f78a4b", "fusion_lon": 0.0}, {"rental_uris": {"ios": "https://dc.lft.to/lastmile_qr_scan", "android": "https://dc.lft.to/lastmile_qr_scan"}, "type": "electric_scooter", "name": "e736f66be61acc75fad1f4964e7ac054", "is_reserved": 0, "lon": -77.0099065, "is_disabled": 0, "fusion_lat": 0.0, "lat": 38.872864166666666, "bike_id": "e736f66be61acc75fad1f4964e7ac054", "fusion_lon": 0.0}, {"rental_uris": {"ios": "https://dc.lft.to/lastmile_qr_scan", "android": "https://dc.lft.to/lastmile_qr_scan"}, "type": "electric_scooter", "name": "9279e3b2669516ca34db0568b161391b", "is_reserved": 0, "lon": -77.01750016666666, "is_disabled": 0, "fusion_lat": 0.0, "lat": 38.912461666666665, "bike_id": "9279e3b2669516ca34db0568b161391b", "fusion_lon": 0.0}, {"rental_uris": {"ios": "https://dc.lft.to/lastmile_qr_scan", "android": "https://dc.lft.to/lastmile_qr_scan"}, "type": "electric_scooter", "name": "47106d527a9eceac1d38d1ffcef1bb38", "is_reserved": 0, "lon": -77.03966983333333, "is_disabled": 0, "fusion_lat": 0.0, "lat": 38.907205833333336, "bike_id": "47106d527a9eceac1d38d1ffcef1bb38", "fusion_lon": 0.0}, {"rental_uris": {"ios": "https://dc.lft.to/lastmile_qr_scan", "android": "https://dc.lft.to/lastmile_qr_scan"}, "type": "electric_scooter", "name": "2b0a42e6718f9208865c9504541be495", "is_reserved": 0, "lon": -77.0184085, "is_disabled": 0, "fusion_lat": 0.0, "lat": 38.90958833333333, "bike_id": "2b0a42e6718f9208865c9504541be495", "fusion_lon": 0.0}, {"rental_uris": {"ios": "https://dc.lft.to/lastmile_qr_scan", "android": "https://dc.lft.to/lastmile_qr_scan"}, "type": "electric_scooter", "name": "402efd435103de3f8385e3f9a2bdc1a0", "is_reserved": 0, "lon": -77.03661116666666, "is_disabled": 0, "fusion_lat": 0.0, "lat": 38.921188, "bike_id": "402efd435103de3f8385e3f9a2bdc1a0", "fusion_lon": 0.0}, {"rental_uris": {"ios": "https://dc.lft.to/lastmile_qr_scan", "android": "https://dc.lft.to/lastmile_qr_scan"}, "type": "electric_scooter", "name": "a8da8e5813b7e785a2cffc0bbaf154ce", "is_reserved": 0, "lon": -77.01760266666666, "is_disabled": 0, "fusion_lat": 0.0, "lat": 38.87686883333333, "bike_id": "a8da8e5813b7e785a2cffc0bbaf154ce", "fusion_lon": 0.0}, {"rental_uris": {"ios": "https://dc.lft.to/lastmile_qr_scan", "android": "https://dc.lft.to/lastmile_qr_scan"}, "type": "electric_scooter", "name": "b682950a5e7474f351c810e092a8040d", "is_reserved": 0, "lon": -77.005162, "is_disabled": 0, "fusion_lat": 0.0, "lat": 38.8792475, "bike_id": "b682950a5e7474f351c810e092a8040d", "fusion_lon": 0.0}, {"rental_uris": {"ios": "https://dc.lft.to/lastmile_qr_scan", "android": "https://dc.lft.to/lastmile_qr_scan"}, "type": "electric_scooter", "name": "2f4745f47bc9f6fb80f6e63784ade596", "is_reserved": 0, "lon": -77.034505, "is_disabled": 0, "fusion_lat": 0.0, "lat": 38.9107305, "bike_id": "2f4745f47bc9f6fb80f6e63784ade596", "fusion_lon": 0.0}, {"rental_uris": {"ios": "https://dc.lft.to/lastmile_qr_scan", "android": "https://dc.lft.to/lastmile_qr_scan"}, "type": "electric_bike", "name": "a89a802237451877812b2d659c22ace8", "is_reserved": 0, "lon": -77.0430825, "is_disabled": 0, "fusion_lat": 0.0, "lat": 39.03425216666667, "bike_id": "a89a802237451877812b2d659c22ace8", "fusion_lon": 0.0}, {"rental_uris": {"ios": "https://dc.lft.to/lastmile_qr_scan", "android": "https://dc.lft.to/lastmile_qr_scan"}, "type": "electric_bike", "name": "a96684346457f389b1690df56e21a3fd", "is_reserved": 0, "lon": -77.113545, "is_disabled": 0, "fusion_lat": 0.0, "lat": 38.8418835, "bike_id": "a96684346457f389b1690df56e21a3fd", "fusion_lon": 0.0}, {"rental_uris": {"ios": "https://dc.lft.to/lastmile_qr_scan", "android": "https://dc.lft.to/lastmile_qr_scan"}, "type": "electric_scooter", "name": "0d4c43035099cfe7d9d1f3c92ebde670", "is_reserved": 0, "lon": -76.97355033333334, "is_disabled": 0, "fusion_lat": 0.0, "lat": 38.84975266666667, "bike_id": "0d4c43035099cfe7d9d1f3c92ebde670", "fusion_lon": 0.0}, {"rental_uris": {"ios": "https://dc.lft.to/lastmile_qr_scan", "android": "https://dc.lft.to/lastmile_qr_scan"}, "type": "electric_scooter", "name": "3d41b00634024c0f9acdf85ea9add899", "is_reserved": 0, "lon": -77.03833266666666, "is_disabled": 0, "fusion_lat": 0.0, "lat": 38.911914833333334, "bike_id": "3d41b00634024c0f9acdf85ea9add899", "fusion_lon": 0.0}, {"rental_uris": {"ios": "https://dc.lft.to/lastmile_qr_scan", "android": "https://dc.lft.to/lastmile_qr_scan"}, "type": "electric_scooter", "name": "b153537e1ac93955de458f5c48262049", "is_reserved": 0, "lon": -77.03601733333333, "is_disabled": 0, "fusion_lat": 0.0, "lat": 38.91704083333333, "bike_id": "b153537e1ac93955de458f5c48262049", "fusion_lon": 0.0}, {"rental_uris": {"ios": "https://dc.lft.to/lastmile_qr_scan", "android": "https://dc.lft.to/lastmile_qr_scan"}, "type": "electric_scooter", "name": "b98b1a74ba03ad9b775d22e2a96406f5", "is_reserved": 0, "lon": -76.99699016666666, "is_disabled": 0, "fusion_lat": 0.0, "lat": 38.90017366666667, "bike_id": "b98b1a74ba03ad9b775d22e2a96406f5", "fusion_lon": 0.0}, {"rental_uris": {"ios": "https://dc.lft.to/lastmile_qr_scan", "android": "https://dc.lft.to/lastmile_qr_scan"}, "type": "electric_scooter", "name": "85e0f21ffa7681921da2624d32dc7d8d", "is_reserved": 0, "lon": -77.0401235, "is_disabled": 0, "fusion_lat": 0.0, "lat": 38.916896333333334, "bike_id": "85e0f21ffa7681921da2624d32dc7d8d", "fusion_lon": 0.0}, {"rental_uris": {"ios": "https://dc.lft.to/lastmile_qr_scan", "android": "https://dc.lft.to/lastmile_qr_scan"}, "type": "electric_scooter", "name": "84e2e39edfc7bac6df8254f22cc06d3a", "is_reserved": 0, "lon": -76.99345733333334, "is_disabled": 0, "fusion_lat": 0.0, "lat": 38.876915, "bike_id": "84e2e39edfc7bac6df8254f22cc06d3a", "fusion_lon": 0.0}, {"rental_uris": {"ios": "https://dc.lft.to/lastmile_qr_scan", "android": "https://dc.lft.to/lastmile_qr_scan"}, "type": "electric_scooter", "name": "30ed771332d5e8b51b4bedbd14d82b52", "is_reserved": 0, "lon": -77.01885033333333, "is_disabled": 0, "fusion_lat": 0.0, "lat": 38.91317883333333, "bike_id": "30ed771332d5e8b51b4bedbd14d82b52", "fusion_lon": 0.0}, {"rental_uris": {"ios": "https://dc.lft.to/lastmile_qr_scan", "android": "https://dc.lft.to/lastmile_qr_scan"}, "type": "electric_scooter", "name": "cd9b4af67a2ac26970e0f77367bd4381", "is_reserved": 0, "lon": -77.07454116666666, "is_disabled": 0, "fusion_lat": 0.0, "lat": 38.93780066666667, "bike_id": "cd9b4af67a2ac26970e0f77367bd4381", "fusion_lon": 0.0}, {"rental_uris": {"ios": "https://dc.lft.to/lastmile_qr_scan", "android": "https://dc.lft.to/lastmile_qr_scan"}, "type": "electric_scooter", "name": "c299800662adae9de54a494ba3acfa81", "is_reserved": 0, "lon": -77.02951566666667, "is_disabled": 0, "fusion_lat": 0.0, "lat": 38.91681633333334, "bike_id": "c299800662adae9de54a494ba3acfa81", "fusion_lon": 0.0}, {"rental_uris": {"ios": "https://dc.lft.to/lastmile_qr_scan", "android": "https://dc.lft.to/lastmile_qr_scan"}, "type": "electric_scooter", "name": "74bd7ed5b60d9af09eeb3efec7c1372a", "is_reserved": 0, "lon": -77.04826766666666, "is_disabled": 0, "fusion_lat": 0.0, "lat": 38.90511133333333, "bike_id": "74bd7ed5b60d9af09eeb3efec7c1372a", "fusion_lon": 0.0}, {"rental_uris": {"ios": "https://dc.lft.to/lastmile_qr_scan", "android": "https://dc.lft.to/lastmile_qr_scan"}, "type": "electric_scooter", "name": "bc64a2da81658fb78a06365a86414c28", "is_reserved": 0, "lon": -76.97306716666667, "is_disabled": 0, "fusion_lat": 0.0, "lat": 38.919879333333334, "bike_id": "bc64a2da81658fb78a06365a86414c28", "fusion_lon": 0.0}, {"rental_uris": {"ios": "https://dc.lft.to/lastmile_qr_scan", "android": "https://dc.lft.to/lastmile_qr_scan"}, "type": "electric_scooter", "name": "a53e6da1ce016ad225dbfc497458c81e", "is_reserved": 0, "lon": -76.98851766666667, "is_disabled": 0, "fusion_lat": 0.0, "lat": 38.891618666666666, "bike_id": "a53e6da1ce016ad225dbfc497458c81e", "fusion_lon": 0.0}, {"rental_uris": {"ios": "https://dc.lft.to/lastmile_qr_scan", "android": "https://dc.lft.to/lastmile_qr_scan"}, "type": "electric_scooter", "name": "911a5207faedbd898dc142ecd4b33e2b", "is_reserved": 0, "lon": -77.0333885, "is_disabled": 0, "fusion_lat": 0.0, "lat": 38.8983465, "bike_id": "911a5207faedbd898dc142ecd4b33e2b", "fusion_lon": 0.0}, {"rental_uris": {"ios": "https://dc.lft.to/lastmile_qr_scan", "android": "https://dc.lft.to/lastmile_qr_scan"}, "type": "electric_bike", "name": "be242cc8336acb2a73df849c1c633c2b", "is_reserved": 0, "lon": -77.1270865, "is_disabled": 0, "fusion_lat": 0.0, "lat": 38.895609, "bike_id": "be242cc8336acb2a73df849c1c633c2b", "fusion_lon": 0.0}, {"rental_uris": {"ios": "https://dc.lft.to/lastmile_qr_scan", "android": "https://dc.lft.to/lastmile_qr_scan"}, "type": "electric_scooter", "name": "c3b5c848911be4874a5f2ffce2072c94", "is_reserved": 0, "lon": -76.957456, "is_disabled": 0, "fusion_lat": 0.0, "lat": 38.883885166666666, "bike_id": "c3b5c848911be4874a5f2ffce2072c94", "fusion_lon": 0.0}, {"rental_uris": {"ios": "https://dc.lft.to/lastmile_qr_scan", "android": "https://dc.lft.to/lastmile_qr_scan"}, "type": "electric_bike", "name": "9577f935e79f28b3dd5d0558b7d58597", "is_reserved": 0, "lon": -76.956969, "is_disabled": 0, "fusion_lat": 0.0, "lat": 38.85087583333333, "bike_id": "9577f935e79f28b3dd5d0558b7d58597", "fusion_lon": 0.0}, {"rental_uris": {"ios": "https://dc.lft.to/lastmile_qr_scan", "android": "https://dc.lft.to/lastmile_qr_scan"}, "type": "electric_bike", "name": "330b80edbeebbfbb2f074986aca5fca6", "is_reserved": 0, "lon": -77.09017433333334, "is_disabled": 0, "fusion_lat": 0.0, "lat": 38.926483833333336, "bike_id": "330b80edbeebbfbb2f074986aca5fca6", "fusion_lon": 0.0}, {"rental_uris": {"ios": "https://dc.lft.to/lastmile_qr_scan", "android": "https://dc.lft.to/lastmile_qr_scan"}, "type": "electric_scooter", "name": "1559e0750f7420119515a0dd15a41d7b", "is_reserved": 0, "lon": -77.02394433333333, "is_disabled": 0, "fusion_lat": 0.0, "lat": 38.90315433333333, "bike_id": "1559e0750f7420119515a0dd15a41d7b", "fusion_lon": 0.0}, {"rental_uris": {"ios": "https://dc.lft.to/lastmile_qr_scan", "android": "https://dc.lft.to/lastmile_qr_scan"}, "type": "electric_scooter", "name": "367b0bde94c121b65c46c94d3710b590", "is_reserved": 0, "lon": -77.031964, "is_disabled": 0, "fusion_lat": 0.0, "lat": 38.9101135, "bike_id": "367b0bde94c121b65c46c94d3710b590", "fusion_lon": 0.0}, {"rental_uris": {"ios": "https://dc.lft.to/lastmile_qr_scan", "android": "https://dc.lft.to/lastmile_qr_scan"}, "type": "electric_scooter", "name": "85528a3f7545ba8cbf2ce7952ce94b12", "is_reserved": 0, "lon": -77.05152133333333, "is_disabled": 0, "fusion_lat": 0.0, "lat": 38.90034466666667, "bike_id": "85528a3f7545ba8cbf2ce7952ce94b12", "fusion_lon": 0.0}, {"rental_uris": {"ios": "https://dc.lft.to/lastmile_qr_scan", "android": "https://dc.lft.to/lastmile_qr_scan"}, "type": "electric_scooter", "name": "4eac5bbab16a8b89dced30ca583e24e2", "is_reserved": 0, "lon": -77.02657583333334, "is_disabled": 0, "fusion_lat": 0.0, "lat": 38.884777, "bike_id": "4eac5bbab16a8b89dced30ca583e24e2", "fusion_lon": 0.0}, {"rental_uris": {"ios": "https://dc.lft.to/lastmile_qr_scan", "android": "https://dc.lft.to/lastmile_qr_scan"}, "type": "electric_scooter", "name": "1635fd5b7e37ad9e2519b6aeb09b631e", "is_reserved": 0, "lon": -77.0347325, "is_disabled": 0, "fusion_lat": 0.0, "lat": 38.908405333333334, "bike_id": "1635fd5b7e37ad9e2519b6aeb09b631e", "fusion_lon": 0.0}, {"rental_uris": {"ios": "https://dc.lft.to/lastmile_qr_scan", "android": "https://dc.lft.to/lastmile_qr_scan"}, "type": "electric_scooter", "name": "ec40b9a0757e39bfbc28a1bc18f1e1dc", "is_reserved": 0, "lon": -77.0445515, "is_disabled": 0, "fusion_lat": 0.0, "lat": 38.92463466666667, "bike_id": "ec40b9a0757e39bfbc28a1bc18f1e1dc", "fusion_lon": 0.0}, {"rental_uris": {"ios": "https://dc.lft.to/lastmile_qr_scan", "android": "https://dc.lft.to/lastmile_qr_scan"}, "type": "electric_scooter", "name": "d86b1950952c960d2710e5241310e1f6", "is_reserved": 0, "lon": -77.03176683333334, "is_disabled": 0, "fusion_lat": 0.0, "lat": 38.8944245, "bike_id": "d86b1950952c960d2710e5241310e1f6", "fusion_lon": 0.0}, {"rental_uris": {"ios": "https://dc.lft.to/lastmile_qr_scan", "android": "https://dc.lft.to/lastmile_qr_scan"}, "type": "electric_scooter", "name": "eee711c6d54553ba43999eb25bc3fcf2", "is_reserved": 0, "lon": -77.01108166666667, "is_disabled": 0, "fusion_lat": 0.0, "lat": 38.89539833333333, "bike_id": "eee711c6d54553ba43999eb25bc3fcf2", "fusion_lon": 0.0}, {"rental_uris": {"ios": "https://dc.lft.to/lastmile_qr_scan", "android": "https://dc.lft.to/lastmile_qr_scan"}, "type": "electric_scooter", "name": "f026f11723b641b732603cddfff00c0f", "is_reserved": 0, "lon": -77.03864283333333, "is_disabled": 0, "fusion_lat": 0.0, "lat": 38.9170595, "bike_id": "f026f11723b641b732603cddfff00c0f", "fusion_lon": 0.0}, {"rental_uris": {"ios": "https://dc.lft.to/lastmile_qr_scan", "android": "https://dc.lft.to/lastmile_qr_scan"}, "type": "electric_bike", "name": "01dd85d0355a326b72a1ca0996a97ba7", "is_reserved": 0, "lon": -77.01200533333333, "is_disabled": 0, "fusion_lat": 0.0, "lat": 38.95070783333333, "bike_id": "01dd85d0355a326b72a1ca0996a97ba7", "fusion_lon": 0.0}, {"rental_uris": {"ios": "https://dc.lft.to/lastmile_qr_scan", "android": "https://dc.lft.to/lastmile_qr_scan"}, "type": "electric_scooter", "name": "c95f6e13b14093cf9fbb9fcb972ab793", "is_reserved": 0, "lon": -77.03865866666666, "is_disabled": 0, "fusion_lat": 0.0, "lat": 38.925413166666665, "bike_id": "c95f6e13b14093cf9fbb9fcb972ab793", "fusion_lon": 0.0}, {"rental_uris": {"ios": "https://dc.lft.to/lastmile_qr_scan", "android": "https://dc.lft.to/lastmile_qr_scan"}, "type": "electric_bike", "name": "7d4eb609f83f5d5304e3c910e2cdeb36", "is_reserved": 0, "lon": -76.987702, "is_disabled": 0, "fusion_lat": 0.0, "lat": 38.857699833333335, "bike_id": "7d4eb609f83f5d5304e3c910e2cdeb36", "fusion_lon": 0.0}, {"rental_uris": {"ios": "https://dc.lft.to/lastmile_qr_scan", "android": "https://dc.lft.to/lastmile_qr_scan"}, "type": "electric_scooter", "name": "bdf800ef0abcf9966f2e309fb3b116dc", "is_reserved": 0, "lon": -77.01088583333333, "is_disabled": 0, "fusion_lat": 0.0, "lat": 38.9072525, "bike_id": "bdf800ef0abcf9966f2e309fb3b116dc", "fusion_lon": 0.0}, {"rental_uris": {"ios": "https://dc.lft.to/lastmile_qr_scan", "android": "https://dc.lft.to/lastmile_qr_scan"}, "type": "electric_scooter", "name": "210835a807836cd72135a285752cda22", "is_reserved": 0, "lon": -77.0448005, "is_disabled": 0, "fusion_lat": 0.0, "lat": 38.90002, "bike_id": "210835a807836cd72135a285752cda22", "fusion_lon": 0.0}, {"rental_uris": {"ios": "https://dc.lft.to/lastmile_qr_scan", "android": "https://dc.lft.to/lastmile_qr_scan"}, "type": "electric_scooter", "name": "1c93b358c59a25457081438708dc82ad", "is_reserved": 0, "lon": -77.0198235, "is_disabled": 0, "fusion_lat": 0.0, "lat": 38.88719316666667, "bike_id": "1c93b358c59a25457081438708dc82ad", "fusion_lon": 0.0}, {"rental_uris": {"ios": "https://dc.lft.to/lastmile_qr_scan", "android": "https://dc.lft.to/lastmile_qr_scan"}, "type": "electric_scooter", "name": "a333e14b5921b74c3994f0cd57fdd0a6", "is_reserved": 0, "lon": -77.0272875, "is_disabled": 0, "fusion_lat": 0.0, "lat": 38.89548633333333, "bike_id": "a333e14b5921b74c3994f0cd57fdd0a6", "fusion_lon": 0.0}, {"rental_uris": {"ios": "https://dc.lft.to/lastmile_qr_scan", "android": "https://dc.lft.to/lastmile_qr_scan"}, "type": "electric_scooter", "name": "fa175907c87fb5bf00b3168ef7300a78", "is_reserved": 0, "lon": -76.98369566666666, "is_disabled": 0, "fusion_lat": 0.0, "lat": 38.899767833333335, "bike_id": "fa175907c87fb5bf00b3168ef7300a78", "fusion_lon": 0.0}, {"rental_uris": {"ios": "https://dc.lft.to/lastmile_qr_scan", "android": "https://dc.lft.to/lastmile_qr_scan"}, "type": "electric_scooter", "name": "89ef0e0437e234e1b0a0c076723518fe", "is_reserved": 0, "lon": -77.0151425, "is_disabled": 0, "fusion_lat": 0.0, "lat": 38.910472666666664, "bike_id": "89ef0e0437e234e1b0a0c076723518fe", "fusion_lon": 0.0}, {"rental_uris": {"ios": "https://dc.lft.to/lastmile_qr_scan", "android": "https://dc.lft.to/lastmile_qr_scan"}, "type": "electric_scooter", "name": "36de4f654e73eb0703b043244debf72c", "is_reserved": 0, "lon": -77.01632466666666, "is_disabled": 0, "fusion_lat": 0.0, "lat": 38.905652, "bike_id": "36de4f654e73eb0703b043244debf72c", "fusion_lon": 0.0}, {"rental_uris": {"ios": "https://dc.lft.to/lastmile_qr_scan", "android": "https://dc.lft.to/lastmile_qr_scan"}, "type": "electric_scooter", "name": "41bda03dde34703f59bdc5fc61a6eb45", "is_reserved": 0, "lon": -77.06697766666667, "is_disabled": 0, "fusion_lat": 0.0, "lat": 38.90978333333334, "bike_id": "41bda03dde34703f59bdc5fc61a6eb45", "fusion_lon": 0.0}, {"rental_uris": {"ios": "https://dc.lft.to/lastmile_qr_scan", "android": "https://dc.lft.to/lastmile_qr_scan"}, "type": "electric_scooter", "name": "d014467aa788b0d9745c6c15864cfc29", "is_reserved": 0, "lon": -77.036625, "is_disabled": 0, "fusion_lat": 0.0, "lat": 38.90636683333334, "bike_id": "d014467aa788b0d9745c6c15864cfc29", "fusion_lon": 0.0}, {"rental_uris": {"ios": "https://dc.lft.to/lastmile_qr_scan", "android": "https://dc.lft.to/lastmile_qr_scan"}, "type": "electric_scooter", "name": "0bde3f14671f9189464eaaa52451bb13", "is_reserved": 0, "lon": -77.03835466666666, "is_disabled": 0, "fusion_lat": 0.0, "lat": 38.91038116666667, "bike_id": "0bde3f14671f9189464eaaa52451bb13", "fusion_lon": 0.0}, {"rental_uris": {"ios": "https://dc.lft.to/lastmile_qr_scan", "android": "https://dc.lft.to/lastmile_qr_scan"}, "type": "electric_scooter", "name": "ee7d50918c6df2ec76954ee3607a145e", "is_reserved": 0, "lon": -77.01649183333333, "is_disabled": 0, "fusion_lat": 0.0, "lat": 38.92936983333333, "bike_id": "ee7d50918c6df2ec76954ee3607a145e", "fusion_lon": 0.0}, {"rental_uris": {"ios": "https://dc.lft.to/lastmile_qr_scan", "android": "https://dc.lft.to/lastmile_qr_scan"}, "type": "electric_scooter", "name": "308562f6511306ad482bd0a2fa20e415", "is_reserved": 0, "lon": -77.00193583333333, "is_disabled": 0, "fusion_lat": 0.0, "lat": 38.9002305, "bike_id": "308562f6511306ad482bd0a2fa20e415", "fusion_lon": 0.0}, {"rental_uris": {"ios": "https://dc.lft.to/lastmile_qr_scan", "android": "https://dc.lft.to/lastmile_qr_scan"}, "type": "electric_scooter", "name": "6c0f30c3b6c415a695b1f5e50c7075f4", "is_reserved": 0, "lon": -76.9823515, "is_disabled": 0, "fusion_lat": 0.0, "lat": 38.9165825, "bike_id": "6c0f30c3b6c415a695b1f5e50c7075f4", "fusion_lon": 0.0}, {"rental_uris": {"ios": "https://dc.lft.to/lastmile_qr_scan", "android": "https://dc.lft.to/lastmile_qr_scan"}, "type": "electric_scooter", "name": "a03bbe4b2d9b47bca3b57d1abe12d824", "is_reserved": 0, "lon": -77.029134, "is_disabled": 0, "fusion_lat": 0.0, "lat": 38.93328233333333, "bike_id": "a03bbe4b2d9b47bca3b57d1abe12d824", "fusion_lon": 0.0}, {"rental_uris": {"ios": "https://dc.lft.to/lastmile_qr_scan", "android": "https://dc.lft.to/lastmile_qr_scan"}, "type": "electric_scooter", "name": "422dcded4787c9e2de3994238429a12a", "is_reserved": 0, "lon": -77.00743433333334, "is_disabled": 0, "fusion_lat": 0.0, "lat": 38.876595, "bike_id": "422dcded4787c9e2de3994238429a12a", "fusion_lon": 0.0}, {"rental_uris": {"ios": "https://dc.lft.to/lastmile_qr_scan", "android": "https://dc.lft.to/lastmile_qr_scan"}, "type": "electric_scooter", "name": "2fba551e59317c50bd8eeff42dbc787c", "is_reserved": 0, "lon": -77.023039, "is_disabled": 0, "fusion_lat": 0.0, "lat": 38.90901083333333, "bike_id": "2fba551e59317c50bd8eeff42dbc787c", "fusion_lon": 0.0}, {"rental_uris": {"ios": "https://dc.lft.to/lastmile_qr_scan", "android": "https://dc.lft.to/lastmile_qr_scan"}, "type": "electric_scooter", "name": "d0524f69dcb472aed73823e7c4a83ee8", "is_reserved": 0, "lon": -77.02558466666666, "is_disabled": 0, "fusion_lat": 0.0, "lat": 38.95393883333333, "bike_id": "d0524f69dcb472aed73823e7c4a83ee8", "fusion_lon": 0.0}, {"rental_uris": {"ios": "https://dc.lft.to/lastmile_qr_scan", "android": "https://dc.lft.to/lastmile_qr_scan"}, "type": "electric_scooter", "name": "64ad1522bdfa940286a9aa1a73bc52a5", "is_reserved": 0, "lon": -76.94105416666666, "is_disabled": 0, "fusion_lat": 0.0, "lat": 38.89362033333333, "bike_id": "64ad1522bdfa940286a9aa1a73bc52a5", "fusion_lon": 0.0}, {"rental_uris": {"ios": "https://dc.lft.to/lastmile_qr_scan", "android": "https://dc.lft.to/lastmile_qr_scan"}, "type": "electric_bike", "name": "abe671db66e5265d9e7415d2eb15f443", "is_reserved": 0, "lon": -77.07752116666667, "is_disabled": 0, "fusion_lat": 0.0, "lat": 38.8418905, "bike_id": "abe671db66e5265d9e7415d2eb15f443", "fusion_lon": 0.0}, {"rental_uris": {"ios": "https://dc.lft.to/lastmile_qr_scan", "android": "https://dc.lft.to/lastmile_qr_scan"}, "type": "electric_scooter", "name": "9fbfd6810709af47d77e4bb7255432c3", "is_reserved": 0, "lon": -77.05322516666666, "is_disabled": 0, "fusion_lat": 0.0, "lat": 38.90653433333333, "bike_id": "9fbfd6810709af47d77e4bb7255432c3", "fusion_lon": 0.0}, {"rental_uris": {"ios": "https://dc.lft.to/lastmile_qr_scan", "android": "https://dc.lft.to/lastmile_qr_scan"}, "type": "electric_bike", "name": "d3feb0ae10e256bd01b743758e60261d", "is_reserved": 0, "lon": -76.96090433333333, "is_disabled": 0, "fusion_lat": 0.0, "lat": 38.918576333333334, "bike_id": "d3feb0ae10e256bd01b743758e60261d", "fusion_lon": 0.0}, {"rental_uris": {"ios": "https://dc.lft.to/lastmile_qr_scan", "android": "https://dc.lft.to/lastmile_qr_scan"}, "type": "electric_scooter", "name": "8e5bc9b2cd6eaa8cb8fd13d2bd9e2403", "is_reserved": 0, "lon": -77.04191233333333, "is_disabled": 0, "fusion_lat": 0.0, "lat": 38.920479666666665, "bike_id": "8e5bc9b2cd6eaa8cb8fd13d2bd9e2403", "fusion_lon": 0.0}, {"rental_uris": {"ios": "https://dc.lft.to/lastmile_qr_scan", "android": "https://dc.lft.to/lastmile_qr_scan"}, "type": "electric_scooter", "name": "c5ca22920bd8c644e323eb93bb2da8d0", "is_reserved": 0, "lon": -76.99249066666667, "is_disabled": 0, "fusion_lat": 0.0, "lat": 38.94063883333333, "bike_id": "c5ca22920bd8c644e323eb93bb2da8d0", "fusion_lon": 0.0}, {"rental_uris": {"ios": "https://dc.lft.to/lastmile_qr_scan", "android": "https://dc.lft.to/lastmile_qr_scan"}, "type": "electric_bike", "name": "0f18d0f438365a20cb84c29cce80cf8f", "is_reserved": 0, "lon": -76.9731225, "is_disabled": 0, "fusion_lat": 0.0, "lat": 38.917593333333336, "bike_id": "0f18d0f438365a20cb84c29cce80cf8f", "fusion_lon": 0.0}, {"rental_uris": {"ios": "https://dc.lft.to/lastmile_qr_scan", "android": "https://dc.lft.to/lastmile_qr_scan"}, "type": "electric_scooter", "name": "6254ad37a145f56148d08e3354136645", "is_reserved": 0, "lon": -76.965252, "is_disabled": 0, "fusion_lat": 0.0, "lat": 38.87628316666667, "bike_id": "6254ad37a145f56148d08e3354136645", "fusion_lon": 0.0}, {"rental_uris": {"ios": "https://dc.lft.to/lastmile_qr_scan", "android": "https://dc.lft.to/lastmile_qr_scan"}, "type": "electric_scooter", "name": "dcae9aa871ba37703ec33250a2df4383", "is_reserved": 0, "lon": -77.03233516666667, "is_disabled": 0, "fusion_lat": 0.0, "lat": 38.915575833333335, "bike_id": "dcae9aa871ba37703ec33250a2df4383", "fusion_lon": 0.0}, {"rental_uris": {"ios": "https://dc.lft.to/lastmile_qr_scan", "android": "https://dc.lft.to/lastmile_qr_scan"}, "type": "electric_scooter", "name": "f2822f30c48fc7431f2697bbecc41c50", "is_reserved": 0, "lon": -77.03566683333334, "is_disabled": 0, "fusion_lat": 0.0, "lat": 38.90956666666666, "bike_id": "f2822f30c48fc7431f2697bbecc41c50", "fusion_lon": 0.0}, {"rental_uris": {"ios": "https://dc.lft.to/lastmile_qr_scan", "android": "https://dc.lft.to/lastmile_qr_scan"}, "type": "electric_scooter", "name": "cf1f2c113da13022a86ae13284428668", "is_reserved": 0, "lon": -77.03181166666667, "is_disabled": 0, "fusion_lat": 0.0, "lat": 38.913479, "bike_id": "cf1f2c113da13022a86ae13284428668", "fusion_lon": 0.0}, {"rental_uris": {"ios": "https://dc.lft.to/lastmile_qr_scan", "android": "https://dc.lft.to/lastmile_qr_scan"}, "type": "electric_scooter", "name": "df032474b9fb235925bdf0327b1d1c50", "is_reserved": 0, "lon": -76.99476333333334, "is_disabled": 0, "fusion_lat": 0.0, "lat": 38.862117833333336, "bike_id": "df032474b9fb235925bdf0327b1d1c50", "fusion_lon": 0.0}, {"rental_uris": {"ios": "https://dc.lft.to/lastmile_qr_scan", "android": "https://dc.lft.to/lastmile_qr_scan"}, "type": "electric_scooter", "name": "560f5863d299036b357918de9f684a2a", "is_reserved": 0, "lon": -76.991398, "is_disabled": 0, "fusion_lat": 0.0, "lat": 38.843005, "bike_id": "560f5863d299036b357918de9f684a2a", "fusion_lon": 0.0}, {"rental_uris": {"ios": "https://dc.lft.to/lastmile_qr_scan", "android": "https://dc.lft.to/lastmile_qr_scan"}, "type": "electric_scooter", "name": "b9c80d24ac55c8bbe98c816e8cd26689", "is_reserved": 0, "lon": -77.04668566666666, "is_disabled": 0, "fusion_lat": 0.0, "lat": 38.909378333333336, "bike_id": "b9c80d24ac55c8bbe98c816e8cd26689", "fusion_lon": 0.0}, {"rental_uris": {"ios": "https://dc.lft.to/lastmile_qr_scan", "android": "https://dc.lft.to/lastmile_qr_scan"}, "type": "electric_scooter", "name": "66e1d7daa6dc1cdcbdce93b04f2070bb", "is_reserved": 0, "lon": -77.02148733333334, "is_disabled": 0, "fusion_lat": 0.0, "lat": 38.88738133333333, "bike_id": "66e1d7daa6dc1cdcbdce93b04f2070bb", "fusion_lon": 0.0}, {"rental_uris": {"ios": "https://dc.lft.to/lastmile_qr_scan", "android": "https://dc.lft.to/lastmile_qr_scan"}, "type": "electric_scooter", "name": "2664af5951df967a77d01db0c1386411", "is_reserved": 0, "lon": -77.02109633333333, "is_disabled": 0, "fusion_lat": 0.0, "lat": 38.90604166666667, "bike_id": "2664af5951df967a77d01db0c1386411", "fusion_lon": 0.0}, {"rental_uris": {"ios": "https://dc.lft.to/lastmile_qr_scan", "android": "https://dc.lft.to/lastmile_qr_scan"}, "type": "electric_scooter", "name": "abefefa073723fabf9598fc88fcca152", "is_reserved": 0, "lon": -77.02473983333333, "is_disabled": 0, "fusion_lat": 0.0, "lat": 38.918140333333334, "bike_id": "abefefa073723fabf9598fc88fcca152", "fusion_lon": 0.0}, {"rental_uris": {"ios": "https://dc.lft.to/lastmile_qr_scan", "android": "https://dc.lft.to/lastmile_qr_scan"}, "type": "electric_scooter", "name": "9e494e3e9f7b832e67d01a42afa58f92", "is_reserved": 0, "lon": -76.99319083333333, "is_disabled": 0, "fusion_lat": 0.0, "lat": 38.92015683333333, "bike_id": "9e494e3e9f7b832e67d01a42afa58f92", "fusion_lon": 0.0}, {"rental_uris": {"ios": "https://dc.lft.to/lastmile_qr_scan", "android": "https://dc.lft.to/lastmile_qr_scan"}, "type": "electric_bike", "name": "cdc2bafcdce805337529900544a474da", "is_reserved": 0, "lon": -77.03437433333333, "is_disabled": 0, "fusion_lat": 0.0, "lat": 38.928681166666664, "bike_id": "cdc2bafcdce805337529900544a474da", "fusion_lon": 0.0}, {"rental_uris": {"ios": "https://dc.lft.to/lastmile_qr_scan", "android": "https://dc.lft.to/lastmile_qr_scan"}, "type": "electric_scooter", "name": "f640691446b7ae0cce1a23a6cc3710ce", "is_reserved": 0, "lon": -77.031469, "is_disabled": 0, "fusion_lat": 0.0, "lat": 38.9096695, "bike_id": "f640691446b7ae0cce1a23a6cc3710ce", "fusion_lon": 0.0}, {"rental_uris": {"ios": "https://dc.lft.to/lastmile_qr_scan", "android": "https://dc.lft.to/lastmile_qr_scan"}, "type": "electric_scooter", "name": "dfd82864d0cb0b988d490d85d791d8a0", "is_reserved": 0, "lon": -76.99626616666667, "is_disabled": 0, "fusion_lat": 0.0, "lat": 38.900595833333334, "bike_id": "dfd82864d0cb0b988d490d85d791d8a0", "fusion_lon": 0.0}, {"rental_uris": {"ios": "https://dc.lft.to/lastmile_qr_scan", "android": "https://dc.lft.to/lastmile_qr_scan"}, "type": "electric_scooter", "name": "15ae4ea124f014fe443df4642499f0de", "is_reserved": 0, "lon": -77.03258516666666, "is_disabled": 0, "fusion_lat": 0.0, "lat": 38.90484716666667, "bike_id": "15ae4ea124f014fe443df4642499f0de", "fusion_lon": 0.0}, {"rental_uris": {"ios": "https://dc.lft.to/lastmile_qr_scan", "android": "https://dc.lft.to/lastmile_qr_scan"}, "type": "electric_scooter", "name": "de44dc97a43e7b0a428fac74eff89b9c", "is_reserved": 0, "lon": -77.02843833333333, "is_disabled": 0, "fusion_lat": 0.0, "lat": 38.93583983333333, "bike_id": "de44dc97a43e7b0a428fac74eff89b9c", "fusion_lon": 0.0}, {"rental_uris": {"ios": "https://dc.lft.to/lastmile_qr_scan", "android": "https://dc.lft.to/lastmile_qr_scan"}, "type": "electric_bike", "name": "726f5c7d5822ea587f6929c8a893a839", "is_reserved": 0, "lon": -77.002153, "is_disabled": 0, "fusion_lat": 0.0, "lat": 38.905503333333336, "bike_id": "726f5c7d5822ea587f6929c8a893a839", "fusion_lon": 0.0}, {"rental_uris": {"ios": "https://dc.lft.to/lastmile_qr_scan", "android": "https://dc.lft.to/lastmile_qr_scan"}, "type": "electric_bike", "name": "d8df66376960587dc6afcf2a833a1725", "is_reserved": 0, "lon": -77.1128885, "is_disabled": 0, "fusion_lat": 0.0, "lat": 38.83104683333333, "bike_id": "d8df66376960587dc6afcf2a833a1725", "fusion_lon": 0.0}, {"rental_uris": {"ios": "https://dc.lft.to/lastmile_qr_scan", "android": "https://dc.lft.to/lastmile_qr_scan"}, "type": "electric_scooter", "name": "e5f8b34b7740a38c85a3c1c531a6a2c1", "is_reserved": 0, "lon": -77.02686833333334, "is_disabled": 0, "fusion_lat": 0.0, "lat": 38.93081016666667, "bike_id": "e5f8b34b7740a38c85a3c1c531a6a2c1", "fusion_lon": 0.0}, {"rental_uris": {"ios": "https://dc.lft.to/lastmile_qr_scan", "android": "https://dc.lft.to/lastmile_qr_scan"}, "type": "electric_scooter", "name": "6634333cdab954a4bda877c319028871", "is_reserved": 0, "lon": -77.039598, "is_disabled": 0, "fusion_lat": 0.0, "lat": 38.8924445, "bike_id": "6634333cdab954a4bda877c319028871", "fusion_lon": 0.0}, {"rental_uris": {"ios": "https://dc.lft.to/lastmile_qr_scan", "android": "https://dc.lft.to/lastmile_qr_scan"}, "type": "electric_bike", "name": "1456aa9f6f1e30498a71875132076c17", "is_reserved": 0, "lon": -77.020087, "is_disabled": 0, "fusion_lat": 0.0, "lat": 39.02622, "bike_id": "1456aa9f6f1e30498a71875132076c17", "fusion_lon": 0.0}, {"rental_uris": {"ios": "https://dc.lft.to/lastmile_qr_scan", "android": "https://dc.lft.to/lastmile_qr_scan"}, "type": "electric_scooter", "name": "c0e1c526a526ed7be81e41634788f34d", "is_reserved": 0, "lon": -77.02943533333334, "is_disabled": 0, "fusion_lat": 0.0, "lat": 38.8981275, "bike_id": "c0e1c526a526ed7be81e41634788f34d", "fusion_lon": 0.0}, {"rental_uris": {"ios": "https://dc.lft.to/lastmile_qr_scan", "android": "https://dc.lft.to/lastmile_qr_scan"}, "type": "electric_scooter", "name": "a04970e00df9fd12a79bfaeae9bc37c2", "is_reserved": 0, "lon": -77.00819516666667, "is_disabled": 0, "fusion_lat": 0.0, "lat": 38.915626833333334, "bike_id": "a04970e00df9fd12a79bfaeae9bc37c2", "fusion_lon": 0.0}, {"rental_uris": {"ios": "https://dc.lft.to/lastmile_qr_scan", "android": "https://dc.lft.to/lastmile_qr_scan"}, "type": "electric_scooter", "name": "8d8979c6b2ac28509d96dabddfc7ab64", "is_reserved": 0, "lon": -77.06320333333333, "is_disabled": 0, "fusion_lat": 0.0, "lat": 38.9133815, "bike_id": "8d8979c6b2ac28509d96dabddfc7ab64", "fusion_lon": 0.0}, {"rental_uris": {"ios": "https://dc.lft.to/lastmile_qr_scan", "android": "https://dc.lft.to/lastmile_qr_scan"}, "type": "electric_scooter", "name": "e76f9e32d57b50035a3e5b25632889dd", "is_reserved": 0, "lon": -77.02179383333333, "is_disabled": 0, "fusion_lat": 0.0, "lat": 38.92914283333333, "bike_id": "e76f9e32d57b50035a3e5b25632889dd", "fusion_lon": 0.0}, {"rental_uris": {"ios": "https://dc.lft.to/lastmile_qr_scan", "android": "https://dc.lft.to/lastmile_qr_scan"}, "type": "electric_scooter", "name": "da04592723f63354ae94544ebb635ac3", "is_reserved": 0, "lon": -77.0417855, "is_disabled": 0, "fusion_lat": 0.0, "lat": 38.9141245, "bike_id": "da04592723f63354ae94544ebb635ac3", "fusion_lon": 0.0}, {"rental_uris": {"ios": "https://dc.lft.to/lastmile_qr_scan", "android": "https://dc.lft.to/lastmile_qr_scan"}, "type": "electric_scooter", "name": "fbdc60c71f2956a9ced68b1440405206", "is_reserved": 0, "lon": -76.98835433333333, "is_disabled": 0, "fusion_lat": 0.0, "lat": 38.900242, "bike_id": "fbdc60c71f2956a9ced68b1440405206", "fusion_lon": 0.0}, {"rental_uris": {"ios": "https://dc.lft.to/lastmile_qr_scan", "android": "https://dc.lft.to/lastmile_qr_scan"}, "type": "electric_scooter", "name": "cd12e031293b258f575627332c6548a5", "is_reserved": 0, "lon": -77.06042066666667, "is_disabled": 0, "fusion_lat": 0.0, "lat": 38.90233, "bike_id": "cd12e031293b258f575627332c6548a5", "fusion_lon": 0.0}, {"rental_uris": {"ios": "https://dc.lft.to/lastmile_qr_scan", "android": "https://dc.lft.to/lastmile_qr_scan"}, "type": "electric_scooter", "name": "4dcdc318cf56bcc97d51eadca8f3e519", "is_reserved": 0, "lon": -76.98339666666666, "is_disabled": 0, "fusion_lat": 0.0, "lat": 38.8954325, "bike_id": "4dcdc318cf56bcc97d51eadca8f3e519", "fusion_lon": 0.0}, {"rental_uris": {"ios": "https://dc.lft.to/lastmile_qr_scan", "android": "https://dc.lft.to/lastmile_qr_scan"}, "type": "electric_scooter", "name": "14d5a6a064a2c897e2f0a75b44e9ecd5", "is_reserved": 0, "lon": -77.05084483333333, "is_disabled": 0, "fusion_lat": 0.0, "lat": 38.9038485, "bike_id": "14d5a6a064a2c897e2f0a75b44e9ecd5", "fusion_lon": 0.0}, {"rental_uris": {"ios": "https://dc.lft.to/lastmile_qr_scan", "android": "https://dc.lft.to/lastmile_qr_scan"}, "type": "electric_bike", "name": "cc4bdaad8428a8897451a6d1f3089e0f", "is_reserved": 0, "lon": -76.96307933333334, "is_disabled": 0, "fusion_lat": 0.0, "lat": 38.89697966666667, "bike_id": "cc4bdaad8428a8897451a6d1f3089e0f", "fusion_lon": 0.0}, {"rental_uris": {"ios": "https://dc.lft.to/lastmile_qr_scan", "android": "https://dc.lft.to/lastmile_qr_scan"}, "type": "electric_scooter", "name": "a14ffb6efe97dbcd4aae58710b6c7a78", "is_reserved": 0, "lon": -77.02954883333334, "is_disabled": 0, "fusion_lat": 0.0, "lat": 38.916718333333336, "bike_id": "a14ffb6efe97dbcd4aae58710b6c7a78", "fusion_lon": 0.0}, {"rental_uris": {"ios": "https://dc.lft.to/lastmile_qr_scan", "android": "https://dc.lft.to/lastmile_qr_scan"}, "type": "electric_scooter", "name": "f129376998c62732b37e162c8a042157", "is_reserved": 0, "lon": -77.04555283333333, "is_disabled": 0, "fusion_lat": 0.0, "lat": 38.900720166666666, "bike_id": "f129376998c62732b37e162c8a042157", "fusion_lon": 0.0}, {"rental_uris": {"ios": "https://dc.lft.to/lastmile_qr_scan", "android": "https://dc.lft.to/lastmile_qr_scan"}, "type": "electric_scooter", "name": "727f30e220b213b99fd506d6004f4961", "is_reserved": 0, "lon": -77.00116316666667, "is_disabled": 0, "fusion_lat": 0.0, "lat": 38.87786633333333, "bike_id": "727f30e220b213b99fd506d6004f4961", "fusion_lon": 0.0}, {"rental_uris": {"ios": "https://dc.lft.to/lastmile_qr_scan", "android": "https://dc.lft.to/lastmile_qr_scan"}, "type": "electric_scooter", "name": "6ed4ee3b617d4b087060a7172aad0587", "is_reserved": 0, "lon": -77.04550333333333, "is_disabled": 0, "fusion_lat": 0.0, "lat": 38.903590333333334, "bike_id": "6ed4ee3b617d4b087060a7172aad0587", "fusion_lon": 0.0}, {"rental_uris": {"ios": "https://dc.lft.to/lastmile_qr_scan", "android": "https://dc.lft.to/lastmile_qr_scan"}, "type": "electric_scooter", "name": "5a5f904174e7c72ab7b371b6e2d78ee7", "is_reserved": 0, "lon": -77.04024583333333, "is_disabled": 0, "fusion_lat": 0.0, "lat": 38.89918566666667, "bike_id": "5a5f904174e7c72ab7b371b6e2d78ee7", "fusion_lon": 0.0}, {"rental_uris": {"ios": "https://dc.lft.to/lastmile_qr_scan", "android": "https://dc.lft.to/lastmile_qr_scan"}, "type": "electric_scooter", "name": "9b4c1ba5d049fdd9646d9ed93fb85dcc", "is_reserved": 0, "lon": -77.06344316666667, "is_disabled": 0, "fusion_lat": 0.0, "lat": 38.94365033333333, "bike_id": "9b4c1ba5d049fdd9646d9ed93fb85dcc", "fusion_lon": 0.0}, {"rental_uris": {"ios": "https://dc.lft.to/lastmile_qr_scan", "android": "https://dc.lft.to/lastmile_qr_scan"}, "type": "electric_scooter", "name": "6945fb16d8c4cecefd2ea988230afb09", "is_reserved": 0, "lon": -77.0282805, "is_disabled": 0, "fusion_lat": 0.0, "lat": 38.89240816666667, "bike_id": "6945fb16d8c4cecefd2ea988230afb09", "fusion_lon": 0.0}, {"rental_uris": {"ios": "https://dc.lft.to/lastmile_qr_scan", "android": "https://dc.lft.to/lastmile_qr_scan"}, "type": "electric_bike", "name": "085c2ab8ed52f9cb0d98f635f100f38a", "is_reserved": 0, "lon": -77.03540866666667, "is_disabled": 0, "fusion_lat": 0.0, "lat": 38.933974666666664, "bike_id": "085c2ab8ed52f9cb0d98f635f100f38a", "fusion_lon": 0.0}, {"rental_uris": {"ios": "https://dc.lft.to/lastmile_qr_scan", "android": "https://dc.lft.to/lastmile_qr_scan"}, "type": "electric_scooter", "name": "839c2256f3fb99a2de9240c31a0710d4", "is_reserved": 0, "lon": -77.02606016666667, "is_disabled": 0, "fusion_lat": 0.0, "lat": 38.903419666666665, "bike_id": "839c2256f3fb99a2de9240c31a0710d4", "fusion_lon": 0.0}, {"rental_uris": {"ios": "https://dc.lft.to/lastmile_qr_scan", "android": "https://dc.lft.to/lastmile_qr_scan"}, "type": "electric_scooter", "name": "4375f267341cc53493581ca0aa67ebe0", "is_reserved": 0, "lon": -77.01065166666666, "is_disabled": 0, "fusion_lat": 0.0, "lat": 38.91807633333333, "bike_id": "4375f267341cc53493581ca0aa67ebe0", "fusion_lon": 0.0}, {"rental_uris": {"ios": "https://dc.lft.to/lastmile_qr_scan", "android": "https://dc.lft.to/lastmile_qr_scan"}, "type": "electric_scooter", "name": "f5c25e8d4dc0784c596078f0aca8a5d2", "is_reserved": 0, "lon": -77.031802, "is_disabled": 0, "fusion_lat": 0.0, "lat": 38.920993833333334, "bike_id": "f5c25e8d4dc0784c596078f0aca8a5d2", "fusion_lon": 0.0}, {"rental_uris": {"ios": "https://dc.lft.to/lastmile_qr_scan", "android": "https://dc.lft.to/lastmile_qr_scan"}, "type": "electric_scooter", "name": "730415a445099f0d5b5dbb43f12155b2", "is_reserved": 0, "lon": -77.03205883333334, "is_disabled": 0, "fusion_lat": 0.0, "lat": 38.90939483333333, "bike_id": "730415a445099f0d5b5dbb43f12155b2", "fusion_lon": 0.0}, {"rental_uris": {"ios": "https://dc.lft.to/lastmile_qr_scan", "android": "https://dc.lft.to/lastmile_qr_scan"}, "type": "electric_bike", "name": "a6d6f83182beea91c3e8eefee714a5cf", "is_reserved": 0, "lon": -77.036342, "is_disabled": 0, "fusion_lat": 0.0, "lat": 38.937609, "bike_id": "a6d6f83182beea91c3e8eefee714a5cf", "fusion_lon": 0.0}, {"rental_uris": {"ios": "https://dc.lft.to/lastmile_qr_scan", "android": "https://dc.lft.to/lastmile_qr_scan"}, "type": "electric_scooter", "name": "ae57f01b6116c5dd1f352bb3dad5683c", "is_reserved": 0, "lon": -77.0148245, "is_disabled": 0, "fusion_lat": 0.0, "lat": 38.9265475, "bike_id": "ae57f01b6116c5dd1f352bb3dad5683c", "fusion_lon": 0.0}, {"rental_uris": {"ios": "https://dc.lft.to/lastmile_qr_scan", "android": "https://dc.lft.to/lastmile_qr_scan"}, "type": "electric_bike", "name": "69b8f20e8e933f6cb3ec4a40ad965d98", "is_reserved": 0, "lon": -76.94154416666666, "is_disabled": 0, "fusion_lat": 0.0, "lat": 38.89018816666667, "bike_id": "69b8f20e8e933f6cb3ec4a40ad965d98", "fusion_lon": 0.0}, {"rental_uris": {"ios": "https://dc.lft.to/lastmile_qr_scan", "android": "https://dc.lft.to/lastmile_qr_scan"}, "type": "electric_scooter", "name": "8fa189e2eae7b1f7683e1a7f0faac4bc", "is_reserved": 0, "lon": -77.02858816666667, "is_disabled": 0, "fusion_lat": 0.0, "lat": 38.912546666666664, "bike_id": "8fa189e2eae7b1f7683e1a7f0faac4bc", "fusion_lon": 0.0}, {"rental_uris": {"ios": "https://dc.lft.to/lastmile_qr_scan", "android": "https://dc.lft.to/lastmile_qr_scan"}, "type": "electric_scooter", "name": "c62167ca5894995c63cd96c7647e5122", "is_reserved": 0, "lon": -77.03120383333334, "is_disabled": 0, "fusion_lat": 0.0, "lat": 38.91912283333333, "bike_id": "c62167ca5894995c63cd96c7647e5122", "fusion_lon": 0.0}, {"rental_uris": {"ios": "https://dc.lft.to/lastmile_qr_scan", "android": "https://dc.lft.to/lastmile_qr_scan"}, "type": "electric_bike", "name": "91688f67242dd4d6d69e5e81c75cb68c", "is_reserved": 0, "lon": -77.1293735, "is_disabled": 0, "fusion_lat": 0.0, "lat": 38.86575233333333, "bike_id": "91688f67242dd4d6d69e5e81c75cb68c", "fusion_lon": 0.0}, {"rental_uris": {"ios": "https://dc.lft.to/lastmile_qr_scan", "android": "https://dc.lft.to/lastmile_qr_scan"}, "type": "electric_scooter", "name": "5ad0a222372332412f274f598aed23f0", "is_reserved": 0, "lon": -77.01501416666666, "is_disabled": 0, "fusion_lat": 0.0, "lat": 38.9266935, "bike_id": "5ad0a222372332412f274f598aed23f0", "fusion_lon": 0.0}, {"rental_uris": {"ios": "https://dc.lft.to/lastmile_qr_scan", "android": "https://dc.lft.to/lastmile_qr_scan"}, "type": "electric_scooter", "name": "e2e1b7f57ce8df964f903cbd81686242", "is_reserved": 0, "lon": -77.00191983333333, "is_disabled": 0, "fusion_lat": 0.0, "lat": 38.911871, "bike_id": "e2e1b7f57ce8df964f903cbd81686242", "fusion_lon": 0.0}, {"rental_uris": {"ios": "https://dc.lft.to/lastmile_qr_scan", "android": "https://dc.lft.to/lastmile_qr_scan"}, "type": "electric_scooter", "name": "5984c08332de9cd16379454235345bbb", "is_reserved": 0, "lon": -77.02156983333333, "is_disabled": 0, "fusion_lat": 0.0, "lat": 38.924596666666666, "bike_id": "5984c08332de9cd16379454235345bbb", "fusion_lon": 0.0}, {"rental_uris": {"ios": "https://dc.lft.to/lastmile_qr_scan", "android": "https://dc.lft.to/lastmile_qr_scan"}, "type": "electric_scooter", "name": "51c147f3613db2c7e7d17fbf6a541dbc", "is_reserved": 0, "lon": -77.02967416666667, "is_disabled": 0, "fusion_lat": 0.0, "lat": 38.92318916666667, "bike_id": "51c147f3613db2c7e7d17fbf6a541dbc", "fusion_lon": 0.0}, {"rental_uris": {"ios": "https://dc.lft.to/lastmile_qr_scan", "android": "https://dc.lft.to/lastmile_qr_scan"}, "type": "electric_scooter", "name": "537b9c10fc47180adb216da2b3e599e3", "is_reserved": 0, "lon": -77.03206783333333, "is_disabled": 0, "fusion_lat": 0.0, "lat": 38.909867, "bike_id": "537b9c10fc47180adb216da2b3e599e3", "fusion_lon": 0.0}, {"rental_uris": {"ios": "https://dc.lft.to/lastmile_qr_scan", "android": "https://dc.lft.to/lastmile_qr_scan"}, "type": "electric_scooter", "name": "f9548b54435b8cebb25a78854574f7cc", "is_reserved": 0, "lon": -77.06891716666667, "is_disabled": 0, "fusion_lat": 0.0, "lat": 38.95276533333333, "bike_id": "f9548b54435b8cebb25a78854574f7cc", "fusion_lon": 0.0}, {"rental_uris": {"ios": "https://dc.lft.to/lastmile_qr_scan", "android": "https://dc.lft.to/lastmile_qr_scan"}, "type": "electric_scooter", "name": "4fd3d3b9f939e697c6ff0247a37fa8be", "is_reserved": 0, "lon": -77.00042483333333, "is_disabled": 0, "fusion_lat": 0.0, "lat": 38.874469833333336, "bike_id": "4fd3d3b9f939e697c6ff0247a37fa8be", "fusion_lon": 0.0}, {"rental_uris": {"ios": "https://dc.lft.to/lastmile_qr_scan", "android": "https://dc.lft.to/lastmile_qr_scan"}, "type": "electric_scooter", "name": "8d99947f6820a0faa5037f3afc64a60c", "is_reserved": 0, "lon": -77.03826283333333, "is_disabled": 0, "fusion_lat": 0.0, "lat": 38.962582166666664, "bike_id": "8d99947f6820a0faa5037f3afc64a60c", "fusion_lon": 0.0}, {"rental_uris": {"ios": "https://dc.lft.to/lastmile_qr_scan", "android": "https://dc.lft.to/lastmile_qr_scan"}, "type": "electric_scooter", "name": "73c2faa3a2c79d7a5e270a2f41f44269", "is_reserved": 0, "lon": -76.93190533333333, "is_disabled": 0, "fusion_lat": 0.0, "lat": 38.898766, "bike_id": "73c2faa3a2c79d7a5e270a2f41f44269", "fusion_lon": 0.0}, {"rental_uris": {"ios": "https://dc.lft.to/lastmile_qr_scan", "android": "https://dc.lft.to/lastmile_qr_scan"}, "type": "electric_scooter", "name": "cad756df566a7eb19eebd1cdb2d702dd", "is_reserved": 0, "lon": -77.07072616666666, "is_disabled": 0, "fusion_lat": 0.0, "lat": 38.89366166666667, "bike_id": "cad756df566a7eb19eebd1cdb2d702dd", "fusion_lon": 0.0}, {"rental_uris": {"ios": "https://dc.lft.to/lastmile_qr_scan", "android": "https://dc.lft.to/lastmile_qr_scan"}, "type": "electric_scooter", "name": "87402dd6aedb29eb2348334682e5f744", "is_reserved": 0, "lon": -76.99005683333333, "is_disabled": 0, "fusion_lat": 0.0, "lat": 38.864258, "bike_id": "87402dd6aedb29eb2348334682e5f744", "fusion_lon": 0.0}, {"rental_uris": {"ios": "https://dc.lft.to/lastmile_qr_scan", "android": "https://dc.lft.to/lastmile_qr_scan"}, "type": "electric_scooter", "name": "fc969f1e2438748ad8b6874de812a048", "is_reserved": 0, "lon": -76.98337483333333, "is_disabled": 0, "fusion_lat": 0.0, "lat": 38.90079016666667, "bike_id": "fc969f1e2438748ad8b6874de812a048", "fusion_lon": 0.0}, {"rental_uris": {"ios": "https://dc.lft.to/lastmile_qr_scan", "android": "https://dc.lft.to/lastmile_qr_scan"}, "type": "electric_scooter", "name": "67578559d198522f03ffb23eef5f4490", "is_reserved": 0, "lon": -77.01921533333334, "is_disabled": 0, "fusion_lat": 0.0, "lat": 38.92869, "bike_id": "67578559d198522f03ffb23eef5f4490", "fusion_lon": 0.0}, {"rental_uris": {"ios": "https://dc.lft.to/lastmile_qr_scan", "android": "https://dc.lft.to/lastmile_qr_scan"}, "type": "electric_scooter", "name": "7995dd2e7a9359b713c8c032839cadac", "is_reserved": 0, "lon": -77.02022133333334, "is_disabled": 0, "fusion_lat": 0.0, "lat": 38.8990645, "bike_id": "7995dd2e7a9359b713c8c032839cadac", "fusion_lon": 0.0}, {"rental_uris": {"ios": "https://dc.lft.to/lastmile_qr_scan", "android": "https://dc.lft.to/lastmile_qr_scan"}, "type": "electric_scooter", "name": "7483d87d77be3dd0c44bf5878df7c951", "is_reserved": 0, "lon": -77.032241, "is_disabled": 0, "fusion_lat": 0.0, "lat": 38.92514216666667, "bike_id": "7483d87d77be3dd0c44bf5878df7c951", "fusion_lon": 0.0}, {"rental_uris": {"ios": "https://dc.lft.to/lastmile_qr_scan", "android": "https://dc.lft.to/lastmile_qr_scan"}, "type": "electric_scooter", "name": "92b448ca46ed5f9efbe0c6bb92a7125e", "is_reserved": 0, "lon": -77.06132233333334, "is_disabled": 0, "fusion_lat": 0.0, "lat": 38.943144833333335, "bike_id": "92b448ca46ed5f9efbe0c6bb92a7125e", "fusion_lon": 0.0}, {"rental_uris": {"ios": "https://dc.lft.to/lastmile_qr_scan", "android": "https://dc.lft.to/lastmile_qr_scan"}, "type": "electric_scooter", "name": "e857f31b28cbe5ca8c7a575f4a7f46c5", "is_reserved": 0, "lon": -77.01107766666667, "is_disabled": 0, "fusion_lat": 0.0, "lat": 38.909633666666664, "bike_id": "e857f31b28cbe5ca8c7a575f4a7f46c5", "fusion_lon": 0.0}, {"rental_uris": {"ios": "https://dc.lft.to/lastmile_qr_scan", "android": "https://dc.lft.to/lastmile_qr_scan"}, "type": "electric_bike", "name": "28791931eddcce5e72bf38ee5137b148", "is_reserved": 0, "lon": -77.00155033333333, "is_disabled": 0, "fusion_lat": 0.0, "lat": 38.94159483333333, "bike_id": "28791931eddcce5e72bf38ee5137b148", "fusion_lon": 0.0}, {"rental_uris": {"ios": "https://dc.lft.to/lastmile_qr_scan", "android": "https://dc.lft.to/lastmile_qr_scan"}, "type": "electric_scooter", "name": "23e89034443103a35377612271ac2c65", "is_reserved": 0, "lon": -77.04358966666666, "is_disabled": 0, "fusion_lat": 0.0, "lat": 38.89223, "bike_id": "23e89034443103a35377612271ac2c65", "fusion_lon": 0.0}, {"rental_uris": {"ios": "https://dc.lft.to/lastmile_qr_scan", "android": "https://dc.lft.to/lastmile_qr_scan"}, "type": "electric_scooter", "name": "6ca2810365e15ed5e1d6f736ebecdfe1", "is_reserved": 0, "lon": -77.04804366666667, "is_disabled": 0, "fusion_lat": 0.0, "lat": 38.899483000000004, "bike_id": "6ca2810365e15ed5e1d6f736ebecdfe1", "fusion_lon": 0.0}, {"rental_uris": {"ios": "https://dc.lft.to/lastmile_qr_scan", "android": "https://dc.lft.to/lastmile_qr_scan"}, "type": "electric_scooter", "name": "1a479e6137f9e5f86b9a00f4332144c2", "is_reserved": 0, "lon": -77.02471883333334, "is_disabled": 0, "fusion_lat": 0.0, "lat": 38.918134, "bike_id": "1a479e6137f9e5f86b9a00f4332144c2", "fusion_lon": 0.0}, {"rental_uris": {"ios": "https://dc.lft.to/lastmile_qr_scan", "android": "https://dc.lft.to/lastmile_qr_scan"}, "type": "electric_scooter", "name": "ffe9b419be88a8c3fed338803da059ef", "is_reserved": 0, "lon": -77.04060616666666, "is_disabled": 0, "fusion_lat": 0.0, "lat": 38.917677833333336, "bike_id": "ffe9b419be88a8c3fed338803da059ef", "fusion_lon": 0.0}, {"rental_uris": {"ios": "https://dc.lft.to/lastmile_qr_scan", "android": "https://dc.lft.to/lastmile_qr_scan"}, "type": "electric_scooter", "name": "1bad50c21187d10f8a04b198d9a11996", "is_reserved": 0, "lon": -76.9919055, "is_disabled": 0, "fusion_lat": 0.0, "lat": 38.90833516666667, "bike_id": "1bad50c21187d10f8a04b198d9a11996", "fusion_lon": 0.0}, {"rental_uris": {"ios": "https://dc.lft.to/lastmile_qr_scan", "android": "https://dc.lft.to/lastmile_qr_scan"}, "type": "electric_scooter", "name": "ca6b3415d9cef11a89fc5f8095e82c56", "is_reserved": 0, "lon": -77.01378166666667, "is_disabled": 0, "fusion_lat": 0.0, "lat": 38.8991255, "bike_id": "ca6b3415d9cef11a89fc5f8095e82c56", "fusion_lon": 0.0}, {"rental_uris": {"ios": "https://dc.lft.to/lastmile_qr_scan", "android": "https://dc.lft.to/lastmile_qr_scan"}, "type": "electric_scooter", "name": "61f826f7bd04f98d1f75dd1ebf1e64e2", "is_reserved": 0, "lon": -77.0482365, "is_disabled": 0, "fusion_lat": 0.0, "lat": 38.92044083333333, "bike_id": "61f826f7bd04f98d1f75dd1ebf1e64e2", "fusion_lon": 0.0}, {"rental_uris": {"ios": "https://dc.lft.to/lastmile_qr_scan", "android": "https://dc.lft.to/lastmile_qr_scan"}, "type": "electric_scooter", "name": "69ecd0404bb04bbc30b55b31e1a1e7c8", "is_reserved": 0, "lon": -77.03416066666666, "is_disabled": 0, "fusion_lat": 0.0, "lat": 38.90962116666667, "bike_id": "69ecd0404bb04bbc30b55b31e1a1e7c8", "fusion_lon": 0.0}, {"rental_uris": {"ios": "https://dc.lft.to/lastmile_qr_scan", "android": "https://dc.lft.to/lastmile_qr_scan"}, "type": "electric_scooter", "name": "6655a4a22617e025d8eaf440a72797ee", "is_reserved": 0, "lon": -77.03161733333333, "is_disabled": 0, "fusion_lat": 0.0, "lat": 38.9592695, "bike_id": "6655a4a22617e025d8eaf440a72797ee", "fusion_lon": 0.0}, {"rental_uris": {"ios": "https://dc.lft.to/lastmile_qr_scan", "android": "https://dc.lft.to/lastmile_qr_scan"}, "type": "electric_scooter", "name": "2bcdcab1573461b2efcc01c46f193abe", "is_reserved": 0, "lon": -77.03400883333333, "is_disabled": 0, "fusion_lat": 0.0, "lat": 38.89975283333333, "bike_id": "2bcdcab1573461b2efcc01c46f193abe", "fusion_lon": 0.0}, {"rental_uris": {"ios": "https://dc.lft.to/lastmile_qr_scan", "android": "https://dc.lft.to/lastmile_qr_scan"}, "type": "electric_bike", "name": "5f230c5deadf603b398d8d0e7687712b", "is_reserved": 0, "lon": -76.98636716666667, "is_disabled": 0, "fusion_lat": 0.0, "lat": 38.93684866666667, "bike_id": "5f230c5deadf603b398d8d0e7687712b", "fusion_lon": 0.0}, {"rental_uris": {"ios": "https://dc.lft.to/lastmile_qr_scan", "android": "https://dc.lft.to/lastmile_qr_scan"}, "type": "electric_scooter", "name": "3d2fdfd4d7c4a23d5c9a5d3405bfd34c", "is_reserved": 0, "lon": -77.03200783333334, "is_disabled": 0, "fusion_lat": 0.0, "lat": 38.8988865, "bike_id": "3d2fdfd4d7c4a23d5c9a5d3405bfd34c", "fusion_lon": 0.0}, {"rental_uris": {"ios": "https://dc.lft.to/lastmile_qr_scan", "android": "https://dc.lft.to/lastmile_qr_scan"}, "type": "electric_bike", "name": "401d46aa1c326d285268314e21b06e05", "is_reserved": 0, "lon": -77.02401483333334, "is_disabled": 0, "fusion_lat": 0.0, "lat": 38.9340885, "bike_id": "401d46aa1c326d285268314e21b06e05", "fusion_lon": 0.0}, {"rental_uris": {"ios": "https://dc.lft.to/lastmile_qr_scan", "android": "https://dc.lft.to/lastmile_qr_scan"}, "type": "electric_scooter", "name": "d2a3940ed2eba5f1f062e04d0d2e7e70", "is_reserved": 0, "lon": -77.03476133333334, "is_disabled": 0, "fusion_lat": 0.0, "lat": 38.935339166666665, "bike_id": "d2a3940ed2eba5f1f062e04d0d2e7e70", "fusion_lon": 0.0}, {"rental_uris": {"ios": "https://dc.lft.to/lastmile_qr_scan", "android": "https://dc.lft.to/lastmile_qr_scan"}, "type": "electric_scooter", "name": "8ad71402743dbb6e9727bbfa74d2c43d", "is_reserved": 0, "lon": -77.020225, "is_disabled": 0, "fusion_lat": 0.0, "lat": 38.899192, "bike_id": "8ad71402743dbb6e9727bbfa74d2c43d", "fusion_lon": 0.0}, {"rental_uris": {"ios": "https://dc.lft.to/lastmile_qr_scan", "android": "https://dc.lft.to/lastmile_qr_scan"}, "type": "electric_scooter", "name": "7ce595dd6eb5e5e09800158a259f834b", "is_reserved": 0, "lon": -77.034621, "is_disabled": 0, "fusion_lat": 0.0, "lat": 38.91592466666667, "bike_id": "7ce595dd6eb5e5e09800158a259f834b", "fusion_lon": 0.0}, {"rental_uris": {"ios": "https://dc.lft.to/lastmile_qr_scan", "android": "https://dc.lft.to/lastmile_qr_scan"}, "type": "electric_bike", "name": "fd09284be95cfbbfe44768f193c389fe", "is_reserved": 0, "lon": -77.0604935, "is_disabled": 0, "fusion_lat": 0.0, "lat": 38.943313, "bike_id": "fd09284be95cfbbfe44768f193c389fe", "fusion_lon": 0.0}, {"rental_uris": {"ios": "https://dc.lft.to/lastmile_qr_scan", "android": "https://dc.lft.to/lastmile_qr_scan"}, "type": "electric_scooter", "name": "444dba0d02efd7896f1f6735209df06f", "is_reserved": 0, "lon": -77.04906516666667, "is_disabled": 0, "fusion_lat": 0.0, "lat": 38.888396166666666, "bike_id": "444dba0d02efd7896f1f6735209df06f", "fusion_lon": 0.0}, {"rental_uris": {"ios": "https://dc.lft.to/lastmile_qr_scan", "android": "https://dc.lft.to/lastmile_qr_scan"}, "type": "electric_scooter", "name": "c2a4432cc35907e1fa03ed4318ae8f53", "is_reserved": 0, "lon": -77.08790616666667, "is_disabled": 0, "fusion_lat": 0.0, "lat": 38.93543416666667, "bike_id": "c2a4432cc35907e1fa03ed4318ae8f53", "fusion_lon": 0.0}, {"rental_uris": {"ios": "https://dc.lft.to/lastmile_qr_scan", "android": "https://dc.lft.to/lastmile_qr_scan"}, "type": "electric_scooter", "name": "d38bff0d51950cbd7e7ff3894e19c314", "is_reserved": 0, "lon": -77.05507666666666, "is_disabled": 0, "fusion_lat": 0.0, "lat": 38.9282485, "bike_id": "d38bff0d51950cbd7e7ff3894e19c314", "fusion_lon": 0.0}, {"rental_uris": {"ios": "https://dc.lft.to/lastmile_qr_scan", "android": "https://dc.lft.to/lastmile_qr_scan"}, "type": "electric_scooter", "name": "3147c0ddc22db29f4d2eb3056ac22b4b", "is_reserved": 0, "lon": -77.041212, "is_disabled": 0, "fusion_lat": 0.0, "lat": 38.928722666666665, "bike_id": "3147c0ddc22db29f4d2eb3056ac22b4b", "fusion_lon": 0.0}, {"rental_uris": {"ios": "https://dc.lft.to/lastmile_qr_scan", "android": "https://dc.lft.to/lastmile_qr_scan"}, "type": "electric_scooter", "name": "131aebd32ece42bbd9e5b557b96c8dc6", "is_reserved": 0, "lon": -76.944669, "is_disabled": 0, "fusion_lat": 0.0, "lat": 38.89024, "bike_id": "131aebd32ece42bbd9e5b557b96c8dc6", "fusion_lon": 0.0}, {"rental_uris": {"ios": "https://dc.lft.to/lastmile_qr_scan", "android": "https://dc.lft.to/lastmile_qr_scan"}, "type": "electric_scooter", "name": "62ad01d6a9d02d100455d8a6dc78c1e3", "is_reserved": 0, "lon": -77.0225415, "is_disabled": 0, "fusion_lat": 0.0, "lat": 38.92822566666667, "bike_id": "62ad01d6a9d02d100455d8a6dc78c1e3", "fusion_lon": 0.0}, {"rental_uris": {"ios": "https://dc.lft.to/lastmile_qr_scan", "android": "https://dc.lft.to/lastmile_qr_scan"}, "type": "electric_scooter", "name": "96402d4d8ec2d991a8acb5d7b5050940", "is_reserved": 0, "lon": -77.00569716666666, "is_disabled": 0, "fusion_lat": 0.0, "lat": 38.876642, "bike_id": "96402d4d8ec2d991a8acb5d7b5050940", "fusion_lon": 0.0}, {"rental_uris": {"ios": "https://dc.lft.to/lastmile_qr_scan", "android": "https://dc.lft.to/lastmile_qr_scan"}, "type": "electric_scooter", "name": "7cfdb0435c42c33e6fcf070d2f1737d5", "is_reserved": 0, "lon": -77.02003683333334, "is_disabled": 0, "fusion_lat": 0.0, "lat": 38.927987, "bike_id": "7cfdb0435c42c33e6fcf070d2f1737d5", "fusion_lon": 0.0}, {"rental_uris": {"ios": "https://dc.lft.to/lastmile_qr_scan", "android": "https://dc.lft.to/lastmile_qr_scan"}, "type": "electric_scooter", "name": "eb59a62e32f5f1dd637953141ceabb93", "is_reserved": 0, "lon": -77.02696883333333, "is_disabled": 0, "fusion_lat": 0.0, "lat": 38.90598516666667, "bike_id": "eb59a62e32f5f1dd637953141ceabb93", "fusion_lon": 0.0}, {"rental_uris": {"ios": "https://dc.lft.to/lastmile_qr_scan", "android": "https://dc.lft.to/lastmile_qr_scan"}, "type": "electric_scooter", "name": "4f351174ce478c940b2d5b9906cfa04e", "is_reserved": 0, "lon": -77.0256865, "is_disabled": 0, "fusion_lat": 0.0, "lat": 38.94854466666666, "bike_id": "4f351174ce478c940b2d5b9906cfa04e", "fusion_lon": 0.0}, {"rental_uris": {"ios": "https://dc.lft.to/lastmile_qr_scan", "android": "https://dc.lft.to/lastmile_qr_scan"}, "type": "electric_scooter", "name": "e7db26007117e5946675ccd4c2a033ae", "is_reserved": 0, "lon": -77.00448466666667, "is_disabled": 0, "fusion_lat": 0.0, "lat": 38.91172533333334, "bike_id": "e7db26007117e5946675ccd4c2a033ae", "fusion_lon": 0.0}, {"rental_uris": {"ios": "https://dc.lft.to/lastmile_qr_scan", "android": "https://dc.lft.to/lastmile_qr_scan"}, "type": "electric_scooter", "name": "aed796fb4c1d202d71a2f946ddaf83ce", "is_reserved": 0, "lon": -77.03638, "is_disabled": 0, "fusion_lat": 0.0, "lat": 38.916784166666666, "bike_id": "aed796fb4c1d202d71a2f946ddaf83ce", "fusion_lon": 0.0}, {"rental_uris": {"ios": "https://dc.lft.to/lastmile_qr_scan", "android": "https://dc.lft.to/lastmile_qr_scan"}, "type": "electric_scooter", "name": "bae589092590dbeb24690db9f0bc940c", "is_reserved": 0, "lon": -77.04480966666667, "is_disabled": 0, "fusion_lat": 0.0, "lat": 38.9135275, "bike_id": "bae589092590dbeb24690db9f0bc940c", "fusion_lon": 0.0}, {"rental_uris": {"ios": "https://dc.lft.to/lastmile_qr_scan", "android": "https://dc.lft.to/lastmile_qr_scan"}, "type": "electric_scooter", "name": "20a4a3af010b811e9aa6312ec2dc4e93", "is_reserved": 0, "lon": -76.98722883333333, "is_disabled": 0, "fusion_lat": 0.0, "lat": 38.90980583333333, "bike_id": "20a4a3af010b811e9aa6312ec2dc4e93", "fusion_lon": 0.0}, {"rental_uris": {"ios": "https://dc.lft.to/lastmile_qr_scan", "android": "https://dc.lft.to/lastmile_qr_scan"}, "type": "electric_scooter", "name": "6c6fc64e157941a7c4d4205a0b0ab911", "is_reserved": 0, "lon": -77.03051533333333, "is_disabled": 0, "fusion_lat": 0.0, "lat": 38.904626, "bike_id": "6c6fc64e157941a7c4d4205a0b0ab911", "fusion_lon": 0.0}, {"rental_uris": {"ios": "https://dc.lft.to/lastmile_qr_scan", "android": "https://dc.lft.to/lastmile_qr_scan"}, "type": "electric_scooter", "name": "40a97a42ec65429c0662b18b16ea003e", "is_reserved": 0, "lon": -76.92305833333333, "is_disabled": 0, "fusion_lat": 0.0, "lat": 38.893831166666665, "bike_id": "40a97a42ec65429c0662b18b16ea003e", "fusion_lon": 0.0}, {"rental_uris": {"ios": "https://dc.lft.to/lastmile_qr_scan", "android": "https://dc.lft.to/lastmile_qr_scan"}, "type": "electric_scooter", "name": "ddc26234d54f81a4379fc18e52245995", "is_reserved": 0, "lon": -76.98359133333334, "is_disabled": 0, "fusion_lat": 0.0, "lat": 38.887327166666665, "bike_id": "ddc26234d54f81a4379fc18e52245995", "fusion_lon": 0.0}, {"rental_uris": {"ios": "https://dc.lft.to/lastmile_qr_scan", "android": "https://dc.lft.to/lastmile_qr_scan"}, "type": "electric_scooter", "name": "7654ea5bc11d2713d11d5d8679aa00ab", "is_reserved": 0, "lon": -77.03232333333334, "is_disabled": 0, "fusion_lat": 0.0, "lat": 38.9170995, "bike_id": "7654ea5bc11d2713d11d5d8679aa00ab", "fusion_lon": 0.0}, {"rental_uris": {"ios": "https://dc.lft.to/lastmile_qr_scan", "android": "https://dc.lft.to/lastmile_qr_scan"}, "type": "electric_bike", "name": "86976966cf9b42fe0d7ee054aa033efd", "is_reserved": 0, "lon": -77.23177433333333, "is_disabled": 0, "fusion_lat": 0.0, "lat": 38.928918, "bike_id": "86976966cf9b42fe0d7ee054aa033efd", "fusion_lon": 0.0}, {"rental_uris": {"ios": "https://dc.lft.to/lastmile_qr_scan", "android": "https://dc.lft.to/lastmile_qr_scan"}, "type": "electric_scooter", "name": "99eecef66cf1be66d7305e42140b59b0", "is_reserved": 0, "lon": -77.03416866666667, "is_disabled": 0, "fusion_lat": 0.0, "lat": 38.90131733333333, "bike_id": "99eecef66cf1be66d7305e42140b59b0", "fusion_lon": 0.0}, {"rental_uris": {"ios": "https://dc.lft.to/lastmile_qr_scan", "android": "https://dc.lft.to/lastmile_qr_scan"}, "type": "electric_scooter", "name": "69d69219364df0e26a2c853cdec4fa29", "is_reserved": 0, "lon": -77.0368195, "is_disabled": 0, "fusion_lat": 0.0, "lat": 38.916773, "bike_id": "69d69219364df0e26a2c853cdec4fa29", "fusion_lon": 0.0}, {"rental_uris": {"ios": "https://dc.lft.to/lastmile_qr_scan", "android": "https://dc.lft.to/lastmile_qr_scan"}, "type": "electric_bike", "name": "3f29322342e39819a9efd1edd98d6e7c", "is_reserved": 0, "lon": -77.078972, "is_disabled": 0, "fusion_lat": 0.0, "lat": 38.83930616666667, "bike_id": "3f29322342e39819a9efd1edd98d6e7c", "fusion_lon": 0.0}, {"rental_uris": {"ios": "https://dc.lft.to/lastmile_qr_scan", "android": "https://dc.lft.to/lastmile_qr_scan"}, "type": "electric_scooter", "name": "c553f8657b3f19896e4f58100e6f6572", "is_reserved": 0, "lon": -77.06382016666667, "is_disabled": 0, "fusion_lat": 0.0, "lat": 38.9052555, "bike_id": "c553f8657b3f19896e4f58100e6f6572", "fusion_lon": 0.0}, {"rental_uris": {"ios": "https://dc.lft.to/lastmile_qr_scan", "android": "https://dc.lft.to/lastmile_qr_scan"}, "type": "electric_bike", "name": "bcc89817dfb040b2df31c607fbdf7f00", "is_reserved": 0, "lon": -77.10291366666667, "is_disabled": 0, "fusion_lat": 0.0, "lat": 38.85252533333333, "bike_id": "bcc89817dfb040b2df31c607fbdf7f00", "fusion_lon": 0.0}, {"rental_uris": {"ios": "https://dc.lft.to/lastmile_qr_scan", "android": "https://dc.lft.to/lastmile_qr_scan"}, "type": "electric_bike", "name": "39256de80908c443c576686bc60fb5b8", "is_reserved": 0, "lon": -76.97959883333333, "is_disabled": 0, "fusion_lat": 0.0, "lat": 38.920362833333336, "bike_id": "39256de80908c443c576686bc60fb5b8", "fusion_lon": 0.0}, {"rental_uris": {"ios": "https://dc.lft.to/lastmile_qr_scan", "android": "https://dc.lft.to/lastmile_qr_scan"}, "type": "electric_scooter", "name": "a6488b9025a62619b2957b5a4eceff62", "is_reserved": 0, "lon": -77.01499583333333, "is_disabled": 0, "fusion_lat": 0.0, "lat": 38.90653366666667, "bike_id": "a6488b9025a62619b2957b5a4eceff62", "fusion_lon": 0.0}, {"rental_uris": {"ios": "https://dc.lft.to/lastmile_qr_scan", "android": "https://dc.lft.to/lastmile_qr_scan"}, "type": "electric_scooter", "name": "fec654ac931f7562526f805d05b75795", "is_reserved": 0, "lon": -76.94637266666666, "is_disabled": 0, "fusion_lat": 0.0, "lat": 38.89867366666667, "bike_id": "fec654ac931f7562526f805d05b75795", "fusion_lon": 0.0}, {"rental_uris": {"ios": "https://dc.lft.to/lastmile_qr_scan", "android": "https://dc.lft.to/lastmile_qr_scan"}, "type": "electric_scooter", "name": "9105c0fd6123d7fd56f05485ff312f0a", "is_reserved": 0, "lon": -77.0318185, "is_disabled": 0, "fusion_lat": 0.0, "lat": 38.895764666666665, "bike_id": "9105c0fd6123d7fd56f05485ff312f0a", "fusion_lon": 0.0}, {"rental_uris": {"ios": "https://dc.lft.to/lastmile_qr_scan", "android": "https://dc.lft.to/lastmile_qr_scan"}, "type": "electric_scooter", "name": "fb9d760aa407b950bbc1b67d3aeee2f1", "is_reserved": 0, "lon": -77.0230725, "is_disabled": 0, "fusion_lat": 0.0, "lat": 38.91754483333333, "bike_id": "fb9d760aa407b950bbc1b67d3aeee2f1", "fusion_lon": 0.0}, {"rental_uris": {"ios": "https://dc.lft.to/lastmile_qr_scan", "android": "https://dc.lft.to/lastmile_qr_scan"}, "type": "electric_scooter", "name": "80418bf3889b9b70e8e17bf0eee61a14", "is_reserved": 0, "lon": -77.0684035, "is_disabled": 0, "fusion_lat": 0.0, "lat": 38.91720483333334, "bike_id": "80418bf3889b9b70e8e17bf0eee61a14", "fusion_lon": 0.0}, {"rental_uris": {"ios": "https://dc.lft.to/lastmile_qr_scan", "android": "https://dc.lft.to/lastmile_qr_scan"}, "type": "electric_scooter", "name": "e04b324be2a5889604c58f50553ae36d", "is_reserved": 0, "lon": -77.04398133333333, "is_disabled": 0, "fusion_lat": 0.0, "lat": 38.908906, "bike_id": "e04b324be2a5889604c58f50553ae36d", "fusion_lon": 0.0}, {"rental_uris": {"ios": "https://dc.lft.to/lastmile_qr_scan", "android": "https://dc.lft.to/lastmile_qr_scan"}, "type": "electric_scooter", "name": "c4f73f49b039e7aacf7b2b081bba11c3", "is_reserved": 0, "lon": -77.02828933333333, "is_disabled": 0, "fusion_lat": 0.0, "lat": 38.902543333333334, "bike_id": "c4f73f49b039e7aacf7b2b081bba11c3", "fusion_lon": 0.0}, {"rental_uris": {"ios": "https://dc.lft.to/lastmile_qr_scan", "android": "https://dc.lft.to/lastmile_qr_scan"}, "type": "electric_scooter", "name": "d150af36fb55c729c5c1a8f218064c57", "is_reserved": 0, "lon": -76.9833715, "is_disabled": 0, "fusion_lat": 0.0, "lat": 38.89544466666667, "bike_id": "d150af36fb55c729c5c1a8f218064c57", "fusion_lon": 0.0}, {"rental_uris": {"ios": "https://dc.lft.to/lastmile_qr_scan", "android": "https://dc.lft.to/lastmile_qr_scan"}, "type": "electric_scooter", "name": "a00569b73e2d0ffe1426c85a493298a7", "is_reserved": 0, "lon": -76.98447416666667, "is_disabled": 0, "fusion_lat": 0.0, "lat": 38.914674833333336, "bike_id": "a00569b73e2d0ffe1426c85a493298a7", "fusion_lon": 0.0}, {"rental_uris": {"ios": "https://dc.lft.to/lastmile_qr_scan", "android": "https://dc.lft.to/lastmile_qr_scan"}, "type": "electric_scooter", "name": "c29ea8158aea7c06c5f61c70b66e7daa", "is_reserved": 0, "lon": -77.0209635, "is_disabled": 0, "fusion_lat": 0.0, "lat": 38.93009516666667, "bike_id": "c29ea8158aea7c06c5f61c70b66e7daa", "fusion_lon": 0.0}, {"rental_uris": {"ios": "https://dc.lft.to/lastmile_qr_scan", "android": "https://dc.lft.to/lastmile_qr_scan"}, "type": "electric_scooter", "name": "de7ef67d4d27b23c6ab9b5f057f78a92", "is_reserved": 0, "lon": -77.04324483333333, "is_disabled": 0, "fusion_lat": 0.0, "lat": 38.934083333333334, "bike_id": "de7ef67d4d27b23c6ab9b5f057f78a92", "fusion_lon": 0.0}, {"rental_uris": {"ios": "https://dc.lft.to/lastmile_qr_scan", "android": "https://dc.lft.to/lastmile_qr_scan"}, "type": "electric_scooter", "name": "37789ac560038362b7f0f9a99ad710cb", "is_reserved": 0, "lon": -77.04061816666666, "is_disabled": 0, "fusion_lat": 0.0, "lat": 38.917663, "bike_id": "37789ac560038362b7f0f9a99ad710cb", "fusion_lon": 0.0}, {"rental_uris": {"ios": "https://dc.lft.to/lastmile_qr_scan", "android": "https://dc.lft.to/lastmile_qr_scan"}, "type": "electric_scooter", "name": "059a82e9ebe05e7ba591ff4213f692cb", "is_reserved": 0, "lon": -77.04876, "is_disabled": 0, "fusion_lat": 0.0, "lat": 38.91056, "bike_id": "059a82e9ebe05e7ba591ff4213f692cb", "fusion_lon": 0.0}, {"rental_uris": {"ios": "https://dc.lft.to/lastmile_qr_scan", "android": "https://dc.lft.to/lastmile_qr_scan"}, "type": "electric_scooter", "name": "7562bd311f16faabf78b9909f586118a", "is_reserved": 0, "lon": -77.0486235, "is_disabled": 0, "fusion_lat": 0.0, "lat": 38.912616666666665, "bike_id": "7562bd311f16faabf78b9909f586118a", "fusion_lon": 0.0}, {"rental_uris": {"ios": "https://dc.lft.to/lastmile_qr_scan", "android": "https://dc.lft.to/lastmile_qr_scan"}, "type": "electric_bike", "name": "0bd9b2397f9715bfe96f14d9d5da5c9a", "is_reserved": 0, "lon": -77.11408116666667, "is_disabled": 0, "fusion_lat": 0.0, "lat": 38.8732045, "bike_id": "0bd9b2397f9715bfe96f14d9d5da5c9a", "fusion_lon": 0.0}, {"rental_uris": {"ios": "https://dc.lft.to/lastmile_qr_scan", "android": "https://dc.lft.to/lastmile_qr_scan"}, "type": "electric_scooter", "name": "bf6bdb95985de4b426fde44bfca34b19", "is_reserved": 0, "lon": -77.06389316666667, "is_disabled": 0, "fusion_lat": 0.0, "lat": 38.945042666666666, "bike_id": "bf6bdb95985de4b426fde44bfca34b19", "fusion_lon": 0.0}, {"rental_uris": {"ios": "https://dc.lft.to/lastmile_qr_scan", "android": "https://dc.lft.to/lastmile_qr_scan"}, "type": "electric_scooter", "name": "471cf1ed173d319a8e3741598f89f7a6", "is_reserved": 0, "lon": -76.98371, "is_disabled": 0, "fusion_lat": 0.0, "lat": 38.89135533333334, "bike_id": "471cf1ed173d319a8e3741598f89f7a6", "fusion_lon": 0.0}, {"rental_uris": {"ios": "https://dc.lft.to/lastmile_qr_scan", "android": "https://dc.lft.to/lastmile_qr_scan"}, "type": "electric_scooter", "name": "73e3526099295b5c245fe0af2a3667ac", "is_reserved": 0, "lon": -77.038493, "is_disabled": 0, "fusion_lat": 0.0, "lat": 38.916592, "bike_id": "73e3526099295b5c245fe0af2a3667ac", "fusion_lon": 0.0}, {"rental_uris": {"ios": "https://dc.lft.to/lastmile_qr_scan", "android": "https://dc.lft.to/lastmile_qr_scan"}, "type": "electric_scooter", "name": "b049fb82b4506fbd5dc8f9f0d21ebe65", "is_reserved": 0, "lon": -77.04685583333334, "is_disabled": 0, "fusion_lat": 0.0, "lat": 38.897346666666664, "bike_id": "b049fb82b4506fbd5dc8f9f0d21ebe65", "fusion_lon": 0.0}, {"rental_uris": {"ios": "https://dc.lft.to/lastmile_qr_scan", "android": "https://dc.lft.to/lastmile_qr_scan"}, "type": "electric_scooter", "name": "d8b66c41bda95e90d980651f1dbe2ba4", "is_reserved": 0, "lon": -77.07863333333333, "is_disabled": 0, "fusion_lat": 0.0, "lat": 38.9246005, "bike_id": "d8b66c41bda95e90d980651f1dbe2ba4", "fusion_lon": 0.0}, {"rental_uris": {"ios": "https://dc.lft.to/lastmile_qr_scan", "android": "https://dc.lft.to/lastmile_qr_scan"}, "type": "electric_scooter", "name": "7725f75ea1121b15f0c4880a6a5f954f", "is_reserved": 0, "lon": -77.05638616666667, "is_disabled": 0, "fusion_lat": 0.0, "lat": 38.93590983333333, "bike_id": "7725f75ea1121b15f0c4880a6a5f954f", "fusion_lon": 0.0}, {"rental_uris": {"ios": "https://dc.lft.to/lastmile_qr_scan", "android": "https://dc.lft.to/lastmile_qr_scan"}, "type": "electric_scooter", "name": "8f0962d5e3d4f45a5bacbcb5b0746d91", "is_reserved": 0, "lon": -77.03954766666666, "is_disabled": 0, "fusion_lat": 0.0, "lat": 38.89247816666666, "bike_id": "8f0962d5e3d4f45a5bacbcb5b0746d91", "fusion_lon": 0.0}, {"rental_uris": {"ios": "https://dc.lft.to/lastmile_qr_scan", "android": "https://dc.lft.to/lastmile_qr_scan"}, "type": "electric_scooter", "name": "2af42481f5b52a0611a1a42c4546bd8c", "is_reserved": 0, "lon": -77.03632883333333, "is_disabled": 0, "fusion_lat": 0.0, "lat": 38.925950666666665, "bike_id": "2af42481f5b52a0611a1a42c4546bd8c", "fusion_lon": 0.0}, {"rental_uris": {"ios": "https://dc.lft.to/lastmile_qr_scan", "android": "https://dc.lft.to/lastmile_qr_scan"},