{"data": {"bikes": [{"fusion_lat": 0.0, "name": "d9fea7885280bf2656fce56c763402b8", "lon": -77.006809, "rental_uris": {"android": "https://dc.lft.to/lastmile_qr_scan", "ios": "https://dc.lft.to/lastmile_qr_scan"}, "fusion_lon": 0.0, "bike_id": "d9fea7885280bf2656fce56c763402b8", "is_disabled": 0, "lat": 38.83487916666667, "is_reserved": 0, "type": "electric_scooter"}, {"fusion_lat": 0.0, "name": "faf6c9b046f289046aa1a24e5dd09555", "lon": -77.01080233333333, "rental_uris": {"android": "https://dc.lft.to/lastmile_qr_scan", "ios": "https://dc.lft.to/lastmile_qr_scan"}, "fusion_lon": 0.0, "bike_id": "faf6c9b046f289046aa1a24e5dd09555", "is_disabled": 0, "lat": 38.894873833333335, "is_reserved": 0, "type": "electric_scooter"}, {"fusion_lat": 0.0, "name": "2f475ff2cad49322af03048b40b50eac", "lon": -76.9971475, "rental_uris": {"android": "https://dc.lft.to/lastmile_qr_scan", "ios": "https://dc.lft.to/lastmile_qr_scan"}, "fusion_lon": 0.0, "bike_id": "2f475ff2cad49322af03048b40b50eac", "is_disabled": 0, "lat": 38.88476166666667, "is_reserved": 0, "type": "electric_scooter"}, {"fusion_lat": 0.0, "name": "8dfc562f5182896bf7562c81d310288b", "lon": -77.00452183333333, "rental_uris": {"android": "https://dc.lft.to/lastmile_qr_scan", "ios": "https://dc.lft.to/lastmile_qr_scan"}, "fusion_lon": 0.0, "bike_id": "8dfc562f5182896bf7562c81d310288b", "is_disabled": 0, "lat": 38.91181383333333, "is_reserved": 0, "type": "electric_scooter"}, {"fusion_lat": 0.0, "name": "48619bb9a75e67a7f25e3a898a9bc72f", "lon": -77.04182516666667, "rental_uris": {"android": "https://dc.lft.to/lastmile_qr_scan", "ios": "https://dc.lft.to/lastmile_qr_scan"}, "fusion_lon": 0.0, "bike_id": "48619bb9a75e67a7f25e3a898a9bc72f", "is_disabled": 0, "lat": 38.90267583333333, "is_reserved": 0, "type": "electric_scooter"}, {"fusion_lat": 0.0, "name": "3331f972cbe0613a729f8278c985cf37", "lon": -77.088108, "rental_uris": {"android": "https://dc.lft.to/lastmile_qr_scan", "ios": "https://dc.lft.to/lastmile_qr_scan"}, "fusion_lon": 0.0, "bike_id": "3331f972cbe0613a729f8278c985cf37", "is_disabled": 0, "lat": 38.911714833333335, "is_reserved": 0, "type": "electric_bike"}, {"fusion_lat": 0.0, "name": "605b061c733325e36df481a84fc85255", "lon": -77.022791, "rental_uris": {"android": "https://dc.lft.to/lastmile_qr_scan", "ios": "https://dc.lft.to/lastmile_qr_scan"}, "fusion_lon": 0.0, "bike_id": "605b061c733325e36df481a84fc85255", "is_disabled": 0, "lat": 38.89364483333333, "is_reserved": 0, "type": "electric_scooter"}, {"fusion_lat": 0.0, "name": "de84e6fdc4f4d910b002f6e6d5256646", "lon": -77.01740933333333, "rental_uris": {"android": "https://dc.lft.to/lastmile_qr_scan", "ios": "https://dc.lft.to/lastmile_qr_scan"}, "fusion_lon": 0.0, "bike_id": "de84e6fdc4f4d910b002f6e6d5256646", "is_disabled": 0, "lat": 38.880069166666665, "is_reserved": 0, "type": "electric_scooter"}, {"fusion_lat": 0.0, "name": "350d90fa20f1909733abfb5cbf2a4b55", "lon": -76.97618383333334, "rental_uris": {"android": "https://dc.lft.to/lastmile_qr_scan", "ios": "https://dc.lft.to/lastmile_qr_scan"}, "fusion_lon": 0.0, "bike_id": "350d90fa20f1909733abfb5cbf2a4b55", "is_disabled": 0, "lat": 38.926485166666666, "is_reserved": 0, "type": "electric_scooter"}, {"fusion_lat": 0.0, "name": "55cb5121e308d8ab342fd85abb80f218", "lon": -77.0424255, "rental_uris": {"android": "https://dc.lft.to/lastmile_qr_scan", "ios": "https://dc.lft.to/lastmile_qr_scan"}, "fusion_lon": 0.0, "bike_id": "55cb5121e308d8ab342fd85abb80f218", "is_disabled": 0, "lat": 38.9222455, "is_reserved": 0, "type": "electric_scooter"}, {"fusion_lat": 0.0, "name": "ddd5b5e7ee19296979fa836a6dd9d89c", "lon": -77.0417145, "rental_uris": {"android": "https://dc.lft.to/lastmile_qr_scan", "ios": "https://dc.lft.to/lastmile_qr_scan"}, "fusion_lon": 0.0, "bike_id": "ddd5b5e7ee19296979fa836a6dd9d89c", "is_disabled": 0, "lat": 38.91891583333334, "is_reserved": 0, "type": "electric_bike"}, {"fusion_lat": 0.0, "name": "59ff12aa0234b3036a5c300d9f7b5d9e", "lon": -77.0310515, "rental_uris": {"android": "https://dc.lft.to/lastmile_qr_scan", "ios": "https://dc.lft.to/lastmile_qr_scan"}, "fusion_lon": 0.0, "bike_id": "59ff12aa0234b3036a5c300d9f7b5d9e", "is_disabled": 0, "lat": 38.8923195, "is_reserved": 0, "type": "electric_scooter"}, {"fusion_lat": 0.0, "name": "ab60f92de0f6700c49af4ffcdc3730b7", "lon": -77.04310366666667, "rental_uris": {"android": "https://dc.lft.to/lastmile_qr_scan", "ios": "https://dc.lft.to/lastmile_qr_scan"}, "fusion_lon": 0.0, "bike_id": "ab60f92de0f6700c49af4ffcdc3730b7", "is_disabled": 0, "lat": 38.8921875, "is_reserved": 0, "type": "electric_scooter"}, {"fusion_lat": 0.0, "name": "26d5b7fef2b78912ae8eaf6aea8b15d7", "lon": -77.02608633333334, "rental_uris": {"android": "https://dc.lft.to/lastmile_qr_scan", "ios": "https://dc.lft.to/lastmile_qr_scan"}, "fusion_lon": 0.0, "bike_id": "26d5b7fef2b78912ae8eaf6aea8b15d7", "is_disabled": 0, "lat": 38.9757115, "is_reserved": 0, "type": "electric_scooter"}, {"fusion_lat": 0.0, "name": "ce02966464857a79728ed18a6ba5ceaa", "lon": -77.03066316666667, "rental_uris": {"android": "https://dc.lft.to/lastmile_qr_scan", "ios": "https://dc.lft.to/lastmile_qr_scan"}, "fusion_lon": 0.0, "bike_id": "ce02966464857a79728ed18a6ba5ceaa", "is_disabled": 0, "lat": 38.912622, "is_reserved": 0, "type": "electric_scooter"}, {"fusion_lat": 0.0, "name": "e3d6d80c5f3d8b22006b7d52a5f1b25a", "lon": -77.01853566666666, "rental_uris": {"android": "https://dc.lft.to/lastmile_qr_scan", "ios": "https://dc.lft.to/lastmile_qr_scan"}, "fusion_lon": 0.0, "bike_id": "e3d6d80c5f3d8b22006b7d52a5f1b25a", "is_disabled": 0, "lat": 38.9057165, "is_reserved": 0, "type": "electric_scooter"}, {"fusion_lat": 0.0, "name": "83cb77189ac77c8a870ce450732cda4f", "lon": -77.023843, "rental_uris": {"android": "https://dc.lft.to/lastmile_qr_scan", "ios": "https://dc.lft.to/lastmile_qr_scan"}, "fusion_lon": 0.0, "bike_id": "83cb77189ac77c8a870ce450732cda4f", "is_disabled": 0, "lat": 38.915690166666664, "is_reserved": 0, "type": "electric_scooter"}, {"fusion_lat": 0.0, "name": "6e44a6356661a2320bf7ed09d83e2466", "lon": -77.03145416666666, "rental_uris": {"android": "https://dc.lft.to/lastmile_qr_scan", "ios": "https://dc.lft.to/lastmile_qr_scan"}, "fusion_lon": 0.0, "bike_id": "6e44a6356661a2320bf7ed09d83e2466", "is_disabled": 0, "lat": 38.911069, "is_reserved": 0, "type": "electric_scooter"}, {"fusion_lat": 0.0, "name": "48074bcd76af06b9ceb9217e62e102d7", "lon": -77.03262283333333, "rental_uris": {"android": "https://dc.lft.to/lastmile_qr_scan", "ios": "https://dc.lft.to/lastmile_qr_scan"}, "fusion_lon": 0.0, "bike_id": "48074bcd76af06b9ceb9217e62e102d7", "is_disabled": 0, "lat": 38.930148833333334, "is_reserved": 0, "type": "electric_scooter"}, {"fusion_lat": 0.0, "name": "63152a527d16c76cd78581c0a166079e", "lon": -77.02293033333333, "rental_uris": {"android": "https://dc.lft.to/lastmile_qr_scan", "ios": "https://dc.lft.to/lastmile_qr_scan"}, "fusion_lon": 0.0, "bike_id": "63152a527d16c76cd78581c0a166079e", "is_disabled": 0, "lat": 38.894965166666665, "is_reserved": 0, "type": "electric_scooter"}, {"fusion_lat": 0.0, "name": "011e0c6ed70ebe0f9c25fba69cd01a9f", "lon": -77.03371516666667, "rental_uris": {"android": "https://dc.lft.to/lastmile_qr_scan", "ios": "https://dc.lft.to/lastmile_qr_scan"}, "fusion_lon": 0.0, "bike_id": "011e0c6ed70ebe0f9c25fba69cd01a9f", "is_disabled": 0, "lat": 38.90031833333333, "is_reserved": 0, "type": "electric_scooter"}, {"fusion_lat": 0.0, "name": "6a9e5cef159a599f32ec3350421526cc", "lon": -77.00211583333333, "rental_uris": {"android": "https://dc.lft.to/lastmile_qr_scan", "ios": "https://dc.lft.to/lastmile_qr_scan"}, "fusion_lon": 0.0, "bike_id": "6a9e5cef159a599f32ec3350421526cc", "is_disabled": 0, "lat": 38.900718833333336, "is_reserved": 0, "type": "electric_scooter"}, {"fusion_lat": 0.0, "name": "d7cf3fa259617f0aaee5832ff0d5fe60", "lon": -77.01589733333333, "rental_uris": {"android": "https://dc.lft.to/lastmile_qr_scan", "ios": "https://dc.lft.to/lastmile_qr_scan"}, "fusion_lon": 0.0, "bike_id": "d7cf3fa259617f0aaee5832ff0d5fe60", "is_disabled": 0, "lat": 38.88497366666667, "is_reserved": 0, "type": "electric_scooter"}, {"fusion_lat": 0.0, "name": "2919fef403f4c11737394b0cc745d111", "lon": -77.07600416666666, "rental_uris": {"android": "https://dc.lft.to/lastmile_qr_scan", "ios": "https://dc.lft.to/lastmile_qr_scan"}, "fusion_lon": 0.0, "bike_id": "2919fef403f4c11737394b0cc745d111", "is_disabled": 0, "lat": 38.91210216666666, "is_reserved": 0, "type": "electric_scooter"}, {"fusion_lat": 0.0, "name": "684004116fca341126ed5f241c4514d5", "lon": -77.0909975, "rental_uris": {"android": "https://dc.lft.to/lastmile_qr_scan", "ios": "https://dc.lft.to/lastmile_qr_scan"}, "fusion_lon": 0.0, "bike_id": "684004116fca341126ed5f241c4514d5", "is_disabled": 0, "lat": 38.9415105, "is_reserved": 0, "type": "electric_scooter"}, {"fusion_lat": 0.0, "name": "0e4d2c7be14d26552823a8fdaf789868", "lon": -76.92879516666666, "rental_uris": {"android": "https://dc.lft.to/lastmile_qr_scan", "ios": "https://dc.lft.to/lastmile_qr_scan"}, "fusion_lon": 0.0, "bike_id": "0e4d2c7be14d26552823a8fdaf789868", "is_disabled": 0, "lat": 38.978394, "is_reserved": 0, "type": "electric_bike"}, {"fusion_lat": 0.0, "name": "df3425657ea3a4b33410cf23969e320d", "lon": -76.9808025, "rental_uris": {"android": "https://dc.lft.to/lastmile_qr_scan", "ios": "https://dc.lft.to/lastmile_qr_scan"}, "fusion_lon": 0.0, "bike_id": "df3425657ea3a4b33410cf23969e320d", "is_disabled": 0, "lat": 38.91947033333334, "is_reserved": 0, "type": "electric_scooter"}, {"fusion_lat": 0.0, "name": "e12ca4a75a90293d32e8799228a6d8dd", "lon": -76.93021866666666, "rental_uris": {"android": "https://dc.lft.to/lastmile_qr_scan", "ios": "https://dc.lft.to/lastmile_qr_scan"}, "fusion_lon": 0.0, "bike_id": "e12ca4a75a90293d32e8799228a6d8dd", "is_disabled": 0, "lat": 38.90168383333334, "is_reserved": 0, "type": "electric_scooter"}, {"fusion_lat": 0.0, "name": "d880c2451e29b79737842a9d53336dc2", "lon": -76.93022966666666, "rental_uris": {"android": "https://dc.lft.to/lastmile_qr_scan", "ios": "https://dc.lft.to/lastmile_qr_scan"}, "fusion_lon": 0.0, "bike_id": "d880c2451e29b79737842a9d53336dc2", "is_disabled": 0, "lat": 38.89645133333333, "is_reserved": 0, "type": "electric_bike"}, {"fusion_lat": 0.0, "name": "f6e103236287b893187de5d3a8876ee1", "lon": -77.03442833333334, "rental_uris": {"android": "https://dc.lft.to/lastmile_qr_scan", "ios": "https://dc.lft.to/lastmile_qr_scan"}, "fusion_lon": 0.0, "bike_id": "f6e103236287b893187de5d3a8876ee1", "is_disabled": 0, "lat": 38.918205666666665, "is_reserved": 0, "type": "electric_scooter"}, {"fusion_lat": 0.0, "name": "e50f99999f4fe5d83dccdbb526502da5", "lon": -77.03656716666667, "rental_uris": {"android": "https://dc.lft.to/lastmile_qr_scan", "ios": "https://dc.lft.to/lastmile_qr_scan"}, "fusion_lon": 0.0, "bike_id": "e50f99999f4fe5d83dccdbb526502da5", "is_disabled": 0, "lat": 38.90282533333333, "is_reserved": 0, "type": "electric_scooter"}, {"fusion_lat": 0.0, "name": "15a1ef652a7e29464ec44e243635dc68", "lon": -77.04206966666666, "rental_uris": {"android": "https://dc.lft.to/lastmile_qr_scan", "ios": "https://dc.lft.to/lastmile_qr_scan"}, "fusion_lon": 0.0, "bike_id": "15a1ef652a7e29464ec44e243635dc68", "is_disabled": 0, "lat": 38.91122516666667, "is_reserved": 0, "type": "electric_scooter"}, {"fusion_lat": 0.0, "name": "56a279c9fd8c84bec3ddce3aba8f8f03", "lon": -77.08028133333333, "rental_uris": {"android": "https://dc.lft.to/lastmile_qr_scan", "ios": "https://dc.lft.to/lastmile_qr_scan"}, "fusion_lon": 0.0, "bike_id": "56a279c9fd8c84bec3ddce3aba8f8f03", "is_disabled": 0, "lat": 38.95055983333334, "is_reserved": 0, "type": "electric_scooter"}, {"fusion_lat": 0.0, "name": "cc6dfaef9d70f17b944eb8defada8d0e", "lon": -77.0454245, "rental_uris": {"android": "https://dc.lft.to/lastmile_qr_scan", "ios": "https://dc.lft.to/lastmile_qr_scan"}, "fusion_lon": 0.0, "bike_id": "cc6dfaef9d70f17b944eb8defada8d0e", "is_disabled": 0, "lat": 38.9131755, "is_reserved": 0, "type": "electric_scooter"}, {"fusion_lat": 0.0, "name": "ba06962e159b3d1c92878dd9af362126", "lon": -77.05132216666667, "rental_uris": {"android": "https://dc.lft.to/lastmile_qr_scan", "ios": "https://dc.lft.to/lastmile_qr_scan"}, "fusion_lon": 0.0, "bike_id": "ba06962e159b3d1c92878dd9af362126", "is_disabled": 0, "lat": 38.92364083333333, "is_reserved": 0, "type": "electric_scooter"}, {"fusion_lat": 0.0, "name": "4e8d47421efc2c0de7f7028b34ad906b", "lon": -76.97537966666667, "rental_uris": {"android": "https://dc.lft.to/lastmile_qr_scan", "ios": "https://dc.lft.to/lastmile_qr_scan"}, "fusion_lon": 0.0, "bike_id": "4e8d47421efc2c0de7f7028b34ad906b", "is_disabled": 0, "lat": 38.903247, "is_reserved": 0, "type": "electric_bike"}, {"fusion_lat": 0.0, "name": "9c05c478003ad3bd1c8e452adaf5582d", "lon": -77.05924733333333, "rental_uris": {"android": "https://dc.lft.to/lastmile_qr_scan", "ios": "https://dc.lft.to/lastmile_qr_scan"}, "fusion_lon": 0.0, "bike_id": "9c05c478003ad3bd1c8e452adaf5582d", "is_disabled": 0, "lat": 38.905464333333335, "is_reserved": 0, "type": "electric_scooter"}, {"fusion_lat": 0.0, "name": "93c6fb903e53df004d9a1d4e716dc0fd", "lon": -77.02212833333333, "rental_uris": {"android": "https://dc.lft.to/lastmile_qr_scan", "ios": "https://dc.lft.to/lastmile_qr_scan"}, "fusion_lon": 0.0, "bike_id": "93c6fb903e53df004d9a1d4e716dc0fd", "is_disabled": 0, "lat": 38.9054535, "is_reserved": 0, "type": "electric_scooter"}, {"fusion_lat": 0.0, "name": "5d39730006a7b6e6bb1627a6045d4e7f", "lon": -77.07032966666667, "rental_uris": {"android": "https://dc.lft.to/lastmile_qr_scan", "ios": "https://dc.lft.to/lastmile_qr_scan"}, "fusion_lon": 0.0, "bike_id": "5d39730006a7b6e6bb1627a6045d4e7f", "is_disabled": 0, "lat": 38.92253816666667, "is_reserved": 0, "type": "electric_scooter"}, {"fusion_lat": 0.0, "name": "ff4484a1401190693bb6795c27a35254", "lon": -77.0327955, "rental_uris": {"android": "https://dc.lft.to/lastmile_qr_scan", "ios": "https://dc.lft.to/lastmile_qr_scan"}, "fusion_lon": 0.0, "bike_id": "ff4484a1401190693bb6795c27a35254", "is_disabled": 0, "lat": 38.90971716666667, "is_reserved": 0, "type": "electric_scooter"}, {"fusion_lat": 0.0, "name": "875458e711d28893713879358b7f3c79", "lon": -77.0344395, "rental_uris": {"android": "https://dc.lft.to/lastmile_qr_scan", "ios": "https://dc.lft.to/lastmile_qr_scan"}, "fusion_lon": 0.0, "bike_id": "875458e711d28893713879358b7f3c79", "is_disabled": 0, "lat": 38.92862066666667, "is_reserved": 0, "type": "electric_scooter"}, {"fusion_lat": 0.0, "name": "946151a9c228bcd3176ee526b12c5e1d", "lon": -76.990585, "rental_uris": {"android": "https://dc.lft.to/lastmile_qr_scan", "ios": "https://dc.lft.to/lastmile_qr_scan"}, "fusion_lon": 0.0, "bike_id": "946151a9c228bcd3176ee526b12c5e1d", "is_disabled": 0, "lat": 38.86379016666667, "is_reserved": 0, "type": "electric_scooter"}, {"fusion_lat": 0.0, "name": "fdb92d77756ca047aaacee94a53474d9", "lon": -77.00687483333333, "rental_uris": {"android": "https://dc.lft.to/lastmile_qr_scan", "ios": "https://dc.lft.to/lastmile_qr_scan"}, "fusion_lon": 0.0, "bike_id": "fdb92d77756ca047aaacee94a53474d9", "is_disabled": 0, "lat": 38.90007466666667, "is_reserved": 0, "type": "electric_scooter"}, {"fusion_lat": 0.0, "name": "549e0ac9f928e3af027ebf15f2e5df07", "lon": -77.03214533333333, "rental_uris": {"android": "https://dc.lft.to/lastmile_qr_scan", "ios": "https://dc.lft.to/lastmile_qr_scan"}, "fusion_lon": 0.0, "bike_id": "549e0ac9f928e3af027ebf15f2e5df07", "is_disabled": 0, "lat": 38.892220333333334, "is_reserved": 0, "type": "electric_scooter"}, {"fusion_lat": 0.0, "name": "763c8a5d1110aa882c7318599c4c9ec2", "lon": -77.00949266666667, "rental_uris": {"android": "https://dc.lft.to/lastmile_qr_scan", "ios": "https://dc.lft.to/lastmile_qr_scan"}, "fusion_lon": 0.0, "bike_id": "763c8a5d1110aa882c7318599c4c9ec2", "is_disabled": 0, "lat": 38.8763005, "is_reserved": 0, "type": "electric_scooter"}, {"fusion_lat": 0.0, "name": "43c8dc05b0e1827d8b827f59a753eb5c", "lon": -77.03009083333333, "rental_uris": {"android": "https://dc.lft.to/lastmile_qr_scan", "ios": "https://dc.lft.to/lastmile_qr_scan"}, "fusion_lon": 0.0, "bike_id": "43c8dc05b0e1827d8b827f59a753eb5c", "is_disabled": 0, "lat": 38.9169435, "is_reserved": 0, "type": "electric_scooter"}, {"fusion_lat": 0.0, "name": "d21ff20b6defbdb99f3a96c76cc304fa", "lon": -77.03493733333333, "rental_uris": {"android": "https://dc.lft.to/lastmile_qr_scan", "ios": "https://dc.lft.to/lastmile_qr_scan"}, "fusion_lon": 0.0, "bike_id": "d21ff20b6defbdb99f3a96c76cc304fa", "is_disabled": 0, "lat": 38.91700216666667, "is_reserved": 0, "type": "electric_scooter"}, {"fusion_lat": 0.0, "name": "26d9613f792b0a6cb16086158db3680a", "lon": -76.91755416666666, "rental_uris": {"android": "https://dc.lft.to/lastmile_qr_scan", "ios": "https://dc.lft.to/lastmile_qr_scan"}, "fusion_lon": 0.0, "bike_id": "26d9613f792b0a6cb16086158db3680a", "is_disabled": 0, "lat": 38.88837816666667, "is_reserved": 0, "type": "electric_scooter"}, {"fusion_lat": 0.0, "name": "977c3c8ac158d7a0b42e064bae021072", "lon": -77.03504783333334, "rental_uris": {"android": "https://dc.lft.to/lastmile_qr_scan", "ios": "https://dc.lft.to/lastmile_qr_scan"}, "fusion_lon": 0.0, "bike_id": "977c3c8ac158d7a0b42e064bae021072", "is_disabled": 0, "lat": 38.9186815, "is_reserved": 0, "type": "electric_scooter"}, {"fusion_lat": 0.0, "name": "4f67c95bb2f9d46bc96efbb8c6649ba3", "lon": -77.04682616666666, "rental_uris": {"android": "https://dc.lft.to/lastmile_qr_scan", "ios": "https://dc.lft.to/lastmile_qr_scan"}, "fusion_lon": 0.0, "bike_id": "4f67c95bb2f9d46bc96efbb8c6649ba3", "is_disabled": 0, "lat": 38.921021833333334, "is_reserved": 0, "type": "electric_scooter"}, {"fusion_lat": 0.0, "name": "da1887e7fa524b6b63ea5e3ca39605f6", "lon": -77.1183085, "rental_uris": {"android": "https://dc.lft.to/lastmile_qr_scan", "ios": "https://dc.lft.to/lastmile_qr_scan"}, "fusion_lon": 0.0, "bike_id": "da1887e7fa524b6b63ea5e3ca39605f6", "is_disabled": 0, "lat": 38.85935283333333, "is_reserved": 0, "type": "electric_bike"}, {"fusion_lat": 0.0, "name": "d7019db5486f166dd8f068f105f5ccfd", "lon": -77.02203933333334, "rental_uris": {"android": "https://dc.lft.to/lastmile_qr_scan", "ios": "https://dc.lft.to/lastmile_qr_scan"}, "fusion_lon": 0.0, "bike_id": "d7019db5486f166dd8f068f105f5ccfd", "is_disabled": 0, "lat": 38.887095, "is_reserved": 0, "type": "electric_scooter"}, {"fusion_lat": 0.0, "name": "ff51a72f2538c9e83646f179fcb1c5e8", "lon": -77.04249983333334, "rental_uris": {"android": "https://dc.lft.to/lastmile_qr_scan", "ios": "https://dc.lft.to/lastmile_qr_scan"}, "fusion_lon": 0.0, "bike_id": "ff51a72f2538c9e83646f179fcb1c5e8", "is_disabled": 0, "lat": 38.9223085, "is_reserved": 0, "type": "electric_scooter"}, {"fusion_lat": 0.0, "name": "aae532b51e2ed63e5c8d1afda7d3e2ae", "lon": -77.00368766666666, "rental_uris": {"android": "https://dc.lft.to/lastmile_qr_scan", "ios": "https://dc.lft.to/lastmile_qr_scan"}, "fusion_lon": 0.0, "bike_id": "aae532b51e2ed63e5c8d1afda7d3e2ae", "is_disabled": 0, "lat": 38.90858033333333, "is_reserved": 0, "type": "electric_bike"}, {"fusion_lat": 0.0, "name": "ad72bb3b33a96014d78dcc1f2ad811ba", "lon": -76.9823625, "rental_uris": {"android": "https://dc.lft.to/lastmile_qr_scan", "ios": "https://dc.lft.to/lastmile_qr_scan"}, "fusion_lon": 0.0, "bike_id": "ad72bb3b33a96014d78dcc1f2ad811ba", "is_disabled": 0, "lat": 38.864692833333336, "is_reserved": 0, "type": "electric_scooter"}, {"fusion_lat": 0.0, "name": "527ac0bb3806d3587092e5901d564a96", "lon": -77.04712883333333, "rental_uris": {"android": "https://dc.lft.to/lastmile_qr_scan", "ios": "https://dc.lft.to/lastmile_qr_scan"}, "fusion_lon": 0.0, "bike_id": "527ac0bb3806d3587092e5901d564a96", "is_disabled": 0, "lat": 38.90215, "is_reserved": 0, "type": "electric_scooter"}, {"fusion_lat": 0.0, "name": "14c0d4f4e90df5bc77d842fb9b2f7d66", "lon": -77.03181966666666, "rental_uris": {"android": "https://dc.lft.to/lastmile_qr_scan", "ios": "https://dc.lft.to/lastmile_qr_scan"}, "fusion_lon": 0.0, "bike_id": "14c0d4f4e90df5bc77d842fb9b2f7d66", "is_disabled": 0, "lat": 38.89618466666667, "is_reserved": 0, "type": "electric_scooter"}, {"fusion_lat": 0.0, "name": "9d27cba8a7cdca6175189dc4082d3741", "lon": -77.0258175, "rental_uris": {"android": "https://dc.lft.to/lastmile_qr_scan", "ios": "https://dc.lft.to/lastmile_qr_scan"}, "fusion_lon": 0.0, "bike_id": "9d27cba8a7cdca6175189dc4082d3741", "is_disabled": 0, "lat": 38.896151, "is_reserved": 0, "type": "electric_scooter"}, {"fusion_lat": 0.0, "name": "6dc115f0b0de08302a3a3b415d49cfcd", "lon": -76.95255683333333, "rental_uris": {"android": "https://dc.lft.to/lastmile_qr_scan", "ios": "https://dc.lft.to/lastmile_qr_scan"}, "fusion_lon": 0.0, "bike_id": "6dc115f0b0de08302a3a3b415d49cfcd", "is_disabled": 0, "lat": 38.90688033333333, "is_reserved": 0, "type": "electric_bike"}, {"fusion_lat": 0.0, "name": "086f868ae48f12ad9002656a2e2247ca", "lon": -77.00714033333334, "rental_uris": {"android": "https://dc.lft.to/lastmile_qr_scan", "ios": "https://dc.lft.to/lastmile_qr_scan"}, "fusion_lon": 0.0, "bike_id": "086f868ae48f12ad9002656a2e2247ca", "is_disabled": 0, "lat": 38.945954, "is_reserved": 0, "type": "electric_bike"}, {"fusion_lat": 0.0, "name": "f7dcfdbfc4aea3b8848c9f8bc01f831f", "lon": -77.0445835, "rental_uris": {"android": "https://dc.lft.to/lastmile_qr_scan", "ios": "https://dc.lft.to/lastmile_qr_scan"}, "fusion_lon": 0.0, "bike_id": "f7dcfdbfc4aea3b8848c9f8bc01f831f", "is_disabled": 0, "lat": 38.905598833333336, "is_reserved": 0, "type": "electric_scooter"}, {"fusion_lat": 0.0, "name": "cc668c6cbe2d4bd2504130b295e7130b", "lon": -77.04722616666666, "rental_uris": {"android": "https://dc.lft.to/lastmile_qr_scan", "ios": "https://dc.lft.to/lastmile_qr_scan"}, "fusion_lon": 0.0, "bike_id": "cc668c6cbe2d4bd2504130b295e7130b", "is_disabled": 0, "lat": 38.899642666666665, "is_reserved": 0, "type": "electric_scooter"}, {"fusion_lat": 0.0, "name": "ead0ce4ed335a811efe96d0a86991278", "lon": -77.03464683333333, "rental_uris": {"android": "https://dc.lft.to/lastmile_qr_scan", "ios": "https://dc.lft.to/lastmile_qr_scan"}, "fusion_lon": 0.0, "bike_id": "ead0ce4ed335a811efe96d0a86991278", "is_disabled": 0, "lat": 38.92062966666667, "is_reserved": 0, "type": "electric_scooter"}, {"fusion_lat": 0.0, "name": "d0e5a1f8e740ceae7d26fde9a07b4df8", "lon": -77.052816, "rental_uris": {"android": "https://dc.lft.to/lastmile_qr_scan", "ios": "https://dc.lft.to/lastmile_qr_scan"}, "fusion_lon": 0.0, "bike_id": "d0e5a1f8e740ceae7d26fde9a07b4df8", "is_disabled": 0, "lat": 38.9235695, "is_reserved": 0, "type": "electric_scooter"}, {"fusion_lat": 0.0, "name": "0d7e953318a66aaee15fa97564f27609", "lon": -77.02826566666667, "rental_uris": {"android": "https://dc.lft.to/lastmile_qr_scan", "ios": "https://dc.lft.to/lastmile_qr_scan"}, "fusion_lon": 0.0, "bike_id": "0d7e953318a66aaee15fa97564f27609", "is_disabled": 0, "lat": 38.8872255, "is_reserved": 0, "type": "electric_scooter"}, {"fusion_lat": 0.0, "name": "4d87ffa9b189b2bd60d1a4272edf313e", "lon": -76.978915, "rental_uris": {"android": "https://dc.lft.to/lastmile_qr_scan", "ios": "https://dc.lft.to/lastmile_qr_scan"}, "fusion_lon": 0.0, "bike_id": "4d87ffa9b189b2bd60d1a4272edf313e", "is_disabled": 0, "lat": 38.91675466666667, "is_reserved": 0, "type": "electric_scooter"}, {"fusion_lat": 0.0, "name": "66850ea3e77c89e1ebde6085bbcc1882", "lon": -77.05729466666666, "rental_uris": {"android": "https://dc.lft.to/lastmile_qr_scan", "ios": "https://dc.lft.to/lastmile_qr_scan"}, "fusion_lon": 0.0, "bike_id": "66850ea3e77c89e1ebde6085bbcc1882", "is_disabled": 0, "lat": 38.93358816666667, "is_reserved": 0, "type": "electric_scooter"}, {"fusion_lat": 0.0, "name": "0fc94db1a405125733458a18127da503", "lon": -76.98535616666666, "rental_uris": {"android": "https://dc.lft.to/lastmile_qr_scan", "ios": "https://dc.lft.to/lastmile_qr_scan"}, "fusion_lon": 0.0, "bike_id": "0fc94db1a405125733458a18127da503", "is_disabled": 0, "lat": 38.86640933333334, "is_reserved": 0, "type": "electric_scooter"}, {"fusion_lat": 0.0, "name": "a1a32bc89eb0ee849d9236c93aa5eec5", "lon": -76.98751633333333, "rental_uris": {"android": "https://dc.lft.to/lastmile_qr_scan", "ios": "https://dc.lft.to/lastmile_qr_scan"}, "fusion_lon": 0.0, "bike_id": "a1a32bc89eb0ee849d9236c93aa5eec5", "is_disabled": 0, "lat": 38.84457033333333, "is_reserved": 0, "type": "electric_bike"}, {"fusion_lat": 0.0, "name": "231b91e57d7e5cd98ade2cd39616d640", "lon": -77.031877, "rental_uris": {"android": "https://dc.lft.to/lastmile_qr_scan", "ios": "https://dc.lft.to/lastmile_qr_scan"}, "fusion_lon": 0.0, "bike_id": "231b91e57d7e5cd98ade2cd39616d640", "is_disabled": 0, "lat": 38.91120633333333, "is_reserved": 0, "type": "electric_scooter"}, {"fusion_lat": 0.0, "name": "ba09a6f1ac39bf9a58fb2fd705456aaf", "lon": -77.03767233333333, "rental_uris": {"android": "https://dc.lft.to/lastmile_qr_scan", "ios": "https://dc.lft.to/lastmile_qr_scan"}, "fusion_lon": 0.0, "bike_id": "ba09a6f1ac39bf9a58fb2fd705456aaf", "is_disabled": 0, "lat": 38.922165166666666, "is_reserved": 0, "type": "electric_scooter"}, {"fusion_lat": 0.0, "name": "995fa974cd9a3d81342f1e5067575ed9", "lon": -77.02356283333333, "rental_uris": {"android": "https://dc.lft.to/lastmile_qr_scan", "ios": "https://dc.lft.to/lastmile_qr_scan"}, "fusion_lon": 0.0, "bike_id": "995fa974cd9a3d81342f1e5067575ed9", "is_disabled": 0, "lat": 38.933823, "is_reserved": 0, "type": "electric_scooter"}, {"fusion_lat": 0.0, "name": "13b3c1c23e1afcf2dbba229b3435480b", "lon": -77.00599516666666, "rental_uris": {"android": "https://dc.lft.to/lastmile_qr_scan", "ios": "https://dc.lft.to/lastmile_qr_scan"}, "fusion_lon": 0.0, "bike_id": "13b3c1c23e1afcf2dbba229b3435480b", "is_disabled": 0, "lat": 38.8718055, "is_reserved": 0, "type": "electric_scooter"}, {"fusion_lat": 0.0, "name": "3032b1c09422657a87717cf98f089404", "lon": -76.9863785, "rental_uris": {"android": "https://dc.lft.to/lastmile_qr_scan", "ios": "https://dc.lft.to/lastmile_qr_scan"}, "fusion_lon": 0.0, "bike_id": "3032b1c09422657a87717cf98f089404", "is_disabled": 0, "lat": 38.900234166666664, "is_reserved": 0, "type": "electric_scooter"}, {"fusion_lat": 0.0, "name": "db5803850db198a10f366c2dfa4f035d", "lon": -77.04215033333334, "rental_uris": {"android": "https://dc.lft.to/lastmile_qr_scan", "ios": "https://dc.lft.to/lastmile_qr_scan"}, "fusion_lon": 0.0, "bike_id": "db5803850db198a10f366c2dfa4f035d", "is_disabled": 0, "lat": 38.92106283333333, "is_reserved": 0, "type": "electric_scooter"}, {"fusion_lat": 0.0, "name": "97f433d665ab5c667ba4d82f2064b88d", "lon": -77.01204566666667, "rental_uris": {"android": "https://dc.lft.to/lastmile_qr_scan", "ios": "https://dc.lft.to/lastmile_qr_scan"}, "fusion_lon": 0.0, "bike_id": "97f433d665ab5c667ba4d82f2064b88d", "is_disabled": 0, "lat": 38.893302166666665, "is_reserved": 0, "type": "electric_scooter"}, {"fusion_lat": 0.0, "name": "43c877c576d3d4a7a0a8e251c2f56efa", "lon": -77.0319515, "rental_uris": {"android": "https://dc.lft.to/lastmile_qr_scan", "ios": "https://dc.lft.to/lastmile_qr_scan"}, "fusion_lon": 0.0, "bike_id": "43c877c576d3d4a7a0a8e251c2f56efa", "is_disabled": 0, "lat": 38.892227, "is_reserved": 0, "type": "electric_scooter"}, {"fusion_lat": 0.0, "name": "3828fb8694bd1e289cb760930fd28d34", "lon": -77.0568675, "rental_uris": {"android": "https://dc.lft.to/lastmile_qr_scan", "ios": "https://dc.lft.to/lastmile_qr_scan"}, "fusion_lon": 0.0, "bike_id": "3828fb8694bd1e289cb760930fd28d34", "is_disabled": 0, "lat": 38.906098, "is_reserved": 0, "type": "electric_scooter"}, {"fusion_lat": 0.0, "name": "90525c7210a53c24c0cd3a925f81f17d", "lon": -76.93343916666667, "rental_uris": {"android": "https://dc.lft.to/lastmile_qr_scan", "ios": "https://dc.lft.to/lastmile_qr_scan"}, "fusion_lon": 0.0, "bike_id": "90525c7210a53c24c0cd3a925f81f17d", "is_disabled": 0, "lat": 38.88810133333333, "is_reserved": 0, "type": "electric_scooter"}, {"fusion_lat": 0.0, "name": "3e07d58ff97cee5ff9f9809466c6cbf2", "lon": -76.99946466666667, "rental_uris": {"android": "https://dc.lft.to/lastmile_qr_scan", "ios": "https://dc.lft.to/lastmile_qr_scan"}, "fusion_lon": 0.0, "bike_id": "3e07d58ff97cee5ff9f9809466c6cbf2", "is_disabled": 0, "lat": 38.90024733333333, "is_reserved": 0, "type": "electric_scooter"}, {"fusion_lat": 0.0, "name": "964d314ae8db6f5ce6d8e4c4c25c0557", "lon": -77.04632433333333, "rental_uris": {"android": "https://dc.lft.to/lastmile_qr_scan", "ios": "https://dc.lft.to/lastmile_qr_scan"}, "fusion_lon": 0.0, "bike_id": "964d314ae8db6f5ce6d8e4c4c25c0557", "is_disabled": 0, "lat": 38.90622183333333, "is_reserved": 0, "type": "electric_scooter"}, {"fusion_lat": 0.0, "name": "a0447df2d4aad7b6dbcb5e85da3c3b93", "lon": -76.9701125, "rental_uris": {"android": "https://dc.lft.to/lastmile_qr_scan", "ios": "https://dc.lft.to/lastmile_qr_scan"}, "fusion_lon": 0.0, "bike_id": "a0447df2d4aad7b6dbcb5e85da3c3b93", "is_disabled": 0, "lat": 38.85253066666667, "is_reserved": 0, "type": "electric_scooter"}, {"fusion_lat": 0.0, "name": "cf503329618aa36c9bd5c4ceefc294c5", "lon": -76.93110666666666, "rental_uris": {"android": "https://dc.lft.to/lastmile_qr_scan", "ios": "https://dc.lft.to/lastmile_qr_scan"}, "fusion_lon": 0.0, "bike_id": "cf503329618aa36c9bd5c4ceefc294c5", "is_disabled": 0, "lat": 38.88988633333334, "is_reserved": 0, "type": "electric_scooter"}, {"fusion_lat": 0.0, "name": "41628930291e5df3be3e43a2a15fdcc5", "lon": -77.02312416666666, "rental_uris": {"android": "https://dc.lft.to/lastmile_qr_scan", "ios": "https://dc.lft.to/lastmile_qr_scan"}, "fusion_lon": 0.0, "bike_id": "41628930291e5df3be3e43a2a15fdcc5", "is_disabled": 0, "lat": 38.918425, "is_reserved": 0, "type": "electric_scooter"}, {"fusion_lat": 0.0, "name": "210431d227498498f9b38e336d67548a", "lon": -77.02196483333333, "rental_uris": {"android": "https://dc.lft.to/lastmile_qr_scan", "ios": "https://dc.lft.to/lastmile_qr_scan"}, "fusion_lon": 0.0, "bike_id": "210431d227498498f9b38e336d67548a", "is_disabled": 0, "lat": 38.916901, "is_reserved": 0, "type": "electric_scooter"}, {"fusion_lat": 0.0, "name": "8a00ef86c3a5498b793705d8d38a95ee", "lon": -77.0424435, "rental_uris": {"android": "https://dc.lft.to/lastmile_qr_scan", "ios": "https://dc.lft.to/lastmile_qr_scan"}, "fusion_lon": 0.0, "bike_id": "8a00ef86c3a5498b793705d8d38a95ee", "is_disabled": 0, "lat": 38.9220815, "is_reserved": 0, "type": "electric_scooter"}, {"fusion_lat": 0.0, "name": "7934aa1349cc0e8a0c7defeb49d3971e", "lon": -76.9511435, "rental_uris": {"android": "https://dc.lft.to/lastmile_qr_scan", "ios": "https://dc.lft.to/lastmile_qr_scan"}, "fusion_lon": 0.0, "bike_id": "7934aa1349cc0e8a0c7defeb49d3971e", "is_disabled": 0, "lat": 38.893171333333335, "is_reserved": 0, "type": "electric_scooter"}, {"fusion_lat": 0.0, "name": "078035b54edde914d6b0020acfc899c0", "lon": -77.02508516666667, "rental_uris": {"android": "https://dc.lft.to/lastmile_qr_scan", "ios": "https://dc.lft.to/lastmile_qr_scan"}, "fusion_lon": 0.0, "bike_id": "078035b54edde914d6b0020acfc899c0", "is_disabled": 0, "lat": 38.90171566666667, "is_reserved": 0, "type": "electric_scooter"}, {"fusion_lat": 0.0, "name": "0cbd1e9e338bda6866d39d07c9e57491", "lon": -77.03162283333333, "rental_uris": {"android": "https://dc.lft.to/lastmile_qr_scan", "ios": "https://dc.lft.to/lastmile_qr_scan"}, "fusion_lon": 0.0, "bike_id": "0cbd1e9e338bda6866d39d07c9e57491", "is_disabled": 0, "lat": 38.91192366666667, "is_reserved": 0, "type": "electric_scooter"}, {"fusion_lat": 0.0, "name": "b80296bb1814d830f914af80ef1ea8b6", "lon": -77.02094983333333, "rental_uris": {"android": "https://dc.lft.to/lastmile_qr_scan", "ios": "https://dc.lft.to/lastmile_qr_scan"}, "fusion_lon": 0.0, "bike_id": "b80296bb1814d830f914af80ef1ea8b6", "is_disabled": 0, "lat": 38.89422016666666, "is_reserved": 0, "type": "electric_scooter"}, {"fusion_lat": 0.0, "name": "e4694aadee43c506a990758333d3393b", "lon": -77.03045316666666, "rental_uris": {"android": "https://dc.lft.to/lastmile_qr_scan", "ios": "https://dc.lft.to/lastmile_qr_scan"}, "fusion_lon": 0.0, "bike_id": "e4694aadee43c506a990758333d3393b", "is_disabled": 0, "lat": 38.88423933333333, "is_reserved": 0, "type": "electric_scooter"}, {"fusion_lat": 0.0, "name": "6b0dfa7b5ace65d33114dbbcff2df858", "lon": -77.031638, "rental_uris": {"android": "https://dc.lft.to/lastmile_qr_scan", "ios": "https://dc.lft.to/lastmile_qr_scan"}, "fusion_lon": 0.0, "bike_id": "6b0dfa7b5ace65d33114dbbcff2df858", "is_disabled": 0, "lat": 38.8921685, "is_reserved": 0, "type": "electric_scooter"}, {"fusion_lat": 0.0, "name": "e6bc364373573699064cdd714540144e", "lon": -77.03133966666667, "rental_uris": {"android": "https://dc.lft.to/lastmile_qr_scan", "ios": "https://dc.lft.to/lastmile_qr_scan"}, "fusion_lon": 0.0, "bike_id": "e6bc364373573699064cdd714540144e", "is_disabled": 0, "lat": 38.91760333333333, "is_reserved": 0, "type": "electric_scooter"}, {"fusion_lat": 0.0, "name": "2bf8c85c72529335cab65bf0091cdb1b", "lon": -77.03488433333334, "rental_uris": {"android": "https://dc.lft.to/lastmile_qr_scan", "ios": "https://dc.lft.to/lastmile_qr_scan"}, "fusion_lon": 0.0, "bike_id": "2bf8c85c72529335cab65bf0091cdb1b", "is_disabled": 0, "lat": 38.916961, "is_reserved": 0, "type": "electric_scooter"}, {"fusion_lat": 0.0, "name": "694f3fde36754b8c05c3419855eb082f", "lon": -77.03294966666667, "rental_uris": {"android": "https://dc.lft.to/lastmile_qr_scan", "ios": "https://dc.lft.to/lastmile_qr_scan"}, "fusion_lon": 0.0, "bike_id": "694f3fde36754b8c05c3419855eb082f", "is_disabled": 0, "lat": 38.90334933333333, "is_reserved": 0, "type": "electric_scooter"}, {"fusion_lat": 0.0, "name": "0c2871c5cd96528f9c5b50fbd7be03e8", "lon": -77.03688116666666, "rental_uris": {"android": "https://dc.lft.to/lastmile_qr_scan", "ios": "https://dc.lft.to/lastmile_qr_scan"}, "fusion_lon": 0.0, "bike_id": "0c2871c5cd96528f9c5b50fbd7be03e8", "is_disabled": 0, "lat": 38.916717166666665, "is_reserved": 0, "type": "electric_scooter"}, {"fusion_lat": 0.0, "name": "870ab9af2976e665e369dde4b3bec4cb", "lon": -77.04485166666667, "rental_uris": {"android": "https://dc.lft.to/lastmile_qr_scan", "ios": "https://dc.lft.to/lastmile_qr_scan"}, "fusion_lon": 0.0, "bike_id": "870ab9af2976e665e369dde4b3bec4cb", "is_disabled": 0, "lat": 38.91093216666667, "is_reserved": 0, "type": "electric_scooter"}, {"fusion_lat": 0.0, "name": "776264dce3a3a245ca5d8918a1599bf8", "lon": -77.04354233333333, "rental_uris": {"android": "https://dc.lft.to/lastmile_qr_scan", "ios": "https://dc.lft.to/lastmile_qr_scan"}, "fusion_lon": 0.0, "bike_id": "776264dce3a3a245ca5d8918a1599bf8", "is_disabled": 0, "lat": 38.90793466666667, "is_reserved": 0, "type": "electric_scooter"}, {"fusion_lat": 0.0, "name": "46cfb8aa353f78cf99d54d632202eef8", "lon": -76.9772595, "rental_uris": {"android": "https://dc.lft.to/lastmile_qr_scan", "ios": "https://dc.lft.to/lastmile_qr_scan"}, "fusion_lon": 0.0, "bike_id": "46cfb8aa353f78cf99d54d632202eef8", "is_disabled": 0, "lat": 38.87247, "is_reserved": 0, "type": "electric_scooter"}, {"fusion_lat": 0.0, "name": "50def7825a016142498ac062d3a2e297", "lon": -76.93221383333334, "rental_uris": {"android": "https://dc.lft.to/lastmile_qr_scan", "ios": "https://dc.lft.to/lastmile_qr_scan"}, "fusion_lon": 0.0, "bike_id": "50def7825a016142498ac062d3a2e297", "is_disabled": 0, "lat": 38.880637666666665, "is_reserved": 0, "type": "electric_scooter"}, {"fusion_lat": 0.0, "name": "cb33a35776b5dd12c86ef7310f03c46b", "lon": -77.02268416666666, "rental_uris": {"android": "https://dc.lft.to/lastmile_qr_scan", "ios": "https://dc.lft.to/lastmile_qr_scan"}, "fusion_lon": 0.0, "bike_id": "cb33a35776b5dd12c86ef7310f03c46b", "is_disabled": 0, "lat": 38.933879166666664, "is_reserved": 0, "type": "electric_scooter"}, {"fusion_lat": 0.0, "name": "1c83228f9e4e7d1728f26d850ece2ffd", "lon": -77.02676033333333, "rental_uris": {"android": "https://dc.lft.to/lastmile_qr_scan", "ios": "https://dc.lft.to/lastmile_qr_scan"}, "fusion_lon": 0.0, "bike_id": "1c83228f9e4e7d1728f26d850ece2ffd", "is_disabled": 0, "lat": 38.92677533333333, "is_reserved": 0, "type": "electric_scooter"}, {"fusion_lat": 0.0, "name": "2f8d7b8631c698111271db1537cacbc2", "lon": -77.0238495, "rental_uris": {"android": "https://dc.lft.to/lastmile_qr_scan", "ios": "https://dc.lft.to/lastmile_qr_scan"}, "fusion_lon": 0.0, "bike_id": "2f8d7b8631c698111271db1537cacbc2", "is_disabled": 0, "lat": 38.892348166666665, "is_reserved": 0, "type": "electric_scooter"}, {"fusion_lat": 0.0, "name": "7fb02657a4490de7bdeb9b159745de7d", "lon": -77.02583516666667, "rental_uris": {"android": "https://dc.lft.to/lastmile_qr_scan", "ios": "https://dc.lft.to/lastmile_qr_scan"}, "fusion_lon": 0.0, "bike_id": "7fb02657a4490de7bdeb9b159745de7d", "is_disabled": 0, "lat": 38.914119666666664, "is_reserved": 0, "type": "electric_scooter"}, {"fusion_lat": 0.0, "name": "fe8a2ff6fbfb3eabe0807430d90abf9b", "lon": -77.03207183333333, "rental_uris": {"android": "https://dc.lft.to/lastmile_qr_scan", "ios": "https://dc.lft.to/lastmile_qr_scan"}, "fusion_lon": 0.0, "bike_id": "fe8a2ff6fbfb3eabe0807430d90abf9b", "is_disabled": 0, "lat": 38.996027833333336, "is_reserved": 0, "type": "electric_scooter"}, {"fusion_lat": 0.0, "name": "e45bb4e00fde029c884dd319ee47cc02", "lon": -77.00576883333333, "rental_uris": {"android": "https://dc.lft.to/lastmile_qr_scan", "ios": "https://dc.lft.to/lastmile_qr_scan"}, "fusion_lon": 0.0, "bike_id": "e45bb4e00fde029c884dd319ee47cc02", "is_disabled": 0, "lat": 38.8754205, "is_reserved": 0, "type": "electric_scooter"}, {"fusion_lat": 0.0, "name": "1c7cdc9995178af5c585f91796ee1807", "lon": -77.04677133333334, "rental_uris": {"android": "https://dc.lft.to/lastmile_qr_scan", "ios": "https://dc.lft.to/lastmile_qr_scan"}, "fusion_lon": 0.0, "bike_id": "1c7cdc9995178af5c585f91796ee1807", "is_disabled": 0, "lat": 38.893227, "is_reserved": 0, "type": "electric_scooter"}, {"fusion_lat": 0.0, "name": "1b8eaf8b5616a20d67a21e251badb007", "lon": -77.02226316666666, "rental_uris": {"android": "https://dc.lft.to/lastmile_qr_scan", "ios": "https://dc.lft.to/lastmile_qr_scan"}, "fusion_lon": 0.0, "bike_id": "1b8eaf8b5616a20d67a21e251badb007", "is_disabled": 0, "lat": 38.893414, "is_reserved": 0, "type": "electric_scooter"}, {"fusion_lat": 0.0, "name": "a1b9b4e18db8b2076765f0db2025ceaa", "lon": -77.04355366666667, "rental_uris": {"android": "https://dc.lft.to/lastmile_qr_scan", "ios": "https://dc.lft.to/lastmile_qr_scan"}, "fusion_lon": 0.0, "bike_id": "a1b9b4e18db8b2076765f0db2025ceaa", "is_disabled": 0, "lat": 38.897224333333334, "is_reserved": 0, "type": "electric_scooter"}, {"fusion_lat": 0.0, "name": "46bf61d3140e632851e76cc2320d6f3e", "lon": -77.032043, "rental_uris": {"android": "https://dc.lft.to/lastmile_qr_scan", "ios": "https://dc.lft.to/lastmile_qr_scan"}, "fusion_lon": 0.0, "bike_id": "46bf61d3140e632851e76cc2320d6f3e", "is_disabled": 0, "lat": 38.893074, "is_reserved": 0, "type": "electric_scooter"}, {"fusion_lat": 0.0, "name": "97e7b36ef7b4d0291a39eff6b13d6d61", "lon": -77.0341, "rental_uris": {"android": "https://dc.lft.to/lastmile_qr_scan", "ios": "https://dc.lft.to/lastmile_qr_scan"}, "fusion_lon": 0.0, "bike_id": "97e7b36ef7b4d0291a39eff6b13d6d61", "is_disabled": 0, "lat": 38.960301666666666, "is_reserved": 0, "type": "electric_bike"}, {"fusion_lat": 0.0, "name": "96434c00d3a632d654742dfd2800bf1f", "lon": -76.99356416666667, "rental_uris": {"android": "https://dc.lft.to/lastmile_qr_scan", "ios": "https://dc.lft.to/lastmile_qr_scan"}, "fusion_lon": 0.0, "bike_id": "96434c00d3a632d654742dfd2800bf1f", "is_disabled": 0, "lat": 38.845004833333334, "is_reserved": 0, "type": "electric_bike"}, {"fusion_lat": 0.0, "name": "c55e9a069a13c7f62a90044fc65ee98f", "lon": -77.0344235, "rental_uris": {"android": "https://dc.lft.to/lastmile_qr_scan", "ios": "https://dc.lft.to/lastmile_qr_scan"}, "fusion_lon": 0.0, "bike_id": "c55e9a069a13c7f62a90044fc65ee98f", "is_disabled": 0, "lat": 38.902381166666665, "is_reserved": 0, "type": "electric_scooter"}, {"fusion_lat": 0.0, "name": "33246d6eb56be4fdeab80831637c182f", "lon": -77.047145, "rental_uris": {"android": "https://dc.lft.to/lastmile_qr_scan", "ios": "https://dc.lft.to/lastmile_qr_scan"}, "fusion_lon": 0.0, "bike_id": "33246d6eb56be4fdeab80831637c182f", "is_disabled": 0, "lat": 38.905532, "is_reserved": 0, "type": "electric_scooter"}, {"fusion_lat": 0.0, "name": "f3e67a8a22f34d044b834909202aabd4", "lon": -76.98351883333333, "rental_uris": {"android": "https://dc.lft.to/lastmile_qr_scan", "ios": "https://dc.lft.to/lastmile_qr_scan"}, "fusion_lon": 0.0, "bike_id": "f3e67a8a22f34d044b834909202aabd4", "is_disabled": 0, "lat": 38.91539183333333, "is_reserved": 0, "type": "electric_scooter"}, {"fusion_lat": 0.0, "name": "27e7b8758dd47920d67076435b6d40b0", "lon": -77.02778466666666, "rental_uris": {"android": "https://dc.lft.to/lastmile_qr_scan", "ios": "https://dc.lft.to/lastmile_qr_scan"}, "fusion_lon": 0.0, "bike_id": "27e7b8758dd47920d67076435b6d40b0", "is_disabled": 0, "lat": 38.96254, "is_reserved": 0, "type": "electric_scooter"}, {"fusion_lat": 0.0, "name": "d3105f17bfe8170204762e0ce2b0af21", "lon": -77.01897716666667, "rental_uris": {"android": "https://dc.lft.to/lastmile_qr_scan", "ios": "https://dc.lft.to/lastmile_qr_scan"}, "fusion_lon": 0.0, "bike_id": "d3105f17bfe8170204762e0ce2b0af21", "is_disabled": 0, "lat": 38.913871, "is_reserved": 0, "type": "electric_scooter"}, {"fusion_lat": 0.0, "name": "15b5256aa6013d4390284ed63fe3418b", "lon": -77.02671516666666, "rental_uris": {"android": "https://dc.lft.to/lastmile_qr_scan", "ios": "https://dc.lft.to/lastmile_qr_scan"}, "fusion_lon": 0.0, "bike_id": "15b5256aa6013d4390284ed63fe3418b", "is_disabled": 0, "lat": 38.92815566666667, "is_reserved": 0, "type": "electric_scooter"}, {"fusion_lat": 0.0, "name": "57a59ee6f367dde4fe998db62c159cb5", "lon": -77.03948583333333, "rental_uris": {"android": "https://dc.lft.to/lastmile_qr_scan", "ios": "https://dc.lft.to/lastmile_qr_scan"}, "fusion_lon": 0.0, "bike_id": "57a59ee6f367dde4fe998db62c159cb5", "is_disabled": 0, "lat": 38.90062833333333, "is_reserved": 0, "type": "electric_scooter"}, {"fusion_lat": 0.0, "name": "35ff0359ccdc2867dcdd1ff78e674d1b", "lon": -77.00133983333333, "rental_uris": {"android": "https://dc.lft.to/lastmile_qr_scan", "ios": "https://dc.lft.to/lastmile_qr_scan"}, "fusion_lon": 0.0, "bike_id": "35ff0359ccdc2867dcdd1ff78e674d1b", "is_disabled": 0, "lat": 38.8736165, "is_reserved": 0, "type": "electric_scooter"}, {"fusion_lat": 0.0, "name": "7d79835576e4a6b2cc286569908bb54a", "lon": -77.02825933333334, "rental_uris": {"android": "https://dc.lft.to/lastmile_qr_scan", "ios": "https://dc.lft.to/lastmile_qr_scan"}, "fusion_lon": 0.0, "bike_id": "7d79835576e4a6b2cc286569908bb54a", "is_disabled": 0, "lat": 38.93883183333333, "is_reserved": 0, "type": "electric_scooter"}, {"fusion_lat": 0.0, "name": "903c74f54cd10eb1219c5bc3566d77b0", "lon": -77.02650266666667, "rental_uris": {"android": "https://dc.lft.to/lastmile_qr_scan", "ios": "https://dc.lft.to/lastmile_qr_scan"}, "fusion_lon": 0.0, "bike_id": "903c74f54cd10eb1219c5bc3566d77b0", "is_disabled": 0, "lat": 38.93857533333333, "is_reserved": 0, "type": "electric_scooter"}, {"fusion_lat": 0.0, "name": "93ad83857673260f623f1d8d85b4ae53", "lon": -77.02735633333333, "rental_uris": {"android": "https://dc.lft.to/lastmile_qr_scan", "ios": "https://dc.lft.to/lastmile_qr_scan"}, "fusion_lon": 0.0, "bike_id": "93ad83857673260f623f1d8d85b4ae53", "is_disabled": 0, "lat": 38.88744066666667, "is_reserved": 0, "type": "electric_scooter"}, {"fusion_lat": 0.0, "name": "439b1ecb8ca49325c2795dd3cdf33fea", "lon": -76.95472066666666, "rental_uris": {"android": "https://dc.lft.to/lastmile_qr_scan", "ios": "https://dc.lft.to/lastmile_qr_scan"}, "fusion_lon": 0.0, "bike_id": "439b1ecb8ca49325c2795dd3cdf33fea", "is_disabled": 0, "lat": 38.8867505, "is_reserved": 0, "type": "electric_scooter"}, {"fusion_lat": 0.0, "name": "b92739ecae7c7fad45583b3cae144f4a", "lon": -77.015207, "rental_uris": {"android": "https://dc.lft.to/lastmile_qr_scan", "ios": "https://dc.lft.to/lastmile_qr_scan"}, "fusion_lon": 0.0, "bike_id": "b92739ecae7c7fad45583b3cae144f4a", "is_disabled": 0, "lat": 38.892361, "is_reserved": 0, "type": "electric_scooter"}, {"fusion_lat": 0.0, "name": "462365df5aeb37d4435e80aab7c16036", "lon": -77.02804833333333, "rental_uris": {"android": "https://dc.lft.to/lastmile_qr_scan", "ios": "https://dc.lft.to/lastmile_qr_scan"}, "fusion_lon": 0.0, "bike_id": "462365df5aeb37d4435e80aab7c16036", "is_disabled": 0, "lat": 38.93080466666667, "is_reserved": 0, "type": "electric_scooter"}, {"fusion_lat": 0.0, "name": "eb2fa5c31eef03db41a3876c4def3c7e", "lon": -77.04355966666667, "rental_uris": {"android": "https://dc.lft.to/lastmile_qr_scan", "ios": "https://dc.lft.to/lastmile_qr_scan"}, "fusion_lon": 0.0, "bike_id": "eb2fa5c31eef03db41a3876c4def3c7e", "is_disabled": 0, "lat": 38.90420433333333, "is_reserved": 0, "type": "electric_scooter"}, {"fusion_lat": 0.0, "name": "c2c1bee6c8f798d9f6e9c9d7686f6417", "lon": -76.99002183333333, "rental_uris": {"android": "https://dc.lft.to/lastmile_qr_scan", "ios": "https://dc.lft.to/lastmile_qr_scan"}, "fusion_lon": 0.0, "bike_id": "c2c1bee6c8f798d9f6e9c9d7686f6417", "is_disabled": 0, "lat": 38.86499716666667, "is_reserved": 0, "type": "electric_scooter"}, {"fusion_lat": 0.0, "name": "6e1528b7decd7d6698eee32807cfefa1", "lon": -77.05919833333333, "rental_uris": {"android": "https://dc.lft.to/lastmile_qr_scan", "ios": "https://dc.lft.to/lastmile_qr_scan"}, "fusion_lon": 0.0, "bike_id": "6e1528b7decd7d6698eee32807cfefa1", "is_disabled": 0, "lat": 38.905271666666664, "is_reserved": 0, "type": "electric_scooter"}, {"fusion_lat": 0.0, "name": "e32a667ee980cd5c678192a2a319a8b7", "lon": -76.99115283333333, "rental_uris": {"android": "https://dc.lft.to/lastmile_qr_scan", "ios": "https://dc.lft.to/lastmile_qr_scan"}, "fusion_lon": 0.0, "bike_id": "e32a667ee980cd5c678192a2a319a8b7", "is_disabled": 0, "lat": 38.905599, "is_reserved": 0, "type": "electric_scooter"}, {"fusion_lat": 0.0, "name": "3e02d8e2dda43f49c865e792665f9116", "lon": -77.037612, "rental_uris": {"android": "https://dc.lft.to/lastmile_qr_scan", "ios": "https://dc.lft.to/lastmile_qr_scan"}, "fusion_lon": 0.0, "bike_id": "3e02d8e2dda43f49c865e792665f9116", "is_disabled": 0, "lat": 38.93072766666667, "is_reserved": 0, "type": "electric_scooter"}, {"fusion_lat": 0.0, "name": "04e213027299f626f931bbab570cbfb1", "lon": -77.04333483333333, "rental_uris": {"android": "https://dc.lft.to/lastmile_qr_scan", "ios": "https://dc.lft.to/lastmile_qr_scan"}, "fusion_lon": 0.0, "bike_id": "04e213027299f626f931bbab570cbfb1", "is_disabled": 0, "lat": 38.90107833333333, "is_reserved": 0, "type": "electric_scooter"}, {"fusion_lat": 0.0, "name": "21e1dfd780169b92dd59b809a51ad620", "lon": -76.993293, "rental_uris": {"android": "https://dc.lft.to/lastmile_qr_scan", "ios": "https://dc.lft.to/lastmile_qr_scan"}, "fusion_lon": 0.0, "bike_id": "21e1dfd780169b92dd59b809a51ad620", "is_disabled": 0, "lat": 38.87142816666667, "is_reserved": 0, "type": "electric_scooter"}, {"fusion_lat": 0.0, "name": "88a13ef6d02fb046cd5df5c03dd9d38a", "lon": -77.08183066666666, "rental_uris": {"android": "https://dc.lft.to/lastmile_qr_scan", "ios": "https://dc.lft.to/lastmile_qr_scan"}, "fusion_lon": 0.0, "bike_id": "88a13ef6d02fb046cd5df5c03dd9d38a", "is_disabled": 0, "lat": 38.93532316666667, "is_reserved": 0, "type": "electric_bike"}, {"fusion_lat": 0.0, "name": "300ae81eb4434a437ffe6e86ecf021e0", "lon": -77.02792016666666, "rental_uris": {"android": "https://dc.lft.to/lastmile_qr_scan", "ios": "https://dc.lft.to/lastmile_qr_scan"}, "fusion_lon": 0.0, "bike_id": "300ae81eb4434a437ffe6e86ecf021e0", "is_disabled": 0, "lat": 38.930842166666665, "is_reserved": 0, "type": "electric_scooter"}, {"fusion_lat": 0.0, "name": "d2d4a6e7d0ab03f5508954d5c18e8ba1", "lon": -77.011154, "rental_uris": {"android": "https://dc.lft.to/lastmile_qr_scan", "ios": "https://dc.lft.to/lastmile_qr_scan"}, "fusion_lon": 0.0, "bike_id": "d2d4a6e7d0ab03f5508954d5c18e8ba1", "is_disabled": 0, "lat": 38.920254666666665, "is_reserved": 0, "type": "electric_scooter"}, {"fusion_lat": 0.0, "name": "6ba568643b6110f8bf0b8fa6eb74d29a", "lon": -77.05710983333333, "rental_uris": {"android": "https://dc.lft.to/lastmile_qr_scan", "ios": "https://dc.lft.to/lastmile_qr_scan"}, "fusion_lon": 0.0, "bike_id": "6ba568643b6110f8bf0b8fa6eb74d29a", "is_disabled": 0, "lat": 38.93337266666666, "is_reserved": 0, "type": "electric_scooter"}, {"fusion_lat": 0.0, "name": "006dd02bb1c5ffd31479aa26fbb4e5fc", "lon": -77.01967466666666, "rental_uris": {"android": "https://dc.lft.to/lastmile_qr_scan", "ios": "https://dc.lft.to/lastmile_qr_scan"}, "fusion_lon": 0.0, "bike_id": "006dd02bb1c5ffd31479aa26fbb4e5fc", "is_disabled": 0, "lat": 38.87834616666667, "is_reserved": 0, "type": "electric_scooter"}, {"fusion_lat": 0.0, "name": "f26a12dfc210838c209d820fd388903a", "lon": -77.02577216666667, "rental_uris": {"android": "https://dc.lft.to/lastmile_qr_scan", "ios": "https://dc.lft.to/lastmile_qr_scan"}, "fusion_lon": 0.0, "bike_id": "f26a12dfc210838c209d820fd388903a", "is_disabled": 0, "lat": 38.9318395, "is_reserved": 0, "type": "electric_scooter"}, {"fusion_lat": 0.0, "name": "557024f2f782655309147481bbe13401", "lon": -77.02198316666667, "rental_uris": {"android": "https://dc.lft.to/lastmile_qr_scan", "ios": "https://dc.lft.to/lastmile_qr_scan"}, "fusion_lon": 0.0, "bike_id": "557024f2f782655309147481bbe13401", "is_disabled": 0, "lat": 38.91123483333333, "is_reserved": 0, "type": "electric_scooter"}, {"fusion_lat": 0.0, "name": "7d5e238b748924e41c2c81a46bbebb86", "lon": -77.03667066666667, "rental_uris": {"android": "https://dc.lft.to/lastmile_qr_scan", "ios": "https://dc.lft.to/lastmile_qr_scan"}, "fusion_lon": 0.0, "bike_id": "7d5e238b748924e41c2c81a46bbebb86", "is_disabled": 0, "lat": 38.902516, "is_reserved": 0, "type": "electric_scooter"}, {"fusion_lat": 0.0, "name": "3b7c120df7a7218dad458b174f79e11a", "lon": -77.03292566666667, "rental_uris": {"android": "https://dc.lft.to/lastmile_qr_scan", "ios": "https://dc.lft.to/lastmile_qr_scan"}, "fusion_lon": 0.0, "bike_id": "3b7c120df7a7218dad458b174f79e11a", "is_disabled": 0, "lat": 38.956238, "is_reserved": 0, "type": "electric_scooter"}, {"fusion_lat": 0.0, "name": "c4b4a5f307275952599132881f88d938", "lon": -77.02581766666667, "rental_uris": {"android": "https://dc.lft.to/lastmile_qr_scan", "ios": "https://dc.lft.to/lastmile_qr_scan"}, "fusion_lon": 0.0, "bike_id": "c4b4a5f307275952599132881f88d938", "is_disabled": 0, "lat": 38.91488566666666, "is_reserved": 0, "type": "electric_scooter"}, {"fusion_lat": 0.0, "name": "8c026e0eb89f99c8deb1514f857fe933", "lon": -77.05863433333333, "rental_uris": {"android": "https://dc.lft.to/lastmile_qr_scan", "ios": "https://dc.lft.to/lastmile_qr_scan"}, "fusion_lon": 0.0, "bike_id": "8c026e0eb89f99c8deb1514f857fe933", "is_disabled": 0, "lat": 38.9360265, "is_reserved": 0, "type": "electric_scooter"}, {"fusion_lat": 0.0, "name": "4e28289ee17f42e79d1821579fabc3da", "lon": -77.03084, "rental_uris": {"android": "https://dc.lft.to/lastmile_qr_scan", "ios": "https://dc.lft.to/lastmile_qr_scan"}, "fusion_lon": 0.0, "bike_id": "4e28289ee17f42e79d1821579fabc3da", "is_disabled": 0, "lat": 38.9330635, "is_reserved": 0, "type": "electric_scooter"}, {"fusion_lat": 0.0, "name": "f8e2af9928bdeb9827f053a3b6d19c19", "lon": -77.0236, "rental_uris": {"android": "https://dc.lft.to/lastmile_qr_scan", "ios": "https://dc.lft.to/lastmile_qr_scan"}, "fusion_lon": 0.0, "bike_id": "f8e2af9928bdeb9827f053a3b6d19c19", "is_disabled": 0, "lat": 38.92054916666667, "is_reserved": 0, "type": "electric_scooter"}, {"fusion_lat": 0.0, "name": "58f0531e3c7315e1a66cab94df9d030e", "lon": -77.03774916666667, "rental_uris": {"android": "https://dc.lft.to/lastmile_qr_scan", "ios": "https://dc.lft.to/lastmile_qr_scan"}, "fusion_lon": 0.0, "bike_id": "58f0531e3c7315e1a66cab94df9d030e", "is_disabled": 0, "lat": 38.916880666666664, "is_reserved": 0, "type": "electric_scooter"}, {"fusion_lat": 0.0, "name": "6663dfe2bb0ff8c1066e241efd185aad", "lon": -77.0326075, "rental_uris": {"android": "https://dc.lft.to/lastmile_qr_scan", "ios": "https://dc.lft.to/lastmile_qr_scan"}, "fusion_lon": 0.0, "bike_id": "6663dfe2bb0ff8c1066e241efd185aad", "is_disabled": 0, "lat": 38.93983266666667, "is_reserved": 0, "type": "electric_scooter"}, {"fusion_lat": 0.0, "name": "fa3a0dcbbaca5c93a59517e9d358d1da", "lon": -77.04875716666666, "rental_uris": {"android": "https://dc.lft.to/lastmile_qr_scan", "ios": "https://dc.lft.to/lastmile_qr_scan"}, "fusion_lon": 0.0, "bike_id": "fa3a0dcbbaca5c93a59517e9d358d1da", "is_disabled": 0, "lat": 38.892304833333334, "is_reserved": 0, "type": "electric_scooter"}, {"fusion_lat": 0.0, "name": "251852363bc6ce2a8b651492e26250a0", "lon": -77.007087, "rental_uris": {"android": "https://dc.lft.to/lastmile_qr_scan", "ios": "https://dc.lft.to/lastmile_qr_scan"}, "fusion_lon": 0.0, "bike_id": "251852363bc6ce2a8b651492e26250a0", "is_disabled": 0, "lat": 38.95759433333333, "is_reserved": 0, "type": "electric_bike"}, {"fusion_lat": 0.0, "name": "c5612c5d944d5f7ac8ff066df88cb3d6", "lon": -76.94888066666667, "rental_uris": {"android": "https://dc.lft.to/lastmile_qr_scan", "ios": "https://dc.lft.to/lastmile_qr_scan"}, "fusion_lon": 0.0, "bike_id": "c5612c5d944d5f7ac8ff066df88cb3d6", "is_disabled": 0, "lat": 38.8950745, "is_reserved": 0, "type": "electric_scooter"}, {"fusion_lat": 0.0, "name": "11ae24db15615256636052bb76ff7d51", "lon": -77.01968583333333, "rental_uris": {"android": "https://dc.lft.to/lastmile_qr_scan", "ios": "https://dc.lft.to/lastmile_qr_scan"}, "fusion_lon": 0.0, "bike_id": "11ae24db15615256636052bb76ff7d51", "is_disabled": 0, "lat": 38.8862135, "is_reserved": 0, "type": "electric_scooter"}, {"fusion_lat": 0.0, "name": "f36a4d43945df57ee92b835d73dbbc3f", "lon": -77.0119715, "rental_uris": {"android": "https://dc.lft.to/lastmile_qr_scan", "ios": "https://dc.lft.to/lastmile_qr_scan"}, "fusion_lon": 0.0, "bike_id": "f36a4d43945df57ee92b835d73dbbc3f", "is_disabled": 0, "lat": 38.91545416666666, "is_reserved": 0, "type": "electric_scooter"}, {"fusion_lat": 0.0, "name": "f9be83bf53d0de3ef5984bef7eaf6c99", "lon": -77.05894083333334, "rental_uris": {"android": "https://dc.lft.to/lastmile_qr_scan", "ios": "https://dc.lft.to/lastmile_qr_scan"}, "fusion_lon": 0.0, "bike_id": "f9be83bf53d0de3ef5984bef7eaf6c99", "is_disabled": 0, "lat": 38.936075, "is_reserved": 0, "type": "electric_scooter"}, {"fusion_lat": 0.0, "name": "53d33b01520c671692bce360fb7236f7", "lon": -77.02391783333333, "rental_uris": {"android": "https://dc.lft.to/lastmile_qr_scan", "ios": "https://dc.lft.to/lastmile_qr_scan"}, "fusion_lon": 0.0, "bike_id": "53d33b01520c671692bce360fb7236f7", "is_disabled": 0, "lat": 38.91959816666667, "is_reserved": 0, "type": "electric_scooter"}, {"fusion_lat": 0.0, "name": "c6944c1cbbf2624f15e3efe1d52db997", "lon": -77.05007716666667, "rental_uris": {"android": "https://dc.lft.to/lastmile_qr_scan", "ios": "https://dc.lft.to/lastmile_qr_scan"}, "fusion_lon": 0.0, "bike_id": "c6944c1cbbf2624f15e3efe1d52db997", "is_disabled": 0, "lat": 38.904181666666666, "is_reserved": 0, "type": "electric_scooter"}, {"fusion_lat": 0.0, "name": "53c11e3825b7ab34d3c228af7aad4290", "lon": -76.93196066666667, "rental_uris": {"android": "https://dc.lft.to/lastmile_qr_scan", "ios": "https://dc.lft.to/lastmile_qr_scan"}, "fusion_lon": 0.0, "bike_id": "53c11e3825b7ab34d3c228af7aad4290", "is_disabled": 0, "lat": 38.89875, "is_reserved": 0, "type": "electric_scooter"}, {"fusion_lat": 0.0, "name": "7f5f34c80e7af9ee40fe98cf05d38504", "lon": -76.99002633333333, "rental_uris": {"android": "https://dc.lft.to/lastmile_qr_scan", "ios": "https://dc.lft.to/lastmile_qr_scan"}, "fusion_lon": 0.0, "bike_id": "7f5f34c80e7af9ee40fe98cf05d38504", "is_disabled": 0, "lat": 38.865012166666666, "is_reserved": 0, "type": "electric_scooter"}, {"fusion_lat": 0.0, "name": "2c4fda7fbad332cbc1f1ff27db5f4d20", "lon": -77.04422366666667, "rental_uris": {"android": "https://dc.lft.to/lastmile_qr_scan", "ios": "https://dc.lft.to/lastmile_qr_scan"}, "fusion_lon": 0.0, "bike_id": "2c4fda7fbad332cbc1f1ff27db5f4d20", "is_disabled": 0, "lat": 38.911233, "is_reserved": 0, "type": "electric_scooter"}, {"fusion_lat": 0.0, "name": "e022ef4611668a675bd5845cb55457fc", "lon": -77.014264, "rental_uris": {"android": "https://dc.lft.to/lastmile_qr_scan", "ios": "https://dc.lft.to/lastmile_qr_scan"}, "fusion_lon": 0.0, "bike_id": "e022ef4611668a675bd5845cb55457fc", "is_disabled": 0, "lat": 38.9523095, "is_reserved": 0, "type": "electric_scooter"}, {"fusion_lat": 0.0, "name": "6a72e34ede006600d6e0fc13726191c6", "lon": -77.023039, "rental_uris": {"android": "https://dc.lft.to/lastmile_qr_scan", "ios": "https://dc.lft.to/lastmile_qr_scan"}, "fusion_lon": 0.0, "bike_id": "6a72e34ede006600d6e0fc13726191c6", "is_disabled": 0, "lat": 38.92770066666667, "is_reserved": 0, "type": "electric_scooter"}, {"fusion_lat": 0.0, "name": "cf42b6153b3bf8627d1b6c2d3c7b1d25", "lon": -77.021718, "rental_uris": {"android": "https://dc.lft.to/lastmile_qr_scan", "ios": "https://dc.lft.to/lastmile_qr_scan"}, "fusion_lon": 0.0, "bike_id": "cf42b6153b3bf8627d1b6c2d3c7b1d25", "is_disabled": 0, "lat": 38.91432733333333, "is_reserved": 0, "type": "electric_scooter"}, {"fusion_lat": 0.0, "name": "44ca917aa7596ec4c374561b0aa0266e", "lon": -77.0041, "rental_uris": {"android": "https://dc.lft.to/lastmile_qr_scan", "ios": "https://dc.lft.to/lastmile_qr_scan"}, "fusion_lon": 0.0, "bike_id": "44ca917aa7596ec4c374561b0aa0266e", "is_disabled": 0, "lat": 38.93081216666667, "is_reserved": 0, "type": "electric_scooter"}, {"fusion_lat": 0.0, "name": "9164aab5f97e1baf1b617166e447553c", "lon": -77.04501583333334, "rental_uris": {"android": "https://dc.lft.to/lastmile_qr_scan", "ios": "https://dc.lft.to/lastmile_qr_scan"}, "fusion_lon": 0.0, "bike_id": "9164aab5f97e1baf1b617166e447553c", "is_disabled": 0, "lat": 38.900163, "is_reserved": 0, "type": "electric_scooter"}, {"fusion_lat": 0.0, "name": "73876ef1bb9fe8cebfba7c5f90731148", "lon": -77.03793733333333, "rental_uris": {"android": "https://dc.lft.to/lastmile_qr_scan", "ios": "https://dc.lft.to/lastmile_qr_scan"}, "fusion_lon": 0.0, "bike_id": "73876ef1bb9fe8cebfba7c5f90731148", "is_disabled": 0, "lat": 38.91540766666667, "is_reserved": 0, "type": "electric_scooter"}, {"fusion_lat": 0.0, "name": "c03fb8f6b2c99cda677d75f2a19fc62e", "lon": -77.04644883333333, "rental_uris": {"android": "https://dc.lft.to/lastmile_qr_scan", "ios": "https://dc.lft.to/lastmile_qr_scan"}, "fusion_lon": 0.0, "bike_id": "c03fb8f6b2c99cda677d75f2a19fc62e", "is_disabled": 0, "lat": 38.92103483333333, "is_reserved": 0, "type": "electric_scooter"}, {"fusion_lat": 0.0, "name": "a05730f47a4b92b25ad8844e9d3e6c2f", "lon": -77.03384566666666, "rental_uris": {"android": "https://dc.lft.to/lastmile_qr_scan", "ios": "https://dc.lft.to/lastmile_qr_scan"}, "fusion_lon": 0.0, "bike_id": "a05730f47a4b92b25ad8844e9d3e6c2f", "is_disabled": 0, "lat": 38.9053805, "is_reserved": 0, "type": "electric_scooter"}, {"fusion_lat": 0.0, "name": "a3189e1f9bfa69a9154281986b4ac05d", "lon": -77.06101116666666, "rental_uris": {"android": "https://dc.lft.to/lastmile_qr_scan", "ios": "https://dc.lft.to/lastmile_qr_scan"}, "fusion_lon": 0.0, "bike_id": "a3189e1f9bfa69a9154281986b4ac05d", "is_disabled": 0, "lat": 38.937013, "is_reserved": 0, "type": "electric_scooter"}, {"fusion_lat": 0.0, "name": "c50a92c139f0d5d7da4864da045bb496", "lon": -76.95894433333333, "rental_uris": {"android": "https://dc.lft.to/lastmile_qr_scan", "ios": "https://dc.lft.to/lastmile_qr_scan"}, "fusion_lon": 0.0, "bike_id": "c50a92c139f0d5d7da4864da045bb496", "is_disabled": 0, "lat": 38.89007316666667, "is_reserved": 0, "type": "electric_scooter"}, {"fusion_lat": 0.0, "name": "ab92816fd7daf5ddd78ee24a27fef416", "lon": -77.03379016666666, "rental_uris": {"android": "https://dc.lft.to/lastmile_qr_scan", "ios": "https://dc.lft.to/lastmile_qr_scan"}, "fusion_lon": 0.0, "bike_id": "ab92816fd7daf5ddd78ee24a27fef416", "is_disabled": 0, "lat": 38.921480333333335, "is_reserved": 0, "type": "electric_scooter"}, {"fusion_lat": 0.0, "name": "2e932a57ecba23ca2d1001fe41c7b287", "lon": -77.05132, "rental_uris": {"android": "https://dc.lft.to/lastmile_qr_scan", "ios": "https://dc.lft.to/lastmile_qr_scan"}, "fusion_lon": 0.0, "bike_id": "2e932a57ecba23ca2d1001fe41c7b287", "is_disabled": 0, "lat": 38.92360633333333, "is_reserved": 0, "type": "electric_scooter"}, {"fusion_lat": 0.0, "name": "84aee214d0dbd36637f0cfe5f0328472", "lon": -77.0013815, "rental_uris": {"android": "https://dc.lft.to/lastmile_qr_scan", "ios": "https://dc.lft.to/lastmile_qr_scan"}, "fusion_lon": 0.0, "bike_id": "84aee214d0dbd36637f0cfe5f0328472", "is_disabled": 0, "lat": 38.89471866666667, "is_reserved": 0, "type": "electric_scooter"}, {"fusion_lat": 0.0, "name": "0f5856275cce6f4269db86de61226ea6", "lon": -77.04156916666666, "rental_uris": {"android": "https://dc.lft.to/lastmile_qr_scan", "ios": "https://dc.lft.to/lastmile_qr_scan"}, "fusion_lon": 0.0, "bike_id": "0f5856275cce6f4269db86de61226ea6", "is_disabled": 0, "lat": 38.91744666666666, "is_reserved": 0, "type": "electric_scooter"}, {"fusion_lat": 0.0, "name": "c36eafc1ad0054e963113febb107ec38", "lon": -77.02416583333333, "rental_uris": {"android": "https://dc.lft.to/lastmile_qr_scan", "ios": "https://dc.lft.to/lastmile_qr_scan"}, "fusion_lon": 0.0, "bike_id": "c36eafc1ad0054e963113febb107ec38", "is_disabled": 0, "lat": 38.9379815, "is_reserved": 0, "type": "electric_bike"}, {"fusion_lat": 0.0, "name": "f73e2de4372287482496f581d97194b2", "lon": -77.03966333333334, "rental_uris": {"android": "https://dc.lft.to/lastmile_qr_scan", "ios": "https://dc.lft.to/lastmile_qr_scan"}, "fusion_lon": 0.0, "bike_id": "f73e2de4372287482496f581d97194b2", "is_disabled": 0, "lat": 38.90242816666667, "is_reserved": 0, "type": "electric_scooter"}, {"fusion_lat": 0.0, "name": "84cb77bc8e6f2210475d19f33e97d5fb", "lon": -77.0420195, "rental_uris": {"android": "https://dc.lft.to/lastmile_qr_scan", "ios": "https://dc.lft.to/lastmile_qr_scan"}, "fusion_lon": 0.0, "bike_id": "84cb77bc8e6f2210475d19f33e97d5fb", "is_disabled": 0, "lat": 38.907531, "is_reserved": 0, "type": "electric_scooter"}, {"fusion_lat": 0.0, "name": "988581c72d4b77f6e138cfa80e8f8acc", "lon": -77.02655233333333, "rental_uris": {"android": "https://dc.lft.to/lastmile_qr_scan", "ios": "https://dc.lft.to/lastmile_qr_scan"}, "fusion_lon": 0.0, "bike_id": "988581c72d4b77f6e138cfa80e8f8acc", "is_disabled": 0, "lat": 38.93271466666667, "is_reserved": 0, "type": "electric_scooter"}, {"fusion_lat": 0.0, "name": "fbfa9f3705f1f7705008acc5e2bbf0b0", "lon": -77.03265816666666, "rental_uris": {"android": "https://dc.lft.to/lastmile_qr_scan", "ios": "https://dc.lft.to/lastmile_qr_scan"}, "fusion_lon": 0.0, "bike_id": "fbfa9f3705f1f7705008acc5e2bbf0b0", "is_disabled": 0, "lat": 38.921691833333334, "is_reserved": 0, "type": "electric_scooter"}, {"fusion_lat": 0.0, "name": "aa8da0b7825441f95550ae948bfab276", "lon": -77.00017366666667, "rental_uris": {"android": "https://dc.lft.to/lastmile_qr_scan", "ios": "https://dc.lft.to/lastmile_qr_scan"}, "fusion_lon": 0.0, "bike_id": "aa8da0b7825441f95550ae948bfab276", "is_disabled": 0, "lat": 38.873979, "is_reserved": 0, "type": "electric_scooter"}, {"fusion_lat": 0.0, "name": "299bd94d696884dfa3faf2a32f49712c", "lon": -77.03524066666667, "rental_uris": {"android": "https://dc.lft.to/lastmile_qr_scan", "ios": "https://dc.lft.to/lastmile_qr_scan"}, "fusion_lon": 0.0, "bike_id": "299bd94d696884dfa3faf2a32f49712c", "is_disabled": 0, "lat": 38.91581716666666, "is_reserved": 0, "type": "electric_scooter"}, {"fusion_lat": 0.0, "name": "cac3a65223b82614b40982bf02036b72", "lon": -77.03642366666666, "rental_uris": {"android": "https://dc.lft.to/lastmile_qr_scan", "ios": "https://dc.lft.to/lastmile_qr_scan"}, "fusion_lon": 0.0, "bike_id": "cac3a65223b82614b40982bf02036b72", "is_disabled": 0, "lat": 38.92273433333333, "is_reserved": 0, "type": "electric_scooter"}, {"fusion_lat": 0.0, "name": "70fa86e53aa05c1aa90b9914a3a7fa0e", "lon": -76.9992995, "rental_uris": {"android": "https://dc.lft.to/lastmile_qr_scan", "ios": "https://dc.lft.to/lastmile_qr_scan"}, "fusion_lon": 0.0, "bike_id": "70fa86e53aa05c1aa90b9914a3a7fa0e", "is_disabled": 0, "lat": 38.84313083333333, "is_reserved": 0, "type": "electric_scooter"}, {"fusion_lat": 0.0, "name": "8e1fa38cdf4f411d57696d226c7000cd", "lon": -77.04529616666666, "rental_uris": {"android": "https://dc.lft.to/lastmile_qr_scan", "ios": "https://dc.lft.to/lastmile_qr_scan"}, "fusion_lon": 0.0, "bike_id": "8e1fa38cdf4f411d57696d226c7000cd", "is_disabled": 0, "lat": 38.90060733333333, "is_reserved": 0, "type": "electric_scooter"}, {"fusion_lat": 0.0, "name": "2f9c3c8e9d2cf5e3a5e514d406345784", "lon": -77.02797916666667, "rental_uris": {"android": "https://dc.lft.to/lastmile_qr_scan", "ios": "https://dc.lft.to/lastmile_qr_scan"}, "fusion_lon": 0.0, "bike_id": "2f9c3c8e9d2cf5e3a5e514d406345784", "is_disabled": 0, "lat": 38.91219316666667, "is_reserved": 0, "type": "electric_scooter"}, {"fusion_lat": 0.0, "name": "049fe5195e7e76d05b5709be7611f9ac", "lon": -77.05152433333333, "rental_uris": {"android": "https://dc.lft.to/lastmile_qr_scan", "ios": "https://dc.lft.to/lastmile_qr_scan"}, "fusion_lon": 0.0, "bike_id": "049fe5195e7e76d05b5709be7611f9ac", "is_disabled": 0, "lat": 38.906081, "is_reserved": 0, "type": "electric_scooter"}, {"fusion_lat": 0.0, "name": "b38f277756404d39bd74f77e7c7f6849", "lon": -77.04355533333333, "rental_uris": {"android": "https://dc.lft.to/lastmile_qr_scan", "ios": "https://dc.lft.to/lastmile_qr_scan"}, "fusion_lon": 0.0, "bike_id": "b38f277756404d39bd74f77e7c7f6849", "is_disabled": 0, "lat": 38.897236166666666, "is_reserved": 0, "type": "electric_scooter"}, {"fusion_lat": 0.0, "name": "361b96d35a99d885de3fe782a2a86f1b", "lon": -77.00605383333334, "rental_uris": {"android": "https://dc.lft.to/lastmile_qr_scan", "ios": "https://dc.lft.to/lastmile_qr_scan"}, "fusion_lon": 0.0, "bike_id": "361b96d35a99d885de3fe782a2a86f1b", "is_disabled": 0, "lat": 38.87178216666667, "is_reserved": 0, "type": "electric_scooter"}, {"fusion_lat": 0.0, "name": "52c632be73c37cfea029207fea24aab7", "lon": -77.0326225, "rental_uris": {"android": "https://dc.lft.to/lastmile_qr_scan", "ios": "https://dc.lft.to/lastmile_qr_scan"}, "fusion_lon": 0.0, "bike_id": "52c632be73c37cfea029207fea24aab7", "is_disabled": 0, "lat": 38.93205233333333, "is_reserved": 0, "type": "electric_scooter"}, {"fusion_lat": 0.0, "name": "deb41e3ff3e86ff81d80cffe37a2b39d", "lon": -77.03313383333334, "rental_uris": {"android": "https://dc.lft.to/lastmile_qr_scan", "ios": "https://dc.lft.to/lastmile_qr_scan"}, "fusion_lon": 0.0, "bike_id": "deb41e3ff3e86ff81d80cffe37a2b39d", "is_disabled": 0, "lat": 38.9289945, "is_reserved": 0, "type": "electric_scooter"}, {"fusion_lat": 0.0, "name": "ecae918f0b29db7f7093046ad2ca57c7", "lon": -77.02846366666667, "rental_uris": {"android": "https://dc.lft.to/lastmile_qr_scan", "ios": "https://dc.lft.to/lastmile_qr_scan"}, "fusion_lon": 0.0, "bike_id": "ecae918f0b29db7f7093046ad2ca57c7", "is_disabled": 0, "lat": 38.90135716666666, "is_reserved": 0, "type": "electric_scooter"}, {"fusion_lat": 0.0, "name": "4fcdaea8eed61218dfa49b1e9a6fc65d", "lon": -77.02863033333334, "rental_uris": {"android": "https://dc.lft.to/lastmile_qr_scan", "ios": "https://dc.lft.to/lastmile_qr_scan"}, "fusion_lon": 0.0, "bike_id": "4fcdaea8eed61218dfa49b1e9a6fc65d", "is_disabled": 0, "lat": 38.898451, "is_reserved": 0, "type": "electric_scooter"}, {"fusion_lat": 0.0, "name": "d9288d7681c11b2de1c71760686a3763", "lon": -76.98715266666666, "rental_uris": {"android": "https://dc.lft.to/lastmile_qr_scan", "ios": "https://dc.lft.to/lastmile_qr_scan"}, "fusion_lon": 0.0, "bike_id": "d9288d7681c11b2de1c71760686a3763", "is_disabled": 0, "lat": 38.86697483333333, "is_reserved": 0, "type": "electric_scooter"}, {"fusion_lat": 0.0, "name": "beba4f50f77ac32b7b886e1e50e63de7", "lon": -77.07269133333334, "rental_uris": {"android": "https://dc.lft.to/lastmile_qr_scan", "ios": "https://dc.lft.to/lastmile_qr_scan"}, "fusion_lon": 0.0, "bike_id": "beba4f50f77ac32b7b886e1e50e63de7", "is_disabled": 0, "lat": 38.909162, "is_reserved": 0, "type": "electric_scooter"}, {"fusion_lat": 0.0, "name": "71f48dfcd8bc2a3872a1ad7a46956b93", "lon": -77.0350095, "rental_uris": {"android": "https://dc.lft.to/lastmile_qr_scan", "ios": "https://dc.lft.to/lastmile_qr_scan"}, "fusion_lon": 0.0, "bike_id": "71f48dfcd8bc2a3872a1ad7a46956b93", "is_disabled": 0, "lat": 38.92334233333333, "is_reserved": 0, "type": "electric_scooter"}, {"fusion_lat": 0.0, "name": "e2b84bde90e39e8245467fd91acac817", "lon": -77.031477, "rental_uris": {"android": "https://dc.lft.to/lastmile_qr_scan", "ios": "https://dc.lft.to/lastmile_qr_scan"}, "fusion_lon": 0.0, "bike_id": "e2b84bde90e39e8245467fd91acac817", "is_disabled": 0, "lat": 38.9182185, "is_reserved": 0, "type": "electric_scooter"}, {"fusion_lat": 0.0, "name": "32cc0eb6ad8c26908e25600233e53f1a", "lon": -77.0589535, "rental_uris": {"android": "https://dc.lft.to/lastmile_qr_scan", "ios": "https://dc.lft.to/lastmile_qr_scan"}, "fusion_lon": 0.0, "bike_id": "32cc0eb6ad8c26908e25600233e53f1a", "is_disabled": 0, "lat": 38.90314733333334, "is_reserved": 0, "type": "electric_scooter"}, {"fusion_lat": 0.0, "name": "979d6f5cc9b544f30293e23cad290be4", "lon": -77.0168265, "rental_uris": {"android": "https://dc.lft.to/lastmile_qr_scan", "ios": "https://dc.lft.to/lastmile_qr_scan"}, "fusion_lon": 0.0, "bike_id": "979d6f5cc9b544f30293e23cad290be4", "is_disabled": 0, "lat": 38.9750155, "is_reserved": 0, "type": "electric_scooter"}, {"fusion_lat": 0.0, "name": "f6d00a11e97c54125c446192648988ec", "lon": -77.0692875, "rental_uris": {"android": "https://dc.lft.to/lastmile_qr_scan", "ios": "https://dc.lft.to/lastmile_qr_scan"}, "fusion_lon": 0.0, "bike_id": "f6d00a11e97c54125c446192648988ec", "is_disabled": 0, "lat": 38.913566833333334, "is_reserved": 0, "type": "electric_scooter"}, {"fusion_lat": 0.0, "name": "d7f04e03f0a6ebfea9f645b0e677623c", "lon": -77.04209416666667, "rental_uris": {"android": "https://dc.lft.to/lastmile_qr_scan", "ios": "https://dc.lft.to/lastmile_qr_scan"}, "fusion_lon": 0.0, "bike_id": "d7f04e03f0a6ebfea9f645b0e677623c", "is_disabled": 0, "lat": 38.92048716666667, "is_reserved": 0, "type": "electric_scooter"}, {"fusion_lat": 0.0, "name": "9d03eed402677469b90d19f486b25373", "lon": -77.01612066666667, "rental_uris": {"android": "https://dc.lft.to/lastmile_qr_scan", "ios": "https://dc.lft.to/lastmile_qr_scan"}, "fusion_lon": 0.0, "bike_id": "9d03eed402677469b90d19f486b25373", "is_disabled": 0, "lat": 38.90599116666667, "is_reserved": 0, "type": "electric_scooter"}, {"fusion_lat": 0.0, "name": "a86e18869c7e6eab57a8b5e2efebc17c", "lon": -77.05480066666667, "rental_uris": {"android": "https://dc.lft.to/lastmile_qr_scan", "ios": "https://dc.lft.to/lastmile_qr_scan"}, "fusion_lon": 0.0, "bike_id": "a86e18869c7e6eab57a8b5e2efebc17c", "is_disabled": 0, "lat": 38.800119, "is_reserved": 0, "type": "electric_bike"}, {"fusion_lat": 0.0, "name": "f0fdb0ce856c81f771623a2f3de99751", "lon": -77.00586733333333, "rental_uris": {"android": "https://dc.lft.to/lastmile_qr_scan", "ios": "https://dc.lft.to/lastmile_qr_scan"}, "fusion_lon": 0.0, "bike_id": "f0fdb0ce856c81f771623a2f3de99751", "is_disabled": 0, "lat": 38.873003833333335, "is_reserved": 0, "type": "electric_scooter"}, {"fusion_lat": 0.0, "name": "8d7704af3633101a80ae37015fa6823e", "lon": -77.05424133333334, "rental_uris": {"android": "https://dc.lft.to/lastmile_qr_scan", "ios": "https://dc.lft.to/lastmile_qr_scan"}, "fusion_lon": 0.0, "bike_id": "8d7704af3633101a80ae37015fa6823e", "is_disabled": 0, "lat": 38.927971, "is_reserved": 0, "type": "electric_scooter"}, {"fusion_lat": 0.0, "name": "ff65e7af316b4cd921bc3756af069f3e", "lon": -77.0060055, "rental_uris": {"android": "https://dc.lft.to/lastmile_qr_scan", "ios": "https://dc.lft.to/lastmile_qr_scan"}, "fusion_lon": 0.0, "bike_id": "ff65e7af316b4cd921bc3756af069f3e", "is_disabled": 0, "lat": 38.871769666666665, "is_reserved": 0, "type": "electric_scooter"}, {"fusion_lat": 0.0, "name": "f7816e49855cd9444fbcc1d710e3b557", "lon": -77.01955333333333, "rental_uris": {"android": "https://dc.lft.to/lastmile_qr_scan", "ios": "https://dc.lft.to/lastmile_qr_scan"}, "fusion_lon": 0.0, "bike_id": "f7816e49855cd9444fbcc1d710e3b557", "is_disabled": 0, "lat": 38.923272833333336, "is_reserved": 0, "type": "electric_scooter"}, {"fusion_lat": 0.0, "name": "758cd813553e147acd6e11c4f78388b7", "lon": -77.039584, "rental_uris": {"android": "https://dc.lft.to/lastmile_qr_scan", "ios": "https://dc.lft.to/lastmile_qr_scan"}, "fusion_lon": 0.0, "bike_id": "758cd813553e147acd6e11c4f78388b7", "is_disabled": 0, "lat": 38.89241583333333, "is_reserved": 0, "type": "electric_scooter"}, {"fusion_lat": 0.0, "name": "1520b996aaf8d3e34bee9bf56585accb", "lon": -77.04671816666666, "rental_uris": {"android": "https://dc.lft.to/lastmile_qr_scan", "ios": "https://dc.lft.to/lastmile_qr_scan"}, "fusion_lon": 0.0, "bike_id": "1520b996aaf8d3e34bee9bf56585accb", "is_disabled": 0, "lat": 38.895529, "is_reserved": 0, "type": "electric_scooter"}, {"fusion_lat": 0.0, "name": "a62df624e86d44fb6f2012cb071c0484", "lon": -77.00919316666666, "rental_uris": {"android": "https://dc.lft.to/lastmile_qr_scan", "ios": "https://dc.lft.to/lastmile_qr_scan"}, "fusion_lon": 0.0, "bike_id": "a62df624e86d44fb6f2012cb071c0484", "is_disabled": 0, "lat": 38.922429666666666, "is_reserved": 0, "type": "electric_scooter"}, {"fusion_lat": 0.0, "name": "44782dedbd296eed66a823b13ada6823", "lon": -76.99485283333334, "rental_uris": {"android": "https://dc.lft.to/lastmile_qr_scan", "ios": "https://dc.lft.to/lastmile_qr_scan"}, "fusion_lon": 0.0, "bike_id": "44782dedbd296eed66a823b13ada6823", "is_disabled": 0, "lat": 38.89617783333333, "is_reserved": 0, "type": "electric_scooter"}, {"fusion_lat": 0.0, "name": "68334733c25ad691d442e7c3d725f563", "lon": -77.02847333333334, "rental_uris": {"android": "https://dc.lft.to/lastmile_qr_scan", "ios": "https://dc.lft.to/lastmile_qr_scan"}, "fusion_lon": 0.0, "bike_id": "68334733c25ad691d442e7c3d725f563", "is_disabled": 0, "lat": 38.922389833333334, "is_reserved": 0, "type": "electric_scooter"}, {"fusion_lat": 0.0, "name": "2c7490d86a667840abc8223edf28856f", "lon": -77.0088915, "rental_uris": {"android": "https://dc.lft.to/lastmile_qr_scan", "ios": "https://dc.lft.to/lastmile_qr_scan"}, "fusion_lon": 0.0, "bike_id": "2c7490d86a667840abc8223edf28856f", "is_disabled": 0, "lat": 38.8744845, "is_reserved": 0, "type": "electric_scooter"}, {"fusion_lat": 0.0, "name": "da10bfba2a11bd57a0eddcfc8fe8d5e8", "lon": -77.03147633333333, "rental_uris": {"android": "https://dc.lft.to/lastmile_qr_scan", "ios": "https://dc.lft.to/lastmile_qr_scan"}, "fusion_lon": 0.0, "bike_id": "da10bfba2a11bd57a0eddcfc8fe8d5e8", "is_disabled": 0, "lat": 38.91617983333333, "is_reserved": 0, "type": "electric_scooter"}, {"fusion_lat": 0.0, "name": "b908fa7c7dfe32f89db4dd000290334d", "lon": -77.00941733333333, "rental_uris": {"android": "https://dc.lft.to/lastmile_qr_scan", "ios": "https://dc.lft.to/lastmile_qr_scan"}, "fusion_lon": 0.0, "bike_id": "b908fa7c7dfe32f89db4dd000290334d", "is_disabled": 0, "lat": 38.87628733333333, "is_reserved": 0, "type": "electric_scooter"}, {"fusion_lat": 0.0, "name": "affd05399d7022cb26e4c71c30487c71", "lon": -77.04923616666666, "rental_uris": {"android": "https://dc.lft.to/lastmile_qr_scan", "ios": "https://dc.lft.to/lastmile_qr_scan"}, "fusion_lon": 0.0, "bike_id": "affd05399d7022cb26e4c71c30487c71", "is_disabled": 0, "lat": 38.905394666666666, "is_reserved": 0, "type": "electric_scooter"}, {"fusion_lat": 0.0, "name": "3610f9f33edc3711a7f976cc251a1dc2", "lon": -77.04374416666667, "rental_uris": {"android": "https://dc.lft.to/lastmile_qr_scan", "ios": "https://dc.lft.to/lastmile_qr_scan"}, "fusion_lon": 0.0, "bike_id": "3610f9f33edc3711a7f976cc251a1dc2", "is_disabled": 0, "lat": 38.89220916666667, "is_reserved": 0, "type": "electric_scooter"}, {"fusion_lat": 0.0, "name": "1a413f967b7c791e56afefcff4dc509f", "lon": -76.98510216666666, "rental_uris": {"android": "https://dc.lft.to/lastmile_qr_scan", "ios": "https://dc.lft.to/lastmile_qr_scan"}, "fusion_lon": 0.0, "bike_id": "1a413f967b7c791e56afefcff4dc509f", "is_disabled": 0, "lat": 38.903411166666665, "is_reserved": 0, "type": "electric_scooter"}, {"fusion_lat": 0.0, "name": "a0ff9e4670a068664c7c33c3b6e64341", "lon": -76.92928583333334, "rental_uris": {"android": "https://dc.lft.to/lastmile_qr_scan", "ios": "https://dc.lft.to/lastmile_qr_scan"}, "fusion_lon": 0.0, "bike_id": "a0ff9e4670a068664c7c33c3b6e64341", "is_disabled": 0, "lat": 38.90269216666667, "is_reserved": 0, "type": "electric_bike"}, {"fusion_lat": 0.0, "name": "add28e52457334a406ee79889874208e", "lon": -77.02793, "rental_uris": {"android": "https://dc.lft.to/lastmile_qr_scan", "ios": "https://dc.lft.to/lastmile_qr_scan"}, "fusion_lon": 0.0, "bike_id": "add28e52457334a406ee79889874208e", "is_disabled": 0, "lat": 38.89813266666667, "is_reserved": 0, "type": "electric_scooter"}, {"fusion_lat": 0.0, "name": "2a87eab85d0a4761aefbec517c2fdc31", "lon": -77.0461585, "rental_uris": {"android": "https://dc.lft.to/lastmile_qr_scan", "ios": "https://dc.lft.to/lastmile_qr_scan"}, "fusion_lon": 0.0, "bike_id": "2a87eab85d0a4761aefbec517c2fdc31", "is_disabled": 0, "lat": 38.91545416666666, "is_reserved": 0, "type": "electric_scooter"}, {"fusion_lat": 0.0, "name": "3be1c12b48ef94a231fbd6b7fab2152a", "lon": -76.95013316666666, "rental_uris": {"android": "https://dc.lft.to/lastmile_qr_scan", "ios": "https://dc.lft.to/lastmile_qr_scan"}, "fusion_lon": 0.0, "bike_id": "3be1c12b48ef94a231fbd6b7fab2152a", "is_disabled": 0, "lat": 38.893707666666664, "is_reserved": 0, "type": "electric_scooter"}, {"fusion_lat": 0.0, "name": "d36e1a8065bcee3e0824156993015d7e", "lon": -76.9974275, "rental_uris": {"android": "https://dc.lft.to/lastmile_qr_scan", "ios": "https://dc.lft.to/lastmile_qr_scan"}, "fusion_lon": 0.0, "bike_id": "d36e1a8065bcee3e0824156993015d7e", "is_disabled": 0, "lat": 39.04232833333333, "is_reserved": 0, "type": "electric_bike"}, {"fusion_lat": 0.0, "name": "c20c82576979e46f2cadf50e45d5105d", "lon": -77.045055, "rental_uris": {"android": "https://dc.lft.to/lastmile_qr_scan", "ios": "https://dc.lft.to/lastmile_qr_scan"}, "fusion_lon": 0.0, "bike_id": "c20c82576979e46f2cadf50e45d5105d", "is_disabled": 0, "lat": 38.91105966666667, "is_reserved": 0, "type": "electric_scooter"}, {"fusion_lat": 0.0, "name": "ccd02e22446a8ad0ff50a39edc3a5657", "lon": -76.93536033333334, "rental_uris": {"android": "https://dc.lft.to/lastmile_qr_scan", "ios": "https://dc.lft.to/lastmile_qr_scan"}, "fusion_lon": 0.0, "bike_id": "ccd02e22446a8ad0ff50a39edc3a5657", "is_disabled": 0, "lat": 38.89678083333333, "is_reserved": 0, "type": "electric_scooter"}, {"fusion_lat": 0.0, "name": "4499ac487355d64c8cd9fe08dc28bba3", "lon": -77.0444405, "rental_uris": {"android": "https://dc.lft.to/lastmile_qr_scan", "ios": "https://dc.lft.to/lastmile_qr_scan"}, "fusion_lon": 0.0, "bike_id": "4499ac487355d64c8cd9fe08dc28bba3", "is_disabled": 0, "lat": 38.9115525, "is_reserved": 0, "type": "electric_scooter"}, {"fusion_lat": 0.0, "name": "d4cec50e9de8f01e92b39b34c7471711", "lon": -77.01769633333333, "rental_uris": {"android": "https://dc.lft.to/lastmile_qr_scan", "ios": "https://dc.lft.to/lastmile_qr_scan"}, "fusion_lon": 0.0, "bike_id": "d4cec50e9de8f01e92b39b34c7471711", "is_disabled": 0, "lat": 38.872292, "is_reserved": 0, "type": "electric_scooter"}, {"fusion_lat": 0.0, "name": "62b1d2ff4f56934de4c0370b151d8bd7", "lon": -77.01825566666666, "rental_uris": {"android": "https://dc.lft.to/lastmile_qr_scan", "ios": "https://dc.lft.to/lastmile_qr_scan"}, "fusion_lon": 0.0, "bike_id": "62b1d2ff4f56934de4c0370b151d8bd7", "is_disabled": 0, "lat": 38.900676833333335, "is_reserved": 0, "type": "electric_scooter"}, {"fusion_lat": 0.0, "name": "ebec898f1b4b7f5859494db27252fd6c", "lon": -77.05815583333333, "rental_uris": {"android": "https://dc.lft.to/lastmile_qr_scan", "ios": "https://dc.lft.to/lastmile_qr_scan"}, "fusion_lon": 0.0, "bike_id": "ebec898f1b4b7f5859494db27252fd6c", "is_disabled": 0, "lat": 38.904954833333335, "is_reserved": 0, "type": "electric_scooter"}, {"fusion_lat": 0.0, "name": "db1751944f2382b2517b33f7db37bda5", "lon": -77.00907416666666, "rental_uris": {"android": "https://dc.lft.to/lastmile_qr_scan", "ios": "https://dc.lft.to/lastmile_qr_scan"}, "fusion_lon": 0.0, "bike_id": "db1751944f2382b2517b33f7db37bda5", "is_disabled": 0, "lat": 38.90970466666667, "is_reserved": 0, "type": "electric_scooter"}, {"fusion_lat": 0.0, "name": "9e994ead94d0d23f406351a7323f05d1", "lon": -77.00599916666667, "rental_uris": {"android": "https://dc.lft.to/lastmile_qr_scan", "ios": "https://dc.lft.to/lastmile_qr_scan"}, "fusion_lon": 0.0, "bike_id": "9e994ead94d0d23f406351a7323f05d1", "is_disabled": 0, "lat": 38.87180466666667, "is_reserved": 0, "type": "electric_scooter"}, {"fusion_lat": 0.0, "name": "626f74db475c3aa84e23b0486e3b22ad", "lon": -76.98423333333334, "rental_uris": {"android": "https://dc.lft.to/lastmile_qr_scan", "ios": "https://dc.lft.to/lastmile_qr_scan"}, "fusion_lon": 0.0, "bike_id": "626f74db475c3aa84e23b0486e3b22ad", "is_disabled": 0, "lat": 38.860610333333334, "is_reserved": 0, "type": "electric_scooter"}, {"fusion_lat": 0.0, "name": "4fd5cd00ba4c20462b97bcff86d4585b", "lon": -77.0428795, "rental_uris": {"android": "https://dc.lft.to/lastmile_qr_scan", "ios": "https://dc.lft.to/lastmile_qr_scan"}, "fusion_lon": 0.0, "bike_id": "4fd5cd00ba4c20462b97bcff86d4585b", "is_disabled": 0, "lat": 38.92299216666667, "is_reserved": 0, "type": "electric_scooter"}, {"fusion_lat": 0.0, "name": "ae1fb8602eec5ce307c63f0e055dd98c", "lon": -77.015045, "rental_uris": {"android": "https://dc.lft.to/lastmile_qr_scan", "ios": "https://dc.lft.to/lastmile_qr_scan"}, "fusion_lon": 0.0, "bike_id": "ae1fb8602eec5ce307c63f0e055dd98c", "is_disabled": 0, "lat": 38.94530616666667, "is_reserved": 0, "type": "electric_scooter"}, {"fusion_lat": 0.0, "name": "e504396596f93a8da576721bd72d6cda", "lon": -76.9317645, "rental_uris": {"android": "https://dc.lft.to/lastmile_qr_scan", "ios": "https://dc.lft.to/lastmile_qr_scan"}, "fusion_lon": 0.0, "bike_id": "e504396596f93a8da576721bd72d6cda", "is_disabled": 0, "lat": 38.8988025, "is_reserved": 0, "type": "electric_scooter"}, {"fusion_lat": 0.0, "name": "aaef89e2f6641f68987c83fe966f5451", "lon": -77.04459783333333, "rental_uris": {"android": "https://dc.lft.to/lastmile_qr_scan", "ios": "https://dc.lft.to/lastmile_qr_scan"}, "fusion_lon": 0.0, "bike_id": "aaef89e2f6641f68987c83fe966f5451", "is_disabled": 0, "lat": 38.92301366666667, "is_reserved": 0, "type": "electric_scooter"}, {"fusion_lat": 0.0, "name": "b4141b80eb945967a0c334a001479e21", "lon": -77.05159116666667, "rental_uris": {"android": "https://dc.lft.to/lastmile_qr_scan", "ios": "https://dc.lft.to/lastmile_qr_scan"}, "fusion_lon": 0.0, "bike_id": "b4141b80eb945967a0c334a001479e21", "is_disabled": 0, "lat": 38.90597483333333, "is_reserved": 0, "type": "electric_scooter"}, {"fusion_lat": 0.0, "name": "fc0ef25e0336916b77d394bd4e935e40", "lon": -77.00116933333334, "rental_uris": {"android": "https://dc.lft.to/lastmile_qr_scan", "ios": "https://dc.lft.to/lastmile_qr_scan"}, "fusion_lon": 0.0, "bike_id": "fc0ef25e0336916b77d394bd4e935e40", "is_disabled": 0, "lat": 38.8736215, "is_reserved": 0, "type": "electric_scooter"}, {"fusion_lat": 0.0, "name": "5e6a3e8df083612ae09e93ed650577b3", "lon": -76.98106716666666, "rental_uris": {"android": "https://dc.lft.to/lastmile_qr_scan", "ios": "https://dc.lft.to/lastmile_qr_scan"}, "fusion_lon": 0.0, "bike_id": "5e6a3e8df083612ae09e93ed650577b3", "is_disabled": 0, "lat": 38.87727533333333, "is_reserved": 0, "type": "electric_bike"}, {"fusion_lat": 0.0, "name": "e6a3e1b74516846d933b2cc74156c213", "lon": -77.04000116666667, "rental_uris": {"android": "https://dc.lft.to/lastmile_qr_scan", "ios": "https://dc.lft.to/lastmile_qr_scan"}, "fusion_lon": 0.0, "bike_id": "e6a3e1b74516846d933b2cc74156c213", "is_disabled": 0, "lat": 38.93425466666667, "is_reserved": 0, "type": "electric_scooter"}, {"fusion_lat": 0.0, "name": "d6d1991324d81777df66ec34893726ee", "lon": -76.9752185, "rental_uris": {"android": "https://dc.lft.to/lastmile_qr_scan", "ios": "https://dc.lft.to/lastmile_qr_scan"}, "fusion_lon": 0.0, "bike_id": "d6d1991324d81777df66ec34893726ee", "is_disabled": 0, "lat": 38.84979583333333, "is_reserved": 0, "type": "electric_scooter"}, {"fusion_lat": 0.0, "name": "007df6205d3a19ec97f1139f868c8005", "lon": -77.04859183333333, "rental_uris": {"android": "https://dc.lft.to/lastmile_qr_scan", "ios": "https://dc.lft.to/lastmile_qr_scan"}, "fusion_lon": 0.0, "bike_id": "007df6205d3a19ec97f1139f868c8005", "is_disabled": 0, "lat": 38.904703166666664, "is_reserved": 0, "type": "electric_scooter"}, {"fusion_lat": 0.0, "name": "b667018ba6c96e667711d74440b1746e", "lon": -77.05456616666666, "rental_uris": {"android": "https://dc.lft.to/lastmile_qr_scan", "ios": "https://dc.lft.to/lastmile_qr_scan"}, "fusion_lon": 0.0, "bike_id": "b667018ba6c96e667711d74440b1746e", "is_disabled": 0, "lat": 38.92897816666667, "is_reserved": 0, "type": "electric_scooter"}, {"fusion_lat": 0.0, "name": "0b9dbfd2eae70810d880d6c8d54235d4", "lon": -76.93009733333334, "rental_uris": {"android": "https://dc.lft.to/lastmile_qr_scan", "ios": "https://dc.lft.to/lastmile_qr_scan"}, "fusion_lon": 0.0, "bike_id": "0b9dbfd2eae70810d880d6c8d54235d4", "is_disabled": 0, "lat": 38.88085933333333, "is_reserved": 0, "type": "electric_scooter"}, {"fusion_lat": 0.0, "name": "ff05058f9dc47d7dfe53e88d8ddb6376", "lon": -77.02237166666667, "rental_uris": {"android": "https://dc.lft.to/lastmile_qr_scan", "ios": "https://dc.lft.to/lastmile_qr_scan"}, "fusion_lon": 0.0, "bike_id": "ff05058f9dc47d7dfe53e88d8ddb6376", "is_disabled": 0, "lat": 38.89850166666667, "is_reserved": 0, "type": "electric_scooter"}, {"fusion_lat": 0.0, "name": "57e7a5bae10da467aa160d2f668afb23", "lon": -77.04682516666666, "rental_uris": {"android": "https://dc.lft.to/lastmile_qr_scan", "ios": "https://dc.lft.to/lastmile_qr_scan"}, "fusion_lon": 0.0, "bike_id": "57e7a5bae10da467aa160d2f668afb23", "is_disabled": 0, "lat": 38.895551833333336, "is_reserved": 0, "type": "electric_scooter"}, {"fusion_lat": 0.0, "name": "411c2bbfc89633bd6a9128a4538a16f3", "lon": -77.04308083333333, "rental_uris": {"android": "https://dc.lft.to/lastmile_qr_scan", "ios": "https://dc.lft.to/lastmile_qr_scan"}, "fusion_lon": 0.0, "bike_id": "411c2bbfc89633bd6a9128a4538a16f3", "is_disabled": 0, "lat": 38.923903, "is_reserved": 0, "type": "electric_scooter"}, {"fusion_lat": 0.0, "name": "9e47daa13685d5b7d9dd57752d94aa29", "lon": -77.02398933333333, "rental_uris": {"android": "https://dc.lft.to/lastmile_qr_scan", "ios": "https://dc.lft.to/lastmile_qr_scan"}, "fusion_lon": 0.0, "bike_id": "9e47daa13685d5b7d9dd57752d94aa29", "is_disabled": 0, "lat": 38.91985433333333, "is_reserved": 0, "type": "electric_scooter"}, {"fusion_lat": 0.0, "name": "5dd4645555886ad63835feb8519fe5e4", "lon": -77.02089366666667, "rental_uris": {"android": "https://dc.lft.to/lastmile_qr_scan", "ios": "https://dc.lft.to/lastmile_qr_scan"}, "fusion_lon": 0.0, "bike_id": "5dd4645555886ad63835feb8519fe5e4", "is_disabled": 0, "lat": 38.9291215, "is_reserved": 0, "type": "electric_scooter"}, {"fusion_lat": 0.0, "name": "c451ee98e225ca3fff29a2fa902b6dc8", "lon": -77.04347416666667, "rental_uris": {"android": "https://dc.lft.to/lastmile_qr_scan", "ios": "https://dc.lft.to/lastmile_qr_scan"}, "fusion_lon": 0.0, "bike_id": "c451ee98e225ca3fff29a2fa902b6dc8", "is_disabled": 0, "lat": 38.90804683333333, "is_reserved": 0, "type": "electric_scooter"}, {"fusion_lat": 0.0, "name": "7fcfbed542106c7b915e0dabd7d401a1", "lon": -77.04341, "rental_uris": {"android": "https://dc.lft.to/lastmile_qr_scan", "ios": "https://dc.lft.to/lastmile_qr_scan"}, "fusion_lon": 0.0, "bike_id": "7fcfbed542106c7b915e0dabd7d401a1", "is_disabled": 0, "lat": 38.90766933333333, "is_reserved": 0, "type": "electric_scooter"}, {"fusion_lat": 0.0, "name": "7d27656ef63ce946dd74ff0a3aeb724b", "lon": -77.03560016666667, "rental_uris": {"android": "https://dc.lft.to/lastmile_qr_scan", "ios": "https://dc.lft.to/lastmile_qr_scan"}, "fusion_lon": 0.0, "bike_id": "7d27656ef63ce946dd74ff0a3aeb724b", "is_disabled": 0, "lat": 38.933707166666665, "is_reserved": 0, "type": "electric_scooter"}, {"fusion_lat": 0.0, "name": "25ede20ce9afefe7f5dcb5080fbd7d15", "lon": -77.0327745, "rental_uris": {"android": "https://dc.lft.to/lastmile_qr_scan", "ios": "https://dc.lft.to/lastmile_qr_scan"}, "fusion_lon": 0.0, "bike_id": "25ede20ce9afefe7f5dcb5080fbd7d15", "is_disabled": 0, "lat": 38.93246716666667, "is_reserved": 0, "type": "electric_scooter"}, {"fusion_lat": 0.0, "name": "e7f468c36fdcce7e466f5185644c8aa6", "lon": -77.01965066666666, "rental_uris": {"android": "https://dc.lft.to/lastmile_qr_scan", "ios": "https://dc.lft.to/lastmile_qr_scan"}, "fusion_lon": 0.0, "bike_id": "e7f468c36fdcce7e466f5185644c8aa6", "is_disabled": 0, "lat": 38.88375216666667, "is_reserved": 0, "type": "electric_scooter"}, {"fusion_lat": 0.0, "name": "e5a825368249a767e0b9bd77927f8266", "lon": -77.01887716666667, "rental_uris": {"android": "https://dc.lft.to/lastmile_qr_scan", "ios": "https://dc.lft.to/lastmile_qr_scan"}, "fusion_lon": 0.0, "bike_id": "e5a825368249a767e0b9bd77927f8266", "is_disabled": 0, "lat": 38.91451633333333, "is_reserved": 0, "type": "electric_scooter"}, {"fusion_lat": 0.0, "name": "a5a8706923d1c7851af6f654dba62a31", "lon": -76.96094983333333, "rental_uris": {"android": "https://dc.lft.to/lastmile_qr_scan", "ios": "https://dc.lft.to/lastmile_qr_scan"}, "fusion_lon": 0.0, "bike_id": "a5a8706923d1c7851af6f654dba62a31", "is_disabled": 0, "lat": 38.91856416666667, "is_reserved": 0, "type": "electric_bike"}, {"fusion_lat": 0.0, "name": "bff54e9f530ec6da8df50a3f291c3b23", "lon": -77.0466665, "rental_uris": {"android": "https://dc.lft.to/lastmile_qr_scan", "ios": "https://dc.lft.to/lastmile_qr_scan"}, "fusion_lon": 0.0, "bike_id": "bff54e9f530ec6da8df50a3f291c3b23", "is_disabled": 0, "lat": 38.90945983333334, "is_reserved": 0, "type": "electric_scooter"}, {"fusion_lat": 0.0, "name": "97b0de0393e5c3dfded105da98a577a2", "lon": -77.05579183333333, "rental_uris": {"android": "https://dc.lft.to/lastmile_qr_scan", "ios": "https://dc.lft.to/lastmile_qr_scan"}, "fusion_lon": 0.0, "bike_id": "97b0de0393e5c3dfded105da98a577a2", "is_disabled": 0, "lat": 38.897379666666666, "is_reserved": 0, "type": "electric_scooter"}, {"fusion_lat": 0.0, "name": "32dd1e3e2b31c502e8fb2ee63ef08eec", "lon": -77.023967, "rental_uris": {"android": "https://dc.lft.to/lastmile_qr_scan", "ios": "https://dc.lft.to/lastmile_qr_scan"}, "fusion_lon": 0.0, "bike_id": "32dd1e3e2b31c502e8fb2ee63ef08eec", "is_disabled": 0, "lat": 38.919845, "is_reserved": 0, "type": "electric_scooter"}, {"fusion_lat": 0.0, "name": "39be22ddeb8c9cbbb2fb2d8a4fe910dd", "lon": -76.984918, "rental_uris": {"android": "https://dc.lft.to/lastmile_qr_scan", "ios": "https://dc.lft.to/lastmile_qr_scan"}, "fusion_lon": 0.0, "bike_id": "39be22ddeb8c9cbbb2fb2d8a4fe910dd", "is_disabled": 0, "lat": 38.904293, "is_reserved": 0, "type": "electric_scooter"}, {"fusion_lat": 0.0, "name": "c87db399f8c18b17204275dcb1b46aee", "lon": -77.07222883333333, "rental_uris": {"android": "https://dc.lft.to/lastmile_qr_scan", "ios": "https://dc.lft.to/lastmile_qr_scan"}, "fusion_lon": 0.0, "bike_id": "c87db399f8c18b17204275dcb1b46aee", "is_disabled": 0, "lat": 38.96809366666667, "is_reserved": 0, "type": "electric_bike"}, {"fusion_lat": 0.0, "name": "e8324d4f4d89704ce0bf9de53cc13413", "lon": -77.01195033333333, "rental_uris": {"android": "https://dc.lft.to/lastmile_qr_scan", "ios": "https://dc.lft.to/lastmile_qr_scan"}, "fusion_lon": 0.0, "bike_id": "e8324d4f4d89704ce0bf9de53cc13413", "is_disabled": 0, "lat": 38.897716333333335, "is_reserved": 0, "type": "electric_scooter"}, {"fusion_lat": 0.0, "name": "4cc51b88d8f73cab553dacce48e1d4b7", "lon": -77.05047833333333, "rental_uris": {"android": "https://dc.lft.to/lastmile_qr_scan", "ios": "https://dc.lft.to/lastmile_qr_scan"}, "fusion_lon": 0.0, "bike_id": "4cc51b88d8f73cab553dacce48e1d4b7", "is_disabled": 0, "lat": 38.923572166666666, "is_reserved": 0, "type": "electric_scooter"}, {"fusion_lat": 0.0, "name": "f288499b871b3c2b89d5ee3b538e4ca5", "lon": -77.0424405, "rental_uris": {"android": "https://dc.lft.to/lastmile_qr_scan", "ios": "https://dc.lft.to/lastmile_qr_scan"}, "fusion_lon": 0.0, "bike_id": "f288499b871b3c2b89d5ee3b538e4ca5", "is_disabled": 0, "lat": 38.922185999999996, "is_reserved": 0, "type": "electric_scooter"}, {"fusion_lat": 0.0, "name": "8fd85108d8ffdac1ef627ada5d825ac5", "lon": -77.04253566666667, "rental_uris": {"android": "https://dc.lft.to/lastmile_qr_scan", "ios": "https://dc.lft.to/lastmile_qr_scan"}, "fusion_lon": 0.0, "bike_id": "8fd85108d8ffdac1ef627ada5d825ac5", "is_disabled": 0, "lat": 38.922033666666664, "is_reserved": 0, "type": "electric_scooter"}, {"fusion_lat": 0.0, "name": "670d0b483acd2e325d82aa3053d8eded", "lon": -77.04163033333333, "rental_uris": {"android": "https://dc.lft.to/lastmile_qr_scan", "ios": "https://dc.lft.to/lastmile_qr_scan"}, "fusion_lon": 0.0, "bike_id": "670d0b483acd2e325d82aa3053d8eded", "is_disabled": 0, "lat": 38.892383333333335, "is_reserved": 0, "type": "electric_scooter"}, {"fusion_lat": 0.0, "name": "3b37b5448b3eb0598d0feaece22ceb5c", "lon": -77.00030233333334, "rental_uris": {"android": "https://dc.lft.to/lastmile_qr_scan", "ios": "https://dc.lft.to/lastmile_qr_scan"}, "fusion_lon": 0.0, "bike_id": "3b37b5448b3eb0598d0feaece22ceb5c", "is_disabled": 0, "lat": 38.873867, "is_reserved": 0, "type": "electric_scooter"}, {"fusion_lat": 0.0, "name": "9e5577a231c12375bc7f233237a19122", "lon": -77.00300316666667, "rental_uris": {"android": "https://dc.lft.to/lastmile_qr_scan", "ios": "https://dc.lft.to/lastmile_qr_scan"}, "fusion_lon": 0.0, "bike_id": "9e5577a231c12375bc7f233237a19122", "is_disabled": 0, "lat": 38.9070135, "is_reserved": 0, "type": "electric_scooter"}, {"fusion_lat": 0.0, "name": "b445a8ac3a4ca0df825a2c53f6ac054d", "lon": -76.99500916666666, "rental_uris": {"android": "https://dc.lft.to/lastmile_qr_scan", "ios": "https://dc.lft.to/lastmile_qr_scan"}, "fusion_lon": 0.0, "bike_id": "b445a8ac3a4ca0df825a2c53f6ac054d", "is_disabled": 0, "lat": 38.862439333333334, "is_reserved": 0, "type": "electric_scooter"}, {"fusion_lat": 0.0, "name": "6a7a7612ef66968a76a8d6ea8f4268d0", "lon": -76.99880716666667, "rental_uris": {"android": "https://dc.lft.to/lastmile_qr_scan", "ios": "https://dc.lft.to/lastmile_qr_scan"}, "fusion_lon": 0.0, "bike_id": "6a7a7612ef66968a76a8d6ea8f4268d0", "is_disabled": 0, "lat": 38.952662833333335, "is_reserved": 0, "type": "electric_scooter"}, {"fusion_lat": 0.0, "name": "82d2de3cef26a3b052682bdcd0c9bacd", "lon": -77.02801083333334, "rental_uris": {"android": "https://dc.lft.to/lastmile_qr_scan", "ios": "https://dc.lft.to/lastmile_qr_scan"}, "fusion_lon": 0.0, "bike_id": "82d2de3cef26a3b052682bdcd0c9bacd", "is_disabled": 0, "lat": 38.94285883333333, "is_reserved": 0, "type": "electric_scooter"}, {"fusion_lat": 0.0, "name": "d32d75d8e41b93647b0db2ec9feaadac", "lon": -77.02802316666667, "rental_uris": {"android": "https://dc.lft.to/lastmile_qr_scan", "ios": "https://dc.lft.to/lastmile_qr_scan"}, "fusion_lon": 0.0, "bike_id": "d32d75d8e41b93647b0db2ec9feaadac", "is_disabled": 0, "lat": 38.89222433333333, "is_reserved": 0, "type": "electric_scooter"}, {"fusion_lat": 0.0, "name": "0e3cccd5f5424bf4c8897ab025482835", "lon": -77.033096, "rental_uris": {"android": "https://dc.lft.to/lastmile_qr_scan", "ios": "https://dc.lft.to/lastmile_qr_scan"}, "fusion_lon": 0.0, "bike_id": "0e3cccd5f5424bf4c8897ab025482835", "is_disabled": 0, "lat": 38.89730983333333, "is_reserved": 0, "type": "electric_scooter"}, {"fusion_lat": 0.0, "name": "1abef725000953e0de6fac9186b78a6b", "lon": -77.050443, "rental_uris": {"android": "https://dc.lft.to/lastmile_qr_scan", "ios": "https://dc.lft.to/lastmile_qr_scan"}, "fusion_lon": 0.0, "bike_id": "1abef725000953e0de6fac9186b78a6b", "is_disabled": 0, "lat": 38.925123, "is_reserved": 0, "type": "electric_scooter"}, {"fusion_lat": 0.0, "name": "81acbf99de82106dae75f73f31d57ffe", "lon": -77.01617433333334, "rental_uris": {"android": "https://dc.lft.to/lastmile_qr_scan", "ios": "https://dc.lft.to/lastmile_qr_scan"}, "fusion_lon": 0.0, "bike_id": "81acbf99de82106dae75f73f31d57ffe", "is_disabled": 0, "lat": 38.906797833333336, "is_reserved": 0, "type": "electric_scooter"}, {"fusion_lat": 0.0, "name": "ae73c04e9369e5ca582ee04eddd7d2eb", "lon": -77.01941566666666, "rental_uris": {"android": "https://dc.lft.to/lastmile_qr_scan", "ios": "https://dc.lft.to/lastmile_qr_scan"}, "fusion_lon": 0.0, "bike_id": "ae73c04e9369e5ca582ee04eddd7d2eb", "is_disabled": 0, "lat": 38.923704, "is_reserved": 0, "type": "electric_scooter"}, {"fusion_lat": 0.0, "name": "cdc41a07665b1fa60758d2bcd62338e0", "lon": -77.0177085, "rental_uris": {"android": "https://dc.lft.to/lastmile_qr_scan", "ios": "https://dc.lft.to/lastmile_qr_scan"}, "fusion_lon": 0.0, "bike_id": "cdc41a07665b1fa60758d2bcd62338e0", "is_disabled": 0, "lat": 38.88708283333333, "is_reserved": 0, "type": "electric_scooter"}, {"fusion_lat": 0.0, "name": "a7064c40fbb8382bcac0bd9effe40284", "lon": -77.00590333333334, "rental_uris": {"android": "https://dc.lft.to/lastmile_qr_scan", "ios": "https://dc.lft.to/lastmile_qr_scan"}, "fusion_lon": 0.0, "bike_id": "a7064c40fbb8382bcac0bd9effe40284", "is_disabled": 0, "lat": 38.87634383333334, "is_reserved": 0, "type": "electric_scooter"}, {"fusion_lat": 0.0, "name": "7747a92c3bf985ffed214d187afd5685", "lon": -77.03559766666666, "rental_uris": {"android": "https://dc.lft.to/lastmile_qr_scan", "ios": "https://dc.lft.to/lastmile_qr_scan"}, "fusion_lon": 0.0, "bike_id": "7747a92c3bf985ffed214d187afd5685", "is_disabled": 0, "lat": 38.91873483333333, "is_reserved": 0, "type": "electric_scooter"}, {"fusion_lat": 0.0, "name": "7ca050d4d0938f01cf906c73f56f607f", "lon": -77.0092305, "rental_uris": {"android": "https://dc.lft.to/lastmile_qr_scan", "ios": "https://dc.lft.to/lastmile_qr_scan"}, "fusion_lon": 0.0, "bike_id": "7ca050d4d0938f01cf906c73f56f607f", "is_disabled": 0, "lat": 38.898857166666666, "is_reserved": 0, "type": "electric_scooter"}, {"fusion_lat": 0.0, "name": "b21950c31b8423d412fc6c584fe9ebab", "lon": -77.01059966666666, "rental_uris": {"android": "https://dc.lft.to/lastmile_qr_scan", "ios": "https://dc.lft.to/lastmile_qr_scan"}, "fusion_lon": 0.0, "bike_id": "b21950c31b8423d412fc6c584fe9ebab", "is_disabled": 0, "lat": 38.91267283333333, "is_reserved": 0, "type": "electric_scooter"}, {"fusion_lat": 0.0, "name": "ee253761111def93d0da104f7493b604", "lon": -77.028062, "rental_uris": {"android": "https://dc.lft.to/lastmile_qr_scan", "ios": "https://dc.lft.to/lastmile_qr_scan"}, "fusion_lon": 0.0, "bike_id": "ee253761111def93d0da104f7493b604", "is_disabled": 0, "lat": 38.89581916666667, "is_reserved": 0, "type": "electric_scooter"}, {"fusion_lat": 0.0, "name": "b425f2542ba8d44e142154cb7bf39e3a", "lon": -77.01207266666667, "rental_uris": {"android": "https://dc.lft.to/lastmile_qr_scan", "ios": "https://dc.lft.to/lastmile_qr_scan"}, "fusion_lon": 0.0, "bike_id": "b425f2542ba8d44e142154cb7bf39e3a", "is_disabled": 0, "lat": 38.870851333333334, "is_reserved": 0, "type": "electric_bike"}, {"fusion_lat": 0.0, "name": "d93f35104d9f48db85da9110e6df84dc", "lon": -76.98231633333333, "rental_uris": {"android": "https://dc.lft.to/lastmile_qr_scan", "ios": "https://dc.lft.to/lastmile_qr_scan"},