{"data": {"bikes": [{"bike_id": "b89eadb3b6cdf4af7a915bd0a671e5ec", "type": "electric_scooter", "is_disabled": 0, "lat": 38.90840883333333, "rental_uris": {"ios": "https://dc.lft.to/lastmile_qr_scan", "android": "https://dc.lft.to/lastmile_qr_scan"}, "is_reserved": 0, "fusion_lon": 0.0, "fusion_lat": 0.0, "lon": -77.0219175, "name": "b89eadb3b6cdf4af7a915bd0a671e5ec"}, {"bike_id": "d913304a680e905a4e4d28773c400bbf", "type": "electric_scooter", "is_disabled": 0, "lat": 38.89482733333333, "rental_uris": {"ios": "https://dc.lft.to/lastmile_qr_scan", "android": "https://dc.lft.to/lastmile_qr_scan"}, "is_reserved": 0, "fusion_lon": 0.0, "fusion_lat": 0.0, "lon": -77.02186783333333, "name": "d913304a680e905a4e4d28773c400bbf"}, {"bike_id": "7ce94a36d4bedf9dd9b38aea6f6dc8ee", "type": "electric_bike", "is_disabled": 0, "lat": 39.0374185, "rental_uris": {"ios": "https://dc.lft.to/lastmile_qr_scan", "android": "https://dc.lft.to/lastmile_qr_scan"}, "is_reserved": 0, "fusion_lon": 0.0, "fusion_lat": 0.0, "lon": -77.0548085, "name": "7ce94a36d4bedf9dd9b38aea6f6dc8ee"}, {"bike_id": "deadff901be337c9c2acb190e55a509d", "type": "electric_bike", "is_disabled": 0, "lat": 39.05496983333333, "rental_uris": {"ios": "https://dc.lft.to/lastmile_qr_scan", "android": "https://dc.lft.to/lastmile_qr_scan"}, "is_reserved": 0, "fusion_lon": 0.0, "fusion_lat": 0.0, "lon": -77.11787283333334, "name": "deadff901be337c9c2acb190e55a509d"}, {"bike_id": "12068a56390c2835712c1ba31a1912be", "type": "electric_scooter", "is_disabled": 0, "lat": 38.92686666666667, "rental_uris": {"ios": "https://dc.lft.to/lastmile_qr_scan", "android": "https://dc.lft.to/lastmile_qr_scan"}, "is_reserved": 0, "fusion_lon": 0.0, "fusion_lat": 0.0, "lon": -77.0278545, "name": "12068a56390c2835712c1ba31a1912be"}, {"bike_id": "54bbbf229132a322b9c0b13e2edfd1ce", "type": "electric_bike", "is_disabled": 0, "lat": 38.906937, "rental_uris": {"ios": "https://dc.lft.to/lastmile_qr_scan", "android": "https://dc.lft.to/lastmile_qr_scan"}, "is_reserved": 0, "fusion_lon": 0.0, "fusion_lat": 0.0, "lon": -76.95252533333333, "name": "54bbbf229132a322b9c0b13e2edfd1ce"}, {"bike_id": "eef9bbc27c4f1b975c8be9d9c8f4e1fa", "type": "electric_scooter", "is_disabled": 0, "lat": 38.8934655, "rental_uris": {"ios": "https://dc.lft.to/lastmile_qr_scan", "android": "https://dc.lft.to/lastmile_qr_scan"}, "is_reserved": 0, "fusion_lon": 0.0, "fusion_lat": 0.0, "lon": -76.9927085, "name": "eef9bbc27c4f1b975c8be9d9c8f4e1fa"}, {"bike_id": "da84a50cdedda77c03736f027de3b448", "type": "electric_scooter", "is_disabled": 0, "lat": 38.905661333333335, "rental_uris": {"ios": "https://dc.lft.to/lastmile_qr_scan", "android": "https://dc.lft.to/lastmile_qr_scan"}, "is_reserved": 0, "fusion_lon": 0.0, "fusion_lat": 0.0, "lon": -77.01799033333333, "name": "da84a50cdedda77c03736f027de3b448"}, {"bike_id": "0884cd6d8c8916e9683d75282b3ea75a", "type": "electric_scooter", "is_disabled": 0, "lat": 38.89739083333333, "rental_uris": {"ios": "https://dc.lft.to/lastmile_qr_scan", "android": "https://dc.lft.to/lastmile_qr_scan"}, "is_reserved": 0, "fusion_lon": 0.0, "fusion_lat": 0.0, "lon": -77.04699516666666, "name": "0884cd6d8c8916e9683d75282b3ea75a"}, {"bike_id": "941a89078155c04d4a84b65c83684c87", "type": "electric_scooter", "is_disabled": 0, "lat": 38.868295833333335, "rental_uris": {"ios": "https://dc.lft.to/lastmile_qr_scan", "android": "https://dc.lft.to/lastmile_qr_scan"}, "is_reserved": 0, "fusion_lon": 0.0, "fusion_lat": 0.0, "lon": -77.0114515, "name": "941a89078155c04d4a84b65c83684c87"}, {"bike_id": "657db2d38e5fff9c61ff748c9a816a58", "type": "electric_scooter", "is_disabled": 0, "lat": 38.920639666666666, "rental_uris": {"ios": "https://dc.lft.to/lastmile_qr_scan", "android": "https://dc.lft.to/lastmile_qr_scan"}, "is_reserved": 0, "fusion_lon": 0.0, "fusion_lat": 0.0, "lon": -77.04254183333333, "name": "657db2d38e5fff9c61ff748c9a816a58"}, {"bike_id": "01cd08ab7416be552d65bde37a3571cf", "type": "electric_scooter", "is_disabled": 0, "lat": 38.930915166666665, "rental_uris": {"ios": "https://dc.lft.to/lastmile_qr_scan", "android": "https://dc.lft.to/lastmile_qr_scan"}, "is_reserved": 0, "fusion_lon": 0.0, "fusion_lat": 0.0, "lon": -77.0234695, "name": "01cd08ab7416be552d65bde37a3571cf"}, {"bike_id": "6d78e114f0c2f6faba2058cf3735ca3b", "type": "electric_scooter", "is_disabled": 0, "lat": 38.942874833333335, "rental_uris": {"ios": "https://dc.lft.to/lastmile_qr_scan", "android": "https://dc.lft.to/lastmile_qr_scan"}, "is_reserved": 0, "fusion_lon": 0.0, "fusion_lat": 0.0, "lon": -77.02161766666667, "name": "6d78e114f0c2f6faba2058cf3735ca3b"}, {"bike_id": "079b7e6b27b14eea29003fa42a2ecaa2", "type": "electric_scooter", "is_disabled": 0, "lat": 38.927473666666664, "rental_uris": {"ios": "https://dc.lft.to/lastmile_qr_scan", "android": "https://dc.lft.to/lastmile_qr_scan"}, "is_reserved": 0, "fusion_lon": 0.0, "fusion_lat": 0.0, "lon": -77.0253435, "name": "079b7e6b27b14eea29003fa42a2ecaa2"}, {"bike_id": "afb48ce6f2d12ade83a4d9373ab2d801", "type": "electric_scooter", "is_disabled": 0, "lat": 38.8668125, "rental_uris": {"ios": "https://dc.lft.to/lastmile_qr_scan", "android": "https://dc.lft.to/lastmile_qr_scan"}, "is_reserved": 0, "fusion_lon": 0.0, "fusion_lat": 0.0, "lon": -76.98569483333333, "name": "afb48ce6f2d12ade83a4d9373ab2d801"}, {"bike_id": "f73e16da38c5e384847d96f329f82e6c", "type": "electric_scooter", "is_disabled": 0, "lat": 38.901846166666665, "rental_uris": {"ios": "https://dc.lft.to/lastmile_qr_scan", "android": "https://dc.lft.to/lastmile_qr_scan"}, "is_reserved": 0, "fusion_lon": 0.0, "fusion_lat": 0.0, "lon": -77.0211075, "name": "f73e16da38c5e384847d96f329f82e6c"}, {"bike_id": "b2e5e55a16aaf83dedafe7e8226762ad", "type": "electric_scooter", "is_disabled": 0, "lat": 38.9144035, "rental_uris": {"ios": "https://dc.lft.to/lastmile_qr_scan", "android": "https://dc.lft.to/lastmile_qr_scan"}, "is_reserved": 0, "fusion_lon": 0.0, "fusion_lat": 0.0, "lon": -77.0319905, "name": "b2e5e55a16aaf83dedafe7e8226762ad"}, {"bike_id": "939c0db9790d3d25f0d2f4014630e939", "type": "electric_scooter", "is_disabled": 0, "lat": 38.924978833333334, "rental_uris": {"ios": "https://dc.lft.to/lastmile_qr_scan", "android": "https://dc.lft.to/lastmile_qr_scan"}, "is_reserved": 0, "fusion_lon": 0.0, "fusion_lat": 0.0, "lon": -77.0511665, "name": "939c0db9790d3d25f0d2f4014630e939"}, {"bike_id": "605923d9f6e524b8361c1a2381221973", "type": "electric_scooter", "is_disabled": 0, "lat": 38.900283, "rental_uris": {"ios": "https://dc.lft.to/lastmile_qr_scan", "android": "https://dc.lft.to/lastmile_qr_scan"}, "is_reserved": 0, "fusion_lon": 0.0, "fusion_lat": 0.0, "lon": -76.99840183333333, "name": "605923d9f6e524b8361c1a2381221973"}, {"bike_id": "6ad35b561c7efcf8a948067129e13607", "type": "electric_scooter", "is_disabled": 0, "lat": 38.90722366666667, "rental_uris": {"ios": "https://dc.lft.to/lastmile_qr_scan", "android": "https://dc.lft.to/lastmile_qr_scan"}, "is_reserved": 0, "fusion_lon": 0.0, "fusion_lat": 0.0, "lon": -77.04027183333334, "name": "6ad35b561c7efcf8a948067129e13607"}, {"bike_id": "7d9030b03b0c9cd43df2742245c50607", "type": "electric_scooter", "is_disabled": 0, "lat": 38.9074075, "rental_uris": {"ios": "https://dc.lft.to/lastmile_qr_scan", "android": "https://dc.lft.to/lastmile_qr_scan"}, "is_reserved": 0, "fusion_lon": 0.0, "fusion_lat": 0.0, "lon": -77.0218765, "name": "7d9030b03b0c9cd43df2742245c50607"}, {"bike_id": "eb10937f1a273b29123140e47406f981", "type": "electric_scooter", "is_disabled": 0, "lat": 38.907432666666665, "rental_uris": {"ios": "https://dc.lft.to/lastmile_qr_scan", "android": "https://dc.lft.to/lastmile_qr_scan"}, "is_reserved": 0, "fusion_lon": 0.0, "fusion_lat": 0.0, "lon": -77.03201883333334, "name": "eb10937f1a273b29123140e47406f981"}, {"bike_id": "231eedae30f337d8923dfe898b4d294e", "type": "electric_scooter", "is_disabled": 0, "lat": 38.92157, "rental_uris": {"ios": "https://dc.lft.to/lastmile_qr_scan", "android": "https://dc.lft.to/lastmile_qr_scan"}, "is_reserved": 0, "fusion_lon": 0.0, "fusion_lat": 0.0, "lon": -77.03391766666667, "name": "231eedae30f337d8923dfe898b4d294e"}, {"bike_id": "f5fca7631b5955e48b75710afc708cc1", "type": "electric_scooter", "is_disabled": 0, "lat": 38.89745466666667, "rental_uris": {"ios": "https://dc.lft.to/lastmile_qr_scan", "android": "https://dc.lft.to/lastmile_qr_scan"}, "is_reserved": 0, "fusion_lon": 0.0, "fusion_lat": 0.0, "lon": -76.97973966666666, "name": "f5fca7631b5955e48b75710afc708cc1"}, {"bike_id": "440624768aad4525e611275ac43d553f", "type": "electric_scooter", "is_disabled": 0, "lat": 38.911198166666665, "rental_uris": {"ios": "https://dc.lft.to/lastmile_qr_scan", "android": "https://dc.lft.to/lastmile_qr_scan"}, "is_reserved": 0, "fusion_lon": 0.0, "fusion_lat": 0.0, "lon": -77.047226, "name": "440624768aad4525e611275ac43d553f"}, {"bike_id": "fb120fe5a31d61de012f5065342e606e", "type": "electric_scooter", "is_disabled": 0, "lat": 38.892769333333334, "rental_uris": {"ios": "https://dc.lft.to/lastmile_qr_scan", "android": "https://dc.lft.to/lastmile_qr_scan"}, "is_reserved": 0, "fusion_lon": 0.0, "fusion_lat": 0.0, "lon": -77.03342583333334, "name": "fb120fe5a31d61de012f5065342e606e"}, {"bike_id": "cafd482a6a73f0264c9bc6169b4f9729", "type": "electric_scooter", "is_disabled": 0, "lat": 38.94186783333333, "rental_uris": {"ios": "https://dc.lft.to/lastmile_qr_scan", "android": "https://dc.lft.to/lastmile_qr_scan"}, "is_reserved": 0, "fusion_lon": 0.0, "fusion_lat": 0.0, "lon": -77.02486283333333, "name": "cafd482a6a73f0264c9bc6169b4f9729"}, {"bike_id": "ca1a0a51c2e597b392d4bacc3f1a2129", "type": "electric_bike", "is_disabled": 0, "lat": 38.853535, "rental_uris": {"ios": "https://dc.lft.to/lastmile_qr_scan", "android": "https://dc.lft.to/lastmile_qr_scan"}, "is_reserved": 0, "fusion_lon": 0.0, "fusion_lat": 0.0, "lon": -77.13466516666666, "name": "ca1a0a51c2e597b392d4bacc3f1a2129"}, {"bike_id": "924a06a2c84501b036f08b7ea540c9a3", "type": "electric_bike", "is_disabled": 0, "lat": 38.9155635, "rental_uris": {"ios": "https://dc.lft.to/lastmile_qr_scan", "android": "https://dc.lft.to/lastmile_qr_scan"}, "is_reserved": 0, "fusion_lon": 0.0, "fusion_lat": 0.0, "lon": -77.03829533333334, "name": "924a06a2c84501b036f08b7ea540c9a3"}, {"bike_id": "295738eb7f2c9bb84d8c702256b77473", "type": "electric_scooter", "is_disabled": 0, "lat": 38.918765666666665, "rental_uris": {"ios": "https://dc.lft.to/lastmile_qr_scan", "android": "https://dc.lft.to/lastmile_qr_scan"}, "is_reserved": 0, "fusion_lon": 0.0, "fusion_lat": 0.0, "lon": -77.03470983333334, "name": "295738eb7f2c9bb84d8c702256b77473"}, {"bike_id": "8dd46932d9b32335b673fbf816c1d834", "type": "electric_scooter", "is_disabled": 0, "lat": 38.92315766666667, "rental_uris": {"ios": "https://dc.lft.to/lastmile_qr_scan", "android": "https://dc.lft.to/lastmile_qr_scan"}, "is_reserved": 0, "fusion_lon": 0.0, "fusion_lat": 0.0, "lon": -77.046404, "name": "8dd46932d9b32335b673fbf816c1d834"}, {"bike_id": "71eb32a6081b2e889c4d2b44f707cb65", "type": "electric_bike", "is_disabled": 0, "lat": 38.8686905, "rental_uris": {"ios": "https://dc.lft.to/lastmile_qr_scan", "android": "https://dc.lft.to/lastmile_qr_scan"}, "is_reserved": 0, "fusion_lon": 0.0, "fusion_lat": 0.0, "lon": -76.9708365, "name": "71eb32a6081b2e889c4d2b44f707cb65"}, {"bike_id": "3d5268737e5e00720c60ccbf36da0d0f", "type": "electric_scooter", "is_disabled": 0, "lat": 38.941969, "rental_uris": {"ios": "https://dc.lft.to/lastmile_qr_scan", "android": "https://dc.lft.to/lastmile_qr_scan"}, "is_reserved": 0, "fusion_lon": 0.0, "fusion_lat": 0.0, "lon": -77.03656333333333, "name": "3d5268737e5e00720c60ccbf36da0d0f"}, {"bike_id": "102f8d352cf63b3b418cecb7e9119b9a", "type": "electric_scooter", "is_disabled": 0, "lat": 38.843162166666666, "rental_uris": {"ios": "https://dc.lft.to/lastmile_qr_scan", "android": "https://dc.lft.to/lastmile_qr_scan"}, "is_reserved": 0, "fusion_lon": 0.0, "fusion_lat": 0.0, "lon": -76.99928966666667, "name": "102f8d352cf63b3b418cecb7e9119b9a"}, {"bike_id": "e15ec5d1bab7308f5934ee7f00bcc871", "type": "electric_scooter", "is_disabled": 0, "lat": 38.8512865, "rental_uris": {"ios": "https://dc.lft.to/lastmile_qr_scan", "android": "https://dc.lft.to/lastmile_qr_scan"}, "is_reserved": 0, "fusion_lon": 0.0, "fusion_lat": 0.0, "lon": -76.97108933333334, "name": "e15ec5d1bab7308f5934ee7f00bcc871"}, {"bike_id": "c01262f6c5d56b395fae188f6891d5a8", "type": "electric_scooter", "is_disabled": 0, "lat": 38.917195166666666, "rental_uris": {"ios": "https://dc.lft.to/lastmile_qr_scan", "android": "https://dc.lft.to/lastmile_qr_scan"}, "is_reserved": 0, "fusion_lon": 0.0, "fusion_lat": 0.0, "lon": -77.02593566666667, "name": "c01262f6c5d56b395fae188f6891d5a8"}, {"bike_id": "5ec4eb3f276c33353c8ade5f1fd09b03", "type": "electric_scooter", "is_disabled": 0, "lat": 38.91554433333334, "rental_uris": {"ios": "https://dc.lft.to/lastmile_qr_scan", "android": "https://dc.lft.to/lastmile_qr_scan"}, "is_reserved": 0, "fusion_lon": 0.0, "fusion_lat": 0.0, "lon": -77.03170316666667, "name": "5ec4eb3f276c33353c8ade5f1fd09b03"}, {"bike_id": "8c42c9e697fdb28d327d53d1c367ada2", "type": "electric_scooter", "is_disabled": 0, "lat": 38.91112066666667, "rental_uris": {"ios": "https://dc.lft.to/lastmile_qr_scan", "android": "https://dc.lft.to/lastmile_qr_scan"}, "is_reserved": 0, "fusion_lon": 0.0, "fusion_lat": 0.0, "lon": -77.04395033333333, "name": "8c42c9e697fdb28d327d53d1c367ada2"}, {"bike_id": "75c22fadafd50165a52738a7b7d12e07", "type": "electric_scooter", "is_disabled": 0, "lat": 38.9097605, "rental_uris": {"ios": "https://dc.lft.to/lastmile_qr_scan", "android": "https://dc.lft.to/lastmile_qr_scan"}, "is_reserved": 0, "fusion_lon": 0.0, "fusion_lat": 0.0, "lon": -77.01420483333334, "name": "75c22fadafd50165a52738a7b7d12e07"}, {"bike_id": "ce47a27a3522cee07ce44a296be7532c", "type": "electric_scooter", "is_disabled": 0, "lat": 38.91575383333333, "rental_uris": {"ios": "https://dc.lft.to/lastmile_qr_scan", "android": "https://dc.lft.to/lastmile_qr_scan"}, "is_reserved": 0, "fusion_lon": 0.0, "fusion_lat": 0.0, "lon": -77.01250083333333, "name": "ce47a27a3522cee07ce44a296be7532c"}, {"bike_id": "23e16a2ee2e94481641c751df898899c", "type": "electric_bike", "is_disabled": 0, "lat": 38.9480095, "rental_uris": {"ios": "https://dc.lft.to/lastmile_qr_scan", "android": "https://dc.lft.to/lastmile_qr_scan"}, "is_reserved": 0, "fusion_lon": 0.0, "fusion_lat": 0.0, "lon": -76.9553715, "name": "23e16a2ee2e94481641c751df898899c"}, {"bike_id": "075c620b7ab63a2b5467a83253c97dbd", "type": "electric_scooter", "is_disabled": 0, "lat": 38.900114333333335, "rental_uris": {"ios": "https://dc.lft.to/lastmile_qr_scan", "android": "https://dc.lft.to/lastmile_qr_scan"}, "is_reserved": 0, "fusion_lon": 0.0, "fusion_lat": 0.0, "lon": -77.03812, "name": "075c620b7ab63a2b5467a83253c97dbd"}, {"bike_id": "b5ed865701212ede1da6a9aaee629cd6", "type": "electric_scooter", "is_disabled": 0, "lat": 38.91564983333333, "rental_uris": {"ios": "https://dc.lft.to/lastmile_qr_scan", "android": "https://dc.lft.to/lastmile_qr_scan"}, "is_reserved": 0, "fusion_lon": 0.0, "fusion_lat": 0.0, "lon": -77.02591616666666, "name": "b5ed865701212ede1da6a9aaee629cd6"}, {"bike_id": "d956d6da8027be5471585e8ec3118ab7", "type": "electric_scooter", "is_disabled": 0, "lat": 38.905764833333336, "rental_uris": {"ios": "https://dc.lft.to/lastmile_qr_scan", "android": "https://dc.lft.to/lastmile_qr_scan"}, "is_reserved": 0, "fusion_lon": 0.0, "fusion_lat": 0.0, "lon": -77.04694533333333, "name": "d956d6da8027be5471585e8ec3118ab7"}, {"bike_id": "b95c94357c89f3176e797eec328e486c", "type": "electric_scooter", "is_disabled": 0, "lat": 38.9419035, "rental_uris": {"ios": "https://dc.lft.to/lastmile_qr_scan", "android": "https://dc.lft.to/lastmile_qr_scan"}, "is_reserved": 0, "fusion_lon": 0.0, "fusion_lat": 0.0, "lon": -77.03322283333334, "name": "b95c94357c89f3176e797eec328e486c"}, {"bike_id": "d2e659b287cabd6be70d6f6753f28c2b", "type": "electric_scooter", "is_disabled": 0, "lat": 38.938855, "rental_uris": {"ios": "https://dc.lft.to/lastmile_qr_scan", "android": "https://dc.lft.to/lastmile_qr_scan"}, "is_reserved": 0, "fusion_lon": 0.0, "fusion_lat": 0.0, "lon": -77.02462366666667, "name": "d2e659b287cabd6be70d6f6753f28c2b"}, {"bike_id": "b92276bc3e16b9d2f349f2cb2d96d36e", "type": "electric_scooter", "is_disabled": 0, "lat": 38.90546833333333, "rental_uris": {"ios": "https://dc.lft.to/lastmile_qr_scan", "android": "https://dc.lft.to/lastmile_qr_scan"}, "is_reserved": 0, "fusion_lon": 0.0, "fusion_lat": 0.0, "lon": -77.04693116666667, "name": "b92276bc3e16b9d2f349f2cb2d96d36e"}, {"bike_id": "48281cbb3323de80a25e53da4b8cb7aa", "type": "electric_scooter", "is_disabled": 0, "lat": 38.9161315, "rental_uris": {"ios": "https://dc.lft.to/lastmile_qr_scan", "android": "https://dc.lft.to/lastmile_qr_scan"}, "is_reserved": 0, "fusion_lon": 0.0, "fusion_lat": 0.0, "lon": -77.0228525, "name": "48281cbb3323de80a25e53da4b8cb7aa"}, {"bike_id": "abc447b9868e074d34fd4dede01bff7c", "type": "electric_scooter", "is_disabled": 0, "lat": 38.926389666666665, "rental_uris": {"ios": "https://dc.lft.to/lastmile_qr_scan", "android": "https://dc.lft.to/lastmile_qr_scan"}, "is_reserved": 0, "fusion_lon": 0.0, "fusion_lat": 0.0, "lon": -77.035417, "name": "abc447b9868e074d34fd4dede01bff7c"}, {"bike_id": "6a290da86d9cbb513a48d639ec150fef", "type": "electric_scooter", "is_disabled": 0, "lat": 38.904597, "rental_uris": {"ios": "https://dc.lft.to/lastmile_qr_scan", "android": "https://dc.lft.to/lastmile_qr_scan"}, "is_reserved": 0, "fusion_lon": 0.0, "fusion_lat": 0.0, "lon": -77.05326016666666, "name": "6a290da86d9cbb513a48d639ec150fef"}, {"bike_id": "dd3b062dceb7eea9bc080cf548958042", "type": "electric_scooter", "is_disabled": 0, "lat": 38.91267283333333, "rental_uris": {"ios": "https://dc.lft.to/lastmile_qr_scan", "android": "https://dc.lft.to/lastmile_qr_scan"}, "is_reserved": 0, "fusion_lon": 0.0, "fusion_lat": 0.0, "lon": -77.0221245, "name": "dd3b062dceb7eea9bc080cf548958042"}, {"bike_id": "41d103af31a0f1920d5248c2efdcf304", "type": "electric_scooter", "is_disabled": 0, "lat": 38.9175715, "rental_uris": {"ios": "https://dc.lft.to/lastmile_qr_scan", "android": "https://dc.lft.to/lastmile_qr_scan"}, "is_reserved": 0, "fusion_lon": 0.0, "fusion_lat": 0.0, "lon": -77.02399533333333, "name": "41d103af31a0f1920d5248c2efdcf304"}, {"bike_id": "bbb47b1f6a907cde6c2c24e91e33b2bd", "type": "electric_scooter", "is_disabled": 0, "lat": 38.916408833333335, "rental_uris": {"ios": "https://dc.lft.to/lastmile_qr_scan", "android": "https://dc.lft.to/lastmile_qr_scan"}, "is_reserved": 0, "fusion_lon": 0.0, "fusion_lat": 0.0, "lon": -77.0482245, "name": "bbb47b1f6a907cde6c2c24e91e33b2bd"}, {"bike_id": "1c4e496c78d214d25887cc18e105a0e9", "type": "electric_scooter", "is_disabled": 0, "lat": 38.910052666666665, "rental_uris": {"ios": "https://dc.lft.to/lastmile_qr_scan", "android": "https://dc.lft.to/lastmile_qr_scan"}, "is_reserved": 0, "fusion_lon": 0.0, "fusion_lat": 0.0, "lon": -77.020889, "name": "1c4e496c78d214d25887cc18e105a0e9"}, {"bike_id": "ddf81c8ed58f0117332bb1cfb0ef56f4", "type": "electric_scooter", "is_disabled": 0, "lat": 38.862539, "rental_uris": {"ios": "https://dc.lft.to/lastmile_qr_scan", "android": "https://dc.lft.to/lastmile_qr_scan"}, "is_reserved": 0, "fusion_lon": 0.0, "fusion_lat": 0.0, "lon": -76.99554566666667, "name": "ddf81c8ed58f0117332bb1cfb0ef56f4"}, {"bike_id": "d4f679c9eea1a164e64da9f1334db241", "type": "electric_scooter", "is_disabled": 0, "lat": 38.91790366666667, "rental_uris": {"ios": "https://dc.lft.to/lastmile_qr_scan", "android": "https://dc.lft.to/lastmile_qr_scan"}, "is_reserved": 0, "fusion_lon": 0.0, "fusion_lat": 0.0, "lon": -77.02302966666667, "name": "d4f679c9eea1a164e64da9f1334db241"}, {"bike_id": "f7c5a320aac0a7e0ee843037d189fc91", "type": "electric_scooter", "is_disabled": 0, "lat": 38.921595833333335, "rental_uris": {"ios": "https://dc.lft.to/lastmile_qr_scan", "android": "https://dc.lft.to/lastmile_qr_scan"}, "is_reserved": 0, "fusion_lon": 0.0, "fusion_lat": 0.0, "lon": -77.03339966666667, "name": "f7c5a320aac0a7e0ee843037d189fc91"}, {"bike_id": "c8261c33212e6fac826052c571f151e0", "type": "electric_scooter", "is_disabled": 0, "lat": 38.905717, "rental_uris": {"ios": "https://dc.lft.to/lastmile_qr_scan", "android": "https://dc.lft.to/lastmile_qr_scan"}, "is_reserved": 0, "fusion_lon": 0.0, "fusion_lat": 0.0, "lon": -76.9762485, "name": "c8261c33212e6fac826052c571f151e0"}, {"bike_id": "ae341a9ab7a093ec3ae2f8c8eb866954", "type": "electric_scooter", "is_disabled": 0, "lat": 38.8650455, "rental_uris": {"ios": "https://dc.lft.to/lastmile_qr_scan", "android": "https://dc.lft.to/lastmile_qr_scan"}, "is_reserved": 0, "fusion_lon": 0.0, "fusion_lat": 0.0, "lon": -76.990027, "name": "ae341a9ab7a093ec3ae2f8c8eb866954"}, {"bike_id": "c334de9e2783eae9dbd9a04243cf5660", "type": "electric_scooter", "is_disabled": 0, "lat": 38.9038105, "rental_uris": {"ios": "https://dc.lft.to/lastmile_qr_scan", "android": "https://dc.lft.to/lastmile_qr_scan"}, "is_reserved": 0, "fusion_lon": 0.0, "fusion_lat": 0.0, "lon": -77.03182666666666, "name": "c334de9e2783eae9dbd9a04243cf5660"}, {"bike_id": "c239319a5ac6698664a86deb8b7f5a7e", "type": "electric_scooter", "is_disabled": 0, "lat": 38.86251566666667, "rental_uris": {"ios": "https://dc.lft.to/lastmile_qr_scan", "android": "https://dc.lft.to/lastmile_qr_scan"}, "is_reserved": 0, "fusion_lon": 0.0, "fusion_lat": 0.0, "lon": -76.99260333333334, "name": "c239319a5ac6698664a86deb8b7f5a7e"}, {"bike_id": "31b9e93bae63cdb442f27ab8ef9295df", "type": "electric_scooter", "is_disabled": 0, "lat": 38.939085666666664, "rental_uris": {"ios": "https://dc.lft.to/lastmile_qr_scan", "android": "https://dc.lft.to/lastmile_qr_scan"}, "is_reserved": 0, "fusion_lon": 0.0, "fusion_lat": 0.0, "lon": -77.06042916666667, "name": "31b9e93bae63cdb442f27ab8ef9295df"}, {"bike_id": "6e5165c8ecf288d8e43f60278a63b0e7", "type": "electric_scooter", "is_disabled": 0, "lat": 38.9098245, "rental_uris": {"ios": "https://dc.lft.to/lastmile_qr_scan", "android": "https://dc.lft.to/lastmile_qr_scan"}, "is_reserved": 0, "fusion_lon": 0.0, "fusion_lat": 0.0, "lon": -77.0218945, "name": "6e5165c8ecf288d8e43f60278a63b0e7"}, {"bike_id": "84c03c9b7968906aa7613c01f7a26baf", "type": "electric_scooter", "is_disabled": 0, "lat": 38.90267566666667, "rental_uris": {"ios": "https://dc.lft.to/lastmile_qr_scan", "android": "https://dc.lft.to/lastmile_qr_scan"}, "is_reserved": 0, "fusion_lon": 0.0, "fusion_lat": 0.0, "lon": -77.0200875, "name": "84c03c9b7968906aa7613c01f7a26baf"}, {"bike_id": "39a98ca129fde18ba1bc103c8bfbda71", "type": "electric_scooter", "is_disabled": 0, "lat": 38.887026166666665, "rental_uris": {"ios": "https://dc.lft.to/lastmile_qr_scan", "android": "https://dc.lft.to/lastmile_qr_scan"}, "is_reserved": 0, "fusion_lon": 0.0, "fusion_lat": 0.0, "lon": -77.01368133333334, "name": "39a98ca129fde18ba1bc103c8bfbda71"}, {"bike_id": "25bd0c6fb40af8202058c68a7cf7b333", "type": "electric_scooter", "is_disabled": 0, "lat": 38.92329816666667, "rental_uris": {"ios": "https://dc.lft.to/lastmile_qr_scan", "android": "https://dc.lft.to/lastmile_qr_scan"}, "is_reserved": 0, "fusion_lon": 0.0, "fusion_lat": 0.0, "lon": -77.01955883333333, "name": "25bd0c6fb40af8202058c68a7cf7b333"}, {"bike_id": "7e8236d7d521be52307b90ed3dfa94c1", "type": "electric_scooter", "is_disabled": 0, "lat": 38.92323366666667, "rental_uris": {"ios": "https://dc.lft.to/lastmile_qr_scan", "android": "https://dc.lft.to/lastmile_qr_scan"}, "is_reserved": 0, "fusion_lon": 0.0, "fusion_lat": 0.0, "lon": -77.03673566666667, "name": "7e8236d7d521be52307b90ed3dfa94c1"}, {"bike_id": "bb9f8590d33176a835e274e822e271e2", "type": "electric_bike", "is_disabled": 0, "lat": 38.908278833333334, "rental_uris": {"ios": "https://dc.lft.to/lastmile_qr_scan", "android": "https://dc.lft.to/lastmile_qr_scan"}, "is_reserved": 0, "fusion_lon": 0.0, "fusion_lat": 0.0, "lon": -76.94158233333333, "name": "bb9f8590d33176a835e274e822e271e2"}, {"bike_id": "c1e351d251b90ac7af1d62c5f99e2aee", "type": "electric_scooter", "is_disabled": 0, "lat": 38.915677, "rental_uris": {"ios": "https://dc.lft.to/lastmile_qr_scan", "android": "https://dc.lft.to/lastmile_qr_scan"}, "is_reserved": 0, "fusion_lon": 0.0, "fusion_lat": 0.0, "lon": -77.03203716666667, "name": "c1e351d251b90ac7af1d62c5f99e2aee"}, {"bike_id": "ce9b18fd02ba836ab6404c574c259a99", "type": "electric_scooter", "is_disabled": 0, "lat": 38.90295316666667, "rental_uris": {"ios": "https://dc.lft.to/lastmile_qr_scan", "android": "https://dc.lft.to/lastmile_qr_scan"}, "is_reserved": 0, "fusion_lon": 0.0, "fusion_lat": 0.0, "lon": -77.03343116666667, "name": "ce9b18fd02ba836ab6404c574c259a99"}, {"bike_id": "bdfabc739c31ebd6bd129e7aa951c815", "type": "electric_scooter", "is_disabled": 0, "lat": 38.934612333333334, "rental_uris": {"ios": "https://dc.lft.to/lastmile_qr_scan", "android": "https://dc.lft.to/lastmile_qr_scan"}, "is_reserved": 0, "fusion_lon": 0.0, "fusion_lat": 0.0, "lon": -77.0277365, "name": "bdfabc739c31ebd6bd129e7aa951c815"}, {"bike_id": "86be5b490c8487491dae77c5776a53be", "type": "electric_scooter", "is_disabled": 0, "lat": 38.9276345, "rental_uris": {"ios": "https://dc.lft.to/lastmile_qr_scan", "android": "https://dc.lft.to/lastmile_qr_scan"}, "is_reserved": 0, "fusion_lon": 0.0, "fusion_lat": 0.0, "lon": -76.96093616666667, "name": "86be5b490c8487491dae77c5776a53be"}, {"bike_id": "be024065ebf9d2d25c7bb401bc3fabf0", "type": "electric_scooter", "is_disabled": 0, "lat": 38.921574166666666, "rental_uris": {"ios": "https://dc.lft.to/lastmile_qr_scan", "android": "https://dc.lft.to/lastmile_qr_scan"}, "is_reserved": 0, "fusion_lon": 0.0, "fusion_lat": 0.0, "lon": -77.03510766666666, "name": "be024065ebf9d2d25c7bb401bc3fabf0"}, {"bike_id": "4cd826b8928df6cac642685099fc5975", "type": "electric_scooter", "is_disabled": 0, "lat": 38.915424, "rental_uris": {"ios": "https://dc.lft.to/lastmile_qr_scan", "android": "https://dc.lft.to/lastmile_qr_scan"}, "is_reserved": 0, "fusion_lon": 0.0, "fusion_lat": 0.0, "lon": -77.01218983333334, "name": "4cd826b8928df6cac642685099fc5975"}, {"bike_id": "04e652d54234a6779340a52b8960557c", "type": "electric_scooter", "is_disabled": 0, "lat": 38.87354416666667, "rental_uris": {"ios": "https://dc.lft.to/lastmile_qr_scan", "android": "https://dc.lft.to/lastmile_qr_scan"}, "is_reserved": 0, "fusion_lon": 0.0, "fusion_lat": 0.0, "lon": -77.00109716666667, "name": "04e652d54234a6779340a52b8960557c"}, {"bike_id": "eda1ce3f5cf1148d0e03459b1996d691", "type": "electric_scooter", "is_disabled": 0, "lat": 38.9399315, "rental_uris": {"ios": "https://dc.lft.to/lastmile_qr_scan", "android": "https://dc.lft.to/lastmile_qr_scan"}, "is_reserved": 0, "fusion_lon": 0.0, "fusion_lat": 0.0, "lon": -77.0175095, "name": "eda1ce3f5cf1148d0e03459b1996d691"}, {"bike_id": "a0a5ded27c173a864e04678edfccea60", "type": "electric_scooter", "is_disabled": 0, "lat": 38.907374, "rental_uris": {"ios": "https://dc.lft.to/lastmile_qr_scan", "android": "https://dc.lft.to/lastmile_qr_scan"}, "is_reserved": 0, "fusion_lon": 0.0, "fusion_lat": 0.0, "lon": -77.02387216666666, "name": "a0a5ded27c173a864e04678edfccea60"}, {"bike_id": "ba4c29fa39795dc5e4913ca3049c3636", "type": "electric_scooter", "is_disabled": 0, "lat": 38.867371, "rental_uris": {"ios": "https://dc.lft.to/lastmile_qr_scan", "android": "https://dc.lft.to/lastmile_qr_scan"}, "is_reserved": 0, "fusion_lon": 0.0, "fusion_lat": 0.0, "lon": -76.97852116666667, "name": "ba4c29fa39795dc5e4913ca3049c3636"}, {"bike_id": "689d6c3099dfbf89ec823e3512ef3b62", "type": "electric_scooter", "is_disabled": 0, "lat": 38.9213835, "rental_uris": {"ios": "https://dc.lft.to/lastmile_qr_scan", "android": "https://dc.lft.to/lastmile_qr_scan"}, "is_reserved": 0, "fusion_lon": 0.0, "fusion_lat": 0.0, "lon": -77.03652016666666, "name": "689d6c3099dfbf89ec823e3512ef3b62"}, {"bike_id": "0c3dcc29f65037444d8f82b4edb963ce", "type": "electric_scooter", "is_disabled": 0, "lat": 38.909242666666664, "rental_uris": {"ios": "https://dc.lft.to/lastmile_qr_scan", "android": "https://dc.lft.to/lastmile_qr_scan"}, "is_reserved": 0, "fusion_lon": 0.0, "fusion_lat": 0.0, "lon": -77.05550733333334, "name": "0c3dcc29f65037444d8f82b4edb963ce"}, {"bike_id": "a6961729fda940364cca900bbb83e9a2", "type": "electric_scooter", "is_disabled": 0, "lat": 38.923155, "rental_uris": {"ios": "https://dc.lft.to/lastmile_qr_scan", "android": "https://dc.lft.to/lastmile_qr_scan"}, "is_reserved": 0, "fusion_lon": 0.0, "fusion_lat": 0.0, "lon": -77.03802866666666, "name": "a6961729fda940364cca900bbb83e9a2"}, {"bike_id": "93515a15f833a5d48ec222ba44d1ad74", "type": "electric_scooter", "is_disabled": 0, "lat": 38.914227333333336, "rental_uris": {"ios": "https://dc.lft.to/lastmile_qr_scan", "android": "https://dc.lft.to/lastmile_qr_scan"}, "is_reserved": 0, "fusion_lon": 0.0, "fusion_lat": 0.0, "lon": -77.01801416666666, "name": "93515a15f833a5d48ec222ba44d1ad74"}, {"bike_id": "7de72be11d72f9d40914f45b1689df72", "type": "electric_scooter", "is_disabled": 0, "lat": 38.9259715, "rental_uris": {"ios": "https://dc.lft.to/lastmile_qr_scan", "android": "https://dc.lft.to/lastmile_qr_scan"}, "is_reserved": 0, "fusion_lon": 0.0, "fusion_lat": 0.0, "lon": -77.02388633333334, "name": "7de72be11d72f9d40914f45b1689df72"}, {"bike_id": "0f5752af069b958edc52f7f8f63f8d4c", "type": "electric_scooter", "is_disabled": 0, "lat": 38.912515666666664, "rental_uris": {"ios": "https://dc.lft.to/lastmile_qr_scan", "android": "https://dc.lft.to/lastmile_qr_scan"}, "is_reserved": 0, "fusion_lon": 0.0, "fusion_lat": 0.0, "lon": -77.0587995, "name": "0f5752af069b958edc52f7f8f63f8d4c"}, {"bike_id": "ceefe06560e9630ed9bba87b2e90523a", "type": "electric_scooter", "is_disabled": 0, "lat": 38.90548483333333, "rental_uris": {"ios": "https://dc.lft.to/lastmile_qr_scan", "android": "https://dc.lft.to/lastmile_qr_scan"}, "is_reserved": 0, "fusion_lon": 0.0, "fusion_lat": 0.0, "lon": -77.00583466666667, "name": "ceefe06560e9630ed9bba87b2e90523a"}, {"bike_id": "d01658390743bf773b7046e2fb60e28b", "type": "electric_scooter", "is_disabled": 0, "lat": 38.905668, "rental_uris": {"ios": "https://dc.lft.to/lastmile_qr_scan", "android": "https://dc.lft.to/lastmile_qr_scan"}, "is_reserved": 0, "fusion_lon": 0.0, "fusion_lat": 0.0, "lon": -77.016822, "name": "d01658390743bf773b7046e2fb60e28b"}, {"bike_id": "72d056735f587346d1f8ae1fc993ff1f", "type": "electric_scooter", "is_disabled": 0, "lat": 38.9156535, "rental_uris": {"ios": "https://dc.lft.to/lastmile_qr_scan", "android": "https://dc.lft.to/lastmile_qr_scan"}, "is_reserved": 0, "fusion_lon": 0.0, "fusion_lat": 0.0, "lon": -77.03838416666666, "name": "72d056735f587346d1f8ae1fc993ff1f"}, {"bike_id": "60d5388c1478b86edf00400bf223d4d1", "type": "electric_scooter", "is_disabled": 0, "lat": 38.915567333333335, "rental_uris": {"ios": "https://dc.lft.to/lastmile_qr_scan", "android": "https://dc.lft.to/lastmile_qr_scan"}, "is_reserved": 0, "fusion_lon": 0.0, "fusion_lat": 0.0, "lon": -77.00364766666667, "name": "60d5388c1478b86edf00400bf223d4d1"}, {"bike_id": "dcb20abfd36720feb9426c7bb328aa0b", "type": "electric_bike", "is_disabled": 0, "lat": 38.855303666666664, "rental_uris": {"ios": "https://dc.lft.to/lastmile_qr_scan", "android": "https://dc.lft.to/lastmile_qr_scan"}, "is_reserved": 0, "fusion_lon": 0.0, "fusion_lat": 0.0, "lon": -77.12004866666666, "name": "dcb20abfd36720feb9426c7bb328aa0b"}, {"bike_id": "e139a9fc835bc075658d4b861741a8ce", "type": "electric_bike", "is_disabled": 0, "lat": 38.8549095, "rental_uris": {"ios": "https://dc.lft.to/lastmile_qr_scan", "android": "https://dc.lft.to/lastmile_qr_scan"}, "is_reserved": 0, "fusion_lon": 0.0, "fusion_lat": 0.0, "lon": -77.11610716666667, "name": "e139a9fc835bc075658d4b861741a8ce"}, {"bike_id": "b48df4d5b2fb4d8b3f00b2927bb1d0a6", "type": "electric_scooter", "is_disabled": 0, "lat": 38.902431666666665, "rental_uris": {"ios": "https://dc.lft.to/lastmile_qr_scan", "android": "https://dc.lft.to/lastmile_qr_scan"}, "is_reserved": 0, "fusion_lon": 0.0, "fusion_lat": 0.0, "lon": -77.0021135, "name": "b48df4d5b2fb4d8b3f00b2927bb1d0a6"}, {"bike_id": "cbab1102a51c958ee4b005cc043c166d", "type": "electric_bike", "is_disabled": 0, "lat": 38.99218116666667, "rental_uris": {"ios": "https://dc.lft.to/lastmile_qr_scan", "android": "https://dc.lft.to/lastmile_qr_scan"}, "is_reserved": 0, "fusion_lon": 0.0, "fusion_lat": 0.0, "lon": -76.94419583333334, "name": "cbab1102a51c958ee4b005cc043c166d"}, {"bike_id": "e2347814726839ac0a3d82ec7f294395", "type": "electric_scooter", "is_disabled": 0, "lat": 38.947139166666666, "rental_uris": {"ios": "https://dc.lft.to/lastmile_qr_scan", "android": "https://dc.lft.to/lastmile_qr_scan"}, "is_reserved": 0, "fusion_lon": 0.0, "fusion_lat": 0.0, "lon": -77.0653845, "name": "e2347814726839ac0a3d82ec7f294395"}, {"bike_id": "3a5d56866ba6d72ae2e5d2624e68b33e", "type": "electric_scooter", "is_disabled": 0, "lat": 38.91769133333333, "rental_uris": {"ios": "https://dc.lft.to/lastmile_qr_scan", "android": "https://dc.lft.to/lastmile_qr_scan"}, "is_reserved": 0, "fusion_lon": 0.0, "fusion_lat": 0.0, "lon": -77.02505383333333, "name": "3a5d56866ba6d72ae2e5d2624e68b33e"}, {"bike_id": "4120f3f11bab5e8fc2b74e3eea017d35", "type": "electric_scooter", "is_disabled": 0, "lat": 38.906927, "rental_uris": {"ios": "https://dc.lft.to/lastmile_qr_scan", "android": "https://dc.lft.to/lastmile_qr_scan"}, "is_reserved": 0, "fusion_lon": 0.0, "fusion_lat": 0.0, "lon": -77.025901, "name": "4120f3f11bab5e8fc2b74e3eea017d35"}, {"bike_id": "b0850da6e8c20de10bd8043c8205d7b6", "type": "electric_scooter", "is_disabled": 0, "lat": 38.91705533333333, "rental_uris": {"ios": "https://dc.lft.to/lastmile_qr_scan", "android": "https://dc.lft.to/lastmile_qr_scan"}, "is_reserved": 0, "fusion_lon": 0.0, "fusion_lat": 0.0, "lon": -77.01200316666667, "name": "b0850da6e8c20de10bd8043c8205d7b6"}, {"bike_id": "445a162e0260518555534a6a957f25c7", "type": "electric_scooter", "is_disabled": 0, "lat": 38.92346716666667, "rental_uris": {"ios": "https://dc.lft.to/lastmile_qr_scan", "android": "https://dc.lft.to/lastmile_qr_scan"}, "is_reserved": 0, "fusion_lon": 0.0, "fusion_lat": 0.0, "lon": -77.03481866666667, "name": "445a162e0260518555534a6a957f25c7"}, {"bike_id": "a1a635c2a07e0441129bdc7577db82ff", "type": "electric_scooter", "is_disabled": 0, "lat": 38.9197345, "rental_uris": {"ios": "https://dc.lft.to/lastmile_qr_scan", "android": "https://dc.lft.to/lastmile_qr_scan"}, "is_reserved": 0, "fusion_lon": 0.0, "fusion_lat": 0.0, "lon": -77.04079983333334, "name": "a1a635c2a07e0441129bdc7577db82ff"}, {"bike_id": "5401272a53b67b8358583f418793e8fa", "type": "electric_bike", "is_disabled": 0, "lat": 38.855648, "rental_uris": {"ios": "https://dc.lft.to/lastmile_qr_scan", "android": "https://dc.lft.to/lastmile_qr_scan"}, "is_reserved": 0, "fusion_lon": 0.0, "fusion_lat": 0.0, "lon": -77.1131605, "name": "5401272a53b67b8358583f418793e8fa"}, {"bike_id": "7635a0de588c43e7021373ae335f91f9", "type": "electric_scooter", "is_disabled": 0, "lat": 38.927672666666666, "rental_uris": {"ios": "https://dc.lft.to/lastmile_qr_scan", "android": "https://dc.lft.to/lastmile_qr_scan"}, "is_reserved": 0, "fusion_lon": 0.0, "fusion_lat": 0.0, "lon": -77.02736866666666, "name": "7635a0de588c43e7021373ae335f91f9"}, {"bike_id": "d9f38e06f21331ff24cb2fd5464c1c45", "type": "electric_scooter", "is_disabled": 0, "lat": 38.915511333333335, "rental_uris": {"ios": "https://dc.lft.to/lastmile_qr_scan", "android": "https://dc.lft.to/lastmile_qr_scan"}, "is_reserved": 0, "fusion_lon": 0.0, "fusion_lat": 0.0, "lon": -77.03844866666667, "name": "d9f38e06f21331ff24cb2fd5464c1c45"}, {"bike_id": "067d2e3d9dfb45cb97a0826f8663ab32", "type": "electric_scooter", "is_disabled": 0, "lat": 38.902792833333336, "rental_uris": {"ios": "https://dc.lft.to/lastmile_qr_scan", "android": "https://dc.lft.to/lastmile_qr_scan"}, "is_reserved": 0, "fusion_lon": 0.0, "fusion_lat": 0.0, "lon": -77.01753183333334, "name": "067d2e3d9dfb45cb97a0826f8663ab32"}, {"bike_id": "f246b4f39fadf7785de13f144e6572fe", "type": "electric_scooter", "is_disabled": 0, "lat": 38.951138666666665, "rental_uris": {"ios": "https://dc.lft.to/lastmile_qr_scan", "android": "https://dc.lft.to/lastmile_qr_scan"}, "is_reserved": 0, "fusion_lon": 0.0, "fusion_lat": 0.0, "lon": -77.01431766666667, "name": "f246b4f39fadf7785de13f144e6572fe"}, {"bike_id": "7656ce5d406baf506640ee09ee9e6212", "type": "electric_scooter", "is_disabled": 0, "lat": 38.866702833333335, "rental_uris": {"ios": "https://dc.lft.to/lastmile_qr_scan", "android": "https://dc.lft.to/lastmile_qr_scan"}, "is_reserved": 0, "fusion_lon": 0.0, "fusion_lat": 0.0, "lon": -76.98538166666667, "name": "7656ce5d406baf506640ee09ee9e6212"}, {"bike_id": "245e5ecf5ddfa7a7f70045f55c971e5b", "type": "electric_scooter", "is_disabled": 0, "lat": 38.89881316666666, "rental_uris": {"ios": "https://dc.lft.to/lastmile_qr_scan", "android": "https://dc.lft.to/lastmile_qr_scan"}, "is_reserved": 0, "fusion_lon": 0.0, "fusion_lat": 0.0, "lon": -76.9317405, "name": "245e5ecf5ddfa7a7f70045f55c971e5b"}, {"bike_id": "0f01da402033d456676ef148f43353e6", "type": "electric_scooter", "is_disabled": 0, "lat": 38.881857333333336, "rental_uris": {"ios": "https://dc.lft.to/lastmile_qr_scan", "android": "https://dc.lft.to/lastmile_qr_scan"}, "is_reserved": 0, "fusion_lon": 0.0, "fusion_lat": 0.0, "lon": -77.02079183333333, "name": "0f01da402033d456676ef148f43353e6"}, {"bike_id": "3b61e253328c393491f08f453a4f59a6", "type": "electric_bike", "is_disabled": 0, "lat": 38.94262366666667, "rental_uris": {"ios": "https://dc.lft.to/lastmile_qr_scan", "android": "https://dc.lft.to/lastmile_qr_scan"}, "is_reserved": 0, "fusion_lon": 0.0, "fusion_lat": 0.0, "lon": -76.9906995, "name": "3b61e253328c393491f08f453a4f59a6"}, {"bike_id": "b1ee8061127ffb872a88d6ec659979af", "type": "electric_scooter", "is_disabled": 0, "lat": 38.91551416666667, "rental_uris": {"ios": "https://dc.lft.to/lastmile_qr_scan", "android": "https://dc.lft.to/lastmile_qr_scan"}, "is_reserved": 0, "fusion_lon": 0.0, "fusion_lat": 0.0, "lon": -77.02417366666667, "name": "b1ee8061127ffb872a88d6ec659979af"}, {"bike_id": "cf55e97a989aedb6198b7f4f6d3d2c98", "type": "electric_bike", "is_disabled": 0, "lat": 38.8484405, "rental_uris": {"ios": "https://dc.lft.to/lastmile_qr_scan", "android": "https://dc.lft.to/lastmile_qr_scan"}, "is_reserved": 0, "fusion_lon": 0.0, "fusion_lat": 0.0, "lon": -77.07912866666666, "name": "cf55e97a989aedb6198b7f4f6d3d2c98"}, {"bike_id": "9d49c66a13ae7b0f37f6d07743f6cbe4", "type": "electric_scooter", "is_disabled": 0, "lat": 38.916252, "rental_uris": {"ios": "https://dc.lft.to/lastmile_qr_scan", "android": "https://dc.lft.to/lastmile_qr_scan"}, "is_reserved": 0, "fusion_lon": 0.0, "fusion_lat": 0.0, "lon": -77.03208033333334, "name": "9d49c66a13ae7b0f37f6d07743f6cbe4"}, {"bike_id": "9357d407c08034cfdb2cbc8d0d9c9a7e", "type": "electric_scooter", "is_disabled": 0, "lat": 38.88658616666667, "rental_uris": {"ios": "https://dc.lft.to/lastmile_qr_scan", "android": "https://dc.lft.to/lastmile_qr_scan"}, "is_reserved": 0, "fusion_lon": 0.0, "fusion_lat": 0.0, "lon": -77.02834666666666, "name": "9357d407c08034cfdb2cbc8d0d9c9a7e"}, {"bike_id": "39fe81e94a1e1b58628a9c5d36ffed53", "type": "electric_scooter", "is_disabled": 0, "lat": 38.92072016666667, "rental_uris": {"ios": "https://dc.lft.to/lastmile_qr_scan", "android": "https://dc.lft.to/lastmile_qr_scan"}, "is_reserved": 0, "fusion_lon": 0.0, "fusion_lat": 0.0, "lon": -77.02203333333334, "name": "39fe81e94a1e1b58628a9c5d36ffed53"}, {"bike_id": "d93a05a67a77a170c1bd6dbd18991311", "type": "electric_scooter", "is_disabled": 0, "lat": 38.95579083333333, "rental_uris": {"ios": "https://dc.lft.to/lastmile_qr_scan", "android": "https://dc.lft.to/lastmile_qr_scan"}, "is_reserved": 0, "fusion_lon": 0.0, "fusion_lat": 0.0, "lon": -77.08038633333334, "name": "d93a05a67a77a170c1bd6dbd18991311"}, {"bike_id": "e951e822871253fa55ffdb494cac8e62", "type": "electric_scooter", "is_disabled": 0, "lat": 38.9035915, "rental_uris": {"ios": "https://dc.lft.to/lastmile_qr_scan", "android": "https://dc.lft.to/lastmile_qr_scan"}, "is_reserved": 0, "fusion_lon": 0.0, "fusion_lat": 0.0, "lon": -77.0322215, "name": "e951e822871253fa55ffdb494cac8e62"}, {"bike_id": "e0fe3ab8e2f82a5fed9db26c4b60fd58", "type": "electric_scooter", "is_disabled": 0, "lat": 38.9077445, "rental_uris": {"ios": "https://dc.lft.to/lastmile_qr_scan", "android": "https://dc.lft.to/lastmile_qr_scan"}, "is_reserved": 0, "fusion_lon": 0.0, "fusion_lat": 0.0, "lon": -77.04342833333334, "name": "e0fe3ab8e2f82a5fed9db26c4b60fd58"}, {"bike_id": "09dc4a4ed40ef6e16b623b3f0b903632", "type": "electric_scooter", "is_disabled": 0, "lat": 38.897391, "rental_uris": {"ios": "https://dc.lft.to/lastmile_qr_scan", "android": "https://dc.lft.to/lastmile_qr_scan"}, "is_reserved": 0, "fusion_lon": 0.0, "fusion_lat": 0.0, "lon": -77.0219205, "name": "09dc4a4ed40ef6e16b623b3f0b903632"}, {"bike_id": "a882a64fe5ed5956297a7a026b418a86", "type": "electric_scooter", "is_disabled": 0, "lat": 38.88942983333333, "rental_uris": {"ios": "https://dc.lft.to/lastmile_qr_scan", "android": "https://dc.lft.to/lastmile_qr_scan"}, "is_reserved": 0, "fusion_lon": 0.0, "fusion_lat": 0.0, "lon": -77.04969933333334, "name": "a882a64fe5ed5956297a7a026b418a86"}, {"bike_id": "1f3a49bfecb71ddf764897f0cb5a78a1", "type": "electric_bike", "is_disabled": 0, "lat": 38.935257, "rental_uris": {"ios": "https://dc.lft.to/lastmile_qr_scan", "android": "https://dc.lft.to/lastmile_qr_scan"}, "is_reserved": 0, "fusion_lon": 0.0, "fusion_lat": 0.0, "lon": -76.96441916666667, "name": "1f3a49bfecb71ddf764897f0cb5a78a1"}, {"bike_id": "bf2c137b48ca470e3966fa99aa392082", "type": "electric_scooter", "is_disabled": 0, "lat": 38.91773416666667, "rental_uris": {"ios": "https://dc.lft.to/lastmile_qr_scan", "android": "https://dc.lft.to/lastmile_qr_scan"}, "is_reserved": 0, "fusion_lon": 0.0, "fusion_lat": 0.0, "lon": -77.04764683333333, "name": "bf2c137b48ca470e3966fa99aa392082"}, {"bike_id": "53d2fca4e17ff800cf563e11a6a34372", "type": "electric_scooter", "is_disabled": 0, "lat": 38.92489166666667, "rental_uris": {"ios": "https://dc.lft.to/lastmile_qr_scan", "android": "https://dc.lft.to/lastmile_qr_scan"}, "is_reserved": 0, "fusion_lon": 0.0, "fusion_lat": 0.0, "lon": -77.03184916666666, "name": "53d2fca4e17ff800cf563e11a6a34372"}, {"bike_id": "9e4d4ac77ff273b025f4c977b23716be", "type": "electric_scooter", "is_disabled": 0, "lat": 38.920429, "rental_uris": {"ios": "https://dc.lft.to/lastmile_qr_scan", "android": "https://dc.lft.to/lastmile_qr_scan"}, "is_reserved": 0, "fusion_lon": 0.0, "fusion_lat": 0.0, "lon": -77.02573066666666, "name": "9e4d4ac77ff273b025f4c977b23716be"}, {"bike_id": "02b6285bd3addac2873a8ca3bdbd07eb", "type": "electric_scooter", "is_disabled": 0, "lat": 38.92340016666667, "rental_uris": {"ios": "https://dc.lft.to/lastmile_qr_scan", "android": "https://dc.lft.to/lastmile_qr_scan"}, "is_reserved": 0, "fusion_lon": 0.0, "fusion_lat": 0.0, "lon": -77.03512133333334, "name": "02b6285bd3addac2873a8ca3bdbd07eb"}, {"bike_id": "4e4bd427cb5eeb9b52c56f56e955bc7e", "type": "electric_scooter", "is_disabled": 0, "lat": 38.90323683333333, "rental_uris": {"ios": "https://dc.lft.to/lastmile_qr_scan", "android": "https://dc.lft.to/lastmile_qr_scan"}, "is_reserved": 0, "fusion_lon": 0.0, "fusion_lat": 0.0, "lon": -77.017553, "name": "4e4bd427cb5eeb9b52c56f56e955bc7e"}, {"bike_id": "62f17443b5589bc1b5074fc8132a5905", "type": "electric_scooter", "is_disabled": 0, "lat": 38.91361783333333, "rental_uris": {"ios": "https://dc.lft.to/lastmile_qr_scan", "android": "https://dc.lft.to/lastmile_qr_scan"}, "is_reserved": 0, "fusion_lon": 0.0, "fusion_lat": 0.0, "lon": -77.03201016666667, "name": "62f17443b5589bc1b5074fc8132a5905"}, {"bike_id": "b0da37bff133800cdcae07281fb91566", "type": "electric_scooter", "is_disabled": 0, "lat": 38.93708483333333, "rental_uris": {"ios": "https://dc.lft.to/lastmile_qr_scan", "android": "https://dc.lft.to/lastmile_qr_scan"}, "is_reserved": 0, "fusion_lon": 0.0, "fusion_lat": 0.0, "lon": -77.03634433333333, "name": "b0da37bff133800cdcae07281fb91566"}, {"bike_id": "b0e7e8bb62af76113b36b4055af2ae54", "type": "electric_scooter", "is_disabled": 0, "lat": 38.90316516666667, "rental_uris": {"ios": "https://dc.lft.to/lastmile_qr_scan", "android": "https://dc.lft.to/lastmile_qr_scan"}, "is_reserved": 0, "fusion_lon": 0.0, "fusion_lat": 0.0, "lon": -76.99117483333333, "name": "b0e7e8bb62af76113b36b4055af2ae54"}, {"bike_id": "c9d0a56047f9b27591d0c76365997a0a", "type": "electric_bike", "is_disabled": 0, "lat": 38.809754, "rental_uris": {"ios": "https://dc.lft.to/lastmile_qr_scan", "android": "https://dc.lft.to/lastmile_qr_scan"}, "is_reserved": 0, "fusion_lon": 0.0, "fusion_lat": 0.0, "lon": -77.08629683333334, "name": "c9d0a56047f9b27591d0c76365997a0a"}, {"bike_id": "ac7829bb68d410de0e20de1602171cc8", "type": "electric_scooter", "is_disabled": 0, "lat": 38.917056, "rental_uris": {"ios": "https://dc.lft.to/lastmile_qr_scan", "android": "https://dc.lft.to/lastmile_qr_scan"}, "is_reserved": 0, "fusion_lon": 0.0, "fusion_lat": 0.0, "lon": -77.02659533333333, "name": "ac7829bb68d410de0e20de1602171cc8"}, {"bike_id": "44b14d48751ce0f23a18c9a40c882025", "type": "electric_scooter", "is_disabled": 0, "lat": 38.863730333333336, "rental_uris": {"ios": "https://dc.lft.to/lastmile_qr_scan", "android": "https://dc.lft.to/lastmile_qr_scan"}, "is_reserved": 0, "fusion_lon": 0.0, "fusion_lat": 0.0, "lon": -76.99057083333334, "name": "44b14d48751ce0f23a18c9a40c882025"}, {"bike_id": "608b98543171da8fa2e96efa458d3bb4", "type": "electric_scooter", "is_disabled": 0, "lat": 38.909499333333336, "rental_uris": {"ios": "https://dc.lft.to/lastmile_qr_scan", "android": "https://dc.lft.to/lastmile_qr_scan"}, "is_reserved": 0, "fusion_lon": 0.0, "fusion_lat": 0.0, "lon": -77.048654, "name": "608b98543171da8fa2e96efa458d3bb4"}, {"bike_id": "cf210de0385b47ef39569d46e51fe7d9", "type": "electric_scooter", "is_disabled": 0, "lat": 38.8988525, "rental_uris": {"ios": "https://dc.lft.to/lastmile_qr_scan", "android": "https://dc.lft.to/lastmile_qr_scan"}, "is_reserved": 0, "fusion_lon": 0.0, "fusion_lat": 0.0, "lon": -76.97681533333333, "name": "cf210de0385b47ef39569d46e51fe7d9"}, {"bike_id": "32cb92863fcff04b91a957876af2b048", "type": "electric_scooter", "is_disabled": 0, "lat": 38.8998705, "rental_uris": {"ios": "https://dc.lft.to/lastmile_qr_scan", "android": "https://dc.lft.to/lastmile_qr_scan"}, "is_reserved": 0, "fusion_lon": 0.0, "fusion_lat": 0.0, "lon": -77.02200916666666, "name": "32cb92863fcff04b91a957876af2b048"}, {"bike_id": "ed24776a1f8d8ca03c73cb57818f094b", "type": "electric_bike", "is_disabled": 0, "lat": 38.949184333333335, "rental_uris": {"ios": "https://dc.lft.to/lastmile_qr_scan", "android": "https://dc.lft.to/lastmile_qr_scan"}, "is_reserved": 0, "fusion_lon": 0.0, "fusion_lat": 0.0, "lon": -77.0079645, "name": "ed24776a1f8d8ca03c73cb57818f094b"}, {"bike_id": "92f029ab2f535a26485813f00c7dee13", "type": "electric_scooter", "is_disabled": 0, "lat": 38.892225333333336, "rental_uris": {"ios": "https://dc.lft.to/lastmile_qr_scan", "android": "https://dc.lft.to/lastmile_qr_scan"}, "is_reserved": 0, "fusion_lon": 0.0, "fusion_lat": 0.0, "lon": -77.0226005, "name": "92f029ab2f535a26485813f00c7dee13"}, {"bike_id": "762ac2cfd18b0f9d8b376c2d0f928283", "type": "electric_scooter", "is_disabled": 0, "lat": 38.897544333333336, "rental_uris": {"ios": "https://dc.lft.to/lastmile_qr_scan", "android": "https://dc.lft.to/lastmile_qr_scan"}, "is_reserved": 0, "fusion_lon": 0.0, "fusion_lat": 0.0, "lon": -77.02781866666666, "name": "762ac2cfd18b0f9d8b376c2d0f928283"}, {"bike_id": "4bd9bf3d9d9237a55032effa71e3dbff", "type": "electric_scooter", "is_disabled": 0, "lat": 38.91341666666667, "rental_uris": {"ios": "https://dc.lft.to/lastmile_qr_scan", "android": "https://dc.lft.to/lastmile_qr_scan"}, "is_reserved": 0, "fusion_lon": 0.0, "fusion_lat": 0.0, "lon": -77.04050383333333, "name": "4bd9bf3d9d9237a55032effa71e3dbff"}, {"bike_id": "d0ed66c7e7ab7b1cc61b20557061f949", "type": "electric_scooter", "is_disabled": 0, "lat": 38.91422383333333, "rental_uris": {"ios": "https://dc.lft.to/lastmile_qr_scan", "android": "https://dc.lft.to/lastmile_qr_scan"}, "is_reserved": 0, "fusion_lon": 0.0, "fusion_lat": 0.0, "lon": -77.02183383333333, "name": "d0ed66c7e7ab7b1cc61b20557061f949"}, {"bike_id": "d6a58c3e5590de7d719da47855843052", "type": "electric_bike", "is_disabled": 0, "lat": 38.81935283333333, "rental_uris": {"ios": "https://dc.lft.to/lastmile_qr_scan", "android": "https://dc.lft.to/lastmile_qr_scan"}, "is_reserved": 0, "fusion_lon": 0.0, "fusion_lat": 0.0, "lon": -77.00201083333333, "name": "d6a58c3e5590de7d719da47855843052"}, {"bike_id": "1d6f6593a8e3cb85d7b828d421b6f49f", "type": "electric_scooter", "is_disabled": 0, "lat": 38.9570695, "rental_uris": {"ios": "https://dc.lft.to/lastmile_qr_scan", "android": "https://dc.lft.to/lastmile_qr_scan"}, "is_reserved": 0, "fusion_lon": 0.0, "fusion_lat": 0.0, "lon": -77.02399283333334, "name": "1d6f6593a8e3cb85d7b828d421b6f49f"}, {"bike_id": "16014649d2ddf8f82ddfdf6e4ba05a57", "type": "electric_scooter", "is_disabled": 0, "lat": 38.92199, "rental_uris": {"ios": "https://dc.lft.to/lastmile_qr_scan", "android": "https://dc.lft.to/lastmile_qr_scan"}, "is_reserved": 0, "fusion_lon": 0.0, "fusion_lat": 0.0, "lon": -77.0202805, "name": "16014649d2ddf8f82ddfdf6e4ba05a57"}, {"bike_id": "bac4bc07629d480e6ffd62749161c60d", "type": "electric_scooter", "is_disabled": 0, "lat": 38.91661366666666, "rental_uris": {"ios": "https://dc.lft.to/lastmile_qr_scan", "android": "https://dc.lft.to/lastmile_qr_scan"}, "is_reserved": 0, "fusion_lon": 0.0, "fusion_lat": 0.0, "lon": -77.03202016666667, "name": "bac4bc07629d480e6ffd62749161c60d"}, {"bike_id": "9b7c30ca8217e6a32fa63077eacd6605", "type": "electric_scooter", "is_disabled": 0, "lat": 38.93061383333333, "rental_uris": {"ios": "https://dc.lft.to/lastmile_qr_scan", "android": "https://dc.lft.to/lastmile_qr_scan"}, "is_reserved": 0, "fusion_lon": 0.0, "fusion_lat": 0.0, "lon": -77.03892616666667, "name": "9b7c30ca8217e6a32fa63077eacd6605"}, {"bike_id": "15da51ebd5825cb07e09bab426837908", "type": "electric_scooter", "is_disabled": 0, "lat": 38.931825833333335, "rental_uris": {"ios": "https://dc.lft.to/lastmile_qr_scan", "android": "https://dc.lft.to/lastmile_qr_scan"}, "is_reserved": 0, "fusion_lon": 0.0, "fusion_lat": 0.0, "lon": -77.08427733333333, "name": "15da51ebd5825cb07e09bab426837908"}, {"bike_id": "577bf78cea16af8947d4ca8d87022b63", "type": "electric_scooter", "is_disabled": 0, "lat": 38.92539433333334, "rental_uris": {"ios": "https://dc.lft.to/lastmile_qr_scan", "android": "https://dc.lft.to/lastmile_qr_scan"}, "is_reserved": 0, "fusion_lon": 0.0, "fusion_lat": 0.0, "lon": -77.03858566666666, "name": "577bf78cea16af8947d4ca8d87022b63"}, {"bike_id": "5e9b6e26e3af959af70202c9066ed6c7", "type": "electric_scooter", "is_disabled": 0, "lat": 38.92108483333333, "rental_uris": {"ios": "https://dc.lft.to/lastmile_qr_scan", "android": "https://dc.lft.to/lastmile_qr_scan"}, "is_reserved": 0, "fusion_lon": 0.0, "fusion_lat": 0.0, "lon": -77.03175983333334, "name": "5e9b6e26e3af959af70202c9066ed6c7"}, {"bike_id": "0b20fe758bcbc884b12c1e8782f58bb7", "type": "electric_scooter", "is_disabled": 0, "lat": 38.895616, "rental_uris": {"ios": "https://dc.lft.to/lastmile_qr_scan", "android": "https://dc.lft.to/lastmile_qr_scan"}, "is_reserved": 0, "fusion_lon": 0.0, "fusion_lat": 0.0, "lon": -76.92963266666666, "name": "0b20fe758bcbc884b12c1e8782f58bb7"}, {"bike_id": "d3d278fffbc32870a5a3aeef1ca5a0c4", "type": "electric_scooter", "is_disabled": 0, "lat": 38.939960666666664, "rental_uris": {"ios": "https://dc.lft.to/lastmile_qr_scan", "android": "https://dc.lft.to/lastmile_qr_scan"}, "is_reserved": 0, "fusion_lon": 0.0, "fusion_lat": 0.0, "lon": -77.0380195, "name": "d3d278fffbc32870a5a3aeef1ca5a0c4"}, {"bike_id": "3eb2475306a5323ba8bf9dc0f99e81bd", "type": "electric_scooter", "is_disabled": 0, "lat": 38.90559733333333, "rental_uris": {"ios": "https://dc.lft.to/lastmile_qr_scan", "android": "https://dc.lft.to/lastmile_qr_scan"}, "is_reserved": 0, "fusion_lon": 0.0, "fusion_lat": 0.0, "lon": -77.00548433333333, "name": "3eb2475306a5323ba8bf9dc0f99e81bd"}, {"bike_id": "8b1c14aca3f522e2bf7e49f0c312f706", "type": "electric_scooter", "is_disabled": 0, "lat": 38.92231916666667, "rental_uris": {"ios": "https://dc.lft.to/lastmile_qr_scan", "android": "https://dc.lft.to/lastmile_qr_scan"}, "is_reserved": 0, "fusion_lon": 0.0, "fusion_lat": 0.0, "lon": -77.04376733333334, "name": "8b1c14aca3f522e2bf7e49f0c312f706"}, {"bike_id": "96e6e6b997e0173c1ef75100161ca80e", "type": "electric_scooter", "is_disabled": 0, "lat": 38.9185715, "rental_uris": {"ios": "https://dc.lft.to/lastmile_qr_scan", "android": "https://dc.lft.to/lastmile_qr_scan"}, "is_reserved": 0, "fusion_lon": 0.0, "fusion_lat": 0.0, "lon": -76.961131, "name": "96e6e6b997e0173c1ef75100161ca80e"}, {"bike_id": "6ee1d003628d084ca343a660d2dc22f7", "type": "electric_scooter", "is_disabled": 0, "lat": 38.89990183333333, "rental_uris": {"ios": "https://dc.lft.to/lastmile_qr_scan", "android": "https://dc.lft.to/lastmile_qr_scan"}, "is_reserved": 0, "fusion_lon": 0.0, "fusion_lat": 0.0, "lon": -77.02688833333333, "name": "6ee1d003628d084ca343a660d2dc22f7"}, {"bike_id": "92bfcbad8ce1fdfa7dbec5be0bc20ae7", "type": "electric_scooter", "is_disabled": 0, "lat": 38.884671, "rental_uris": {"ios": "https://dc.lft.to/lastmile_qr_scan", "android": "https://dc.lft.to/lastmile_qr_scan"}, "is_reserved": 0, "fusion_lon": 0.0, "fusion_lat": 0.0, "lon": -77.000481, "name": "92bfcbad8ce1fdfa7dbec5be0bc20ae7"}, {"bike_id": "8736a080736be9d2a5e8444525bc2b78", "type": "electric_scooter", "is_disabled": 0, "lat": 38.920512333333335, "rental_uris": {"ios": "https://dc.lft.to/lastmile_qr_scan", "android": "https://dc.lft.to/lastmile_qr_scan"}, "is_reserved": 0, "fusion_lon": 0.0, "fusion_lat": 0.0, "lon": -77.03394733333333, "name": "8736a080736be9d2a5e8444525bc2b78"}, {"bike_id": "3c7963349fa41420345fd0259cd0b5a3", "type": "electric_scooter", "is_disabled": 0, "lat": 38.91803433333333, "rental_uris": {"ios": "https://dc.lft.to/lastmile_qr_scan", "android": "https://dc.lft.to/lastmile_qr_scan"}, "is_reserved": 0, "fusion_lon": 0.0, "fusion_lat": 0.0, "lon": -77.03076016666667, "name": "3c7963349fa41420345fd0259cd0b5a3"}, {"bike_id": "5414cc0af515de7c17c7873016bbbe1d", "type": "electric_bike", "is_disabled": 0, "lat": 38.90891833333333, "rental_uris": {"ios": "https://dc.lft.to/lastmile_qr_scan", "android": "https://dc.lft.to/lastmile_qr_scan"}, "is_reserved": 0, "fusion_lon": 0.0, "fusion_lat": 0.0, "lon": -77.0320745, "name": "5414cc0af515de7c17c7873016bbbe1d"}, {"bike_id": "9380641f67df665e2daf97e64e438fc0", "type": "electric_bike", "is_disabled": 0, "lat": 38.8972835, "rental_uris": {"ios": "https://dc.lft.to/lastmile_qr_scan", "android": "https://dc.lft.to/lastmile_qr_scan"}, "is_reserved": 0, "fusion_lon": 0.0, "fusion_lat": 0.0, "lon": -76.97346233333333, "name": "9380641f67df665e2daf97e64e438fc0"}, {"bike_id": "c65ff4e8df59283abdd53464278b0466", "type": "electric_scooter", "is_disabled": 0, "lat": 38.88774083333333, "rental_uris": {"ios": "https://dc.lft.to/lastmile_qr_scan", "android": "https://dc.lft.to/lastmile_qr_scan"}, "is_reserved": 0, "fusion_lon": 0.0, "fusion_lat": 0.0, "lon": -76.9552165, "name": "c65ff4e8df59283abdd53464278b0466"}, {"bike_id": "6aa4ff7f2172e9985e68907e41c0c981", "type": "electric_scooter", "is_disabled": 0, "lat": 38.9209345, "rental_uris": {"ios": "https://dc.lft.to/lastmile_qr_scan", "android": "https://dc.lft.to/lastmile_qr_scan"}, "is_reserved": 0, "fusion_lon": 0.0, "fusion_lat": 0.0, "lon": -77.0245185, "name": "6aa4ff7f2172e9985e68907e41c0c981"}, {"bike_id": "102b8cd530a1afa42158b4d0de752707", "type": "electric_scooter", "is_disabled": 0, "lat": 38.90377866666667, "rental_uris": {"ios": "https://dc.lft.to/lastmile_qr_scan", "android": "https://dc.lft.to/lastmile_qr_scan"}, "is_reserved": 0, "fusion_lon": 0.0, "fusion_lat": 0.0, "lon": -77.03185033333334, "name": "102b8cd530a1afa42158b4d0de752707"}, {"bike_id": "19770e9b292210c1ddd12039d096fad6", "type": "electric_scooter", "is_disabled": 0, "lat": 38.93171266666667, "rental_uris": {"ios": "https://dc.lft.to/lastmile_qr_scan", "android": "https://dc.lft.to/lastmile_qr_scan"}, "is_reserved": 0, "fusion_lon": 0.0, "fusion_lat": 0.0, "lon": -77.03156116666666, "name": "19770e9b292210c1ddd12039d096fad6"}, {"bike_id": "29f4f3762557cc1d798783dc9d44b33d", "type": "electric_scooter", "is_disabled": 0, "lat": 38.86626316666667, "rental_uris": {"ios": "https://dc.lft.to/lastmile_qr_scan", "android": "https://dc.lft.to/lastmile_qr_scan"}, "is_reserved": 0, "fusion_lon": 0.0, "fusion_lat": 0.0, "lon": -76.98712733333333, "name": "29f4f3762557cc1d798783dc9d44b33d"}, {"bike_id": "fc303c54b5eeab20fd4d8494cbbef99c", "type": "electric_scooter", "is_disabled": 0, "lat": 38.914843833333336, "rental_uris": {"ios": "https://dc.lft.to/lastmile_qr_scan", "android": "https://dc.lft.to/lastmile_qr_scan"}, "is_reserved": 0, "fusion_lon": 0.0, "fusion_lat": 0.0, "lon": -77.03569616666667, "name": "fc303c54b5eeab20fd4d8494cbbef99c"}, {"bike_id": "92f429e49f124721bdc07b7dbc406323", "type": "electric_scooter", "is_disabled": 0, "lat": 38.896524, "rental_uris": {"ios": "https://dc.lft.to/lastmile_qr_scan", "android": "https://dc.lft.to/lastmile_qr_scan"}, "is_reserved": 0, "fusion_lon": 0.0, "fusion_lat": 0.0, "lon": -77.07067216666667, "name": "92f429e49f124721bdc07b7dbc406323"}, {"bike_id": "ad18a5fafbc3b76e088af8018d66f2c8", "type": "electric_scooter", "is_disabled": 0, "lat": 38.923275, "rental_uris": {"ios": "https://dc.lft.to/lastmile_qr_scan", "android": "https://dc.lft.to/lastmile_qr_scan"}, "is_reserved": 0, "fusion_lon": 0.0, "fusion_lat": 0.0, "lon": -77.05566366666666, "name": "ad18a5fafbc3b76e088af8018d66f2c8"}, {"bike_id": "e17dc0917f762ab25f75964339c72706", "type": "electric_scooter", "is_disabled": 0, "lat": 38.9287265, "rental_uris": {"ios": "https://dc.lft.to/lastmile_qr_scan", "android": "https://dc.lft.to/lastmile_qr_scan"}, "is_reserved": 0, "fusion_lon": 0.0, "fusion_lat": 0.0, "lon": -77.03922783333333, "name": "e17dc0917f762ab25f75964339c72706"}, {"bike_id": "53296319995c8235ad1bdb8c05e93173", "type": "electric_scooter", "is_disabled": 0, "lat": 38.908783166666666, "rental_uris": {"ios": "https://dc.lft.to/lastmile_qr_scan", "android": "https://dc.lft.to/lastmile_qr_scan"}, "is_reserved": 0, "fusion_lon": 0.0, "fusion_lat": 0.0, "lon": -77.03182816666667, "name": "53296319995c8235ad1bdb8c05e93173"}, {"bike_id": "7306c0229cf9492930502e3c702b8fc7", "type": "electric_scooter", "is_disabled": 0, "lat": 38.89962416666667, "rental_uris": {"ios": "https://dc.lft.to/lastmile_qr_scan", "android": "https://dc.lft.to/lastmile_qr_scan"}, "is_reserved": 0, "fusion_lon": 0.0, "fusion_lat": 0.0, "lon": -77.01977816666667, "name": "7306c0229cf9492930502e3c702b8fc7"}, {"bike_id": "73b04d8c2c5f0353a0c6db529a5a88b7", "type": "electric_scooter", "is_disabled": 0, "lat": 38.915555833333336, "rental_uris": {"ios": "https://dc.lft.to/lastmile_qr_scan", "android": "https://dc.lft.to/lastmile_qr_scan"}, "is_reserved": 0, "fusion_lon": 0.0, "fusion_lat": 0.0, "lon": -77.03257383333333, "name": "73b04d8c2c5f0353a0c6db529a5a88b7"}, {"bike_id": "9cbb899eeeaba31cec2b138bbe9bbc58", "type": "electric_scooter", "is_disabled": 0, "lat": 38.898883166666664, "rental_uris": {"ios": "https://dc.lft.to/lastmile_qr_scan", "android": "https://dc.lft.to/lastmile_qr_scan"}, "is_reserved": 0, "fusion_lon": 0.0, "fusion_lat": 0.0, "lon": -76.931777, "name": "9cbb899eeeaba31cec2b138bbe9bbc58"}, {"bike_id": "0124289c13090515827db4229720248a", "type": "electric_scooter", "is_disabled": 0, "lat": 38.9081095, "rental_uris": {"ios": "https://dc.lft.to/lastmile_qr_scan", "android": "https://dc.lft.to/lastmile_qr_scan"}, "is_reserved": 0, "fusion_lon": 0.0, "fusion_lat": 0.0, "lon": -77.04321016666667, "name": "0124289c13090515827db4229720248a"}, {"bike_id": "cacf048cee41335c57c0ae84097b8057", "type": "electric_scooter", "is_disabled": 0, "lat": 38.908558666666664, "rental_uris": {"ios": "https://dc.lft.to/lastmile_qr_scan", "android": "https://dc.lft.to/lastmile_qr_scan"}, "is_reserved": 0, "fusion_lon": 0.0, "fusion_lat": 0.0, "lon": -76.99969283333333, "name": "cacf048cee41335c57c0ae84097b8057"}, {"bike_id": "81434e3787889d87e8aa22fe4af9308d", "type": "electric_scooter", "is_disabled": 0, "lat": 38.9003555, "rental_uris": {"ios": "https://dc.lft.to/lastmile_qr_scan", "android": "https://dc.lft.to/lastmile_qr_scan"}, "is_reserved": 0, "fusion_lon": 0.0, "fusion_lat": 0.0, "lon": -77.00194366666666, "name": "81434e3787889d87e8aa22fe4af9308d"}, {"bike_id": "71b1aa05b054fb1c5c7791d3b3966146", "type": "electric_scooter", "is_disabled": 0, "lat": 38.96847783333333, "rental_uris": {"ios": "https://dc.lft.to/lastmile_qr_scan", "android": "https://dc.lft.to/lastmile_qr_scan"}, "is_reserved": 0, "fusion_lon": 0.0, "fusion_lat": 0.0, "lon": -77.02724333333333, "name": "71b1aa05b054fb1c5c7791d3b3966146"}, {"bike_id": "5c612cbdad151dea87f156f0f8dab1c4", "type": "electric_scooter", "is_disabled": 0, "lat": 38.9222095, "rental_uris": {"ios": "https://dc.lft.to/lastmile_qr_scan", "android": "https://dc.lft.to/lastmile_qr_scan"}, "is_reserved": 0, "fusion_lon": 0.0, "fusion_lat": 0.0, "lon": -77.043303, "name": "5c612cbdad151dea87f156f0f8dab1c4"}, {"bike_id": "2f78b20ca22847cfc9c2d3c96c93cc8a", "type": "electric_scooter", "is_disabled": 0, "lat": 38.876466666666666, "rental_uris": {"ios": "https://dc.lft.to/lastmile_qr_scan", "android": "https://dc.lft.to/lastmile_qr_scan"}, "is_reserved": 0, "fusion_lon": 0.0, "fusion_lat": 0.0, "lon": -76.96503983333334, "name": "2f78b20ca22847cfc9c2d3c96c93cc8a"}, {"bike_id": "52041367905f9cfd60ab0b29094c7c34", "type": "electric_scooter", "is_disabled": 0, "lat": 38.900279833333336, "rental_uris": {"ios": "https://dc.lft.to/lastmile_qr_scan", "android": "https://dc.lft.to/lastmile_qr_scan"}, "is_reserved": 0, "fusion_lon": 0.0, "fusion_lat": 0.0, "lon": -76.98857733333334, "name": "52041367905f9cfd60ab0b29094c7c34"}, {"bike_id": "b49d02816da3ac3059a76d1862a49442", "type": "electric_scooter", "is_disabled": 0, "lat": 38.86194583333333, "rental_uris": {"ios": "https://dc.lft.to/lastmile_qr_scan", "android": "https://dc.lft.to/lastmile_qr_scan"}, "is_reserved": 0, "fusion_lon": 0.0, "fusion_lat": 0.0, "lon": -76.959503, "name": "b49d02816da3ac3059a76d1862a49442"}, {"bike_id": "4025795e72a1a3176bf8283eee2140a8", "type": "electric_scooter", "is_disabled": 0, "lat": 38.89606166666667, "rental_uris": {"ios": "https://dc.lft.to/lastmile_qr_scan", "android": "https://dc.lft.to/lastmile_qr_scan"}, "is_reserved": 0, "fusion_lon": 0.0, "fusion_lat": 0.0, "lon": -77.04428016666667, "name": "4025795e72a1a3176bf8283eee2140a8"}, {"bike_id": "ba3e645aa0440c825d6d64c9d110d8be", "type": "electric_scooter", "is_disabled": 0, "lat": 38.913471, "rental_uris": {"ios": "https://dc.lft.to/lastmile_qr_scan", "android": "https://dc.lft.to/lastmile_qr_scan"}, "is_reserved": 0, "fusion_lon": 0.0, "fusion_lat": 0.0, "lon": -77.07116716666667, "name": "ba3e645aa0440c825d6d64c9d110d8be"}, {"bike_id": "cab8384e71ecd82e6e1f0797fe21d3ff", "type": "electric_scooter", "is_disabled": 0, "lat": 38.90021733333333, "rental_uris": {"ios": "https://dc.lft.to/lastmile_qr_scan", "android": "https://dc.lft.to/lastmile_qr_scan"}, "is_reserved": 0, "fusion_lon": 0.0, "fusion_lat": 0.0, "lon": -77.01176183333334, "name": "cab8384e71ecd82e6e1f0797fe21d3ff"}, {"bike_id": "da1b32e3880ac09ed35f1c4a138f4dcb", "type": "electric_bike", "is_disabled": 0, "lat": 38.995357, "rental_uris": {"ios": "https://dc.lft.to/lastmile_qr_scan", "android": "https://dc.lft.to/lastmile_qr_scan"}, "is_reserved": 0, "fusion_lon": 0.0, "fusion_lat": 0.0, "lon": -77.06948833333334, "name": "da1b32e3880ac09ed35f1c4a138f4dcb"}, {"bike_id": "b95df0ea44b2416a84caea9029b72322", "type": "electric_scooter", "is_disabled": 0, "lat": 38.86243433333333, "rental_uris": {"ios": "https://dc.lft.to/lastmile_qr_scan", "android": "https://dc.lft.to/lastmile_qr_scan"}, "is_reserved": 0, "fusion_lon": 0.0, "fusion_lat": 0.0, "lon": -76.99494033333333, "name": "b95df0ea44b2416a84caea9029b72322"}, {"bike_id": "0074ce0e6b780d8e5cf90ee445d54b59", "type": "electric_scooter", "is_disabled": 0, "lat": 38.90045516666667, "rental_uris": {"ios": "https://dc.lft.to/lastmile_qr_scan", "android": "https://dc.lft.to/lastmile_qr_scan"}, "is_reserved": 0, "fusion_lon": 0.0, "fusion_lat": 0.0, "lon": -76.98287583333334, "name": "0074ce0e6b780d8e5cf90ee445d54b59"}, {"bike_id": "ee6e28b0b687f71410332000264e5f9d", "type": "electric_scooter", "is_disabled": 0, "lat": 38.8922375, "rental_uris": {"ios": "https://dc.lft.to/lastmile_qr_scan", "android": "https://dc.lft.to/lastmile_qr_scan"}, "is_reserved": 0, "fusion_lon": 0.0, "fusion_lat": 0.0, "lon": -77.0480065, "name": "ee6e28b0b687f71410332000264e5f9d"}, {"bike_id": "e70a0141f2fbe3154774a4a79fca9d11", "type": "electric_bike", "is_disabled": 0, "lat": 38.83604183333333, "rental_uris": {"ios": "https://dc.lft.to/lastmile_qr_scan", "android": "https://dc.lft.to/lastmile_qr_scan"}, "is_reserved": 0, "fusion_lon": 0.0, "fusion_lat": 0.0, "lon": -77.00376466666667, "name": "e70a0141f2fbe3154774a4a79fca9d11"}, {"bike_id": "0694c28e1009a8cebcc09e21a722ebcf", "type": "electric_scooter", "is_disabled": 0, "lat": 38.884911, "rental_uris": {"ios": "https://dc.lft.to/lastmile_qr_scan", "android": "https://dc.lft.to/lastmile_qr_scan"}, "is_reserved": 0, "fusion_lon": 0.0, "fusion_lat": 0.0, "lon": -77.03474, "name": "0694c28e1009a8cebcc09e21a722ebcf"}, {"bike_id": "c4b1296f9d433d8d369e7f85a436fc44", "type": "electric_scooter", "is_disabled": 0, "lat": 38.90954283333333, "rental_uris": {"ios": "https://dc.lft.to/lastmile_qr_scan", "android": "https://dc.lft.to/lastmile_qr_scan"}, "is_reserved": 0, "fusion_lon": 0.0, "fusion_lat": 0.0, "lon": -77.02217066666667, "name": "c4b1296f9d433d8d369e7f85a436fc44"}, {"bike_id": "fa77d1647eebaa97b2b9552a749d952f", "type": "electric_scooter", "is_disabled": 0, "lat": 38.90560816666667, "rental_uris": {"ios": "https://dc.lft.to/lastmile_qr_scan", "android": "https://dc.lft.to/lastmile_qr_scan"}, "is_reserved": 0, "fusion_lon": 0.0, "fusion_lat": 0.0, "lon": -77.03427533333333, "name": "fa77d1647eebaa97b2b9552a749d952f"}, {"bike_id": "0deb2f71775080e080ffade564d2586b", "type": "electric_scooter", "is_disabled": 0, "lat": 38.883663, "rental_uris": {"ios": "https://dc.lft.to/lastmile_qr_scan", "android": "https://dc.lft.to/lastmile_qr_scan"}, "is_reserved": 0, "fusion_lon": 0.0, "fusion_lat": 0.0, "lon": -76.99539833333333, "name": "0deb2f71775080e080ffade564d2586b"}, {"bike_id": "771b063cca4526037b8b2bace147d6a8", "type": "electric_scooter", "is_disabled": 0, "lat": 38.932504333333334, "rental_uris": {"ios": "https://dc.lft.to/lastmile_qr_scan", "android": "https://dc.lft.to/lastmile_qr_scan"}, "is_reserved": 0, "fusion_lon": 0.0, "fusion_lat": 0.0, "lon": -76.99515283333334, "name": "771b063cca4526037b8b2bace147d6a8"}, {"bike_id": "8631089a2a568ac2dac32506b0393838", "type": "electric_scooter", "is_disabled": 0, "lat": 38.89699066666667, "rental_uris": {"ios": "https://dc.lft.to/lastmile_qr_scan", "android": "https://dc.lft.to/lastmile_qr_scan"}, "is_reserved": 0, "fusion_lon": 0.0, "fusion_lat": 0.0, "lon": -76.99960266666666, "name": "8631089a2a568ac2dac32506b0393838"}, {"bike_id": "8e52095b7d5e019ed76ba14925a1d190", "type": "electric_scooter", "is_disabled": 0, "lat": 38.914712, "rental_uris": {"ios": "https://dc.lft.to/lastmile_qr_scan", "android": "https://dc.lft.to/lastmile_qr_scan"}, "is_reserved": 0, "fusion_lon": 0.0, "fusion_lat": 0.0, "lon": -77.02190116666667, "name": "8e52095b7d5e019ed76ba14925a1d190"}, {"bike_id": "8d99937bfbf2ab98233556d664b62969", "type": "electric_bike", "is_disabled": 0, "lat": 38.972060666666664, "rental_uris": {"ios": "https://dc.lft.to/lastmile_qr_scan", "android": "https://dc.lft.to/lastmile_qr_scan"}, "is_reserved": 0, "fusion_lon": 0.0, "fusion_lat": 0.0, "lon": -77.033313, "name": "8d99937bfbf2ab98233556d664b62969"}, {"bike_id": "c129e32fc8ebef66b8b3dfc04b88e514", "type": "electric_scooter", "is_disabled": 0, "lat": 38.900587, "rental_uris": {"ios": "https://dc.lft.to/lastmile_qr_scan", "android": "https://dc.lft.to/lastmile_qr_scan"}, "is_reserved": 0, "fusion_lon": 0.0, "fusion_lat": 0.0, "lon": -77.036354, "name": "c129e32fc8ebef66b8b3dfc04b88e514"}, {"bike_id": "8c531cc5addb3a6f64ed959dd388fd3b", "type": "electric_scooter", "is_disabled": 0, "lat": 38.89293816666667, "rental_uris": {"ios": "https://dc.lft.to/lastmile_qr_scan", "android": "https://dc.lft.to/lastmile_qr_scan"}, "is_reserved": 0, "fusion_lon": 0.0, "fusion_lat": 0.0, "lon": -77.04872783333333, "name": "8c531cc5addb3a6f64ed959dd388fd3b"}, {"bike_id": "b6c83ec750eed4fe2d0fb68058cf6420", "type": "electric_scooter", "is_disabled": 0, "lat": 38.92240916666667, "rental_uris": {"ios": "https://dc.lft.to/lastmile_qr_scan", "android": "https://dc.lft.to/lastmile_qr_scan"}, "is_reserved": 0, "fusion_lon": 0.0, "fusion_lat": 0.0, "lon": -77.03660966666666, "name": "b6c83ec750eed4fe2d0fb68058cf6420"}, {"bike_id": "83c37d3a19045e90af47da4d2ecd86b0", "type": "electric_bike", "is_disabled": 0, "lat": 39.039857, "rental_uris": {"ios": "https://dc.lft.to/lastmile_qr_scan", "android": "https://dc.lft.to/lastmile_qr_scan"}, "is_reserved": 0, "fusion_lon": 0.0, "fusion_lat": 0.0, "lon": -76.9992035, "name": "83c37d3a19045e90af47da4d2ecd86b0"}, {"bike_id": "357a8c92c1a28b3748815dae316d7daf", "type": "electric_scooter", "is_disabled": 0, "lat": 38.917026, "rental_uris": {"ios": "https://dc.lft.to/lastmile_qr_scan", "android": "https://dc.lft.to/lastmile_qr_scan"}, "is_reserved": 0, "fusion_lon": 0.0, "fusion_lat": 0.0, "lon": -77.03209666666666, "name": "357a8c92c1a28b3748815dae316d7daf"}, {"bike_id": "15dcc0d4bbb7a4d6355ea92a1720c864", "type": "electric_scooter", "is_disabled": 0, "lat": 38.90921433333333, "rental_uris": {"ios": "https://dc.lft.to/lastmile_qr_scan", "android": "https://dc.lft.to/lastmile_qr_scan"}, "is_reserved": 0, "fusion_lon": 0.0, "fusion_lat": 0.0, "lon": -76.99966633333334, "name": "15dcc0d4bbb7a4d6355ea92a1720c864"}, {"bike_id": "c2846c2d2208f3913b3a2000ac0b32de", "type": "electric_scooter", "is_disabled": 0, "lat": 38.90030216666667, "rental_uris": {"ios": "https://dc.lft.to/lastmile_qr_scan", "android": "https://dc.lft.to/lastmile_qr_scan"}, "is_reserved": 0, "fusion_lon": 0.0, "fusion_lat": 0.0, "lon": -76.98857266666667, "name": "c2846c2d2208f3913b3a2000ac0b32de"}, {"bike_id": "9866a64bd20aa0428f7c2ba5004e33ff", "type": "electric_scooter", "is_disabled": 0, "lat": 38.90735183333334, "rental_uris": {"ios": "https://dc.lft.to/lastmile_qr_scan", "android": "https://dc.lft.to/lastmile_qr_scan"}, "is_reserved": 0, "fusion_lon": 0.0, "fusion_lat": 0.0, "lon": -77.0225605, "name": "9866a64bd20aa0428f7c2ba5004e33ff"}, {"bike_id": "277faf2783f13c76ca258b395a4b0f8d", "type": "electric_scooter", "is_disabled": 0, "lat": 38.89224166666666, "rental_uris": {"ios": "https://dc.lft.to/lastmile_qr_scan", "android": "https://dc.lft.to/lastmile_qr_scan"}, "is_reserved": 0, "fusion_lon": 0.0, "fusion_lat": 0.0, "lon": -77.031694, "name": "277faf2783f13c76ca258b395a4b0f8d"}, {"bike_id": "0c32c11a89ef368695db6860f9a010aa", "type": "electric_scooter", "is_disabled": 0, "lat": 38.91708116666667, "rental_uris": {"ios": "https://dc.lft.to/lastmile_qr_scan", "android": "https://dc.lft.to/lastmile_qr_scan"}, "is_reserved": 0, "fusion_lon": 0.0, "fusion_lat": 0.0, "lon": -77.04617516666667, "name": "0c32c11a89ef368695db6860f9a010aa"}, {"bike_id": "a144877d79bda97c2be551771e4cb35d", "type": "electric_scooter", "is_disabled": 0, "lat": 38.93247233333334, "rental_uris": {"ios": "https://dc.lft.to/lastmile_qr_scan", "android": "https://dc.lft.to/lastmile_qr_scan"}, "is_reserved": 0, "fusion_lon": 0.0, "fusion_lat": 0.0, "lon": -76.99515233333334, "name": "a144877d79bda97c2be551771e4cb35d"}, {"bike_id": "e8f8c50ddfc99200d25ec87e935ddf8c", "type": "electric_scooter", "is_disabled": 0, "lat": 38.907484833333335, "rental_uris": {"ios": "https://dc.lft.to/lastmile_qr_scan", "android": "https://dc.lft.to/lastmile_qr_scan"}, "is_reserved": 0, "fusion_lon": 0.0, "fusion_lat": 0.0, "lon": -77.04205716666667, "name": "e8f8c50ddfc99200d25ec87e935ddf8c"}, {"bike_id": "02db091726da5d0ab2468f820d012b95", "type": "electric_scooter", "is_disabled": 0, "lat": 38.90292383333333, "rental_uris": {"ios": "https://dc.lft.to/lastmile_qr_scan", "android": "https://dc.lft.to/lastmile_qr_scan"}, "is_reserved": 0, "fusion_lon": 0.0, "fusion_lat": 0.0, "lon": -76.9763595, "name": "02db091726da5d0ab2468f820d012b95"}, {"bike_id": "083208071609d6d060d3b544114253b0", "type": "electric_scooter", "is_disabled": 0, "lat": 38.922202166666665, "rental_uris": {"ios": "https://dc.lft.to/lastmile_qr_scan", "android": "https://dc.lft.to/lastmile_qr_scan"}, "is_reserved": 0, "fusion_lon": 0.0, "fusion_lat": 0.0, "lon": -77.03456516666667, "name": "083208071609d6d060d3b544114253b0"}, {"bike_id": "9cbdf14f00234b15d6f0fdf1826cae94", "type": "electric_scooter", "is_disabled": 0, "lat": 38.890054166666665, "rental_uris": {"ios": "https://dc.lft.to/lastmile_qr_scan", "android": "https://dc.lft.to/lastmile_qr_scan"}, "is_reserved": 0, "fusion_lon": 0.0, "fusion_lat": 0.0, "lon": -76.93735616666666, "name": "9cbdf14f00234b15d6f0fdf1826cae94"}, {"bike_id": "a3a0dec21b922eb5b3fdde3bccb5b99f", "type": "electric_scooter", "is_disabled": 0, "lat": 38.929758, "rental_uris": {"ios": "https://dc.lft.to/lastmile_qr_scan", "android": "https://dc.lft.to/lastmile_qr_scan"}, "is_reserved": 0, "fusion_lon": 0.0, "fusion_lat": 0.0, "lon": -77.03187333333334, "name": "a3a0dec21b922eb5b3fdde3bccb5b99f"}, {"bike_id": "06876b071461e975544c70f2dff83639", "type": "electric_scooter", "is_disabled": 0, "lat": 38.87210433333333, "rental_uris": {"ios": "https://dc.lft.to/lastmile_qr_scan", "android": "https://dc.lft.to/lastmile_qr_scan"}, "is_reserved": 0, "fusion_lon": 0.0, "fusion_lat": 0.0, "lon": -77.0176125, "name": "06876b071461e975544c70f2dff83639"}, {"bike_id": "25eda9fadb33cf83bf78817cc1f39ea2", "type": "electric_scooter", "is_disabled": 0, "lat": 38.9039835, "rental_uris": {"ios": "https://dc.lft.to/lastmile_qr_scan", "android": "https://dc.lft.to/lastmile_qr_scan"}, "is_reserved": 0, "fusion_lon": 0.0, "fusion_lat": 0.0, "lon": -76.99006633333333, "name": "25eda9fadb33cf83bf78817cc1f39ea2"}, {"bike_id": "9875c0ad5fb416b1712711e446ff4250", "type": "electric_scooter", "is_disabled": 0, "lat": 38.884189166666665, "rental_uris": {"ios": "https://dc.lft.to/lastmile_qr_scan", "android": "https://dc.lft.to/lastmile_qr_scan"}, "is_reserved": 0, "fusion_lon": 0.0, "fusion_lat": 0.0, "lon": -77.00065716666667, "name": "9875c0ad5fb416b1712711e446ff4250"}, {"bike_id": "61248d52fd1f814238ad12728a10512e", "type": "electric_scooter", "is_disabled": 0, "lat": 38.89228, "rental_uris": {"ios": "https://dc.lft.to/lastmile_qr_scan", "android": "https://dc.lft.to/lastmile_qr_scan"}, "is_reserved": 0, "fusion_lon": 0.0, "fusion_lat": 0.0, "lon": -77.0495595, "name": "61248d52fd1f814238ad12728a10512e"}, {"bike_id": "6906193445cc541eb40d4c145923cbfe", "type": "electric_scooter", "is_disabled": 0, "lat": 38.9057175, "rental_uris": {"ios": "https://dc.lft.to/lastmile_qr_scan", "android": "https://dc.lft.to/lastmile_qr_scan"}, "is_reserved": 0, "fusion_lon": 0.0, "fusion_lat": 0.0, "lon": -77.03430816666666, "name": "6906193445cc541eb40d4c145923cbfe"}, {"bike_id": "2ec24559e98a8aef008a14579c5ae6c9", "type": "electric_scooter", "is_disabled": 0, "lat": 38.906285833333335, "rental_uris": {"ios": "https://dc.lft.to/lastmile_qr_scan", "android": "https://dc.lft.to/lastmile_qr_scan"}, "is_reserved": 0, "fusion_lon": 0.0, "fusion_lat": 0.0, "lon": -77.02822783333333, "name": "2ec24559e98a8aef008a14579c5ae6c9"}, {"bike_id": "b41cf4557b85ef089ee48400ec3d306c", "type": "electric_scooter", "is_disabled": 0, "lat": 38.89603733333333, "rental_uris": {"ios": "https://dc.lft.to/lastmile_qr_scan", "android": "https://dc.lft.to/lastmile_qr_scan"}, "is_reserved": 0, "fusion_lon": 0.0, "fusion_lat": 0.0, "lon": -77.044325, "name": "b41cf4557b85ef089ee48400ec3d306c"}, {"bike_id": "4118e59964483d43c5591022ed8c6d8a", "type": "electric_scooter", "is_disabled": 0, "lat": 38.90272216666666, "rental_uris": {"ios": "https://dc.lft.to/lastmile_qr_scan", "android": "https://dc.lft.to/lastmile_qr_scan"}, "is_reserved": 0, "fusion_lon": 0.0, "fusion_lat": 0.0, "lon": -77.0188525, "name": "4118e59964483d43c5591022ed8c6d8a"}, {"bike_id": "4c79669b0ff3957c3317d64c0ad07924", "type": "electric_scooter", "is_disabled": 0, "lat": 38.9564965, "rental_uris": {"ios": "https://dc.lft.to/lastmile_qr_scan", "android": "https://dc.lft.to/lastmile_qr_scan"}, "is_reserved": 0, "fusion_lon": 0.0, "fusion_lat": 0.0, "lon": -77.02399666666666, "name": "4c79669b0ff3957c3317d64c0ad07924"}, {"bike_id": "bc450f8272657aaaf092b62093dbfef5", "type": "electric_scooter", "is_disabled": 0, "lat": 38.887167166666664, "rental_uris": {"ios": "https://dc.lft.to/lastmile_qr_scan", "android": "https://dc.lft.to/lastmile_qr_scan"}, "is_reserved": 0, "fusion_lon": 0.0, "fusion_lat": 0.0, "lon": -76.99621566666667, "name": "bc450f8272657aaaf092b62093dbfef5"}, {"bike_id": "851ee8c724d35277bc1ac562eb6300f7", "type": "electric_scooter", "is_disabled": 0, "lat": 38.90573583333333, "rental_uris": {"ios": "https://dc.lft.to/lastmile_qr_scan", "android": "https://dc.lft.to/lastmile_qr_scan"}, "is_reserved": 0, "fusion_lon": 0.0, "fusion_lat": 0.0, "lon": -77.04502416666666, "name": "851ee8c724d35277bc1ac562eb6300f7"}, {"bike_id": "b1644c7a5d982c881c7fa9d2ee3e0f68", "type": "electric_scooter", "is_disabled": 0, "lat": 38.892945833333336, "rental_uris": {"ios": "https://dc.lft.to/lastmile_qr_scan", "android": "https://dc.lft.to/lastmile_qr_scan"}, "is_reserved": 0, "fusion_lon": 0.0, "fusion_lat": 0.0, "lon": -77.04876866666666, "name": "b1644c7a5d982c881c7fa9d2ee3e0f68"}, {"bike_id": "59c26ed77ce5d5a3785c320298d0ee85", "type": "electric_scooter", "is_disabled": 0, "lat": 38.929080166666665, "rental_uris": {"ios": "https://dc.lft.to/lastmile_qr_scan", "android": "https://dc.lft.to/lastmile_qr_scan"}, "is_reserved": 0, "fusion_lon": 0.0, "fusion_lat": 0.0, "lon": -77.03746516666666, "name": "59c26ed77ce5d5a3785c320298d0ee85"}, {"bike_id": "59a70bea49bf4ee1897c970f7e5a4e37", "type": "electric_scooter", "is_disabled": 0, "lat": 38.864425, "rental_uris": {"ios": "https://dc.lft.to/lastmile_qr_scan", "android": "https://dc.lft.to/lastmile_qr_scan"}, "is_reserved": 0, "fusion_lon": 0.0, "fusion_lat": 0.0, "lon": -76.97993033333333, "name": "59a70bea49bf4ee1897c970f7e5a4e37"}, {"bike_id": "6b28d0033328782e5afc720cf25e46cf", "type": "electric_scooter", "is_disabled": 0, "lat": 38.89723983333333, "rental_uris": {"ios": "https://dc.lft.to/lastmile_qr_scan", "android": "https://dc.lft.to/lastmile_qr_scan"}, "is_reserved": 0, "fusion_lon": 0.0, "fusion_lat": 0.0, "lon": -77.02684933333333, "name": "6b28d0033328782e5afc720cf25e46cf"}, {"bike_id": "c9a18df015fbfca5f9fff42db9e947bc", "type": "electric_scooter", "is_disabled": 0, "lat": 38.87917216666666, "rental_uris": {"ios": "https://dc.lft.to/lastmile_qr_scan", "android": "https://dc.lft.to/lastmile_qr_scan"}, "is_reserved": 0, "fusion_lon": 0.0, "fusion_lat": 0.0, "lon": -77.00564033333333, "name": "c9a18df015fbfca5f9fff42db9e947bc"}, {"bike_id": "9a6081a953677c4f6b5afcac36ddf654", "type": "electric_scooter", "is_disabled": 0, "lat": 38.90639766666666, "rental_uris": {"ios": "https://dc.lft.to/lastmile_qr_scan", "android": "https://dc.lft.to/lastmile_qr_scan"}, "is_reserved": 0, "fusion_lon": 0.0, "fusion_lat": 0.0, "lon": -77.018331, "name": "9a6081a953677c4f6b5afcac36ddf654"}, {"bike_id": "8638c1ba2ef222242d2da6524dd8e4c8", "type": "electric_scooter", "is_disabled": 0, "lat": 38.89627733333333, "rental_uris": {"ios": "https://dc.lft.to/lastmile_qr_scan", "android": "https://dc.lft.to/lastmile_qr_scan"}, "is_reserved": 0, "fusion_lon": 0.0, "fusion_lat": 0.0, "lon": -77.02380116666667, "name": "8638c1ba2ef222242d2da6524dd8e4c8"}, {"bike_id": "bb25bccc86926489874203ee8456ce80", "type": "electric_scooter", "is_disabled": 0, "lat": 38.89255216666667, "rental_uris": {"ios": "https://dc.lft.to/lastmile_qr_scan", "android": "https://dc.lft.to/lastmile_qr_scan"}, "is_reserved": 0, "fusion_lon": 0.0, "fusion_lat": 0.0, "lon": -76.92571316666667, "name": "bb25bccc86926489874203ee8456ce80"}, {"bike_id": "a737ef40c0b0d4efb00dfcba560fc304", "type": "electric_scooter", "is_disabled": 0, "lat": 38.89079983333333, "rental_uris": {"ios": "https://dc.lft.to/lastmile_qr_scan", "android": "https://dc.lft.to/lastmile_qr_scan"}, "is_reserved": 0, "fusion_lon": 0.0, "fusion_lat": 0.0, "lon": -76.98822816666667, "name": "a737ef40c0b0d4efb00dfcba560fc304"}, {"bike_id": "c4f6063ddad849c3ecc7a98b464eaa54", "type": "electric_bike", "is_disabled": 0, "lat": 38.897378, "rental_uris": {"ios": "https://dc.lft.to/lastmile_qr_scan", "android": "https://dc.lft.to/lastmile_qr_scan"}, "is_reserved": 0, "fusion_lon": 0.0, "fusion_lat": 0.0, "lon": -76.942464, "name": "c4f6063ddad849c3ecc7a98b464eaa54"}, {"bike_id": "2ff9b260f6c0c68701402951ceec2a38", "type": "electric_scooter", "is_disabled": 0, "lat": 38.90983383333333, "rental_uris": {"ios": "https://dc.lft.to/lastmile_qr_scan", "android": "https://dc.lft.to/lastmile_qr_scan"}, "is_reserved": 0, "fusion_lon": 0.0, "fusion_lat": 0.0, "lon": -77.03863266666667, "name": "2ff9b260f6c0c68701402951ceec2a38"}, {"bike_id": "f887cbb006d4eb2034e1106445077df0", "type": "electric_scooter", "is_disabled": 0, "lat": 38.907211833333335, "rental_uris": {"ios": "https://dc.lft.to/lastmile_qr_scan", "android": "https://dc.lft.to/lastmile_qr_scan"}, "is_reserved": 0, "fusion_lon": 0.0, "fusion_lat": 0.0, "lon": -77.040896, "name": "f887cbb006d4eb2034e1106445077df0"}, {"bike_id": "3e9c2df9272f09831d980689f62cfeb9", "type": "electric_scooter", "is_disabled": 0, "lat": 38.942912666666665, "rental_uris": {"ios": "https://dc.lft.to/lastmile_qr_scan", "android": "https://dc.lft.to/lastmile_qr_scan"}, "is_reserved": 0, "fusion_lon": 0.0, "fusion_lat": 0.0, "lon": -77.02167716666666, "name": "3e9c2df9272f09831d980689f62cfeb9"}, {"bike_id": "bea894cbf833b4c94ae8711314e29167", "type": "electric_scooter", "is_disabled": 0, "lat": 38.90804466666667, "rental_uris": {"ios": "https://dc.lft.to/lastmile_qr_scan", "android": "https://dc.lft.to/lastmile_qr_scan"}, "is_reserved": 0, "fusion_lon": 0.0, "fusion_lat": 0.0, "lon": -77.04173916666667, "name": "bea894cbf833b4c94ae8711314e29167"}, {"bike_id": "8552ba45baee1b3b5048f90e560ccb54", "type": "electric_scooter", "is_disabled": 0, "lat": 38.91192866666667, "rental_uris": {"ios": "https://dc.lft.to/lastmile_qr_scan", "android": "https://dc.lft.to/lastmile_qr_scan"}, "is_reserved": 0, "fusion_lon": 0.0, "fusion_lat": 0.0, "lon": -77.018993, "name": "8552ba45baee1b3b5048f90e560ccb54"}, {"bike_id": "1307ce666385ab416c9137ab8668d510", "type": "electric_scooter", "is_disabled": 0, "lat": 38.91033316666667, "rental_uris": {"ios": "https://dc.lft.to/lastmile_qr_scan", "android": "https://dc.lft.to/lastmile_qr_scan"}, "is_reserved": 0, "fusion_lon": 0.0, "fusion_lat": 0.0, "lon": -77.03799183333334, "name": "1307ce666385ab416c9137ab8668d510"}, {"bike_id": "a77194ebd1ee5f4eb6b58d4e6f4ee8e1", "type": "electric_scooter", "is_disabled": 0, "lat": 38.93030433333333, "rental_uris": {"ios": "https://dc.lft.to/lastmile_qr_scan", "android": "https://dc.lft.to/lastmile_qr_scan"}, "is_reserved": 0, "fusion_lon": 0.0, "fusion_lat": 0.0, "lon": -77.0378805, "name": "a77194ebd1ee5f4eb6b58d4e6f4ee8e1"}, {"bike_id": "4588bd0e7d71fc9275bbd89a7561fba9", "type": "electric_scooter", "is_disabled": 0, "lat": 38.894794166666664, "rental_uris": {"ios": "https://dc.lft.to/lastmile_qr_scan", "android": "https://dc.lft.to/lastmile_qr_scan"}, "is_reserved": 0, "fusion_lon": 0.0, "fusion_lat": 0.0, "lon": -77.01107966666666, "name": "4588bd0e7d71fc9275bbd89a7561fba9"}, {"bike_id": "6e9062932aeef1c4872f27c08d7192d0", "type": "electric_scooter", "is_disabled": 0, "lat": 38.92309233333334, "rental_uris": {"ios": "https://dc.lft.to/lastmile_qr_scan", "android": "https://dc.lft.to/lastmile_qr_scan"}, "is_reserved": 0, "fusion_lon": 0.0, "fusion_lat": 0.0, "lon": -77.044595, "name": "6e9062932aeef1c4872f27c08d7192d0"}, {"bike_id": "304d7ac6aa768b6e27d30cf8bfd7d3bb", "type": "electric_scooter", "is_disabled": 0, "lat": 38.915319833333335, "rental_uris": {"ios": "https://dc.lft.to/lastmile_qr_scan", "android": "https://dc.lft.to/lastmile_qr_scan"}, "is_reserved": 0, "fusion_lon": 0.0, "fusion_lat": 0.0, "lon": -77.0318875, "name": "304d7ac6aa768b6e27d30cf8bfd7d3bb"}, {"bike_id": "246e55ab1f8cf76ecb95bb7e8923bfb1", "type": "electric_scooter", "is_disabled": 0, "lat": 38.88717116666667, "rental_uris": {"ios": "https://dc.lft.to/lastmile_qr_scan", "android": "https://dc.lft.to/lastmile_qr_scan"}, "is_reserved": 0, "fusion_lon": 0.0, "fusion_lat": 0.0, "lon": -76.99626966666666, "name": "246e55ab1f8cf76ecb95bb7e8923bfb1"}, {"bike_id": "89f9fb2daab6d6e38230ab7c4915b4f9", "type": "electric_scooter", "is_disabled": 0, "lat": 38.88115616666666, "rental_uris": {"ios": "https://dc.lft.to/lastmile_qr_scan", "android": "https://dc.lft.to/lastmile_qr_scan"}, "is_reserved": 0, "fusion_lon": 0.0, "fusion_lat": 0.0, "lon": -77.01650716666667, "name": "89f9fb2daab6d6e38230ab7c4915b4f9"}, {"bike_id": "a42c8fbfdae5ca6e152d97bf2d5d32c9", "type": "electric_scooter", "is_disabled": 0, "lat": 38.9097385, "rental_uris": {"ios": "https://dc.lft.to/lastmile_qr_scan", "android": "https://dc.lft.to/lastmile_qr_scan"}, "is_reserved": 0, "fusion_lon": 0.0, "fusion_lat": 0.0, "lon": -77.02175866666667, "name": "a42c8fbfdae5ca6e152d97bf2d5d32c9"}, {"bike_id": "b49dcf7091a4e1259922c2e080f0fbe3", "type": "electric_scooter", "is_disabled": 0, "lat": 38.8736995, "rental_uris": {"ios": "https://dc.lft.to/lastmile_qr_scan", "android": "https://dc.lft.to/lastmile_qr_scan"}, "is_reserved": 0, "fusion_lon": 0.0, "fusion_lat": 0.0, "lon": -77.00107833333334, "name": "b49dcf7091a4e1259922c2e080f0fbe3"}, {"bike_id": "380c3d36d1638dd2ae1a6cd63567cdd3", "type": "electric_scooter", "is_disabled": 0, "lat": 38.91712116666667, "rental_uris": {"ios": "https://dc.lft.to/lastmile_qr_scan", "android": "https://dc.lft.to/lastmile_qr_scan"}, "is_reserved": 0, "fusion_lon": 0.0, "fusion_lat": 0.0, "lon": -77.0318295, "name": "380c3d36d1638dd2ae1a6cd63567cdd3"}, {"bike_id": "c6302468d4d01b3b32dec6a213bc016a", "type": "electric_scooter", "is_disabled": 0, "lat": 38.892215, "rental_uris": {"ios": "https://dc.lft.to/lastmile_qr_scan", "android": "https://dc.lft.to/lastmile_qr_scan"}, "is_reserved": 0, "fusion_lon": 0.0, "fusion_lat": 0.0, "lon": -77.030227, "name": "c6302468d4d01b3b32dec6a213bc016a"}, {"bike_id": "c5986c4fa0adb7df7b325ae286ec90f3", "type": "electric_bike", "is_disabled": 0, "lat": 38.883245, "rental_uris": {"ios": "https://dc.lft.to/lastmile_qr_scan", "android": "https://dc.lft.to/lastmile_qr_scan"}, "is_reserved": 0, "fusion_lon": 0.0, "fusion_lat": 0.0, "lon": -76.96054016666666, "name": "c5986c4fa0adb7df7b325ae286ec90f3"}, {"bike_id": "4f6d39411f2c7dff63b736d9e837231c", "type": "electric_scooter", "is_disabled": 0, "lat": 38.92470983333333, "rental_uris": {"ios": "https://dc.lft.to/lastmile_qr_scan", "android": "https://dc.lft.to/lastmile_qr_scan"}, "is_reserved": 0, "fusion_lon": 0.0, "fusion_lat": 0.0, "lon": -77.02714766666666, "name": "4f6d39411f2c7dff63b736d9e837231c"}, {"bike_id": "7bc5e86f25f09865421fb9ee18bc31c2", "type": "electric_scooter", "is_disabled": 0, "lat": 38.87286616666667, "rental_uris": {"ios": "https://dc.lft.to/lastmile_qr_scan", "android": "https://dc.lft.to/lastmile_qr_scan"}, "is_reserved": 0, "fusion_lon": 0.0, "fusion_lat": 0.0, "lon": -77.00985433333334, "name": "7bc5e86f25f09865421fb9ee18bc31c2"}, {"bike_id": "1ec3e075676fb0a430edabee6188e85c", "type": "electric_scooter", "is_disabled": 0, "lat": 38.87873483333333, "rental_uris": {"ios": "https://dc.lft.to/lastmile_qr_scan", "android": "https://dc.lft.to/lastmile_qr_scan"}, "is_reserved": 0, "fusion_lon": 0.0, "fusion_lat": 0.0, "lon": -77.008323, "name": "1ec3e075676fb0a430edabee6188e85c"}, {"bike_id": "5e03a33b944b9fbbfa8795c4de0662ba", "type": "electric_bike", "is_disabled": 0, "lat": 38.889217333333335, "rental_uris": {"ios": "https://dc.lft.to/lastmile_qr_scan", "android": "https://dc.lft.to/lastmile_qr_scan"}, "is_reserved": 0, "fusion_lon": 0.0, "fusion_lat": 0.0, "lon": -76.99111383333333, "name": "5e03a33b944b9fbbfa8795c4de0662ba"}, {"bike_id": "c607e1fd527615ee5ab05bf9040cd5c2", "type": "electric_scooter", "is_disabled": 0, "lat": 38.9046715, "rental_uris": {"ios": "https://dc.lft.to/lastmile_qr_scan", "android": "https://dc.lft.to/lastmile_qr_scan"}, "is_reserved": 0, "fusion_lon": 0.0, "fusion_lat": 0.0, "lon": -76.9760915, "name": "c607e1fd527615ee5ab05bf9040cd5c2"}, {"bike_id": "87db51e903bcb2f188b99670ad824c83", "type": "electric_scooter", "is_disabled": 0, "lat": 38.912111, "rental_uris": {"ios": "https://dc.lft.to/lastmile_qr_scan", "android": "https://dc.lft.to/lastmile_qr_scan"}, "is_reserved": 0, "fusion_lon": 0.0, "fusion_lat": 0.0, "lon": -77.04466233333333, "name": "87db51e903bcb2f188b99670ad824c83"}, {"bike_id": "3a143ef890905fe3ed556ee78d60a0c2", "type": "electric_scooter", "is_disabled": 0, "lat": 38.90678916666667, "rental_uris": {"ios": "https://dc.lft.to/lastmile_qr_scan", "android": "https://dc.lft.to/lastmile_qr_scan"}, "is_reserved": 0, "fusion_lon": 0.0, "fusion_lat": 0.0, "lon": -76.97994433333334, "name": "3a143ef890905fe3ed556ee78d60a0c2"}, {"bike_id": "149f7cf81a14609c11a6b28ea2581913", "type": "electric_scooter", "is_disabled": 0, "lat": 38.916091333333334, "rental_uris": {"ios": "https://dc.lft.to/lastmile_qr_scan", "android": "https://dc.lft.to/lastmile_qr_scan"}, "is_reserved": 0, "fusion_lon": 0.0, "fusion_lat": 0.0, "lon": -77.04875766666666, "name": "149f7cf81a14609c11a6b28ea2581913"}, {"bike_id": "087fd54b791b585d938c9c9f19e13f14", "type": "electric_bike", "is_disabled": 0, "lat": 38.932284, "rental_uris": {"ios": "https://dc.lft.to/lastmile_qr_scan", "android": "https://dc.lft.to/lastmile_qr_scan"}, "is_reserved": 0, "fusion_lon": 0.0, "fusion_lat": 0.0, "lon": -77.18120433333333, "name": "087fd54b791b585d938c9c9f19e13f14"}, {"bike_id": "cb067fd1949df985354d9662ffaabcff", "type": "electric_scooter", "is_disabled": 0, "lat": 38.90349483333333, "rental_uris": {"ios": "https://dc.lft.to/lastmile_qr_scan", "android": "https://dc.lft.to/lastmile_qr_scan"}, "is_reserved": 0, "fusion_lon": 0.0, "fusion_lat": 0.0, "lon": -76.974792, "name": "cb067fd1949df985354d9662ffaabcff"}, {"bike_id": "2a03ae456c7dd91f732f8feff2b17828", "type": "electric_scooter", "is_disabled": 0, "lat": 38.929664833333334, "rental_uris": {"ios": "https://dc.lft.to/lastmile_qr_scan", "android": "https://dc.lft.to/lastmile_qr_scan"}, "is_reserved": 0, "fusion_lon": 0.0, "fusion_lat": 0.0, "lon": -77.0436905, "name": "2a03ae456c7dd91f732f8feff2b17828"}, {"bike_id": "6bfbbd5da62d8ae37d5777de41cd353e", "type": "electric_scooter", "is_disabled": 0, "lat": 38.92169883333333, "rental_uris": {"ios": "https://dc.lft.to/lastmile_qr_scan", "android": "https://dc.lft.to/lastmile_qr_scan"}, "is_reserved": 0, "fusion_lon": 0.0, "fusion_lat": 0.0, "lon": -77.03398566666667, "name": "6bfbbd5da62d8ae37d5777de41cd353e"}, {"bike_id": "02fd43f4d8787867feadb44011ca37d2", "type": "electric_scooter", "is_disabled": 0, "lat": 38.9287315, "rental_uris": {"ios": "https://dc.lft.to/lastmile_qr_scan", "android": "https://dc.lft.to/lastmile_qr_scan"}, "is_reserved": 0, "fusion_lon": 0.0, "fusion_lat": 0.0, "lon": -77.02773416666666, "name": "02fd43f4d8787867feadb44011ca37d2"}, {"bike_id": "cf00ef18bdce18782170173811d9a725", "type": "electric_scooter", "is_disabled": 0, "lat": 38.904641833333336, "rental_uris": {"ios": "https://dc.lft.to/lastmile_qr_scan", "android": "https://dc.lft.to/lastmile_qr_scan"}, "is_reserved": 0, "fusion_lon": 0.0, "fusion_lat": 0.0, "lon": -77.04345083333334, "name": "cf00ef18bdce18782170173811d9a725"}, {"bike_id": "cb0bc1216e7fe383ed41f32e48712849", "type": "electric_scooter", "is_disabled": 0, "lat": 38.91619716666666, "rental_uris": {"ios": "https://dc.lft.to/lastmile_qr_scan", "android": "https://dc.lft.to/lastmile_qr_scan"}, "is_reserved": 0, "fusion_lon": 0.0, "fusion_lat": 0.0, "lon": -77.046069, "name": "cb0bc1216e7fe383ed41f32e48712849"}, {"bike_id": "7f19af2bea6f01a025808f3b3727f44b", "type": "electric_scooter", "is_disabled": 0, "lat": 38.91516766666667, "rental_uris": {"ios": "https://dc.lft.to/lastmile_qr_scan", "android": "https://dc.lft.to/lastmile_qr_scan"}, "is_reserved": 0, "fusion_lon": 0.0, "fusion_lat": 0.0, "lon": -77.04157816666667, "name": "7f19af2bea6f01a025808f3b3727f44b"}, {"bike_id": "185d1a679bbd339652b72c723fb0be13", "type": "electric_scooter", "is_disabled": 0, "lat": 38.901435666666664, "rental_uris": {"ios": "https://dc.lft.to/lastmile_qr_scan", "android": "https://dc.lft.to/lastmile_qr_scan"}, "is_reserved": 0, "fusion_lon": 0.0, "fusion_lat": 0.0, "lon": -76.93085833333333, "name": "185d1a679bbd339652b72c723fb0be13"}, {"bike_id": "b25373a02f6bee9d4d7772d9d2d7e6b1", "type": "electric_scooter", "is_disabled": 0, "lat": 38.8991275, "rental_uris": {"ios": "https://dc.lft.to/lastmile_qr_scan", "android": "https://dc.lft.to/lastmile_qr_scan"}, "is_reserved": 0, "fusion_lon": 0.0, "fusion_lat": 0.0, "lon": -76.93364216666667, "name": "b25373a02f6bee9d4d7772d9d2d7e6b1"}, {"bike_id": "896f5d6484e010a7024e5380d44ab812", "type": "electric_scooter", "is_disabled": 0, "lat": 38.909871333333335, "rental_uris": {"ios": "https://dc.lft.to/lastmile_qr_scan", "android": "https://dc.lft.to/lastmile_qr_scan"}, "is_reserved": 0, "fusion_lon": 0.0, "fusion_lat": 0.0, "lon": -77.0220055, "name": "896f5d6484e010a7024e5380d44ab812"}, {"bike_id": "44155616083e1d908f36c6641e974580", "type": "electric_scooter", "is_disabled": 0, "lat": 38.905627833333334, "rental_uris": {"ios": "https://dc.lft.to/lastmile_qr_scan", "android": "https://dc.lft.to/lastmile_qr_scan"}, "is_reserved": 0, "fusion_lon": 0.0, "fusion_lat": 0.0, "lon": -77.02212433333334, "name": "44155616083e1d908f36c6641e974580"}, {"bike_id": "51776445b2c6629848f8c82eff527a98", "type": "electric_bike", "is_disabled": 0, "lat": 38.863275333333334, "rental_uris": {"ios": "https://dc.lft.to/lastmile_qr_scan", "android": "https://dc.lft.to/lastmile_qr_scan"}, "is_reserved": 0, "fusion_lon": 0.0, "fusion_lat": 0.0, "lon": -76.9871895, "name": "51776445b2c6629848f8c82eff527a98"}, {"bike_id": "81e3169ddc1b5fc77fa35ae43c0e9beb", "type": "electric_scooter", "is_disabled": 0, "lat": 38.915625666666664, "rental_uris": {"ios": "https://dc.lft.to/lastmile_qr_scan", "android": "https://dc.lft.to/lastmile_qr_scan"}, "is_reserved": 0, "fusion_lon": 0.0, "fusion_lat": 0.0, "lon": -77.0357435, "name": "81e3169ddc1b5fc77fa35ae43c0e9beb"}, {"bike_id": "6aabf2b10508f61e92f22deac0b77990", "type": "electric_scooter", "is_disabled": 0, "lat": 38.89226583333333, "rental_uris": {"ios": "https://dc.lft.to/lastmile_qr_scan", "android": "https://dc.lft.to/lastmile_qr_scan"}, "is_reserved": 0, "fusion_lon": 0.0, "fusion_lat": 0.0, "lon": -77.03167366666666, "name": "6aabf2b10508f61e92f22deac0b77990"}, {"bike_id": "28f9784793d98f96a9d7ab181fd04e6f", "type": "electric_scooter", "is_disabled": 0, "lat": 38.935359, "rental_uris": {"ios": "https://dc.lft.to/lastmile_qr_scan", "android": "https://dc.lft.to/lastmile_qr_scan"}, "is_reserved": 0, "fusion_lon": 0.0, "fusion_lat": 0.0, "lon": -77.023529, "name": "28f9784793d98f96a9d7ab181fd04e6f"}, {"bike_id": "4f60c06341843a4578fcbf938366fc5a", "type": "electric_scooter", "is_disabled": 0, "lat": 38.897602, "rental_uris": {"ios": "https://dc.lft.to/lastmile_qr_scan", "android": "https://dc.lft.to/lastmile_qr_scan"}, "is_reserved": 0, "fusion_lon": 0.0, "fusion_lat": 0.0, "lon": -77.02771783333333, "name": "4f60c06341843a4578fcbf938366fc5a"}, {"bike_id": "6735522066fc8439a75bca6b7baf80a7", "type": "electric_scooter", "is_disabled": 0, "lat": 38.936482166666664, "rental_uris": {"ios": "https://dc.lft.to/lastmile_qr_scan", "android": "https://dc.lft.to/lastmile_qr_scan"}, "is_reserved": 0, "fusion_lon": 0.0, "fusion_lat": 0.0, "lon": -77.03344333333334, "name": "6735522066fc8439a75bca6b7baf80a7"}, {"bike_id": "4e10fa6a79eb2db438148240abb41436", "type": "electric_scooter", "is_disabled": 0, "lat": 38.92623616666667, "rental_uris": {"ios": "https://dc.lft.to/lastmile_qr_scan", "android": "https://dc.lft.to/lastmile_qr_scan"}, "is_reserved": 0, "fusion_lon": 0.0, "fusion_lat": 0.0, "lon": -77.04186816666666, "name": "4e10fa6a79eb2db438148240abb41436"}, {"bike_id": "d36cfbf45737fc8f16b71732332a6e89", "type": "electric_scooter", "is_disabled": 0, "lat": 38.910091666666666, "rental_uris": {"ios": "https://dc.lft.to/lastmile_qr_scan", "android": "https://dc.lft.to/lastmile_qr_scan"}, "is_reserved": 0, "fusion_lon": 0.0, "fusion_lat": 0.0, "lon": -77.03207, "name": "d36cfbf45737fc8f16b71732332a6e89"}, {"bike_id": "a59d57a9a729e7102ac20b2981c0c2b4", "type": "electric_scooter", "is_disabled": 0, "lat": 38.867012, "rental_uris": {"ios": "https://dc.lft.to/lastmile_qr_scan", "android": "https://dc.lft.to/lastmile_qr_scan"}, "is_reserved": 0, "fusion_lon": 0.0, "fusion_lat": 0.0, "lon": -76.98715116666666, "name": "a59d57a9a729e7102ac20b2981c0c2b4"}, {"bike_id": "2f6946626715dbca4ad7dc31833cf791", "type": "electric_scooter", "is_disabled": 0, "lat": 38.921445166666665, "rental_uris": {"ios": "https://dc.lft.to/lastmile_qr_scan", "android": "https://dc.lft.to/lastmile_qr_scan"}, "is_reserved": 0, "fusion_lon": 0.0, "fusion_lat": 0.0, "lon": -77.043703, "name": "2f6946626715dbca4ad7dc31833cf791"}, {"bike_id": "bc9b135431f34948e0debd6cfd7db4cb", "type": "electric_scooter", "is_disabled": 0, "lat": 38.87868683333333, "rental_uris": {"ios": "https://dc.lft.to/lastmile_qr_scan", "android": "https://dc.lft.to/lastmile_qr_scan"}, "is_reserved": 0, "fusion_lon": 0.0, "fusion_lat": 0.0, "lon": -77.01912133333333, "name": "bc9b135431f34948e0debd6cfd7db4cb"}, {"bike_id": "c60fd7cad09bae669951d474929d7780", "type": "electric_scooter", "is_disabled": 0, "lat": 38.9177865, "rental_uris": {"ios": "https://dc.lft.to/lastmile_qr_scan", "android": "https://dc.lft.to/lastmile_qr_scan"}, "is_reserved": 0, "fusion_lon": 0.0, "fusion_lat": 0.0, "lon": -77.04770333333333, "name": "c60fd7cad09bae669951d474929d7780"}, {"bike_id": "46b1a8434f020000a31759c79a136ec2", "type": "electric_scooter", "is_disabled": 0, "lat": 38.930798833333334, "rental_uris": {"ios": "https://dc.lft.to/lastmile_qr_scan", "android": "https://dc.lft.to/lastmile_qr_scan"}, "is_reserved": 0, "fusion_lon": 0.0, "fusion_lat": 0.0, "lon": -77.027956, "name": "46b1a8434f020000a31759c79a136ec2"}, {"bike_id": "e45dd78b4844b864582254ce905f77b8", "type": "electric_scooter", "is_disabled": 0, "lat": 38.92822066666667, "rental_uris": {"ios": "https://dc.lft.to/lastmile_qr_scan", "android": "https://dc.lft.to/lastmile_qr_scan"}, "is_reserved": 0, "fusion_lon": 0.0, "fusion_lat": 0.0, "lon": -77.02255983333333, "name": "e45dd78b4844b864582254ce905f77b8"}, {"bike_id": "0a75608a6317c46d75cf26094f301640", "type": "electric_scooter", "is_disabled": 0, "lat": 38.89221416666667, "rental_uris": {"ios": "https://dc.lft.to/lastmile_qr_scan", "android": "https://dc.lft.to/lastmile_qr_scan"}, "is_reserved": 0, "fusion_lon": 0.0, "fusion_lat": 0.0, "lon": -77.02258133333333, "name": "0a75608a6317c46d75cf26094f301640"},