{"data": {"bikes": [{"name": "40b931593d7b6ee102d72c0ee44ffcbf", "lon": -77.0198465, "lat": 38.95026516666667, "type": "electric_scooter", "fusion_lon": 0.0, "is_reserved": 0, "bike_id": "40b931593d7b6ee102d72c0ee44ffcbf", "fusion_lat": 0.0, "is_disabled": 0, "rental_uris": {"ios": "https://dc.lft.to/lastmile_qr_scan", "android": "https://dc.lft.to/lastmile_qr_scan"}}, {"name": "439e6e931fb2f6df32627f0d0e6b3b70", "lon": -76.94881083333334, "lat": 38.895518833333334, "type": "electric_scooter", "fusion_lon": 0.0, "is_reserved": 0, "bike_id": "439e6e931fb2f6df32627f0d0e6b3b70", "fusion_lat": 0.0, "is_disabled": 0, "rental_uris": {"ios": "https://dc.lft.to/lastmile_qr_scan", "android": "https://dc.lft.to/lastmile_qr_scan"}}, {"name": "66ca53622f4937ae26a987b3e6f91eb1", "lon": -77.03299916666667, "lat": 38.909667166666665, "type": "electric_scooter", "fusion_lon": 0.0, "is_reserved": 0, "bike_id": "66ca53622f4937ae26a987b3e6f91eb1", "fusion_lat": 0.0, "is_disabled": 0, "rental_uris": {"ios": "https://dc.lft.to/lastmile_qr_scan", "android": "https://dc.lft.to/lastmile_qr_scan"}}, {"name": "6ff42811bdd20b0765685fc6f0194bfc", "lon": -77.0465535, "lat": 38.91593533333333, "type": "electric_scooter", "fusion_lon": 0.0, "is_reserved": 0, "bike_id": "6ff42811bdd20b0765685fc6f0194bfc", "fusion_lat": 0.0, "is_disabled": 0, "rental_uris": {"ios": "https://dc.lft.to/lastmile_qr_scan", "android": "https://dc.lft.to/lastmile_qr_scan"}}, {"name": "5dc75e7518d504be5de19539a188938d", "lon": -77.0281245, "lat": 38.88176383333333, "type": "electric_scooter", "fusion_lon": 0.0, "is_reserved": 0, "bike_id": "5dc75e7518d504be5de19539a188938d", "fusion_lat": 0.0, "is_disabled": 0, "rental_uris": {"ios": "https://dc.lft.to/lastmile_qr_scan", "android": "https://dc.lft.to/lastmile_qr_scan"}}, {"name": "fb0585c9997eaf076ae36206c717a8f8", "lon": -77.03088116666666, "lat": 38.931626333333334, "type": "electric_scooter", "fusion_lon": 0.0, "is_reserved": 0, "bike_id": "fb0585c9997eaf076ae36206c717a8f8", "fusion_lat": 0.0, "is_disabled": 0, "rental_uris": {"ios": "https://dc.lft.to/lastmile_qr_scan", "android": "https://dc.lft.to/lastmile_qr_scan"}}, {"name": "a485603afaabc3c7970dfed8f2edfb7f", "lon": -77.01746283333334, "lat": 38.887366666666665, "type": "electric_scooter", "fusion_lon": 0.0, "is_reserved": 0, "bike_id": "a485603afaabc3c7970dfed8f2edfb7f", "fusion_lat": 0.0, "is_disabled": 0, "rental_uris": {"ios": "https://dc.lft.to/lastmile_qr_scan", "android": "https://dc.lft.to/lastmile_qr_scan"}}, {"name": "28f274b71cea8b9a82cfe2a9aee683af", "lon": -77.02703283333334, "lat": 38.9067225, "type": "electric_scooter", "fusion_lon": 0.0, "is_reserved": 0, "bike_id": "28f274b71cea8b9a82cfe2a9aee683af", "fusion_lat": 0.0, "is_disabled": 0, "rental_uris": {"ios": "https://dc.lft.to/lastmile_qr_scan", "android": "https://dc.lft.to/lastmile_qr_scan"}}, {"name": "7fa57246549ce51b6bd519f558eb7405", "lon": -77.03979583333333, "lat": 38.902388, "type": "electric_scooter", "fusion_lon": 0.0, "is_reserved": 0, "bike_id": "7fa57246549ce51b6bd519f558eb7405", "fusion_lat": 0.0, "is_disabled": 0, "rental_uris": {"ios": "https://dc.lft.to/lastmile_qr_scan", "android": "https://dc.lft.to/lastmile_qr_scan"}}, {"name": "5c5d19cb4f7632b2bdb5168f16dbaaf2", "lon": -77.04339316666666, "lat": 38.907863666666664, "type": "electric_scooter", "fusion_lon": 0.0, "is_reserved": 0, "bike_id": "5c5d19cb4f7632b2bdb5168f16dbaaf2", "fusion_lat": 0.0, "is_disabled": 0, "rental_uris": {"ios": "https://dc.lft.to/lastmile_qr_scan", "android": "https://dc.lft.to/lastmile_qr_scan"}}, {"name": "779f8dd34454521221c2a0df8688ea62", "lon": -76.98716683333333, "lat": 38.8662545, "type": "electric_scooter", "fusion_lon": 0.0, "is_reserved": 0, "bike_id": "779f8dd34454521221c2a0df8688ea62", "fusion_lat": 0.0, "is_disabled": 0, "rental_uris": {"ios": "https://dc.lft.to/lastmile_qr_scan", "android": "https://dc.lft.to/lastmile_qr_scan"}}, {"name": "2ade9378ef746f3f0e59d8b75f7fe097", "lon": -77.02199083333333, "lat": 38.911272, "type": "electric_scooter", "fusion_lon": 0.0, "is_reserved": 0, "bike_id": "2ade9378ef746f3f0e59d8b75f7fe097", "fusion_lat": 0.0, "is_disabled": 0, "rental_uris": {"ios": "https://dc.lft.to/lastmile_qr_scan", "android": "https://dc.lft.to/lastmile_qr_scan"}}, {"name": "5c2e16bce5b18b3b55f1b55329bd3f2d", "lon": -77.06934216666667, "lat": 38.907711666666664, "type": "electric_scooter", "fusion_lon": 0.0, "is_reserved": 0, "bike_id": "5c2e16bce5b18b3b55f1b55329bd3f2d", "fusion_lat": 0.0, "is_disabled": 0, "rental_uris": {"ios": "https://dc.lft.to/lastmile_qr_scan", "android": "https://dc.lft.to/lastmile_qr_scan"}}, {"name": "781a54145a34158125275c0314ee0275", "lon": -76.9888465, "lat": 38.866748333333334, "type": "electric_scooter", "fusion_lon": 0.0, "is_reserved": 0, "bike_id": "781a54145a34158125275c0314ee0275", "fusion_lat": 0.0, "is_disabled": 0, "rental_uris": {"ios": "https://dc.lft.to/lastmile_qr_scan", "android": "https://dc.lft.to/lastmile_qr_scan"}}, {"name": "75f9f49ab377867cc07cedbea6b0f5b1", "lon": -77.02640683333334, "lat": 38.892208333333336, "type": "electric_scooter", "fusion_lon": 0.0, "is_reserved": 0, "bike_id": "75f9f49ab377867cc07cedbea6b0f5b1", "fusion_lat": 0.0, "is_disabled": 0, "rental_uris": {"ios": "https://dc.lft.to/lastmile_qr_scan", "android": "https://dc.lft.to/lastmile_qr_scan"}}, {"name": "f480317c9d7731bb083f82875f843286", "lon": -77.01462833333333, "lat": 38.876709, "type": "electric_bike", "fusion_lon": 0.0, "is_reserved": 0, "bike_id": "f480317c9d7731bb083f82875f843286", "fusion_lat": 0.0, "is_disabled": 0, "rental_uris": {"ios": "https://dc.lft.to/lastmile_qr_scan", "android": "https://dc.lft.to/lastmile_qr_scan"}}, {"name": "a7885918df37a39661338a27c12b0155", "lon": -77.0347675, "lat": 38.917070333333335, "type": "electric_scooter", "fusion_lon": 0.0, "is_reserved": 0, "bike_id": "a7885918df37a39661338a27c12b0155", "fusion_lat": 0.0, "is_disabled": 0, "rental_uris": {"ios": "https://dc.lft.to/lastmile_qr_scan", "android": "https://dc.lft.to/lastmile_qr_scan"}}, {"name": "1caab896726dfe2c7c4ea1126dfeb30f", "lon": -77.0387545, "lat": 38.932628666666666, "type": "electric_scooter", "fusion_lon": 0.0, "is_reserved": 0, "bike_id": "1caab896726dfe2c7c4ea1126dfeb30f", "fusion_lat": 0.0, "is_disabled": 0, "rental_uris": {"ios": "https://dc.lft.to/lastmile_qr_scan", "android": "https://dc.lft.to/lastmile_qr_scan"}}, {"name": "8aeedd6caf394ca779df0b3bb37530f2", "lon": -76.98060533333333, "lat": 38.957042333333334, "type": "electric_bike", "fusion_lon": 0.0, "is_reserved": 0, "bike_id": "8aeedd6caf394ca779df0b3bb37530f2", "fusion_lat": 0.0, "is_disabled": 0, "rental_uris": {"ios": "https://dc.lft.to/lastmile_qr_scan", "android": "https://dc.lft.to/lastmile_qr_scan"}}, {"name": "c63a48e72a36906474e3df4cba728f46", "lon": -76.99515466666666, "lat": 38.883743333333335, "type": "electric_scooter", "fusion_lon": 0.0, "is_reserved": 0, "bike_id": "c63a48e72a36906474e3df4cba728f46", "fusion_lat": 0.0, "is_disabled": 0, "rental_uris": {"ios": "https://dc.lft.to/lastmile_qr_scan", "android": "https://dc.lft.to/lastmile_qr_scan"}}, {"name": "eded22be2e5b82e4bb14e352b7feaba4", "lon": -77.06276333333334, "lat": 38.905506333333335, "type": "electric_scooter", "fusion_lon": 0.0, "is_reserved": 0, "bike_id": "eded22be2e5b82e4bb14e352b7feaba4", "fusion_lat": 0.0, "is_disabled": 0, "rental_uris": {"ios": "https://dc.lft.to/lastmile_qr_scan", "android": "https://dc.lft.to/lastmile_qr_scan"}}, {"name": "a2d4a50e52079138092e0ee6ee1a4fad", "lon": -77.0791755, "lat": 38.8022775, "type": "electric_bike", "fusion_lon": 0.0, "is_reserved": 0, "bike_id": "a2d4a50e52079138092e0ee6ee1a4fad", "fusion_lat": 0.0, "is_disabled": 0, "rental_uris": {"ios": "https://dc.lft.to/lastmile_qr_scan", "android": "https://dc.lft.to/lastmile_qr_scan"}}, {"name": "e16a5832f307800768d92cd664bc7574", "lon": -77.02172983333334, "lat": 38.90558566666667, "type": "electric_scooter", "fusion_lon": 0.0, "is_reserved": 0, "bike_id": "e16a5832f307800768d92cd664bc7574", "fusion_lat": 0.0, "is_disabled": 0, "rental_uris": {"ios": "https://dc.lft.to/lastmile_qr_scan", "android": "https://dc.lft.to/lastmile_qr_scan"}}, {"name": "972b001eb4dcecc26ff318d16283ce82", "lon": -77.1609255, "lat": 38.8868395, "type": "electric_bike", "fusion_lon": 0.0, "is_reserved": 0, "bike_id": "972b001eb4dcecc26ff318d16283ce82", "fusion_lat": 0.0, "is_disabled": 0, "rental_uris": {"ios": "https://dc.lft.to/lastmile_qr_scan", "android": "https://dc.lft.to/lastmile_qr_scan"}}, {"name": "469872a9ff7a34f6812d5b8e1021515f", "lon": -77.03970916666667, "lat": 38.9013955, "type": "electric_scooter", "fusion_lon": 0.0, "is_reserved": 0, "bike_id": "469872a9ff7a34f6812d5b8e1021515f", "fusion_lat": 0.0, "is_disabled": 0, "rental_uris": {"ios": "https://dc.lft.to/lastmile_qr_scan", "android": "https://dc.lft.to/lastmile_qr_scan"}}, {"name": "2ca1e10d0749c3a6c8e1383c007c2668", "lon": -77.04006733333334, "lat": 38.925792666666666, "type": "electric_scooter", "fusion_lon": 0.0, "is_reserved": 0, "bike_id": "2ca1e10d0749c3a6c8e1383c007c2668", "fusion_lat": 0.0, "is_disabled": 0, "rental_uris": {"ios": "https://dc.lft.to/lastmile_qr_scan", "android": "https://dc.lft.to/lastmile_qr_scan"}}, {"name": "09240eb85804edfb93a5773ca0084751", "lon": -77.0230845, "lat": 38.91681666666667, "type": "electric_scooter", "fusion_lon": 0.0, "is_reserved": 0, "bike_id": "09240eb85804edfb93a5773ca0084751", "fusion_lat": 0.0, "is_disabled": 0, "rental_uris": {"ios": "https://dc.lft.to/lastmile_qr_scan", "android": "https://dc.lft.to/lastmile_qr_scan"}}, {"name": "0aaecd46b5e675be55ff0443a8eddb2c", "lon": -76.99546666666667, "lat": 38.86256083333333, "type": "electric_scooter", "fusion_lon": 0.0, "is_reserved": 0, "bike_id": "0aaecd46b5e675be55ff0443a8eddb2c", "fusion_lat": 0.0, "is_disabled": 0, "rental_uris": {"ios": "https://dc.lft.to/lastmile_qr_scan", "android": "https://dc.lft.to/lastmile_qr_scan"}}, {"name": "d284229d95c7a42622ce790ec1eb132f", "lon": -77.0239405, "lat": 38.896159, "type": "electric_scooter", "fusion_lon": 0.0, "is_reserved": 0, "bike_id": "d284229d95c7a42622ce790ec1eb132f", "fusion_lat": 0.0, "is_disabled": 0, "rental_uris": {"ios": "https://dc.lft.to/lastmile_qr_scan", "android": "https://dc.lft.to/lastmile_qr_scan"}}, {"name": "7627484c94b021eeca72efe6339de988", "lon": -77.034444, "lat": 38.9309025, "type": "electric_scooter", "fusion_lon": 0.0, "is_reserved": 0, "bike_id": "7627484c94b021eeca72efe6339de988", "fusion_lat": 0.0, "is_disabled": 0, "rental_uris": {"ios": "https://dc.lft.to/lastmile_qr_scan", "android": "https://dc.lft.to/lastmile_qr_scan"}}, {"name": "ec3ef7c30a93e551d753d421413b2555", "lon": -77.0881975, "lat": 38.9097255, "type": "electric_bike", "fusion_lon": 0.0, "is_reserved": 0, "bike_id": "ec3ef7c30a93e551d753d421413b2555", "fusion_lat": 0.0, "is_disabled": 0, "rental_uris": {"ios": "https://dc.lft.to/lastmile_qr_scan", "android": "https://dc.lft.to/lastmile_qr_scan"}}, {"name": "2d2db98ffc18f87ced0818a1d1da377d", "lon": -77.029864, "lat": 38.93447183333333, "type": "electric_scooter", "fusion_lon": 0.0, "is_reserved": 0, "bike_id": "2d2db98ffc18f87ced0818a1d1da377d", "fusion_lat": 0.0, "is_disabled": 0, "rental_uris": {"ios": "https://dc.lft.to/lastmile_qr_scan", "android": "https://dc.lft.to/lastmile_qr_scan"}}, {"name": "3fa35c7507787ddfc2e204bf5b5db070", "lon": -77.06416566666667, "lat": 38.945598333333336, "type": "electric_scooter", "fusion_lon": 0.0, "is_reserved": 0, "bike_id": "3fa35c7507787ddfc2e204bf5b5db070", "fusion_lat": 0.0, "is_disabled": 0, "rental_uris": {"ios": "https://dc.lft.to/lastmile_qr_scan", "android": "https://dc.lft.to/lastmile_qr_scan"}}, {"name": "b6fd29369a035551458595ce0b2aae23", "lon": -77.01842516666666, "lat": 38.90384433333333, "type": "electric_scooter", "fusion_lon": 0.0, "is_reserved": 0, "bike_id": "b6fd29369a035551458595ce0b2aae23", "fusion_lat": 0.0, "is_disabled": 0, "rental_uris": {"ios": "https://dc.lft.to/lastmile_qr_scan", "android": "https://dc.lft.to/lastmile_qr_scan"}}, {"name": "769dd3b6b0ea46edf93658caf77e6037", "lon": -77.01735883333333, "lat": 38.87273116666667, "type": "electric_scooter", "fusion_lon": 0.0, "is_reserved": 0, "bike_id": "769dd3b6b0ea46edf93658caf77e6037", "fusion_lat": 0.0, "is_disabled": 0, "rental_uris": {"ios": "https://dc.lft.to/lastmile_qr_scan", "android": "https://dc.lft.to/lastmile_qr_scan"}}, {"name": "835e974465181071615aedf3fbd20cf6", "lon": -77.04488933333333, "lat": 38.913142, "type": "electric_scooter", "fusion_lon": 0.0, "is_reserved": 0, "bike_id": "835e974465181071615aedf3fbd20cf6", "fusion_lat": 0.0, "is_disabled": 0, "rental_uris": {"ios": "https://dc.lft.to/lastmile_qr_scan", "android": "https://dc.lft.to/lastmile_qr_scan"}}, {"name": "fee56e4782688d31f41b6310ce061f12", "lon": -77.03873283333333, "lat": 38.93262883333333, "type": "electric_scooter", "fusion_lon": 0.0, "is_reserved": 0, "bike_id": "fee56e4782688d31f41b6310ce061f12", "fusion_lat": 0.0, "is_disabled": 0, "rental_uris": {"ios": "https://dc.lft.to/lastmile_qr_scan", "android": "https://dc.lft.to/lastmile_qr_scan"}}, {"name": "78be23f4ff4905efcf83d3ae0f09da5e", "lon": -77.05119916666666, "lat": 38.92359116666667, "type": "electric_scooter", "fusion_lon": 0.0, "is_reserved": 0, "bike_id": "78be23f4ff4905efcf83d3ae0f09da5e", "fusion_lat": 0.0, "is_disabled": 0, "rental_uris": {"ios": "https://dc.lft.to/lastmile_qr_scan", "android": "https://dc.lft.to/lastmile_qr_scan"}}, {"name": "3a0b4afac3ec6daecbd16acc168eed93", "lon": -77.0332615, "lat": 38.89812416666667, "type": "electric_scooter", "fusion_lon": 0.0, "is_reserved": 0, "bike_id": "3a0b4afac3ec6daecbd16acc168eed93", "fusion_lat": 0.0, "is_disabled": 0, "rental_uris": {"ios": "https://dc.lft.to/lastmile_qr_scan", "android": "https://dc.lft.to/lastmile_qr_scan"}}, {"name": "baa39dd04e766ed6523eb43b032c9c02", "lon": -76.994122, "lat": 38.877875, "type": "electric_scooter", "fusion_lon": 0.0, "is_reserved": 0, "bike_id": "baa39dd04e766ed6523eb43b032c9c02", "fusion_lat": 0.0, "is_disabled": 0, "rental_uris": {"ios": "https://dc.lft.to/lastmile_qr_scan", "android": "https://dc.lft.to/lastmile_qr_scan"}}, {"name": "b37fbb5a89d2f93b8661e2e1a1fca4d5", "lon": -77.01746783333333, "lat": 38.874975166666665, "type": "electric_scooter", "fusion_lon": 0.0, "is_reserved": 0, "bike_id": "b37fbb5a89d2f93b8661e2e1a1fca4d5", "fusion_lat": 0.0, "is_disabled": 0, "rental_uris": {"ios": "https://dc.lft.to/lastmile_qr_scan", "android": "https://dc.lft.to/lastmile_qr_scan"}}, {"name": "b44dc29c8db2cd3813fd7196efa7f000", "lon": -77.0161265, "lat": 38.88327683333333, "type": "electric_scooter", "fusion_lon": 0.0, "is_reserved": 0, "bike_id": "b44dc29c8db2cd3813fd7196efa7f000", "fusion_lat": 0.0, "is_disabled": 0, "rental_uris": {"ios": "https://dc.lft.to/lastmile_qr_scan", "android": "https://dc.lft.to/lastmile_qr_scan"}}, {"name": "a7046867e60f5a1ac9da8cfc7399c7ea", "lon": -77.03803916666666, "lat": 38.930732666666664, "type": "electric_scooter", "fusion_lon": 0.0, "is_reserved": 0, "bike_id": "a7046867e60f5a1ac9da8cfc7399c7ea", "fusion_lat": 0.0, "is_disabled": 0, "rental_uris": {"ios": "https://dc.lft.to/lastmile_qr_scan", "android": "https://dc.lft.to/lastmile_qr_scan"}}, {"name": "1096b8763af7cc4b9b2fedbf580f8f2d", "lon": -77.04396116666666, "lat": 38.9211305, "type": "electric_scooter", "fusion_lon": 0.0, "is_reserved": 0, "bike_id": "1096b8763af7cc4b9b2fedbf580f8f2d", "fusion_lat": 0.0, "is_disabled": 0, "rental_uris": {"ios": "https://dc.lft.to/lastmile_qr_scan", "android": "https://dc.lft.to/lastmile_qr_scan"}}, {"name": "a9709b52d5420f4c13747cf3d1cc0be4", "lon": -77.03224433333334, "lat": 38.909749, "type": "electric_scooter", "fusion_lon": 0.0, "is_reserved": 0, "bike_id": "a9709b52d5420f4c13747cf3d1cc0be4", "fusion_lat": 0.0, "is_disabled": 0, "rental_uris": {"ios": "https://dc.lft.to/lastmile_qr_scan", "android": "https://dc.lft.to/lastmile_qr_scan"}}, {"name": "b98ec9721e072094c630468ee429da89", "lon": -76.94576683333334, "lat": 38.93739566666667, "type": "electric_bike", "fusion_lon": 0.0, "is_reserved": 0, "bike_id": "b98ec9721e072094c630468ee429da89", "fusion_lat": 0.0, "is_disabled": 0, "rental_uris": {"ios": "https://dc.lft.to/lastmile_qr_scan", "android": "https://dc.lft.to/lastmile_qr_scan"}}, {"name": "5956c2e2a505f5e8254d3c76c55ba8ce", "lon": -76.9191245, "lat": 38.8857935, "type": "electric_scooter", "fusion_lon": 0.0, "is_reserved": 0, "bike_id": "5956c2e2a505f5e8254d3c76c55ba8ce", "fusion_lat": 0.0, "is_disabled": 0, "rental_uris": {"ios": "https://dc.lft.to/lastmile_qr_scan", "android": "https://dc.lft.to/lastmile_qr_scan"}}, {"name": "45ad66681924693c9a7bb088c4947e14", "lon": -77.04850616666667, "lat": 38.916084833333336, "type": "electric_scooter", "fusion_lon": 0.0, "is_reserved": 0, "bike_id": "45ad66681924693c9a7bb088c4947e14", "fusion_lat": 0.0, "is_disabled": 0, "rental_uris": {"ios": "https://dc.lft.to/lastmile_qr_scan", "android": "https://dc.lft.to/lastmile_qr_scan"}}, {"name": "3b48c6cfcee305cd1f7d58c040ab29a7", "lon": -77.0282235, "lat": 38.9140355, "type": "electric_scooter", "fusion_lon": 0.0, "is_reserved": 0, "bike_id": "3b48c6cfcee305cd1f7d58c040ab29a7", "fusion_lat": 0.0, "is_disabled": 0, "rental_uris": {"ios": "https://dc.lft.to/lastmile_qr_scan", "android": "https://dc.lft.to/lastmile_qr_scan"}}, {"name": "9cac6b85ace8d1f621f67e0d813505a8", "lon": -77.016047, "lat": 38.91757666666667, "type": "electric_scooter", "fusion_lon": 0.0, "is_reserved": 0, "bike_id": "9cac6b85ace8d1f621f67e0d813505a8", "fusion_lat": 0.0, "is_disabled": 0, "rental_uris": {"ios": "https://dc.lft.to/lastmile_qr_scan", "android": "https://dc.lft.to/lastmile_qr_scan"}}, {"name": "b7fb4827d7043e8be9a710d0973c7946", "lon": -77.0072145, "lat": 38.89897666666667, "type": "electric_scooter", "fusion_lon": 0.0, "is_reserved": 0, "bike_id": "b7fb4827d7043e8be9a710d0973c7946", "fusion_lat": 0.0, "is_disabled": 0, "rental_uris": {"ios": "https://dc.lft.to/lastmile_qr_scan", "android": "https://dc.lft.to/lastmile_qr_scan"}}, {"name": "bd670d4ed990c06153f0876bb184655d", "lon": -77.0175505, "lat": 38.920339, "type": "electric_scooter", "fusion_lon": 0.0, "is_reserved": 0, "bike_id": "bd670d4ed990c06153f0876bb184655d", "fusion_lat": 0.0, "is_disabled": 0, "rental_uris": {"ios": "https://dc.lft.to/lastmile_qr_scan", "android": "https://dc.lft.to/lastmile_qr_scan"}}, {"name": "e04742ec3b3d9a8327079b015fad0e30", "lon": -77.034921, "lat": 38.92479866666667, "type": "electric_scooter", "fusion_lon": 0.0, "is_reserved": 0, "bike_id": "e04742ec3b3d9a8327079b015fad0e30", "fusion_lat": 0.0, "is_disabled": 0, "rental_uris": {"ios": "https://dc.lft.to/lastmile_qr_scan", "android": "https://dc.lft.to/lastmile_qr_scan"}}, {"name": "68381e802ea337500c245d9c3a402e5f", "lon": -77.06695766666667, "lat": 38.83176383333333, "type": "electric_bike", "fusion_lon": 0.0, "is_reserved": 0, "bike_id": "68381e802ea337500c245d9c3a402e5f", "fusion_lat": 0.0, "is_disabled": 0, "rental_uris": {"ios": "https://dc.lft.to/lastmile_qr_scan", "android": "https://dc.lft.to/lastmile_qr_scan"}}, {"name": "0e764ae871f7eed1691db87f43993a77", "lon": -76.98010366666666, "lat": 38.853209666666665, "type": "electric_scooter", "fusion_lon": 0.0, "is_reserved": 0, "bike_id": "0e764ae871f7eed1691db87f43993a77", "fusion_lat": 0.0, "is_disabled": 0, "rental_uris": {"ios": "https://dc.lft.to/lastmile_qr_scan", "android": "https://dc.lft.to/lastmile_qr_scan"}}, {"name": "1320f6012071e510925e0ff9b568a2c5", "lon": -77.03602733333334, "lat": 38.9285755, "type": "electric_scooter", "fusion_lon": 0.0, "is_reserved": 0, "bike_id": "1320f6012071e510925e0ff9b568a2c5", "fusion_lat": 0.0, "is_disabled": 0, "rental_uris": {"ios": "https://dc.lft.to/lastmile_qr_scan", "android": "https://dc.lft.to/lastmile_qr_scan"}}, {"name": "f766ef50dfa04fcd7c02fc14cf5e9a8c", "lon": -77.064158, "lat": 38.91298833333333, "type": "electric_scooter", "fusion_lon": 0.0, "is_reserved": 0, "bike_id": "f766ef50dfa04fcd7c02fc14cf5e9a8c", "fusion_lat": 0.0, "is_disabled": 0, "rental_uris": {"ios": "https://dc.lft.to/lastmile_qr_scan", "android": "https://dc.lft.to/lastmile_qr_scan"}}, {"name": "37f086ddf5ab78d341089b27553a69e2", "lon": -77.038592, "lat": 38.9169435, "type": "electric_scooter", "fusion_lon": 0.0, "is_reserved": 0, "bike_id": "37f086ddf5ab78d341089b27553a69e2", "fusion_lat": 0.0, "is_disabled": 0, "rental_uris": {"ios": "https://dc.lft.to/lastmile_qr_scan", "android": "https://dc.lft.to/lastmile_qr_scan"}}, {"name": "7c4977e76ca3be4c852191cf9dc4e6e9", "lon": -77.02226316666666, "lat": 38.90310866666667, "type": "electric_scooter", "fusion_lon": 0.0, "is_reserved": 0, "bike_id": "7c4977e76ca3be4c852191cf9dc4e6e9", "fusion_lat": 0.0, "is_disabled": 0, "rental_uris": {"ios": "https://dc.lft.to/lastmile_qr_scan", "android": "https://dc.lft.to/lastmile_qr_scan"}}, {"name": "3e022ee77e153a6ccabd3112e7bd4161", "lon": -77.03810416666667, "lat": 38.90674, "type": "electric_scooter", "fusion_lon": 0.0, "is_reserved": 0, "bike_id": "3e022ee77e153a6ccabd3112e7bd4161", "fusion_lat": 0.0, "is_disabled": 0, "rental_uris": {"ios": "https://dc.lft.to/lastmile_qr_scan", "android": "https://dc.lft.to/lastmile_qr_scan"}}, {"name": "0aaede2eb9563eed7e1c3de5f802477f", "lon": -77.02382083333333, "lat": 38.88688033333333, "type": "electric_scooter", "fusion_lon": 0.0, "is_reserved": 0, "bike_id": "0aaede2eb9563eed7e1c3de5f802477f", "fusion_lat": 0.0, "is_disabled": 0, "rental_uris": {"ios": "https://dc.lft.to/lastmile_qr_scan", "android": "https://dc.lft.to/lastmile_qr_scan"}}, {"name": "c6bf2d51c457e148191921b0e02e9a48", "lon": -77.038673, "lat": 38.9076875, "type": "electric_scooter", "fusion_lon": 0.0, "is_reserved": 0, "bike_id": "c6bf2d51c457e148191921b0e02e9a48", "fusion_lat": 0.0, "is_disabled": 0, "rental_uris": {"ios": "https://dc.lft.to/lastmile_qr_scan", "android": "https://dc.lft.to/lastmile_qr_scan"}}, {"name": "c40d53d720d33c0ecf0000b1fe7afd8f", "lon": -77.02418283333333, "lat": 38.921874333333335, "type": "electric_scooter", "fusion_lon": 0.0, "is_reserved": 0, "bike_id": "c40d53d720d33c0ecf0000b1fe7afd8f", "fusion_lat": 0.0, "is_disabled": 0, "rental_uris": {"ios": "https://dc.lft.to/lastmile_qr_scan", "android": "https://dc.lft.to/lastmile_qr_scan"}}, {"name": "9a6eac66cf32eb24a6d3c216e08dca3e", "lon": -77.03358383333334, "lat": 38.928883666666664, "type": "electric_scooter", "fusion_lon": 0.0, "is_reserved": 0, "bike_id": "9a6eac66cf32eb24a6d3c216e08dca3e", "fusion_lat": 0.0, "is_disabled": 0, "rental_uris": {"ios": "https://dc.lft.to/lastmile_qr_scan", "android": "https://dc.lft.to/lastmile_qr_scan"}}, {"name": "2101a58df419c74115cc967208c3f36d", "lon": -76.9442195, "lat": 38.9662, "type": "electric_bike", "fusion_lon": 0.0, "is_reserved": 0, "bike_id": "2101a58df419c74115cc967208c3f36d", "fusion_lat": 0.0, "is_disabled": 0, "rental_uris": {"ios": "https://dc.lft.to/lastmile_qr_scan", "android": "https://dc.lft.to/lastmile_qr_scan"}}, {"name": "99a94726a6e5d06182d59160c4810204", "lon": -77.012939, "lat": 39.003895166666666, "type": "electric_bike", "fusion_lon": 0.0, "is_reserved": 0, "bike_id": "99a94726a6e5d06182d59160c4810204", "fusion_lat": 0.0, "is_disabled": 0, "rental_uris": {"ios": "https://dc.lft.to/lastmile_qr_scan", "android": "https://dc.lft.to/lastmile_qr_scan"}}, {"name": "48e727c57d563bc59715b234a369e4a9", "lon": -77.051355, "lat": 38.907118, "type": "electric_scooter", "fusion_lon": 0.0, "is_reserved": 0, "bike_id": "48e727c57d563bc59715b234a369e4a9", "fusion_lat": 0.0, "is_disabled": 0, "rental_uris": {"ios": "https://dc.lft.to/lastmile_qr_scan", "android": "https://dc.lft.to/lastmile_qr_scan"}}, {"name": "55a1f6657ce8acaa0569e44c8a99c674", "lon": -77.00495966666666, "lat": 38.89677483333333, "type": "electric_scooter", "fusion_lon": 0.0, "is_reserved": 0, "bike_id": "55a1f6657ce8acaa0569e44c8a99c674", "fusion_lat": 0.0, "is_disabled": 0, "rental_uris": {"ios": "https://dc.lft.to/lastmile_qr_scan", "android": "https://dc.lft.to/lastmile_qr_scan"}}, {"name": "ac57db5b5a3b8187b65392f3044db183", "lon": -77.00775383333334, "lat": 38.9266915, "type": "electric_scooter", "fusion_lon": 0.0, "is_reserved": 0, "bike_id": "ac57db5b5a3b8187b65392f3044db183", "fusion_lat": 0.0, "is_disabled": 0, "rental_uris": {"ios": "https://dc.lft.to/lastmile_qr_scan", "android": "https://dc.lft.to/lastmile_qr_scan"}}, {"name": "e0d93076f1fafafc5630b00046931037", "lon": -76.92332483333334, "lat": 38.87112966666667, "type": "electric_bike", "fusion_lon": 0.0, "is_reserved": 0, "bike_id": "e0d93076f1fafafc5630b00046931037", "fusion_lat": 0.0, "is_disabled": 0, "rental_uris": {"ios": "https://dc.lft.to/lastmile_qr_scan", "android": "https://dc.lft.to/lastmile_qr_scan"}}, {"name": "751f336427af662f4ff0b8348d5d1882", "lon": -77.023477, "lat": 38.94617616666667, "type": "electric_scooter", "fusion_lon": 0.0, "is_reserved": 0, "bike_id": "751f336427af662f4ff0b8348d5d1882", "fusion_lat": 0.0, "is_disabled": 0, "rental_uris": {"ios": "https://dc.lft.to/lastmile_qr_scan", "android": "https://dc.lft.to/lastmile_qr_scan"}}, {"name": "7b2a79482776d18c1a51aca060494114", "lon": -77.02489833333334, "lat": 38.941883833333335, "type": "electric_scooter", "fusion_lon": 0.0, "is_reserved": 0, "bike_id": "7b2a79482776d18c1a51aca060494114", "fusion_lat": 0.0, "is_disabled": 0, "rental_uris": {"ios": "https://dc.lft.to/lastmile_qr_scan", "android": "https://dc.lft.to/lastmile_qr_scan"}}, {"name": "4f90283dea9ed33f7a88e49b9e53449e", "lon": -77.0280175, "lat": 38.93295, "type": "electric_scooter", "fusion_lon": 0.0, "is_reserved": 0, "bike_id": "4f90283dea9ed33f7a88e49b9e53449e", "fusion_lat": 0.0, "is_disabled": 0, "rental_uris": {"ios": "https://dc.lft.to/lastmile_qr_scan", "android": "https://dc.lft.to/lastmile_qr_scan"}}, {"name": "6b45d3e484e5a50b18bc90cd24aec5f6", "lon": -76.99868516666666, "lat": 38.90023433333333, "type": "electric_scooter", "fusion_lon": 0.0, "is_reserved": 0, "bike_id": "6b45d3e484e5a50b18bc90cd24aec5f6", "fusion_lat": 0.0, "is_disabled": 0, "rental_uris": {"ios": "https://dc.lft.to/lastmile_qr_scan", "android": "https://dc.lft.to/lastmile_qr_scan"}}, {"name": "54938fb58779c5c2bff1cbadd8afc0c0", "lon": -77.03967383333334, "lat": 38.9036395, "type": "electric_scooter", "fusion_lon": 0.0, "is_reserved": 0, "bike_id": "54938fb58779c5c2bff1cbadd8afc0c0", "fusion_lat": 0.0, "is_disabled": 0, "rental_uris": {"ios": "https://dc.lft.to/lastmile_qr_scan", "android": "https://dc.lft.to/lastmile_qr_scan"}}, {"name": "74b5a05aa382e0bb25b33ce0a5cdb9b8", "lon": -76.9671185, "lat": 38.847953, "type": "electric_scooter", "fusion_lon": 0.0, "is_reserved": 0, "bike_id": "74b5a05aa382e0bb25b33ce0a5cdb9b8", "fusion_lat": 0.0, "is_disabled": 0, "rental_uris": {"ios": "https://dc.lft.to/lastmile_qr_scan", "android": "https://dc.lft.to/lastmile_qr_scan"}}, {"name": "f153cbe6574a339a207afdf9f1ae568c", "lon": -77.0288555, "lat": 38.904253, "type": "electric_scooter", "fusion_lon": 0.0, "is_reserved": 0, "bike_id": "f153cbe6574a339a207afdf9f1ae568c", "fusion_lat": 0.0, "is_disabled": 0, "rental_uris": {"ios": "https://dc.lft.to/lastmile_qr_scan", "android": "https://dc.lft.to/lastmile_qr_scan"}}, {"name": "4dab691668af1b219b9b41cd67e1eb3e", "lon": -77.02399616666666, "lat": 38.91752983333333, "type": "electric_scooter", "fusion_lon": 0.0, "is_reserved": 0, "bike_id": "4dab691668af1b219b9b41cd67e1eb3e", "fusion_lat": 0.0, "is_disabled": 0, "rental_uris": {"ios": "https://dc.lft.to/lastmile_qr_scan", "android": "https://dc.lft.to/lastmile_qr_scan"}}, {"name": "5ce91338d4df6305c319d928c1b5b423", "lon": -77.0857755, "lat": 38.933516833333336, "type": "electric_scooter", "fusion_lon": 0.0, "is_reserved": 0, "bike_id": "5ce91338d4df6305c319d928c1b5b423", "fusion_lat": 0.0, "is_disabled": 0, "rental_uris": {"ios": "https://dc.lft.to/lastmile_qr_scan", "android": "https://dc.lft.to/lastmile_qr_scan"}}, {"name": "7c2ebc293ffae4a397dc6bb184fe0af9", "lon": -76.98353, "lat": 38.91486, "type": "electric_scooter", "fusion_lon": 0.0, "is_reserved": 0, "bike_id": "7c2ebc293ffae4a397dc6bb184fe0af9", "fusion_lat": 0.0, "is_disabled": 0, "rental_uris": {"ios": "https://dc.lft.to/lastmile_qr_scan", "android": "https://dc.lft.to/lastmile_qr_scan"}}, {"name": "e9ee0993892a2e2d60c8bc674d2e6c1f", "lon": -77.02966233333333, "lat": 38.90492066666667, "type": "electric_scooter", "fusion_lon": 0.0, "is_reserved": 0, "bike_id": "e9ee0993892a2e2d60c8bc674d2e6c1f", "fusion_lat": 0.0, "is_disabled": 0, "rental_uris": {"ios": "https://dc.lft.to/lastmile_qr_scan", "android": "https://dc.lft.to/lastmile_qr_scan"}}, {"name": "53407f4bcd51fa7df148699458f81710", "lon": -77.0020555, "lat": 38.900362, "type": "electric_scooter", "fusion_lon": 0.0, "is_reserved": 0, "bike_id": "53407f4bcd51fa7df148699458f81710", "fusion_lat": 0.0, "is_disabled": 0, "rental_uris": {"ios": "https://dc.lft.to/lastmile_qr_scan", "android": "https://dc.lft.to/lastmile_qr_scan"}}, {"name": "b0a6b0f460952cfd4bde560e003bad3c", "lon": -76.94633766666666, "lat": 38.8984345, "type": "electric_scooter", "fusion_lon": 0.0, "is_reserved": 0, "bike_id": "b0a6b0f460952cfd4bde560e003bad3c", "fusion_lat": 0.0, "is_disabled": 0, "rental_uris": {"ios": "https://dc.lft.to/lastmile_qr_scan", "android": "https://dc.lft.to/lastmile_qr_scan"}}, {"name": "e8cd2a2236387a5aee035bb1f2796ac3", "lon": -77.03515266666666, "lat": 38.92730783333333, "type": "electric_scooter", "fusion_lon": 0.0, "is_reserved": 0, "bike_id": "e8cd2a2236387a5aee035bb1f2796ac3", "fusion_lat": 0.0, "is_disabled": 0, "rental_uris": {"ios": "https://dc.lft.to/lastmile_qr_scan", "android": "https://dc.lft.to/lastmile_qr_scan"}}, {"name": "54d9119da895c53dcd7bb0859d2d575a", "lon": -77.027216, "lat": 38.91821016666667, "type": "electric_scooter", "fusion_lon": 0.0, "is_reserved": 0, "bike_id": "54d9119da895c53dcd7bb0859d2d575a", "fusion_lat": 0.0, "is_disabled": 0, "rental_uris": {"ios": "https://dc.lft.to/lastmile_qr_scan", "android": "https://dc.lft.to/lastmile_qr_scan"}}, {"name": "5c5cef7149d880b4b14d17e53ef50353", "lon": -76.9809045, "lat": 38.881352666666665, "type": "electric_bike", "fusion_lon": 0.0, "is_reserved": 0, "bike_id": "5c5cef7149d880b4b14d17e53ef50353", "fusion_lat": 0.0, "is_disabled": 0, "rental_uris": {"ios": "https://dc.lft.to/lastmile_qr_scan", "android": "https://dc.lft.to/lastmile_qr_scan"}}, {"name": "5bb8b249531202dd17671a0e20caa8aa", "lon": -77.01768383333334, "lat": 38.884129, "type": "electric_scooter", "fusion_lon": 0.0, "is_reserved": 0, "bike_id": "5bb8b249531202dd17671a0e20caa8aa", "fusion_lat": 0.0, "is_disabled": 0, "rental_uris": {"ios": "https://dc.lft.to/lastmile_qr_scan", "android": "https://dc.lft.to/lastmile_qr_scan"}}, {"name": "575c10aae1db4d144e67625937dd719c", "lon": -77.056235, "lat": 38.924162333333335, "type": "electric_scooter", "fusion_lon": 0.0, "is_reserved": 0, "bike_id": "575c10aae1db4d144e67625937dd719c", "fusion_lat": 0.0, "is_disabled": 0, "rental_uris": {"ios": "https://dc.lft.to/lastmile_qr_scan", "android": "https://dc.lft.to/lastmile_qr_scan"}}, {"name": "6e6a50ff5940c599f27f39985015d5f6", "lon": -77.02293833333333, "lat": 38.92805033333333, "type": "electric_scooter", "fusion_lon": 0.0, "is_reserved": 0, "bike_id": "6e6a50ff5940c599f27f39985015d5f6", "fusion_lat": 0.0, "is_disabled": 0, "rental_uris": {"ios": "https://dc.lft.to/lastmile_qr_scan", "android": "https://dc.lft.to/lastmile_qr_scan"}}, {"name": "bfcb616fec743e77fe3c9e9931340289", "lon": -76.911368, "lat": 38.894226, "type": "electric_scooter", "fusion_lon": 0.0, "is_reserved": 0, "bike_id": "bfcb616fec743e77fe3c9e9931340289", "fusion_lat": 0.0, "is_disabled": 0, "rental_uris": {"ios": "https://dc.lft.to/lastmile_qr_scan", "android": "https://dc.lft.to/lastmile_qr_scan"}}, {"name": "ee625968151812a8c7b5f4680636c45a", "lon": -77.02323683333333, "lat": 38.930575833333336, "type": "electric_scooter", "fusion_lon": 0.0, "is_reserved": 0, "bike_id": "ee625968151812a8c7b5f4680636c45a", "fusion_lat": 0.0, "is_disabled": 0, "rental_uris": {"ios": "https://dc.lft.to/lastmile_qr_scan", "android": "https://dc.lft.to/lastmile_qr_scan"}}, {"name": "c2de5c0da863854f147a8f1a4b0ff8da", "lon": -77.05422933333334, "lat": 38.9023885, "type": "electric_scooter", "fusion_lon": 0.0, "is_reserved": 0, "bike_id": "c2de5c0da863854f147a8f1a4b0ff8da", "fusion_lat": 0.0, "is_disabled": 0, "rental_uris": {"ios": "https://dc.lft.to/lastmile_qr_scan", "android": "https://dc.lft.to/lastmile_qr_scan"}}, {"name": "039a90d4321244c6ad24e6086084ebaa", "lon": -76.93369183333333, "lat": 38.899144166666666, "type": "electric_scooter", "fusion_lon": 0.0, "is_reserved": 0, "bike_id": "039a90d4321244c6ad24e6086084ebaa", "fusion_lat": 0.0, "is_disabled": 0, "rental_uris": {"ios": "https://dc.lft.to/lastmile_qr_scan", "android": "https://dc.lft.to/lastmile_qr_scan"}}, {"name": "18cd2ded730f16b2ea39edcc560facc3", "lon": -76.99846616666666, "lat": 38.88742766666667, "type": "electric_scooter", "fusion_lon": 0.0, "is_reserved": 0, "bike_id": "18cd2ded730f16b2ea39edcc560facc3", "fusion_lat": 0.0, "is_disabled": 0, "rental_uris": {"ios": "https://dc.lft.to/lastmile_qr_scan", "android": "https://dc.lft.to/lastmile_qr_scan"}}, {"name": "773643b4f0f691416a7b75b84d0ee237", "lon": -77.04195016666667, "lat": 38.926208, "type": "electric_scooter", "fusion_lon": 0.0, "is_reserved": 0, "bike_id": "773643b4f0f691416a7b75b84d0ee237", "fusion_lat": 0.0, "is_disabled": 0, "rental_uris": {"ios": "https://dc.lft.to/lastmile_qr_scan", "android": "https://dc.lft.to/lastmile_qr_scan"}}, {"name": "818e1c93a053a41b411f4a36ca33d52d", "lon": -76.97818966666667, "lat": 38.901701833333334, "type": "electric_scooter", "fusion_lon": 0.0, "is_reserved": 0, "bike_id": "818e1c93a053a41b411f4a36ca33d52d", "fusion_lat": 0.0, "is_disabled": 0, "rental_uris": {"ios": "https://dc.lft.to/lastmile_qr_scan", "android": "https://dc.lft.to/lastmile_qr_scan"}}, {"name": "26db87048e13295ae3dbfe7003a88920", "lon": -77.03470866666666, "lat": 38.90277666666667, "type": "electric_scooter", "fusion_lon": 0.0, "is_reserved": 0, "bike_id": "26db87048e13295ae3dbfe7003a88920", "fusion_lat": 0.0, "is_disabled": 0, "rental_uris": {"ios": "https://dc.lft.to/lastmile_qr_scan", "android": "https://dc.lft.to/lastmile_qr_scan"}}, {"name": "53f7af1b0c1490421fc70ad3bafb7127", "lon": -76.93730983333333, "lat": 38.8901745, "type": "electric_scooter", "fusion_lon": 0.0, "is_reserved": 0, "bike_id": "53f7af1b0c1490421fc70ad3bafb7127", "fusion_lat": 0.0, "is_disabled": 0, "rental_uris": {"ios": "https://dc.lft.to/lastmile_qr_scan", "android": "https://dc.lft.to/lastmile_qr_scan"}}, {"name": "23154b9e589eaffa2f93cb3fae453d4c", "lon": -77.01096016666666, "lat": 38.89826683333333, "type": "electric_scooter", "fusion_lon": 0.0, "is_reserved": 0, "bike_id": "23154b9e589eaffa2f93cb3fae453d4c", "fusion_lat": 0.0, "is_disabled": 0, "rental_uris": {"ios": "https://dc.lft.to/lastmile_qr_scan", "android": "https://dc.lft.to/lastmile_qr_scan"}}, {"name": "ba86b6ceab47de8a69148d6be1551127", "lon": -77.0452005, "lat": 38.90276816666667, "type": "electric_scooter", "fusion_lon": 0.0, "is_reserved": 0, "bike_id": "ba86b6ceab47de8a69148d6be1551127", "fusion_lat": 0.0, "is_disabled": 0, "rental_uris": {"ios": "https://dc.lft.to/lastmile_qr_scan", "android": "https://dc.lft.to/lastmile_qr_scan"}}, {"name": "3b88fe0336f6d0a62fc1d8cbcc2b0195", "lon": -77.04644683333333, "lat": 38.91943033333333, "type": "electric_scooter", "fusion_lon": 0.0, "is_reserved": 0, "bike_id": "3b88fe0336f6d0a62fc1d8cbcc2b0195", "fusion_lat": 0.0, "is_disabled": 0, "rental_uris": {"ios": "https://dc.lft.to/lastmile_qr_scan", "android": "https://dc.lft.to/lastmile_qr_scan"}}, {"name": "06ed75664047ddcfe51faf4a7d9f3637", "lon": -77.06333266666667, "lat": 38.94421333333333, "type": "electric_scooter", "fusion_lon": 0.0, "is_reserved": 0, "bike_id": "06ed75664047ddcfe51faf4a7d9f3637", "fusion_lat": 0.0, "is_disabled": 0, "rental_uris": {"ios": "https://dc.lft.to/lastmile_qr_scan", "android": "https://dc.lft.to/lastmile_qr_scan"}}, {"name": "73f4b45c2f594df67a3b05c3532e4209", "lon": -77.02731716666666, "lat": 38.940911, "type": "electric_scooter", "fusion_lon": 0.0, "is_reserved": 0, "bike_id": "73f4b45c2f594df67a3b05c3532e4209", "fusion_lat": 0.0, "is_disabled": 0, "rental_uris": {"ios": "https://dc.lft.to/lastmile_qr_scan", "android": "https://dc.lft.to/lastmile_qr_scan"}}, {"name": "398f419261e259a85909cc0b634fc595", "lon": -77.02297533333333, "lat": 38.918274833333335, "type": "electric_scooter", "fusion_lon": 0.0, "is_reserved": 0, "bike_id": "398f419261e259a85909cc0b634fc595", "fusion_lat": 0.0, "is_disabled": 0, "rental_uris": {"ios": "https://dc.lft.to/lastmile_qr_scan", "android": "https://dc.lft.to/lastmile_qr_scan"}}, {"name": "8a3734a27e984ef0ca2b3ce5350c5037", "lon": -77.041374, "lat": 38.89351833333333, "type": "electric_scooter", "fusion_lon": 0.0, "is_reserved": 0, "bike_id": "8a3734a27e984ef0ca2b3ce5350c5037", "fusion_lat": 0.0, "is_disabled": 0, "rental_uris": {"ios": "https://dc.lft.to/lastmile_qr_scan", "android": "https://dc.lft.to/lastmile_qr_scan"}}, {"name": "4705ab6c9fb49a73b460314a886a0ed5", "lon": -77.03257216666667, "lat": 38.939716833333335, "type": "electric_scooter", "fusion_lon": 0.0, "is_reserved": 0, "bike_id": "4705ab6c9fb49a73b460314a886a0ed5", "fusion_lat": 0.0, "is_disabled": 0, "rental_uris": {"ios": "https://dc.lft.to/lastmile_qr_scan", "android": "https://dc.lft.to/lastmile_qr_scan"}}, {"name": "c99fb8c85f1885a216b7353f1c67e095", "lon": -77.01750966666667, "lat": 38.87720766666666, "type": "electric_scooter", "fusion_lon": 0.0, "is_reserved": 0, "bike_id": "c99fb8c85f1885a216b7353f1c67e095", "fusion_lat": 0.0, "is_disabled": 0, "rental_uris": {"ios": "https://dc.lft.to/lastmile_qr_scan", "android": "https://dc.lft.to/lastmile_qr_scan"}}, {"name": "f722a68997ebd2fdbe815435067b7b61", "lon": -76.995424, "lat": 38.879380166666664, "type": "electric_scooter", "fusion_lon": 0.0, "is_reserved": 0, "bike_id": "f722a68997ebd2fdbe815435067b7b61", "fusion_lat": 0.0, "is_disabled": 0, "rental_uris": {"ios": "https://dc.lft.to/lastmile_qr_scan", "android": "https://dc.lft.to/lastmile_qr_scan"}}, {"name": "72ebd6ca0fa024740f0dfe7016557168", "lon": -76.98245733333333, "lat": 38.86458616666667, "type": "electric_scooter", "fusion_lon": 0.0, "is_reserved": 0, "bike_id": "72ebd6ca0fa024740f0dfe7016557168", "fusion_lat": 0.0, "is_disabled": 0, "rental_uris": {"ios": "https://dc.lft.to/lastmile_qr_scan", "android": "https://dc.lft.to/lastmile_qr_scan"}}, {"name": "5a0dd9e4a03588ffe45909932755313e", "lon": -77.063548, "lat": 38.94455766666667, "type": "electric_scooter", "fusion_lon": 0.0, "is_reserved": 0, "bike_id": "5a0dd9e4a03588ffe45909932755313e", "fusion_lat": 0.0, "is_disabled": 0, "rental_uris": {"ios": "https://dc.lft.to/lastmile_qr_scan", "android": "https://dc.lft.to/lastmile_qr_scan"}}, {"name": "ea79038e6e0cd8683e93f485713514ea", "lon": -76.89540966666667, "lat": 38.945540666666666, "type": "electric_bike", "fusion_lon": 0.0, "is_reserved": 0, "bike_id": "ea79038e6e0cd8683e93f485713514ea", "fusion_lat": 0.0, "is_disabled": 0, "rental_uris": {"ios": "https://dc.lft.to/lastmile_qr_scan", "android": "https://dc.lft.to/lastmile_qr_scan"}}, {"name": "134e56ea8addb6f8c2b20babea598ff8", "lon": -77.01671016666667, "lat": 38.88127716666666, "type": "electric_scooter", "fusion_lon": 0.0, "is_reserved": 0, "bike_id": "134e56ea8addb6f8c2b20babea598ff8", "fusion_lat": 0.0, "is_disabled": 0, "rental_uris": {"ios": "https://dc.lft.to/lastmile_qr_scan", "android": "https://dc.lft.to/lastmile_qr_scan"}}, {"name": "536f27a08f8cc9eca033c70eb240d013", "lon": -77.0627305, "lat": 38.90546833333333, "type": "electric_scooter", "fusion_lon": 0.0, "is_reserved": 0, "bike_id": "536f27a08f8cc9eca033c70eb240d013", "fusion_lat": 0.0, "is_disabled": 0, "rental_uris": {"ios": "https://dc.lft.to/lastmile_qr_scan", "android": "https://dc.lft.to/lastmile_qr_scan"}}, {"name": "e7f3c5e3ccdef559e8d06e681347fa1e", "lon": -77.02815566666666, "lat": 38.923618, "type": "electric_scooter", "fusion_lon": 0.0, "is_reserved": 0, "bike_id": "e7f3c5e3ccdef559e8d06e681347fa1e", "fusion_lat": 0.0, "is_disabled": 0, "rental_uris": {"ios": "https://dc.lft.to/lastmile_qr_scan", "android": "https://dc.lft.to/lastmile_qr_scan"}}, {"name": "203614bb64107517df5ea4bb8ac90358", "lon": -77.043099, "lat": 38.928839333333336, "type": "electric_bike", "fusion_lon": 0.0, "is_reserved": 0, "bike_id": "203614bb64107517df5ea4bb8ac90358", "fusion_lat": 0.0, "is_disabled": 0, "rental_uris": {"ios": "https://dc.lft.to/lastmile_qr_scan", "android": "https://dc.lft.to/lastmile_qr_scan"}}, {"name": "f98d59e800a2d6f47fe6063e915743dd", "lon": -77.0333155, "lat": 38.89832783333333, "type": "electric_scooter", "fusion_lon": 0.0, "is_reserved": 0, "bike_id": "f98d59e800a2d6f47fe6063e915743dd", "fusion_lat": 0.0, "is_disabled": 0, "rental_uris": {"ios": "https://dc.lft.to/lastmile_qr_scan", "android": "https://dc.lft.to/lastmile_qr_scan"}}, {"name": "6557c93ef04465f34f720b083dd606c6", "lon": -76.98442233333333, "lat": 38.8553255, "type": "electric_bike", "fusion_lon": 0.0, "is_reserved": 0, "bike_id": "6557c93ef04465f34f720b083dd606c6", "fusion_lat": 0.0, "is_disabled": 0, "rental_uris": {"ios": "https://dc.lft.to/lastmile_qr_scan", "android": "https://dc.lft.to/lastmile_qr_scan"}}, {"name": "2098f1b85bf1ecc912f1d6a8fb58d07b", "lon": -77.0240255, "lat": 38.916241666666664, "type": "electric_scooter", "fusion_lon": 0.0, "is_reserved": 0, "bike_id": "2098f1b85bf1ecc912f1d6a8fb58d07b", "fusion_lat": 0.0, "is_disabled": 0, "rental_uris": {"ios": "https://dc.lft.to/lastmile_qr_scan", "android": "https://dc.lft.to/lastmile_qr_scan"}}, {"name": "4d15722b78e89ac6a60f76fb587971ca", "lon": -77.06864633333333, "lat": 38.805791666666664, "type": "electric_bike", "fusion_lon": 0.0, "is_reserved": 0, "bike_id": "4d15722b78e89ac6a60f76fb587971ca", "fusion_lat": 0.0, "is_disabled": 0, "rental_uris": {"ios": "https://dc.lft.to/lastmile_qr_scan", "android": "https://dc.lft.to/lastmile_qr_scan"}}, {"name": "c984433fed1ab6fa091609d9894d8798", "lon": -77.0342235, "lat": 38.91924616666667, "type": "electric_scooter", "fusion_lon": 0.0, "is_reserved": 0, "bike_id": "c984433fed1ab6fa091609d9894d8798", "fusion_lat": 0.0, "is_disabled": 0, "rental_uris": {"ios": "https://dc.lft.to/lastmile_qr_scan", "android": "https://dc.lft.to/lastmile_qr_scan"}}, {"name": "8b5b8871f93f7c7bab9e9b070c1ef3d7", "lon": -77.043279, "lat": 38.89225483333333, "type": "electric_scooter", "fusion_lon": 0.0, "is_reserved": 0, "bike_id": "8b5b8871f93f7c7bab9e9b070c1ef3d7", "fusion_lat": 0.0, "is_disabled": 0, "rental_uris": {"ios": "https://dc.lft.to/lastmile_qr_scan", "android": "https://dc.lft.to/lastmile_qr_scan"}}, {"name": "b3bceac71b2a671f9fe69e5f75c9f751", "lon": -77.03289133333334, "lat": 38.95633316666667, "type": "electric_scooter", "fusion_lon": 0.0, "is_reserved": 0, "bike_id": "b3bceac71b2a671f9fe69e5f75c9f751", "fusion_lat": 0.0, "is_disabled": 0, "rental_uris": {"ios": "https://dc.lft.to/lastmile_qr_scan", "android": "https://dc.lft.to/lastmile_qr_scan"}}, {"name": "2f2dc3c139f77c53fbf3f79789a06859", "lon": -77.00920883333333, "lat": 38.913402, "type": "electric_scooter", "fusion_lon": 0.0, "is_reserved": 0, "bike_id": "2f2dc3c139f77c53fbf3f79789a06859", "fusion_lat": 0.0, "is_disabled": 0, "rental_uris": {"ios": "https://dc.lft.to/lastmile_qr_scan", "android": "https://dc.lft.to/lastmile_qr_scan"}}, {"name": "848fee42cbf44dc63eaff13e4ee3303a", "lon": -76.94242566666667, "lat": 38.8967315, "type": "electric_scooter", "fusion_lon": 0.0, "is_reserved": 0, "bike_id": "848fee42cbf44dc63eaff13e4ee3303a", "fusion_lat": 0.0, "is_disabled": 0, "rental_uris": {"ios": "https://dc.lft.to/lastmile_qr_scan", "android": "https://dc.lft.to/lastmile_qr_scan"}}, {"name": "50d310d840a21df6cabaa7c4bc3f21a4", "lon": -77.057535, "lat": 38.92493783333333, "type": "electric_scooter", "fusion_lon": 0.0, "is_reserved": 0, "bike_id": "50d310d840a21df6cabaa7c4bc3f21a4", "fusion_lat": 0.0, "is_disabled": 0, "rental_uris": {"ios": "https://dc.lft.to/lastmile_qr_scan", "android": "https://dc.lft.to/lastmile_qr_scan"}}, {"name": "5f86bb10096ad74340a1c24482ce772a", "lon": -76.94621383333333, "lat": 38.83233, "type": "electric_bike", "fusion_lon": 0.0, "is_reserved": 0, "bike_id": "5f86bb10096ad74340a1c24482ce772a", "fusion_lat": 0.0, "is_disabled": 0, "rental_uris": {"ios": "https://dc.lft.to/lastmile_qr_scan", "android": "https://dc.lft.to/lastmile_qr_scan"}}, {"name": "33e9037e329f45496fdd8a1452c23b82", "lon": -77.03534133333334, "lat": 38.925374, "type": "electric_scooter", "fusion_lon": 0.0, "is_reserved": 0, "bike_id": "33e9037e329f45496fdd8a1452c23b82", "fusion_lat": 0.0, "is_disabled": 0, "rental_uris": {"ios": "https://dc.lft.to/lastmile_qr_scan", "android": "https://dc.lft.to/lastmile_qr_scan"}}, {"name": "9410cd798fe2aaae6f999dd6aff1460a", "lon": -77.00128616666667, "lat": 38.905075333333336, "type": "electric_scooter", "fusion_lon": 0.0, "is_reserved": 0, "bike_id": "9410cd798fe2aaae6f999dd6aff1460a", "fusion_lat": 0.0, "is_disabled": 0, "rental_uris": {"ios": "https://dc.lft.to/lastmile_qr_scan", "android": "https://dc.lft.to/lastmile_qr_scan"}}, {"name": "ea3b4da02b27139e69d825a1180e9391", "lon": -77.04980583333334, "lat": 39.062952833333334, "type": "electric_bike", "fusion_lon": 0.0, "is_reserved": 0, "bike_id": "ea3b4da02b27139e69d825a1180e9391", "fusion_lat": 0.0, "is_disabled": 0, "rental_uris": {"ios": "https://dc.lft.to/lastmile_qr_scan", "android": "https://dc.lft.to/lastmile_qr_scan"}}, {"name": "278d0edd76e336e0a35aac469f426484", "lon": -77.02960766666666, "lat": 38.896164666666664, "type": "electric_scooter", "fusion_lon": 0.0, "is_reserved": 0, "bike_id": "278d0edd76e336e0a35aac469f426484", "fusion_lat": 0.0, "is_disabled": 0, "rental_uris": {"ios": "https://dc.lft.to/lastmile_qr_scan", "android": "https://dc.lft.to/lastmile_qr_scan"}}, {"name": "cdd1bf0a208d7871cef6a7567fe350a9", "lon": -77.03032616666667, "lat": 38.89826166666667, "type": "electric_scooter", "fusion_lon": 0.0, "is_reserved": 0, "bike_id": "cdd1bf0a208d7871cef6a7567fe350a9", "fusion_lat": 0.0, "is_disabled": 0, "rental_uris": {"ios": "https://dc.lft.to/lastmile_qr_scan", "android": "https://dc.lft.to/lastmile_qr_scan"}}, {"name": "594fad2a4b4d0e1d0ee6f0dde12eee48", "lon": -77.03046983333333, "lat": 38.8841035, "type": "electric_scooter", "fusion_lon": 0.0, "is_reserved": 0, "bike_id": "594fad2a4b4d0e1d0ee6f0dde12eee48", "fusion_lat": 0.0, "is_disabled": 0, "rental_uris": {"ios": "https://dc.lft.to/lastmile_qr_scan", "android": "https://dc.lft.to/lastmile_qr_scan"}}, {"name": "bd46679162d36b5fdb97e42b8c8162a1", "lon": -77.02595516666666, "lat": 38.916919166666666, "type": "electric_scooter", "fusion_lon": 0.0, "is_reserved": 0, "bike_id": "bd46679162d36b5fdb97e42b8c8162a1", "fusion_lat": 0.0, "is_disabled": 0, "rental_uris": {"ios": "https://dc.lft.to/lastmile_qr_scan", "android": "https://dc.lft.to/lastmile_qr_scan"}}, {"name": "43d20e25eac5a7b2f9eb7d776897fe51", "lon": -76.9325865, "lat": 38.89885116666667, "type": "electric_scooter", "fusion_lon": 0.0, "is_reserved": 0, "bike_id": "43d20e25eac5a7b2f9eb7d776897fe51", "fusion_lat": 0.0, "is_disabled": 0, "rental_uris": {"ios": "https://dc.lft.to/lastmile_qr_scan", "android": "https://dc.lft.to/lastmile_qr_scan"}}, {"name": "b658a3162e1966c3590bc7347055a853", "lon": -77.069834, "lat": 38.953041666666664, "type": "electric_scooter", "fusion_lon": 0.0, "is_reserved": 0, "bike_id": "b658a3162e1966c3590bc7347055a853", "fusion_lat": 0.0, "is_disabled": 0, "rental_uris": {"ios": "https://dc.lft.to/lastmile_qr_scan", "android": "https://dc.lft.to/lastmile_qr_scan"}}, {"name": "7f82bd95a91a048a4c7139493eb98b44", "lon": -77.01370633333333, "lat": 38.88713166666667, "type": "electric_scooter", "fusion_lon": 0.0, "is_reserved": 0, "bike_id": "7f82bd95a91a048a4c7139493eb98b44", "fusion_lat": 0.0, "is_disabled": 0, "rental_uris": {"ios": "https://dc.lft.to/lastmile_qr_scan", "android": "https://dc.lft.to/lastmile_qr_scan"}}, {"name": "385471a284275ecc48382556106a42e0", "lon": -77.03212083333334, "lat": 38.909028, "type": "electric_scooter", "fusion_lon": 0.0, "is_reserved": 0, "bike_id": "385471a284275ecc48382556106a42e0", "fusion_lat": 0.0, "is_disabled": 0, "rental_uris": {"ios": "https://dc.lft.to/lastmile_qr_scan", "android": "https://dc.lft.to/lastmile_qr_scan"}}, {"name": "32b5e3924c7d41332bc9a6a1b8566171", "lon": -77.04793533333333, "lat": 38.9187125, "type": "electric_scooter", "fusion_lon": 0.0, "is_reserved": 0, "bike_id": "32b5e3924c7d41332bc9a6a1b8566171", "fusion_lat": 0.0, "is_disabled": 0, "rental_uris": {"ios": "https://dc.lft.to/lastmile_qr_scan", "android": "https://dc.lft.to/lastmile_qr_scan"}}, {"name": "cd0c7777a67da13e7364b11e22713c96", "lon": -77.0347625, "lat": 38.925353666666666, "type": "electric_scooter", "fusion_lon": 0.0, "is_reserved": 0, "bike_id": "cd0c7777a67da13e7364b11e22713c96", "fusion_lat": 0.0, "is_disabled": 0, "rental_uris": {"ios": "https://dc.lft.to/lastmile_qr_scan", "android": "https://dc.lft.to/lastmile_qr_scan"}}, {"name": "36081517fbbff338de3a64025c584b65", "lon": -77.02970316666666, "lat": 38.896146, "type": "electric_scooter", "fusion_lon": 0.0, "is_reserved": 0, "bike_id": "36081517fbbff338de3a64025c584b65", "fusion_lat": 0.0, "is_disabled": 0, "rental_uris": {"ios": "https://dc.lft.to/lastmile_qr_scan", "android": "https://dc.lft.to/lastmile_qr_scan"}}, {"name": "aff8373e23ae17927583c94c7fe38d4d", "lon": -77.04655733333334, "lat": 38.91590816666667, "type": "electric_scooter", "fusion_lon": 0.0, "is_reserved": 0, "bike_id": "aff8373e23ae17927583c94c7fe38d4d", "fusion_lat": 0.0, "is_disabled": 0, "rental_uris": {"ios": "https://dc.lft.to/lastmile_qr_scan", "android": "https://dc.lft.to/lastmile_qr_scan"}}, {"name": "4c1df3857d438e4b969a08d2aaa30d05", "lon": -76.9698585, "lat": 38.85616066666667, "type": "electric_scooter", "fusion_lon": 0.0, "is_reserved": 0, "bike_id": "4c1df3857d438e4b969a08d2aaa30d05", "fusion_lat": 0.0, "is_disabled": 0, "rental_uris": {"ios": "https://dc.lft.to/lastmile_qr_scan", "android": "https://dc.lft.to/lastmile_qr_scan"}}, {"name": "ac78e512c936e6d2b8ac0b9d87543e58", "lon": -77.034498, "lat": 38.9101495, "type": "electric_scooter", "fusion_lon": 0.0, "is_reserved": 0, "bike_id": "ac78e512c936e6d2b8ac0b9d87543e58", "fusion_lat": 0.0, "is_disabled": 0, "rental_uris": {"ios": "https://dc.lft.to/lastmile_qr_scan", "android": "https://dc.lft.to/lastmile_qr_scan"}}, {"name": "ed75f44197891ce975362ff259a9fbaa", "lon": -77.02420066666667, "lat": 38.957308833333336, "type": "electric_scooter", "fusion_lon": 0.0, "is_reserved": 0, "bike_id": "ed75f44197891ce975362ff259a9fbaa", "fusion_lat": 0.0, "is_disabled": 0, "rental_uris": {"ios": "https://dc.lft.to/lastmile_qr_scan", "android": "https://dc.lft.to/lastmile_qr_scan"}}, {"name": "0acdedd42bac6f670c3a9e7e6b868bf0", "lon": -77.03497716666666, "lat": 38.917122, "type": "electric_scooter", "fusion_lon": 0.0, "is_reserved": 0, "bike_id": "0acdedd42bac6f670c3a9e7e6b868bf0", "fusion_lat": 0.0, "is_disabled": 0, "rental_uris": {"ios": "https://dc.lft.to/lastmile_qr_scan", "android": "https://dc.lft.to/lastmile_qr_scan"}}, {"name": "67d64568304c13875d848771290daf58", "lon": -77.021843, "lat": 38.90170366666667, "type": "electric_scooter", "fusion_lon": 0.0, "is_reserved": 0, "bike_id": "67d64568304c13875d848771290daf58", "fusion_lat": 0.0, "is_disabled": 0, "rental_uris": {"ios": "https://dc.lft.to/lastmile_qr_scan", "android": "https://dc.lft.to/lastmile_qr_scan"}}, {"name": "9c7f77ffd86136b69c3808ce24922e63", "lon": -76.94879666666667, "lat": 38.89554, "type": "electric_scooter", "fusion_lon": 0.0, "is_reserved": 0, "bike_id": "9c7f77ffd86136b69c3808ce24922e63", "fusion_lat": 0.0, "is_disabled": 0, "rental_uris": {"ios": "https://dc.lft.to/lastmile_qr_scan", "android": "https://dc.lft.to/lastmile_qr_scan"}}, {"name": "cfa53cfbdc0a524529e3f6b135e4e2b9", "lon": -77.03975866666667, "lat": 38.899193833333335, "type": "electric_scooter", "fusion_lon": 0.0, "is_reserved": 0, "bike_id": "cfa53cfbdc0a524529e3f6b135e4e2b9", "fusion_lat": 0.0, "is_disabled": 0, "rental_uris": {"ios": "https://dc.lft.to/lastmile_qr_scan", "android": "https://dc.lft.to/lastmile_qr_scan"}}, {"name": "626d9071bf93d6cee41120c87ecbc238", "lon": -76.94635, "lat": 38.898443666666665, "type": "electric_scooter", "fusion_lon": 0.0, "is_reserved": 0, "bike_id": "626d9071bf93d6cee41120c87ecbc238", "fusion_lat": 0.0, "is_disabled": 0, "rental_uris": {"ios": "https://dc.lft.to/lastmile_qr_scan", "android": "https://dc.lft.to/lastmile_qr_scan"}}, {"name": "f75db250bd38173001f81829071798be", "lon": -77.0239355, "lat": 38.91657583333333, "type": "electric_scooter", "fusion_lon": 0.0, "is_reserved": 0, "bike_id": "f75db250bd38173001f81829071798be", "fusion_lat": 0.0, "is_disabled": 0, "rental_uris": {"ios": "https://dc.lft.to/lastmile_qr_scan", "android": "https://dc.lft.to/lastmile_qr_scan"}}, {"name": "ba93047d27e8bb9771fd67a6792e56b4", "lon": -77.00072766666666, "lat": 38.90145866666667, "type": "electric_scooter", "fusion_lon": 0.0, "is_reserved": 0, "bike_id": "ba93047d27e8bb9771fd67a6792e56b4", "fusion_lat": 0.0, "is_disabled": 0, "rental_uris": {"ios": "https://dc.lft.to/lastmile_qr_scan", "android": "https://dc.lft.to/lastmile_qr_scan"}}, {"name": "6e6d175f0df112768bb70863c52b113d", "lon": -77.034444, "lat": 38.910108666666666, "type": "electric_scooter", "fusion_lon": 0.0, "is_reserved": 0, "bike_id": "6e6d175f0df112768bb70863c52b113d", "fusion_lat": 0.0, "is_disabled": 0, "rental_uris": {"ios": "https://dc.lft.to/lastmile_qr_scan", "android": "https://dc.lft.to/lastmile_qr_scan"}}, {"name": "9b7bcc534ea621d23878737e8d229115", "lon": -77.0295855, "lat": 38.93987583333333, "type": "electric_scooter", "fusion_lon": 0.0, "is_reserved": 0, "bike_id": "9b7bcc534ea621d23878737e8d229115", "fusion_lat": 0.0, "is_disabled": 0, "rental_uris": {"ios": "https://dc.lft.to/lastmile_qr_scan", "android": "https://dc.lft.to/lastmile_qr_scan"}}, {"name": "cf2612f0934c6597bb561d0b13c816e9", "lon": -77.09478833333333, "lat": 39.03042216666667, "type": "electric_bike", "fusion_lon": 0.0, "is_reserved": 0, "bike_id": "cf2612f0934c6597bb561d0b13c816e9", "fusion_lat": 0.0, "is_disabled": 0, "rental_uris": {"ios": "https://dc.lft.to/lastmile_qr_scan", "android": "https://dc.lft.to/lastmile_qr_scan"}}, {"name": "19ce1327ddc6723c00ce79235bd4f471", "lon": -77.02593183333333, "lat": 38.963969, "type": "electric_scooter", "fusion_lon": 0.0, "is_reserved": 0, "bike_id": "19ce1327ddc6723c00ce79235bd4f471", "fusion_lat": 0.0, "is_disabled": 0, "rental_uris": {"ios": "https://dc.lft.to/lastmile_qr_scan", "android": "https://dc.lft.to/lastmile_qr_scan"}}, {"name": "064fa7b7907ecc9018f132677fc51ce9", "lon": -77.0370735, "lat": 38.92033266666667, "type": "electric_bike", "fusion_lon": 0.0, "is_reserved": 0, "bike_id": "064fa7b7907ecc9018f132677fc51ce9", "fusion_lat": 0.0, "is_disabled": 0, "rental_uris": {"ios": "https://dc.lft.to/lastmile_qr_scan", "android": "https://dc.lft.to/lastmile_qr_scan"}}, {"name": "7f7309b5039c31f0812c5bfd4ef9af53", "lon": -76.99872533333334, "lat": 38.90055066666667, "type": "electric_scooter", "fusion_lon": 0.0, "is_reserved": 0, "bike_id": "7f7309b5039c31f0812c5bfd4ef9af53", "fusion_lat": 0.0, "is_disabled": 0, "rental_uris": {"ios": "https://dc.lft.to/lastmile_qr_scan", "android": "https://dc.lft.to/lastmile_qr_scan"}}, {"name": "2f33193d5fa0e35c0b57f69c310460eb", "lon": -77.0160845, "lat": 38.899645, "type": "electric_scooter", "fusion_lon": 0.0, "is_reserved": 0, "bike_id": "2f33193d5fa0e35c0b57f69c310460eb", "fusion_lat": 0.0, "is_disabled": 0, "rental_uris": {"ios": "https://dc.lft.to/lastmile_qr_scan", "android": "https://dc.lft.to/lastmile_qr_scan"}}, {"name": "ebdd3324d753448771b7a304c389980d", "lon": -77.0607465, "lat": 38.8858585, "type": "electric_bike", "fusion_lon": 0.0, "is_reserved": 0, "bike_id": "ebdd3324d753448771b7a304c389980d", "fusion_lat": 0.0, "is_disabled": 0, "rental_uris": {"ios": "https://dc.lft.to/lastmile_qr_scan", "android": "https://dc.lft.to/lastmile_qr_scan"}}, {"name": "6c52336f9c5c54fb4dda22e49b7afbdf", "lon": -77.02549433333333, "lat": 38.94224916666667, "type": "electric_scooter", "fusion_lon": 0.0, "is_reserved": 0, "bike_id": "6c52336f9c5c54fb4dda22e49b7afbdf", "fusion_lat": 0.0, "is_disabled": 0, "rental_uris": {"ios": "https://dc.lft.to/lastmile_qr_scan", "android": "https://dc.lft.to/lastmile_qr_scan"}}, {"name": "1bec4426f49793fb04dfb524385e720e", "lon": -77.04305583333333, "lat": 38.9232715, "type": "electric_scooter", "fusion_lon": 0.0, "is_reserved": 0, "bike_id": "1bec4426f49793fb04dfb524385e720e", "fusion_lat": 0.0, "is_disabled": 0, "rental_uris": {"ios": "https://dc.lft.to/lastmile_qr_scan", "android": "https://dc.lft.to/lastmile_qr_scan"}}, {"name": "2fb9a1f9fd1ee66cb06886b1c80493f7", "lon": -77.130991, "lat": 39.02437333333334, "type": "electric_bike", "fusion_lon": 0.0, "is_reserved": 0, "bike_id": "2fb9a1f9fd1ee66cb06886b1c80493f7", "fusion_lat": 0.0, "is_disabled": 0, "rental_uris": {"ios": "https://dc.lft.to/lastmile_qr_scan", "android": "https://dc.lft.to/lastmile_qr_scan"}}, {"name": "19e1224c1781c515a9253ebf34b50a9b", "lon": -77.02754033333333, "lat": 38.951690166666666, "type": "electric_scooter", "fusion_lon": 0.0, "is_reserved": 0, "bike_id": "19e1224c1781c515a9253ebf34b50a9b", "fusion_lat": 0.0, "is_disabled": 0, "rental_uris": {"ios": "https://dc.lft.to/lastmile_qr_scan", "android": "https://dc.lft.to/lastmile_qr_scan"}}, {"name": "b9fd63124c5f409cef82d2eca6eb6dc2", "lon": -77.04192566666667, "lat": 38.92022333333333, "type": "electric_scooter", "fusion_lon": 0.0, "is_reserved": 0, "bike_id": "b9fd63124c5f409cef82d2eca6eb6dc2", "fusion_lat": 0.0, "is_disabled": 0, "rental_uris": {"ios": "https://dc.lft.to/lastmile_qr_scan", "android": "https://dc.lft.to/lastmile_qr_scan"}}, {"name": "5250bfd97da839f7ab8316cab4a91f2b", "lon": -77.02736816666666, "lat": 38.9285405, "type": "electric_scooter", "fusion_lon": 0.0, "is_reserved": 0, "bike_id": "5250bfd97da839f7ab8316cab4a91f2b", "fusion_lat": 0.0, "is_disabled": 0, "rental_uris": {"ios": "https://dc.lft.to/lastmile_qr_scan", "android": "https://dc.lft.to/lastmile_qr_scan"}}, {"name": "ee6ccd9adff9d7394afa8c320e3a8068", "lon": -77.00092433333333, "lat": 38.92030883333334, "type": "electric_scooter", "fusion_lon": 0.0, "is_reserved": 0, "bike_id": "ee6ccd9adff9d7394afa8c320e3a8068", "fusion_lat": 0.0, "is_disabled": 0, "rental_uris": {"ios": "https://dc.lft.to/lastmile_qr_scan", "android": "https://dc.lft.to/lastmile_qr_scan"}}, {"name": "26eccdf159b346ca57aa40eeef487ec2", "lon": -77.00884833333333, "lat": 38.87664483333333, "type": "electric_scooter", "fusion_lon": 0.0, "is_reserved": 0, "bike_id": "26eccdf159b346ca57aa40eeef487ec2", "fusion_lat": 0.0, "is_disabled": 0, "rental_uris": {"ios": "https://dc.lft.to/lastmile_qr_scan", "android": "https://dc.lft.to/lastmile_qr_scan"}}, {"name": "a703ebf55b6560ea7822e12c6bacbf74", "lon": -77.03609066666667, "lat": 38.928621666666665, "type": "electric_scooter", "fusion_lon": 0.0, "is_reserved": 0, "bike_id": "a703ebf55b6560ea7822e12c6bacbf74", "fusion_lat": 0.0, "is_disabled": 0, "rental_uris": {"ios": "https://dc.lft.to/lastmile_qr_scan", "android": "https://dc.lft.to/lastmile_qr_scan"}}, {"name": "89ca01b4e7bca549d14bc1f8ed54839c", "lon": -77.03543433333333, "lat": 38.92325966666667, "type": "electric_scooter", "fusion_lon": 0.0, "is_reserved": 0, "bike_id": "89ca01b4e7bca549d14bc1f8ed54839c", "fusion_lat": 0.0, "is_disabled": 0, "rental_uris": {"ios": "https://dc.lft.to/lastmile_qr_scan", "android": "https://dc.lft.to/lastmile_qr_scan"}}, {"name": "47d5d92ab5eda8b59e481e5126397a3e", "lon": -77.02320366666666, "lat": 38.9409305, "type": "electric_scooter", "fusion_lon": 0.0, "is_reserved": 0, "bike_id": "47d5d92ab5eda8b59e481e5126397a3e", "fusion_lat": 0.0, "is_disabled": 0, "rental_uris": {"ios": "https://dc.lft.to/lastmile_qr_scan", "android": "https://dc.lft.to/lastmile_qr_scan"}}, {"name": "ff116f856e54734a37d9e4068839bcde", "lon": -77.107214, "lat": 38.85549266666666, "type": "electric_bike", "fusion_lon": 0.0, "is_reserved": 0, "bike_id": "ff116f856e54734a37d9e4068839bcde", "fusion_lat": 0.0, "is_disabled": 0, "rental_uris": {"ios": "https://dc.lft.to/lastmile_qr_scan", "android": "https://dc.lft.to/lastmile_qr_scan"}}, {"name": "8706628e3d9ed93cca3c8c7122a5234e", "lon": -77.0279525, "lat": 38.9308065, "type": "electric_scooter", "fusion_lon": 0.0, "is_reserved": 0, "bike_id": "8706628e3d9ed93cca3c8c7122a5234e", "fusion_lat": 0.0, "is_disabled": 0, "rental_uris": {"ios": "https://dc.lft.to/lastmile_qr_scan", "android": "https://dc.lft.to/lastmile_qr_scan"}}, {"name": "da6f10d11430daed44a55901883dbdd1", "lon": -76.98988816666666, "lat": 38.864913333333334, "type": "electric_scooter", "fusion_lon": 0.0, "is_reserved": 0, "bike_id": "da6f10d11430daed44a55901883dbdd1", "fusion_lat": 0.0, "is_disabled": 0, "rental_uris": {"ios": "https://dc.lft.to/lastmile_qr_scan", "android": "https://dc.lft.to/lastmile_qr_scan"}}, {"name": "61c89017a6ad3ec60ad002800d24ef2c", "lon": -77.007717, "lat": 38.92674, "type": "electric_scooter", "fusion_lon": 0.0, "is_reserved": 0, "bike_id": "61c89017a6ad3ec60ad002800d24ef2c", "fusion_lat": 0.0, "is_disabled": 0, "rental_uris": {"ios": "https://dc.lft.to/lastmile_qr_scan", "android": "https://dc.lft.to/lastmile_qr_scan"}}, {"name": "4b486c5c28c7ebf8c888afc382419e64", "lon": -77.021636, "lat": 38.897272, "type": "electric_scooter", "fusion_lon": 0.0, "is_reserved": 0, "bike_id": "4b486c5c28c7ebf8c888afc382419e64", "fusion_lat": 0.0, "is_disabled": 0, "rental_uris": {"ios": "https://dc.lft.to/lastmile_qr_scan", "android": "https://dc.lft.to/lastmile_qr_scan"}}, {"name": "d6205f31011927db9f9ecdbf58bc1c10", "lon": -77.02297716666666, "lat": 38.91673733333333, "type": "electric_scooter", "fusion_lon": 0.0, "is_reserved": 0, "bike_id": "d6205f31011927db9f9ecdbf58bc1c10", "fusion_lat": 0.0, "is_disabled": 0, "rental_uris": {"ios": "https://dc.lft.to/lastmile_qr_scan", "android": "https://dc.lft.to/lastmile_qr_scan"}}, {"name": "f331c00524444d43bff5a6cf7e4820f2", "lon": -77.02980866666667, "lat": 38.90727666666667, "type": "electric_scooter", "fusion_lon": 0.0, "is_reserved": 0, "bike_id": "f331c00524444d43bff5a6cf7e4820f2", "fusion_lat": 0.0, "is_disabled": 0, "rental_uris": {"ios": "https://dc.lft.to/lastmile_qr_scan", "android": "https://dc.lft.to/lastmile_qr_scan"}}, {"name": "f30ff22c310e390881636542992d4f78", "lon": -76.98360616666666, "lat": 38.914931, "type": "electric_scooter", "fusion_lon": 0.0, "is_reserved": 0, "bike_id": "f30ff22c310e390881636542992d4f78", "fusion_lat": 0.0, "is_disabled": 0, "rental_uris": {"ios": "https://dc.lft.to/lastmile_qr_scan", "android": "https://dc.lft.to/lastmile_qr_scan"}}, {"name": "8c9fc10dacee50baf6da58b28e377721", "lon": -77.05511883333334, "lat": 38.8996905, "type": "electric_scooter", "fusion_lon": 0.0, "is_reserved": 0, "bike_id": "8c9fc10dacee50baf6da58b28e377721", "fusion_lat": 0.0, "is_disabled": 0, "rental_uris": {"ios": "https://dc.lft.to/lastmile_qr_scan", "android": "https://dc.lft.to/lastmile_qr_scan"}}, {"name": "c50541c01d51892eb7e7a3dd14388f0e", "lon": -77.02723783333333, "lat": 38.898736166666666, "type": "electric_scooter", "fusion_lon": 0.0, "is_reserved": 0, "bike_id": "c50541c01d51892eb7e7a3dd14388f0e", "fusion_lat": 0.0, "is_disabled": 0, "rental_uris": {"ios": "https://dc.lft.to/lastmile_qr_scan", "android": "https://dc.lft.to/lastmile_qr_scan"}}, {"name": "9ca8d76a8fc416699a11fcbfc9b1a294", "lon": -77.029811, "lat": 38.9220085, "type": "electric_scooter", "fusion_lon": 0.0, "is_reserved": 0, "bike_id": "9ca8d76a8fc416699a11fcbfc9b1a294", "fusion_lat": 0.0, "is_disabled": 0, "rental_uris": {"ios": "https://dc.lft.to/lastmile_qr_scan", "android": "https://dc.lft.to/lastmile_qr_scan"}}, {"name": "72d11ee0a2fd1144d498ceb39f87223b", "lon": -77.00202983333334, "lat": 38.89543283333333, "type": "electric_scooter", "fusion_lon": 0.0, "is_reserved": 0, "bike_id": "72d11ee0a2fd1144d498ceb39f87223b", "fusion_lat": 0.0, "is_disabled": 0, "rental_uris": {"ios": "https://dc.lft.to/lastmile_qr_scan", "android": "https://dc.lft.to/lastmile_qr_scan"}}, {"name": "887dd45d708dbfc58f35f0e27e6f9899", "lon": -77.05858933333333, "lat": 38.93609216666667, "type": "electric_scooter", "fusion_lon": 0.0, "is_reserved": 0, "bike_id": "887dd45d708dbfc58f35f0e27e6f9899", "fusion_lat": 0.0, "is_disabled": 0, "rental_uris": {"ios": "https://dc.lft.to/lastmile_qr_scan", "android": "https://dc.lft.to/lastmile_qr_scan"}}, {"name": "5d38aba19bf175993e7fc2c33614b016", "lon": -77.027114, "lat": 38.916713, "type": "electric_scooter", "fusion_lon": 0.0, "is_reserved": 0, "bike_id": "5d38aba19bf175993e7fc2c33614b016", "fusion_lat": 0.0, "is_disabled": 0, "rental_uris": {"ios": "https://dc.lft.to/lastmile_qr_scan", "android": "https://dc.lft.to/lastmile_qr_scan"}}, {"name": "1f8968817ed4e45340334943d0013cba", "lon": -76.98692433333333, "lat": 38.862559166666664, "type": "electric_scooter", "fusion_lon": 0.0, "is_reserved": 0, "bike_id": "1f8968817ed4e45340334943d0013cba", "fusion_lat": 0.0, "is_disabled": 0, "rental_uris": {"ios": "https://dc.lft.to/lastmile_qr_scan", "android": "https://dc.lft.to/lastmile_qr_scan"}}, {"name": "143e4d66205e3f6b6af9113d3c82581a", "lon": -76.99365666666667, "lat": 38.92841416666667, "type": "electric_scooter", "fusion_lon": 0.0, "is_reserved": 0, "bike_id": "143e4d66205e3f6b6af9113d3c82581a", "fusion_lat": 0.0, "is_disabled": 0, "rental_uris": {"ios": "https://dc.lft.to/lastmile_qr_scan", "android": "https://dc.lft.to/lastmile_qr_scan"}}, {"name": "ab8394d353136c0bd455d17cdfb0faed", "lon": -77.03450216666667, "lat": 38.92144866666667, "type": "electric_scooter", "fusion_lon": 0.0, "is_reserved": 0, "bike_id": "ab8394d353136c0bd455d17cdfb0faed", "fusion_lat": 0.0, "is_disabled": 0, "rental_uris": {"ios": "https://dc.lft.to/lastmile_qr_scan", "android": "https://dc.lft.to/lastmile_qr_scan"}}, {"name": "9f69bef9ed1aee58bba1a9e63a3886f8", "lon": -77.03836216666667, "lat": 38.907214333333336, "type": "electric_scooter", "fusion_lon": 0.0, "is_reserved": 0, "bike_id": "9f69bef9ed1aee58bba1a9e63a3886f8", "fusion_lat": 0.0, "is_disabled": 0, "rental_uris": {"ios": "https://dc.lft.to/lastmile_qr_scan", "android": "https://dc.lft.to/lastmile_qr_scan"}}, {"name": "92d9770baa8cd82862bae4d66d0854db", "lon": -77.0345735, "lat": 38.908153, "type": "electric_scooter", "fusion_lon": 0.0, "is_reserved": 0, "bike_id": "92d9770baa8cd82862bae4d66d0854db", "fusion_lat": 0.0, "is_disabled": 0, "rental_uris": {"ios": "https://dc.lft.to/lastmile_qr_scan", "android": "https://dc.lft.to/lastmile_qr_scan"}}, {"name": "ea47cd0ab5380604b4e9227fb73cfa28", "lon": -77.04331983333333, "lat": 38.89225833333333, "type": "electric_scooter", "fusion_lon": 0.0, "is_reserved": 0, "bike_id": "ea47cd0ab5380604b4e9227fb73cfa28", "fusion_lat": 0.0, "is_disabled": 0, "rental_uris": {"ios": "https://dc.lft.to/lastmile_qr_scan", "android": "https://dc.lft.to/lastmile_qr_scan"}}, {"name": "576543f627fe051d47df8b5e7135e723", "lon": -77.02693233333333, "lat": 38.9097465, "type": "electric_scooter", "fusion_lon": 0.0, "is_reserved": 0, "bike_id": "576543f627fe051d47df8b5e7135e723", "fusion_lat": 0.0, "is_disabled": 0, "rental_uris": {"ios": "https://dc.lft.to/lastmile_qr_scan", "android": "https://dc.lft.to/lastmile_qr_scan"}}, {"name": "374d768f29800a76b5ebc792a2d18763", "lon": -77.03320033333334, "lat": 38.913247, "type": "electric_scooter", "fusion_lon": 0.0, "is_reserved": 0, "bike_id": "374d768f29800a76b5ebc792a2d18763", "fusion_lat": 0.0, "is_disabled": 0, "rental_uris": {"ios": "https://dc.lft.to/lastmile_qr_scan", "android": "https://dc.lft.to/lastmile_qr_scan"}}, {"name": "5d5fe43fe1c9e36ad2fb1610d2d3a6bd", "lon": -76.99903366666666, "lat": 38.94687916666667, "type": "electric_scooter", "fusion_lon": 0.0, "is_reserved": 0, "bike_id": "5d5fe43fe1c9e36ad2fb1610d2d3a6bd", "fusion_lat": 0.0, "is_disabled": 0, "rental_uris": {"ios": "https://dc.lft.to/lastmile_qr_scan", "android": "https://dc.lft.to/lastmile_qr_scan"}}, {"name": "34eac42d6aedb67be46f233a96da7341", "lon": -76.99510316666667, "lat": 38.879163, "type": "electric_scooter", "fusion_lon": 0.0, "is_reserved": 0, "bike_id": "34eac42d6aedb67be46f233a96da7341", "fusion_lat": 0.0, "is_disabled": 0, "rental_uris": {"ios": "https://dc.lft.to/lastmile_qr_scan", "android": "https://dc.lft.to/lastmile_qr_scan"}}, {"name": "b3a422330ad51103a200da9b815a6642", "lon": -76.99510533333333, "lat": 38.8625395, "type": "electric_scooter", "fusion_lon": 0.0, "is_reserved": 0, "bike_id": "b3a422330ad51103a200da9b815a6642", "fusion_lat": 0.0, "is_disabled": 0, "rental_uris": {"ios": "https://dc.lft.to/lastmile_qr_scan", "android": "https://dc.lft.to/lastmile_qr_scan"}}, {"name": "d6c72b2c7c151a675819b4781924e516", "lon": -77.028443, "lat": 38.908616, "type": "electric_scooter", "fusion_lon": 0.0, "is_reserved": 0, "bike_id": "d6c72b2c7c151a675819b4781924e516", "fusion_lat": 0.0, "is_disabled": 0, "rental_uris": {"ios": "https://dc.lft.to/lastmile_qr_scan", "android": "https://dc.lft.to/lastmile_qr_scan"}}, {"name": "4cf779dd5a6208d6954837bb6c3202dc", "lon": -77.04432083333333, "lat": 38.92184, "type": "electric_scooter", "fusion_lon": 0.0, "is_reserved": 0, "bike_id": "4cf779dd5a6208d6954837bb6c3202dc", "fusion_lat": 0.0, "is_disabled": 0, "rental_uris": {"ios": "https://dc.lft.to/lastmile_qr_scan", "android": "https://dc.lft.to/lastmile_qr_scan"}}, {"name": "712370a928e400065817d5e7cf7dd73d", "lon": -77.02092616666667, "lat": 38.92150683333333, "type": "electric_scooter", "fusion_lon": 0.0, "is_reserved": 0, "bike_id": "712370a928e400065817d5e7cf7dd73d", "fusion_lat": 0.0, "is_disabled": 0, "rental_uris": {"ios": "https://dc.lft.to/lastmile_qr_scan", "android": "https://dc.lft.to/lastmile_qr_scan"}}, {"name": "51f6426240f2374e2a0efe2d0c1a105b", "lon": -76.99065216666666, "lat": 38.8635605, "type": "electric_scooter", "fusion_lon": 0.0, "is_reserved": 0, "bike_id": "51f6426240f2374e2a0efe2d0c1a105b", "fusion_lat": 0.0, "is_disabled": 0, "rental_uris": {"ios": "https://dc.lft.to/lastmile_qr_scan", "android": "https://dc.lft.to/lastmile_qr_scan"}}, {"name": "45948e9230d530b58acb5efe1e18f36d", "lon": -77.023479, "lat": 38.94614983333334, "type": "electric_scooter", "fusion_lon": 0.0, "is_reserved": 0, "bike_id": "45948e9230d530b58acb5efe1e18f36d", "fusion_lat": 0.0, "is_disabled": 0, "rental_uris": {"ios": "https://dc.lft.to/lastmile_qr_scan", "android": "https://dc.lft.to/lastmile_qr_scan"}}, {"name": "5c8dfc7280865133700963552be675a5", "lon": -77.03516266666666, "lat": 38.962042333333336, "type": "electric_bike", "fusion_lon": 0.0, "is_reserved": 0, "bike_id": "5c8dfc7280865133700963552be675a5", "fusion_lat": 0.0, "is_disabled": 0, "rental_uris": {"ios": "https://dc.lft.to/lastmile_qr_scan", "android": "https://dc.lft.to/lastmile_qr_scan"}}, {"name": "e1391c3d15e28c94b92f8a4c299ce8ad", "lon": -77.00742266666667, "lat": 38.89846433333334, "type": "electric_scooter", "fusion_lon": 0.0, "is_reserved": 0, "bike_id": "e1391c3d15e28c94b92f8a4c299ce8ad", "fusion_lat": 0.0, "is_disabled": 0, "rental_uris": {"ios": "https://dc.lft.to/lastmile_qr_scan", "android": "https://dc.lft.to/lastmile_qr_scan"}}, {"name": "212fd7946e4a5d97d56fa2281931da71", "lon": -77.07264433333333, "lat": 38.93472883333333, "type": "electric_scooter", "fusion_lon": 0.0, "is_reserved": 0, "bike_id": "212fd7946e4a5d97d56fa2281931da71", "fusion_lat": 0.0, "is_disabled": 0, "rental_uris": {"ios": "https://dc.lft.to/lastmile_qr_scan", "android": "https://dc.lft.to/lastmile_qr_scan"}}, {"name": "7979ad8e3c55c56d0d58a34b10742f87", "lon": -77.00597866666666, "lat": 38.875423833333336, "type": "electric_scooter", "fusion_lon": 0.0, "is_reserved": 0, "bike_id": "7979ad8e3c55c56d0d58a34b10742f87", "fusion_lat": 0.0, "is_disabled": 0, "rental_uris": {"ios": "https://dc.lft.to/lastmile_qr_scan", "android": "https://dc.lft.to/lastmile_qr_scan"}}, {"name": "a49260b3d8821f556757f627b40a60b7", "lon": -77.01820183333334, "lat": 38.923669, "type": "electric_scooter", "fusion_lon": 0.0, "is_reserved": 0, "bike_id": "a49260b3d8821f556757f627b40a60b7", "fusion_lat": 0.0, "is_disabled": 0, "rental_uris": {"ios": "https://dc.lft.to/lastmile_qr_scan", "android": "https://dc.lft.to/lastmile_qr_scan"}}, {"name": "a5d604f2247946e2fd67f2078f4102cb", "lon": -77.04746, "lat": 38.91648433333334, "type": "electric_scooter", "fusion_lon": 0.0, "is_reserved": 0, "bike_id": "a5d604f2247946e2fd67f2078f4102cb", "fusion_lat": 0.0, "is_disabled": 0, "rental_uris": {"ios": "https://dc.lft.to/lastmile_qr_scan", "android": "https://dc.lft.to/lastmile_qr_scan"}}, {"name": "16042a635f1a24c5c63011cad7552de6", "lon": -77.03622366666667, "lat": 38.928570666666666, "type": "electric_scooter", "fusion_lon": 0.0, "is_reserved": 0, "bike_id": "16042a635f1a24c5c63011cad7552de6", "fusion_lat": 0.0, "is_disabled": 0, "rental_uris": {"ios": "https://dc.lft.to/lastmile_qr_scan", "android": "https://dc.lft.to/lastmile_qr_scan"}}, {"name": "46e4989ea310ae81e12e36b3fbb81297", "lon": -77.03509216666667, "lat": 38.9007895, "type": "electric_scooter", "fusion_lon": 0.0, "is_reserved": 0, "bike_id": "46e4989ea310ae81e12e36b3fbb81297", "fusion_lat": 0.0, "is_disabled": 0, "rental_uris": {"ios": "https://dc.lft.to/lastmile_qr_scan", "android": "https://dc.lft.to/lastmile_qr_scan"}}, {"name": "3fa678bed60f1360acc37936833e366e", "lon": -77.00763116666667, "lat": 38.91028433333334, "type": "electric_scooter", "fusion_lon": 0.0, "is_reserved": 0, "bike_id": "3fa678bed60f1360acc37936833e366e", "fusion_lat": 0.0, "is_disabled": 0, "rental_uris": {"ios": "https://dc.lft.to/lastmile_qr_scan", "android": "https://dc.lft.to/lastmile_qr_scan"}}, {"name": "5101befccb615efb76754563da5a0769", "lon": -77.05863233333334, "lat": 38.93611833333333, "type": "electric_scooter", "fusion_lon": 0.0, "is_reserved": 0, "bike_id": "5101befccb615efb76754563da5a0769", "fusion_lat": 0.0, "is_disabled": 0, "rental_uris": {"ios": "https://dc.lft.to/lastmile_qr_scan", "android": "https://dc.lft.to/lastmile_qr_scan"}}, {"name": "6d477a786346c97eec7d896f5174658e", "lon": -77.04567616666667, "lat": 38.913282333333335, "type": "electric_scooter", "fusion_lon": 0.0, "is_reserved": 0, "bike_id": "6d477a786346c97eec7d896f5174658e", "fusion_lat": 0.0, "is_disabled": 0, "rental_uris": {"ios": "https://dc.lft.to/lastmile_qr_scan", "android": "https://dc.lft.to/lastmile_qr_scan"}}, {"name": "b4b0981d286b7ffccc6ada843d1a9c7a", "lon": -77.0727675, "lat": 38.934817, "type": "electric_scooter", "fusion_lon": 0.0, "is_reserved": 0, "bike_id": "b4b0981d286b7ffccc6ada843d1a9c7a", "fusion_lat": 0.0, "is_disabled": 0, "rental_uris": {"ios": "https://dc.lft.to/lastmile_qr_scan", "android": "https://dc.lft.to/lastmile_qr_scan"}}, {"name": "0c061dc8c8a473911dc1d9966aa0e6a0", "lon": -77.03323883333333, "lat": 38.890129, "type": "electric_scooter", "fusion_lon": 0.0, "is_reserved": 0, "bike_id": "0c061dc8c8a473911dc1d9966aa0e6a0", "fusion_lat": 0.0, "is_disabled": 0, "rental_uris": {"ios": "https://dc.lft.to/lastmile_qr_scan", "android": "https://dc.lft.to/lastmile_qr_scan"}}, {"name": "72e33ca48be1198ba8ee9c44521036d4", "lon": -77.018026, "lat": 38.91417333333333, "type": "electric_scooter", "fusion_lon": 0.0, "is_reserved": 0, "bike_id": "72e33ca48be1198ba8ee9c44521036d4", "fusion_lat": 0.0, "is_disabled": 0, "rental_uris": {"ios": "https://dc.lft.to/lastmile_qr_scan", "android": "https://dc.lft.to/lastmile_qr_scan"}}, {"name": "3064f36d88166ea291c2a0a3876ecb23", "lon": -77.0409175, "lat": 38.90370466666667, "type": "electric_bike", "fusion_lon": 0.0, "is_reserved": 0, "bike_id": "3064f36d88166ea291c2a0a3876ecb23", "fusion_lat": 0.0, "is_disabled": 0, "rental_uris": {"ios": "https://dc.lft.to/lastmile_qr_scan", "android": "https://dc.lft.to/lastmile_qr_scan"}}, {"name": "4ffea1f10c645074675b6ef363504743", "lon": -77.02397883333333, "lat": 38.9174775, "type": "electric_scooter", "fusion_lon": 0.0, "is_reserved": 0, "bike_id": "4ffea1f10c645074675b6ef363504743", "fusion_lat": 0.0, "is_disabled": 0, "rental_uris": {"ios": "https://dc.lft.to/lastmile_qr_scan", "android": "https://dc.lft.to/lastmile_qr_scan"}}, {"name": "2d58c845cf4e85d304c25814ff357e4f", "lon": -77.04190033333333, "lat": 38.9199285, "type": "electric_scooter", "fusion_lon": 0.0, "is_reserved": 0, "bike_id": "2d58c845cf4e85d304c25814ff357e4f", "fusion_lat": 0.0, "is_disabled": 0, "rental_uris": {"ios": "https://dc.lft.to/lastmile_qr_scan", "android": "https://dc.lft.to/lastmile_qr_scan"}}, {"name": "5aa4e964346347f77f3e86774cba7186", "lon": -76.990335, "lat": 38.898530666666666, "type": "electric_scooter", "fusion_lon": 0.0, "is_reserved": 0, "bike_id": "5aa4e964346347f77f3e86774cba7186", "fusion_lat": 0.0, "is_disabled": 0, "rental_uris": {"ios": "https://dc.lft.to/lastmile_qr_scan", "android": "https://dc.lft.to/lastmile_qr_scan"}}, {"name": "30a6abd262bdf37426e526b97f6d73a2", "lon": -77.04304566666667, "lat": 38.9233635, "type": "electric_scooter", "fusion_lon": 0.0, "is_reserved": 0, "bike_id": "30a6abd262bdf37426e526b97f6d73a2", "fusion_lat": 0.0, "is_disabled": 0, "rental_uris": {"ios": "https://dc.lft.to/lastmile_qr_scan", "android": "https://dc.lft.to/lastmile_qr_scan"}}, {"name": "ce7065a84b3b3bfba7f1d1d6fea06c21", "lon": -77.0431565, "lat": 38.9030995, "type": "electric_scooter", "fusion_lon": 0.0, "is_reserved": 0, "bike_id": "ce7065a84b3b3bfba7f1d1d6fea06c21", "fusion_lat": 0.0, "is_disabled": 0, "rental_uris": {"ios": "https://dc.lft.to/lastmile_qr_scan", "android": "https://dc.lft.to/lastmile_qr_scan"}}, {"name": "aeb2af632f6590934a3de46c738e24ad", "lon": -77.03892816666666, "lat": 38.9225965, "type": "electric_scooter", "fusion_lon": 0.0, "is_reserved": 0, "bike_id": "aeb2af632f6590934a3de46c738e24ad", "fusion_lat": 0.0, "is_disabled": 0, "rental_uris": {"ios": "https://dc.lft.to/lastmile_qr_scan", "android": "https://dc.lft.to/lastmile_qr_scan"}}, {"name": "3de2c55b293d92dc864f038a63aeb20c", "lon": -76.972396, "lat": 38.949062, "type": "electric_bike", "fusion_lon": 0.0, "is_reserved": 0, "bike_id": "3de2c55b293d92dc864f038a63aeb20c", "fusion_lat": 0.0, "is_disabled": 0, "rental_uris": {"ios": "https://dc.lft.to/lastmile_qr_scan", "android": "https://dc.lft.to/lastmile_qr_scan"}}, {"name": "a0ad53418f33bda36a8c82496ae9ff0b", "lon": -77.02207466666667, "lat": 38.886463666666664, "type": "electric_scooter", "fusion_lon": 0.0, "is_reserved": 0, "bike_id": "a0ad53418f33bda36a8c82496ae9ff0b", "fusion_lat": 0.0, "is_disabled": 0, "rental_uris": {"ios": "https://dc.lft.to/lastmile_qr_scan", "android": "https://dc.lft.to/lastmile_qr_scan"}}, {"name": "ad948405f14cf5ecb4d0307a5f2a7cfa", "lon": -77.03701766666667, "lat": 38.92033766666667, "type": "electric_bike", "fusion_lon": 0.0, "is_reserved": 0, "bike_id": "ad948405f14cf5ecb4d0307a5f2a7cfa", "fusion_lat": 0.0, "is_disabled": 0, "rental_uris": {"ios": "https://dc.lft.to/lastmile_qr_scan", "android": "https://dc.lft.to/lastmile_qr_scan"}}, {"name": "b0ee3e5cbd4313ecaa66aade4da759ee", "lon": -77.085896, "lat": 38.844397666666666, "type": "electric_bike", "fusion_lon": 0.0, "is_reserved": 0, "bike_id": "b0ee3e5cbd4313ecaa66aade4da759ee", "fusion_lat": 0.0, "is_disabled": 0, "rental_uris": {"ios": "https://dc.lft.to/lastmile_qr_scan", "android": "https://dc.lft.to/lastmile_qr_scan"}}, {"name": "54e786029c9d3cf1ab2dfcc8c9b6392f", "lon": -77.03860983333334, "lat": 38.90274516666667, "type": "electric_scooter", "fusion_lon": 0.0, "is_reserved": 0, "bike_id": "54e786029c9d3cf1ab2dfcc8c9b6392f", "fusion_lat": 0.0, "is_disabled": 0, "rental_uris": {"ios": "https://dc.lft.to/lastmile_qr_scan", "android": "https://dc.lft.to/lastmile_qr_scan"}}, {"name": "5345200d9c465b772f34914fb944739a", "lon": -76.99331633333334, "lat": 38.92444166666667, "type": "electric_scooter", "fusion_lon": 0.0, "is_reserved": 0, "bike_id": "5345200d9c465b772f34914fb944739a", "fusion_lat": 0.0, "is_disabled": 0, "rental_uris": {"ios": "https://dc.lft.to/lastmile_qr_scan", "android": "https://dc.lft.to/lastmile_qr_scan"}}, {"name": "1c94f81a1c73b6f5e162f7d5448f25c0", "lon": -76.98481166666667, "lat": 38.9151935, "type": "electric_scooter", "fusion_lon": 0.0, "is_reserved": 0, "bike_id": "1c94f81a1c73b6f5e162f7d5448f25c0", "fusion_lat": 0.0, "is_disabled": 0, "rental_uris": {"ios": "https://dc.lft.to/lastmile_qr_scan", "android": "https://dc.lft.to/lastmile_qr_scan"}}, {"name": "4dd74359003f107b87b0e4fb27b65615", "lon": -77.05743433333333, "lat": 38.93389766666667, "type": "electric_scooter", "fusion_lon": 0.0, "is_reserved": 0, "bike_id": "4dd74359003f107b87b0e4fb27b65615", "fusion_lat": 0.0, "is_disabled": 0, "rental_uris": {"ios": "https://dc.lft.to/lastmile_qr_scan", "android": "https://dc.lft.to/lastmile_qr_scan"}}, {"name": "57f461cdfbe027be8c259aedad6f2331", "lon": -77.01758783333334, "lat": 38.87684083333333, "type": "electric_scooter", "fusion_lon": 0.0, "is_reserved": 0, "bike_id": "57f461cdfbe027be8c259aedad6f2331", "fusion_lat": 0.0, "is_disabled": 0, "rental_uris": {"ios": "https://dc.lft.to/lastmile_qr_scan", "android": "https://dc.lft.to/lastmile_qr_scan"}}, {"name": "58b21cea551c209be1675c123569ea65", "lon": -76.97353683333333, "lat": 38.8495945, "type": "electric_scooter", "fusion_lon": 0.0, "is_reserved": 0, "bike_id": "58b21cea551c209be1675c123569ea65", "fusion_lat": 0.0, "is_disabled": 0, "rental_uris": {"ios": "https://dc.lft.to/lastmile_qr_scan", "android": "https://dc.lft.to/lastmile_qr_scan"}}, {"name": "7ffab4173f5fa57ed274fed1f75e32a4", "lon": -77.046468, "lat": 39.0549605, "type": "electric_bike", "fusion_lon": 0.0, "is_reserved": 0, "bike_id": "7ffab4173f5fa57ed274fed1f75e32a4", "fusion_lat": 0.0, "is_disabled": 0, "rental_uris": {"ios": "https://dc.lft.to/lastmile_qr_scan", "android": "https://dc.lft.to/lastmile_qr_scan"}}, {"name": "c451cd0183c604719745b5125cc2fa3c", "lon": -77.04728983333334, "lat": 38.91342, "type": "electric_scooter", "fusion_lon": 0.0, "is_reserved": 0, "bike_id": "c451cd0183c604719745b5125cc2fa3c", "fusion_lat": 0.0, "is_disabled": 0, "rental_uris": {"ios": "https://dc.lft.to/lastmile_qr_scan", "android": "https://dc.lft.to/lastmile_qr_scan"}}, {"name": "75c00bd1d3461cc887e3172510f14c6d", "lon": -76.9566045, "lat": 38.896081, "type": "electric_scooter", "fusion_lon": 0.0, "is_reserved": 0, "bike_id": "75c00bd1d3461cc887e3172510f14c6d", "fusion_lat": 0.0, "is_disabled": 0, "rental_uris": {"ios": "https://dc.lft.to/lastmile_qr_scan", "android": "https://dc.lft.to/lastmile_qr_scan"}}, {"name": "bce530c83576b3dde2c1a1876073957a", "lon": -77.0169435, "lat": 38.97498916666667, "type": "electric_scooter", "fusion_lon": 0.0, "is_reserved": 0, "bike_id": "bce530c83576b3dde2c1a1876073957a", "fusion_lat": 0.0, "is_disabled": 0, "rental_uris": {"ios": "https://dc.lft.to/lastmile_qr_scan", "android": "https://dc.lft.to/lastmile_qr_scan"}}, {"name": "747bd3b5b17f700c03d36082969be768", "lon": -77.0288585, "lat": 38.998785166666664, "type": "electric_bike", "fusion_lon": 0.0, "is_reserved": 0, "bike_id": "747bd3b5b17f700c03d36082969be768", "fusion_lat": 0.0, "is_disabled": 0, "rental_uris": {"ios": "https://dc.lft.to/lastmile_qr_scan", "android": "https://dc.lft.to/lastmile_qr_scan"}}, {"name": "e0e4c7dabd3011a1e4bc38256efa0f0e", "lon": -77.04663166666667, "lat": 38.90387783333333, "type": "electric_scooter", "fusion_lon": 0.0, "is_reserved": 0, "bike_id": "e0e4c7dabd3011a1e4bc38256efa0f0e", "fusion_lat": 0.0, "is_disabled": 0, "rental_uris": {"ios": "https://dc.lft.to/lastmile_qr_scan", "android": "https://dc.lft.to/lastmile_qr_scan"}}, {"name": "e349c2756098d00405c981de4dd2a0f6", "lon": -76.968364, "lat": 38.94321766666667, "type": "electric_bike", "fusion_lon": 0.0, "is_reserved": 0, "bike_id": "e349c2756098d00405c981de4dd2a0f6", "fusion_lat": 0.0, "is_disabled": 0, "rental_uris": {"ios": "https://dc.lft.to/lastmile_qr_scan", "android": "https://dc.lft.to/lastmile_qr_scan"}}, {"name": "1d7a116bc52d8ae3b17709f2651115ba", "lon": -77.00550133333333, "lat": 38.876649, "type": "electric_scooter", "fusion_lon": 0.0, "is_reserved": 0, "bike_id": "1d7a116bc52d8ae3b17709f2651115ba", "fusion_lat": 0.0, "is_disabled": 0, "rental_uris": {"ios": "https://dc.lft.to/lastmile_qr_scan", "android": "https://dc.lft.to/lastmile_qr_scan"}}, {"name": "bcdd42b5fcfd7b099c23248b574ee1bf", "lon": -77.03910766666667, "lat": 38.9183065, "type": "electric_scooter", "fusion_lon": 0.0, "is_reserved": 0, "bike_id": "bcdd42b5fcfd7b099c23248b574ee1bf", "fusion_lat": 0.0, "is_disabled": 0, "rental_uris": {"ios": "https://dc.lft.to/lastmile_qr_scan", "android": "https://dc.lft.to/lastmile_qr_scan"}}, {"name": "2ae5e5d10e564280309500ee3a5d0c7e", "lon": -77.02000283333334, "lat": 38.886014833333334, "type": "electric_scooter", "fusion_lon": 0.0, "is_reserved": 0, "bike_id": "2ae5e5d10e564280309500ee3a5d0c7e", "fusion_lat": 0.0, "is_disabled": 0, "rental_uris": {"ios": "https://dc.lft.to/lastmile_qr_scan", "android": "https://dc.lft.to/lastmile_qr_scan"}}, {"name": "3199bf1e621005f69a55187fefc29406", "lon": -76.9835495, "lat": 38.91544416666667, "type": "electric_scooter", "fusion_lon": 0.0, "is_reserved": 0, "bike_id": "3199bf1e621005f69a55187fefc29406", "fusion_lat": 0.0, "is_disabled": 0, "rental_uris": {"ios": "https://dc.lft.to/lastmile_qr_scan", "android": "https://dc.lft.to/lastmile_qr_scan"}}, {"name": "c4eed4051fc192149c2207f64dc3d00f", "lon": -77.03137933333333, "lat": 38.919278, "type": "electric_scooter", "fusion_lon": 0.0, "is_reserved": 0, "bike_id": "c4eed4051fc192149c2207f64dc3d00f", "fusion_lat": 0.0, "is_disabled": 0, "rental_uris": {"ios": "https://dc.lft.to/lastmile_qr_scan", "android": "https://dc.lft.to/lastmile_qr_scan"}}, {"name": "943831faca9b5790c11a4cf354a24a29", "lon": -77.0373795, "lat": 38.92691716666667, "type": "electric_scooter", "fusion_lon": 0.0, "is_reserved": 0, "bike_id": "943831faca9b5790c11a4cf354a24a29", "fusion_lat": 0.0, "is_disabled": 0, "rental_uris": {"ios": "https://dc.lft.to/lastmile_qr_scan", "android": "https://dc.lft.to/lastmile_qr_scan"}}, {"name": "293802f31fb8a78e49ee863c74e61b70", "lon": -77.03964866666666, "lat": 38.930712, "type": "electric_scooter", "fusion_lon": 0.0, "is_reserved": 0, "bike_id": "293802f31fb8a78e49ee863c74e61b70", "fusion_lat": 0.0, "is_disabled": 0, "rental_uris": {"ios": "https://dc.lft.to/lastmile_qr_scan", "android": "https://dc.lft.to/lastmile_qr_scan"}}, {"name": "ec39faefe1bf3d34d7ab9493d4f13ee7", "lon": -76.9965255, "lat": 38.98831466666667, "type": "electric_bike", "fusion_lon": 0.0, "is_reserved": 0, "bike_id": "ec39faefe1bf3d34d7ab9493d4f13ee7", "fusion_lat": 0.0, "is_disabled": 0, "rental_uris": {"ios": "https://dc.lft.to/lastmile_qr_scan", "android": "https://dc.lft.to/lastmile_qr_scan"}}, {"name": "931b743a288c13a1238c641b57f99e1a", "lon": -77.03288416666666, "lat": 38.92880866666667, "type": "electric_scooter", "fusion_lon": 0.0, "is_reserved": 0, "bike_id": "931b743a288c13a1238c641b57f99e1a", "fusion_lat": 0.0, "is_disabled": 0, "rental_uris": {"ios": "https://dc.lft.to/lastmile_qr_scan", "android": "https://dc.lft.to/lastmile_qr_scan"}}, {"name": "2d1afd5c682feaeff5fac13243753f88", "lon": -77.04514083333333, "lat": 38.892228833333334, "type": "electric_scooter", "fusion_lon": 0.0, "is_reserved": 0, "bike_id": "2d1afd5c682feaeff5fac13243753f88", "fusion_lat": 0.0, "is_disabled": 0, "rental_uris": {"ios": "https://dc.lft.to/lastmile_qr_scan", "android": "https://dc.lft.to/lastmile_qr_scan"}}, {"name": "86fd22315369b3d6c80238c3268f2507", "lon": -77.05210066666666, "lat": 38.90357366666667, "type": "electric_scooter", "fusion_lon": 0.0, "is_reserved": 0, "bike_id": "86fd22315369b3d6c80238c3268f2507", "fusion_lat": 0.0, "is_disabled": 0, "rental_uris": {"ios": "https://dc.lft.to/lastmile_qr_scan", "android": "https://dc.lft.to/lastmile_qr_scan"}}, {"name": "5cf4771df434314a97afc079ef0a54d5", "lon": -77.0268475, "lat": 38.912683333333334, "type": "electric_scooter", "fusion_lon": 0.0, "is_reserved": 0, "bike_id": "5cf4771df434314a97afc079ef0a54d5", "fusion_lat": 0.0, "is_disabled": 0, "rental_uris": {"ios": "https://dc.lft.to/lastmile_qr_scan", "android": "https://dc.lft.to/lastmile_qr_scan"}}, {"name": "6618a68d5c98db24b1367cd70cbe4cae", "lon": -77.0319215, "lat": 38.91784766666667, "type": "electric_scooter", "fusion_lon": 0.0, "is_reserved": 0, "bike_id": "6618a68d5c98db24b1367cd70cbe4cae", "fusion_lat": 0.0, "is_disabled": 0, "rental_uris": {"ios": "https://dc.lft.to/lastmile_qr_scan", "android": "https://dc.lft.to/lastmile_qr_scan"}}, {"name": "68bc07e35c86ee7e07c6cfba13cbd6bd", "lon": -77.02986483333333, "lat": 38.92369633333333, "type": "electric_scooter", "fusion_lon": 0.0, "is_reserved": 0, "bike_id": "68bc07e35c86ee7e07c6cfba13cbd6bd", "fusion_lat": 0.0, "is_disabled": 0, "rental_uris": {"ios": "https://dc.lft.to/lastmile_qr_scan", "android": "https://dc.lft.to/lastmile_qr_scan"}}, {"name": "d05cfc47cc06d0b60dcd19652a8121da", "lon": -77.01836633333333, "lat": 38.9420485, "type": "electric_scooter", "fusion_lon": 0.0, "is_reserved": 0, "bike_id": "d05cfc47cc06d0b60dcd19652a8121da", "fusion_lat": 0.0, "is_disabled": 0, "rental_uris": {"ios": "https://dc.lft.to/lastmile_qr_scan", "android": "https://dc.lft.to/lastmile_qr_scan"}}, {"name": "41f7d955e32bfc50c50f47cb51d9fac1", "lon": -76.97185666666667, "lat": 38.916472, "type": "electric_bike", "fusion_lon": 0.0, "is_reserved": 0, "bike_id": "41f7d955e32bfc50c50f47cb51d9fac1", "fusion_lat": 0.0, "is_disabled": 0, "rental_uris": {"ios": "https://dc.lft.to/lastmile_qr_scan", "android": "https://dc.lft.to/lastmile_qr_scan"}}, {"name": "b93f2894126bbb2356d35b5c1c8a9c01", "lon": -77.0280015, "lat": 38.91224416666667, "type": "electric_scooter", "fusion_lon": 0.0, "is_reserved": 0, "bike_id": "b93f2894126bbb2356d35b5c1c8a9c01", "fusion_lat": 0.0, "is_disabled": 0, "rental_uris": {"ios": "https://dc.lft.to/lastmile_qr_scan", "android": "https://dc.lft.to/lastmile_qr_scan"}}, {"name": "c0dbfff606a13723b4e31da7224b3772", "lon": -77.043297, "lat": 38.892264, "type": "electric_scooter", "fusion_lon": 0.0, "is_reserved": 0, "bike_id": "c0dbfff606a13723b4e31da7224b3772", "fusion_lat": 0.0, "is_disabled": 0, "rental_uris": {"ios": "https://dc.lft.to/lastmile_qr_scan", "android": "https://dc.lft.to/lastmile_qr_scan"}}, {"name": "ba4655df9b6c2b5987d4d8bda9b5cd9b", "lon": -76.93750983333334, "lat": 38.890417, "type": "electric_scooter", "fusion_lon": 0.0, "is_reserved": 0, "bike_id": "ba4655df9b6c2b5987d4d8bda9b5cd9b", "fusion_lat": 0.0, "is_disabled": 0, "rental_uris": {"ios": "https://dc.lft.to/lastmile_qr_scan", "android": "https://dc.lft.to/lastmile_qr_scan"}}, {"name": "0ba155d717d609b029c176dfc1524da0", "lon": -76.98508283333334, "lat": 38.853674166666664, "type": "electric_scooter", "fusion_lon": 0.0, "is_reserved": 0, "bike_id": "0ba155d717d609b029c176dfc1524da0", "fusion_lat": 0.0, "is_disabled": 0, "rental_uris": {"ios": "https://dc.lft.to/lastmile_qr_scan", "android": "https://dc.lft.to/lastmile_qr_scan"}}, {"name": "68bed8952fd196b9d7dafdf071f22585", "lon": -77.0325035, "lat": 38.96158833333333, "type": "electric_scooter", "fusion_lon": 0.0, "is_reserved": 0, "bike_id": "68bed8952fd196b9d7dafdf071f22585", "fusion_lat": 0.0, "is_disabled": 0, "rental_uris": {"ios": "https://dc.lft.to/lastmile_qr_scan", "android": "https://dc.lft.to/lastmile_qr_scan"}}, {"name": "6b4de6cd8ae0a93fd631220767166522", "lon": -77.03444316666666, "lat": 38.90806116666667, "type": "electric_scooter", "fusion_lon": 0.0, "is_reserved": 0, "bike_id": "6b4de6cd8ae0a93fd631220767166522", "fusion_lat": 0.0, "is_disabled": 0, "rental_uris": {"ios": "https://dc.lft.to/lastmile_qr_scan", "android": "https://dc.lft.to/lastmile_qr_scan"}}, {"name": "fdcfc67563072e4b992854128cc8c4f6", "lon": -77.04443566666667, "lat": 38.9110165, "type": "electric_scooter", "fusion_lon": 0.0, "is_reserved": 0, "bike_id": "fdcfc67563072e4b992854128cc8c4f6", "fusion_lat": 0.0, "is_disabled": 0, "rental_uris": {"ios": "https://dc.lft.to/lastmile_qr_scan", "android": "https://dc.lft.to/lastmile_qr_scan"}}, {"name": "5d498a0d9162cf7361d32b7d6de8f699", "lon": -77.04165516666667, "lat": 38.9182465, "type": "electric_scooter", "fusion_lon": 0.0, "is_reserved": 0, "bike_id": "5d498a0d9162cf7361d32b7d6de8f699", "fusion_lat": 0.0, "is_disabled": 0, "rental_uris": {"ios": "https://dc.lft.to/lastmile_qr_scan", "android": "https://dc.lft.to/lastmile_qr_scan"}}, {"name": "c5c9355265445a7a22c37b1d833e3405", "lon": -77.043162, "lat": 38.918789, "type": "electric_scooter", "fusion_lon": 0.0, "is_reserved": 0, "bike_id": "c5c9355265445a7a22c37b1d833e3405", "fusion_lat": 0.0, "is_disabled": 0, "rental_uris": {"ios": "https://dc.lft.to/lastmile_qr_scan", "android": "https://dc.lft.to/lastmile_qr_scan"}}, {"name": "0ffebcd95f34253027bc0dc857daf087", "lon": -77.0282445, "lat": 38.904810499999996, "type": "electric_scooter", "fusion_lon": 0.0, "is_reserved": 0, "bike_id": "0ffebcd95f34253027bc0dc857daf087", "fusion_lat": 0.0, "is_disabled": 0, "rental_uris": {"ios": "https://dc.lft.to/lastmile_qr_scan", "android": "https://dc.lft.to/lastmile_qr_scan"}}, {"name": "92699af1edf405bc42421d8d88293ab2", "lon": -77.0433705, "lat": 38.907954833333335, "type": "electric_scooter", "fusion_lon": 0.0, "is_reserved": 0, "bike_id": "92699af1edf405bc42421d8d88293ab2", "fusion_lat": 0.0, "is_disabled": 0, "rental_uris": {"ios": "https://dc.lft.to/lastmile_qr_scan", "android": "https://dc.lft.to/lastmile_qr_scan"}}, {"name": "4d5cfd4c8b2d9ab51e727b2e07b158be", "lon": -77.02169783333333, "lat": 38.883322166666666, "type": "electric_scooter", "fusion_lon": 0.0, "is_reserved": 0, "bike_id": "4d5cfd4c8b2d9ab51e727b2e07b158be", "fusion_lat": 0.0, "is_disabled": 0, "rental_uris": {"ios": "https://dc.lft.to/lastmile_qr_scan", "android": "https://dc.lft.to/lastmile_qr_scan"}}, {"name": "f16424dc3572d72af471dc420757b284", "lon": -77.233203, "lat": 38.87287716666667, "type": "electric_bike", "fusion_lon": 0.0, "is_reserved": 0, "bike_id": "f16424dc3572d72af471dc420757b284", "fusion_lat": 0.0, "is_disabled": 0, "rental_uris": {"ios": "https://dc.lft.to/lastmile_qr_scan", "android": "https://dc.lft.to/lastmile_qr_scan"}}, {"name": "d6c3d7f83da940a5f0088373104786ba", "lon": -77.02301266666667, "lat": 38.91784916666667, "type": "electric_scooter", "fusion_lon": 0.0, "is_reserved": 0, "bike_id": "d6c3d7f83da940a5f0088373104786ba", "fusion_lat": 0.0, "is_disabled": 0, "rental_uris": {"ios": "https://dc.lft.to/lastmile_qr_scan", "android": "https://dc.lft.to/lastmile_qr_scan"}}, {"name": "8a93f1bd3acd65ed0613cc14f6892cae", "lon": -77.02640683333334, "lat": 38.933863333333335, "type": "electric_scooter", "fusion_lon": 0.0, "is_reserved": 0, "bike_id": "8a93f1bd3acd65ed0613cc14f6892cae", "fusion_lat": 0.0, "is_disabled": 0, "rental_uris": {"ios": "https://dc.lft.to/lastmile_qr_scan", "android": "https://dc.lft.to/lastmile_qr_scan"}}, {"name": "2e6bb46ae1d0bc3e61aeb36ebeaf26f2", "lon": -77.0447915, "lat": 38.9242265, "type": "electric_scooter", "fusion_lon": 0.0, "is_reserved": 0, "bike_id": "2e6bb46ae1d0bc3e61aeb36ebeaf26f2", "fusion_lat": 0.0, "is_disabled": 0, "rental_uris": {"ios": "https://dc.lft.to/lastmile_qr_scan", "android": "https://dc.lft.to/lastmile_qr_scan"}}, {"name": "137ab416809ee9c85531a4c4b438441c", "lon": -77.071892, "lat": 38.959493, "type": "electric_scooter", "fusion_lon": 0.0, "is_reserved": 0, "bike_id": "137ab416809ee9c85531a4c4b438441c", "fusion_lat": 0.0, "is_disabled": 0, "rental_uris": {"ios": "https://dc.lft.to/lastmile_qr_scan", "android": "https://dc.lft.to/lastmile_qr_scan"}}, {"name": "144cf000865627b9c38e7873d7c4a444", "lon": -76.9494055, "lat": 38.8950865, "type": "electric_scooter", "fusion_lon": 0.0, "is_reserved": 0, "bike_id": "144cf000865627b9c38e7873d7c4a444", "fusion_lat": 0.0, "is_disabled": 0, "rental_uris": {"ios": "https://dc.lft.to/lastmile_qr_scan", "android": "https://dc.lft.to/lastmile_qr_scan"}}, {"name": "26421f7c9ec9bbd5ebe1724538025c59", "lon": -77.02171616666666, "lat": 38.91913683333333, "type": "electric_scooter", "fusion_lon": 0.0, "is_reserved": 0, "bike_id": "26421f7c9ec9bbd5ebe1724538025c59", "fusion_lat": 0.0, "is_disabled": 0, "rental_uris": {"ios": "https://dc.lft.to/lastmile_qr_scan", "android": "https://dc.lft.to/lastmile_qr_scan"}}, {"name": "ebd079062e95026df82c752f68cd2ad6", "lon": -77.04138533333334, "lat": 38.922634333333335, "type": "electric_scooter", "fusion_lon": 0.0, "is_reserved": 0, "bike_id": "ebd079062e95026df82c752f68cd2ad6", "fusion_lat": 0.0, "is_disabled": 0, "rental_uris": {"ios": "https://dc.lft.to/lastmile_qr_scan", "android": "https://dc.lft.to/lastmile_qr_scan"}}, {"name": "98fa6a4bf8e034d7c593ed3994aa3d73", "lon": -77.025825, "lat": 38.896240166666665, "type": "electric_scooter", "fusion_lon": 0.0, "is_reserved": 0, "bike_id": "98fa6a4bf8e034d7c593ed3994aa3d73", "fusion_lat": 0.0, "is_disabled": 0, "rental_uris": {"ios": "https://dc.lft.to/lastmile_qr_scan", "android": "https://dc.lft.to/lastmile_qr_scan"}}, {"name": "4eef3b5fa89a8ebcccdc092330164d41", "lon": -77.009189, "lat": 38.9035395, "type": "electric_scooter", "fusion_lon": 0.0, "is_reserved": 0, "bike_id": "4eef3b5fa89a8ebcccdc092330164d41", "fusion_lat": 0.0, "is_disabled": 0, "rental_uris": {"ios": "https://dc.lft.to/lastmile_qr_scan", "android": "https://dc.lft.to/lastmile_qr_scan"}}, {"name": "e0ed8da53e814901ecb6c6c1c8bf00dd", "lon": -77.009315, "lat": 38.89606533333333, "type": "electric_scooter", "fusion_lon": 0.0, "is_reserved": 0, "bike_id": "e0ed8da53e814901ecb6c6c1c8bf00dd", "fusion_lat": 0.0, "is_disabled": 0, "rental_uris": {"ios": "https://dc.lft.to/lastmile_qr_scan", "android": "https://dc.lft.to/lastmile_qr_scan"}}, {"name": "380787162840f172ff6c32abf4518861", "lon": -77.04481083333333, "lat": 38.9110675, "type": "electric_scooter", "fusion_lon": 0.0, "is_reserved": 0, "bike_id": "380787162840f172ff6c32abf4518861", "fusion_lat": 0.0, "is_disabled": 0, "rental_uris": {"ios": "https://dc.lft.to/lastmile_qr_scan", "android": "https://dc.lft.to/lastmile_qr_scan"}}, {"name": "7eae7dacc535768a42ceaf644fab3900", "lon": -76.99599266666667, "lat": 38.8569095, "type": "electric_scooter", "fusion_lon": 0.0, "is_reserved": 0, "bike_id": "7eae7dacc535768a42ceaf644fab3900", "fusion_lat": 0.0, "is_disabled": 0, "rental_uris": {"ios": "https://dc.lft.to/lastmile_qr_scan", "android": "https://dc.lft.to/lastmile_qr_scan"}}, {"name": "ba04f176648dbf394956390cadf69d55", "lon": -77.008313, "lat": 38.829111166666664, "type": "electric_bike", "fusion_lon": 0.0, "is_reserved": 0, "bike_id": "ba04f176648dbf394956390cadf69d55", "fusion_lat": 0.0, "is_disabled": 0, "rental_uris": {"ios": "https://dc.lft.to/lastmile_qr_scan", "android": "https://dc.lft.to/lastmile_qr_scan"}}, {"name": "009360dcc9478e6f2a693d67eef48bfd", "lon": -77.034384, "lat": 38.90967966666667, "type": "electric_scooter", "fusion_lon": 0.0, "is_reserved": 0, "bike_id": "009360dcc9478e6f2a693d67eef48bfd", "fusion_lat": 0.0, "is_disabled": 0, "rental_uris": {"ios": "https://dc.lft.to/lastmile_qr_scan", "android": "https://dc.lft.to/lastmile_qr_scan"}}, {"name": "30456b56abda875367b2dd79aa8b91bb", "lon": -77.03995516666667, "lat": 38.905576833333335, "type": "electric_scooter", "fusion_lon": 0.0, "is_reserved": 0, "bike_id": "30456b56abda875367b2dd79aa8b91bb", "fusion_lat": 0.0, "is_disabled": 0, "rental_uris": {"ios": "https://dc.lft.to/lastmile_qr_scan", "android": "https://dc.lft.to/lastmile_qr_scan"}}, {"name": "0e9f57684c6f97868aafdb28e51d965b", "lon": -77.0434745, "lat": 38.92349466666667, "type": "electric_scooter", "fusion_lon": 0.0, "is_reserved": 0, "bike_id": "0e9f57684c6f97868aafdb28e51d965b", "fusion_lat": 0.0, "is_disabled": 0, "rental_uris": {"ios": "https://dc.lft.to/lastmile_qr_scan", "android": "https://dc.lft.to/lastmile_qr_scan"}},