{"data": {"bikes": [{"name": "513e581341916f323a6d64b1d3f64dcb", "type": "electric_scooter", "lat": 38.934951166666664, "is_reserved": 0, "lon": -77.02844283333333, "fusion_lon": 0.0, "is_disabled": 0, "fusion_lat": 0.0, "bike_id": "513e581341916f323a6d64b1d3f64dcb", "rental_uris": {"ios": "https://dc.lft.to/lastmile_qr_scan", "android": "https://dc.lft.to/lastmile_qr_scan"}}, {"name": "f6825035e1bd7a6fed5ef314c4968efa", "type": "electric_scooter", "lat": 38.900153833333334, "is_reserved": 0, "lon": -76.987027, "fusion_lon": 0.0, "is_disabled": 0, "fusion_lat": 0.0, "bike_id": "f6825035e1bd7a6fed5ef314c4968efa", "rental_uris": {"ios": "https://dc.lft.to/lastmile_qr_scan", "android": "https://dc.lft.to/lastmile_qr_scan"}}, {"name": "4bcec0ff4f1f95d806514a175f069c33", "type": "electric_scooter", "lat": 38.90319783333333, "is_reserved": 0, "lon": -77.033213, "fusion_lon": 0.0, "is_disabled": 0, "fusion_lat": 0.0, "bike_id": "4bcec0ff4f1f95d806514a175f069c33", "rental_uris": {"ios": "https://dc.lft.to/lastmile_qr_scan", "android": "https://dc.lft.to/lastmile_qr_scan"}}, {"name": "28927f32fa62358b70b79a8ff434e87b", "type": "electric_scooter", "lat": 38.84424633333333, "is_reserved": 0, "lon": -76.9977815, "fusion_lon": 0.0, "is_disabled": 0, "fusion_lat": 0.0, "bike_id": "28927f32fa62358b70b79a8ff434e87b", "rental_uris": {"ios": "https://dc.lft.to/lastmile_qr_scan", "android": "https://dc.lft.to/lastmile_qr_scan"}}, {"name": "6fe4e60dba8c025161b55db25cb6c804", "type": "electric_scooter", "lat": 38.89529016666667, "is_reserved": 0, "lon": -76.94929416666666, "fusion_lon": 0.0, "is_disabled": 0, "fusion_lat": 0.0, "bike_id": "6fe4e60dba8c025161b55db25cb6c804", "rental_uris": {"ios": "https://dc.lft.to/lastmile_qr_scan", "android": "https://dc.lft.to/lastmile_qr_scan"}}, {"name": "50e2026650108ee00fbee0e107adaf62", "type": "electric_scooter", "lat": 38.9290785, "is_reserved": 0, "lon": -77.02169833333333, "fusion_lon": 0.0, "is_disabled": 0, "fusion_lat": 0.0, "bike_id": "50e2026650108ee00fbee0e107adaf62", "rental_uris": {"ios": "https://dc.lft.to/lastmile_qr_scan", "android": "https://dc.lft.to/lastmile_qr_scan"}}, {"name": "5f2beaa83950472a36f7eedd849e0fb3", "type": "electric_scooter", "lat": 38.907829666666665, "is_reserved": 0, "lon": -77.02961216666667, "fusion_lon": 0.0, "is_disabled": 0, "fusion_lat": 0.0, "bike_id": "5f2beaa83950472a36f7eedd849e0fb3", "rental_uris": {"ios": "https://dc.lft.to/lastmile_qr_scan", "android": "https://dc.lft.to/lastmile_qr_scan"}}, {"name": "ffbd05b87b831f77da8216a0adb2d479", "type": "electric_scooter", "lat": 38.920959833333335, "is_reserved": 0, "lon": -77.024037, "fusion_lon": 0.0, "is_disabled": 0, "fusion_lat": 0.0, "bike_id": "ffbd05b87b831f77da8216a0adb2d479", "rental_uris": {"ios": "https://dc.lft.to/lastmile_qr_scan", "android": "https://dc.lft.to/lastmile_qr_scan"}}, {"name": "41720ab529c1973b67db33d23d294050", "type": "electric_scooter", "lat": 38.890850666666665, "is_reserved": 0, "lon": -77.00199133333334, "fusion_lon": 0.0, "is_disabled": 0, "fusion_lat": 0.0, "bike_id": "41720ab529c1973b67db33d23d294050", "rental_uris": {"ios": "https://dc.lft.to/lastmile_qr_scan", "android": "https://dc.lft.to/lastmile_qr_scan"}}, {"name": "3be7ba04922f57184bde4c66e7f7b82a", "type": "electric_scooter", "lat": 38.931593666666664, "is_reserved": 0, "lon": -77.04361483333334, "fusion_lon": 0.0, "is_disabled": 0, "fusion_lat": 0.0, "bike_id": "3be7ba04922f57184bde4c66e7f7b82a", "rental_uris": {"ios": "https://dc.lft.to/lastmile_qr_scan", "android": "https://dc.lft.to/lastmile_qr_scan"}}, {"name": "493d050727c2c13bdccedb09bdbcb544", "type": "electric_bike", "lat": 38.85431416666667, "is_reserved": 0, "lon": -76.90975316666666, "fusion_lon": 0.0, "is_disabled": 0, "fusion_lat": 0.0, "bike_id": "493d050727c2c13bdccedb09bdbcb544", "rental_uris": {"ios": "https://dc.lft.to/lastmile_qr_scan", "android": "https://dc.lft.to/lastmile_qr_scan"}}, {"name": "0e13ec3e884fa44352705974ecf661dd", "type": "electric_scooter", "lat": 38.9218055, "is_reserved": 0, "lon": -77.03232383333334, "fusion_lon": 0.0, "is_disabled": 0, "fusion_lat": 0.0, "bike_id": "0e13ec3e884fa44352705974ecf661dd", "rental_uris": {"ios": "https://dc.lft.to/lastmile_qr_scan", "android": "https://dc.lft.to/lastmile_qr_scan"}}, {"name": "d3693b5ca448aa1121b09c5fb8b2b63b", "type": "electric_bike", "lat": 38.810523, "is_reserved": 0, "lon": -77.08509816666667, "fusion_lon": 0.0, "is_disabled": 0, "fusion_lat": 0.0, "bike_id": "d3693b5ca448aa1121b09c5fb8b2b63b", "rental_uris": {"ios": "https://dc.lft.to/lastmile_qr_scan", "android": "https://dc.lft.to/lastmile_qr_scan"}}, {"name": "c66728e7245eea2c6cda86fdfec6600a", "type": "electric_scooter", "lat": 38.911971333333334, "is_reserved": 0, "lon": -77.06096583333333, "fusion_lon": 0.0, "is_disabled": 0, "fusion_lat": 0.0, "bike_id": "c66728e7245eea2c6cda86fdfec6600a", "rental_uris": {"ios": "https://dc.lft.to/lastmile_qr_scan", "android": "https://dc.lft.to/lastmile_qr_scan"}}, {"name": "38e061d4aab257058ebb2d5f26ded95d", "type": "electric_scooter", "lat": 38.90098533333333, "is_reserved": 0, "lon": -77.05065833333333, "fusion_lon": 0.0, "is_disabled": 0, "fusion_lat": 0.0, "bike_id": "38e061d4aab257058ebb2d5f26ded95d", "rental_uris": {"ios": "https://dc.lft.to/lastmile_qr_scan", "android": "https://dc.lft.to/lastmile_qr_scan"}}, {"name": "df82fed42387d5283b8d0fc8faa70e95", "type": "electric_scooter", "lat": 38.892256833333334, "is_reserved": 0, "lon": -77.0454175, "fusion_lon": 0.0, "is_disabled": 0, "fusion_lat": 0.0, "bike_id": "df82fed42387d5283b8d0fc8faa70e95", "rental_uris": {"ios": "https://dc.lft.to/lastmile_qr_scan", "android": "https://dc.lft.to/lastmile_qr_scan"}}, {"name": "4a05cc579465980f90c1e8847b66c14a", "type": "electric_bike", "lat": 39.02651133333333, "is_reserved": 0, "lon": -77.12535683333333, "fusion_lon": 0.0, "is_disabled": 0, "fusion_lat": 0.0, "bike_id": "4a05cc579465980f90c1e8847b66c14a", "rental_uris": {"ios": "https://dc.lft.to/lastmile_qr_scan", "android": "https://dc.lft.to/lastmile_qr_scan"}}, {"name": "15d74601979f0bde71db4d452d85ac36", "type": "electric_scooter", "lat": 38.917552666666666, "is_reserved": 0, "lon": -77.03966383333334, "fusion_lon": 0.0, "is_disabled": 0, "fusion_lat": 0.0, "bike_id": "15d74601979f0bde71db4d452d85ac36", "rental_uris": {"ios": "https://dc.lft.to/lastmile_qr_scan", "android": "https://dc.lft.to/lastmile_qr_scan"}}, {"name": "cd2c30cfccb55c06044988f3bf5d6fa0", "type": "electric_scooter", "lat": 38.900013333333334, "is_reserved": 0, "lon": -76.995062, "fusion_lon": 0.0, "is_disabled": 0, "fusion_lat": 0.0, "bike_id": "cd2c30cfccb55c06044988f3bf5d6fa0", "rental_uris": {"ios": "https://dc.lft.to/lastmile_qr_scan", "android": "https://dc.lft.to/lastmile_qr_scan"}}, {"name": "b84de2ba12667d6d20482d0e0d31c097", "type": "electric_scooter", "lat": 38.930496, "is_reserved": 0, "lon": -77.02794216666666, "fusion_lon": 0.0, "is_disabled": 0, "fusion_lat": 0.0, "bike_id": "b84de2ba12667d6d20482d0e0d31c097", "rental_uris": {"ios": "https://dc.lft.to/lastmile_qr_scan", "android": "https://dc.lft.to/lastmile_qr_scan"}}, {"name": "89a2e0568769123e34316d5d2445d03f", "type": "electric_scooter", "lat": 38.924493166666664, "is_reserved": 0, "lon": -77.03379333333334, "fusion_lon": 0.0, "is_disabled": 0, "fusion_lat": 0.0, "bike_id": "89a2e0568769123e34316d5d2445d03f", "rental_uris": {"ios": "https://dc.lft.to/lastmile_qr_scan", "android": "https://dc.lft.to/lastmile_qr_scan"}}, {"name": "d3b505619ad37f3a530e2bd9501c037d", "type": "electric_scooter", "lat": 38.903156833333334, "is_reserved": 0, "lon": -77.034684, "fusion_lon": 0.0, "is_disabled": 0, "fusion_lat": 0.0, "bike_id": "d3b505619ad37f3a530e2bd9501c037d", "rental_uris": {"ios": "https://dc.lft.to/lastmile_qr_scan", "android": "https://dc.lft.to/lastmile_qr_scan"}}, {"name": "fa75126d01b5f9a1c3045545a6f4b346", "type": "electric_scooter", "lat": 38.90135333333333, "is_reserved": 0, "lon": -77.03325066666666, "fusion_lon": 0.0, "is_disabled": 0, "fusion_lat": 0.0, "bike_id": "fa75126d01b5f9a1c3045545a6f4b346", "rental_uris": {"ios": "https://dc.lft.to/lastmile_qr_scan", "android": "https://dc.lft.to/lastmile_qr_scan"}}, {"name": "2c75f99056bece6fd2dee977eb3e10a8", "type": "electric_scooter", "lat": 38.895299333333334, "is_reserved": 0, "lon": -77.03351216666667, "fusion_lon": 0.0, "is_disabled": 0, "fusion_lat": 0.0, "bike_id": "2c75f99056bece6fd2dee977eb3e10a8", "rental_uris": {"ios": "https://dc.lft.to/lastmile_qr_scan", "android": "https://dc.lft.to/lastmile_qr_scan"}}, {"name": "8ed2a8fadd58d6e7e7b5c0d725ba1db4", "type": "electric_scooter", "lat": 38.972375666666665, "is_reserved": 0, "lon": -77.02715733333334, "fusion_lon": 0.0, "is_disabled": 0, "fusion_lat": 0.0, "bike_id": "8ed2a8fadd58d6e7e7b5c0d725ba1db4", "rental_uris": {"ios": "https://dc.lft.to/lastmile_qr_scan", "android": "https://dc.lft.to/lastmile_qr_scan"}}, {"name": "5cbe28f556a5d5cc0f7b01e1b4442e82", "type": "electric_scooter", "lat": 38.9244975, "is_reserved": 0, "lon": -77.02034166666667, "fusion_lon": 0.0, "is_disabled": 0, "fusion_lat": 0.0, "bike_id": "5cbe28f556a5d5cc0f7b01e1b4442e82", "rental_uris": {"ios": "https://dc.lft.to/lastmile_qr_scan", "android": "https://dc.lft.to/lastmile_qr_scan"}}, {"name": "3a19a954845419ea277df0104aec2150", "type": "electric_scooter", "lat": 38.915056166666666, "is_reserved": 0, "lon": -77.03853783333334, "fusion_lon": 0.0, "is_disabled": 0, "fusion_lat": 0.0, "bike_id": "3a19a954845419ea277df0104aec2150", "rental_uris": {"ios": "https://dc.lft.to/lastmile_qr_scan", "android": "https://dc.lft.to/lastmile_qr_scan"}}, {"name": "2707e8613d68f16e1a42dfd3d3df5908", "type": "electric_scooter", "lat": 38.85529433333333, "is_reserved": 0, "lon": -76.96921566666667, "fusion_lon": 0.0, "is_disabled": 0, "fusion_lat": 0.0, "bike_id": "2707e8613d68f16e1a42dfd3d3df5908", "rental_uris": {"ios": "https://dc.lft.to/lastmile_qr_scan", "android": "https://dc.lft.to/lastmile_qr_scan"}}, {"name": "6988ee5232d25f9b83976bc222302739", "type": "electric_scooter", "lat": 38.940993, "is_reserved": 0, "lon": -77.0328135, "fusion_lon": 0.0, "is_disabled": 0, "fusion_lat": 0.0, "bike_id": "6988ee5232d25f9b83976bc222302739", "rental_uris": {"ios": "https://dc.lft.to/lastmile_qr_scan", "android": "https://dc.lft.to/lastmile_qr_scan"}}, {"name": "8630d1db5f767d403f313d0bdc3ac203", "type": "electric_scooter", "lat": 38.89400533333333, "is_reserved": 0, "lon": -76.948071, "fusion_lon": 0.0, "is_disabled": 0, "fusion_lat": 0.0, "bike_id": "8630d1db5f767d403f313d0bdc3ac203", "rental_uris": {"ios": "https://dc.lft.to/lastmile_qr_scan", "android": "https://dc.lft.to/lastmile_qr_scan"}}, {"name": "cdf26ef560c5189ab4281f6062cb8417", "type": "electric_scooter", "lat": 38.919523166666664, "is_reserved": 0, "lon": -77.03202233333333, "fusion_lon": 0.0, "is_disabled": 0, "fusion_lat": 0.0, "bike_id": "cdf26ef560c5189ab4281f6062cb8417", "rental_uris": {"ios": "https://dc.lft.to/lastmile_qr_scan", "android": "https://dc.lft.to/lastmile_qr_scan"}}, {"name": "550c215c4ec0b074671d39bd7fcec188", "type": "electric_scooter", "lat": 38.896210833333335, "is_reserved": 0, "lon": -77.02295033333333, "fusion_lon": 0.0, "is_disabled": 0, "fusion_lat": 0.0, "bike_id": "550c215c4ec0b074671d39bd7fcec188", "rental_uris": {"ios": "https://dc.lft.to/lastmile_qr_scan", "android": "https://dc.lft.to/lastmile_qr_scan"}}, {"name": "5c25517cfdb7f512a79490301703d352", "type": "electric_scooter", "lat": 38.97482133333333, "is_reserved": 0, "lon": -77.0190465, "fusion_lon": 0.0, "is_disabled": 0, "fusion_lat": 0.0, "bike_id": "5c25517cfdb7f512a79490301703d352", "rental_uris": {"ios": "https://dc.lft.to/lastmile_qr_scan", "android": "https://dc.lft.to/lastmile_qr_scan"}}, {"name": "4ec190097ca1044129b95eb4fa9710dd", "type": "electric_scooter", "lat": 38.94015516666666, "is_reserved": 0, "lon": -77.0631635, "fusion_lon": 0.0, "is_disabled": 0, "fusion_lat": 0.0, "bike_id": "4ec190097ca1044129b95eb4fa9710dd", "rental_uris": {"ios": "https://dc.lft.to/lastmile_qr_scan", "android": "https://dc.lft.to/lastmile_qr_scan"}}, {"name": "5a3265d0f62754667c1c6f21ecb5b81e", "type": "electric_bike", "lat": 38.85804783333333, "is_reserved": 0, "lon": -76.98751216666666, "fusion_lon": 0.0, "is_disabled": 0, "fusion_lat": 0.0, "bike_id": "5a3265d0f62754667c1c6f21ecb5b81e", "rental_uris": {"ios": "https://dc.lft.to/lastmile_qr_scan", "android": "https://dc.lft.to/lastmile_qr_scan"}}, {"name": "e12ba40563a38b2b71c493e6ad8fdcc9", "type": "electric_scooter", "lat": 38.89759033333333, "is_reserved": 0, "lon": -77.05157766666666, "fusion_lon": 0.0, "is_disabled": 0, "fusion_lat": 0.0, "bike_id": "e12ba40563a38b2b71c493e6ad8fdcc9", "rental_uris": {"ios": "https://dc.lft.to/lastmile_qr_scan", "android": "https://dc.lft.to/lastmile_qr_scan"}}, {"name": "a4a1882bd4f4c60098c8c1b643d6d7e5", "type": "electric_scooter", "lat": 38.923450833333334, "is_reserved": 0, "lon": -77.03485433333333, "fusion_lon": 0.0, "is_disabled": 0, "fusion_lat": 0.0, "bike_id": "a4a1882bd4f4c60098c8c1b643d6d7e5", "rental_uris": {"ios": "https://dc.lft.to/lastmile_qr_scan", "android": "https://dc.lft.to/lastmile_qr_scan"}}, {"name": "65a04f6a39c8ad2909d097c7a739cfc6", "type": "electric_scooter", "lat": 38.903677333333334, "is_reserved": 0, "lon": -77.04190416666667, "fusion_lon": 0.0, "is_disabled": 0, "fusion_lat": 0.0, "bike_id": "65a04f6a39c8ad2909d097c7a739cfc6", "rental_uris": {"ios": "https://dc.lft.to/lastmile_qr_scan", "android": "https://dc.lft.to/lastmile_qr_scan"}}, {"name": "3afdb2ba9c0b7937e0fa2bde19ebaaa6", "type": "electric_scooter", "lat": 38.84296883333333, "is_reserved": 0, "lon": -76.999505, "fusion_lon": 0.0, "is_disabled": 0, "fusion_lat": 0.0, "bike_id": "3afdb2ba9c0b7937e0fa2bde19ebaaa6", "rental_uris": {"ios": "https://dc.lft.to/lastmile_qr_scan", "android": "https://dc.lft.to/lastmile_qr_scan"}}, {"name": "93bfd96e69a8970ac17321036500db16", "type": "electric_scooter", "lat": 38.91054883333334, "is_reserved": 0, "lon": -77.01691166666667, "fusion_lon": 0.0, "is_disabled": 0, "fusion_lat": 0.0, "bike_id": "93bfd96e69a8970ac17321036500db16", "rental_uris": {"ios": "https://dc.lft.to/lastmile_qr_scan", "android": "https://dc.lft.to/lastmile_qr_scan"}}, {"name": "6b862158043b4a3cedeff9b28500ca24", "type": "electric_scooter", "lat": 38.93310783333333, "is_reserved": 0, "lon": -77.0280775, "fusion_lon": 0.0, "is_disabled": 0, "fusion_lat": 0.0, "bike_id": "6b862158043b4a3cedeff9b28500ca24", "rental_uris": {"ios": "https://dc.lft.to/lastmile_qr_scan", "android": "https://dc.lft.to/lastmile_qr_scan"}}, {"name": "6162372bb2c5d3b2e5245a58389b3ffd", "type": "electric_scooter", "lat": 38.903233, "is_reserved": 0, "lon": -77.03352466666666, "fusion_lon": 0.0, "is_disabled": 0, "fusion_lat": 0.0, "bike_id": "6162372bb2c5d3b2e5245a58389b3ffd", "rental_uris": {"ios": "https://dc.lft.to/lastmile_qr_scan", "android": "https://dc.lft.to/lastmile_qr_scan"}}, {"name": "0fe4d09c4144929510423ee50cc1d03e", "type": "electric_scooter", "lat": 38.89820516666666, "is_reserved": 0, "lon": -77.0331535, "fusion_lon": 0.0, "is_disabled": 0, "fusion_lat": 0.0, "bike_id": "0fe4d09c4144929510423ee50cc1d03e", "rental_uris": {"ios": "https://dc.lft.to/lastmile_qr_scan", "android": "https://dc.lft.to/lastmile_qr_scan"}}, {"name": "4b453137d452af26acebe01c53dd2720", "type": "electric_bike", "lat": 38.880462333333334, "is_reserved": 0, "lon": -77.01324816666667, "fusion_lon": 0.0, "is_disabled": 0, "fusion_lat": 0.0, "bike_id": "4b453137d452af26acebe01c53dd2720", "rental_uris": {"ios": "https://dc.lft.to/lastmile_qr_scan", "android": "https://dc.lft.to/lastmile_qr_scan"}}, {"name": "aea5370a8f056832817a22de2888e6db", "type": "electric_bike", "lat": 38.84274083333333, "is_reserved": 0, "lon": -76.98841666666667, "fusion_lon": 0.0, "is_disabled": 0, "fusion_lat": 0.0, "bike_id": "aea5370a8f056832817a22de2888e6db", "rental_uris": {"ios": "https://dc.lft.to/lastmile_qr_scan", "android": "https://dc.lft.to/lastmile_qr_scan"}}, {"name": "f8bc927ffcfae36b07c0fc87e243feef", "type": "electric_scooter", "lat": 38.906114, "is_reserved": 0, "lon": -77.043381, "fusion_lon": 0.0, "is_disabled": 0, "fusion_lat": 0.0, "bike_id": "f8bc927ffcfae36b07c0fc87e243feef", "rental_uris": {"ios": "https://dc.lft.to/lastmile_qr_scan", "android": "https://dc.lft.to/lastmile_qr_scan"}}, {"name": "2b6fd71cc2099b04c858ce373d446ad4", "type": "electric_scooter", "lat": 38.914643, "is_reserved": 0, "lon": -77.0049185, "fusion_lon": 0.0, "is_disabled": 0, "fusion_lat": 0.0, "bike_id": "2b6fd71cc2099b04c858ce373d446ad4", "rental_uris": {"ios": "https://dc.lft.to/lastmile_qr_scan", "android": "https://dc.lft.to/lastmile_qr_scan"}}, {"name": "0d855aa5c6f381dfe584899dc4694575", "type": "electric_scooter", "lat": 38.926761166666665, "is_reserved": 0, "lon": -77.01494533333333, "fusion_lon": 0.0, "is_disabled": 0, "fusion_lat": 0.0, "bike_id": "0d855aa5c6f381dfe584899dc4694575", "rental_uris": {"ios": "https://dc.lft.to/lastmile_qr_scan", "android": "https://dc.lft.to/lastmile_qr_scan"}}, {"name": "c74c9f88295a39de98758f4e3cf3cc43", "type": "electric_bike", "lat": 38.839324166666664, "is_reserved": 0, "lon": -77.0790495, "fusion_lon": 0.0, "is_disabled": 0, "fusion_lat": 0.0, "bike_id": "c74c9f88295a39de98758f4e3cf3cc43", "rental_uris": {"ios": "https://dc.lft.to/lastmile_qr_scan", "android": "https://dc.lft.to/lastmile_qr_scan"}}, {"name": "a039e75804fa4a971fcdaba4ab4e211d", "type": "electric_scooter", "lat": 38.90923, "is_reserved": 0, "lon": -77.072761, "fusion_lon": 0.0, "is_disabled": 0, "fusion_lat": 0.0, "bike_id": "a039e75804fa4a971fcdaba4ab4e211d", "rental_uris": {"ios": "https://dc.lft.to/lastmile_qr_scan", "android": "https://dc.lft.to/lastmile_qr_scan"}}, {"name": "abb1eda214628033ce6f36080f3e3924", "type": "electric_scooter", "lat": 38.884924833333336, "is_reserved": 0, "lon": -77.00727166666667, "fusion_lon": 0.0, "is_disabled": 0, "fusion_lat": 0.0, "bike_id": "abb1eda214628033ce6f36080f3e3924", "rental_uris": {"ios": "https://dc.lft.to/lastmile_qr_scan", "android": "https://dc.lft.to/lastmile_qr_scan"}}, {"name": "2d9aba15552eb487e0a04bfd2bcfe75b", "type": "electric_scooter", "lat": 38.9156275, "is_reserved": 0, "lon": -77.021783, "fusion_lon": 0.0, "is_disabled": 0, "fusion_lat": 0.0, "bike_id": "2d9aba15552eb487e0a04bfd2bcfe75b", "rental_uris": {"ios": "https://dc.lft.to/lastmile_qr_scan", "android": "https://dc.lft.to/lastmile_qr_scan"}}, {"name": "162aebb29bffe7940ede63572f80ad6b", "type": "electric_scooter", "lat": 38.905894333333336, "is_reserved": 0, "lon": -77.0161335, "fusion_lon": 0.0, "is_disabled": 0, "fusion_lat": 0.0, "bike_id": "162aebb29bffe7940ede63572f80ad6b", "rental_uris": {"ios": "https://dc.lft.to/lastmile_qr_scan", "android": "https://dc.lft.to/lastmile_qr_scan"}}, {"name": "4de8a94770ed64e62575f13b22fd80fa", "type": "electric_bike", "lat": 38.90140316666667, "is_reserved": 0, "lon": -77.044872, "fusion_lon": 0.0, "is_disabled": 0, "fusion_lat": 0.0, "bike_id": "4de8a94770ed64e62575f13b22fd80fa", "rental_uris": {"ios": "https://dc.lft.to/lastmile_qr_scan", "android": "https://dc.lft.to/lastmile_qr_scan"}}, {"name": "7b2bd8ba6c6c9f192b29e280ef6a97d2", "type": "electric_scooter", "lat": 38.90030933333333, "is_reserved": 0, "lon": -77.011636, "fusion_lon": 0.0, "is_disabled": 0, "fusion_lat": 0.0, "bike_id": "7b2bd8ba6c6c9f192b29e280ef6a97d2", "rental_uris": {"ios": "https://dc.lft.to/lastmile_qr_scan", "android": "https://dc.lft.to/lastmile_qr_scan"}}, {"name": "675725ffc18fdf89ca3ec88f303563a0", "type": "electric_scooter", "lat": 38.8949325, "is_reserved": 0, "lon": -77.01100166666667, "fusion_lon": 0.0, "is_disabled": 0, "fusion_lat": 0.0, "bike_id": "675725ffc18fdf89ca3ec88f303563a0", "rental_uris": {"ios": "https://dc.lft.to/lastmile_qr_scan", "android": "https://dc.lft.to/lastmile_qr_scan"}}, {"name": "801a4dfe0cc0ba78d506467c8a3bb317", "type": "electric_scooter", "lat": 38.88404833333333, "is_reserved": 0, "lon": -77.024433, "fusion_lon": 0.0, "is_disabled": 0, "fusion_lat": 0.0, "bike_id": "801a4dfe0cc0ba78d506467c8a3bb317", "rental_uris": {"ios": "https://dc.lft.to/lastmile_qr_scan", "android": "https://dc.lft.to/lastmile_qr_scan"}}, {"name": "31f49b7cf309a81d41f18e4761403802", "type": "electric_scooter", "lat": 38.9025795, "is_reserved": 0, "lon": -77.0314575, "fusion_lon": 0.0, "is_disabled": 0, "fusion_lat": 0.0, "bike_id": "31f49b7cf309a81d41f18e4761403802", "rental_uris": {"ios": "https://dc.lft.to/lastmile_qr_scan", "android": "https://dc.lft.to/lastmile_qr_scan"}}, {"name": "b74da6cac0ffaeb5938ade735e4e12c5", "type": "electric_scooter", "lat": 38.89223333333333, "is_reserved": 0, "lon": -77.04263433333334, "fusion_lon": 0.0, "is_disabled": 0, "fusion_lat": 0.0, "bike_id": "b74da6cac0ffaeb5938ade735e4e12c5", "rental_uris": {"ios": "https://dc.lft.to/lastmile_qr_scan", "android": "https://dc.lft.to/lastmile_qr_scan"}}, {"name": "4a1cc4efd68021e9a9de1f0e1845c79a", "type": "electric_scooter", "lat": 38.930651, "is_reserved": 0, "lon": -77.02320216666666, "fusion_lon": 0.0, "is_disabled": 0, "fusion_lat": 0.0, "bike_id": "4a1cc4efd68021e9a9de1f0e1845c79a", "rental_uris": {"ios": "https://dc.lft.to/lastmile_qr_scan", "android": "https://dc.lft.to/lastmile_qr_scan"}}, {"name": "6840ecbff696cd3fa57fce9bfe52b156", "type": "electric_scooter", "lat": 38.883506833333335, "is_reserved": 0, "lon": -76.949354, "fusion_lon": 0.0, "is_disabled": 0, "fusion_lat": 0.0, "bike_id": "6840ecbff696cd3fa57fce9bfe52b156", "rental_uris": {"ios": "https://dc.lft.to/lastmile_qr_scan", "android": "https://dc.lft.to/lastmile_qr_scan"}}, {"name": "5a9159720b109e7997da67c1e2bcbb70", "type": "electric_bike", "lat": 38.928569833333334, "is_reserved": 0, "lon": -77.10679016666667, "fusion_lon": 0.0, "is_disabled": 0, "fusion_lat": 0.0, "bike_id": "5a9159720b109e7997da67c1e2bcbb70", "rental_uris": {"ios": "https://dc.lft.to/lastmile_qr_scan", "android": "https://dc.lft.to/lastmile_qr_scan"}}, {"name": "5e3080752d9164d66f9500f103e8e3fc", "type": "electric_scooter", "lat": 38.9067265, "is_reserved": 0, "lon": -77.03674383333333, "fusion_lon": 0.0, "is_disabled": 0, "fusion_lat": 0.0, "bike_id": "5e3080752d9164d66f9500f103e8e3fc", "rental_uris": {"ios": "https://dc.lft.to/lastmile_qr_scan", "android": "https://dc.lft.to/lastmile_qr_scan"}}, {"name": "7cb73f5eca66c802135c72e09c0dbb66", "type": "electric_scooter", "lat": 38.924071166666664, "is_reserved": 0, "lon": -77.05260866666667, "fusion_lon": 0.0, "is_disabled": 0, "fusion_lat": 0.0, "bike_id": "7cb73f5eca66c802135c72e09c0dbb66", "rental_uris": {"ios": "https://dc.lft.to/lastmile_qr_scan", "android": "https://dc.lft.to/lastmile_qr_scan"}}, {"name": "b6606a4db2b6942b6b361f2cf4c6279d", "type": "electric_scooter", "lat": 38.898786, "is_reserved": 0, "lon": -76.9316255, "fusion_lon": 0.0, "is_disabled": 0, "fusion_lat": 0.0, "bike_id": "b6606a4db2b6942b6b361f2cf4c6279d", "rental_uris": {"ios": "https://dc.lft.to/lastmile_qr_scan", "android": "https://dc.lft.to/lastmile_qr_scan"}}, {"name": "740210335d6d50186e28be80ff3641d2", "type": "electric_scooter", "lat": 38.89224933333333, "is_reserved": 0, "lon": -77.0464265, "fusion_lon": 0.0, "is_disabled": 0, "fusion_lat": 0.0, "bike_id": "740210335d6d50186e28be80ff3641d2", "rental_uris": {"ios": "https://dc.lft.to/lastmile_qr_scan", "android": "https://dc.lft.to/lastmile_qr_scan"}}, {"name": "aff92a8239ff9624e8635e67721ed17a", "type": "electric_scooter", "lat": 38.91675166666667, "is_reserved": 0, "lon": -77.02956166666667, "fusion_lon": 0.0, "is_disabled": 0, "fusion_lat": 0.0, "bike_id": "aff92a8239ff9624e8635e67721ed17a", "rental_uris": {"ios": "https://dc.lft.to/lastmile_qr_scan", "android": "https://dc.lft.to/lastmile_qr_scan"}}, {"name": "057cdcb6afbfd90b1efc2ad416393c8e", "type": "electric_bike", "lat": 38.83239966666667, "is_reserved": 0, "lon": -76.94623483333334, "fusion_lon": 0.0, "is_disabled": 0, "fusion_lat": 0.0, "bike_id": "057cdcb6afbfd90b1efc2ad416393c8e", "rental_uris": {"ios": "https://dc.lft.to/lastmile_qr_scan", "android": "https://dc.lft.to/lastmile_qr_scan"}}, {"name": "5bd171c6fda1e1c9233c5fa1e76b2ff8", "type": "electric_scooter", "lat": 38.916028833333336, "is_reserved": 0, "lon": -76.9837355, "fusion_lon": 0.0, "is_disabled": 0, "fusion_lat": 0.0, "bike_id": "5bd171c6fda1e1c9233c5fa1e76b2ff8", "rental_uris": {"ios": "https://dc.lft.to/lastmile_qr_scan", "android": "https://dc.lft.to/lastmile_qr_scan"}}, {"name": "ce221e2dcac8fc6a436f8f89bb0ff170", "type": "electric_scooter", "lat": 38.9413145, "is_reserved": 0, "lon": -77.01545066666667, "fusion_lon": 0.0, "is_disabled": 0, "fusion_lat": 0.0, "bike_id": "ce221e2dcac8fc6a436f8f89bb0ff170", "rental_uris": {"ios": "https://dc.lft.to/lastmile_qr_scan", "android": "https://dc.lft.to/lastmile_qr_scan"}}, {"name": "a42286f725f92485ca0deab05899880a", "type": "electric_scooter", "lat": 38.92491583333333, "is_reserved": 0, "lon": -77.0271425, "fusion_lon": 0.0, "is_disabled": 0, "fusion_lat": 0.0, "bike_id": "a42286f725f92485ca0deab05899880a", "rental_uris": {"ios": "https://dc.lft.to/lastmile_qr_scan", "android": "https://dc.lft.to/lastmile_qr_scan"}}, {"name": "59ef18a54311f76ca1252523c6a9ef27", "type": "electric_scooter", "lat": 38.92990366666667, "is_reserved": 0, "lon": -77.079477, "fusion_lon": 0.0, "is_disabled": 0, "fusion_lat": 0.0, "bike_id": "59ef18a54311f76ca1252523c6a9ef27", "rental_uris": {"ios": "https://dc.lft.to/lastmile_qr_scan", "android": "https://dc.lft.to/lastmile_qr_scan"}}, {"name": "e8b860d298e9901cf63179a7a3f273cf", "type": "electric_bike", "lat": 38.87134533333333, "is_reserved": 0, "lon": -76.9373045, "fusion_lon": 0.0, "is_disabled": 0, "fusion_lat": 0.0, "bike_id": "e8b860d298e9901cf63179a7a3f273cf", "rental_uris": {"ios": "https://dc.lft.to/lastmile_qr_scan", "android": "https://dc.lft.to/lastmile_qr_scan"}}, {"name": "2b4b996f0a0aa8b7149ba57bc94205ca", "type": "electric_scooter", "lat": 38.923754833333334, "is_reserved": 0, "lon": -77.01956933333334, "fusion_lon": 0.0, "is_disabled": 0, "fusion_lat": 0.0, "bike_id": "2b4b996f0a0aa8b7149ba57bc94205ca", "rental_uris": {"ios": "https://dc.lft.to/lastmile_qr_scan", "android": "https://dc.lft.to/lastmile_qr_scan"}}, {"name": "72e0c5433b232ada26f9602489579aa5", "type": "electric_scooter", "lat": 38.90592483333333, "is_reserved": 0, "lon": -77.038687, "fusion_lon": 0.0, "is_disabled": 0, "fusion_lat": 0.0, "bike_id": "72e0c5433b232ada26f9602489579aa5", "rental_uris": {"ios": "https://dc.lft.to/lastmile_qr_scan", "android": "https://dc.lft.to/lastmile_qr_scan"}}, {"name": "1d40ee9eceb6725ce06b604906e38fa7", "type": "electric_scooter", "lat": 38.92167083333333, "is_reserved": 0, "lon": -77.032645, "fusion_lon": 0.0, "is_disabled": 0, "fusion_lat": 0.0, "bike_id": "1d40ee9eceb6725ce06b604906e38fa7", "rental_uris": {"ios": "https://dc.lft.to/lastmile_qr_scan", "android": "https://dc.lft.to/lastmile_qr_scan"}}, {"name": "0621956441651de1ba58ce37333b9720", "type": "electric_scooter", "lat": 38.89827183333333, "is_reserved": 0, "lon": -77.032911, "fusion_lon": 0.0, "is_disabled": 0, "fusion_lat": 0.0, "bike_id": "0621956441651de1ba58ce37333b9720", "rental_uris": {"ios": "https://dc.lft.to/lastmile_qr_scan", "android": "https://dc.lft.to/lastmile_qr_scan"}}, {"name": "ac50e16c1efbca735dcb68e59bc7dee9", "type": "electric_scooter", "lat": 38.89534783333333, "is_reserved": 0, "lon": -77.0280705, "fusion_lon": 0.0, "is_disabled": 0, "fusion_lat": 0.0, "bike_id": "ac50e16c1efbca735dcb68e59bc7dee9", "rental_uris": {"ios": "https://dc.lft.to/lastmile_qr_scan", "android": "https://dc.lft.to/lastmile_qr_scan"}}, {"name": "179023c73d0f8f205b6ba74ff183125f", "type": "electric_scooter", "lat": 38.89371283333333, "is_reserved": 0, "lon": -77.04675566666667, "fusion_lon": 0.0, "is_disabled": 0, "fusion_lat": 0.0, "bike_id": "179023c73d0f8f205b6ba74ff183125f", "rental_uris": {"ios": "https://dc.lft.to/lastmile_qr_scan", "android": "https://dc.lft.to/lastmile_qr_scan"}}, {"name": "4785216442924ce0e18d559556076ac9", "type": "electric_scooter", "lat": 38.9226725, "is_reserved": 0, "lon": -77.0364465, "fusion_lon": 0.0, "is_disabled": 0, "fusion_lat": 0.0, "bike_id": "4785216442924ce0e18d559556076ac9", "rental_uris": {"ios": "https://dc.lft.to/lastmile_qr_scan", "android": "https://dc.lft.to/lastmile_qr_scan"}}, {"name": "77a5e5257caeb7ca1411c1ed841e5194", "type": "electric_scooter", "lat": 38.90627, "is_reserved": 0, "lon": -77.03969866666667, "fusion_lon": 0.0, "is_disabled": 0, "fusion_lat": 0.0, "bike_id": "77a5e5257caeb7ca1411c1ed841e5194", "rental_uris": {"ios": "https://dc.lft.to/lastmile_qr_scan", "android": "https://dc.lft.to/lastmile_qr_scan"}}, {"name": "1791d4ddd2d0632d330dfd60b776bfde", "type": "electric_scooter", "lat": 38.924799666666665, "is_reserved": 0, "lon": -77.02666666666667, "fusion_lon": 0.0, "is_disabled": 0, "fusion_lat": 0.0, "bike_id": "1791d4ddd2d0632d330dfd60b776bfde", "rental_uris": {"ios": "https://dc.lft.to/lastmile_qr_scan", "android": "https://dc.lft.to/lastmile_qr_scan"}}, {"name": "653641f81f067a89ee8665a653d0f2ac", "type": "electric_scooter", "lat": 38.91942933333333, "is_reserved": 0, "lon": -77.04552966666667, "fusion_lon": 0.0, "is_disabled": 0, "fusion_lat": 0.0, "bike_id": "653641f81f067a89ee8665a653d0f2ac", "rental_uris": {"ios": "https://dc.lft.to/lastmile_qr_scan", "android": "https://dc.lft.to/lastmile_qr_scan"}}, {"name": "836b67561fb39184fae5ecf3aceef9c6", "type": "electric_scooter", "lat": 38.949023333333336, "is_reserved": 0, "lon": -77.07879616666666, "fusion_lon": 0.0, "is_disabled": 0, "fusion_lat": 0.0, "bike_id": "836b67561fb39184fae5ecf3aceef9c6", "rental_uris": {"ios": "https://dc.lft.to/lastmile_qr_scan", "android": "https://dc.lft.to/lastmile_qr_scan"}}, {"name": "d99e24de3afc6d0ecb7990841ffdc405", "type": "electric_scooter", "lat": 38.86521416666667, "is_reserved": 0, "lon": -76.990317, "fusion_lon": 0.0, "is_disabled": 0, "fusion_lat": 0.0, "bike_id": "d99e24de3afc6d0ecb7990841ffdc405", "rental_uris": {"ios": "https://dc.lft.to/lastmile_qr_scan", "android": "https://dc.lft.to/lastmile_qr_scan"}}, {"name": "82581d84dcdb8215512487d8d55a7c81", "type": "electric_scooter", "lat": 38.90873066666666, "is_reserved": 0, "lon": -77.08593366666666, "fusion_lon": 0.0, "is_disabled": 0, "fusion_lat": 0.0, "bike_id": "82581d84dcdb8215512487d8d55a7c81", "rental_uris": {"ios": "https://dc.lft.to/lastmile_qr_scan", "android": "https://dc.lft.to/lastmile_qr_scan"}}, {"name": "80af0b5622ff6c742593536899cbb110", "type": "electric_scooter", "lat": 38.92830333333333, "is_reserved": 0, "lon": -77.01409633333333, "fusion_lon": 0.0, "is_disabled": 0, "fusion_lat": 0.0, "bike_id": "80af0b5622ff6c742593536899cbb110", "rental_uris": {"ios": "https://dc.lft.to/lastmile_qr_scan", "android": "https://dc.lft.to/lastmile_qr_scan"}}, {"name": "548ee055561c57188ab56975a1024fac", "type": "electric_scooter", "lat": 38.90589, "is_reserved": 0, "lon": -77.04888033333333, "fusion_lon": 0.0, "is_disabled": 0, "fusion_lat": 0.0, "bike_id": "548ee055561c57188ab56975a1024fac", "rental_uris": {"ios": "https://dc.lft.to/lastmile_qr_scan", "android": "https://dc.lft.to/lastmile_qr_scan"}}, {"name": "cbecd1a964c696c6aa08257ef220df80", "type": "electric_scooter", "lat": 38.8683045, "is_reserved": 0, "lon": -76.98617716666666, "fusion_lon": 0.0, "is_disabled": 0, "fusion_lat": 0.0, "bike_id": "cbecd1a964c696c6aa08257ef220df80", "rental_uris": {"ios": "https://dc.lft.to/lastmile_qr_scan", "android": "https://dc.lft.to/lastmile_qr_scan"}}, {"name": "67a8c487b7ef8faa3e45a574736ff819", "type": "electric_scooter", "lat": 38.885336833333334, "is_reserved": 0, "lon": -77.00581433333333, "fusion_lon": 0.0, "is_disabled": 0, "fusion_lat": 0.0, "bike_id": "67a8c487b7ef8faa3e45a574736ff819", "rental_uris": {"ios": "https://dc.lft.to/lastmile_qr_scan", "android": "https://dc.lft.to/lastmile_qr_scan"}}, {"name": "218f709eaa883c94d9e215c0453356a5", "type": "electric_scooter", "lat": 38.88282483333333, "is_reserved": 0, "lon": -76.9861305, "fusion_lon": 0.0, "is_disabled": 0, "fusion_lat": 0.0, "bike_id": "218f709eaa883c94d9e215c0453356a5", "rental_uris": {"ios": "https://dc.lft.to/lastmile_qr_scan", "android": "https://dc.lft.to/lastmile_qr_scan"}}, {"name": "8b98f0b21cd1e911e94798d96e90f1f5", "type": "electric_scooter", "lat": 38.9328345, "is_reserved": 0, "lon": -77.02974416666666, "fusion_lon": 0.0, "is_disabled": 0, "fusion_lat": 0.0, "bike_id": "8b98f0b21cd1e911e94798d96e90f1f5", "rental_uris": {"ios": "https://dc.lft.to/lastmile_qr_scan", "android": "https://dc.lft.to/lastmile_qr_scan"}}, {"name": "af21875e24676037887e157a732a9243", "type": "electric_scooter", "lat": 38.91730483333333, "is_reserved": 0, "lon": -77.03667583333333, "fusion_lon": 0.0, "is_disabled": 0, "fusion_lat": 0.0, "bike_id": "af21875e24676037887e157a732a9243", "rental_uris": {"ios": "https://dc.lft.to/lastmile_qr_scan", "android": "https://dc.lft.to/lastmile_qr_scan"}}, {"name": "554cb49ea3714551b173dcb18244d1a3", "type": "electric_scooter", "lat": 38.9095985, "is_reserved": 0, "lon": -77.0241435, "fusion_lon": 0.0, "is_disabled": 0, "fusion_lat": 0.0, "bike_id": "554cb49ea3714551b173dcb18244d1a3", "rental_uris": {"ios": "https://dc.lft.to/lastmile_qr_scan", "android": "https://dc.lft.to/lastmile_qr_scan"}}, {"name": "38522d75ca6e8f225c42cb6779848304", "type": "electric_scooter", "lat": 38.89986433333333, "is_reserved": 0, "lon": -77.02106183333333, "fusion_lon": 0.0, "is_disabled": 0, "fusion_lat": 0.0, "bike_id": "38522d75ca6e8f225c42cb6779848304", "rental_uris": {"ios": "https://dc.lft.to/lastmile_qr_scan", "android": "https://dc.lft.to/lastmile_qr_scan"}}, {"name": "f650bdf0250a4061fe663866ad56f6f6", "type": "electric_scooter", "lat": 38.9080655, "is_reserved": 0, "lon": -77.0384175, "fusion_lon": 0.0, "is_disabled": 0, "fusion_lat": 0.0, "bike_id": "f650bdf0250a4061fe663866ad56f6f6", "rental_uris": {"ios": "https://dc.lft.to/lastmile_qr_scan", "android": "https://dc.lft.to/lastmile_qr_scan"}}, {"name": "95e1ac48dd188e1ff756dc9b9029f275", "type": "electric_scooter", "lat": 38.927225666666665, "is_reserved": 0, "lon": -77.02108366666667, "fusion_lon": 0.0, "is_disabled": 0, "fusion_lat": 0.0, "bike_id": "95e1ac48dd188e1ff756dc9b9029f275", "rental_uris": {"ios": "https://dc.lft.to/lastmile_qr_scan", "android": "https://dc.lft.to/lastmile_qr_scan"}}, {"name": "451610066d60885445e95085399889da", "type": "electric_scooter", "lat": 38.89225783333333, "is_reserved": 0, "lon": -77.04336666666667, "fusion_lon": 0.0, "is_disabled": 0, "fusion_lat": 0.0, "bike_id": "451610066d60885445e95085399889da", "rental_uris": {"ios": "https://dc.lft.to/lastmile_qr_scan", "android": "https://dc.lft.to/lastmile_qr_scan"}}, {"name": "cb54f9df1e665f6c6ba74e107dd15d5d", "type": "electric_scooter", "lat": 38.86658966666667, "is_reserved": 0, "lon": -76.98885583333333, "fusion_lon": 0.0, "is_disabled": 0, "fusion_lat": 0.0, "bike_id": "cb54f9df1e665f6c6ba74e107dd15d5d", "rental_uris": {"ios": "https://dc.lft.to/lastmile_qr_scan", "android": "https://dc.lft.to/lastmile_qr_scan"}}, {"name": "fc87962bc9bd6609a05609b20c5e9de5", "type": "electric_scooter", "lat": 38.90613283333333, "is_reserved": 0, "lon": -77.07491833333333, "fusion_lon": 0.0, "is_disabled": 0, "fusion_lat": 0.0, "bike_id": "fc87962bc9bd6609a05609b20c5e9de5", "rental_uris": {"ios": "https://dc.lft.to/lastmile_qr_scan", "android": "https://dc.lft.to/lastmile_qr_scan"}}, {"name": "febe23c7e0d0bec02639271948217afd", "type": "electric_scooter", "lat": 38.92517516666667, "is_reserved": 0, "lon": -77.0017945, "fusion_lon": 0.0, "is_disabled": 0, "fusion_lat": 0.0, "bike_id": "febe23c7e0d0bec02639271948217afd", "rental_uris": {"ios": "https://dc.lft.to/lastmile_qr_scan", "android": "https://dc.lft.to/lastmile_qr_scan"}}, {"name": "4cdd62e6e2328ed23d4856b85455d607", "type": "electric_scooter", "lat": 38.896118333333334, "is_reserved": 0, "lon": -77.009239, "fusion_lon": 0.0, "is_disabled": 0, "fusion_lat": 0.0, "bike_id": "4cdd62e6e2328ed23d4856b85455d607", "rental_uris": {"ios": "https://dc.lft.to/lastmile_qr_scan", "android": "https://dc.lft.to/lastmile_qr_scan"}}, {"name": "16692c8de68b226d5b59855a3d6ab34b", "type": "electric_scooter", "lat": 38.883740833333334, "is_reserved": 0, "lon": -76.92374216666667, "fusion_lon": 0.0, "is_disabled": 0, "fusion_lat": 0.0, "bike_id": "16692c8de68b226d5b59855a3d6ab34b", "rental_uris": {"ios": "https://dc.lft.to/lastmile_qr_scan", "android": "https://dc.lft.to/lastmile_qr_scan"}}, {"name": "ddf652b856752c702f54a4339b279138", "type": "electric_scooter", "lat": 38.9012715, "is_reserved": 0, "lon": -77.04239666666666, "fusion_lon": 0.0, "is_disabled": 0, "fusion_lat": 0.0, "bike_id": "ddf652b856752c702f54a4339b279138", "rental_uris": {"ios": "https://dc.lft.to/lastmile_qr_scan", "android": "https://dc.lft.to/lastmile_qr_scan"}}, {"name": "2bcbccc47008ce659bfebd800e741ae1", "type": "electric_scooter", "lat": 38.92745983333333, "is_reserved": 0, "lon": -77.0162695, "fusion_lon": 0.0, "is_disabled": 0, "fusion_lat": 0.0, "bike_id": "2bcbccc47008ce659bfebd800e741ae1", "rental_uris": {"ios": "https://dc.lft.to/lastmile_qr_scan", "android": "https://dc.lft.to/lastmile_qr_scan"}}, {"name": "72c54352dd6604be60cef2b1ce063e17", "type": "electric_scooter", "lat": 38.92368116666667, "is_reserved": 0, "lon": -77.05838783333333, "fusion_lon": 0.0, "is_disabled": 0, "fusion_lat": 0.0, "bike_id": "72c54352dd6604be60cef2b1ce063e17", "rental_uris": {"ios": "https://dc.lft.to/lastmile_qr_scan", "android": "https://dc.lft.to/lastmile_qr_scan"}}, {"name": "912852f07bdcff1d072c790b949267fa", "type": "electric_scooter", "lat": 38.915607, "is_reserved": 0, "lon": -77.03935416666667, "fusion_lon": 0.0, "is_disabled": 0, "fusion_lat": 0.0, "bike_id": "912852f07bdcff1d072c790b949267fa", "rental_uris": {"ios": "https://dc.lft.to/lastmile_qr_scan", "android": "https://dc.lft.to/lastmile_qr_scan"}}, {"name": "4d1d75a0058ca784cadd6320c35bc4f4", "type": "electric_scooter", "lat": 38.92030883333334, "is_reserved": 0, "lon": -77.038708, "fusion_lon": 0.0, "is_disabled": 0, "fusion_lat": 0.0, "bike_id": "4d1d75a0058ca784cadd6320c35bc4f4", "rental_uris": {"ios": "https://dc.lft.to/lastmile_qr_scan", "android": "https://dc.lft.to/lastmile_qr_scan"}}, {"name": "91e8eb193db04ae2cc791c7721b60d0a", "type": "electric_scooter", "lat": 38.925271333333335, "is_reserved": 0, "lon": -77.03327283333333, "fusion_lon": 0.0, "is_disabled": 0, "fusion_lat": 0.0, "bike_id": "91e8eb193db04ae2cc791c7721b60d0a", "rental_uris": {"ios": "https://dc.lft.to/lastmile_qr_scan", "android": "https://dc.lft.to/lastmile_qr_scan"}}, {"name": "48d9bc2694560acb3c156800cd3054ab", "type": "electric_scooter", "lat": 38.926326833333334, "is_reserved": 0, "lon": -77.03508016666666, "fusion_lon": 0.0, "is_disabled": 0, "fusion_lat": 0.0, "bike_id": "48d9bc2694560acb3c156800cd3054ab", "rental_uris": {"ios": "https://dc.lft.to/lastmile_qr_scan", "android": "https://dc.lft.to/lastmile_qr_scan"}}, {"name": "5bd578fbcedc780e065b99e0900a9e04", "type": "electric_scooter", "lat": 38.90379033333333, "is_reserved": 0, "lon": -77.04346966666667, "fusion_lon": 0.0, "is_disabled": 0, "fusion_lat": 0.0, "bike_id": "5bd578fbcedc780e065b99e0900a9e04", "rental_uris": {"ios": "https://dc.lft.to/lastmile_qr_scan", "android": "https://dc.lft.to/lastmile_qr_scan"}}, {"name": "4936405c1d3d84190a00c27a1fefce7a", "type": "electric_scooter", "lat": 38.90588866666667, "is_reserved": 0, "lon": -77.06519383333334, "fusion_lon": 0.0, "is_disabled": 0, "fusion_lat": 0.0, "bike_id": "4936405c1d3d84190a00c27a1fefce7a", "rental_uris": {"ios": "https://dc.lft.to/lastmile_qr_scan", "android": "https://dc.lft.to/lastmile_qr_scan"}}, {"name": "d2dcbd837b0d6d6645236523fdae1f6a", "type": "electric_scooter", "lat": 38.919763, "is_reserved": 0, "lon": -77.00107216666666, "fusion_lon": 0.0, "is_disabled": 0, "fusion_lat": 0.0, "bike_id": "d2dcbd837b0d6d6645236523fdae1f6a", "rental_uris": {"ios": "https://dc.lft.to/lastmile_qr_scan", "android": "https://dc.lft.to/lastmile_qr_scan"}}, {"name": "f63801154b1a6a39c947e1f0756ce94e", "type": "electric_scooter", "lat": 38.92751066666667, "is_reserved": 0, "lon": -77.03268266666667, "fusion_lon": 0.0, "is_disabled": 0, "fusion_lat": 0.0, "bike_id": "f63801154b1a6a39c947e1f0756ce94e", "rental_uris": {"ios": "https://dc.lft.to/lastmile_qr_scan", "android": "https://dc.lft.to/lastmile_qr_scan"}}, {"name": "7c326d05de6ea7dbaed00f7ca82ef294", "type": "electric_bike", "lat": 38.95541033333333, "is_reserved": 0, "lon": -77.02294433333333, "fusion_lon": 0.0, "is_disabled": 0, "fusion_lat": 0.0, "bike_id": "7c326d05de6ea7dbaed00f7ca82ef294", "rental_uris": {"ios": "https://dc.lft.to/lastmile_qr_scan", "android": "https://dc.lft.to/lastmile_qr_scan"}}, {"name": "33432fc15e4a5228d6ed5ff2a11b9254", "type": "electric_scooter", "lat": 38.90262083333333, "is_reserved": 0, "lon": -77.0176205, "fusion_lon": 0.0, "is_disabled": 0, "fusion_lat": 0.0, "bike_id": "33432fc15e4a5228d6ed5ff2a11b9254", "rental_uris": {"ios": "https://dc.lft.to/lastmile_qr_scan", "android": "https://dc.lft.to/lastmile_qr_scan"}}, {"name": "9ff0709ba831c826dd13496b6d00dca1", "type": "electric_scooter", "lat": 38.920638333333336, "is_reserved": 0, "lon": -77.0298095, "fusion_lon": 0.0, "is_disabled": 0, "fusion_lat": 0.0, "bike_id": "9ff0709ba831c826dd13496b6d00dca1", "rental_uris": {"ios": "https://dc.lft.to/lastmile_qr_scan", "android": "https://dc.lft.to/lastmile_qr_scan"}}, {"name": "c8577e2a8866905a37835f6130d368a8", "type": "electric_scooter", "lat": 38.923426, "is_reserved": 0, "lon": -77.0190115, "fusion_lon": 0.0, "is_disabled": 0, "fusion_lat": 0.0, "bike_id": "c8577e2a8866905a37835f6130d368a8", "rental_uris": {"ios": "https://dc.lft.to/lastmile_qr_scan", "android": "https://dc.lft.to/lastmile_qr_scan"}}, {"name": "b7638894ac58b7a31b9dfc4c3151db12", "type": "electric_scooter", "lat": 38.8967655, "is_reserved": 0, "lon": -77.029571, "fusion_lon": 0.0, "is_disabled": 0, "fusion_lat": 0.0, "bike_id": "b7638894ac58b7a31b9dfc4c3151db12", "rental_uris": {"ios": "https://dc.lft.to/lastmile_qr_scan", "android": "https://dc.lft.to/lastmile_qr_scan"}}, {"name": "9168a9b94d2b9db4829d6ca0cd8b3cf8", "type": "electric_bike", "lat": 38.946119333333336, "is_reserved": 0, "lon": -77.06980516666667, "fusion_lon": 0.0, "is_disabled": 0, "fusion_lat": 0.0, "bike_id": "9168a9b94d2b9db4829d6ca0cd8b3cf8", "rental_uris": {"ios": "https://dc.lft.to/lastmile_qr_scan", "android": "https://dc.lft.to/lastmile_qr_scan"}}, {"name": "ee1def8aa688c7cd93fb946b2dbfa8b0", "type": "electric_scooter", "lat": 38.90590266666667, "is_reserved": 0, "lon": -77.0651835, "fusion_lon": 0.0, "is_disabled": 0, "fusion_lat": 0.0, "bike_id": "ee1def8aa688c7cd93fb946b2dbfa8b0", "rental_uris": {"ios": "https://dc.lft.to/lastmile_qr_scan", "android": "https://dc.lft.to/lastmile_qr_scan"}}, {"name": "a54c04de08adfd2ca08e153c3c08ea65", "type": "electric_scooter", "lat": 38.920685666666664, "is_reserved": 0, "lon": -76.97807466666667, "fusion_lon": 0.0, "is_disabled": 0, "fusion_lat": 0.0, "bike_id": "a54c04de08adfd2ca08e153c3c08ea65", "rental_uris": {"ios": "https://dc.lft.to/lastmile_qr_scan", "android": "https://dc.lft.to/lastmile_qr_scan"}}, {"name": "a5c1943212618af76d2e6d7843c466f0", "type": "electric_scooter", "lat": 38.9051665, "is_reserved": 0, "lon": -77.06385283333333, "fusion_lon": 0.0, "is_disabled": 0, "fusion_lat": 0.0, "bike_id": "a5c1943212618af76d2e6d7843c466f0", "rental_uris": {"ios": "https://dc.lft.to/lastmile_qr_scan", "android": "https://dc.lft.to/lastmile_qr_scan"}}, {"name": "245ee254511fc851bc7a87ce4706ad31", "type": "electric_scooter", "lat": 38.909720166666666, "is_reserved": 0, "lon": -77.011261, "fusion_lon": 0.0, "is_disabled": 0, "fusion_lat": 0.0, "bike_id": "245ee254511fc851bc7a87ce4706ad31", "rental_uris": {"ios": "https://dc.lft.to/lastmile_qr_scan", "android": "https://dc.lft.to/lastmile_qr_scan"}}, {"name": "4c7c29beef09b14daba4155b4ab83544", "type": "electric_scooter", "lat": 38.862472333333336, "is_reserved": 0, "lon": -76.99500933333333, "fusion_lon": 0.0, "is_disabled": 0, "fusion_lat": 0.0, "bike_id": "4c7c29beef09b14daba4155b4ab83544", "rental_uris": {"ios": "https://dc.lft.to/lastmile_qr_scan", "android": "https://dc.lft.to/lastmile_qr_scan"}}, {"name": "8e244d5f307b2c7ebd491c3d78d014f7", "type": "electric_bike", "lat": 38.96182816666666, "is_reserved": 0, "lon": -77.073693, "fusion_lon": 0.0, "is_disabled": 0, "fusion_lat": 0.0, "bike_id": "8e244d5f307b2c7ebd491c3d78d014f7", "rental_uris": {"ios": "https://dc.lft.to/lastmile_qr_scan", "android": "https://dc.lft.to/lastmile_qr_scan"}}, {"name": "96b1a26c097809d68b287dce7388a20f", "type": "electric_scooter", "lat": 38.8442735, "is_reserved": 0, "lon": -76.9977905, "fusion_lon": 0.0, "is_disabled": 0, "fusion_lat": 0.0, "bike_id": "96b1a26c097809d68b287dce7388a20f", "rental_uris": {"ios": "https://dc.lft.to/lastmile_qr_scan", "android": "https://dc.lft.to/lastmile_qr_scan"}}, {"name": "4f18c892cf2317055e801c4403572787", "type": "electric_scooter", "lat": 38.895072666666664, "is_reserved": 0, "lon": -77.00338133333334, "fusion_lon": 0.0, "is_disabled": 0, "fusion_lat": 0.0, "bike_id": "4f18c892cf2317055e801c4403572787", "rental_uris": {"ios": "https://dc.lft.to/lastmile_qr_scan", "android": "https://dc.lft.to/lastmile_qr_scan"}}, {"name": "e56a71fccbd906bab7ac2f663592758c", "type": "electric_scooter", "lat": 38.91593983333333, "is_reserved": 0, "lon": -76.983914, "fusion_lon": 0.0, "is_disabled": 0, "fusion_lat": 0.0, "bike_id": "e56a71fccbd906bab7ac2f663592758c", "rental_uris": {"ios": "https://dc.lft.to/lastmile_qr_scan", "android": "https://dc.lft.to/lastmile_qr_scan"}}, {"name": "9316bae1f74747125cb80207137ca852", "type": "electric_scooter", "lat": 38.92616016666667, "is_reserved": 0, "lon": -77.0216475, "fusion_lon": 0.0, "is_disabled": 0, "fusion_lat": 0.0, "bike_id": "9316bae1f74747125cb80207137ca852", "rental_uris": {"ios": "https://dc.lft.to/lastmile_qr_scan", "android": "https://dc.lft.to/lastmile_qr_scan"}}, {"name": "be2cc4b9f3ba7638947c7fd15d77d8a3", "type": "electric_bike", "lat": 38.85513816666667, "is_reserved": 0, "lon": -77.1115195, "fusion_lon": 0.0, "is_disabled": 0, "fusion_lat": 0.0, "bike_id": "be2cc4b9f3ba7638947c7fd15d77d8a3", "rental_uris": {"ios": "https://dc.lft.to/lastmile_qr_scan", "android": "https://dc.lft.to/lastmile_qr_scan"}}, {"name": "2ffefcd4b54f70866c7c6bb794897abd", "type": "electric_scooter", "lat": 38.87217583333333, "is_reserved": 0, "lon": -77.00579066666667, "fusion_lon": 0.0, "is_disabled": 0, "fusion_lat": 0.0, "bike_id": "2ffefcd4b54f70866c7c6bb794897abd", "rental_uris": {"ios": "https://dc.lft.to/lastmile_qr_scan", "android": "https://dc.lft.to/lastmile_qr_scan"}}, {"name": "cc6e07e07f41653eb9c9960318ffca40", "type": "electric_scooter", "lat": 38.91559516666667, "is_reserved": 0, "lon": -77.02175016666666, "fusion_lon": 0.0, "is_disabled": 0, "fusion_lat": 0.0, "bike_id": "cc6e07e07f41653eb9c9960318ffca40", "rental_uris": {"ios": "https://dc.lft.to/lastmile_qr_scan", "android": "https://dc.lft.to/lastmile_qr_scan"}}, {"name": "d4a1624f6a709fb736dc9b826e64212c", "type": "electric_scooter", "lat": 38.925176666666665, "is_reserved": 0, "lon": -77.02359283333334, "fusion_lon": 0.0, "is_disabled": 0, "fusion_lat": 0.0, "bike_id": "d4a1624f6a709fb736dc9b826e64212c", "rental_uris": {"ios": "https://dc.lft.to/lastmile_qr_scan", "android": "https://dc.lft.to/lastmile_qr_scan"}}, {"name": "266afe6735f591e33174418a8b729bcb", "type": "electric_scooter", "lat": 38.89887816666667, "is_reserved": 0, "lon": -76.93177783333333, "fusion_lon": 0.0, "is_disabled": 0, "fusion_lat": 0.0, "bike_id": "266afe6735f591e33174418a8b729bcb", "rental_uris": {"ios": "https://dc.lft.to/lastmile_qr_scan", "android": "https://dc.lft.to/lastmile_qr_scan"}}, {"name": "5a9e5c38d1d46d310c9a5f764b30e544", "type": "electric_scooter", "lat": 38.90731133333333, "is_reserved": 0, "lon": -77.0344955, "fusion_lon": 0.0, "is_disabled": 0, "fusion_lat": 0.0, "bike_id": "5a9e5c38d1d46d310c9a5f764b30e544", "rental_uris": {"ios": "https://dc.lft.to/lastmile_qr_scan", "android": "https://dc.lft.to/lastmile_qr_scan"}}, {"name": "a3a1f5e3730d16922c6a4f6d2bb72235", "type": "electric_scooter", "lat": 38.893574, "is_reserved": 0, "lon": -77.00336716666666, "fusion_lon": 0.0, "is_disabled": 0, "fusion_lat": 0.0, "bike_id": "a3a1f5e3730d16922c6a4f6d2bb72235", "rental_uris": {"ios": "https://dc.lft.to/lastmile_qr_scan", "android": "https://dc.lft.to/lastmile_qr_scan"}}, {"name": "0de0d8f8bc2da76a74d90528552c9a24", "type": "electric_scooter", "lat": 38.91198116666666, "is_reserved": 0, "lon": -77.0609645, "fusion_lon": 0.0, "is_disabled": 0, "fusion_lat": 0.0, "bike_id": "0de0d8f8bc2da76a74d90528552c9a24", "rental_uris": {"ios": "https://dc.lft.to/lastmile_qr_scan", "android": "https://dc.lft.to/lastmile_qr_scan"}}, {"name": "3b839cbd14498274aa4991a4e13208ba", "type": "electric_scooter", "lat": 38.904042, "is_reserved": 0, "lon": -77.0435805, "fusion_lon": 0.0, "is_disabled": 0, "fusion_lat": 0.0, "bike_id": "3b839cbd14498274aa4991a4e13208ba", "rental_uris": {"ios": "https://dc.lft.to/lastmile_qr_scan", "android": "https://dc.lft.to/lastmile_qr_scan"}}, {"name": "a59916aa4e7fc07ccea7c03ed44c2791", "type": "electric_scooter", "lat": 38.929918666666666, "is_reserved": 0, "lon": -77.02484083333333, "fusion_lon": 0.0, "is_disabled": 0, "fusion_lat": 0.0, "bike_id": "a59916aa4e7fc07ccea7c03ed44c2791", "rental_uris": {"ios": "https://dc.lft.to/lastmile_qr_scan", "android": "https://dc.lft.to/lastmile_qr_scan"}}, {"name": "9b568e3ad9c27073e302b302c24ecd19", "type": "electric_scooter", "lat": 38.92153283333333, "is_reserved": 0, "lon": -77.03533616666667, "fusion_lon": 0.0, "is_disabled": 0, "fusion_lat": 0.0, "bike_id": "9b568e3ad9c27073e302b302c24ecd19", "rental_uris": {"ios": "https://dc.lft.to/lastmile_qr_scan", "android": "https://dc.lft.to/lastmile_qr_scan"}}, {"name": "2efd468bb7fc465da089be6c5bb6ab29", "type": "electric_scooter", "lat": 38.911999333333334, "is_reserved": 0, "lon": -77.07318683333334, "fusion_lon": 0.0, "is_disabled": 0, "fusion_lat": 0.0, "bike_id": "2efd468bb7fc465da089be6c5bb6ab29", "rental_uris": {"ios": "https://dc.lft.to/lastmile_qr_scan", "android": "https://dc.lft.to/lastmile_qr_scan"}}, {"name": "b9aea2bb64c77012d72533664ce4d63d", "type": "electric_bike", "lat": 38.959612, "is_reserved": 0, "lon": -77.10090566666666, "fusion_lon": 0.0, "is_disabled": 0, "fusion_lat": 0.0, "bike_id": "b9aea2bb64c77012d72533664ce4d63d", "rental_uris": {"ios": "https://dc.lft.to/lastmile_qr_scan", "android": "https://dc.lft.to/lastmile_qr_scan"}}, {"name": "c7461c4adf2fbdb9c675b3a83c4fbc02", "type": "electric_scooter", "lat": 38.909551, "is_reserved": 0, "lon": -77.04863866666666, "fusion_lon": 0.0, "is_disabled": 0, "fusion_lat": 0.0, "bike_id": "c7461c4adf2fbdb9c675b3a83c4fbc02", "rental_uris": {"ios": "https://dc.lft.to/lastmile_qr_scan", "android": "https://dc.lft.to/lastmile_qr_scan"}}, {"name": "f4f1cd8ad246808d0549d7b1cbe3a507", "type": "electric_scooter", "lat": 38.907921, "is_reserved": 0, "lon": -77.009568, "fusion_lon": 0.0, "is_disabled": 0, "fusion_lat": 0.0, "bike_id": "f4f1cd8ad246808d0549d7b1cbe3a507", "rental_uris": {"ios": "https://dc.lft.to/lastmile_qr_scan", "android": "https://dc.lft.to/lastmile_qr_scan"}}, {"name": "9cbc163a12e2ee8f2ad4c5dcaa0e5d01", "type": "electric_scooter", "lat": 38.89550466666667, "is_reserved": 0, "lon": -77.00908783333334, "fusion_lon": 0.0, "is_disabled": 0, "fusion_lat": 0.0, "bike_id": "9cbc163a12e2ee8f2ad4c5dcaa0e5d01", "rental_uris": {"ios": "https://dc.lft.to/lastmile_qr_scan", "android": "https://dc.lft.to/lastmile_qr_scan"}}, {"name": "6b28798318f6b8f93b6462dceb814e75", "type": "electric_scooter", "lat": 38.928514166666666, "is_reserved": 0, "lon": -77.05421683333333, "fusion_lon": 0.0, "is_disabled": 0, "fusion_lat": 0.0, "bike_id": "6b28798318f6b8f93b6462dceb814e75", "rental_uris": {"ios": "https://dc.lft.to/lastmile_qr_scan", "android": "https://dc.lft.to/lastmile_qr_scan"}}, {"name": "b72b7610ada05d2386e9d9e2fcb5f654", "type": "electric_scooter", "lat": 38.89508566666667, "is_reserved": 0, "lon": -77.00340133333333, "fusion_lon": 0.0, "is_disabled": 0, "fusion_lat": 0.0, "bike_id": "b72b7610ada05d2386e9d9e2fcb5f654", "rental_uris": {"ios": "https://dc.lft.to/lastmile_qr_scan", "android": "https://dc.lft.to/lastmile_qr_scan"}}, {"name": "1dfcb05943252001429cf4fa16cd85d5", "type": "electric_scooter", "lat": 38.884989166666664, "is_reserved": 0, "lon": -77.00725866666667, "fusion_lon": 0.0, "is_disabled": 0, "fusion_lat": 0.0, "bike_id": "1dfcb05943252001429cf4fa16cd85d5", "rental_uris": {"ios": "https://dc.lft.to/lastmile_qr_scan", "android": "https://dc.lft.to/lastmile_qr_scan"}}, {"name": "d07f6a2fee493246ec6e3aba838a8166", "type": "electric_scooter", "lat": 38.897441, "is_reserved": 0, "lon": -77.027273, "fusion_lon": 0.0, "is_disabled": 0, "fusion_lat": 0.0, "bike_id": "d07f6a2fee493246ec6e3aba838a8166", "rental_uris": {"ios": "https://dc.lft.to/lastmile_qr_scan", "android": "https://dc.lft.to/lastmile_qr_scan"}}, {"name": "178f8fcc1cac741ace25cc60c5da0f57", "type": "electric_scooter", "lat": 38.90661633333333, "is_reserved": 0, "lon": -77.00914833333333, "fusion_lon": 0.0, "is_disabled": 0, "fusion_lat": 0.0, "bike_id": "178f8fcc1cac741ace25cc60c5da0f57", "rental_uris": {"ios": "https://dc.lft.to/lastmile_qr_scan", "android": "https://dc.lft.to/lastmile_qr_scan"}}, {"name": "2c4063713f6b19dbd3a8d91db8dcf925", "type": "electric_scooter", "lat": 38.929573166666664, "is_reserved": 0, "lon": -77.0234565, "fusion_lon": 0.0, "is_disabled": 0, "fusion_lat": 0.0, "bike_id": "2c4063713f6b19dbd3a8d91db8dcf925", "rental_uris": {"ios": "https://dc.lft.to/lastmile_qr_scan", "android": "https://dc.lft.to/lastmile_qr_scan"}}, {"name": "3e475a1808555eaca1bd6c2657937282", "type": "electric_scooter", "lat": 38.9066905, "is_reserved": 0, "lon": -77.03863316666667, "fusion_lon": 0.0, "is_disabled": 0, "fusion_lat": 0.0, "bike_id": "3e475a1808555eaca1bd6c2657937282", "rental_uris": {"ios": "https://dc.lft.to/lastmile_qr_scan", "android": "https://dc.lft.to/lastmile_qr_scan"}}, {"name": "2c4146c8d893a345a3c0dd259849d163", "type": "electric_scooter", "lat": 38.9157165, "is_reserved": 0, "lon": -77.04689383333333, "fusion_lon": 0.0, "is_disabled": 0, "fusion_lat": 0.0, "bike_id": "2c4146c8d893a345a3c0dd259849d163", "rental_uris": {"ios": "https://dc.lft.to/lastmile_qr_scan", "android": "https://dc.lft.to/lastmile_qr_scan"}}, {"name": "f2890fba6ef8d853cdf51babf3aba799", "type": "electric_scooter", "lat": 38.926875, "is_reserved": 0, "lon": -77.03760316666667, "fusion_lon": 0.0, "is_disabled": 0, "fusion_lat": 0.0, "bike_id": "f2890fba6ef8d853cdf51babf3aba799", "rental_uris": {"ios": "https://dc.lft.to/lastmile_qr_scan", "android": "https://dc.lft.to/lastmile_qr_scan"}}, {"name": "200c4c9b37dfb40dcf9d38dbdc1721c8", "type": "electric_bike", "lat": 38.919613, "is_reserved": 0, "lon": -76.97271016666667, "fusion_lon": 0.0, "is_disabled": 0, "fusion_lat": 0.0, "bike_id": "200c4c9b37dfb40dcf9d38dbdc1721c8", "rental_uris": {"ios": "https://dc.lft.to/lastmile_qr_scan", "android": "https://dc.lft.to/lastmile_qr_scan"}}, {"name": "21289cef2778ec1507907a2a90fd8c2a", "type": "electric_scooter", "lat": 38.949511333333334, "is_reserved": 0, "lon": -77.01617016666667, "fusion_lon": 0.0, "is_disabled": 0, "fusion_lat": 0.0, "bike_id": "21289cef2778ec1507907a2a90fd8c2a", "rental_uris": {"ios": "https://dc.lft.to/lastmile_qr_scan", "android": "https://dc.lft.to/lastmile_qr_scan"}}, {"name": "22ecadd16eb23779160ed3b90f66da84", "type": "electric_scooter", "lat": 38.903386, "is_reserved": 0, "lon": -77.03849933333333, "fusion_lon": 0.0, "is_disabled": 0, "fusion_lat": 0.0, "bike_id": "22ecadd16eb23779160ed3b90f66da84", "rental_uris": {"ios": "https://dc.lft.to/lastmile_qr_scan", "android": "https://dc.lft.to/lastmile_qr_scan"}}, {"name": "f9acc240f30a18fb4117d9fe815ec5fa", "type": "electric_scooter", "lat": 38.923486833333335, "is_reserved": 0, "lon": -77.03484583333334, "fusion_lon": 0.0, "is_disabled": 0, "fusion_lat": 0.0, "bike_id": "f9acc240f30a18fb4117d9fe815ec5fa", "rental_uris": {"ios": "https://dc.lft.to/lastmile_qr_scan", "android": "https://dc.lft.to/lastmile_qr_scan"}}, {"name": "e6505a9a2d60b1412679141ec277eb0e", "type": "electric_scooter", "lat": 38.90070516666667, "is_reserved": 0, "lon": -77.0259755, "fusion_lon": 0.0, "is_disabled": 0, "fusion_lat": 0.0, "bike_id": "e6505a9a2d60b1412679141ec277eb0e", "rental_uris": {"ios": "https://dc.lft.to/lastmile_qr_scan", "android": "https://dc.lft.to/lastmile_qr_scan"}}, {"name": "36d700a83b672fe0ba4a36a204cc5059", "type": "electric_bike", "lat": 38.87481616666667, "is_reserved": 0, "lon": -77.002453, "fusion_lon": 0.0, "is_disabled": 0, "fusion_lat": 0.0, "bike_id": "36d700a83b672fe0ba4a36a204cc5059", "rental_uris": {"ios": "https://dc.lft.to/lastmile_qr_scan", "android": "https://dc.lft.to/lastmile_qr_scan"}}, {"name": "a48f33ab875bd3ddfba7d6d3a615f16d", "type": "electric_scooter", "lat": 38.89876783333333, "is_reserved": 0, "lon": -76.931609, "fusion_lon": 0.0, "is_disabled": 0, "fusion_lat": 0.0, "bike_id": "a48f33ab875bd3ddfba7d6d3a615f16d", "rental_uris": {"ios": "https://dc.lft.to/lastmile_qr_scan", "android": "https://dc.lft.to/lastmile_qr_scan"}}, {"name": "f64744425eeb30b9ae9de66aed8a5fc6", "type": "electric_scooter", "lat": 38.892047166666664, "is_reserved": 0, "lon": -77.00238116666667, "fusion_lon": 0.0, "is_disabled": 0, "fusion_lat": 0.0, "bike_id": "f64744425eeb30b9ae9de66aed8a5fc6", "rental_uris": {"ios": "https://dc.lft.to/lastmile_qr_scan", "android": "https://dc.lft.to/lastmile_qr_scan"}}, {"name": "5b42584cd0bc986938e99820a4a10d63", "type": "electric_scooter", "lat": 38.887806166666664, "is_reserved": 0, "lon": -76.955321, "fusion_lon": 0.0, "is_disabled": 0, "fusion_lat": 0.0, "bike_id": "5b42584cd0bc986938e99820a4a10d63", "rental_uris": {"ios": "https://dc.lft.to/lastmile_qr_scan", "android": "https://dc.lft.to/lastmile_qr_scan"}}, {"name": "87b12437a26c7b2a1faa22a151863306", "type": "electric_scooter", "lat": 38.8853555, "is_reserved": 0, "lon": -77.005811, "fusion_lon": 0.0, "is_disabled": 0, "fusion_lat": 0.0, "bike_id": "87b12437a26c7b2a1faa22a151863306", "rental_uris": {"ios": "https://dc.lft.to/lastmile_qr_scan", "android": "https://dc.lft.to/lastmile_qr_scan"}}, {"name": "da18256843b99037216008bc67bc0563", "type": "electric_scooter", "lat": 38.93350816666667, "is_reserved": 0, "lon": -77.069378, "fusion_lon": 0.0, "is_disabled": 0, "fusion_lat": 0.0, "bike_id": "da18256843b99037216008bc67bc0563", "rental_uris": {"ios": "https://dc.lft.to/lastmile_qr_scan", "android": "https://dc.lft.to/lastmile_qr_scan"}}, {"name": "fe2b7889b2203ab402a4d8943a2fca7b", "type": "electric_scooter", "lat": 38.89915716666667, "is_reserved": 0, "lon": -77.0394385, "fusion_lon": 0.0, "is_disabled": 0, "fusion_lat": 0.0, "bike_id": "fe2b7889b2203ab402a4d8943a2fca7b", "rental_uris": {"ios": "https://dc.lft.to/lastmile_qr_scan", "android": "https://dc.lft.to/lastmile_qr_scan"}}, {"name": "2181a3e76737a6a4c16b1ae14f7688db", "type": "electric_scooter", "lat": 38.90281866666667, "is_reserved": 0, "lon": -77.03842916666666, "fusion_lon": 0.0, "is_disabled": 0, "fusion_lat": 0.0, "bike_id": "2181a3e76737a6a4c16b1ae14f7688db", "rental_uris": {"ios": "https://dc.lft.to/lastmile_qr_scan", "android": "https://dc.lft.to/lastmile_qr_scan"}}, {"name": "3e47c3e6641e2872af809e019ab96b72", "type": "electric_scooter", "lat": 38.9199275, "is_reserved": 0, "lon": -77.03468883333333, "fusion_lon": 0.0, "is_disabled": 0, "fusion_lat": 0.0, "bike_id": "3e47c3e6641e2872af809e019ab96b72", "rental_uris": {"ios": "https://dc.lft.to/lastmile_qr_scan", "android": "https://dc.lft.to/lastmile_qr_scan"}}, {"name": "ed547699fdbfba8eee8eab884ddbae7c", "type": "electric_scooter", "lat": 38.897442, "is_reserved": 0, "lon": -77.04493283333333, "fusion_lon": 0.0, "is_disabled": 0, "fusion_lat": 0.0, "bike_id": "ed547699fdbfba8eee8eab884ddbae7c", "rental_uris": {"ios": "https://dc.lft.to/lastmile_qr_scan", "android": "https://dc.lft.to/lastmile_qr_scan"}}, {"name": "b598a36a714edf02e83843af7e5cde07", "type": "electric_scooter", "lat": 38.897241, "is_reserved": 0, "lon": -77.03266133333334, "fusion_lon": 0.0, "is_disabled": 0, "fusion_lat": 0.0, "bike_id": "b598a36a714edf02e83843af7e5cde07", "rental_uris": {"ios": "https://dc.lft.to/lastmile_qr_scan", "android": "https://dc.lft.to/lastmile_qr_scan"}}, {"name": "0ff2a9e9df45d5686c110c5aed229d73", "type": "electric_scooter", "lat": 38.90277566666666, "is_reserved": 0, "lon": -77.03075066666666, "fusion_lon": 0.0, "is_disabled": 0, "fusion_lat": 0.0, "bike_id": "0ff2a9e9df45d5686c110c5aed229d73", "rental_uris": {"ios": "https://dc.lft.to/lastmile_qr_scan", "android": "https://dc.lft.to/lastmile_qr_scan"}}, {"name": "c6efa01f80e5eb9d8d1463552a86f3d9", "type": "electric_bike", "lat": 38.83143866666666, "is_reserved": 0, "lon": -77.11317766666667, "fusion_lon": 0.0, "is_disabled": 0, "fusion_lat": 0.0, "bike_id": "c6efa01f80e5eb9d8d1463552a86f3d9", "rental_uris": {"ios": "https://dc.lft.to/lastmile_qr_scan", "android": "https://dc.lft.to/lastmile_qr_scan"}}, {"name": "2d1ed2b70aa861cbc5ec18b86b4d9c36", "type": "electric_scooter", "lat": 38.937153333333335, "is_reserved": 0, "lon": -77.0293865, "fusion_lon": 0.0, "is_disabled": 0, "fusion_lat": 0.0, "bike_id": "2d1ed2b70aa861cbc5ec18b86b4d9c36", "rental_uris": {"ios": "https://dc.lft.to/lastmile_qr_scan", "android": "https://dc.lft.to/lastmile_qr_scan"}}, {"name": "375abdc4a07485ce91ed58e78ea2c0e3", "type": "electric_scooter", "lat": 38.90038366666667, "is_reserved": 0, "lon": -77.002039, "fusion_lon": 0.0, "is_disabled": 0, "fusion_lat": 0.0, "bike_id": "375abdc4a07485ce91ed58e78ea2c0e3", "rental_uris": {"ios": "https://dc.lft.to/lastmile_qr_scan", "android": "https://dc.lft.to/lastmile_qr_scan"}}, {"name": "0b686b1433cdc8ac06218e6af3bce8de", "type": "electric_scooter", "lat": 38.885133333333336, "is_reserved": 0, "lon": -77.00573216666666, "fusion_lon": 0.0, "is_disabled": 0, "fusion_lat": 0.0, "bike_id": "0b686b1433cdc8ac06218e6af3bce8de", "rental_uris": {"ios": "https://dc.lft.to/lastmile_qr_scan", "android": "https://dc.lft.to/lastmile_qr_scan"}}, {"name": "a0047d3cc3a7dcab8d615d96060f1732", "type": "electric_scooter", "lat": 38.903789833333335, "is_reserved": 0, "lon": -77.00986633333333, "fusion_lon": 0.0, "is_disabled": 0, "fusion_lat": 0.0, "bike_id": "a0047d3cc3a7dcab8d615d96060f1732", "rental_uris": {"ios": "https://dc.lft.to/lastmile_qr_scan", "android": "https://dc.lft.to/lastmile_qr_scan"}}, {"name": "5bd87906e95c0bf14ada2c0b306858d5", "type": "electric_scooter", "lat": 38.93436066666666, "is_reserved": 0, "lon": -77.04000683333334, "fusion_lon": 0.0, "is_disabled": 0, "fusion_lat": 0.0, "bike_id": "5bd87906e95c0bf14ada2c0b306858d5", "rental_uris": {"ios": "https://dc.lft.to/lastmile_qr_scan", "android": "https://dc.lft.to/lastmile_qr_scan"}}, {"name": "b73967d65ad941bdbead7d2f8a02845c", "type": "electric_scooter", "lat": 38.89221383333334, "is_reserved": 0, "lon": -77.030847, "fusion_lon": 0.0, "is_disabled": 0, "fusion_lat": 0.0, "bike_id": "b73967d65ad941bdbead7d2f8a02845c", "rental_uris": {"ios": "https://dc.lft.to/lastmile_qr_scan", "android": "https://dc.lft.to/lastmile_qr_scan"}}, {"name": "94478c146d156aee1b92b772ca5e89ec", "type": "electric_scooter", "lat": 38.897364333333336, "is_reserved": 0, "lon": -77.0269455, "fusion_lon": 0.0, "is_disabled": 0, "fusion_lat": 0.0, "bike_id": "94478c146d156aee1b92b772ca5e89ec", "rental_uris": {"ios": "https://dc.lft.to/lastmile_qr_scan", "android": "https://dc.lft.to/lastmile_qr_scan"}}, {"name": "8b8574b2de57e0bb67abc3642eb5111e", "type": "electric_scooter", "lat": 38.894816, "is_reserved": 0, "lon": -76.94873783333334, "fusion_lon": 0.0, "is_disabled": 0, "fusion_lat": 0.0, "bike_id": "8b8574b2de57e0bb67abc3642eb5111e", "rental_uris": {"ios": "https://dc.lft.to/lastmile_qr_scan", "android": "https://dc.lft.to/lastmile_qr_scan"}}, {"name": "870cc41fd56a1a3d0da23d6aa4afb38a", "type": "electric_scooter", "lat": 38.90100733333333, "is_reserved": 0, "lon": -77.0192225, "fusion_lon": 0.0, "is_disabled": 0, "fusion_lat": 0.0, "bike_id": "870cc41fd56a1a3d0da23d6aa4afb38a", "rental_uris": {"ios": "https://dc.lft.to/lastmile_qr_scan", "android": "https://dc.lft.to/lastmile_qr_scan"}}, {"name": "0572b490a011ef9eca782e47e24cd58d", "type": "electric_bike", "lat": 38.83721216666667, "is_reserved": 0, "lon": -76.99767633333333, "fusion_lon": 0.0, "is_disabled": 0, "fusion_lat": 0.0, "bike_id": "0572b490a011ef9eca782e47e24cd58d", "rental_uris": {"ios": "https://dc.lft.to/lastmile_qr_scan", "android": "https://dc.lft.to/lastmile_qr_scan"}}, {"name": "d43a0c8588f9211a50f8d737e3abccea", "type": "electric_scooter", "lat": 38.924915666666664, "is_reserved": 0, "lon": -77.02715966666666, "fusion_lon": 0.0, "is_disabled": 0, "fusion_lat": 0.0, "bike_id": "d43a0c8588f9211a50f8d737e3abccea", "rental_uris": {"ios": "https://dc.lft.to/lastmile_qr_scan", "android": "https://dc.lft.to/lastmile_qr_scan"}}, {"name": "2f3102e17d33b1dc3298fb6a04f622cf", "type": "electric_scooter", "lat": 38.928587, "is_reserved": 0, "lon": -77.01382266666667, "fusion_lon": 0.0, "is_disabled": 0, "fusion_lat": 0.0, "bike_id": "2f3102e17d33b1dc3298fb6a04f622cf", "rental_uris": {"ios": "https://dc.lft.to/lastmile_qr_scan", "android": "https://dc.lft.to/lastmile_qr_scan"}}, {"name": "d40e6e09b9668a9906dda0865923284d", "type": "electric_scooter", "lat": 38.9060765, "is_reserved": 0, "lon": -77.05105383333333, "fusion_lon": 0.0, "is_disabled": 0, "fusion_lat": 0.0, "bike_id": "d40e6e09b9668a9906dda0865923284d", "rental_uris": {"ios": "https://dc.lft.to/lastmile_qr_scan", "android": "https://dc.lft.to/lastmile_qr_scan"}}, {"name": "00b57d2f71e118b67da016eb703bc7e2", "type": "electric_scooter", "lat": 38.914253333333335, "is_reserved": 0, "lon": -77.04651766666667, "fusion_lon": 0.0, "is_disabled": 0, "fusion_lat": 0.0, "bike_id": "00b57d2f71e118b67da016eb703bc7e2", "rental_uris": {"ios": "https://dc.lft.to/lastmile_qr_scan", "android": "https://dc.lft.to/lastmile_qr_scan"}}, {"name": "da90a42360eb9d0171752f3c26d2b6db", "type": "electric_scooter", "lat": 38.93979733333333, "is_reserved": 0, "lon": -77.0325785, "fusion_lon": 0.0, "is_disabled": 0, "fusion_lat": 0.0, "bike_id": "da90a42360eb9d0171752f3c26d2b6db", "rental_uris": {"ios": "https://dc.lft.to/lastmile_qr_scan", "android": "https://dc.lft.to/lastmile_qr_scan"}}, {"name": "933b4a8a5eac54bc5b02c967caff4ede", "type": "electric_bike", "lat": 38.9507705, "is_reserved": 0, "lon": -77.012072, "fusion_lon": 0.0, "is_disabled": 0, "fusion_lat": 0.0, "bike_id": "933b4a8a5eac54bc5b02c967caff4ede", "rental_uris": {"ios": "https://dc.lft.to/lastmile_qr_scan", "android": "https://dc.lft.to/lastmile_qr_scan"}}, {"name": "7c0fb0204616621d747de36a4aa239cd", "type": "electric_scooter", "lat": 38.90684733333333, "is_reserved": 0, "lon": -77.02480583333333, "fusion_lon": 0.0, "is_disabled": 0, "fusion_lat": 0.0, "bike_id": "7c0fb0204616621d747de36a4aa239cd", "rental_uris": {"ios": "https://dc.lft.to/lastmile_qr_scan", "android": "https://dc.lft.to/lastmile_qr_scan"}}, {"name": "4de2953b2c59735ab17a67cc81a0b857", "type": "electric_scooter", "lat": 38.863753, "is_reserved": 0, "lon": -77.01359933333333, "fusion_lon": 0.0, "is_disabled": 0, "fusion_lat": 0.0, "bike_id": "4de2953b2c59735ab17a67cc81a0b857", "rental_uris": {"ios": "https://dc.lft.to/lastmile_qr_scan", "android": "https://dc.lft.to/lastmile_qr_scan"}}, {"name": "6a538376a6ad1f7b5f7c0ad81c88ea0c", "type": "electric_scooter", "lat": 38.90465716666667, "is_reserved": 0, "lon": -77.034632, "fusion_lon": 0.0, "is_disabled": 0, "fusion_lat": 0.0, "bike_id": "6a538376a6ad1f7b5f7c0ad81c88ea0c", "rental_uris": {"ios": "https://dc.lft.to/lastmile_qr_scan", "android": "https://dc.lft.to/lastmile_qr_scan"}}, {"name": "a5feddcfb4ca1acb403619735ec2ddb8", "type": "electric_scooter", "lat": 38.9296235, "is_reserved": 0, "lon": -77.01149, "fusion_lon": 0.0, "is_disabled": 0, "fusion_lat": 0.0, "bike_id": "a5feddcfb4ca1acb403619735ec2ddb8", "rental_uris": {"ios": "https://dc.lft.to/lastmile_qr_scan", "android": "https://dc.lft.to/lastmile_qr_scan"}}, {"name": "3275c8515ab58bd7c2a5a121990af096", "type": "electric_scooter", "lat": 38.90733066666667, "is_reserved": 0, "lon": -77.04353383333333, "fusion_lon": 0.0, "is_disabled": 0, "fusion_lat": 0.0, "bike_id": "3275c8515ab58bd7c2a5a121990af096", "rental_uris": {"ios": "https://dc.lft.to/lastmile_qr_scan", "android": "https://dc.lft.to/lastmile_qr_scan"}}, {"name": "6b6e529aa110433be597cefa7c167fe5", "type": "electric_scooter", "lat": 38.96113833333333, "is_reserved": 0, "lon": -77.02814016666666, "fusion_lon": 0.0, "is_disabled": 0, "fusion_lat": 0.0, "bike_id": "6b6e529aa110433be597cefa7c167fe5", "rental_uris": {"ios": "https://dc.lft.to/lastmile_qr_scan", "android": "https://dc.lft.to/lastmile_qr_scan"}}, {"name": "f3d0095ccd5f531790169ab248fb9571", "type": "electric_bike", "lat": 38.8457425, "is_reserved": 0, "lon": -77.09625416666667, "fusion_lon": 0.0, "is_disabled": 0, "fusion_lat": 0.0, "bike_id": "f3d0095ccd5f531790169ab248fb9571", "rental_uris": {"ios": "https://dc.lft.to/lastmile_qr_scan", "android": "https://dc.lft.to/lastmile_qr_scan"}}, {"name": "0887d741230bab432c4eb6dcf5733d7f", "type": "electric_scooter", "lat": 38.919397833333335, "is_reserved": 0, "lon": -77.044913, "fusion_lon": 0.0, "is_disabled": 0, "fusion_lat": 0.0, "bike_id": "0887d741230bab432c4eb6dcf5733d7f", "rental_uris": {"ios": "https://dc.lft.to/lastmile_qr_scan", "android": "https://dc.lft.to/lastmile_qr_scan"}}, {"name": "7056072d64283634aef3f9f44261bcf1", "type": "electric_scooter", "lat": 38.893488, "is_reserved": 0, "lon": -76.99384183333333, "fusion_lon": 0.0, "is_disabled": 0, "fusion_lat": 0.0, "bike_id": "7056072d64283634aef3f9f44261bcf1", "rental_uris": {"ios": "https://dc.lft.to/lastmile_qr_scan", "android": "https://dc.lft.to/lastmile_qr_scan"}}, {"name": "9dbee5758b972c5e78386c1eb8676344", "type": "electric_scooter", "lat": 38.90231216666667, "is_reserved": 0, "lon": -77.0444165, "fusion_lon": 0.0, "is_disabled": 0, "fusion_lat": 0.0, "bike_id": "9dbee5758b972c5e78386c1eb8676344", "rental_uris": {"ios": "https://dc.lft.to/lastmile_qr_scan", "android": "https://dc.lft.to/lastmile_qr_scan"}}, {"name": "31bd27535afcc0a578726433f9836082", "type": "electric_bike", "lat": 38.908679166666666, "is_reserved": 0, "lon": -76.93163016666666, "fusion_lon": 0.0, "is_disabled": 0, "fusion_lat": 0.0, "bike_id": "31bd27535afcc0a578726433f9836082", "rental_uris": {"ios": "https://dc.lft.to/lastmile_qr_scan", "android": "https://dc.lft.to/lastmile_qr_scan"}}, {"name": "bbf5c2ecd8ad734843aedfbf6daf4051", "type": "electric_scooter", "lat": 38.907179, "is_reserved": 0, "lon": -77.03065383333333, "fusion_lon": 0.0, "is_disabled": 0, "fusion_lat": 0.0, "bike_id": "bbf5c2ecd8ad734843aedfbf6daf4051", "rental_uris": {"ios": "https://dc.lft.to/lastmile_qr_scan", "android": "https://dc.lft.to/lastmile_qr_scan"}}, {"name": "514730e7a1081e4e2b8fc131ed5ef936", "type": "electric_scooter", "lat": 38.92051566666667, "is_reserved": 0, "lon": -76.99821466666667, "fusion_lon": 0.0, "is_disabled": 0, "fusion_lat": 0.0, "bike_id": "514730e7a1081e4e2b8fc131ed5ef936", "rental_uris": {"ios": "https://dc.lft.to/lastmile_qr_scan", "android": "https://dc.lft.to/lastmile_qr_scan"}}, {"name": "58bd114b81d02c2531ed74f7115b47ca", "type": "electric_bike", "lat": 38.990658, "is_reserved": 0, "lon": -77.10028766666667, "fusion_lon": 0.0, "is_disabled": 0, "fusion_lat": 0.0, "bike_id": "58bd114b81d02c2531ed74f7115b47ca", "rental_uris": {"ios": "https://dc.lft.to/lastmile_qr_scan", "android": "https://dc.lft.to/lastmile_qr_scan"}}, {"name": "370ebb434d9b7300561b16576146d355", "type": "electric_scooter", "lat": 38.85326283333333, "is_reserved": 0, "lon": -76.980077, "fusion_lon": 0.0, "is_disabled": 0, "fusion_lat": 0.0, "bike_id": "370ebb434d9b7300561b16576146d355", "rental_uris": {"ios": "https://dc.lft.to/lastmile_qr_scan", "android": "https://dc.lft.to/lastmile_qr_scan"}}, {"name": "ddf8af1622e6fe191434f192af6ac773", "type": "electric_bike", "lat": 38.873013666666665, "is_reserved": 0, "lon": -77.01090233333333, "fusion_lon": 0.0, "is_disabled": 0, "fusion_lat": 0.0, "bike_id": "ddf8af1622e6fe191434f192af6ac773", "rental_uris": {"ios": "https://dc.lft.to/lastmile_qr_scan", "android": "https://dc.lft.to/lastmile_qr_scan"}}, {"name": "fa8f3c245b1235e966e8bddad3b5b01f", "type": "electric_scooter", "lat": 38.889919, "is_reserved": 0, "lon": -77.003352, "fusion_lon": 0.0, "is_disabled": 0, "fusion_lat": 0.0, "bike_id": "fa8f3c245b1235e966e8bddad3b5b01f", "rental_uris": {"ios": "https://dc.lft.to/lastmile_qr_scan", "android": "https://dc.lft.to/lastmile_qr_scan"}}, {"name": "9e4be6f97c6257e3f3ae25cc98a71c55", "type": "electric_scooter", "lat": 38.93955016666666, "is_reserved": 0, "lon": -77.03263016666666, "fusion_lon": 0.0, "is_disabled": 0, "fusion_lat": 0.0, "bike_id": "9e4be6f97c6257e3f3ae25cc98a71c55", "rental_uris": {"ios": "https://dc.lft.to/lastmile_qr_scan", "android": "https://dc.lft.to/lastmile_qr_scan"}}, {"name": "21eb38862408e32c89723ec6753a10fd", "type": "electric_scooter", "lat": 38.92340016666667, "is_reserved": 0, "lon": -77.03662383333334, "fusion_lon": 0.0, "is_disabled": 0, "fusion_lat": 0.0, "bike_id": "21eb38862408e32c89723ec6753a10fd", "rental_uris": {"ios": "https://dc.lft.to/lastmile_qr_scan", "android": "https://dc.lft.to/lastmile_qr_scan"}}, {"name": "a4c530326ca9c65642e555bc51e9ef72", "type": "electric_scooter", "lat": 38.88321916666666, "is_reserved": 0, "lon": -77.01752866666666, "fusion_lon": 0.0, "is_disabled": 0, "fusion_lat": 0.0, "bike_id": "a4c530326ca9c65642e555bc51e9ef72", "rental_uris": {"ios": "https://dc.lft.to/lastmile_qr_scan", "android": "https://dc.lft.to/lastmile_qr_scan"}}, {"name": "03e7c67e3f29212f53f52ae4323abee0", "type": "electric_scooter", "lat": 38.9295105, "is_reserved": 0, "lon": -77.0346795, "fusion_lon": 0.0, "is_disabled": 0, "fusion_lat": 0.0, "bike_id": "03e7c67e3f29212f53f52ae4323abee0", "rental_uris": {"ios": "https://dc.lft.to/lastmile_qr_scan", "android": "https://dc.lft.to/lastmile_qr_scan"}}, {"name": "ce08dc812e14fe0cd0c1f0b969f6aa4b", "type": "electric_scooter", "lat": 38.94775333333333, "is_reserved": 0, "lon": -77.06540583333333, "fusion_lon": 0.0, "is_disabled": 0, "fusion_lat": 0.0, "bike_id": "ce08dc812e14fe0cd0c1f0b969f6aa4b", "rental_uris": {"ios": "https://dc.lft.to/lastmile_qr_scan", "android": "https://dc.lft.to/lastmile_qr_scan"}}, {"name": "d54d9138c6fdfd1a67f205a2d6885878", "type": "electric_scooter", "lat": 38.9018525, "is_reserved": 0, "lon": -77.04659966666667, "fusion_lon": 0.0, "is_disabled": 0, "fusion_lat": 0.0, "bike_id": "d54d9138c6fdfd1a67f205a2d6885878", "rental_uris": {"ios": "https://dc.lft.to/lastmile_qr_scan", "android": "https://dc.lft.to/lastmile_qr_scan"}}, {"name": "e0846df65d07a0e6fbec16e3a20bc634", "type": "electric_scooter", "lat": 38.900495666666664, "is_reserved": 0, "lon": -77.0220365, "fusion_lon": 0.0, "is_disabled": 0, "fusion_lat": 0.0, "bike_id": "e0846df65d07a0e6fbec16e3a20bc634", "rental_uris": {"ios": "https://dc.lft.to/lastmile_qr_scan", "android": "https://dc.lft.to/lastmile_qr_scan"}}, {"name": "70388a9ee6651cb20620eadf060dafe6", "type": "electric_scooter", "lat": 38.922644, "is_reserved": 0, "lon": -77.04140883333334, "fusion_lon": 0.0, "is_disabled": 0, "fusion_lat": 0.0, "bike_id": "70388a9ee6651cb20620eadf060dafe6", "rental_uris": {"ios": "https://dc.lft.to/lastmile_qr_scan", "android": "https://dc.lft.to/lastmile_qr_scan"}}, {"name": "128050540723b2773d9648564ea983a9", "type": "electric_scooter", "lat": 38.9408205, "is_reserved": 0, "lon": -77.0269865, "fusion_lon": 0.0, "is_disabled": 0, "fusion_lat": 0.0, "bike_id": "128050540723b2773d9648564ea983a9", "rental_uris": {"ios": "https://dc.lft.to/lastmile_qr_scan", "android": "https://dc.lft.to/lastmile_qr_scan"}}, {"name": "91c32a789e8e2a9bf33ec5094992ac31", "type": "electric_scooter", "lat": 38.895546833333334, "is_reserved": 0, "lon": -77.04159, "fusion_lon": 0.0, "is_disabled": 0, "fusion_lat": 0.0, "bike_id": "91c32a789e8e2a9bf33ec5094992ac31", "rental_uris": {"ios": "https://dc.lft.to/lastmile_qr_scan", "android": "https://dc.lft.to/lastmile_qr_scan"}}, {"name": "904dd6d20f3ba3f01298ed8d804114c4", "type": "electric_scooter", "lat": 38.920221, "is_reserved": 0, "lon": -77.0315775, "fusion_lon": 0.0, "is_disabled": 0, "fusion_lat": 0.0, "bike_id": "904dd6d20f3ba3f01298ed8d804114c4", "rental_uris": {"ios": "https://dc.lft.to/lastmile_qr_scan", "android": "https://dc.lft.to/lastmile_qr_scan"}}, {"name": "e0bbeff58a03dce39a193da41291a3bd", "type": "electric_scooter", "lat": 38.93973733333333, "is_reserved": 0, "lon": -77.03259216666666, "fusion_lon": 0.0, "is_disabled": 0, "fusion_lat": 0.0, "bike_id": "e0bbeff58a03dce39a193da41291a3bd", "rental_uris": {"ios": "https://dc.lft.to/lastmile_qr_scan", "android": "https://dc.lft.to/lastmile_qr_scan"}}, {"name": "5b60bf86835775434730384449c6ef3c", "type": "electric_scooter", "lat": 38.9698085, "is_reserved": 0, "lon": -77.02714383333333, "fusion_lon": 0.0, "is_disabled": 0, "fusion_lat": 0.0, "bike_id": "5b60bf86835775434730384449c6ef3c", "rental_uris": {"ios": "https://dc.lft.to/lastmile_qr_scan", "android": "https://dc.lft.to/lastmile_qr_scan"}}, {"name": "91a6dcebcbb660f1f7856809130907a1", "type": "electric_scooter", "lat": 38.842915166666664, "is_reserved": 0, "lon": -76.99949666666667, "fusion_lon": 0.0, "is_disabled": 0, "fusion_lat": 0.0, "bike_id": "91a6dcebcbb660f1f7856809130907a1", "rental_uris": {"ios": "https://dc.lft.to/lastmile_qr_scan", "android": "https://dc.lft.to/lastmile_qr_scan"}}, {"name": "edbc333db6d966bdbef3b0ab6166f744", "type": "electric_scooter", "lat": 38.86704433333333, "is_reserved": 0, "lon": -76.98712016666667, "fusion_lon": 0.0, "is_disabled": 0, "fusion_lat": 0.0, "bike_id": "edbc333db6d966bdbef3b0ab6166f744", "rental_uris": {"ios": "https://dc.lft.to/lastmile_qr_scan", "android": "https://dc.lft.to/lastmile_qr_scan"}}, {"name": "89ca65e68743eec418aca53b689adaaa", "type": "electric_scooter", "lat": 38.87688833333333, "is_reserved": 0, "lon": -77.000702, "fusion_lon": 0.0, "is_disabled": 0, "fusion_lat": 0.0, "bike_id": "89ca65e68743eec418aca53b689adaaa", "rental_uris": {"ios": "https://dc.lft.to/lastmile_qr_scan", "android": "https://dc.lft.to/lastmile_qr_scan"}}, {"name": "7804baf74a93d286c5b4731373ea0f9c", "type": "electric_scooter", "lat": 38.905476166666666, "is_reserved": 0, "lon": -77.00549583333333, "fusion_lon": 0.0, "is_disabled": 0, "fusion_lat": 0.0, "bike_id": "7804baf74a93d286c5b4731373ea0f9c", "rental_uris": {"ios": "https://dc.lft.to/lastmile_qr_scan", "android": "https://dc.lft.to/lastmile_qr_scan"}}, {"name": "d093a3f4a6bea78d9b4b718ee683b6ab", "type": "electric_scooter", "lat": 38.903265166666664, "is_reserved": 0, "lon": -77.03849866666667, "fusion_lon": 0.0, "is_disabled": 0, "fusion_lat": 0.0, "bike_id": "d093a3f4a6bea78d9b4b718ee683b6ab", "rental_uris": {"ios": "https://dc.lft.to/lastmile_qr_scan", "android": "https://dc.lft.to/lastmile_qr_scan"}}, {"name": "00ae6a3e15bb46cc897896eeb547b3a5", "type": "electric_scooter", "lat": 38.89741466666667, "is_reserved": 0, "lon": -77.013164, "fusion_lon": 0.0, "is_disabled": 0, "fusion_lat": 0.0, "bike_id": "00ae6a3e15bb46cc897896eeb547b3a5", "rental_uris": {"ios": "https://dc.lft.to/lastmile_qr_scan", "android": "https://dc.lft.to/lastmile_qr_scan"}}, {"name": "a73e2458bc32d6cdd8c92af70f4aa21a", "type": "electric_scooter", "lat": 38.927430333333334, "is_reserved": 0, "lon": -77.01201783333333, "fusion_lon": 0.0, "is_disabled": 0, "fusion_lat": 0.0, "bike_id": "a73e2458bc32d6cdd8c92af70f4aa21a", "rental_uris": {"ios": "https://dc.lft.to/lastmile_qr_scan", "android": "https://dc.lft.to/lastmile_qr_scan"}}, {"name": "8828f5d51705bdfcbcf3ca51ad77e7d5", "type": "electric_scooter", "lat": 38.92012366666667, "is_reserved": 0, "lon": -77.03882183333333, "fusion_lon": 0.0, "is_disabled": 0, "fusion_lat": 0.0, "bike_id": "8828f5d51705bdfcbcf3ca51ad77e7d5", "rental_uris": {"ios": "https://dc.lft.to/lastmile_qr_scan", "android": "https://dc.lft.to/lastmile_qr_scan"}}, {"name": "3b41001bf9b9244a2d3b4614196cb113", "type": "electric_scooter", "lat": 38.904153666666666, "is_reserved": 0, "lon": -77.0298625, "fusion_lon": 0.0, "is_disabled": 0, "fusion_lat": 0.0, "bike_id": "3b41001bf9b9244a2d3b4614196cb113", "rental_uris": {"ios": "https://dc.lft.to/lastmile_qr_scan", "android": "https://dc.lft.to/lastmile_qr_scan"}}, {"name": "486c6c00455f1d51bbdbd98de64c994d", "type": "electric_scooter", "lat": 38.91338066666667, "is_reserved": 0, "lon": -77.031211, "fusion_lon": 0.0, "is_disabled": 0, "fusion_lat": 0.0, "bike_id": "486c6c00455f1d51bbdbd98de64c994d", "rental_uris": {"ios": "https://dc.lft.to/lastmile_qr_scan", "android": "https://dc.lft.to/lastmile_qr_scan"}}, {"name": "82645426bad8df6615e9ef45caad77e6", "type": "electric_scooter", "lat": 38.949565, "is_reserved": 0, "lon": -77.07930183333333, "fusion_lon": 0.0, "is_disabled": 0, "fusion_lat": 0.0, "bike_id": "82645426bad8df6615e9ef45caad77e6", "rental_uris": {"ios": "https://dc.lft.to/lastmile_qr_scan", "android": "https://dc.lft.to/lastmile_qr_scan"}}, {"name": "97fc9142905375323c50b9cd79dd1333", "type": "electric_scooter", "lat": 38.899860333333336, "is_reserved": 0, "lon": -77.02931616666666, "fusion_lon": 0.0, "is_disabled": 0, "fusion_lat": 0.0, "bike_id": "97fc9142905375323c50b9cd79dd1333", "rental_uris": {"ios": "https://dc.lft.to/lastmile_qr_scan", "android": "https://dc.lft.to/lastmile_qr_scan"}}, {"name": "065c792ad1a5a8a16708eef64c7afa4d", "type": "electric_scooter", "lat": 38.884145833333335, "is_reserved": 0, "lon": -76.97606466666667, "fusion_lon": 0.0, "is_disabled": 0, "fusion_lat": 0.0, "bike_id": "065c792ad1a5a8a16708eef64c7afa4d", "rental_uris": {"ios": "https://dc.lft.to/lastmile_qr_scan", "android": "https://dc.lft.to/lastmile_qr_scan"}}, {"name": "471a8f1fd11f5e0e7488ceacf66c41aa", "type": "electric_bike", "lat": 38.98465316666667, "is_reserved": 0, "lon": -76.955278, "fusion_lon": 0.0, "is_disabled": 0, "fusion_lat": 0.0, "bike_id": "471a8f1fd11f5e0e7488ceacf66c41aa", "rental_uris": {"ios": "https://dc.lft.to/lastmile_qr_scan", "android": "https://dc.lft.to/lastmile_qr_scan"}}, {"name": "450dd4f779eb1d89b645cb84e99631ce", "type": "electric_scooter", "lat": 38.8872335, "is_reserved": 0, "lon": -77.02581466666666, "fusion_lon": 0.0, "is_disabled": 0, "fusion_lat": 0.0, "bike_id": "450dd4f779eb1d89b645cb84e99631ce", "rental_uris": {"ios": "https://dc.lft.to/lastmile_qr_scan", "android": "https://dc.lft.to/lastmile_qr_scan"}}, {"name": "49354f7d8e49fbde6df60e2cdaeafd05", "type": "electric_scooter", "lat": 38.922397, "is_reserved": 0, "lon": -77.03516083333334, "fusion_lon": 0.0, "is_disabled": 0, "fusion_lat": 0.0, "bike_id": "49354f7d8e49fbde6df60e2cdaeafd05", "rental_uris": {"ios": "https://dc.lft.to/lastmile_qr_scan", "android": "https://dc.lft.to/lastmile_qr_scan"}}, {"name": "aca5b6128b8fbe77c21ed8ec5ba57c02", "type": "electric_scooter", "lat": 38.92757366666667, "is_reserved": 0, "lon": -77.05376, "fusion_lon": 0.0, "is_disabled": 0, "fusion_lat": 0.0, "bike_id": "aca5b6128b8fbe77c21ed8ec5ba57c02", "rental_uris": {"ios": "https://dc.lft.to/lastmile_qr_scan", "android": "https://dc.lft.to/lastmile_qr_scan"}}, {"name": "712855a52fa01e170edb197d6f99a7a7", "type": "electric_scooter", "lat": 38.900627, "is_reserved": 0, "lon": -77.00743, "fusion_lon": 0.0, "is_disabled": 0, "fusion_lat": 0.0, "bike_id": "712855a52fa01e170edb197d6f99a7a7", "rental_uris": {"ios": "https://dc.lft.to/lastmile_qr_scan", "android": "https://dc.lft.to/lastmile_qr_scan"}}, {"name": "d58779c7d1be69e6940daaecd4c300c5", "type": "electric_scooter", "lat": 38.93948566666667, "is_reserved": 0, "lon": -77.03266916666666, "fusion_lon": 0.0, "is_disabled": 0, "fusion_lat": 0.0, "bike_id": "d58779c7d1be69e6940daaecd4c300c5", "rental_uris": {"ios": "https://dc.lft.to/lastmile_qr_scan", "android": "https://dc.lft.to/lastmile_qr_scan"}}, {"name": "4eba77edb5266f0e3b6871ca20253b1f", "type": "electric_scooter", "lat": 38.88327916666667, "is_reserved": 0, "lon": -77.01764916666667, "fusion_lon": 0.0, "is_disabled": 0, "fusion_lat": 0.0, "bike_id": "4eba77edb5266f0e3b6871ca20253b1f", "rental_uris": {"ios": "https://dc.lft.to/lastmile_qr_scan", "android": "https://dc.lft.to/lastmile_qr_scan"}}, {"name": "7ceafe87275283f044c256debdf4ff14", "type": "electric_scooter", "lat": 38.92488983333333, "is_reserved": 0, "lon": -77.02715133333334, "fusion_lon": 0.0, "is_disabled": 0, "fusion_lat": 0.0, "bike_id": "7ceafe87275283f044c256debdf4ff14", "rental_uris": {"ios": "https://dc.lft.to/lastmile_qr_scan", "android": "https://dc.lft.to/lastmile_qr_scan"}}, {"name": "21e0e73dcce0c4f4357976553bf18b93", "type": "electric_scooter", "lat": 38.896286833333335, "is_reserved": 0, "lon": -77.02964133333333, "fusion_lon": 0.0, "is_disabled": 0, "fusion_lat": 0.0, "bike_id": "21e0e73dcce0c4f4357976553bf18b93", "rental_uris": {"ios": "https://dc.lft.to/lastmile_qr_scan", "android": "https://dc.lft.to/lastmile_qr_scan"}}, {"name": "631bc7e7c79a51aaf1a159ea825a3f9b", "type": "electric_scooter", "lat": 38.90584066666667, "is_reserved": 0, "lon": -77.062881, "fusion_lon": 0.0, "is_disabled": 0, "fusion_lat": 0.0, "bike_id": "631bc7e7c79a51aaf1a159ea825a3f9b", "rental_uris": {"ios": "https://dc.lft.to/lastmile_qr_scan", "android": "https://dc.lft.to/lastmile_qr_scan"}}, {"name": "30ea377e8d1d7ffa41661f2d1444aea8", "type": "electric_scooter", "lat": 38.897375333333336, "is_reserved": 0, "lon": -77.02715116666667, "fusion_lon": 0.0, "is_disabled": 0, "fusion_lat": 0.0, "bike_id": "30ea377e8d1d7ffa41661f2d1444aea8", "rental_uris": {"ios": "https://dc.lft.to/lastmile_qr_scan", "android": "https://dc.lft.to/lastmile_qr_scan"}}, {"name": "0dbe97bd8c1062664abcd6761d853953", "type": "electric_bike", "lat": 38.865952666666665, "is_reserved": 0, "lon": -76.932299, "fusion_lon": 0.0, "is_disabled": 0, "fusion_lat": 0.0, "bike_id": "0dbe97bd8c1062664abcd6761d853953", "rental_uris": {"ios": "https://dc.lft.to/lastmile_qr_scan", "android": "https://dc.lft.to/lastmile_qr_scan"}}, {"name": "803bec512ecd51b69dac71245a728339", "type": "electric_scooter", "lat": 38.909645833333336, "is_reserved": 0, "lon": -77.038654, "fusion_lon": 0.0, "is_disabled": 0, "fusion_lat": 0.0, "bike_id": "803bec512ecd51b69dac71245a728339", "rental_uris": {"ios": "https://dc.lft.to/lastmile_qr_scan", "android": "https://dc.lft.to/lastmile_qr_scan"}}, {"name": "dc8bdbfccb0bb407f595e14ac9b42dea", "type": "electric_bike", "lat": 38.806933, "is_reserved": 0, "lon": -77.059744, "fusion_lon": 0.0, "is_disabled": 0, "fusion_lat": 0.0, "bike_id": "dc8bdbfccb0bb407f595e14ac9b42dea", "rental_uris": {"ios": "https://dc.lft.to/lastmile_qr_scan", "android": "https://dc.lft.to/lastmile_qr_scan"}}, {"name": "00602fa42fff57a5751f9914a292e177", "type": "electric_scooter", "lat": 38.902859666666664, "is_reserved": 0, "lon": -77.0405805, "fusion_lon": 0.0, "is_disabled": 0, "fusion_lat": 0.0, "bike_id": "00602fa42fff57a5751f9914a292e177", "rental_uris": {"ios": "https://dc.lft.to/lastmile_qr_scan", "android": "https://dc.lft.to/lastmile_qr_scan"}}, {"name": "9a402c43464652a6f91d4cd92a6cca99", "type": "electric_scooter", "lat": 38.93948916666667, "is_reserved": 0, "lon": -77.03264566666667, "fusion_lon": 0.0, "is_disabled": 0, "fusion_lat": 0.0, "bike_id": "9a402c43464652a6f91d4cd92a6cca99", "rental_uris": {"ios": "https://dc.lft.to/lastmile_qr_scan", "android": "https://dc.lft.to/lastmile_qr_scan"}}, {"name": "2120590d3c300207a6558bf8e71afc65", "type": "electric_scooter", "lat": 38.8859775, "is_reserved": 0, "lon": -76.95264916666666, "fusion_lon": 0.0, "is_disabled": 0, "fusion_lat": 0.0, "bike_id": "2120590d3c300207a6558bf8e71afc65", "rental_uris": {"ios": "https://dc.lft.to/lastmile_qr_scan", "android": "https://dc.lft.to/lastmile_qr_scan"}}, {"name": "826732f1b0b77ed615003133de1ee05e", "type": "electric_bike", "lat": 38.85226733333333, "is_reserved": 0, "lon": -77.12959283333333, "fusion_lon": 0.0, "is_disabled": 0, "fusion_lat": 0.0, "bike_id": "826732f1b0b77ed615003133de1ee05e", "rental_uris": {"ios": "https://dc.lft.to/lastmile_qr_scan", "android": "https://dc.lft.to/lastmile_qr_scan"}}, {"name": "a2c29851232e52aede7d625b1ec1046d", "type": "electric_scooter", "lat": 38.92337716666667, "is_reserved": 0, "lon": -77.036595, "fusion_lon": 0.0, "is_disabled": 0, "fusion_lat": 0.0, "bike_id": "a2c29851232e52aede7d625b1ec1046d", "rental_uris": {"ios": "https://dc.lft.to/lastmile_qr_scan", "android": "https://dc.lft.to/lastmile_qr_scan"}}, {"name": "e57a7153d8bab6d382388673316aa925", "type": "electric_scooter", "lat": 38.90240983333333, "is_reserved": 0, "lon": -77.0434645, "fusion_lon": 0.0, "is_disabled": 0, "fusion_lat": 0.0, "bike_id": "e57a7153d8bab6d382388673316aa925", "rental_uris": {"ios": "https://dc.lft.to/lastmile_qr_scan", "android": "https://dc.lft.to/lastmile_qr_scan"}}, {"name": "835f2e029ae191e904c6826eea7d9464", "type": "electric_bike", "lat": 38.83241016666667, "is_reserved": 0, "lon": -77.00723016666667, "fusion_lon": 0.0, "is_disabled": 0, "fusion_lat": 0.0, "bike_id": "835f2e029ae191e904c6826eea7d9464", "rental_uris": {"ios": "https://dc.lft.to/lastmile_qr_scan", "android": "https://dc.lft.to/lastmile_qr_scan"}}, {"name": "90f44f9f0627eae0723dda5970adb973", "type": "electric_scooter", "lat": 38.90512116666667, "is_reserved": 0, "lon": -77.053182, "fusion_lon": 0.0, "is_disabled": 0, "fusion_lat": 0.0, "bike_id": "90f44f9f0627eae0723dda5970adb973", "rental_uris": {"ios": "https://dc.lft.to/lastmile_qr_scan", "android": "https://dc.lft.to/lastmile_qr_scan"}}, {"name": "d2ca26466414b83d47175eceaf54091a", "type": "electric_scooter", "lat": 38.89849366666667, "is_reserved": 0, "lon": -77.0276125, "fusion_lon": 0.0, "is_disabled": 0, "fusion_lat": 0.0, "bike_id": "d2ca26466414b83d47175eceaf54091a", "rental_uris": {"ios": "https://dc.lft.to/lastmile_qr_scan", "android": "https://dc.lft.to/lastmile_qr_scan"}}, {"name": "a3083350858f1727afafaba9d3aed67e", "type": "electric_scooter", "lat": 38.94182966666666, "is_reserved": 0, "lon": -77.03651616666667, "fusion_lon": 0.0, "is_disabled": 0, "fusion_lat": 0.0, "bike_id": "a3083350858f1727afafaba9d3aed67e", "rental_uris": {"ios": "https://dc.lft.to/lastmile_qr_scan", "android": "https://dc.lft.to/lastmile_qr_scan"}}, {"name": "f0ab7c4ed0c06d1b343943646782377b", "type": "electric_scooter", "lat": 38.90723, "is_reserved": 0, "lon": -77.04355116666666, "fusion_lon": 0.0, "is_disabled": 0, "fusion_lat": 0.0, "bike_id": "f0ab7c4ed0c06d1b343943646782377b", "rental_uris": {"ios": "https://dc.lft.to/lastmile_qr_scan", "android": "https://dc.lft.to/lastmile_qr_scan"}}, {"name": "b5a42c95fc39b8f6951f1f8d50a5e233", "type": "electric_scooter", "lat": 38.913382, "is_reserved": 0, "lon": -77.04818383333334, "fusion_lon": 0.0, "is_disabled": 0, "fusion_lat": 0.0, "bike_id": "b5a42c95fc39b8f6951f1f8d50a5e233", "rental_uris": {"ios": "https://dc.lft.to/lastmile_qr_scan", "android": "https://dc.lft.to/lastmile_qr_scan"}}, {"name": "17676d6ac92281ae944001db0fd8e1ca", "type": "electric_scooter", "lat": 38.90005133333333, "is_reserved": 0, "lon": -77.03325283333334, "fusion_lon": 0.0, "is_disabled": 0, "fusion_lat": 0.0, "bike_id": "17676d6ac92281ae944001db0fd8e1ca", "rental_uris": {"ios": "https://dc.lft.to/lastmile_qr_scan", "android": "https://dc.lft.to/lastmile_qr_scan"}}, {"name": "29f97b929544ef7ee8672ddcd9a3f38e", "type": "electric_scooter", "lat": 38.894785166666665, "is_reserved": 0, "lon": -76.98563983333334, "fusion_lon": 0.0, "is_disabled": 0, "fusion_lat": 0.0, "bike_id": "29f97b929544ef7ee8672ddcd9a3f38e", "rental_uris": {"ios": "https://dc.lft.to/lastmile_qr_scan", "android": "https://dc.lft.to/lastmile_qr_scan"}}, {"name": "3d9cd34b48ad8b972d363a056efe194f", "type": "electric_bike", "lat": 38.8953695, "is_reserved": 0, "lon": -77.02715783333333, "fusion_lon": 0.0, "is_disabled": 0, "fusion_lat": 0.0, "bike_id": "3d9cd34b48ad8b972d363a056efe194f", "rental_uris": {"ios": "https://dc.lft.to/lastmile_qr_scan", "android": "https://dc.lft.to/lastmile_qr_scan"}}, {"name": "d479495552f73aadfa4dbfa5621827b2", "type": "electric_scooter", "lat": 38.90391266666666, "is_reserved": 0, "lon": -77.04433766666666, "fusion_lon": 0.0, "is_disabled": 0, "fusion_lat": 0.0, "bike_id": "d479495552f73aadfa4dbfa5621827b2", "rental_uris": {"ios": "https://dc.lft.to/lastmile_qr_scan", "android": "https://dc.lft.to/lastmile_qr_scan"}}, {"name": "3f4bda0f1cd47b0ee1a445ccb86ca47c", "type": "electric_bike", "lat": 38.88006383333333, "is_reserved": 0, "lon": -76.91596583333333, "fusion_lon": 0.0, "is_disabled": 0, "fusion_lat": 0.0, "bike_id": "3f4bda0f1cd47b0ee1a445ccb86ca47c", "rental_uris": {"ios": "https://dc.lft.to/lastmile_qr_scan", "android": "https://dc.lft.to/lastmile_qr_scan"}}, {"name": "df33def2463c9325b2575a7b07b7802b", "type": "electric_bike", "lat": 38.95626433333334, "is_reserved": 0, "lon": -76.938842, "fusion_lon": 0.0, "is_disabled": 0, "fusion_lat": 0.0, "bike_id": "df33def2463c9325b2575a7b07b7802b", "rental_uris": {"ios": "https://dc.lft.to/lastmile_qr_scan", "android": "https://dc.lft.to/lastmile_qr_scan"}}, {"name": "d79b338bcf9ec2b8483e7d1484a937f5", "type": "electric_bike", "lat": 38.8245045, "is_reserved": 0, "lon": -77.07047683333333, "fusion_lon": 0.0, "is_disabled": 0, "fusion_lat": 0.0, "bike_id": "d79b338bcf9ec2b8483e7d1484a937f5", "rental_uris": {"ios": "https://dc.lft.to/lastmile_qr_scan", "android": "https://dc.lft.to/lastmile_qr_scan"}}, {"name": "d484617811dd752845a27293c73e32ec", "type": "electric_bike", "lat": 38.91860783333333, "is_reserved": 0, "lon": -76.96090966666667, "fusion_lon": 0.0, "is_disabled": 0, "fusion_lat": 0.0, "bike_id": "d484617811dd752845a27293c73e32ec", "rental_uris": {"ios": "https://dc.lft.to/lastmile_qr_scan", "android": "https://dc.lft.to/lastmile_qr_scan"}}, {"name": "8ea28e9f8c9043061bf823a5bee868d3", "type": "electric_bike", "lat": 38.906687833333336, "is_reserved": 0, "lon": -76.9996375, "fusion_lon": 0.0, "is_disabled": 0, "fusion_lat": 0.0, "bike_id": "8ea28e9f8c9043061bf823a5bee868d3", "rental_uris": {"ios": "https://dc.lft.to/lastmile_qr_scan", "android": "https://dc.lft.to/lastmile_qr_scan"}}, {"name": "a30311562e4b64505a3ece5283d4ce69", "type": "electric_scooter", "lat": 38.916387, "is_reserved": 0, "lon": -76.972394, "fusion_lon": 0.0, "is_disabled": 0, "fusion_lat": 0.0, "bike_id": "a30311562e4b64505a3ece5283d4ce69", "rental_uris": {"ios": "https://dc.lft.to/lastmile_qr_scan", "android": "https://dc.lft.to/lastmile_qr_scan"}}, {"name": "a869f4dbbfac423affaf5110f8ad0c66", "type": "electric_scooter", "lat": 38.90281016666667, "is_reserved": 0, "lon": -77.0366635, "fusion_lon": 0.0, "is_disabled": 0, "fusion_lat": 0.0, "bike_id": "a869f4dbbfac423affaf5110f8ad0c66", "rental_uris": {"ios": "https://dc.lft.to/lastmile_qr_scan", "android": "https://dc.lft.to/lastmile_qr_scan"}}, {"name": "520ae42377b16a5f20ff5e5fdf220896", "type": "electric_scooter", "lat": 38.9231895, "is_reserved": 0, "lon": -77.04488383333333, "fusion_lon": 0.0, "is_disabled": 0, "fusion_lat": 0.0, "bike_id": "520ae42377b16a5f20ff5e5fdf220896", "rental_uris": {"ios": "https://dc.lft.to/lastmile_qr_scan", "android": "https://dc.lft.to/lastmile_qr_scan"}}, {"name": "204c03b92bf8cdd2181d7692c330101d", "type": "electric_scooter", "lat": 38.921552166666665, "is_reserved": 0, "lon": -77.03457983333334, "fusion_lon": 0.0, "is_disabled": 0, "fusion_lat": 0.0, "bike_id": "204c03b92bf8cdd2181d7692c330101d", "rental_uris": {"ios": "https://dc.lft.to/lastmile_qr_scan", "android": "https://dc.lft.to/lastmile_qr_scan"}}, {"name": "80ca2a25df464299c6a69a20d886e283", "type": "electric_scooter", "lat": 38.8924475, "is_reserved": 0, "lon": -77.03196166666666, "fusion_lon": 0.0, "is_disabled": 0, "fusion_lat": 0.0, "bike_id": "80ca2a25df464299c6a69a20d886e283", "rental_uris": {"ios": "https://dc.lft.to/lastmile_qr_scan", "android": "https://dc.lft.to/lastmile_qr_scan"}}, {"name": "8c28d60357e88ae0816d54c6c493540c", "type": "electric_scooter", "lat": 38.9179065, "is_reserved": 0, "lon": -77.02301316666667, "fusion_lon": 0.0, "is_disabled": 0, "fusion_lat": 0.0, "bike_id": "8c28d60357e88ae0816d54c6c493540c", "rental_uris": {"ios": "https://dc.lft.to/lastmile_qr_scan", "android": "https://dc.lft.to/lastmile_qr_scan"}}, {"name": "b0e760f2b53e2da453deb32e8663ccd4", "type": "electric_scooter", "lat": 38.890283833333335, "is_reserved": 0, "lon": -76.93690483333333, "fusion_lon": 0.0, "is_disabled": 0, "fusion_lat": 0.0, "bike_id": "b0e760f2b53e2da453deb32e8663ccd4", "rental_uris": {"ios": "https://dc.lft.to/lastmile_qr_scan", "android": "https://dc.lft.to/lastmile_qr_scan"}}, {"name": "58674dc80b890a9e1829f38ec2063cdd", "type": "electric_bike", "lat": 38.8982365, "is_reserved": 0, "lon": -76.99069516666667, "fusion_lon": 0.0, "is_disabled": 0, "fusion_lat": 0.0, "bike_id": "58674dc80b890a9e1829f38ec2063cdd", "rental_uris": {"ios": "https://dc.lft.to/lastmile_qr_scan", "android": "https://dc.lft.to/lastmile_qr_scan"}}, {"name": "c9c5a97bcff72c415353d92baac775b5", "type": "electric_scooter", "lat": 38.9119275, "is_reserved": 0, "lon": -77.04344116666667, "fusion_lon": 0.0, "is_disabled": 0, "fusion_lat": 0.0, "bike_id": "c9c5a97bcff72c415353d92baac775b5", "rental_uris": {"ios": "https://dc.lft.to/lastmile_qr_scan", "android": "https://dc.lft.to/lastmile_qr_scan"}}, {"name": "56883b7077f13b4ac281e0ad4f4b15ea", "type": "electric_scooter", "lat": 38.92345066666667, "is_reserved": 0, "lon": -77.034857, "fusion_lon": 0.0, "is_disabled": 0, "fusion_lat": 0.0, "bike_id": "56883b7077f13b4ac281e0ad4f4b15ea", "rental_uris": {"ios": "https://dc.lft.to/lastmile_qr_scan", "android": "https://dc.lft.to/lastmile_qr_scan"}}, {"name": "2fb7e1093bea9fc0d9dded893227ee53", "type": "electric_scooter", "lat": 38.90903983333333, "is_reserved": 0, "lon": -77.08626566666666, "fusion_lon": 0.0, "is_disabled": 0, "fusion_lat": 0.0, "bike_id": "2fb7e1093bea9fc0d9dded893227ee53", "rental_uris": {"ios": "https://dc.lft.to/lastmile_qr_scan", "android": "https://dc.lft.to/lastmile_qr_scan"}}, {"name": "3747fd04065b6fb912f0e2cb6c10df6b", "type": "electric_scooter", "lat": 38.91419166666667, "is_reserved": 0, "lon": -77.039067, "fusion_lon": 0.0, "is_disabled": 0, "fusion_lat": 0.0, "bike_id": "3747fd04065b6fb912f0e2cb6c10df6b", "rental_uris": {"ios": "https://dc.lft.to/lastmile_qr_scan", "android": "https://dc.lft.to/lastmile_qr_scan"}}, {"name": "5d81abb2e576a3bcb68ab67d68f3878f", "type": "electric_scooter", "lat": 38.90574483333333, "is_reserved": 0, "lon": -77.04025316666667, "fusion_lon": 0.0, "is_disabled": 0, "fusion_lat": 0.0, "bike_id": "5d81abb2e576a3bcb68ab67d68f3878f", "rental_uris": {"ios": "https://dc.lft.to/lastmile_qr_scan", "android": "https://dc.lft.to/lastmile_qr_scan"}}, {"name": "21d81d1a8ded336a81483ddf3fde0e7d", "type": "electric_scooter", "lat": 38.90116716666667, "is_reserved": 0, "lon": -77.04990466666666, "fusion_lon": 0.0, "is_disabled": 0, "fusion_lat": 0.0, "bike_id": "21d81d1a8ded336a81483ddf3fde0e7d", "rental_uris": {"ios": "https://dc.lft.to/lastmile_qr_scan", "android": "https://dc.lft.to/lastmile_qr_scan"}}, {"name": "b48fb2b89b7c28918fe0e1d8e25a3f4b", "type": "electric_bike", "lat": 38.8380695, "is_reserved": 0, "lon": -76.99838416666667, "fusion_lon": 0.0, "is_disabled": 0, "fusion_lat": 0.0, "bike_id": "b48fb2b89b7c28918fe0e1d8e25a3f4b", "rental_uris": {"ios": "https://dc.lft.to/lastmile_qr_scan", "android": "https://dc.lft.to/lastmile_qr_scan"}},