{"data": {"bikes": [{"lon": -77.0218175, "name": "417d8593c1c5ca2ba158445709d75c43", "is_disabled": 0, "type": "electric_scooter", "is_reserved": 0, "fusion_lon": 0.0, "lat": 38.91046633333333, "rental_uris": {"ios": "https://dc.lft.to/lastmile_qr_scan", "android": "https://dc.lft.to/lastmile_qr_scan"}, "bike_id": "417d8593c1c5ca2ba158445709d75c43", "fusion_lat": 0.0}, {"lon": -77.0216115, "name": "ae17e08ecf0a26d89183fdf9aa0bcfbc", "is_disabled": 0, "type": "electric_scooter", "is_reserved": 0, "fusion_lon": 0.0, "lat": 38.926336666666664, "rental_uris": {"ios": "https://dc.lft.to/lastmile_qr_scan", "android": "https://dc.lft.to/lastmile_qr_scan"}, "bike_id": "ae17e08ecf0a26d89183fdf9aa0bcfbc", "fusion_lat": 0.0}, {"lon": -77.046561, "name": "f6a163836f43d7afb92d8882952ca3a3", "is_disabled": 0, "type": "electric_scooter", "is_reserved": 0, "fusion_lon": 0.0, "lat": 38.892558666666666, "rental_uris": {"ios": "https://dc.lft.to/lastmile_qr_scan", "android": "https://dc.lft.to/lastmile_qr_scan"}, "bike_id": "f6a163836f43d7afb92d8882952ca3a3", "fusion_lat": 0.0}, {"lon": -77.031825, "name": "1ff8c933403d4ca19259081287f573db", "is_disabled": 0, "type": "electric_scooter", "is_reserved": 0, "fusion_lon": 0.0, "lat": 38.91944266666667, "rental_uris": {"ios": "https://dc.lft.to/lastmile_qr_scan", "android": "https://dc.lft.to/lastmile_qr_scan"}, "bike_id": "1ff8c933403d4ca19259081287f573db", "fusion_lat": 0.0}, {"lon": -76.90289133333333, "name": "c2431c5611f3b1d9504c4a9de658f53f", "is_disabled": 0, "type": "electric_bike", "is_reserved": 0, "fusion_lon": 0.0, "lat": 39.00287066666667, "rental_uris": {"ios": "https://dc.lft.to/lastmile_qr_scan", "android": "https://dc.lft.to/lastmile_qr_scan"}, "bike_id": "c2431c5611f3b1d9504c4a9de658f53f", "fusion_lat": 0.0}, {"lon": -76.93715916666666, "name": "b3f122fcd6a386ffca7da00ac9582d01", "is_disabled": 0, "type": "electric_scooter", "is_reserved": 0, "fusion_lon": 0.0, "lat": 38.888588666666664, "rental_uris": {"ios": "https://dc.lft.to/lastmile_qr_scan", "android": "https://dc.lft.to/lastmile_qr_scan"}, "bike_id": "b3f122fcd6a386ffca7da00ac9582d01", "fusion_lat": 0.0}, {"lon": -77.034513, "name": "3b1ec2fb9ade3186367e3477195bc17b", "is_disabled": 0, "type": "electric_scooter", "is_reserved": 0, "fusion_lon": 0.0, "lat": 38.90868566666666, "rental_uris": {"ios": "https://dc.lft.to/lastmile_qr_scan", "android": "https://dc.lft.to/lastmile_qr_scan"}, "bike_id": "3b1ec2fb9ade3186367e3477195bc17b", "fusion_lat": 0.0}, {"lon": -76.9955745, "name": "5c68d76550116b422909127f0462e1cd", "is_disabled": 0, "type": "electric_bike", "is_reserved": 0, "fusion_lon": 0.0, "lat": 38.939856666666664, "rental_uris": {"ios": "https://dc.lft.to/lastmile_qr_scan", "android": "https://dc.lft.to/lastmile_qr_scan"}, "bike_id": "5c68d76550116b422909127f0462e1cd", "fusion_lat": 0.0}, {"lon": -76.99621783333333, "name": "983b27001899fa1da4fa45f4f5b5b157", "is_disabled": 0, "type": "electric_scooter", "is_reserved": 0, "fusion_lon": 0.0, "lat": 38.9218945, "rental_uris": {"ios": "https://dc.lft.to/lastmile_qr_scan", "android": "https://dc.lft.to/lastmile_qr_scan"}, "bike_id": "983b27001899fa1da4fa45f4f5b5b157", "fusion_lat": 0.0}, {"lon": -77.0472145, "name": "ebde3c9b5e186b314955e9ae028fd296", "is_disabled": 0, "type": "electric_scooter", "is_reserved": 0, "fusion_lon": 0.0, "lat": 38.8997285, "rental_uris": {"ios": "https://dc.lft.to/lastmile_qr_scan", "android": "https://dc.lft.to/lastmile_qr_scan"}, "bike_id": "ebde3c9b5e186b314955e9ae028fd296", "fusion_lat": 0.0}, {"lon": -77.00381583333333, "name": "ce7233e1379175fcf96d607567bf3162", "is_disabled": 0, "type": "electric_scooter", "is_reserved": 0, "fusion_lon": 0.0, "lat": 38.8763625, "rental_uris": {"ios": "https://dc.lft.to/lastmile_qr_scan", "android": "https://dc.lft.to/lastmile_qr_scan"}, "bike_id": "ce7233e1379175fcf96d607567bf3162", "fusion_lat": 0.0}, {"lon": -77.0194605, "name": "98431819f4aeb756889b9f54a6364bfc", "is_disabled": 0, "type": "electric_scooter", "is_reserved": 0, "fusion_lon": 0.0, "lat": 38.92369733333334, "rental_uris": {"ios": "https://dc.lft.to/lastmile_qr_scan", "android": "https://dc.lft.to/lastmile_qr_scan"}, "bike_id": "98431819f4aeb756889b9f54a6364bfc", "fusion_lat": 0.0}, {"lon": -77.06939433333334, "name": "6a07b6d0ad24cd384bca096ca83f1e13", "is_disabled": 0, "type": "electric_bike", "is_reserved": 0, "fusion_lon": 0.0, "lat": 38.84764583333333, "rental_uris": {"ios": "https://dc.lft.to/lastmile_qr_scan", "android": "https://dc.lft.to/lastmile_qr_scan"}, "bike_id": "6a07b6d0ad24cd384bca096ca83f1e13", "fusion_lat": 0.0}, {"lon": -77.02025616666667, "name": "a8e26bf217c2e29f09964f090aa46cc7", "is_disabled": 0, "type": "electric_scooter", "is_reserved": 0, "fusion_lon": 0.0, "lat": 38.92411416666667, "rental_uris": {"ios": "https://dc.lft.to/lastmile_qr_scan", "android": "https://dc.lft.to/lastmile_qr_scan"}, "bike_id": "a8e26bf217c2e29f09964f090aa46cc7", "fusion_lat": 0.0}, {"lon": -77.00151783333334, "name": "7f608029b3f30c50beb9dcca62221dae", "is_disabled": 0, "type": "electric_bike", "is_reserved": 0, "fusion_lon": 0.0, "lat": 38.925462833333334, "rental_uris": {"ios": "https://dc.lft.to/lastmile_qr_scan", "android": "https://dc.lft.to/lastmile_qr_scan"}, "bike_id": "7f608029b3f30c50beb9dcca62221dae", "fusion_lat": 0.0}, {"lon": -76.97345783333333, "name": "524ee0fba952c7b070a0588578907ee4", "is_disabled": 0, "type": "electric_bike", "is_reserved": 0, "fusion_lon": 0.0, "lat": 38.86548066666667, "rental_uris": {"ios": "https://dc.lft.to/lastmile_qr_scan", "android": "https://dc.lft.to/lastmile_qr_scan"}, "bike_id": "524ee0fba952c7b070a0588578907ee4", "fusion_lat": 0.0}, {"lon": -76.987908, "name": "4102cb2feadf3512026439510a43c676", "is_disabled": 0, "type": "electric_scooter", "is_reserved": 0, "fusion_lon": 0.0, "lat": 38.87843516666667, "rental_uris": {"ios": "https://dc.lft.to/lastmile_qr_scan", "android": "https://dc.lft.to/lastmile_qr_scan"}, "bike_id": "4102cb2feadf3512026439510a43c676", "fusion_lat": 0.0}, {"lon": -77.0351995, "name": "bed958ee538ce3e53704050606022fd7", "is_disabled": 0, "type": "electric_scooter", "is_reserved": 0, "fusion_lon": 0.0, "lat": 38.922374833333336, "rental_uris": {"ios": "https://dc.lft.to/lastmile_qr_scan", "android": "https://dc.lft.to/lastmile_qr_scan"}, "bike_id": "bed958ee538ce3e53704050606022fd7", "fusion_lat": 0.0}, {"lon": -77.02744383333334, "name": "43baf714797574b5a47855f904c3944f", "is_disabled": 0, "type": "electric_scooter", "is_reserved": 0, "fusion_lon": 0.0, "lat": 38.9241, "rental_uris": {"ios": "https://dc.lft.to/lastmile_qr_scan", "android": "https://dc.lft.to/lastmile_qr_scan"}, "bike_id": "43baf714797574b5a47855f904c3944f", "fusion_lat": 0.0}, {"lon": -77.02366633333334, "name": "45904c542ec773f735e85ee86416bf73", "is_disabled": 0, "type": "electric_scooter", "is_reserved": 0, "fusion_lon": 0.0, "lat": 38.9019375, "rental_uris": {"ios": "https://dc.lft.to/lastmile_qr_scan", "android": "https://dc.lft.to/lastmile_qr_scan"}, "bike_id": "45904c542ec773f735e85ee86416bf73", "fusion_lat": 0.0}, {"lon": -77.060828, "name": "785db864d545901b6c541f9906a2651b", "is_disabled": 0, "type": "electric_scooter", "is_reserved": 0, "fusion_lon": 0.0, "lat": 38.91190683333333, "rental_uris": {"ios": "https://dc.lft.to/lastmile_qr_scan", "android": "https://dc.lft.to/lastmile_qr_scan"}, "bike_id": "785db864d545901b6c541f9906a2651b", "fusion_lat": 0.0}, {"lon": -77.018854, "name": "2725be440d4c6940cf858f7a89700a4b", "is_disabled": 0, "type": "electric_scooter", "is_reserved": 0, "fusion_lon": 0.0, "lat": 38.90912733333333, "rental_uris": {"ios": "https://dc.lft.to/lastmile_qr_scan", "android": "https://dc.lft.to/lastmile_qr_scan"}, "bike_id": "2725be440d4c6940cf858f7a89700a4b", "fusion_lat": 0.0}, {"lon": -77.02065366666666, "name": "74d17ce0ebb5fd0ada4b79b9fb7f75ce", "is_disabled": 0, "type": "electric_scooter", "is_reserved": 0, "fusion_lon": 0.0, "lat": 38.922520166666665, "rental_uris": {"ios": "https://dc.lft.to/lastmile_qr_scan", "android": "https://dc.lft.to/lastmile_qr_scan"}, "bike_id": "74d17ce0ebb5fd0ada4b79b9fb7f75ce", "fusion_lat": 0.0}, {"lon": -77.02340366666667, "name": "0a46f35b607debf6e998d159d537225e", "is_disabled": 0, "type": "electric_scooter", "is_reserved": 0, "fusion_lon": 0.0, "lat": 38.92058466666667, "rental_uris": {"ios": "https://dc.lft.to/lastmile_qr_scan", "android": "https://dc.lft.to/lastmile_qr_scan"}, "bike_id": "0a46f35b607debf6e998d159d537225e", "fusion_lat": 0.0}, {"lon": -77.021705, "name": "a4aee313d149859acdd7b52722939d4d", "is_disabled": 0, "type": "electric_scooter", "is_reserved": 0, "fusion_lon": 0.0, "lat": 38.901945166666664, "rental_uris": {"ios": "https://dc.lft.to/lastmile_qr_scan", "android": "https://dc.lft.to/lastmile_qr_scan"}, "bike_id": "a4aee313d149859acdd7b52722939d4d", "fusion_lat": 0.0}, {"lon": -76.92445716666667, "name": "f829466dcd70b44ddeaad00800453c4d", "is_disabled": 0, "type": "electric_scooter", "is_reserved": 0, "fusion_lon": 0.0, "lat": 38.88516516666667, "rental_uris": {"ios": "https://dc.lft.to/lastmile_qr_scan", "android": "https://dc.lft.to/lastmile_qr_scan"}, "bike_id": "f829466dcd70b44ddeaad00800453c4d", "fusion_lat": 0.0}, {"lon": -76.97590816666667, "name": "885dbb4dd171f04b7c3da360c4ab8451", "is_disabled": 0, "type": "electric_scooter", "is_reserved": 0, "fusion_lon": 0.0, "lat": 38.903356333333335, "rental_uris": {"ios": "https://dc.lft.to/lastmile_qr_scan", "android": "https://dc.lft.to/lastmile_qr_scan"}, "bike_id": "885dbb4dd171f04b7c3da360c4ab8451", "fusion_lat": 0.0}, {"lon": -77.041069, "name": "5e4a69be995e21e67c422289678460cc", "is_disabled": 0, "type": "electric_scooter", "is_reserved": 0, "fusion_lon": 0.0, "lat": 38.892229666666665, "rental_uris": {"ios": "https://dc.lft.to/lastmile_qr_scan", "android": "https://dc.lft.to/lastmile_qr_scan"}, "bike_id": "5e4a69be995e21e67c422289678460cc", "fusion_lat": 0.0}, {"lon": -77.02243016666667, "name": "1f659d713c9aa53ad783b965dc7d4ffd", "is_disabled": 0, "type": "electric_scooter", "is_reserved": 0, "fusion_lon": 0.0, "lat": 38.924345, "rental_uris": {"ios": "https://dc.lft.to/lastmile_qr_scan", "android": "https://dc.lft.to/lastmile_qr_scan"}, "bike_id": "1f659d713c9aa53ad783b965dc7d4ffd", "fusion_lat": 0.0}, {"lon": -77.02209583333334, "name": "b592597f82781380cccc3ada8e6fc02b", "is_disabled": 0, "type": "electric_scooter", "is_reserved": 0, "fusion_lon": 0.0, "lat": 38.9013375, "rental_uris": {"ios": "https://dc.lft.to/lastmile_qr_scan", "android": "https://dc.lft.to/lastmile_qr_scan"}, "bike_id": "b592597f82781380cccc3ada8e6fc02b", "fusion_lat": 0.0}, {"lon": -76.907531, "name": "fe6197425d473889d33cb180e873aaf7", "is_disabled": 0, "type": "electric_bike", "is_reserved": 0, "fusion_lon": 0.0, "lat": 38.896242666666666, "rental_uris": {"ios": "https://dc.lft.to/lastmile_qr_scan", "android": "https://dc.lft.to/lastmile_qr_scan"}, "bike_id": "fe6197425d473889d33cb180e873aaf7", "fusion_lat": 0.0}, {"lon": -77.0279465, "name": "857d4e5b8064978dba1fc4c1b548324f", "is_disabled": 0, "type": "electric_scooter", "is_reserved": 0, "fusion_lon": 0.0, "lat": 38.93082416666667, "rental_uris": {"ios": "https://dc.lft.to/lastmile_qr_scan", "android": "https://dc.lft.to/lastmile_qr_scan"}, "bike_id": "857d4e5b8064978dba1fc4c1b548324f", "fusion_lat": 0.0}, {"lon": -76.97221016666667, "name": "1e9892503d8aa2227146ce13617a5f8e", "is_disabled": 0, "type": "electric_bike", "is_reserved": 0, "fusion_lon": 0.0, "lat": 38.90030316666667, "rental_uris": {"ios": "https://dc.lft.to/lastmile_qr_scan", "android": "https://dc.lft.to/lastmile_qr_scan"}, "bike_id": "1e9892503d8aa2227146ce13617a5f8e", "fusion_lat": 0.0}, {"lon": -77.03186583333333, "name": "c7573842521673fae957103317f809e5", "is_disabled": 0, "type": "electric_scooter", "is_reserved": 0, "fusion_lon": 0.0, "lat": 38.918221, "rental_uris": {"ios": "https://dc.lft.to/lastmile_qr_scan", "android": "https://dc.lft.to/lastmile_qr_scan"}, "bike_id": "c7573842521673fae957103317f809e5", "fusion_lat": 0.0}, {"lon": -77.0401665, "name": "ad19fd797868a80e556a5d2ba1e6c162", "is_disabled": 0, "type": "electric_scooter", "is_reserved": 0, "fusion_lon": 0.0, "lat": 38.92167966666667, "rental_uris": {"ios": "https://dc.lft.to/lastmile_qr_scan", "android": "https://dc.lft.to/lastmile_qr_scan"}, "bike_id": "ad19fd797868a80e556a5d2ba1e6c162", "fusion_lat": 0.0}, {"lon": -76.917184, "name": "526848655c57207424e0c2683043dc04", "is_disabled": 0, "type": "electric_bike", "is_reserved": 0, "fusion_lon": 0.0, "lat": 38.880278833333335, "rental_uris": {"ios": "https://dc.lft.to/lastmile_qr_scan", "android": "https://dc.lft.to/lastmile_qr_scan"}, "bike_id": "526848655c57207424e0c2683043dc04", "fusion_lat": 0.0}, {"lon": -77.07218733333333, "name": "740f0182f79570a08b2e7ba8335b7ecf", "is_disabled": 0, "type": "electric_scooter", "is_reserved": 0, "fusion_lon": 0.0, "lat": 38.913643, "rental_uris": {"ios": "https://dc.lft.to/lastmile_qr_scan", "android": "https://dc.lft.to/lastmile_qr_scan"}, "bike_id": "740f0182f79570a08b2e7ba8335b7ecf", "fusion_lat": 0.0}, {"lon": -77.0388195, "name": "fe22cdb4295f0393ed813d5b92655fe9", "is_disabled": 0, "type": "electric_scooter", "is_reserved": 0, "fusion_lon": 0.0, "lat": 38.931237333333335, "rental_uris": {"ios": "https://dc.lft.to/lastmile_qr_scan", "android": "https://dc.lft.to/lastmile_qr_scan"}, "bike_id": "fe22cdb4295f0393ed813d5b92655fe9", "fusion_lat": 0.0}, {"lon": -77.00491916666667, "name": "287062b1e9f5b73c9377cb7ac7dbfd31", "is_disabled": 0, "type": "electric_scooter", "is_reserved": 0, "fusion_lon": 0.0, "lat": 38.91694366666667, "rental_uris": {"ios": "https://dc.lft.to/lastmile_qr_scan", "android": "https://dc.lft.to/lastmile_qr_scan"}, "bike_id": "287062b1e9f5b73c9377cb7ac7dbfd31", "fusion_lat": 0.0}, {"lon": -77.02966083333334, "name": "43fcfc5fe81e5a95f940846f10f1a0ee", "is_disabled": 0, "type": "electric_scooter", "is_reserved": 0, "fusion_lon": 0.0, "lat": 38.90495716666667, "rental_uris": {"ios": "https://dc.lft.to/lastmile_qr_scan", "android": "https://dc.lft.to/lastmile_qr_scan"}, "bike_id": "43fcfc5fe81e5a95f940846f10f1a0ee", "fusion_lat": 0.0}, {"lon": -77.0204885, "name": "ecfb6ffd4509db5a935111431a0f6ffc", "is_disabled": 0, "type": "electric_scooter", "is_reserved": 0, "fusion_lon": 0.0, "lat": 38.923658, "rental_uris": {"ios": "https://dc.lft.to/lastmile_qr_scan", "android": "https://dc.lft.to/lastmile_qr_scan"}, "bike_id": "ecfb6ffd4509db5a935111431a0f6ffc", "fusion_lat": 0.0}, {"lon": -77.01622066666667, "name": "4c93469d19829b08262df3aafef1d8b8", "is_disabled": 0, "type": "electric_scooter", "is_reserved": 0, "fusion_lon": 0.0, "lat": 38.903732833333336, "rental_uris": {"ios": "https://dc.lft.to/lastmile_qr_scan", "android": "https://dc.lft.to/lastmile_qr_scan"}, "bike_id": "4c93469d19829b08262df3aafef1d8b8", "fusion_lat": 0.0}, {"lon": -77.05702766666667, "name": "09d2543760b6abd23e06fd552a2e32cd", "is_disabled": 0, "type": "electric_scooter", "is_reserved": 0, "fusion_lon": 0.0, "lat": 38.92610333333333, "rental_uris": {"ios": "https://dc.lft.to/lastmile_qr_scan", "android": "https://dc.lft.to/lastmile_qr_scan"}, "bike_id": "09d2543760b6abd23e06fd552a2e32cd", "fusion_lat": 0.0}, {"lon": -77.02407233333334, "name": "0d4e000b2e5474fc8a20d6c5fb20bb73", "is_disabled": 0, "type": "electric_scooter", "is_reserved": 0, "fusion_lon": 0.0, "lat": 38.91622733333333, "rental_uris": {"ios": "https://dc.lft.to/lastmile_qr_scan", "android": "https://dc.lft.to/lastmile_qr_scan"}, "bike_id": "0d4e000b2e5474fc8a20d6c5fb20bb73", "fusion_lat": 0.0}, {"lon": -76.99084983333333, "name": "9be881292e59e75f40e02db1b4ace13f", "is_disabled": 0, "type": "electric_bike", "is_reserved": 0, "fusion_lon": 0.0, "lat": 38.8981765, "rental_uris": {"ios": "https://dc.lft.to/lastmile_qr_scan", "android": "https://dc.lft.to/lastmile_qr_scan"}, "bike_id": "9be881292e59e75f40e02db1b4ace13f", "fusion_lat": 0.0}, {"lon": -77.04148966666666, "name": "16959489294e83b2e4304cb47428e852", "is_disabled": 0, "type": "electric_scooter", "is_reserved": 0, "fusion_lon": 0.0, "lat": 38.907174499999996, "rental_uris": {"ios": "https://dc.lft.to/lastmile_qr_scan", "android": "https://dc.lft.to/lastmile_qr_scan"}, "bike_id": "16959489294e83b2e4304cb47428e852", "fusion_lat": 0.0}, {"lon": -77.03582333333334, "name": "c80d250cf863983803f1c639d34090ba", "is_disabled": 0, "type": "electric_scooter", "is_reserved": 0, "fusion_lon": 0.0, "lat": 38.92693466666667, "rental_uris": {"ios": "https://dc.lft.to/lastmile_qr_scan", "android": "https://dc.lft.to/lastmile_qr_scan"}, "bike_id": "c80d250cf863983803f1c639d34090ba", "fusion_lat": 0.0}, {"lon": -77.00210916666667, "name": "ec312c08963c78b238e6cc0928a09ddb", "is_disabled": 0, "type": "electric_scooter", "is_reserved": 0, "fusion_lon": 0.0, "lat": 38.914659, "rental_uris": {"ios": "https://dc.lft.to/lastmile_qr_scan", "android": "https://dc.lft.to/lastmile_qr_scan"}, "bike_id": "ec312c08963c78b238e6cc0928a09ddb", "fusion_lat": 0.0}, {"lon": -77.03190833333333, "name": "788d4d5ecbf1bdb74438cbabd8f396d5", "is_disabled": 0, "type": "electric_scooter", "is_reserved": 0, "fusion_lon": 0.0, "lat": 38.9194815, "rental_uris": {"ios": "https://dc.lft.to/lastmile_qr_scan", "android": "https://dc.lft.to/lastmile_qr_scan"}, "bike_id": "788d4d5ecbf1bdb74438cbabd8f396d5", "fusion_lat": 0.0}, {"lon": -77.0215015, "name": "816b471944847a1cd67e79c703484238", "is_disabled": 0, "type": "electric_scooter", "is_reserved": 0, "fusion_lon": 0.0, "lat": 38.926048333333334, "rental_uris": {"ios": "https://dc.lft.to/lastmile_qr_scan", "android": "https://dc.lft.to/lastmile_qr_scan"}, "bike_id": "816b471944847a1cd67e79c703484238", "fusion_lat": 0.0}, {"lon": -77.01948766666666, "name": "ba97e642d80d2ebd943ec53a47ad9d45", "is_disabled": 0, "type": "electric_scooter", "is_reserved": 0, "fusion_lon": 0.0, "lat": 38.92418466666667, "rental_uris": {"ios": "https://dc.lft.to/lastmile_qr_scan", "android": "https://dc.lft.to/lastmile_qr_scan"}, "bike_id": "ba97e642d80d2ebd943ec53a47ad9d45", "fusion_lat": 0.0}, {"lon": -77.0122575, "name": "dd517dd1bd4f19408e4e42a1f82f9d18", "is_disabled": 0, "type": "electric_scooter", "is_reserved": 0, "fusion_lon": 0.0, "lat": 38.914440166666665, "rental_uris": {"ios": "https://dc.lft.to/lastmile_qr_scan", "android": "https://dc.lft.to/lastmile_qr_scan"}, "bike_id": "dd517dd1bd4f19408e4e42a1f82f9d18", "fusion_lat": 0.0}, {"lon": -77.05000733333334, "name": "ec1ac2fb50460250c354d36d8a30bdb8", "is_disabled": 0, "type": "electric_scooter", "is_reserved": 0, "fusion_lon": 0.0, "lat": 38.892318333333336, "rental_uris": {"ios": "https://dc.lft.to/lastmile_qr_scan", "android": "https://dc.lft.to/lastmile_qr_scan"}, "bike_id": "ec1ac2fb50460250c354d36d8a30bdb8", "fusion_lat": 0.0}, {"lon": -77.00329166666667, "name": "94426a154e7da0fea478fec26cb12148", "is_disabled": 0, "type": "electric_bike", "is_reserved": 0, "fusion_lon": 0.0, "lat": 38.92019483333333, "rental_uris": {"ios": "https://dc.lft.to/lastmile_qr_scan", "android": "https://dc.lft.to/lastmile_qr_scan"}, "bike_id": "94426a154e7da0fea478fec26cb12148", "fusion_lat": 0.0}, {"lon": -77.04189083333333, "name": "a73aa69e187ec9e560365ea8daed248d", "is_disabled": 0, "type": "electric_scooter", "is_reserved": 0, "fusion_lon": 0.0, "lat": 38.92052366666667, "rental_uris": {"ios": "https://dc.lft.to/lastmile_qr_scan", "android": "https://dc.lft.to/lastmile_qr_scan"}, "bike_id": "a73aa69e187ec9e560365ea8daed248d", "fusion_lat": 0.0}, {"lon": -77.044706, "name": "2b544a4fde824500d6064af869dd474e", "is_disabled": 0, "type": "electric_scooter", "is_reserved": 0, "fusion_lon": 0.0, "lat": 38.91535066666667, "rental_uris": {"ios": "https://dc.lft.to/lastmile_qr_scan", "android": "https://dc.lft.to/lastmile_qr_scan"}, "bike_id": "2b544a4fde824500d6064af869dd474e", "fusion_lat": 0.0}, {"lon": -77.05754133333333, "name": "3ba85375a2415d4f0117060aed0b5c92", "is_disabled": 0, "type": "electric_scooter", "is_reserved": 0, "fusion_lon": 0.0, "lat": 38.92485883333333, "rental_uris": {"ios": "https://dc.lft.to/lastmile_qr_scan", "android": "https://dc.lft.to/lastmile_qr_scan"}, "bike_id": "3ba85375a2415d4f0117060aed0b5c92", "fusion_lat": 0.0}, {"lon": -77.035278, "name": "e319914144b78c970c9c601c72ccaac9", "is_disabled": 0, "type": "electric_scooter", "is_reserved": 0, "fusion_lon": 0.0, "lat": 38.918229333333336, "rental_uris": {"ios": "https://dc.lft.to/lastmile_qr_scan", "android": "https://dc.lft.to/lastmile_qr_scan"}, "bike_id": "e319914144b78c970c9c601c72ccaac9", "fusion_lat": 0.0}, {"lon": -77.04298266666666, "name": "3e89544a7ab6d2f855ff4b76ae449aed", "is_disabled": 0, "type": "electric_scooter", "is_reserved": 0, "fusion_lon": 0.0, "lat": 38.922604166666666, "rental_uris": {"ios": "https://dc.lft.to/lastmile_qr_scan", "android": "https://dc.lft.to/lastmile_qr_scan"}, "bike_id": "3e89544a7ab6d2f855ff4b76ae449aed", "fusion_lat": 0.0}, {"lon": -77.03657683333333, "name": "65a0b1cf07ca94098c47fae9c08c9c3d", "is_disabled": 0, "type": "electric_scooter", "is_reserved": 0, "fusion_lon": 0.0, "lat": 38.922871, "rental_uris": {"ios": "https://dc.lft.to/lastmile_qr_scan", "android": "https://dc.lft.to/lastmile_qr_scan"}, "bike_id": "65a0b1cf07ca94098c47fae9c08c9c3d", "fusion_lat": 0.0}, {"lon": -77.04815666666667, "name": "a9195d26bf2dc2253aa984ee4ca9fa3b", "is_disabled": 0, "type": "electric_scooter", "is_reserved": 0, "fusion_lon": 0.0, "lat": 38.89715916666667, "rental_uris": {"ios": "https://dc.lft.to/lastmile_qr_scan", "android": "https://dc.lft.to/lastmile_qr_scan"}, "bike_id": "a9195d26bf2dc2253aa984ee4ca9fa3b", "fusion_lat": 0.0}, {"lon": -76.93594183333333, "name": "5fb8ce5358d3c0f087f892fc14160b6b", "is_disabled": 0, "type": "electric_scooter", "is_reserved": 0, "fusion_lon": 0.0, "lat": 38.9095015, "rental_uris": {"ios": "https://dc.lft.to/lastmile_qr_scan", "android": "https://dc.lft.to/lastmile_qr_scan"}, "bike_id": "5fb8ce5358d3c0f087f892fc14160b6b", "fusion_lat": 0.0}, {"lon": -77.01296433333333, "name": "785728c4c9ba955f893e792634c04398", "is_disabled": 0, "type": "electric_bike", "is_reserved": 0, "fusion_lon": 0.0, "lat": 38.88161983333333, "rental_uris": {"ios": "https://dc.lft.to/lastmile_qr_scan", "android": "https://dc.lft.to/lastmile_qr_scan"}, "bike_id": "785728c4c9ba955f893e792634c04398", "fusion_lat": 0.0}, {"lon": -76.95167666666667, "name": "65f5559c5d6c85272ca7c43e3e526fc7", "is_disabled": 0, "type": "electric_bike", "is_reserved": 0, "fusion_lon": 0.0, "lat": 39.08432533333333, "rental_uris": {"ios": "https://dc.lft.to/lastmile_qr_scan", "android": "https://dc.lft.to/lastmile_qr_scan"}, "bike_id": "65f5559c5d6c85272ca7c43e3e526fc7", "fusion_lat": 0.0}, {"lon": -77.03653433333334, "name": "d97031ec0b46d98fcf31236f7f7315c8", "is_disabled": 0, "type": "electric_scooter", "is_reserved": 0, "fusion_lon": 0.0, "lat": 38.923855333333336, "rental_uris": {"ios": "https://dc.lft.to/lastmile_qr_scan", "android": "https://dc.lft.to/lastmile_qr_scan"}, "bike_id": "d97031ec0b46d98fcf31236f7f7315c8", "fusion_lat": 0.0}, {"lon": -77.01949766666667, "name": "276d069409f0ecce5714e8d7acd2731e", "is_disabled": 0, "type": "electric_scooter", "is_reserved": 0, "fusion_lon": 0.0, "lat": 38.92254466666667, "rental_uris": {"ios": "https://dc.lft.to/lastmile_qr_scan", "android": "https://dc.lft.to/lastmile_qr_scan"}, "bike_id": "276d069409f0ecce5714e8d7acd2731e", "fusion_lat": 0.0}, {"lon": -77.11302966666666, "name": "737a112c975bad362511e87c99b205ad", "is_disabled": 0, "type": "electric_bike", "is_reserved": 0, "fusion_lon": 0.0, "lat": 38.83136733333333, "rental_uris": {"ios": "https://dc.lft.to/lastmile_qr_scan", "android": "https://dc.lft.to/lastmile_qr_scan"}, "bike_id": "737a112c975bad362511e87c99b205ad", "fusion_lat": 0.0}, {"lon": -77.04513733333333, "name": "a46b103e8bd87ed70372e2ce57e67522", "is_disabled": 0, "type": "electric_scooter", "is_reserved": 0, "fusion_lon": 0.0, "lat": 38.91961516666667, "rental_uris": {"ios": "https://dc.lft.to/lastmile_qr_scan", "android": "https://dc.lft.to/lastmile_qr_scan"}, "bike_id": "a46b103e8bd87ed70372e2ce57e67522", "fusion_lat": 0.0}, {"lon": -77.02694766666667, "name": "c30258fb4246efd0ac04c9de0782beb0", "is_disabled": 0, "type": "electric_scooter", "is_reserved": 0, "fusion_lon": 0.0, "lat": 38.918773333333334, "rental_uris": {"ios": "https://dc.lft.to/lastmile_qr_scan", "android": "https://dc.lft.to/lastmile_qr_scan"}, "bike_id": "c30258fb4246efd0ac04c9de0782beb0", "fusion_lat": 0.0}, {"lon": -77.048969, "name": "f05ab1df666a3af0bfb4c44c8b2240f4", "is_disabled": 0, "type": "electric_scooter", "is_reserved": 0, "fusion_lon": 0.0, "lat": 38.900659833333336, "rental_uris": {"ios": "https://dc.lft.to/lastmile_qr_scan", "android": "https://dc.lft.to/lastmile_qr_scan"}, "bike_id": "f05ab1df666a3af0bfb4c44c8b2240f4", "fusion_lat": 0.0}, {"lon": -77.02687733333333, "name": "bc85009361eaed9c69184c898792cc0a", "is_disabled": 0, "type": "electric_scooter", "is_reserved": 0, "fusion_lon": 0.0, "lat": 38.90590533333334, "rental_uris": {"ios": "https://dc.lft.to/lastmile_qr_scan", "android": "https://dc.lft.to/lastmile_qr_scan"}, "bike_id": "bc85009361eaed9c69184c898792cc0a", "fusion_lat": 0.0}, {"lon": -77.01451716666666, "name": "f8858b9cfd52cd00567333105d01dd76", "is_disabled": 0, "type": "electric_scooter", "is_reserved": 0, "fusion_lon": 0.0, "lat": 38.958150333333336, "rental_uris": {"ios": "https://dc.lft.to/lastmile_qr_scan", "android": "https://dc.lft.to/lastmile_qr_scan"}, "bike_id": "f8858b9cfd52cd00567333105d01dd76", "fusion_lat": 0.0}, {"lon": -77.02761966666667, "name": "20e7eb996f2afbd95bc7a4144281c004", "is_disabled": 0, "type": "electric_scooter", "is_reserved": 0, "fusion_lon": 0.0, "lat": 38.92768066666667, "rental_uris": {"ios": "https://dc.lft.to/lastmile_qr_scan", "android": "https://dc.lft.to/lastmile_qr_scan"}, "bike_id": "20e7eb996f2afbd95bc7a4144281c004", "fusion_lat": 0.0}, {"lon": -77.23177133333333, "name": "79934c37a2e9d97c553f65b93c072abc", "is_disabled": 0, "type": "electric_bike", "is_reserved": 0, "fusion_lon": 0.0, "lat": 38.92896233333333, "rental_uris": {"ios": "https://dc.lft.to/lastmile_qr_scan", "android": "https://dc.lft.to/lastmile_qr_scan"}, "bike_id": "79934c37a2e9d97c553f65b93c072abc", "fusion_lat": 0.0}, {"lon": -77.07915366666667, "name": "c3c2364b6d3d130765d982dd5382c715", "is_disabled": 0, "type": "electric_bike", "is_reserved": 0, "fusion_lon": 0.0, "lat": 38.83826583333333, "rental_uris": {"ios": "https://dc.lft.to/lastmile_qr_scan", "android": "https://dc.lft.to/lastmile_qr_scan"}, "bike_id": "c3c2364b6d3d130765d982dd5382c715", "fusion_lat": 0.0}, {"lon": -77.011911, "name": "de8eb123593484e4ad9c7068b0be97cd", "is_disabled": 0, "type": "electric_scooter", "is_reserved": 0, "fusion_lon": 0.0, "lat": 38.91691566666667, "rental_uris": {"ios": "https://dc.lft.to/lastmile_qr_scan", "android": "https://dc.lft.to/lastmile_qr_scan"}, "bike_id": "de8eb123593484e4ad9c7068b0be97cd", "fusion_lat": 0.0}, {"lon": -77.02136466666667, "name": "4e5866d063db6144e8423b6321c21fc3", "is_disabled": 0, "type": "electric_scooter", "is_reserved": 0, "fusion_lon": 0.0, "lat": 38.933024833333334, "rental_uris": {"ios": "https://dc.lft.to/lastmile_qr_scan", "android": "https://dc.lft.to/lastmile_qr_scan"}, "bike_id": "4e5866d063db6144e8423b6321c21fc3", "fusion_lat": 0.0}, {"lon": -77.015058, "name": "6c15bf461e36afcaac8b6c9dcd70a818", "is_disabled": 0, "type": "electric_scooter", "is_reserved": 0, "fusion_lon": 0.0, "lat": 38.91004783333333, "rental_uris": {"ios": "https://dc.lft.to/lastmile_qr_scan", "android": "https://dc.lft.to/lastmile_qr_scan"}, "bike_id": "6c15bf461e36afcaac8b6c9dcd70a818", "fusion_lat": 0.0}, {"lon": -77.0316455, "name": "da6c769ae5676b61b235b5b5901d0bc9", "is_disabled": 0, "type": "electric_scooter", "is_reserved": 0, "fusion_lon": 0.0, "lat": 38.89225483333333, "rental_uris": {"ios": "https://dc.lft.to/lastmile_qr_scan", "android": "https://dc.lft.to/lastmile_qr_scan"}, "bike_id": "da6c769ae5676b61b235b5b5901d0bc9", "fusion_lat": 0.0}, {"lon": -77.02176016666667, "name": "4a33c3859666e72246cfe0795fced25e", "is_disabled": 0, "type": "electric_scooter", "is_reserved": 0, "fusion_lon": 0.0, "lat": 38.914794666666666, "rental_uris": {"ios": "https://dc.lft.to/lastmile_qr_scan", "android": "https://dc.lft.to/lastmile_qr_scan"}, "bike_id": "4a33c3859666e72246cfe0795fced25e", "fusion_lat": 0.0}, {"lon": -77.023981, "name": "12facd812959dbe24f774fa55b935899", "is_disabled": 0, "type": "electric_scooter", "is_reserved": 0, "fusion_lon": 0.0, "lat": 38.916446666666666, "rental_uris": {"ios": "https://dc.lft.to/lastmile_qr_scan", "android": "https://dc.lft.to/lastmile_qr_scan"}, "bike_id": "12facd812959dbe24f774fa55b935899", "fusion_lat": 0.0}, {"lon": -77.046211, "name": "6fdd8cca64756fb01018b9aeb060430e", "is_disabled": 0, "type": "electric_scooter", "is_reserved": 0, "fusion_lon": 0.0, "lat": 38.92329083333333, "rental_uris": {"ios": "https://dc.lft.to/lastmile_qr_scan", "android": "https://dc.lft.to/lastmile_qr_scan"}, "bike_id": "6fdd8cca64756fb01018b9aeb060430e", "fusion_lat": 0.0}, {"lon": -77.02085683333334, "name": "d9e97e072b78265c4d6778555be1f13a", "is_disabled": 0, "type": "electric_scooter", "is_reserved": 0, "fusion_lon": 0.0, "lat": 38.927126333333334, "rental_uris": {"ios": "https://dc.lft.to/lastmile_qr_scan", "android": "https://dc.lft.to/lastmile_qr_scan"}, "bike_id": "d9e97e072b78265c4d6778555be1f13a", "fusion_lat": 0.0}, {"lon": -77.043796, "name": "53c4432fc71f5d408f01cc8b6f63fdf4", "is_disabled": 0, "type": "electric_scooter", "is_reserved": 0, "fusion_lon": 0.0, "lat": 38.92360266666667, "rental_uris": {"ios": "https://dc.lft.to/lastmile_qr_scan", "android": "https://dc.lft.to/lastmile_qr_scan"}, "bike_id": "53c4432fc71f5d408f01cc8b6f63fdf4", "fusion_lat": 0.0}, {"lon": -77.0386995, "name": "753b0c96910d753202d0fb346ff6eb71", "is_disabled": 0, "type": "electric_scooter", "is_reserved": 0, "fusion_lon": 0.0, "lat": 38.921531333333334, "rental_uris": {"ios": "https://dc.lft.to/lastmile_qr_scan", "android": "https://dc.lft.to/lastmile_qr_scan"}, "bike_id": "753b0c96910d753202d0fb346ff6eb71", "fusion_lat": 0.0}, {"lon": -77.02394966666667, "name": "9a7bd133dd803730dd41f5a9ba981693", "is_disabled": 0, "type": "electric_scooter", "is_reserved": 0, "fusion_lon": 0.0, "lat": 38.904035, "rental_uris": {"ios": "https://dc.lft.to/lastmile_qr_scan", "android": "https://dc.lft.to/lastmile_qr_scan"}, "bike_id": "9a7bd133dd803730dd41f5a9ba981693", "fusion_lat": 0.0}, {"lon": -77.05296633333333, "name": "2807dc80c0ce0d694d48fa05c8a2d221", "is_disabled": 0, "type": "electric_scooter", "is_reserved": 0, "fusion_lon": 0.0, "lat": 38.925521, "rental_uris": {"ios": "https://dc.lft.to/lastmile_qr_scan", "android": "https://dc.lft.to/lastmile_qr_scan"}, "bike_id": "2807dc80c0ce0d694d48fa05c8a2d221", "fusion_lat": 0.0}, {"lon": -77.02203616666667, "name": "a5a1eb8cf6ecc2d8c935c62441415fdf", "is_disabled": 0, "type": "electric_scooter", "is_reserved": 0, "fusion_lon": 0.0, "lat": 38.91263683333333, "rental_uris": {"ios": "https://dc.lft.to/lastmile_qr_scan", "android": "https://dc.lft.to/lastmile_qr_scan"}, "bike_id": "a5a1eb8cf6ecc2d8c935c62441415fdf", "fusion_lat": 0.0}, {"lon": -77.06369383333333, "name": "e67cb6b7aeb68450294e13936d8c8bf4", "is_disabled": 0, "type": "electric_scooter", "is_reserved": 0, "fusion_lon": 0.0, "lat": 38.90838566666667, "rental_uris": {"ios": "https://dc.lft.to/lastmile_qr_scan", "android": "https://dc.lft.to/lastmile_qr_scan"}, "bike_id": "e67cb6b7aeb68450294e13936d8c8bf4", "fusion_lat": 0.0}, {"lon": -77.01974983333334, "name": "339ee28d171e4455c52a35d9d903f678", "is_disabled": 0, "type": "electric_scooter", "is_reserved": 0, "fusion_lon": 0.0, "lat": 38.930197, "rental_uris": {"ios": "https://dc.lft.to/lastmile_qr_scan", "android": "https://dc.lft.to/lastmile_qr_scan"}, "bike_id": "339ee28d171e4455c52a35d9d903f678", "fusion_lat": 0.0}, {"lon": -77.02766483333333, "name": "e79e6b23b5dc6a4eebff581e597404c6", "is_disabled": 0, "type": "electric_scooter", "is_reserved": 0, "fusion_lon": 0.0, "lat": 38.954263, "rental_uris": {"ios": "https://dc.lft.to/lastmile_qr_scan", "android": "https://dc.lft.to/lastmile_qr_scan"}, "bike_id": "e79e6b23b5dc6a4eebff581e597404c6", "fusion_lat": 0.0}, {"lon": -77.02533333333334, "name": "1656b1cdbbb286a2481fbacb16c8fec2", "is_disabled": 0, "type": "electric_scooter", "is_reserved": 0, "fusion_lon": 0.0, "lat": 38.939895166666666, "rental_uris": {"ios": "https://dc.lft.to/lastmile_qr_scan", "android": "https://dc.lft.to/lastmile_qr_scan"}, "bike_id": "1656b1cdbbb286a2481fbacb16c8fec2", "fusion_lat": 0.0}, {"lon": -77.0197545, "name": "dc288ee74d6d0ef884185bd31afdfc96", "is_disabled": 0, "type": "electric_bike", "is_reserved": 0, "fusion_lon": 0.0, "lat": 38.96383066666667, "rental_uris": {"ios": "https://dc.lft.to/lastmile_qr_scan", "android": "https://dc.lft.to/lastmile_qr_scan"}, "bike_id": "dc288ee74d6d0ef884185bd31afdfc96", "fusion_lat": 0.0}, {"lon": -77.02209916666666, "name": "3d5f55f69e7797d3f8972d0cdaec7746", "is_disabled": 0, "type": "electric_scooter", "is_reserved": 0, "fusion_lon": 0.0, "lat": 38.912686, "rental_uris": {"ios": "https://dc.lft.to/lastmile_qr_scan", "android": "https://dc.lft.to/lastmile_qr_scan"}, "bike_id": "3d5f55f69e7797d3f8972d0cdaec7746", "fusion_lat": 0.0}, {"lon": -77.03213133333334, "name": "907afe173fafd9990593c2f65d16f4a3", "is_disabled": 0, "type": "electric_scooter", "is_reserved": 0, "fusion_lon": 0.0, "lat": 38.917057166666666, "rental_uris": {"ios": "https://dc.lft.to/lastmile_qr_scan", "android": "https://dc.lft.to/lastmile_qr_scan"}, "bike_id": "907afe173fafd9990593c2f65d16f4a3", "fusion_lat": 0.0}, {"lon": -76.95698866666666, "name": "ee09b5a576b3d2e0c2d688aeff8defd3", "is_disabled": 0, "type": "electric_bike", "is_reserved": 0, "fusion_lon": 0.0, "lat": 38.88874083333333, "rental_uris": {"ios": "https://dc.lft.to/lastmile_qr_scan", "android": "https://dc.lft.to/lastmile_qr_scan"}, "bike_id": "ee09b5a576b3d2e0c2d688aeff8defd3", "fusion_lat": 0.0}, {"lon": -77.04454366666667, "name": "4f614c48526f854a0984266e3f346d95", "is_disabled": 0, "type": "electric_scooter", "is_reserved": 0, "fusion_lon": 0.0, "lat": 38.915426333333336, "rental_uris": {"ios": "https://dc.lft.to/lastmile_qr_scan", "android": "https://dc.lft.to/lastmile_qr_scan"}, "bike_id": "4f614c48526f854a0984266e3f346d95", "fusion_lat": 0.0}, {"lon": -76.932393, "name": "bbf84267b2a78d63477f36e59afe2a30", "is_disabled": 0, "type": "electric_bike", "is_reserved": 0, "fusion_lon": 0.0, "lat": 38.88278016666667, "rental_uris": {"ios": "https://dc.lft.to/lastmile_qr_scan", "android": "https://dc.lft.to/lastmile_qr_scan"}, "bike_id": "bbf84267b2a78d63477f36e59afe2a30", "fusion_lat": 0.0}, {"lon": -77.041863, "name": "ed85e8047e46212df5390018c9943f69", "is_disabled": 0, "type": "electric_scooter", "is_reserved": 0, "fusion_lon": 0.0, "lat": 38.92048416666667, "rental_uris": {"ios": "https://dc.lft.to/lastmile_qr_scan", "android": "https://dc.lft.to/lastmile_qr_scan"}, "bike_id": "ed85e8047e46212df5390018c9943f69", "fusion_lat": 0.0}, {"lon": -77.0445815, "name": "6a1fb6ade8396335db3431bfb0d16727", "is_disabled": 0, "type": "electric_scooter", "is_reserved": 0, "fusion_lon": 0.0, "lat": 38.92319466666667, "rental_uris": {"ios": "https://dc.lft.to/lastmile_qr_scan", "android": "https://dc.lft.to/lastmile_qr_scan"}, "bike_id": "6a1fb6ade8396335db3431bfb0d16727", "fusion_lat": 0.0}, {"lon": -77.0902145, "name": "d753a79271329c558661a42a7fa913cc", "is_disabled": 0, "type": "electric_bike", "is_reserved": 0, "fusion_lon": 0.0, "lat": 38.926484, "rental_uris": {"ios": "https://dc.lft.to/lastmile_qr_scan", "android": "https://dc.lft.to/lastmile_qr_scan"}, "bike_id": "d753a79271329c558661a42a7fa913cc", "fusion_lat": 0.0}, {"lon": -77.00499333333333, "name": "989ff953566ccd579368bbd2067bafdd", "is_disabled": 0, "type": "electric_scooter", "is_reserved": 0, "fusion_lon": 0.0, "lat": 38.9162435, "rental_uris": {"ios": "https://dc.lft.to/lastmile_qr_scan", "android": "https://dc.lft.to/lastmile_qr_scan"}, "bike_id": "989ff953566ccd579368bbd2067bafdd", "fusion_lat": 0.0}, {"lon": -77.02129016666666, "name": "c3cb78d037666c262b00b697a596c908", "is_disabled": 0, "type": "electric_scooter", "is_reserved": 0, "fusion_lon": 0.0, "lat": 38.922747666666666, "rental_uris": {"ios": "https://dc.lft.to/lastmile_qr_scan", "android": "https://dc.lft.to/lastmile_qr_scan"}, "bike_id": "c3cb78d037666c262b00b697a596c908", "fusion_lat": 0.0}, {"lon": -77.04897966666667, "name": "b92e9733d58aa2e7893352aec97ee523", "is_disabled": 0, "type": "electric_scooter", "is_reserved": 0, "fusion_lon": 0.0, "lat": 38.900629333333335, "rental_uris": {"ios": "https://dc.lft.to/lastmile_qr_scan", "android": "https://dc.lft.to/lastmile_qr_scan"}, "bike_id": "b92e9733d58aa2e7893352aec97ee523", "fusion_lat": 0.0}, {"lon": -76.99821266666666, "name": "df4d4a8420fbf9c4f462cb7863b99c65", "is_disabled": 0, "type": "electric_scooter", "is_reserved": 0, "fusion_lon": 0.0, "lat": 38.90723966666667, "rental_uris": {"ios": "https://dc.lft.to/lastmile_qr_scan", "android": "https://dc.lft.to/lastmile_qr_scan"}, "bike_id": "df4d4a8420fbf9c4f462cb7863b99c65", "fusion_lat": 0.0}, {"lon": -77.01604983333333, "name": "8e9c8a30d755f50b766ac424f9d45ca9", "is_disabled": 0, "type": "electric_scooter", "is_reserved": 0, "fusion_lon": 0.0, "lat": 38.91947433333333, "rental_uris": {"ios": "https://dc.lft.to/lastmile_qr_scan", "android": "https://dc.lft.to/lastmile_qr_scan"}, "bike_id": "8e9c8a30d755f50b766ac424f9d45ca9", "fusion_lat": 0.0}, {"lon": -77.021611, "name": "a44f54fc250edfb182a847418dc7a7f4", "is_disabled": 0, "type": "electric_scooter", "is_reserved": 0, "fusion_lon": 0.0, "lat": 38.886302, "rental_uris": {"ios": "https://dc.lft.to/lastmile_qr_scan", "android": "https://dc.lft.to/lastmile_qr_scan"}, "bike_id": "a44f54fc250edfb182a847418dc7a7f4", "fusion_lat": 0.0}, {"lon": -77.029515, "name": "fae50725a26d36d66a391fbcce3abc16", "is_disabled": 0, "type": "electric_scooter", "is_reserved": 0, "fusion_lon": 0.0, "lat": 38.943077, "rental_uris": {"ios": "https://dc.lft.to/lastmile_qr_scan", "android": "https://dc.lft.to/lastmile_qr_scan"}, "bike_id": "fae50725a26d36d66a391fbcce3abc16", "fusion_lat": 0.0}, {"lon": -77.021511, "name": "baf0c78a7a314ce39c78fced82b8f3d7", "is_disabled": 0, "type": "electric_scooter", "is_reserved": 0, "fusion_lon": 0.0, "lat": 38.92443733333333, "rental_uris": {"ios": "https://dc.lft.to/lastmile_qr_scan", "android": "https://dc.lft.to/lastmile_qr_scan"}, "bike_id": "baf0c78a7a314ce39c78fced82b8f3d7", "fusion_lat": 0.0}, {"lon": -77.06294, "name": "74471e60204828216b132352a497e21c", "is_disabled": 0, "type": "electric_scooter", "is_reserved": 0, "fusion_lon": 0.0, "lat": 38.9077185, "rental_uris": {"ios": "https://dc.lft.to/lastmile_qr_scan", "android": "https://dc.lft.to/lastmile_qr_scan"}, "bike_id": "74471e60204828216b132352a497e21c", "fusion_lat": 0.0}, {"lon": -77.03525266666666, "name": "ba41335735586b061347731b0c2f5c24", "is_disabled": 0, "type": "electric_scooter", "is_reserved": 0, "fusion_lon": 0.0, "lat": 38.9327795, "rental_uris": {"ios": "https://dc.lft.to/lastmile_qr_scan", "android": "https://dc.lft.to/lastmile_qr_scan"}, "bike_id": "ba41335735586b061347731b0c2f5c24", "fusion_lat": 0.0}, {"lon": -77.02483483333333, "name": "cf8d5f149eee42b8520d4f99248257e2", "is_disabled": 0, "type": "electric_scooter", "is_reserved": 0, "fusion_lon": 0.0, "lat": 38.91812766666666, "rental_uris": {"ios": "https://dc.lft.to/lastmile_qr_scan", "android": "https://dc.lft.to/lastmile_qr_scan"}, "bike_id": "cf8d5f149eee42b8520d4f99248257e2", "fusion_lat": 0.0}, {"lon": -77.009058, "name": "b58b87cae2b728ec364d10dc3e9de546", "is_disabled": 0, "type": "electric_scooter", "is_reserved": 0, "fusion_lon": 0.0, "lat": 38.90073783333333, "rental_uris": {"ios": "https://dc.lft.to/lastmile_qr_scan", "android": "https://dc.lft.to/lastmile_qr_scan"}, "bike_id": "b58b87cae2b728ec364d10dc3e9de546", "fusion_lat": 0.0}, {"lon": -77.03993716666666, "name": "e812222d499771aa475c9b44a2ebcd83", "is_disabled": 0, "type": "electric_scooter", "is_reserved": 0, "fusion_lon": 0.0, "lat": 38.91693516666667, "rental_uris": {"ios": "https://dc.lft.to/lastmile_qr_scan", "android": "https://dc.lft.to/lastmile_qr_scan"}, "bike_id": "e812222d499771aa475c9b44a2ebcd83", "fusion_lat": 0.0}, {"lon": -77.02980016666666, "name": "b50d55c4f97051ffcda072ccba5e5a45", "is_disabled": 0, "type": "electric_scooter", "is_reserved": 0, "fusion_lon": 0.0, "lat": 38.94351733333333, "rental_uris": {"ios": "https://dc.lft.to/lastmile_qr_scan", "android": "https://dc.lft.to/lastmile_qr_scan"}, "bike_id": "b50d55c4f97051ffcda072ccba5e5a45", "fusion_lat": 0.0}, {"lon": -77.002873, "name": "04363680da22bed78ef37295b6adbd1b", "is_disabled": 0, "type": "electric_scooter", "is_reserved": 0, "fusion_lon": 0.0, "lat": 38.8922895, "rental_uris": {"ios": "https://dc.lft.to/lastmile_qr_scan", "android": "https://dc.lft.to/lastmile_qr_scan"}, "bike_id": "04363680da22bed78ef37295b6adbd1b", "fusion_lat": 0.0}, {"lon": -77.02093683333334, "name": "4daed559d1a6002ebf984a7f71fdf176", "is_disabled": 0, "type": "electric_scooter", "is_reserved": 0, "fusion_lon": 0.0, "lat": 38.92148983333333, "rental_uris": {"ios": "https://dc.lft.to/lastmile_qr_scan", "android": "https://dc.lft.to/lastmile_qr_scan"}, "bike_id": "4daed559d1a6002ebf984a7f71fdf176", "fusion_lat": 0.0}, {"lon": -77.00443783333333, "name": "e80e6b3b714df01de30b9247081dae72", "is_disabled": 0, "type": "electric_scooter", "is_reserved": 0, "fusion_lon": 0.0, "lat": 38.878312, "rental_uris": {"ios": "https://dc.lft.to/lastmile_qr_scan", "android": "https://dc.lft.to/lastmile_qr_scan"}, "bike_id": "e80e6b3b714df01de30b9247081dae72", "fusion_lat": 0.0}, {"lon": -76.98486316666667, "name": "93469a78c21410bb195639a26ea55f6e", "is_disabled": 0, "type": "electric_scooter", "is_reserved": 0, "fusion_lon": 0.0, "lat": 38.92032366666667, "rental_uris": {"ios": "https://dc.lft.to/lastmile_qr_scan", "android": "https://dc.lft.to/lastmile_qr_scan"}, "bike_id": "93469a78c21410bb195639a26ea55f6e", "fusion_lat": 0.0}, {"lon": -77.02213483333334, "name": "c19a78eb619c263eabdf3cca8495783e", "is_disabled": 0, "type": "electric_scooter", "is_reserved": 0, "fusion_lon": 0.0, "lat": 38.9126975, "rental_uris": {"ios": "https://dc.lft.to/lastmile_qr_scan", "android": "https://dc.lft.to/lastmile_qr_scan"}, "bike_id": "c19a78eb619c263eabdf3cca8495783e", "fusion_lat": 0.0}, {"lon": -77.04729433333334, "name": "e49dd437563c001b77a0dc21e7f274d0", "is_disabled": 0, "type": "electric_scooter", "is_reserved": 0, "fusion_lon": 0.0, "lat": 38.899570833333335, "rental_uris": {"ios": "https://dc.lft.to/lastmile_qr_scan", "android": "https://dc.lft.to/lastmile_qr_scan"}, "bike_id": "e49dd437563c001b77a0dc21e7f274d0", "fusion_lat": 0.0}, {"lon": -77.00213833333333, "name": "7f7bbdc34294d69bcb8ac326e18bd66c", "is_disabled": 0, "type": "electric_scooter", "is_reserved": 0, "fusion_lon": 0.0, "lat": 38.89810283333333, "rental_uris": {"ios": "https://dc.lft.to/lastmile_qr_scan", "android": "https://dc.lft.to/lastmile_qr_scan"}, "bike_id": "7f7bbdc34294d69bcb8ac326e18bd66c", "fusion_lat": 0.0}, {"lon": -76.99574083333333, "name": "d1451ed4badce63c1993f499e9654493", "is_disabled": 0, "type": "electric_bike", "is_reserved": 0, "fusion_lon": 0.0, "lat": 38.8315695, "rental_uris": {"ios": "https://dc.lft.to/lastmile_qr_scan", "android": "https://dc.lft.to/lastmile_qr_scan"}, "bike_id": "d1451ed4badce63c1993f499e9654493", "fusion_lat": 0.0}, {"lon": -77.01364983333333, "name": "1065756f9bb6cfea6fdcae57cc59980b", "is_disabled": 0, "type": "electric_scooter", "is_reserved": 0, "fusion_lon": 0.0, "lat": 38.91328216666667, "rental_uris": {"ios": "https://dc.lft.to/lastmile_qr_scan", "android": "https://dc.lft.to/lastmile_qr_scan"}, "bike_id": "1065756f9bb6cfea6fdcae57cc59980b", "fusion_lat": 0.0}, {"lon": -77.03508416666666, "name": "b50a71e965204e6ca633d8b4a7744288", "is_disabled": 0, "type": "electric_scooter", "is_reserved": 0, "fusion_lon": 0.0, "lat": 38.90151616666667, "rental_uris": {"ios": "https://dc.lft.to/lastmile_qr_scan", "android": "https://dc.lft.to/lastmile_qr_scan"}, "bike_id": "b50a71e965204e6ca633d8b4a7744288", "fusion_lat": 0.0}, {"lon": -77.03258833333334, "name": "71105b0b58cb832ae0c1f6d9b1324dbd", "is_disabled": 0, "type": "electric_scooter", "is_reserved": 0, "fusion_lon": 0.0, "lat": 38.93249983333333, "rental_uris": {"ios": "https://dc.lft.to/lastmile_qr_scan", "android": "https://dc.lft.to/lastmile_qr_scan"}, "bike_id": "71105b0b58cb832ae0c1f6d9b1324dbd", "fusion_lat": 0.0}, {"lon": -77.06596816666666, "name": "2625a799c0515c758392e28b08e6a3cd", "is_disabled": 0, "type": "electric_scooter", "is_reserved": 0, "fusion_lon": 0.0, "lat": 38.912228999999996, "rental_uris": {"ios": "https://dc.lft.to/lastmile_qr_scan", "android": "https://dc.lft.to/lastmile_qr_scan"}, "bike_id": "2625a799c0515c758392e28b08e6a3cd", "fusion_lat": 0.0}, {"lon": -77.0669045, "name": "fe7e286deffdf12f208c9155c8f52345", "is_disabled": 0, "type": "electric_scooter", "is_reserved": 0, "fusion_lon": 0.0, "lat": 38.91420383333333, "rental_uris": {"ios": "https://dc.lft.to/lastmile_qr_scan", "android": "https://dc.lft.to/lastmile_qr_scan"}, "bike_id": "fe7e286deffdf12f208c9155c8f52345", "fusion_lat": 0.0}, {"lon": -77.0172355, "name": "2a960b8ea4a6541dd0b5914438552313", "is_disabled": 0, "type": "electric_scooter", "is_reserved": 0, "fusion_lon": 0.0, "lat": 38.88040783333334, "rental_uris": {"ios": "https://dc.lft.to/lastmile_qr_scan", "android": "https://dc.lft.to/lastmile_qr_scan"}, "bike_id": "2a960b8ea4a6541dd0b5914438552313", "fusion_lat": 0.0}, {"lon": -77.03379216666667, "name": "7bbeaeb95c896ab2432b348ed9dcaa7b", "is_disabled": 0, "type": "electric_scooter", "is_reserved": 0, "fusion_lon": 0.0, "lat": 38.90959266666667, "rental_uris": {"ios": "https://dc.lft.to/lastmile_qr_scan", "android": "https://dc.lft.to/lastmile_qr_scan"}, "bike_id": "7bbeaeb95c896ab2432b348ed9dcaa7b", "fusion_lat": 0.0}, {"lon": -77.0198915, "name": "bfa4dc0bcca66edfffca89924ce63e41", "is_disabled": 0, "type": "electric_scooter", "is_reserved": 0, "fusion_lon": 0.0, "lat": 38.885518833333336, "rental_uris": {"ios": "https://dc.lft.to/lastmile_qr_scan", "android": "https://dc.lft.to/lastmile_qr_scan"}, "bike_id": "bfa4dc0bcca66edfffca89924ce63e41", "fusion_lat": 0.0}, {"lon": -77.07544616666667, "name": "cf5f1812d78ae9440a45638d3af546f5", "is_disabled": 0, "type": "electric_scooter", "is_reserved": 0, "fusion_lon": 0.0, "lat": 38.915384833333334, "rental_uris": {"ios": "https://dc.lft.to/lastmile_qr_scan", "android": "https://dc.lft.to/lastmile_qr_scan"}, "bike_id": "cf5f1812d78ae9440a45638d3af546f5", "fusion_lat": 0.0}, {"lon": -77.017733, "name": "03bf589edf65b8e8d7d5dd4e81143d07", "is_disabled": 0, "type": "electric_scooter", "is_reserved": 0, "fusion_lon": 0.0, "lat": 38.92047083333333, "rental_uris": {"ios": "https://dc.lft.to/lastmile_qr_scan", "android": "https://dc.lft.to/lastmile_qr_scan"}, "bike_id": "03bf589edf65b8e8d7d5dd4e81143d07", "fusion_lat": 0.0}, {"lon": -76.91803266666666, "name": "41dc4898a4b9c3e6017f6776883a54d6", "is_disabled": 0, "type": "electric_bike", "is_reserved": 0, "fusion_lon": 0.0, "lat": 39.000026, "rental_uris": {"ios": "https://dc.lft.to/lastmile_qr_scan", "android": "https://dc.lft.to/lastmile_qr_scan"}, "bike_id": "41dc4898a4b9c3e6017f6776883a54d6", "fusion_lat": 0.0}, {"lon": -77.0337705, "name": "01bdb325af631621a9fa495ced2b7091", "is_disabled": 0, "type": "electric_scooter", "is_reserved": 0, "fusion_lon": 0.0, "lat": 38.92464916666667, "rental_uris": {"ios": "https://dc.lft.to/lastmile_qr_scan", "android": "https://dc.lft.to/lastmile_qr_scan"}, "bike_id": "01bdb325af631621a9fa495ced2b7091", "fusion_lat": 0.0}, {"lon": -77.03259966666667, "name": "20bcaf3ec9f84c6ebdd61d9eb19943af", "is_disabled": 0, "type": "electric_scooter", "is_reserved": 0, "fusion_lon": 0.0, "lat": 38.925433, "rental_uris": {"ios": "https://dc.lft.to/lastmile_qr_scan", "android": "https://dc.lft.to/lastmile_qr_scan"}, "bike_id": "20bcaf3ec9f84c6ebdd61d9eb19943af", "fusion_lat": 0.0}, {"lon": -77.0151235, "name": "f2c0a978d0ff67ed98b29cb238ec9bda", "is_disabled": 0, "type": "electric_scooter", "is_reserved": 0, "fusion_lon": 0.0, "lat": 38.896725333333336, "rental_uris": {"ios": "https://dc.lft.to/lastmile_qr_scan", "android": "https://dc.lft.to/lastmile_qr_scan"}, "bike_id": "f2c0a978d0ff67ed98b29cb238ec9bda", "fusion_lat": 0.0}, {"lon": -77.03004333333334, "name": "d5e798860fe960e7524f3df3cacc81cf", "is_disabled": 0, "type": "electric_scooter", "is_reserved": 0, "fusion_lon": 0.0, "lat": 38.89557933333333, "rental_uris": {"ios": "https://dc.lft.to/lastmile_qr_scan", "android": "https://dc.lft.to/lastmile_qr_scan"}, "bike_id": "d5e798860fe960e7524f3df3cacc81cf", "fusion_lat": 0.0}, {"lon": -76.97681983333334, "name": "e5309d44e8d9074516bc32288c009908", "is_disabled": 0, "type": "electric_scooter", "is_reserved": 0, "fusion_lon": 0.0, "lat": 38.891962, "rental_uris": {"ios": "https://dc.lft.to/lastmile_qr_scan", "android": "https://dc.lft.to/lastmile_qr_scan"}, "bike_id": "e5309d44e8d9074516bc32288c009908", "fusion_lat": 0.0}, {"lon": -76.9965645, "name": "fefd9c514ce5b23ab335868ffaa160f5", "is_disabled": 0, "type": "electric_bike", "is_reserved": 0, "fusion_lon": 0.0, "lat": 38.967775, "rental_uris": {"ios": "https://dc.lft.to/lastmile_qr_scan", "android": "https://dc.lft.to/lastmile_qr_scan"}, "bike_id": "fefd9c514ce5b23ab335868ffaa160f5", "fusion_lat": 0.0}, {"lon": -77.0225935, "name": "28635736818b3a1738214a314df08a68", "is_disabled": 0, "type": "electric_scooter", "is_reserved": 0, "fusion_lon": 0.0, "lat": 38.92817383333333, "rental_uris": {"ios": "https://dc.lft.to/lastmile_qr_scan", "android": "https://dc.lft.to/lastmile_qr_scan"}, "bike_id": "28635736818b3a1738214a314df08a68", "fusion_lat": 0.0}, {"lon": -77.03659483333334, "name": "d1b1e3e7a45b552ba4c64a8f36db4d63", "is_disabled": 0, "type": "electric_scooter", "is_reserved": 0, "fusion_lon": 0.0, "lat": 38.915727, "rental_uris": {"ios": "https://dc.lft.to/lastmile_qr_scan", "android": "https://dc.lft.to/lastmile_qr_scan"}, "bike_id": "d1b1e3e7a45b552ba4c64a8f36db4d63", "fusion_lat": 0.0}, {"lon": -77.01912416666667, "name": "8bfd4e631708aa6ef76c725810eaba0b", "is_disabled": 0, "type": "electric_scooter", "is_reserved": 0, "fusion_lon": 0.0, "lat": 38.897249333333335, "rental_uris": {"ios": "https://dc.lft.to/lastmile_qr_scan", "android": "https://dc.lft.to/lastmile_qr_scan"}, "bike_id": "8bfd4e631708aa6ef76c725810eaba0b", "fusion_lat": 0.0}, {"lon": -77.03249966666667, "name": "1ce21f25442710cda9ed5c312a5837dd", "is_disabled": 0, "type": "electric_scooter", "is_reserved": 0, "fusion_lon": 0.0, "lat": 38.93965733333334, "rental_uris": {"ios": "https://dc.lft.to/lastmile_qr_scan", "android": "https://dc.lft.to/lastmile_qr_scan"}, "bike_id": "1ce21f25442710cda9ed5c312a5837dd", "fusion_lat": 0.0}, {"lon": -76.9951, "name": "ecbd8a08791838793e7c58f2e96f5769", "is_disabled": 0, "type": "electric_scooter", "is_reserved": 0, "fusion_lon": 0.0, "lat": 38.890770833333335, "rental_uris": {"ios": "https://dc.lft.to/lastmile_qr_scan", "android": "https://dc.lft.to/lastmile_qr_scan"}, "bike_id": "ecbd8a08791838793e7c58f2e96f5769", "fusion_lat": 0.0}, {"lon": -77.038643, "name": "04a08d94cd87825ead9d3c47233ebdf7", "is_disabled": 0, "type": "electric_scooter", "is_reserved": 0, "fusion_lon": 0.0, "lat": 38.9170585, "rental_uris": {"ios": "https://dc.lft.to/lastmile_qr_scan", "android": "https://dc.lft.to/lastmile_qr_scan"}, "bike_id": "04a08d94cd87825ead9d3c47233ebdf7", "fusion_lat": 0.0}, {"lon": -77.096236, "name": "ea034533ba8e8191796a13d2406e33c8", "is_disabled": 0, "type": "electric_bike", "is_reserved": 0, "fusion_lon": 0.0, "lat": 38.95250266666667, "rental_uris": {"ios": "https://dc.lft.to/lastmile_qr_scan", "android": "https://dc.lft.to/lastmile_qr_scan"}, "bike_id": "ea034533ba8e8191796a13d2406e33c8", "fusion_lat": 0.0}, {"lon": -77.00219966666667, "name": "d7f1afbd8cd301969c04fc95c8b62131", "is_disabled": 0, "type": "electric_bike", "is_reserved": 0, "fusion_lon": 0.0, "lat": 38.936058, "rental_uris": {"ios": "https://dc.lft.to/lastmile_qr_scan", "android": "https://dc.lft.to/lastmile_qr_scan"}, "bike_id": "d7f1afbd8cd301969c04fc95c8b62131", "fusion_lat": 0.0}, {"lon": -77.01360983333333, "name": "b2138c9ef0bfff78f32377358e780f2d", "is_disabled": 0, "type": "electric_scooter", "is_reserved": 0, "fusion_lon": 0.0, "lat": 38.91261816666667, "rental_uris": {"ios": "https://dc.lft.to/lastmile_qr_scan", "android": "https://dc.lft.to/lastmile_qr_scan"}, "bike_id": "b2138c9ef0bfff78f32377358e780f2d", "fusion_lat": 0.0}, {"lon": -77.03549783333334, "name": "c9a5d96666e0313020bdec33719d5863", "is_disabled": 0, "type": "electric_bike", "is_reserved": 0, "fusion_lon": 0.0, "lat": 38.964856833333336, "rental_uris": {"ios": "https://dc.lft.to/lastmile_qr_scan", "android": "https://dc.lft.to/lastmile_qr_scan"}, "bike_id": "c9a5d96666e0313020bdec33719d5863", "fusion_lat": 0.0}, {"lon": -77.02686783333333, "name": "20b5a9be0f14ac83a1aeaaab67a4107f", "is_disabled": 0, "type": "electric_scooter", "is_reserved": 0, "fusion_lon": 0.0, "lat": 38.92581083333334, "rental_uris": {"ios": "https://dc.lft.to/lastmile_qr_scan", "android": "https://dc.lft.to/lastmile_qr_scan"}, "bike_id": "20b5a9be0f14ac83a1aeaaab67a4107f", "fusion_lat": 0.0}, {"lon": -77.00764016666666, "name": "57f79141948f198c74db3cdccd060b50", "is_disabled": 0, "type": "electric_bike", "is_reserved": 0, "fusion_lon": 0.0, "lat": 38.99782716666667, "rental_uris": {"ios": "https://dc.lft.to/lastmile_qr_scan", "android": "https://dc.lft.to/lastmile_qr_scan"}, "bike_id": "57f79141948f198c74db3cdccd060b50", "fusion_lat": 0.0}, {"lon": -77.014261, "name": "1e60ce3cf9e33e1a2d107adbc08ee1ce", "is_disabled": 0, "type": "electric_bike", "is_reserved": 0, "fusion_lon": 0.0, "lat": 38.876660333333334, "rental_uris": {"ios": "https://dc.lft.to/lastmile_qr_scan", "android": "https://dc.lft.to/lastmile_qr_scan"}, "bike_id": "1e60ce3cf9e33e1a2d107adbc08ee1ce", "fusion_lat": 0.0}, {"lon": -77.03226116666667, "name": "2849eed90ff4ea0b8eba12b94da39b4b", "is_disabled": 0, "type": "electric_scooter", "is_reserved": 0, "fusion_lon": 0.0, "lat": 38.8964065, "rental_uris": {"ios": "https://dc.lft.to/lastmile_qr_scan", "android": "https://dc.lft.to/lastmile_qr_scan"}, "bike_id": "2849eed90ff4ea0b8eba12b94da39b4b", "fusion_lat": 0.0}, {"lon": -77.03876483333333, "name": "77f6f7039636afbe13d987be2e4d5347", "is_disabled": 0, "type": "electric_scooter", "is_reserved": 0, "fusion_lon": 0.0, "lat": 38.9214605, "rental_uris": {"ios": "https://dc.lft.to/lastmile_qr_scan", "android": "https://dc.lft.to/lastmile_qr_scan"}, "bike_id": "77f6f7039636afbe13d987be2e4d5347", "fusion_lat": 0.0}, {"lon": -77.02085583333333, "name": "2c0869483786e3cb7775cedfc4e49f42", "is_disabled": 0, "type": "electric_scooter", "is_reserved": 0, "fusion_lon": 0.0, "lat": 38.9300685, "rental_uris": {"ios": "https://dc.lft.to/lastmile_qr_scan", "android": "https://dc.lft.to/lastmile_qr_scan"}, "bike_id": "2c0869483786e3cb7775cedfc4e49f42", "fusion_lat": 0.0}, {"lon": -76.94568483333333, "name": "017729e101ba43392978e13d49f476ce", "is_disabled": 0, "type": "electric_bike", "is_reserved": 0, "fusion_lon": 0.0, "lat": 38.86622283333333, "rental_uris": {"ios": "https://dc.lft.to/lastmile_qr_scan", "android": "https://dc.lft.to/lastmile_qr_scan"}, "bike_id": "017729e101ba43392978e13d49f476ce", "fusion_lat": 0.0}, {"lon": -77.029744, "name": "482af6588d109dc33809c392b9660ec4", "is_disabled": 0, "type": "electric_scooter", "is_reserved": 0, "fusion_lon": 0.0, "lat": 38.924041833333334, "rental_uris": {"ios": "https://dc.lft.to/lastmile_qr_scan", "android": "https://dc.lft.to/lastmile_qr_scan"}, "bike_id": "482af6588d109dc33809c392b9660ec4", "fusion_lat": 0.0}, {"lon": -77.02129566666666, "name": "ddd3e5529d71dd862dd3f8a52e34d263", "is_disabled": 0, "type": "electric_scooter", "is_reserved": 0, "fusion_lon": 0.0, "lat": 38.92416566666667, "rental_uris": {"ios": "https://dc.lft.to/lastmile_qr_scan", "android": "https://dc.lft.to/lastmile_qr_scan"}, "bike_id": "ddd3e5529d71dd862dd3f8a52e34d263", "fusion_lat": 0.0}, {"lon": -77.0346995, "name": "be75eef0f1fafd7bcdddd29e38f870f9", "is_disabled": 0, "type": "electric_scooter", "is_reserved": 0, "fusion_lon": 0.0, "lat": 38.92982633333333, "rental_uris": {"ios": "https://dc.lft.to/lastmile_qr_scan", "android": "https://dc.lft.to/lastmile_qr_scan"}, "bike_id": "be75eef0f1fafd7bcdddd29e38f870f9", "fusion_lat": 0.0}, {"lon": -77.0343375, "name": "479cc29704aac50d7da35aee63163620", "is_disabled": 0, "type": "electric_scooter", "is_reserved": 0, "fusion_lon": 0.0, "lat": 38.921546666666664, "rental_uris": {"ios": "https://dc.lft.to/lastmile_qr_scan", "android": "https://dc.lft.to/lastmile_qr_scan"}, "bike_id": "479cc29704aac50d7da35aee63163620", "fusion_lat": 0.0}, {"lon": -77.03408633333333, "name": "6585ee055e39668a649b1cb2c25558fd", "is_disabled": 0, "type": "electric_scooter", "is_reserved": 0, "fusion_lon": 0.0, "lat": 38.92341183333333, "rental_uris": {"ios": "https://dc.lft.to/lastmile_qr_scan", "android": "https://dc.lft.to/lastmile_qr_scan"}, "bike_id": "6585ee055e39668a649b1cb2c25558fd", "fusion_lat": 0.0}, {"lon": -77.12888833333334, "name": "21522896bbbf905959921de02ba70db5", "is_disabled": 0, "type": "electric_bike", "is_reserved": 0, "fusion_lon": 0.0, "lat": 38.90605933333333, "rental_uris": {"ios": "https://dc.lft.to/lastmile_qr_scan", "android": "https://dc.lft.to/lastmile_qr_scan"}, "bike_id": "21522896bbbf905959921de02ba70db5", "fusion_lat": 0.0}, {"lon": -77.03187983333333, "name": "f71cd68c8a0d5abce96a555b4e52fdca", "is_disabled": 0, "type": "electric_scooter", "is_reserved": 0, "fusion_lon": 0.0, "lat": 38.91616766666667, "rental_uris": {"ios": "https://dc.lft.to/lastmile_qr_scan", "android": "https://dc.lft.to/lastmile_qr_scan"}, "bike_id": "f71cd68c8a0d5abce96a555b4e52fdca", "fusion_lat": 0.0}, {"lon": -77.0059115, "name": "2deaa66182700bc4ced3f2811815e0fe", "is_disabled": 0, "type": "electric_scooter", "is_reserved": 0, "fusion_lon": 0.0, "lat": 38.906383166666664, "rental_uris": {"ios": "https://dc.lft.to/lastmile_qr_scan", "android": "https://dc.lft.to/lastmile_qr_scan"}, "bike_id": "2deaa66182700bc4ced3f2811815e0fe", "fusion_lat": 0.0}, {"lon": -76.97685883333334, "name": "cedd25a54c0d5cb7dda3abbb293e5925", "is_disabled": 0, "type": "electric_scooter", "is_reserved": 0, "fusion_lon": 0.0, "lat": 38.90092583333333, "rental_uris": {"ios": "https://dc.lft.to/lastmile_qr_scan", "android": "https://dc.lft.to/lastmile_qr_scan"}, "bike_id": "cedd25a54c0d5cb7dda3abbb293e5925", "fusion_lat": 0.0}, {"lon": -77.00905016666667, "name": "240215c7b3589cbd8001a39de19d1372", "is_disabled": 0, "type": "electric_scooter", "is_reserved": 0, "fusion_lon": 0.0, "lat": 38.89547316666667, "rental_uris": {"ios": "https://dc.lft.to/lastmile_qr_scan", "android": "https://dc.lft.to/lastmile_qr_scan"}, "bike_id": "240215c7b3589cbd8001a39de19d1372", "fusion_lat": 0.0}, {"lon": -77.00129616666666, "name": "e37b9a3a9756f7cef54a67fcaf0e6ce6", "is_disabled": 0, "type": "electric_scooter", "is_reserved": 0, "fusion_lon": 0.0, "lat": 38.873845333333335, "rental_uris": {"ios": "https://dc.lft.to/lastmile_qr_scan", "android": "https://dc.lft.to/lastmile_qr_scan"}, "bike_id": "e37b9a3a9756f7cef54a67fcaf0e6ce6", "fusion_lat": 0.0}, {"lon": -77.03248516666666, "name": "10e019f58cfb9cf45f86949821817508", "is_disabled": 0, "type": "electric_scooter", "is_reserved": 0, "fusion_lon": 0.0, "lat": 38.92101183333333, "rental_uris": {"ios": "https://dc.lft.to/lastmile_qr_scan", "android": "https://dc.lft.to/lastmile_qr_scan"}, "bike_id": "10e019f58cfb9cf45f86949821817508", "fusion_lat": 0.0}, {"lon": -77.02797216666667, "name": "33af6664f7d5b1c3586010e13206cf00", "is_disabled": 0, "type": "electric_scooter", "is_reserved": 0, "fusion_lon": 0.0, "lat": 38.9382635, "rental_uris": {"ios": "https://dc.lft.to/lastmile_qr_scan", "android": "https://dc.lft.to/lastmile_qr_scan"}, "bike_id": "33af6664f7d5b1c3586010e13206cf00", "fusion_lat": 0.0}, {"lon": -77.01203933333333, "name": "7120ae3e94b7f521a5a80e097f7fbae1", "is_disabled": 0, "type": "electric_scooter", "is_reserved": 0, "fusion_lon": 0.0, "lat": 38.87095583333333, "rental_uris": {"ios": "https://dc.lft.to/lastmile_qr_scan", "android": "https://dc.lft.to/lastmile_qr_scan"}, "bike_id": "7120ae3e94b7f521a5a80e097f7fbae1", "fusion_lat": 0.0}, {"lon": -76.98519233333333, "name": "eddfe679e773663febce48917682f48c", "is_disabled": 0, "type": "electric_scooter", "is_reserved": 0, "fusion_lon": 0.0, "lat": 38.860080833333335, "rental_uris": {"ios": "https://dc.lft.to/lastmile_qr_scan", "android": "https://dc.lft.to/lastmile_qr_scan"}, "bike_id": "eddfe679e773663febce48917682f48c", "fusion_lat": 0.0}, {"lon": -76.98420083333333, "name": "bb219aaf0204e9f2952ab109282566a3", "is_disabled": 0, "type": "electric_bike", "is_reserved": 0, "fusion_lon": 0.0, "lat": 38.910026, "rental_uris": {"ios": "https://dc.lft.to/lastmile_qr_scan", "android": "https://dc.lft.to/lastmile_qr_scan"}, "bike_id": "bb219aaf0204e9f2952ab109282566a3", "fusion_lat": 0.0}, {"lon": -77.03042616666667, "name": "b183b0c56c0584d7525ebb68e2dd2455", "is_disabled": 0, "type": "electric_scooter", "is_reserved": 0, "fusion_lon": 0.0, "lat": 38.8842165, "rental_uris": {"ios": "https://dc.lft.to/lastmile_qr_scan", "android": "https://dc.lft.to/lastmile_qr_scan"}, "bike_id": "b183b0c56c0584d7525ebb68e2dd2455", "fusion_lat": 0.0}, {"lon": -77.02127083333333, "name": "bd2a94d3e98b6c16c5a61612ff6e829d", "is_disabled": 0, "type": "electric_scooter", "is_reserved": 0, "fusion_lon": 0.0, "lat": 38.92392816666667, "rental_uris": {"ios": "https://dc.lft.to/lastmile_qr_scan", "android": "https://dc.lft.to/lastmile_qr_scan"}, "bike_id": "bd2a94d3e98b6c16c5a61612ff6e829d", "fusion_lat": 0.0}, {"lon": -77.01218533333333, "name": "ae47764e12f4884d7724566e17b0b870", "is_disabled": 0, "type": "electric_scooter", "is_reserved": 0, "fusion_lon": 0.0, "lat": 38.900025166666666, "rental_uris": {"ios": "https://dc.lft.to/lastmile_qr_scan", "android": "https://dc.lft.to/lastmile_qr_scan"}, "bike_id": "ae47764e12f4884d7724566e17b0b870", "fusion_lat": 0.0}, {"lon": -77.02159316666666, "name": "e43e5d29861f867909143bb9f5cdff91", "is_disabled": 0, "type": "electric_scooter", "is_reserved": 0, "fusion_lon": 0.0, "lat": 38.92612483333333, "rental_uris": {"ios": "https://dc.lft.to/lastmile_qr_scan", "android": "https://dc.lft.to/lastmile_qr_scan"}, "bike_id": "e43e5d29861f867909143bb9f5cdff91", "fusion_lat": 0.0}, {"lon": -76.98198366666666, "name": "fdfce769fdcb16aff0d6bb45f590fea4", "is_disabled": 0, "type": "electric_bike", "is_reserved": 0, "fusion_lon": 0.0, "lat": 38.985071833333336, "rental_uris": {"ios": "https://dc.lft.to/lastmile_qr_scan", "android": "https://dc.lft.to/lastmile_qr_scan"}, "bike_id": "fdfce769fdcb16aff0d6bb45f590fea4", "fusion_lat": 0.0}, {"lon": -77.02027333333334, "name": "4f429a55a62d8022da8a7d7c54fa1def", "is_disabled": 0, "type": "electric_scooter", "is_reserved": 0, "fusion_lon": 0.0, "lat": 38.924344166666664, "rental_uris": {"ios": "https://dc.lft.to/lastmile_qr_scan", "android": "https://dc.lft.to/lastmile_qr_scan"}, "bike_id": "4f429a55a62d8022da8a7d7c54fa1def", "fusion_lat": 0.0}, {"lon": -77.03516866666666, "name": "98e86e478dafbc0ee50f706ba1ec3c51", "is_disabled": 0, "type": "electric_scooter", "is_reserved": 0, "fusion_lon": 0.0, "lat": 38.922412, "rental_uris": {"ios": "https://dc.lft.to/lastmile_qr_scan", "android": "https://dc.lft.to/lastmile_qr_scan"}, "bike_id": "98e86e478dafbc0ee50f706ba1ec3c51", "fusion_lat": 0.0}, {"lon": -77.02203283333333, "name": "0eaf37c4d9de99d7f2708f8adf351b69", "is_disabled": 0, "type": "electric_scooter", "is_reserved": 0, "fusion_lon": 0.0, "lat": 38.91115766666667, "rental_uris": {"ios": "https://dc.lft.to/lastmile_qr_scan", "android": "https://dc.lft.to/lastmile_qr_scan"}, "bike_id": "0eaf37c4d9de99d7f2708f8adf351b69", "fusion_lat": 0.0}, {"lon": -77.02273016666666, "name": "9eddd013ac4f06e0528485d13a57b456", "is_disabled": 0, "type": "electric_scooter", "is_reserved": 0, "fusion_lon": 0.0, "lat": 38.9164495, "rental_uris": {"ios": "https://dc.lft.to/lastmile_qr_scan", "android": "https://dc.lft.to/lastmile_qr_scan"}, "bike_id": "9eddd013ac4f06e0528485d13a57b456", "fusion_lat": 0.0}, {"lon": -76.99861433333334, "name": "5d9b2cab772a9a9ec2f177bb387f6323", "is_disabled": 0, "type": "electric_scooter", "is_reserved": 0, "fusion_lon": 0.0, "lat": 38.902583166666666, "rental_uris": {"ios": "https://dc.lft.to/lastmile_qr_scan", "android": "https://dc.lft.to/lastmile_qr_scan"}, "bike_id": "5d9b2cab772a9a9ec2f177bb387f6323", "fusion_lat": 0.0}, {"lon": -77.01807116666667, "name": "aa2eb9de80f65db5964630787c54b2f4", "is_disabled": 0, "type": "electric_scooter", "is_reserved": 0, "fusion_lon": 0.0, "lat": 38.92139183333333, "rental_uris": {"ios": "https://dc.lft.to/lastmile_qr_scan", "android": "https://dc.lft.to/lastmile_qr_scan"}, "bike_id": "aa2eb9de80f65db5964630787c54b2f4", "fusion_lat": 0.0}, {"lon": -77.00061616666666, "name": "a4cae369d81689d03c82d1884ed54db1", "is_disabled": 0, "type": "electric_scooter", "is_reserved": 0, "fusion_lon": 0.0, "lat": 38.887765, "rental_uris": {"ios": "https://dc.lft.to/lastmile_qr_scan", "android": "https://dc.lft.to/lastmile_qr_scan"}, "bike_id": "a4cae369d81689d03c82d1884ed54db1", "fusion_lat": 0.0}, {"lon": -77.001682, "name": "f6390270701fe45bc1a4c8fd0cef9649", "is_disabled": 0, "type": "electric_scooter", "is_reserved": 0, "fusion_lon": 0.0, "lat": 38.940778333333334, "rental_uris": {"ios": "https://dc.lft.to/lastmile_qr_scan", "android": "https://dc.lft.to/lastmile_qr_scan"}, "bike_id": "f6390270701fe45bc1a4c8fd0cef9649", "fusion_lat": 0.0}, {"lon": -77.01879916666667, "name": "94415b057e689476970169362a687d91", "is_disabled": 0, "type": "electric_scooter", "is_reserved": 0, "fusion_lon": 0.0, "lat": 38.91939133333333, "rental_uris": {"ios": "https://dc.lft.to/lastmile_qr_scan", "android": "https://dc.lft.to/lastmile_qr_scan"}, "bike_id": "94415b057e689476970169362a687d91", "fusion_lat": 0.0}, {"lon": -77.01721166666667, "name": "b82963ce069eb5ea03547d7e1ffc5469", "is_disabled": 0, "type": "electric_scooter", "is_reserved": 0, "fusion_lon": 0.0, "lat": 38.913625833333334, "rental_uris": {"ios": "https://dc.lft.to/lastmile_qr_scan", "android": "https://dc.lft.to/lastmile_qr_scan"}, "bike_id": "b82963ce069eb5ea03547d7e1ffc5469", "fusion_lat": 0.0}, {"lon": -77.02950833333334, "name": "b06086beb75a1fc269ac5ccc0b4eb140", "is_disabled": 0, "type": "electric_scooter", "is_reserved": 0, "fusion_lon": 0.0, "lat": 38.92769166666667, "rental_uris": {"ios": "https://dc.lft.to/lastmile_qr_scan", "android": "https://dc.lft.to/lastmile_qr_scan"}, "bike_id": "b06086beb75a1fc269ac5ccc0b4eb140", "fusion_lat": 0.0}, {"lon": -77.00178733333334, "name": "eb4216d856a5a6acc61a367feb23e872", "is_disabled": 0, "type": "electric_scooter", "is_reserved": 0, "fusion_lon": 0.0, "lat": 38.88860366666667, "rental_uris": {"ios": "https://dc.lft.to/lastmile_qr_scan", "android": "https://dc.lft.to/lastmile_qr_scan"}, "bike_id": "eb4216d856a5a6acc61a367feb23e872", "fusion_lat": 0.0}, {"lon": -76.99844, "name": "929500490ebcca972eb09bf0153f4c11", "is_disabled": 0, "type": "electric_scooter", "is_reserved": 0, "fusion_lon": 0.0, "lat": 38.900049833333334, "rental_uris": {"ios": "https://dc.lft.to/lastmile_qr_scan", "android": "https://dc.lft.to/lastmile_qr_scan"}, "bike_id": "929500490ebcca972eb09bf0153f4c11", "fusion_lat": 0.0}, {"lon": -77.02276533333334, "name": "52fe64d16a7168ed7d69c67fdfa516f3", "is_disabled": 0, "type": "electric_scooter", "is_reserved": 0, "fusion_lon": 0.0, "lat": 38.91664933333333, "rental_uris": {"ios": "https://dc.lft.to/lastmile_qr_scan", "android": "https://dc.lft.to/lastmile_qr_scan"}, "bike_id": "52fe64d16a7168ed7d69c67fdfa516f3", "fusion_lat": 0.0}, {"lon": -77.00573066666666, "name": "d5b100ea03b94844df25e24a2e5bf7c9", "is_disabled": 0, "type": "electric_scooter", "is_reserved": 0, "fusion_lon": 0.0, "lat": 38.872131, "rental_uris": {"ios": "https://dc.lft.to/lastmile_qr_scan", "android": "https://dc.lft.to/lastmile_qr_scan"}, "bike_id": "d5b100ea03b94844df25e24a2e5bf7c9", "fusion_lat": 0.0}, {"lon": -77.018398, "name": "c8469d8162832ab9198edb1525f78041", "is_disabled": 0, "type": "electric_scooter", "is_reserved": 0, "fusion_lon": 0.0, "lat": 38.89739383333333, "rental_uris": {"ios": "https://dc.lft.to/lastmile_qr_scan", "android": "https://dc.lft.to/lastmile_qr_scan"}, "bike_id": "c8469d8162832ab9198edb1525f78041", "fusion_lat": 0.0}, {"lon": -77.02639683333334, "name": "d53b479fc7eedcda1ca9692d59824423", "is_disabled": 0, "type": "electric_scooter", "is_reserved": 0, "fusion_lon": 0.0, "lat": 38.911029, "rental_uris": {"ios": "https://dc.lft.to/lastmile_qr_scan", "android": "https://dc.lft.to/lastmile_qr_scan"}, "bike_id": "d53b479fc7eedcda1ca9692d59824423", "fusion_lat": 0.0}, {"lon": -77.07871, "name": "9bbf8ce20da095051f1d8af799351f30", "is_disabled": 0, "type": "electric_scooter", "is_reserved": 0, "fusion_lon": 0.0, "lat": 38.91955216666667, "rental_uris": {"ios": "https://dc.lft.to/lastmile_qr_scan", "android": "https://dc.lft.to/lastmile_qr_scan"}, "bike_id": "9bbf8ce20da095051f1d8af799351f30", "fusion_lat": 0.0}, {"lon": -77.04999233333334, "name": "34da5d0087feef1180ab6ead8fb5a1bd", "is_disabled": 0, "type": "electric_scooter", "is_reserved": 0, "fusion_lon": 0.0, "lat": 38.892318333333336, "rental_uris": {"ios": "https://dc.lft.to/lastmile_qr_scan", "android": "https://dc.lft.to/lastmile_qr_scan"}, "bike_id": "34da5d0087feef1180ab6ead8fb5a1bd", "fusion_lat": 0.0}, {"lon": -77.0613005, "name": "ee337aee5e4cde916c0ffe454b05b224", "is_disabled": 0, "type": "electric_scooter", "is_reserved": 0, "fusion_lon": 0.0, "lat": 38.94108216666667, "rental_uris": {"ios": "https://dc.lft.to/lastmile_qr_scan", "android": "https://dc.lft.to/lastmile_qr_scan"}, "bike_id": "ee337aee5e4cde916c0ffe454b05b224", "fusion_lat": 0.0}, {"lon": -77.04695083333333, "name": "9513132cca38195b64e0de2b452bc75a", "is_disabled": 0, "type": "electric_scooter", "is_reserved": 0, "fusion_lon": 0.0, "lat": 38.92161933333333, "rental_uris": {"ios": "https://dc.lft.to/lastmile_qr_scan", "android": "https://dc.lft.to/lastmile_qr_scan"}, "bike_id": "9513132cca38195b64e0de2b452bc75a", "fusion_lat": 0.0}, {"lon": -77.02373533333333, "name": "ff13e8c48bf8451e1f463e0e5df9de10", "is_disabled": 0, "type": "electric_scooter", "is_reserved": 0, "fusion_lon": 0.0, "lat": 38.90202083333333, "rental_uris": {"ios": "https://dc.lft.to/lastmile_qr_scan", "android": "https://dc.lft.to/lastmile_qr_scan"}, "bike_id": "ff13e8c48bf8451e1f463e0e5df9de10", "fusion_lat": 0.0}, {"lon": -77.0207405, "name": "df9e34f597d7916366c1d4884d875e32", "is_disabled": 0, "type": "electric_scooter", "is_reserved": 0, "fusion_lon": 0.0, "lat": 38.9525555, "rental_uris": {"ios": "https://dc.lft.to/lastmile_qr_scan", "android": "https://dc.lft.to/lastmile_qr_scan"}, "bike_id": "df9e34f597d7916366c1d4884d875e32", "fusion_lat": 0.0}, {"lon": -77.0417045, "name": "7cd890af9266bc46dc44876a7cd21331", "is_disabled": 0, "type": "electric_scooter", "is_reserved": 0, "fusion_lon": 0.0, "lat": 38.917014333333334, "rental_uris": {"ios": "https://dc.lft.to/lastmile_qr_scan", "android": "https://dc.lft.to/lastmile_qr_scan"}, "bike_id": "7cd890af9266bc46dc44876a7cd21331", "fusion_lat": 0.0}, {"lon": -77.014397, "name": "3489f8d7ce424d0c6b04d1a08bb1b369", "is_disabled": 0, "type": "electric_scooter", "is_reserved": 0, "fusion_lon": 0.0, "lat": 38.9130835, "rental_uris": {"ios": "https://dc.lft.to/lastmile_qr_scan", "android": "https://dc.lft.to/lastmile_qr_scan"}, "bike_id": "3489f8d7ce424d0c6b04d1a08bb1b369", "fusion_lat": 0.0}, {"lon": -77.03188616666667, "name": "f9c24774f6f12e7670fc5986578ee89f", "is_disabled": 0, "type": "electric_scooter", "is_reserved": 0, "fusion_lon": 0.0, "lat": 38.9161815, "rental_uris": {"ios": "https://dc.lft.to/lastmile_qr_scan", "android": "https://dc.lft.to/lastmile_qr_scan"}, "bike_id": "f9c24774f6f12e7670fc5986578ee89f", "fusion_lat": 0.0}, {"lon": -76.99856933333334, "name": "ac8d71e6e43b50512ac521bffe389bf3", "is_disabled": 0, "type": "electric_scooter", "is_reserved": 0, "fusion_lon": 0.0, "lat": 38.902564166666664, "rental_uris": {"ios": "https://dc.lft.to/lastmile_qr_scan", "android": "https://dc.lft.to/lastmile_qr_scan"}, "bike_id": "ac8d71e6e43b50512ac521bffe389bf3", "fusion_lat": 0.0}, {"lon": -77.036609, "name": "f1ddccc6ac5c77ab1cd514c484139f06", "is_disabled": 0, "type": "electric_scooter", "is_reserved": 0, "fusion_lon": 0.0, "lat": 38.92285066666667, "rental_uris": {"ios": "https://dc.lft.to/lastmile_qr_scan", "android": "https://dc.lft.to/lastmile_qr_scan"}, "bike_id": "f1ddccc6ac5c77ab1cd514c484139f06", "fusion_lat": 0.0}, {"lon": -77.0231755, "name": "aa8d5ec1c78c0098f63a8622c22aaff2", "is_disabled": 0, "type": "electric_scooter", "is_reserved": 0, "fusion_lon": 0.0, "lat": 38.920804833333335, "rental_uris": {"ios": "https://dc.lft.to/lastmile_qr_scan", "android": "https://dc.lft.to/lastmile_qr_scan"}, "bike_id": "aa8d5ec1c78c0098f63a8622c22aaff2", "fusion_lat": 0.0}, {"lon": -76.99117916666667, "name": "4ab1a697151a31d90e25fb2044d08537", "is_disabled": 0, "type": "electric_scooter", "is_reserved": 0, "fusion_lon": 0.0, "lat": 38.900296, "rental_uris": {"ios": "https://dc.lft.to/lastmile_qr_scan", "android": "https://dc.lft.to/lastmile_qr_scan"}, "bike_id": "4ab1a697151a31d90e25fb2044d08537", "fusion_lat": 0.0}, {"lon": -76.98953783333333, "name": "7320d0ca92ca754b258daa62c3efcaa4", "is_disabled": 0, "type": "electric_scooter", "is_reserved": 0, "fusion_lon": 0.0, "lat": 38.901372333333335, "rental_uris": {"ios": "https://dc.lft.to/lastmile_qr_scan", "android": "https://dc.lft.to/lastmile_qr_scan"}, "bike_id": "7320d0ca92ca754b258daa62c3efcaa4", "fusion_lat": 0.0}, {"lon": -77.02581733333334, "name": "aa12355fefa092f544dd3de287d9196e", "is_disabled": 0, "type": "electric_scooter", "is_reserved": 0, "fusion_lon": 0.0, "lat": 38.909583833333336, "rental_uris": {"ios": "https://dc.lft.to/lastmile_qr_scan", "android": "https://dc.lft.to/lastmile_qr_scan"}, "bike_id": "aa12355fefa092f544dd3de287d9196e", "fusion_lat": 0.0}, {"lon": -76.95203, "name": "1ff96ddfa698561b3dd321fd5f40a772", "is_disabled": 0, "type": "electric_bike", "is_reserved": 0, "fusion_lon": 0.0, "lat": 38.89115533333333, "rental_uris": {"ios": "https://dc.lft.to/lastmile_qr_scan", "android": "https://dc.lft.to/lastmile_qr_scan"}, "bike_id": "1ff96ddfa698561b3dd321fd5f40a772", "fusion_lat": 0.0}, {"lon": -77.03602916666667, "name": "ca2fcea1ac9fd8882ca1ed0fa9c7513e", "is_disabled": 0, "type": "electric_scooter", "is_reserved": 0, "fusion_lon": 0.0, "lat": 38.92793, "rental_uris": {"ios": "https://dc.lft.to/lastmile_qr_scan", "android": "https://dc.lft.to/lastmile_qr_scan"}, "bike_id": "ca2fcea1ac9fd8882ca1ed0fa9c7513e", "fusion_lat": 0.0}, {"lon": -77.02595416666666, "name": "a8df37803241f63bebbd9b271d10cfa4", "is_disabled": 0, "type": "electric_scooter", "is_reserved": 0, "fusion_lon": 0.0, "lat": 38.920933166666664, "rental_uris": {"ios": "https://dc.lft.to/lastmile_qr_scan", "android": "https://dc.lft.to/lastmile_qr_scan"}, "bike_id": "a8df37803241f63bebbd9b271d10cfa4", "fusion_lat": 0.0}, {"lon": -77.06463283333333, "name": "96b85fe37e22facac8d6bf98f0a3e2b3", "is_disabled": 0, "type": "electric_scooter", "is_reserved": 0, "fusion_lon": 0.0, "lat": 38.910452166666666, "rental_uris": {"ios": "https://dc.lft.to/lastmile_qr_scan", "android": "https://dc.lft.to/lastmile_qr_scan"}, "bike_id": "96b85fe37e22facac8d6bf98f0a3e2b3", "fusion_lat": 0.0}, {"lon": -77.0281265, "name": "16a8a7cdcb976c2c64bc58f8ae86f2eb", "is_disabled": 0, "type": "electric_scooter", "is_reserved": 0, "fusion_lon": 0.0, "lat": 38.907048833333334, "rental_uris": {"ios": "https://dc.lft.to/lastmile_qr_scan", "android": "https://dc.lft.to/lastmile_qr_scan"}, "bike_id": "16a8a7cdcb976c2c64bc58f8ae86f2eb", "fusion_lat": 0.0}, {"lon": -77.01576866666667, "name": "9ef34fcc87c73609aab9a106e657f093", "is_disabled": 0, "type": "electric_scooter", "is_reserved": 0, "fusion_lon": 0.0, "lat": 38.876354666666664, "rental_uris": {"ios": "https://dc.lft.to/lastmile_qr_scan", "android": "https://dc.lft.to/lastmile_qr_scan"}, "bike_id": "9ef34fcc87c73609aab9a106e657f093", "fusion_lat": 0.0}, {"lon": -77.05754683333333, "name": "f5996fb453be0e108358fc48dea2e0a4", "is_disabled": 0, "type": "electric_scooter", "is_reserved": 0, "fusion_lon": 0.0, "lat": 38.924584333333335, "rental_uris": {"ios": "https://dc.lft.to/lastmile_qr_scan", "android": "https://dc.lft.to/lastmile_qr_scan"}, "bike_id": "f5996fb453be0e108358fc48dea2e0a4", "fusion_lat": 0.0}, {"lon": -77.03394183333333, "name": "e64a30e2e03f8c366edafb84407efecf", "is_disabled": 0, "type": "electric_scooter", "is_reserved": 0, "fusion_lon": 0.0, "lat": 38.9216115, "rental_uris": {"ios": "https://dc.lft.to/lastmile_qr_scan", "android": "https://dc.lft.to/lastmile_qr_scan"}, "bike_id": "e64a30e2e03f8c366edafb84407efecf", "fusion_lat": 0.0}, {"lon": -77.00577583333333, "name": "6f31969c298aa457be94d535793ff1aa", "is_disabled": 0, "type": "electric_scooter", "is_reserved": 0, "fusion_lon": 0.0, "lat": 38.905600666666665, "rental_uris": {"ios": "https://dc.lft.to/lastmile_qr_scan", "android": "https://dc.lft.to/lastmile_qr_scan"}, "bike_id": "6f31969c298aa457be94d535793ff1aa", "fusion_lat": 0.0}, {"lon": -77.02348516666666, "name": "618c8d6769b302faff28f7c2c0c63c24", "is_disabled": 0, "type": "electric_scooter", "is_reserved": 0, "fusion_lon": 0.0, "lat": 38.92959166666667, "rental_uris": {"ios": "https://dc.lft.to/lastmile_qr_scan", "android": "https://dc.lft.to/lastmile_qr_scan"}, "bike_id": "618c8d6769b302faff28f7c2c0c63c24", "fusion_lat": 0.0}, {"lon": -77.02399483333333, "name": "323f948d7859d39d36ddb8d6e29fa9d0", "is_disabled": 0, "type": "electric_scooter", "is_reserved": 0, "fusion_lon": 0.0, "lat": 38.92706583333333, "rental_uris": {"ios": "https://dc.lft.to/lastmile_qr_scan", "android": "https://dc.lft.to/lastmile_qr_scan"}, "bike_id": "323f948d7859d39d36ddb8d6e29fa9d0", "fusion_lat": 0.0}, {"lon": -77.031418, "name": "4e50ac21962997a7c9efe742eb0a9b01", "is_disabled": 0, "type": "electric_scooter", "is_reserved": 0, "fusion_lon": 0.0, "lat": 38.9281015, "rental_uris": {"ios": "https://dc.lft.to/lastmile_qr_scan", "android": "https://dc.lft.to/lastmile_qr_scan"}, "bike_id": "4e50ac21962997a7c9efe742eb0a9b01", "fusion_lat": 0.0}, {"lon": -77.0318385, "name": "1b7a2488d17964b681d322ee5bc6722e", "is_disabled": 0, "type": "electric_scooter", "is_reserved": 0, "fusion_lon": 0.0, "lat": 38.91006133333333, "rental_uris": {"ios": "https://dc.lft.to/lastmile_qr_scan", "android": "https://dc.lft.to/lastmile_qr_scan"}, "bike_id": "1b7a2488d17964b681d322ee5bc6722e", "fusion_lat": 0.0}, {"lon": -77.04896633333334, "name": "834f1e1afd1a5644b12a2f3c8cfe9988", "is_disabled": 0, "type": "electric_scooter", "is_reserved": 0, "fusion_lon": 0.0, "lat": 38.915906666666665, "rental_uris": {"ios": "https://dc.lft.to/lastmile_qr_scan", "android": "https://dc.lft.to/lastmile_qr_scan"}, "bike_id": "834f1e1afd1a5644b12a2f3c8cfe9988", "fusion_lat": 0.0}, {"lon": -77.041597, "name": "a67c5a7f60f75b9a2bb6b1d20c3fee42", "is_disabled": 0, "type": "electric_scooter", "is_reserved": 0, "fusion_lon": 0.0, "lat": 38.916540499999996, "rental_uris": {"ios": "https://dc.lft.to/lastmile_qr_scan", "android": "https://dc.lft.to/lastmile_qr_scan"}, "bike_id": "a67c5a7f60f75b9a2bb6b1d20c3fee42", "fusion_lat": 0.0}, {"lon": -77.01950866666667, "name": "4309ef5c08da300095a8fd96d33ca731", "is_disabled": 0, "type": "electric_scooter", "is_reserved": 0, "fusion_lon": 0.0, "lat": 38.924178, "rental_uris": {"ios": "https://dc.lft.to/lastmile_qr_scan", "android": "https://dc.lft.to/lastmile_qr_scan"}, "bike_id": "4309ef5c08da300095a8fd96d33ca731", "fusion_lat": 0.0}, {"lon": -77.0387175, "name": "5456a350f856cdb172b5b71fd407bce9", "is_disabled": 0, "type": "electric_scooter", "is_reserved": 0, "fusion_lon": 0.0, "lat": 38.912683333333334, "rental_uris": {"ios": "https://dc.lft.to/lastmile_qr_scan", "android": "https://dc.lft.to/lastmile_qr_scan"}, "bike_id": "5456a350f856cdb172b5b71fd407bce9", "fusion_lat": 0.0}, {"lon": -77.02391016666667, "name": "b7a8e8875758f3703ab4585eb849d5bc", "is_disabled": 0, "type": "electric_scooter", "is_reserved": 0, "fusion_lon": 0.0, "lat": 38.92080816666667, "rental_uris": {"ios": "https://dc.lft.to/lastmile_qr_scan", "android": "https://dc.lft.to/lastmile_qr_scan"}, "bike_id": "b7a8e8875758f3703ab4585eb849d5bc", "fusion_lat": 0.0}, {"lon": -77.004124, "name": "ca1184739f80f82d7e2d79c8f9f4cd30", "is_disabled": 0, "type": "electric_bike", "is_reserved": 0, "fusion_lon": 0.0, "lat": 38.985286333333335, "rental_uris": {"ios": "https://dc.lft.to/lastmile_qr_scan", "android": "https://dc.lft.to/lastmile_qr_scan"}, "bike_id": "ca1184739f80f82d7e2d79c8f9f4cd30", "fusion_lat": 0.0}, {"lon": -76.93208166666666, "name": "7f188895d3dd7d57234d601716000854", "is_disabled": 0, "type": "electric_scooter", "is_reserved": 0, "fusion_lon": 0.0, "lat": 38.8966685, "rental_uris": {"ios": "https://dc.lft.to/lastmile_qr_scan", "android": "https://dc.lft.to/lastmile_qr_scan"}, "bike_id": "7f188895d3dd7d57234d601716000854", "fusion_lat": 0.0}, {"lon": -77.02005483333333, "name": "f70ad717cb1cb4033fc287b8ff10257a", "is_disabled": 0, "type": "electric_scooter", "is_reserved": 0, "fusion_lon": 0.0, "lat": 38.9235875, "rental_uris": {"ios": "https://dc.lft.to/lastmile_qr_scan", "android": "https://dc.lft.to/lastmile_qr_scan"}, "bike_id": "f70ad717cb1cb4033fc287b8ff10257a", "fusion_lat": 0.0}, {"lon": -77.02421516666666, "name": "15ec3b767ffd18ecafa4c9352614f99b", "is_disabled": 0, "type": "electric_scooter", "is_reserved": 0, "fusion_lon": 0.0, "lat": 38.9207175, "rental_uris": {"ios": "https://dc.lft.to/lastmile_qr_scan", "android": "https://dc.lft.to/lastmile_qr_scan"}, "bike_id": "15ec3b767ffd18ecafa4c9352614f99b", "fusion_lat": 0.0}, {"lon": -77.01638516666667, "name": "a2576d520196476d9539589712567e56", "is_disabled": 0, "type": "electric_scooter", "is_reserved": 0, "fusion_lon": 0.0, "lat": 38.9294, "rental_uris": {"ios": "https://dc.lft.to/lastmile_qr_scan", "android": "https://dc.lft.to/lastmile_qr_scan"}, "bike_id": "a2576d520196476d9539589712567e56", "fusion_lat": 0.0}, {"lon": -77.04218633333333, "name": "afc9cac5326cc7216544aae003482fef", "is_disabled": 0, "type": "electric_scooter", "is_reserved": 0, "fusion_lon": 0.0, "lat": 38.921473, "rental_uris": {"ios": "https://dc.lft.to/lastmile_qr_scan", "android": "https://dc.lft.to/lastmile_qr_scan"}, "bike_id": "afc9cac5326cc7216544aae003482fef", "fusion_lat": 0.0}, {"lon": -77.01952383333334, "name": "e5994569afd17c06378a1a266a7b1762", "is_disabled": 0, "type": "electric_scooter", "is_reserved": 0, "fusion_lon": 0.0, "lat": 38.923217666666666, "rental_uris": {"ios": "https://dc.lft.to/lastmile_qr_scan", "android": "https://dc.lft.to/lastmile_qr_scan"}, "bike_id": "e5994569afd17c06378a1a266a7b1762", "fusion_lat": 0.0}, {"lon": -77.05369266666666, "name": "6d9e85859665c4e1e181445d48c338a5", "is_disabled": 0, "type": "electric_scooter", "is_reserved": 0, "fusion_lon": 0.0, "lat": 38.923332333333335, "rental_uris": {"ios": "https://dc.lft.to/lastmile_qr_scan", "android": "https://dc.lft.to/lastmile_qr_scan"}, "bike_id": "6d9e85859665c4e1e181445d48c338a5", "fusion_lat": 0.0}, {"lon": -77.0440875, "name": "2cfae8d73ce91ff621b592e1f70e51e7", "is_disabled": 0, "type": "electric_scooter", "is_reserved": 0, "fusion_lon": 0.0, "lat": 38.920435, "rental_uris": {"ios": "https://dc.lft.to/lastmile_qr_scan", "android": "https://dc.lft.to/lastmile_qr_scan"}, "bike_id": "2cfae8d73ce91ff621b592e1f70e51e7", "fusion_lat": 0.0}, {"lon": -77.01056566666666, "name": "34633cfb0df87864e5bbe5439f7c7b56", "is_disabled": 0, "type": "electric_bike", "is_reserved": 0, "fusion_lon": 0.0, "lat": 38.966315333333334, "rental_uris": {"ios": "https://dc.lft.to/lastmile_qr_scan", "android": "https://dc.lft.to/lastmile_qr_scan"}, "bike_id": "34633cfb0df87864e5bbe5439f7c7b56", "fusion_lat": 0.0}, {"lon": -77.097481, "name": "cb2b9b42eb6294759b2a3076cec358d1", "is_disabled": 0, "type": "electric_bike", "is_reserved": 0, "fusion_lon": 0.0, "lat": 38.85847866666667, "rental_uris": {"ios": "https://dc.lft.to/lastmile_qr_scan", "android": "https://dc.lft.to/lastmile_qr_scan"}, "bike_id": "cb2b9b42eb6294759b2a3076cec358d1", "fusion_lat": 0.0}, {"lon": -77.004246, "name": "89be3217cfcf32fdab043e7441436c41", "is_disabled": 0, "type": "electric_scooter", "is_reserved": 0, "fusion_lon": 0.0, "lat": 38.877008000000004, "rental_uris": {"ios": "https://dc.lft.to/lastmile_qr_scan", "android": "https://dc.lft.to/lastmile_qr_scan"}, "bike_id": "89be3217cfcf32fdab043e7441436c41", "fusion_lat": 0.0}, {"lon": -77.0208135, "name": "6e2d9611694ef51d7dd53299c72f65fd", "is_disabled": 0, "type": "electric_scooter", "is_reserved": 0, "fusion_lon": 0.0, "lat": 38.927014166666666, "rental_uris": {"ios": "https://dc.lft.to/lastmile_qr_scan", "android": "https://dc.lft.to/lastmile_qr_scan"}, "bike_id": "6e2d9611694ef51d7dd53299c72f65fd", "fusion_lat": 0.0}, {"lon": -77.02529783333334, "name": "dcfc795cf30c0b76bd414e09da1bd336", "is_disabled": 0, "type": "electric_scooter", "is_reserved": 0, "fusion_lon": 0.0, "lat": 38.91816566666667, "rental_uris": {"ios": "https://dc.lft.to/lastmile_qr_scan", "android": "https://dc.lft.to/lastmile_qr_scan"}, "bike_id": "dcfc795cf30c0b76bd414e09da1bd336", "fusion_lat": 0.0}, {"lon": -77.04556516666666, "name": "6d4748480e5fdd5f6aa9a590b04c6b8a", "is_disabled": 0, "type": "electric_scooter", "is_reserved": 0, "fusion_lon": 0.0, "lat": 38.913588833333336, "rental_uris": {"ios": "https://dc.lft.to/lastmile_qr_scan", "android": "https://dc.lft.to/lastmile_qr_scan"}, "bike_id": "6d4748480e5fdd5f6aa9a590b04c6b8a", "fusion_lat": 0.0}, {"lon": -77.01155916666667, "name": "10f946cffb96aee038820d1dda973cec", "is_disabled": 0, "type": "electric_bike", "is_reserved": 0, "fusion_lon": 0.0, "lat": 38.9191765, "rental_uris": {"ios": "https://dc.lft.to/lastmile_qr_scan", "android": "https://dc.lft.to/lastmile_qr_scan"}, "bike_id": "10f946cffb96aee038820d1dda973cec", "fusion_lat": 0.0}, {"lon": -77.04217033333333, "name": "d26803af895ef355c09adb6e1599ee4e", "is_disabled": 0, "type": "electric_scooter", "is_reserved": 0, "fusion_lon": 0.0, "lat": 38.92163133333333, "rental_uris": {"ios": "https://dc.lft.to/lastmile_qr_scan", "android": "https://dc.lft.to/lastmile_qr_scan"}, "bike_id": "d26803af895ef355c09adb6e1599ee4e", "fusion_lat": 0.0}, {"lon": -76.92588733333334, "name": "f9afc9f3074367ec4ec914b891f6205f", "is_disabled": 0, "type": "electric_scooter", "is_reserved": 0, "fusion_lon": 0.0, "lat": 38.89731483333333, "rental_uris": {"ios": "https://dc.lft.to/lastmile_qr_scan", "android": "https://dc.lft.to/lastmile_qr_scan"}, "bike_id": "f9afc9f3074367ec4ec914b891f6205f", "fusion_lat": 0.0}, {"lon": -77.0175025, "name": "849e137b3501ec2d051e805b77ccd538", "is_disabled": 0, "type": "electric_scooter", "is_reserved": 0, "fusion_lon": 0.0, "lat": 38.90258166666667, "rental_uris": {"ios": "https://dc.lft.to/lastmile_qr_scan", "android": "https://dc.lft.to/lastmile_qr_scan"}, "bike_id": "849e137b3501ec2d051e805b77ccd538", "fusion_lat": 0.0}, {"lon": -76.98086783333333, "name": "c7b125b6ccde77b859bd873fea9d27cb", "is_disabled": 0, "type": "electric_scooter", "is_reserved": 0, "fusion_lon": 0.0, "lat": 38.89438916666667, "rental_uris": {"ios": "https://dc.lft.to/lastmile_qr_scan", "android": "https://dc.lft.to/lastmile_qr_scan"}, "bike_id": "c7b125b6ccde77b859bd873fea9d27cb", "fusion_lat": 0.0}, {"lon": -77.05724133333334, "name": "79c85f9453b5eaa8fc32c44b32a5574d", "is_disabled": 0, "type": "electric_scooter", "is_reserved": 0, "fusion_lon": 0.0, "lat": 38.9313295, "rental_uris": {"ios": "https://dc.lft.to/lastmile_qr_scan", "android": "https://dc.lft.to/lastmile_qr_scan"}, "bike_id": "79c85f9453b5eaa8fc32c44b32a5574d", "fusion_lat": 0.0}, {"lon": -76.98929166666667, "name": "ffc0dc5ac6fe5a51543a84f01924e464", "is_disabled": 0, "type": "electric_scooter", "is_reserved": 0, "fusion_lon": 0.0, "lat": 38.882845, "rental_uris": {"ios": "https://dc.lft.to/lastmile_qr_scan", "android": "https://dc.lft.to/lastmile_qr_scan"}, "bike_id": "ffc0dc5ac6fe5a51543a84f01924e464", "fusion_lat": 0.0}, {"lon": -77.0314975, "name": "6dfe713d092424cca30c65e980ad3d1e", "is_disabled": 0, "type": "electric_scooter", "is_reserved": 0, "fusion_lon": 0.0, "lat": 38.9279375, "rental_uris": {"ios": "https://dc.lft.to/lastmile_qr_scan", "android": "https://dc.lft.to/lastmile_qr_scan"}, "bike_id": "6dfe713d092424cca30c65e980ad3d1e", "fusion_lat": 0.0}, {"lon": -77.0319915, "name": "61751d7ff807d2778d7753191fba12ee", "is_disabled": 0, "type": "electric_scooter", "is_reserved": 0, "fusion_lon": 0.0, "lat": 38.91941116666667, "rental_uris": {"ios": "https://dc.lft.to/lastmile_qr_scan", "android": "https://dc.lft.to/lastmile_qr_scan"}, "bike_id": "61751d7ff807d2778d7753191fba12ee", "fusion_lat": 0.0}, {"lon": -77.053153, "name": "1bf8cf8cd155df4e8e56382769f7eb76", "is_disabled": 0, "type": "electric_scooter", "is_reserved": 0, "fusion_lon": 0.0, "lat": 38.9015505, "rental_uris": {"ios": "https://dc.lft.to/lastmile_qr_scan", "android": "https://dc.lft.to/lastmile_qr_scan"}, "bike_id": "1bf8cf8cd155df4e8e56382769f7eb76", "fusion_lat": 0.0}, {"lon": -77.0198945, "name": "e429d1328b632077dbd025891c9a5e82", "is_disabled": 0, "type": "electric_scooter", "is_reserved": 0, "fusion_lon": 0.0, "lat": 38.93193566666667, "rental_uris": {"ios": "https://dc.lft.to/lastmile_qr_scan", "android": "https://dc.lft.to/lastmile_qr_scan"}, "bike_id": "e429d1328b632077dbd025891c9a5e82", "fusion_lat": 0.0}, {"lon": -77.01971033333334, "name": "13830bb91007bd62e01a7512e4ef3dc8", "is_disabled": 0, "type": "electric_scooter", "is_reserved": 0, "fusion_lon": 0.0, "lat": 38.876333833333334, "rental_uris": {"ios": "https://dc.lft.to/lastmile_qr_scan", "android": "https://dc.lft.to/lastmile_qr_scan"}, "bike_id": "13830bb91007bd62e01a7512e4ef3dc8", "fusion_lat": 0.0}, {"lon": -76.9901675, "name": "f7c433fff2dca75ac119e788612372b0", "is_disabled": 0, "type": "electric_scooter", "is_reserved": 0, "fusion_lon": 0.0, "lat": 38.86513683333333, "rental_uris": {"ios": "https://dc.lft.to/lastmile_qr_scan", "android": "https://dc.lft.to/lastmile_qr_scan"}, "bike_id": "f7c433fff2dca75ac119e788612372b0", "fusion_lat": 0.0}, {"lon": -77.02415866666666, "name": "a0be876cd92b09420f66cc6f73be53e8", "is_disabled": 0, "type": "electric_scooter", "is_reserved": 0, "fusion_lon": 0.0, "lat": 38.9096135, "rental_uris": {"ios": "https://dc.lft.to/lastmile_qr_scan", "android": "https://dc.lft.to/lastmile_qr_scan"}, "bike_id": "a0be876cd92b09420f66cc6f73be53e8", "fusion_lat": 0.0}, {"lon": -76.99529483333333, "name": "6121bb2ad9fef67ecfee8cae4fb4d3e6", "is_disabled": 0, "type": "electric_scooter", "is_reserved": 0, "fusion_lon": 0.0, "lat": 38.887670666666665, "rental_uris": {"ios": "https://dc.lft.to/lastmile_qr_scan", "android": "https://dc.lft.to/lastmile_qr_scan"}, "bike_id": "6121bb2ad9fef67ecfee8cae4fb4d3e6", "fusion_lat": 0.0}, {"lon": -77.01717816666667, "name": "64190dbf5b977b5090b5fda09c9a9858", "is_disabled": 0, "type": "electric_scooter", "is_reserved": 0, "fusion_lon": 0.0, "lat": 38.907299, "rental_uris": {"ios": "https://dc.lft.to/lastmile_qr_scan", "android": "https://dc.lft.to/lastmile_qr_scan"}, "bike_id": "64190dbf5b977b5090b5fda09c9a9858", "fusion_lat": 0.0}, {"lon": -77.0426005, "name": "36baf99bd38a1f4945d39126bb0e7d1d", "is_disabled": 0, "type": "electric_scooter", "is_reserved": 0, "fusion_lon": 0.0, "lat": 38.920512, "rental_uris": {"ios": "https://dc.lft.to/lastmile_qr_scan", "android": "https://dc.lft.to/lastmile_qr_scan"}, "bike_id": "36baf99bd38a1f4945d39126bb0e7d1d", "fusion_lat": 0.0}, {"lon": -77.02230583333333, "name": "5db865a5f66a14e95c07eff1f954ae14", "is_disabled": 0, "type": "electric_scooter", "is_reserved": 0, "fusion_lon": 0.0, "lat": 38.92354316666667, "rental_uris": {"ios": "https://dc.lft.to/lastmile_qr_scan", "android": "https://dc.lft.to/lastmile_qr_scan"}, "bike_id": "5db865a5f66a14e95c07eff1f954ae14", "fusion_lat": 0.0}, {"lon": -77.02207133333333, "name": "5d02ba7286b01ba7fdfa9e5165caf0f4", "is_disabled": 0, "type": "electric_scooter", "is_reserved": 0, "fusion_lon": 0.0, "lat": 38.93001683333333, "rental_uris": {"ios": "https://dc.lft.to/lastmile_qr_scan", "android": "https://dc.lft.to/lastmile_qr_scan"}, "bike_id": "5d02ba7286b01ba7fdfa9e5165caf0f4", "fusion_lat": 0.0}, {"lon": -77.0079645, "name": "830de980d4ce8a687d1b7894aed9ee3d", "is_disabled": 0, "type": "electric_scooter", "is_reserved": 0, "fusion_lon": 0.0, "lat": 38.897157166666666, "rental_uris": {"ios": "https://dc.lft.to/lastmile_qr_scan", "android": "https://dc.lft.to/lastmile_qr_scan"}, "bike_id": "830de980d4ce8a687d1b7894aed9ee3d", "fusion_lat": 0.0}, {"lon": -77.01909983333333, "name": "04c28383b5d17d280efcf133f8819e59", "is_disabled": 0, "type": "electric_scooter", "is_reserved": 0, "fusion_lon": 0.0, "lat": 38.92938266666667, "rental_uris": {"ios": "https://dc.lft.to/lastmile_qr_scan", "android": "https://dc.lft.to/lastmile_qr_scan"}, "bike_id": "04c28383b5d17d280efcf133f8819e59", "fusion_lat": 0.0}, {"lon": -77.04111683333333, "name": "1c9abd5d5b996604b8fade50fb6e1271", "is_disabled": 0, "type": "electric_scooter", "is_reserved": 0, "fusion_lon": 0.0, "lat": 38.9211535, "rental_uris": {"ios": "https://dc.lft.to/lastmile_qr_scan", "android": "https://dc.lft.to/lastmile_qr_scan"}, "bike_id": "1c9abd5d5b996604b8fade50fb6e1271", "fusion_lat": 0.0}, {"lon": -77.0007755, "name": "b5a955d296e4443910b75408fbe81667", "is_disabled": 0, "type": "electric_scooter", "is_reserved": 0, "fusion_lon": 0.0, "lat": 38.87544466666667, "rental_uris": {"ios": "https://dc.lft.to/lastmile_qr_scan", "android": "https://dc.lft.to/lastmile_qr_scan"}, "bike_id": "b5a955d296e4443910b75408fbe81667", "fusion_lat": 0.0}, {"lon": -77.03656933333333, "name": "3f58edb28f5516e09b3e759bbf89fbb7", "is_disabled": 0, "type": "electric_scooter", "is_reserved": 0, "fusion_lon": 0.0, "lat": 38.9315315, "rental_uris": {"ios": "https://dc.lft.to/lastmile_qr_scan", "android": "https://dc.lft.to/lastmile_qr_scan"}, "bike_id": "3f58edb28f5516e09b3e759bbf89fbb7", "fusion_lat": 0.0}, {"lon": -77.021864, "name": "f534624d58abc19fd0e835bb2b432f29", "is_disabled": 0, "type": "electric_scooter", "is_reserved": 0, "fusion_lon": 0.0, "lat": 38.91488316666667, "rental_uris": {"ios": "https://dc.lft.to/lastmile_qr_scan", "android": "https://dc.lft.to/lastmile_qr_scan"}, "bike_id": "f534624d58abc19fd0e835bb2b432f29", "fusion_lat": 0.0}, {"lon": -77.0462195, "name": "012058e91d6c90c08f51e6efa9fe987e", "is_disabled": 0, "type": "electric_scooter", "is_reserved": 0, "fusion_lon": 0.0, "lat": 38.91618033333334, "rental_uris": {"ios": "https://dc.lft.to/lastmile_qr_scan", "android": "https://dc.lft.to/lastmile_qr_scan"}, "bike_id": "012058e91d6c90c08f51e6efa9fe987e", "fusion_lat": 0.0}, {"lon": -77.0541985, "name": "9755eeced6022f8de4c8283286edb0ae", "is_disabled": 0, "type": "electric_scooter", "is_reserved": 0, "fusion_lon": 0.0, "lat": 38.9234265, "rental_uris": {"ios": "https://dc.lft.to/lastmile_qr_scan", "android": "https://dc.lft.to/lastmile_qr_scan"}, "bike_id": "9755eeced6022f8de4c8283286edb0ae", "fusion_lat": 0.0}, {"lon": -77.02200766666667, "name": "6a5ef8d654e16dee491e0e2633150af4", "is_disabled": 0, "type": "electric_scooter", "is_reserved": 0, "fusion_lon": 0.0, "lat": 38.879042, "rental_uris": {"ios": "https://dc.lft.to/lastmile_qr_scan", "android": "https://dc.lft.to/lastmile_qr_scan"}, "bike_id": "6a5ef8d654e16dee491e0e2633150af4", "fusion_lat": 0.0}, {"lon": -76.99804616666667, "name": "aa4b924e85a847d961774835c9968b6a", "is_disabled": 0, "type": "electric_scooter", "is_reserved": 0, "fusion_lon": 0.0, "lat": 38.89606716666667, "rental_uris": {"ios": "https://dc.lft.to/lastmile_qr_scan", "android": "https://dc.lft.to/lastmile_qr_scan"}, "bike_id": "aa4b924e85a847d961774835c9968b6a", "fusion_lat": 0.0}, {"lon": -77.018546, "name": "d33701e65166b565fd4fd1a7b7adc466", "is_disabled": 0, "type": "electric_scooter", "is_reserved": 0, "fusion_lon": 0.0, "lat": 38.948881, "rental_uris": {"ios": "https://dc.lft.to/lastmile_qr_scan", "android": "https://dc.lft.to/lastmile_qr_scan"}, "bike_id": "d33701e65166b565fd4fd1a7b7adc466", "fusion_lat": 0.0}, {"lon": -76.99388916666666, "name": "c20abf18b11defd075e7658f17dbb30e", "is_disabled": 0, "type": "electric_scooter", "is_reserved": 0, "fusion_lon": 0.0, "lat": 38.893396333333335, "rental_uris": {"ios": "https://dc.lft.to/lastmile_qr_scan", "android": "https://dc.lft.to/lastmile_qr_scan"}, "bike_id": "c20abf18b11defd075e7658f17dbb30e", "fusion_lat": 0.0}, {"lon": -77.080216, "name": "09eb7d319526001ac7813df61bf949df", "is_disabled": 0, "type": "electric_bike", "is_reserved": 0, "fusion_lon": 0.0, "lat": 38.9577405, "rental_uris": {"ios": "https://dc.lft.to/lastmile_qr_scan", "android": "https://dc.lft.to/lastmile_qr_scan"}, "bike_id": "09eb7d319526001ac7813df61bf949df", "fusion_lat": 0.0}, {"lon": -77.0276055, "name": "fe69d5ce724fc0f33aeae8a28e8d1ff3", "is_disabled": 0, "type": "electric_scooter", "is_reserved": 0, "fusion_lon": 0.0, "lat": 38.9258185, "rental_uris": {"ios": "https://dc.lft.to/lastmile_qr_scan", "android": "https://dc.lft.to/lastmile_qr_scan"}, "bike_id": "fe69d5ce724fc0f33aeae8a28e8d1ff3", "fusion_lat": 0.0}, {"lon": -77.03702333333334, "name": "730ac024a97f60a90214df6b13daaea6", "is_disabled": 0, "type": "electric_scooter", "is_reserved": 0, "fusion_lon": 0.0, "lat": 38.930565333333334, "rental_uris": {"ios": "https://dc.lft.to/lastmile_qr_scan", "android": "https://dc.lft.to/lastmile_qr_scan"}, "bike_id": "730ac024a97f60a90214df6b13daaea6", "fusion_lat": 0.0}, {"lon": -77.00357283333334, "name": "6be9e44f1a3634ea910808d0fdb2c49b", "is_disabled": 0, "type": "electric_scooter", "is_reserved": 0, "fusion_lon": 0.0, "lat": 38.917654666666664, "rental_uris": {"ios": "https://dc.lft.to/lastmile_qr_scan", "android": "https://dc.lft.to/lastmile_qr_scan"}, "bike_id": "6be9e44f1a3634ea910808d0fdb2c49b", "fusion_lat": 0.0}, {"lon": -77.01264583333334, "name": "ba2270ad3f972dba50359295367b4dd2", "is_disabled": 0, "type": "electric_scooter", "is_reserved": 0, "fusion_lon": 0.0, "lat": 38.864599166666665, "rental_uris": {"ios": "https://dc.lft.to/lastmile_qr_scan", "android": "https://dc.lft.to/lastmile_qr_scan"}, "bike_id": "ba2270ad3f972dba50359295367b4dd2", "fusion_lat": 0.0}, {"lon": -76.9909915, "name": "433672074784925463eb6f2cb663e2c5", "is_disabled": 0, "type": "electric_bike", "is_reserved": 0, "fusion_lon": 0.0, "lat": 38.80482383333333, "rental_uris": {"ios": "https://dc.lft.to/lastmile_qr_scan", "android": "https://dc.lft.to/lastmile_qr_scan"}, "bike_id": "433672074784925463eb6f2cb663e2c5", "fusion_lat": 0.0}, {"lon": -77.03187933333334, "name": "9188b97c65fc55cc9ac38c529e6add6c", "is_disabled": 0, "type": "electric_scooter", "is_reserved": 0, "fusion_lon": 0.0, "lat": 38.9163465, "rental_uris": {"ios": "https://dc.lft.to/lastmile_qr_scan", "android": "https://dc.lft.to/lastmile_qr_scan"}, "bike_id": "9188b97c65fc55cc9ac38c529e6add6c", "fusion_lat": 0.0}, {"lon": -77.0365895, "name": "5e80a21f4ee9bb3eb9b43af98f25915c", "is_disabled": 0, "type": "electric_scooter", "is_reserved": 0, "fusion_lon": 0.0, "lat": 38.92330416666667, "rental_uris": {"ios": "https://dc.lft.to/lastmile_qr_scan", "android": "https://dc.lft.to/lastmile_qr_scan"}, "bike_id": "5e80a21f4ee9bb3eb9b43af98f25915c", "fusion_lat": 0.0},