{"data": {"bikes": [{"is_disabled": 0, "is_reserved": 0, "type": "electric_scooter", "lon": -77.00605583333333, "fusion_lon": 0.0, "lat": 38.911176, "rental_uris": {"android": "https://dc.lft.to/lastmile_qr_scan", "ios": "https://dc.lft.to/lastmile_qr_scan"}, "fusion_lat": 0.0, "name": "f695e105476803fde4d375d59f7b5f3c", "bike_id": "f695e105476803fde4d375d59f7b5f3c"}, {"is_disabled": 0, "is_reserved": 0, "type": "electric_bike", "lon": -77.14322533333333, "fusion_lon": 0.0, "lat": 39.054557, "rental_uris": {"android": "https://dc.lft.to/lastmile_qr_scan", "ios": "https://dc.lft.to/lastmile_qr_scan"}, "fusion_lat": 0.0, "name": "1487af8483c615bc39a232ca91c1e7ac", "bike_id": "1487af8483c615bc39a232ca91c1e7ac"}, {"is_disabled": 0, "is_reserved": 0, "type": "electric_scooter", "lon": -76.99818083333334, "fusion_lon": 0.0, "lat": 38.844341166666666, "rental_uris": {"android": "https://dc.lft.to/lastmile_qr_scan", "ios": "https://dc.lft.to/lastmile_qr_scan"}, "fusion_lat": 0.0, "name": "777f6a128e1e7fcffc532018e0399b65", "bike_id": "777f6a128e1e7fcffc532018e0399b65"}, {"is_disabled": 0, "is_reserved": 0, "type": "electric_scooter", "lon": -77.01171266666667, "fusion_lon": 0.0, "lat": 38.86812883333333, "rental_uris": {"android": "https://dc.lft.to/lastmile_qr_scan", "ios": "https://dc.lft.to/lastmile_qr_scan"}, "fusion_lat": 0.0, "name": "dad348c71765ef954d63da95d3a92d1c", "bike_id": "dad348c71765ef954d63da95d3a92d1c"}, {"is_disabled": 0, "is_reserved": 0, "type": "electric_scooter", "lon": -76.994985, "fusion_lon": 0.0, "lat": 38.862449833333336, "rental_uris": {"android": "https://dc.lft.to/lastmile_qr_scan", "ios": "https://dc.lft.to/lastmile_qr_scan"}, "fusion_lat": 0.0, "name": "47c283c32b9b1a4c2c7cf7b37bcc12e0", "bike_id": "47c283c32b9b1a4c2c7cf7b37bcc12e0"}, {"is_disabled": 0, "is_reserved": 0, "type": "electric_scooter", "lon": -77.04025316666667, "fusion_lon": 0.0, "lat": 38.91158316666667, "rental_uris": {"android": "https://dc.lft.to/lastmile_qr_scan", "ios": "https://dc.lft.to/lastmile_qr_scan"}, "fusion_lat": 0.0, "name": "bce14a31367c508ffdd100629af10f67", "bike_id": "bce14a31367c508ffdd100629af10f67"}, {"is_disabled": 0, "is_reserved": 0, "type": "electric_scooter", "lon": -76.98884083333333, "fusion_lon": 0.0, "lat": 38.866735166666665, "rental_uris": {"android": "https://dc.lft.to/lastmile_qr_scan", "ios": "https://dc.lft.to/lastmile_qr_scan"}, "fusion_lat": 0.0, "name": "b7cadb0166fcaab3e480cf28e794b3eb", "bike_id": "b7cadb0166fcaab3e480cf28e794b3eb"}, {"is_disabled": 0, "is_reserved": 0, "type": "electric_scooter", "lon": -77.06190116666667, "fusion_lon": 0.0, "lat": 38.930113166666665, "rental_uris": {"android": "https://dc.lft.to/lastmile_qr_scan", "ios": "https://dc.lft.to/lastmile_qr_scan"}, "fusion_lat": 0.0, "name": "05175e9b0c5c591a04bb767e00f353c3", "bike_id": "05175e9b0c5c591a04bb767e00f353c3"}, {"is_disabled": 0, "is_reserved": 0, "type": "electric_scooter", "lon": -77.04514816666666, "fusion_lon": 0.0, "lat": 38.907948, "rental_uris": {"android": "https://dc.lft.to/lastmile_qr_scan", "ios": "https://dc.lft.to/lastmile_qr_scan"}, "fusion_lat": 0.0, "name": "4d8244f6ddb43b65f8c463cd141a8f25", "bike_id": "4d8244f6ddb43b65f8c463cd141a8f25"}, {"is_disabled": 0, "is_reserved": 0, "type": "electric_scooter", "lon": -76.94854216666667, "fusion_lon": 0.0, "lat": 38.88301833333333, "rental_uris": {"android": "https://dc.lft.to/lastmile_qr_scan", "ios": "https://dc.lft.to/lastmile_qr_scan"}, "fusion_lat": 0.0, "name": "5be6dfd32fa358d361468519cd5c900d", "bike_id": "5be6dfd32fa358d361468519cd5c900d"}, {"is_disabled": 0, "is_reserved": 0, "type": "electric_scooter", "lon": -77.03337066666667, "fusion_lon": 0.0, "lat": 38.8984295, "rental_uris": {"android": "https://dc.lft.to/lastmile_qr_scan", "ios": "https://dc.lft.to/lastmile_qr_scan"}, "fusion_lat": 0.0, "name": "a39b3b93194a6b55cbaaa7d906e6e9fb", "bike_id": "a39b3b93194a6b55cbaaa7d906e6e9fb"}, {"is_disabled": 0, "is_reserved": 0, "type": "electric_scooter", "lon": -77.02950533333333, "fusion_lon": 0.0, "lat": 38.89877383333334, "rental_uris": {"android": "https://dc.lft.to/lastmile_qr_scan", "ios": "https://dc.lft.to/lastmile_qr_scan"}, "fusion_lat": 0.0, "name": "a641bb0cabdc4c5364df215d56b93689", "bike_id": "a641bb0cabdc4c5364df215d56b93689"}, {"is_disabled": 0, "is_reserved": 0, "type": "electric_scooter", "lon": -77.00296133333333, "fusion_lon": 0.0, "lat": 38.9073855, "rental_uris": {"android": "https://dc.lft.to/lastmile_qr_scan", "ios": "https://dc.lft.to/lastmile_qr_scan"}, "fusion_lat": 0.0, "name": "b748200b5ceb5aa353e2ae648ff7d8f3", "bike_id": "b748200b5ceb5aa353e2ae648ff7d8f3"}, {"is_disabled": 0, "is_reserved": 0, "type": "electric_scooter", "lon": -77.00585316666667, "fusion_lon": 0.0, "lat": 38.87516383333333, "rental_uris": {"android": "https://dc.lft.to/lastmile_qr_scan", "ios": "https://dc.lft.to/lastmile_qr_scan"}, "fusion_lat": 0.0, "name": "5839119d162169aa429c0664d7c56210", "bike_id": "5839119d162169aa429c0664d7c56210"}, {"is_disabled": 0, "is_reserved": 0, "type": "electric_scooter", "lon": -77.06603283333334, "fusion_lon": 0.0, "lat": 38.907410166666665, "rental_uris": {"android": "https://dc.lft.to/lastmile_qr_scan", "ios": "https://dc.lft.to/lastmile_qr_scan"}, "fusion_lat": 0.0, "name": "aaff0ebf5e0f580de6ccdf7642a4e6a1", "bike_id": "aaff0ebf5e0f580de6ccdf7642a4e6a1"}, {"is_disabled": 0, "is_reserved": 0, "type": "electric_scooter", "lon": -77.03598016666666, "fusion_lon": 0.0, "lat": 38.917002833333335, "rental_uris": {"android": "https://dc.lft.to/lastmile_qr_scan", "ios": "https://dc.lft.to/lastmile_qr_scan"}, "fusion_lat": 0.0, "name": "d320324b76c1fda79206a642d841a485", "bike_id": "d320324b76c1fda79206a642d841a485"}, {"is_disabled": 0, "is_reserved": 0, "type": "electric_scooter", "lon": -77.02537266666667, "fusion_lon": 0.0, "lat": 38.90099383333333, "rental_uris": {"android": "https://dc.lft.to/lastmile_qr_scan", "ios": "https://dc.lft.to/lastmile_qr_scan"}, "fusion_lat": 0.0, "name": "e07050f484eb6f9dafb1d1a6f563afb8", "bike_id": "e07050f484eb6f9dafb1d1a6f563afb8"}, {"is_disabled": 0, "is_reserved": 0, "type": "electric_scooter", "lon": -77.0280325, "fusion_lon": 0.0, "lat": 38.90738116666667, "rental_uris": {"android": "https://dc.lft.to/lastmile_qr_scan", "ios": "https://dc.lft.to/lastmile_qr_scan"}, "fusion_lat": 0.0, "name": "9eaf8e8ee34f7ebd6910887d8b447bac", "bike_id": "9eaf8e8ee34f7ebd6910887d8b447bac"}, {"is_disabled": 0, "is_reserved": 0, "type": "electric_scooter", "lon": -77.015393, "fusion_lon": 0.0, "lat": 38.886292833333336, "rental_uris": {"android": "https://dc.lft.to/lastmile_qr_scan", "ios": "https://dc.lft.to/lastmile_qr_scan"}, "fusion_lat": 0.0, "name": "e46628621a42bfc8a9962ed05cb67fde", "bike_id": "e46628621a42bfc8a9962ed05cb67fde"}, {"is_disabled": 0, "is_reserved": 0, "type": "electric_scooter", "lon": -77.0277135, "fusion_lon": 0.0, "lat": 38.88158633333333, "rental_uris": {"android": "https://dc.lft.to/lastmile_qr_scan", "ios": "https://dc.lft.to/lastmile_qr_scan"}, "fusion_lat": 0.0, "name": "f343f0dfcdd544f70ad2fb20cd0724c3", "bike_id": "f343f0dfcdd544f70ad2fb20cd0724c3"}, {"is_disabled": 0, "is_reserved": 0, "type": "electric_scooter", "lon": -76.99613216666667, "fusion_lon": 0.0, "lat": 38.900257, "rental_uris": {"android": "https://dc.lft.to/lastmile_qr_scan", "ios": "https://dc.lft.to/lastmile_qr_scan"}, "fusion_lat": 0.0, "name": "3c3a72b91fe49c3ab0824fd8ac320224", "bike_id": "3c3a72b91fe49c3ab0824fd8ac320224"}, {"is_disabled": 0, "is_reserved": 0, "type": "electric_scooter", "lon": -77.00373766666667, "fusion_lon": 0.0, "lat": 38.877460666666664, "rental_uris": {"android": "https://dc.lft.to/lastmile_qr_scan", "ios": "https://dc.lft.to/lastmile_qr_scan"}, "fusion_lat": 0.0, "name": "869b509d31712975ac15fbe88245cf5e", "bike_id": "869b509d31712975ac15fbe88245cf5e"}, {"is_disabled": 0, "is_reserved": 0, "type": "electric_scooter", "lon": -77.02173966666666, "fusion_lon": 0.0, "lat": 38.942936833333334, "rental_uris": {"android": "https://dc.lft.to/lastmile_qr_scan", "ios": "https://dc.lft.to/lastmile_qr_scan"}, "fusion_lat": 0.0, "name": "21df551386991c63b00c4e71df26d5d6", "bike_id": "21df551386991c63b00c4e71df26d5d6"}, {"is_disabled": 0, "is_reserved": 0, "type": "electric_scooter", "lon": -77.00433216666667, "fusion_lon": 0.0, "lat": 38.8771885, "rental_uris": {"android": "https://dc.lft.to/lastmile_qr_scan", "ios": "https://dc.lft.to/lastmile_qr_scan"}, "fusion_lat": 0.0, "name": "7098e173a5b8d2411d0ddc6003b05a27", "bike_id": "7098e173a5b8d2411d0ddc6003b05a27"}, {"is_disabled": 0, "is_reserved": 0, "type": "electric_bike", "lon": -77.132293, "fusion_lon": 0.0, "lat": 38.86975116666667, "rental_uris": {"android": "https://dc.lft.to/lastmile_qr_scan", "ios": "https://dc.lft.to/lastmile_qr_scan"}, "fusion_lat": 0.0, "name": "dfc7e775c198500b174b9286844216e8", "bike_id": "dfc7e775c198500b174b9286844216e8"}, {"is_disabled": 0, "is_reserved": 0, "type": "electric_scooter", "lon": -77.05452666666666, "fusion_lon": 0.0, "lat": 38.923475333333336, "rental_uris": {"android": "https://dc.lft.to/lastmile_qr_scan", "ios": "https://dc.lft.to/lastmile_qr_scan"}, "fusion_lat": 0.0, "name": "8f10d3d263fdef3edd1fd6b0dd4046af", "bike_id": "8f10d3d263fdef3edd1fd6b0dd4046af"}, {"is_disabled": 0, "is_reserved": 0, "type": "electric_scooter", "lon": -77.00335266666667, "fusion_lon": 0.0, "lat": 38.893577, "rental_uris": {"android": "https://dc.lft.to/lastmile_qr_scan", "ios": "https://dc.lft.to/lastmile_qr_scan"}, "fusion_lat": 0.0, "name": "be7ae77e2f5033b2e8c200c28b543a1d", "bike_id": "be7ae77e2f5033b2e8c200c28b543a1d"}, {"is_disabled": 0, "is_reserved": 0, "type": "electric_scooter", "lon": -77.00334866666667, "fusion_lon": 0.0, "lat": 38.904561, "rental_uris": {"android": "https://dc.lft.to/lastmile_qr_scan", "ios": "https://dc.lft.to/lastmile_qr_scan"}, "fusion_lat": 0.0, "name": "0ef13bb82098ac9e5f9cb721b607fc2b", "bike_id": "0ef13bb82098ac9e5f9cb721b607fc2b"}, {"is_disabled": 0, "is_reserved": 0, "type": "electric_scooter", "lon": -77.0222685, "fusion_lon": 0.0, "lat": 38.92914783333333, "rental_uris": {"android": "https://dc.lft.to/lastmile_qr_scan", "ios": "https://dc.lft.to/lastmile_qr_scan"}, "fusion_lat": 0.0, "name": "f52d75b9cb433301f639e237989271d1", "bike_id": "f52d75b9cb433301f639e237989271d1"}, {"is_disabled": 0, "is_reserved": 0, "type": "electric_scooter", "lon": -77.036407, "fusion_lon": 0.0, "lat": 38.92279633333333, "rental_uris": {"android": "https://dc.lft.to/lastmile_qr_scan", "ios": "https://dc.lft.to/lastmile_qr_scan"}, "fusion_lat": 0.0, "name": "679513ff696b1735c62f853581d2da59", "bike_id": "679513ff696b1735c62f853581d2da59"}, {"is_disabled": 0, "is_reserved": 0, "type": "electric_scooter", "lon": -77.0512895, "fusion_lon": 0.0, "lat": 38.9059225, "rental_uris": {"android": "https://dc.lft.to/lastmile_qr_scan", "ios": "https://dc.lft.to/lastmile_qr_scan"}, "fusion_lat": 0.0, "name": "7821a56a55e919d3401f98ea1e344b01", "bike_id": "7821a56a55e919d3401f98ea1e344b01"}, {"is_disabled": 0, "is_reserved": 0, "type": "electric_scooter", "lon": -77.05112616666666, "fusion_lon": 0.0, "lat": 38.92360083333333, "rental_uris": {"android": "https://dc.lft.to/lastmile_qr_scan", "ios": "https://dc.lft.to/lastmile_qr_scan"}, "fusion_lat": 0.0, "name": "a1a96c831095e0ccba64065b2edba5df", "bike_id": "a1a96c831095e0ccba64065b2edba5df"}, {"is_disabled": 0, "is_reserved": 0, "type": "electric_bike", "lon": -77.09576883333334, "fusion_lon": 0.0, "lat": 38.83786283333333, "rental_uris": {"android": "https://dc.lft.to/lastmile_qr_scan", "ios": "https://dc.lft.to/lastmile_qr_scan"}, "fusion_lat": 0.0, "name": "a1e527a70e0bc84a3542887cc1820012", "bike_id": "a1e527a70e0bc84a3542887cc1820012"}, {"is_disabled": 0, "is_reserved": 0, "type": "electric_scooter", "lon": -76.95210833333333, "fusion_lon": 0.0, "lat": 38.8924985, "rental_uris": {"android": "https://dc.lft.to/lastmile_qr_scan", "ios": "https://dc.lft.to/lastmile_qr_scan"}, "fusion_lat": 0.0, "name": "03d8644c587ecbfa332e028801c6832d", "bike_id": "03d8644c587ecbfa332e028801c6832d"}, {"is_disabled": 0, "is_reserved": 0, "type": "electric_scooter", "lon": -77.04337866666667, "fusion_lon": 0.0, "lat": 38.89826883333333, "rental_uris": {"android": "https://dc.lft.to/lastmile_qr_scan", "ios": "https://dc.lft.to/lastmile_qr_scan"}, "fusion_lat": 0.0, "name": "a8eda2bebb20e3151ae61f31a0a8b6eb", "bike_id": "a8eda2bebb20e3151ae61f31a0a8b6eb"}, {"is_disabled": 0, "is_reserved": 0, "type": "electric_scooter", "lon": -77.04247633333334, "fusion_lon": 0.0, "lat": 38.91787516666667, "rental_uris": {"android": "https://dc.lft.to/lastmile_qr_scan", "ios": "https://dc.lft.to/lastmile_qr_scan"}, "fusion_lat": 0.0, "name": "59f0959c254f241e95f28f3e2c8b6a3a", "bike_id": "59f0959c254f241e95f28f3e2c8b6a3a"}, {"is_disabled": 0, "is_reserved": 0, "type": "electric_scooter", "lon": -77.05122283333333, "fusion_lon": 0.0, "lat": 38.904907666666666, "rental_uris": {"android": "https://dc.lft.to/lastmile_qr_scan", "ios": "https://dc.lft.to/lastmile_qr_scan"}, "fusion_lat": 0.0, "name": "5fa09aa1a9a8f37ff7ce0139c90bf2bb", "bike_id": "5fa09aa1a9a8f37ff7ce0139c90bf2bb"}, {"is_disabled": 0, "is_reserved": 0, "type": "electric_scooter", "lon": -77.0213555, "fusion_lon": 0.0, "lat": 38.9159445, "rental_uris": {"android": "https://dc.lft.to/lastmile_qr_scan", "ios": "https://dc.lft.to/lastmile_qr_scan"}, "fusion_lat": 0.0, "name": "0e019ae8ca6d30263b7dbbbf67d21dbc", "bike_id": "0e019ae8ca6d30263b7dbbbf67d21dbc"}, {"is_disabled": 0, "is_reserved": 0, "type": "electric_scooter", "lon": -77.0335175, "fusion_lon": 0.0, "lat": 38.8962805, "rental_uris": {"android": "https://dc.lft.to/lastmile_qr_scan", "ios": "https://dc.lft.to/lastmile_qr_scan"}, "fusion_lat": 0.0, "name": "452aeff96dd68c42c88103b40695dedf", "bike_id": "452aeff96dd68c42c88103b40695dedf"}, {"is_disabled": 0, "is_reserved": 0, "type": "electric_scooter", "lon": -77.07366733333333, "fusion_lon": 0.0, "lat": 38.90929933333334, "rental_uris": {"android": "https://dc.lft.to/lastmile_qr_scan", "ios": "https://dc.lft.to/lastmile_qr_scan"}, "fusion_lat": 0.0, "name": "0adb4a4e220a3e32dd5e0fb6b5b9e425", "bike_id": "0adb4a4e220a3e32dd5e0fb6b5b9e425"}, {"is_disabled": 0, "is_reserved": 0, "type": "electric_scooter", "lon": -77.0611575, "fusion_lon": 0.0, "lat": 38.9437355, "rental_uris": {"android": "https://dc.lft.to/lastmile_qr_scan", "ios": "https://dc.lft.to/lastmile_qr_scan"}, "fusion_lat": 0.0, "name": "f5f2227e4a6ea9a0418413e2d6d984e0", "bike_id": "f5f2227e4a6ea9a0418413e2d6d984e0"}, {"is_disabled": 0, "is_reserved": 0, "type": "electric_scooter", "lon": -77.03780133333333, "fusion_lon": 0.0, "lat": 38.93602516666667, "rental_uris": {"android": "https://dc.lft.to/lastmile_qr_scan", "ios": "https://dc.lft.to/lastmile_qr_scan"}, "fusion_lat": 0.0, "name": "b514f1121fbef7613d2d20113574563b", "bike_id": "b514f1121fbef7613d2d20113574563b"}, {"is_disabled": 0, "is_reserved": 0, "type": "electric_bike", "lon": -77.01230233333334, "fusion_lon": 0.0, "lat": 38.9508145, "rental_uris": {"android": "https://dc.lft.to/lastmile_qr_scan", "ios": "https://dc.lft.to/lastmile_qr_scan"}, "fusion_lat": 0.0, "name": "f9ed6f55f85c5a6c926262f4f5ac4742", "bike_id": "f9ed6f55f85c5a6c926262f4f5ac4742"}, {"is_disabled": 0, "is_reserved": 0, "type": "electric_scooter", "lon": -77.0178445, "fusion_lon": 0.0, "lat": 38.876977833333335, "rental_uris": {"android": "https://dc.lft.to/lastmile_qr_scan", "ios": "https://dc.lft.to/lastmile_qr_scan"}, "fusion_lat": 0.0, "name": "5a74a314c6dfd5f7c0ad9fedfc1ac94c", "bike_id": "5a74a314c6dfd5f7c0ad9fedfc1ac94c"}, {"is_disabled": 0, "is_reserved": 0, "type": "electric_scooter", "lon": -76.942103, "fusion_lon": 0.0, "lat": 38.88990916666667, "rental_uris": {"android": "https://dc.lft.to/lastmile_qr_scan", "ios": "https://dc.lft.to/lastmile_qr_scan"}, "fusion_lat": 0.0, "name": "cfa1ef2dd9ee80d8cf222fef5b20a305", "bike_id": "cfa1ef2dd9ee80d8cf222fef5b20a305"}, {"is_disabled": 0, "is_reserved": 0, "type": "electric_scooter", "lon": -77.03060533333333, "fusion_lon": 0.0, "lat": 38.90120683333333, "rental_uris": {"android": "https://dc.lft.to/lastmile_qr_scan", "ios": "https://dc.lft.to/lastmile_qr_scan"}, "fusion_lat": 0.0, "name": "77ec8004c01e48a1e65aa1790b184a7f", "bike_id": "77ec8004c01e48a1e65aa1790b184a7f"}, {"is_disabled": 0, "is_reserved": 0, "type": "electric_bike", "lon": -76.90974516666667, "fusion_lon": 0.0, "lat": 38.8543435, "rental_uris": {"android": "https://dc.lft.to/lastmile_qr_scan", "ios": "https://dc.lft.to/lastmile_qr_scan"}, "fusion_lat": 0.0, "name": "2d818095756da5f9cf30ce76341260ed", "bike_id": "2d818095756da5f9cf30ce76341260ed"}, {"is_disabled": 0, "is_reserved": 0, "type": "electric_scooter", "lon": -77.051347, "fusion_lon": 0.0, "lat": 38.90714966666667, "rental_uris": {"android": "https://dc.lft.to/lastmile_qr_scan", "ios": "https://dc.lft.to/lastmile_qr_scan"}, "fusion_lat": 0.0, "name": "21758c4c8cea37d6de40b0f09f1966b1", "bike_id": "21758c4c8cea37d6de40b0f09f1966b1"}, {"is_disabled": 0, "is_reserved": 0, "type": "electric_scooter", "lon": -77.0101585, "fusion_lon": 0.0, "lat": 38.867126, "rental_uris": {"android": "https://dc.lft.to/lastmile_qr_scan", "ios": "https://dc.lft.to/lastmile_qr_scan"}, "fusion_lat": 0.0, "name": "c8a87004e992bf0fdf43d40dc8005e22", "bike_id": "c8a87004e992bf0fdf43d40dc8005e22"}, {"is_disabled": 0, "is_reserved": 0, "type": "electric_scooter", "lon": -77.01404716666667, "fusion_lon": 0.0, "lat": 38.92829066666667, "rental_uris": {"android": "https://dc.lft.to/lastmile_qr_scan", "ios": "https://dc.lft.to/lastmile_qr_scan"}, "fusion_lat": 0.0, "name": "058c00635cb4523770d534d7231543e8", "bike_id": "058c00635cb4523770d534d7231543e8"}, {"is_disabled": 0, "is_reserved": 0, "type": "electric_scooter", "lon": -77.0323175, "fusion_lon": 0.0, "lat": 38.924954166666666, "rental_uris": {"android": "https://dc.lft.to/lastmile_qr_scan", "ios": "https://dc.lft.to/lastmile_qr_scan"}, "fusion_lat": 0.0, "name": "de44c300bfb18aacb842419c7d0b7f12", "bike_id": "de44c300bfb18aacb842419c7d0b7f12"}, {"is_disabled": 0, "is_reserved": 0, "type": "electric_bike", "lon": -76.98031166666667, "fusion_lon": 0.0, "lat": 38.88755833333333, "rental_uris": {"android": "https://dc.lft.to/lastmile_qr_scan", "ios": "https://dc.lft.to/lastmile_qr_scan"}, "fusion_lat": 0.0, "name": "79055e0250f3e22b46314a6f2d1f513e", "bike_id": "79055e0250f3e22b46314a6f2d1f513e"}, {"is_disabled": 0, "is_reserved": 0, "type": "electric_scooter", "lon": -77.00768166666667, "fusion_lon": 0.0, "lat": 38.8766735, "rental_uris": {"android": "https://dc.lft.to/lastmile_qr_scan", "ios": "https://dc.lft.to/lastmile_qr_scan"}, "fusion_lat": 0.0, "name": "b781ccbc79fd718a39f7fd032cc47036", "bike_id": "b781ccbc79fd718a39f7fd032cc47036"}, {"is_disabled": 0, "is_reserved": 0, "type": "electric_scooter", "lon": -77.03471416666666, "fusion_lon": 0.0, "lat": 38.9181745, "rental_uris": {"android": "https://dc.lft.to/lastmile_qr_scan", "ios": "https://dc.lft.to/lastmile_qr_scan"}, "fusion_lat": 0.0, "name": "886b003d2d0e8fb98ae3d7d23d81e3da", "bike_id": "886b003d2d0e8fb98ae3d7d23d81e3da"}, {"is_disabled": 0, "is_reserved": 0, "type": "electric_scooter", "lon": -77.00916866666667, "fusion_lon": 0.0, "lat": 38.895509, "rental_uris": {"android": "https://dc.lft.to/lastmile_qr_scan", "ios": "https://dc.lft.to/lastmile_qr_scan"}, "fusion_lat": 0.0, "name": "2d28ce2ffd278821c7148f1655903583", "bike_id": "2d28ce2ffd278821c7148f1655903583"}, {"is_disabled": 0, "is_reserved": 0, "type": "electric_scooter", "lon": -76.94896283333334, "fusion_lon": 0.0, "lat": 38.895397, "rental_uris": {"android": "https://dc.lft.to/lastmile_qr_scan", "ios": "https://dc.lft.to/lastmile_qr_scan"}, "fusion_lat": 0.0, "name": "c89324684755934432b95d6e58b93a10", "bike_id": "c89324684755934432b95d6e58b93a10"}, {"is_disabled": 0, "is_reserved": 0, "type": "electric_scooter", "lon": -77.04927133333334, "fusion_lon": 0.0, "lat": 38.899521666666665, "rental_uris": {"android": "https://dc.lft.to/lastmile_qr_scan", "ios": "https://dc.lft.to/lastmile_qr_scan"}, "fusion_lat": 0.0, "name": "1829391f5e4b2941f8b915bbce521c75", "bike_id": "1829391f5e4b2941f8b915bbce521c75"}, {"is_disabled": 0, "is_reserved": 0, "type": "electric_scooter", "lon": -77.034127, "fusion_lon": 0.0, "lat": 38.90965933333333, "rental_uris": {"android": "https://dc.lft.to/lastmile_qr_scan", "ios": "https://dc.lft.to/lastmile_qr_scan"}, "fusion_lat": 0.0, "name": "5ab4ae76d4b4901b15655a6378706e83", "bike_id": "5ab4ae76d4b4901b15655a6378706e83"}, {"is_disabled": 0, "is_reserved": 0, "type": "electric_scooter", "lon": -77.086178, "fusion_lon": 0.0, "lat": 38.9587345, "rental_uris": {"android": "https://dc.lft.to/lastmile_qr_scan", "ios": "https://dc.lft.to/lastmile_qr_scan"}, "fusion_lat": 0.0, "name": "259133e6ee224d21d0bdfd820dfac540", "bike_id": "259133e6ee224d21d0bdfd820dfac540"}, {"is_disabled": 0, "is_reserved": 0, "type": "electric_scooter", "lon": -77.03171633333334, "fusion_lon": 0.0, "lat": 38.9210465, "rental_uris": {"android": "https://dc.lft.to/lastmile_qr_scan", "ios": "https://dc.lft.to/lastmile_qr_scan"}, "fusion_lat": 0.0, "name": "9ef94df824b4a9e2e4ec13a75de46686", "bike_id": "9ef94df824b4a9e2e4ec13a75de46686"}, {"is_disabled": 0, "is_reserved": 0, "type": "electric_scooter", "lon": -77.02979966666666, "fusion_lon": 0.0, "lat": 38.94739933333334, "rental_uris": {"android": "https://dc.lft.to/lastmile_qr_scan", "ios": "https://dc.lft.to/lastmile_qr_scan"}, "fusion_lat": 0.0, "name": "1e1a0290f9bd8db46b0aa0815df532bf", "bike_id": "1e1a0290f9bd8db46b0aa0815df532bf"}, {"is_disabled": 0, "is_reserved": 0, "type": "electric_bike", "lon": -76.99490133333333, "fusion_lon": 0.0, "lat": 38.92063366666667, "rental_uris": {"android": "https://dc.lft.to/lastmile_qr_scan", "ios": "https://dc.lft.to/lastmile_qr_scan"}, "fusion_lat": 0.0, "name": "a28ee8337847aa974f0f478e6cf794ac", "bike_id": "a28ee8337847aa974f0f478e6cf794ac"}, {"is_disabled": 0, "is_reserved": 0, "type": "electric_scooter", "lon": -76.98653633333333, "fusion_lon": 0.0, "lat": 38.9131145, "rental_uris": {"android": "https://dc.lft.to/lastmile_qr_scan", "ios": "https://dc.lft.to/lastmile_qr_scan"}, "fusion_lat": 0.0, "name": "dfb82c4270eae00e2f1a343f1694f5fa", "bike_id": "dfb82c4270eae00e2f1a343f1694f5fa"}, {"is_disabled": 0, "is_reserved": 0, "type": "electric_scooter", "lon": -77.04333833333334, "fusion_lon": 0.0, "lat": 38.9033375, "rental_uris": {"android": "https://dc.lft.to/lastmile_qr_scan", "ios": "https://dc.lft.to/lastmile_qr_scan"}, "fusion_lat": 0.0, "name": "43b0b0434bcc8e7adaee7229ed325609", "bike_id": "43b0b0434bcc8e7adaee7229ed325609"}, {"is_disabled": 0, "is_reserved": 0, "type": "electric_scooter", "lon": -76.99480199999999, "fusion_lon": 0.0, "lat": 38.899756333333336, "rental_uris": {"android": "https://dc.lft.to/lastmile_qr_scan", "ios": "https://dc.lft.to/lastmile_qr_scan"}, "fusion_lat": 0.0, "name": "54d1ffdc96669a6ba613f85a51ba215f", "bike_id": "54d1ffdc96669a6ba613f85a51ba215f"}, {"is_disabled": 0, "is_reserved": 0, "type": "electric_scooter", "lon": -77.03435366666666, "fusion_lon": 0.0, "lat": 38.9040195, "rental_uris": {"android": "https://dc.lft.to/lastmile_qr_scan", "ios": "https://dc.lft.to/lastmile_qr_scan"}, "fusion_lat": 0.0, "name": "cd868cff57c086bea72b6d38eaa76ccd", "bike_id": "cd868cff57c086bea72b6d38eaa76ccd"}, {"is_disabled": 0, "is_reserved": 0, "type": "electric_scooter", "lon": -77.03425866666667, "fusion_lon": 0.0, "lat": 38.902445166666666, "rental_uris": {"android": "https://dc.lft.to/lastmile_qr_scan", "ios": "https://dc.lft.to/lastmile_qr_scan"}, "fusion_lat": 0.0, "name": "6da51ea64739314fc9f5a711b808a785", "bike_id": "6da51ea64739314fc9f5a711b808a785"}, {"is_disabled": 0, "is_reserved": 0, "type": "electric_scooter", "lon": -77.03185966666666, "fusion_lon": 0.0, "lat": 38.883320499999996, "rental_uris": {"android": "https://dc.lft.to/lastmile_qr_scan", "ios": "https://dc.lft.to/lastmile_qr_scan"}, "fusion_lat": 0.0, "name": "1980084e1c893333a8be0cd3c3e61e58", "bike_id": "1980084e1c893333a8be0cd3c3e61e58"}, {"is_disabled": 0, "is_reserved": 0, "type": "electric_scooter", "lon": -77.0265035, "fusion_lon": 0.0, "lat": 38.89214966666667, "rental_uris": {"android": "https://dc.lft.to/lastmile_qr_scan", "ios": "https://dc.lft.to/lastmile_qr_scan"}, "fusion_lat": 0.0, "name": "3f9689b8b8184c0bf3109aa240816b18", "bike_id": "3f9689b8b8184c0bf3109aa240816b18"}, {"is_disabled": 0, "is_reserved": 0, "type": "electric_scooter", "lon": -77.040081, "fusion_lon": 0.0, "lat": 38.910406, "rental_uris": {"android": "https://dc.lft.to/lastmile_qr_scan", "ios": "https://dc.lft.to/lastmile_qr_scan"}, "fusion_lat": 0.0, "name": "93f603fc9aca2a53e5f37ece42ce5366", "bike_id": "93f603fc9aca2a53e5f37ece42ce5366"}, {"is_disabled": 0, "is_reserved": 0, "type": "electric_scooter", "lon": -76.99900916666667, "fusion_lon": 0.0, "lat": 38.956514, "rental_uris": {"android": "https://dc.lft.to/lastmile_qr_scan", "ios": "https://dc.lft.to/lastmile_qr_scan"}, "fusion_lat": 0.0, "name": "954d897c6c3bc3da23a98b54a6857663", "bike_id": "954d897c6c3bc3da23a98b54a6857663"}, {"is_disabled": 0, "is_reserved": 0, "type": "electric_scooter", "lon": -77.02175333333334, "fusion_lon": 0.0, "lat": 38.942939833333334, "rental_uris": {"android": "https://dc.lft.to/lastmile_qr_scan", "ios": "https://dc.lft.to/lastmile_qr_scan"}, "fusion_lat": 0.0, "name": "56cd869dc640bec844af9e7db0db08bf", "bike_id": "56cd869dc640bec844af9e7db0db08bf"}, {"is_disabled": 0, "is_reserved": 0, "type": "electric_scooter", "lon": -76.99082833333334, "fusion_lon": 0.0, "lat": 38.904222833333336, "rental_uris": {"android": "https://dc.lft.to/lastmile_qr_scan", "ios": "https://dc.lft.to/lastmile_qr_scan"}, "fusion_lat": 0.0, "name": "3a4ecdeedf5ae46c1a36a55bf83b7959", "bike_id": "3a4ecdeedf5ae46c1a36a55bf83b7959"}, {"is_disabled": 0, "is_reserved": 0, "type": "electric_scooter", "lon": -77.05330016666667, "fusion_lon": 0.0, "lat": 38.905852333333335, "rental_uris": {"android": "https://dc.lft.to/lastmile_qr_scan", "ios": "https://dc.lft.to/lastmile_qr_scan"}, "fusion_lat": 0.0, "name": "bec33f583fa93d0eb84632c17263b688", "bike_id": "bec33f583fa93d0eb84632c17263b688"}, {"is_disabled": 0, "is_reserved": 0, "type": "electric_scooter", "lon": -76.9352625, "fusion_lon": 0.0, "lat": 38.87897016666667, "rental_uris": {"android": "https://dc.lft.to/lastmile_qr_scan", "ios": "https://dc.lft.to/lastmile_qr_scan"}, "fusion_lat": 0.0, "name": "a651561fddee55ea371634864f2bd378", "bike_id": "a651561fddee55ea371634864f2bd378"}, {"is_disabled": 0, "is_reserved": 0, "type": "electric_scooter", "lon": -76.93352583333333, "fusion_lon": 0.0, "lat": 38.901927, "rental_uris": {"android": "https://dc.lft.to/lastmile_qr_scan", "ios": "https://dc.lft.to/lastmile_qr_scan"}, "fusion_lat": 0.0, "name": "3433761b2b6730f92c4de896ec7bd275", "bike_id": "3433761b2b6730f92c4de896ec7bd275"}, {"is_disabled": 0, "is_reserved": 0, "type": "electric_scooter", "lon": -77.033666, "fusion_lon": 0.0, "lat": 38.91180116666666, "rental_uris": {"android": "https://dc.lft.to/lastmile_qr_scan", "ios": "https://dc.lft.to/lastmile_qr_scan"}, "fusion_lat": 0.0, "name": "95ebaa77c4c7fb05ec96fe99523690ba", "bike_id": "95ebaa77c4c7fb05ec96fe99523690ba"}, {"is_disabled": 0, "is_reserved": 0, "type": "electric_scooter", "lon": -77.0464765, "fusion_lon": 0.0, "lat": 38.904747666666665, "rental_uris": {"android": "https://dc.lft.to/lastmile_qr_scan", "ios": "https://dc.lft.to/lastmile_qr_scan"}, "fusion_lat": 0.0, "name": "d71acb309794aa4844e9e6964b62c8cf", "bike_id": "d71acb309794aa4844e9e6964b62c8cf"}, {"is_disabled": 0, "is_reserved": 0, "type": "electric_scooter", "lon": -77.03177366666667, "fusion_lon": 0.0, "lat": 38.91918283333333, "rental_uris": {"android": "https://dc.lft.to/lastmile_qr_scan", "ios": "https://dc.lft.to/lastmile_qr_scan"}, "fusion_lat": 0.0, "name": "7154c0bb1f44b18122ae3fa98688539e", "bike_id": "7154c0bb1f44b18122ae3fa98688539e"}, {"is_disabled": 0, "is_reserved": 0, "type": "electric_scooter", "lon": -77.033092, "fusion_lon": 0.0, "lat": 38.956156, "rental_uris": {"android": "https://dc.lft.to/lastmile_qr_scan", "ios": "https://dc.lft.to/lastmile_qr_scan"}, "fusion_lat": 0.0, "name": "84139889381b863b577f52f1693d608d", "bike_id": "84139889381b863b577f52f1693d608d"}, {"is_disabled": 0, "is_reserved": 0, "type": "electric_scooter", "lon": -77.00573766666666, "fusion_lon": 0.0, "lat": 38.902012666666664, "rental_uris": {"android": "https://dc.lft.to/lastmile_qr_scan", "ios": "https://dc.lft.to/lastmile_qr_scan"}, "fusion_lat": 0.0, "name": "a749510517e69f6ed36ba57fc95ce743", "bike_id": "a749510517e69f6ed36ba57fc95ce743"}, {"is_disabled": 0, "is_reserved": 0, "type": "electric_scooter", "lon": -76.931865, "fusion_lon": 0.0, "lat": 38.89877033333333, "rental_uris": {"android": "https://dc.lft.to/lastmile_qr_scan", "ios": "https://dc.lft.to/lastmile_qr_scan"}, "fusion_lat": 0.0, "name": "9ffb6094b222a48c59282fa0ff28413c", "bike_id": "9ffb6094b222a48c59282fa0ff28413c"}, {"is_disabled": 0, "is_reserved": 0, "type": "electric_scooter", "lon": -77.026759, "fusion_lon": 0.0, "lat": 38.89976766666667, "rental_uris": {"android": "https://dc.lft.to/lastmile_qr_scan", "ios": "https://dc.lft.to/lastmile_qr_scan"}, "fusion_lat": 0.0, "name": "7114bce74a95bd5b6e6b9086039f6333", "bike_id": "7114bce74a95bd5b6e6b9086039f6333"}, {"is_disabled": 0, "is_reserved": 0, "type": "electric_scooter", "lon": -77.02225866666667, "fusion_lon": 0.0, "lat": 38.8922065, "rental_uris": {"android": "https://dc.lft.to/lastmile_qr_scan", "ios": "https://dc.lft.to/lastmile_qr_scan"}, "fusion_lat": 0.0, "name": "36ae0ea57caf4f040c64ec7abdec5e41", "bike_id": "36ae0ea57caf4f040c64ec7abdec5e41"}, {"is_disabled": 0, "is_reserved": 0, "type": "electric_bike", "lon": -77.09837166666667, "fusion_lon": 0.0, "lat": 38.857917, "rental_uris": {"android": "https://dc.lft.to/lastmile_qr_scan", "ios": "https://dc.lft.to/lastmile_qr_scan"}, "fusion_lat": 0.0, "name": "f486e40141b733c07b222d9051df0835", "bike_id": "f486e40141b733c07b222d9051df0835"}, {"is_disabled": 0, "is_reserved": 0, "type": "electric_bike", "lon": -77.0249735, "fusion_lon": 0.0, "lat": 38.9739685, "rental_uris": {"android": "https://dc.lft.to/lastmile_qr_scan", "ios": "https://dc.lft.to/lastmile_qr_scan"}, "fusion_lat": 0.0, "name": "6509f120cbabdffe4c4aaea12efa7d9d", "bike_id": "6509f120cbabdffe4c4aaea12efa7d9d"}, {"is_disabled": 0, "is_reserved": 0, "type": "electric_scooter", "lon": -76.931856, "fusion_lon": 0.0, "lat": 38.898777333333335, "rental_uris": {"android": "https://dc.lft.to/lastmile_qr_scan", "ios": "https://dc.lft.to/lastmile_qr_scan"}, "fusion_lat": 0.0, "name": "92b3525d4712c53f78643ad83c0aba41", "bike_id": "92b3525d4712c53f78643ad83c0aba41"}, {"is_disabled": 0, "is_reserved": 0, "type": "electric_scooter", "lon": -76.98650966666666, "fusion_lon": 0.0, "lat": 38.9013655, "rental_uris": {"android": "https://dc.lft.to/lastmile_qr_scan", "ios": "https://dc.lft.to/lastmile_qr_scan"}, "fusion_lat": 0.0, "name": "641ad10525cfbc51ead7a819d5d19615", "bike_id": "641ad10525cfbc51ead7a819d5d19615"}, {"is_disabled": 0, "is_reserved": 0, "type": "electric_bike", "lon": -77.04305416666666, "fusion_lon": 0.0, "lat": 39.05449733333333, "rental_uris": {"android": "https://dc.lft.to/lastmile_qr_scan", "ios": "https://dc.lft.to/lastmile_qr_scan"}, "fusion_lat": 0.0, "name": "51926e1da25583f933a9d2dbb478cab3", "bike_id": "51926e1da25583f933a9d2dbb478cab3"}, {"is_disabled": 0, "is_reserved": 0, "type": "electric_scooter", "lon": -77.0182185, "fusion_lon": 0.0, "lat": 38.9220335, "rental_uris": {"android": "https://dc.lft.to/lastmile_qr_scan", "ios": "https://dc.lft.to/lastmile_qr_scan"}, "fusion_lat": 0.0, "name": "a484f9ce31c2bb4bd13a74ae82e9e834", "bike_id": "a484f9ce31c2bb4bd13a74ae82e9e834"}, {"is_disabled": 0, "is_reserved": 0, "type": "electric_scooter", "lon": -77.0446935, "fusion_lon": 0.0, "lat": 38.908357, "rental_uris": {"android": "https://dc.lft.to/lastmile_qr_scan", "ios": "https://dc.lft.to/lastmile_qr_scan"}, "fusion_lat": 0.0, "name": "834bd5d53618f9e67b3a154892f76c6c", "bike_id": "834bd5d53618f9e67b3a154892f76c6c"}, {"is_disabled": 0, "is_reserved": 0, "type": "electric_scooter", "lon": -77.03283316666666, "fusion_lon": 0.0, "lat": 38.93448583333333, "rental_uris": {"android": "https://dc.lft.to/lastmile_qr_scan", "ios": "https://dc.lft.to/lastmile_qr_scan"}, "fusion_lat": 0.0, "name": "1595593781ec32ce33f714cf945f15d6", "bike_id": "1595593781ec32ce33f714cf945f15d6"}, {"is_disabled": 0, "is_reserved": 0, "type": "electric_scooter", "lon": -77.03654466666667, "fusion_lon": 0.0, "lat": 38.9124855, "rental_uris": {"android": "https://dc.lft.to/lastmile_qr_scan", "ios": "https://dc.lft.to/lastmile_qr_scan"}, "fusion_lat": 0.0, "name": "a08a81ab36f4ae4dbcb171131d0827b8", "bike_id": "a08a81ab36f4ae4dbcb171131d0827b8"}, {"is_disabled": 0, "is_reserved": 0, "type": "electric_scooter", "lon": -77.03422966666666, "fusion_lon": 0.0, "lat": 38.90962483333333, "rental_uris": {"android": "https://dc.lft.to/lastmile_qr_scan", "ios": "https://dc.lft.to/lastmile_qr_scan"}, "fusion_lat": 0.0, "name": "fe0c2192d69bc589f376030078317502", "bike_id": "fe0c2192d69bc589f376030078317502"}, {"is_disabled": 0, "is_reserved": 0, "type": "electric_scooter", "lon": -77.03806066666667, "fusion_lon": 0.0, "lat": 38.93225283333334, "rental_uris": {"android": "https://dc.lft.to/lastmile_qr_scan", "ios": "https://dc.lft.to/lastmile_qr_scan"}, "fusion_lat": 0.0, "name": "3dcca3111faea7cf783bfc438581733b", "bike_id": "3dcca3111faea7cf783bfc438581733b"}, {"is_disabled": 0, "is_reserved": 0, "type": "electric_scooter", "lon": -77.038727, "fusion_lon": 0.0, "lat": 38.903830166666665, "rental_uris": {"android": "https://dc.lft.to/lastmile_qr_scan", "ios": "https://dc.lft.to/lastmile_qr_scan"}, "fusion_lat": 0.0, "name": "6edd748edc0777c45a0d6e4e3bfaa6b2", "bike_id": "6edd748edc0777c45a0d6e4e3bfaa6b2"}, {"is_disabled": 0, "is_reserved": 0, "type": "electric_scooter", "lon": -77.03197766666666, "fusion_lon": 0.0, "lat": 38.908247333333335, "rental_uris": {"android": "https://dc.lft.to/lastmile_qr_scan", "ios": "https://dc.lft.to/lastmile_qr_scan"}, "fusion_lat": 0.0, "name": "52ceb9d4a75fffe71a877ad315e7a609", "bike_id": "52ceb9d4a75fffe71a877ad315e7a609"}, {"is_disabled": 0, "is_reserved": 0, "type": "electric_scooter", "lon": -76.98565833333333, "fusion_lon": 0.0, "lat": 38.860603, "rental_uris": {"android": "https://dc.lft.to/lastmile_qr_scan", "ios": "https://dc.lft.to/lastmile_qr_scan"}, "fusion_lat": 0.0, "name": "5c1338cb00c52457001c1e8b582e0a46", "bike_id": "5c1338cb00c52457001c1e8b582e0a46"}, {"is_disabled": 0, "is_reserved": 0, "type": "electric_scooter", "lon": -77.03088516666666, "fusion_lon": 0.0, "lat": 38.946768166666665, "rental_uris": {"android": "https://dc.lft.to/lastmile_qr_scan", "ios": "https://dc.lft.to/lastmile_qr_scan"}, "fusion_lat": 0.0, "name": "561484aee4e2612f60b79f2aa819e008", "bike_id": "561484aee4e2612f60b79f2aa819e008"}, {"is_disabled": 0, "is_reserved": 0, "type": "electric_scooter", "lon": -77.04622016666667, "fusion_lon": 0.0, "lat": 38.9231835, "rental_uris": {"android": "https://dc.lft.to/lastmile_qr_scan", "ios": "https://dc.lft.to/lastmile_qr_scan"}, "fusion_lat": 0.0, "name": "958043e4239a422301c58bd636c57245", "bike_id": "958043e4239a422301c58bd636c57245"}, {"is_disabled": 0, "is_reserved": 0, "type": "electric_scooter", "lon": -77.04752933333333, "fusion_lon": 0.0, "lat": 38.90541483333333, "rental_uris": {"android": "https://dc.lft.to/lastmile_qr_scan", "ios": "https://dc.lft.to/lastmile_qr_scan"}, "fusion_lat": 0.0, "name": "21b6bcd288e3111c367b7dbe0fc47503", "bike_id": "21b6bcd288e3111c367b7dbe0fc47503"}, {"is_disabled": 0, "is_reserved": 0, "type": "electric_scooter", "lon": -77.029594, "fusion_lon": 0.0, "lat": 38.921432, "rental_uris": {"android": "https://dc.lft.to/lastmile_qr_scan", "ios": "https://dc.lft.to/lastmile_qr_scan"}, "fusion_lat": 0.0, "name": "a43c9db710dcb9bdeeb8a43a60e13015", "bike_id": "a43c9db710dcb9bdeeb8a43a60e13015"}, {"is_disabled": 0, "is_reserved": 0, "type": "electric_scooter", "lon": -77.0249805, "fusion_lon": 0.0, "lat": 38.91807633333333, "rental_uris": {"android": "https://dc.lft.to/lastmile_qr_scan", "ios": "https://dc.lft.to/lastmile_qr_scan"}, "fusion_lat": 0.0, "name": "12872d93e03a3e790f7c006b8fff38c4", "bike_id": "12872d93e03a3e790f7c006b8fff38c4"}, {"is_disabled": 0, "is_reserved": 0, "type": "electric_bike", "lon": -76.965355, "fusion_lon": 0.0, "lat": 38.91883966666666, "rental_uris": {"android": "https://dc.lft.to/lastmile_qr_scan", "ios": "https://dc.lft.to/lastmile_qr_scan"}, "fusion_lat": 0.0, "name": "a766c0da86d434cd0871eb729f75e359", "bike_id": "a766c0da86d434cd0871eb729f75e359"}, {"is_disabled": 0, "is_reserved": 0, "type": "electric_scooter", "lon": -77.04392483333334, "fusion_lon": 0.0, "lat": 38.9010035, "rental_uris": {"android": "https://dc.lft.to/lastmile_qr_scan", "ios": "https://dc.lft.to/lastmile_qr_scan"}, "fusion_lat": 0.0, "name": "283f1b2da8647606688c3b6de5ff265f", "bike_id": "283f1b2da8647606688c3b6de5ff265f"}, {"is_disabled": 0, "is_reserved": 0, "type": "electric_scooter", "lon": -77.050587, "fusion_lon": 0.0, "lat": 38.900847, "rental_uris": {"android": "https://dc.lft.to/lastmile_qr_scan", "ios": "https://dc.lft.to/lastmile_qr_scan"}, "fusion_lat": 0.0, "name": "88412533aca484284b986acb154dd82f", "bike_id": "88412533aca484284b986acb154dd82f"}, {"is_disabled": 0, "is_reserved": 0, "type": "electric_scooter", "lon": -77.04173383333334, "fusion_lon": 0.0, "lat": 38.919108666666666, "rental_uris": {"android": "https://dc.lft.to/lastmile_qr_scan", "ios": "https://dc.lft.to/lastmile_qr_scan"}, "fusion_lat": 0.0, "name": "7be8e95a0efbe1e62d585c4aba333379", "bike_id": "7be8e95a0efbe1e62d585c4aba333379"}, {"is_disabled": 0, "is_reserved": 0, "type": "electric_bike", "lon": -77.10688183333333, "fusion_lon": 0.0, "lat": 38.935793, "rental_uris": {"android": "https://dc.lft.to/lastmile_qr_scan", "ios": "https://dc.lft.to/lastmile_qr_scan"}, "fusion_lat": 0.0, "name": "ea4eadb29a15c4cd99b4707d9acc322a", "bike_id": "ea4eadb29a15c4cd99b4707d9acc322a"}, {"is_disabled": 0, "is_reserved": 0, "type": "electric_scooter", "lon": -77.019521, "fusion_lon": 0.0, "lat": 38.92254166666667, "rental_uris": {"android": "https://dc.lft.to/lastmile_qr_scan", "ios": "https://dc.lft.to/lastmile_qr_scan"}, "fusion_lat": 0.0, "name": "aba4ccc24144b8efa22bd566a462734c", "bike_id": "aba4ccc24144b8efa22bd566a462734c"}, {"is_disabled": 0, "is_reserved": 0, "type": "electric_scooter", "lon": -77.02212166666666, "fusion_lon": 0.0, "lat": 38.89591733333334, "rental_uris": {"android": "https://dc.lft.to/lastmile_qr_scan", "ios": "https://dc.lft.to/lastmile_qr_scan"}, "fusion_lat": 0.0, "name": "73c093161612b9cabfbdc7728e13fc00", "bike_id": "73c093161612b9cabfbdc7728e13fc00"}, {"is_disabled": 0, "is_reserved": 0, "type": "electric_scooter", "lon": -77.00335916666667, "fusion_lon": 0.0, "lat": 38.893589, "rental_uris": {"android": "https://dc.lft.to/lastmile_qr_scan", "ios": "https://dc.lft.to/lastmile_qr_scan"}, "fusion_lat": 0.0, "name": "edbbe8711bf167aa12744a69463bff91", "bike_id": "edbbe8711bf167aa12744a69463bff91"}, {"is_disabled": 0, "is_reserved": 0, "type": "electric_bike", "lon": -76.9876435, "fusion_lon": 0.0, "lat": 38.85789333333334, "rental_uris": {"android": "https://dc.lft.to/lastmile_qr_scan", "ios": "https://dc.lft.to/lastmile_qr_scan"}, "fusion_lat": 0.0, "name": "37cd55569b613e8749b88b81868cc5a7", "bike_id": "37cd55569b613e8749b88b81868cc5a7"}, {"is_disabled": 0, "is_reserved": 0, "type": "electric_scooter", "lon": -77.03314366666666, "fusion_lon": 0.0, "lat": 38.91412616666667, "rental_uris": {"android": "https://dc.lft.to/lastmile_qr_scan", "ios": "https://dc.lft.to/lastmile_qr_scan"}, "fusion_lat": 0.0, "name": "a8762d2c0e9effa5f65dddce863831ee", "bike_id": "a8762d2c0e9effa5f65dddce863831ee"}, {"is_disabled": 0, "is_reserved": 0, "type": "electric_scooter", "lon": -76.98664033333333, "fusion_lon": 0.0, "lat": 38.901476333333335, "rental_uris": {"android": "https://dc.lft.to/lastmile_qr_scan", "ios": "https://dc.lft.to/lastmile_qr_scan"}, "fusion_lat": 0.0, "name": "741ffa273603fbeaadaf986b7ce89343", "bike_id": "741ffa273603fbeaadaf986b7ce89343"}, {"is_disabled": 0, "is_reserved": 0, "type": "electric_scooter", "lon": -77.01391333333333, "fusion_lon": 0.0, "lat": 38.880273, "rental_uris": {"android": "https://dc.lft.to/lastmile_qr_scan", "ios": "https://dc.lft.to/lastmile_qr_scan"}, "fusion_lat": 0.0, "name": "1eb79040593ad308e662589fa143f764", "bike_id": "1eb79040593ad308e662589fa143f764"}, {"is_disabled": 0, "is_reserved": 0, "type": "electric_scooter", "lon": -77.04419, "fusion_lon": 0.0, "lat": 38.917775166666665, "rental_uris": {"android": "https://dc.lft.to/lastmile_qr_scan", "ios": "https://dc.lft.to/lastmile_qr_scan"}, "fusion_lat": 0.0, "name": "97ead35c93666dec700f6bcdfc1458e7", "bike_id": "97ead35c93666dec700f6bcdfc1458e7"}, {"is_disabled": 0, "is_reserved": 0, "type": "electric_scooter", "lon": -77.029588, "fusion_lon": 0.0, "lat": 38.89638266666667, "rental_uris": {"android": "https://dc.lft.to/lastmile_qr_scan", "ios": "https://dc.lft.to/lastmile_qr_scan"}, "fusion_lat": 0.0, "name": "861c0a258f78d612d2514b9d3510380b", "bike_id": "861c0a258f78d612d2514b9d3510380b"}, {"is_disabled": 0, "is_reserved": 0, "type": "electric_scooter", "lon": -76.97909833333334, "fusion_lon": 0.0, "lat": 38.89432683333333, "rental_uris": {"android": "https://dc.lft.to/lastmile_qr_scan", "ios": "https://dc.lft.to/lastmile_qr_scan"}, "fusion_lat": 0.0, "name": "022f7c7aa2e059c5a03774ea0221e48f", "bike_id": "022f7c7aa2e059c5a03774ea0221e48f"}, {"is_disabled": 0, "is_reserved": 0, "type": "electric_scooter", "lon": -77.03203233333333, "fusion_lon": 0.0, "lat": 38.939765333333334, "rental_uris": {"android": "https://dc.lft.to/lastmile_qr_scan", "ios": "https://dc.lft.to/lastmile_qr_scan"}, "fusion_lat": 0.0, "name": "c0919b13430bf07a05188c43e6130eca", "bike_id": "c0919b13430bf07a05188c43e6130eca"}, {"is_disabled": 0, "is_reserved": 0, "type": "electric_scooter", "lon": -77.01497216666667, "fusion_lon": 0.0, "lat": 38.95647566666667, "rental_uris": {"android": "https://dc.lft.to/lastmile_qr_scan", "ios": "https://dc.lft.to/lastmile_qr_scan"}, "fusion_lat": 0.0, "name": "2b1812b540adf42d8664db84972c893a", "bike_id": "2b1812b540adf42d8664db84972c893a"}, {"is_disabled": 0, "is_reserved": 0, "type": "electric_scooter", "lon": -77.03101616666666, "fusion_lon": 0.0, "lat": 38.925724333333335, "rental_uris": {"android": "https://dc.lft.to/lastmile_qr_scan", "ios": "https://dc.lft.to/lastmile_qr_scan"}, "fusion_lat": 0.0, "name": "9a270d0be87e76e5e75699a325373915", "bike_id": "9a270d0be87e76e5e75699a325373915"}, {"is_disabled": 0, "is_reserved": 0, "type": "electric_scooter", "lon": -77.04674966666667, "fusion_lon": 0.0, "lat": 38.89555933333333, "rental_uris": {"android": "https://dc.lft.to/lastmile_qr_scan", "ios": "https://dc.lft.to/lastmile_qr_scan"}, "fusion_lat": 0.0, "name": "8f36fb85353b79e9e42ac86de76c2fbf", "bike_id": "8f36fb85353b79e9e42ac86de76c2fbf"}, {"is_disabled": 0, "is_reserved": 0, "type": "electric_scooter", "lon": -76.978704, "fusion_lon": 0.0, "lat": 38.899276666666665, "rental_uris": {"android": "https://dc.lft.to/lastmile_qr_scan", "ios": "https://dc.lft.to/lastmile_qr_scan"}, "fusion_lat": 0.0, "name": "039198dd7690e36ebf9bd79a09b4c289", "bike_id": "039198dd7690e36ebf9bd79a09b4c289"}, {"is_disabled": 0, "is_reserved": 0, "type": "electric_bike", "lon": -77.070483, "fusion_lon": 0.0, "lat": 38.824463, "rental_uris": {"android": "https://dc.lft.to/lastmile_qr_scan", "ios": "https://dc.lft.to/lastmile_qr_scan"}, "fusion_lat": 0.0, "name": "67b2f2a9959c1dd0c15e5b1d5eacf0e6", "bike_id": "67b2f2a9959c1dd0c15e5b1d5eacf0e6"}, {"is_disabled": 0, "is_reserved": 0, "type": "electric_scooter", "lon": -77.04008983333334, "fusion_lon": 0.0, "lat": 38.9035445, "rental_uris": {"android": "https://dc.lft.to/lastmile_qr_scan", "ios": "https://dc.lft.to/lastmile_qr_scan"}, "fusion_lat": 0.0, "name": "207e3ec3f531bac8a8d5c470a181e8f3", "bike_id": "207e3ec3f531bac8a8d5c470a181e8f3"}, {"is_disabled": 0, "is_reserved": 0, "type": "electric_scooter", "lon": -77.0448045, "fusion_lon": 0.0, "lat": 38.90423033333333, "rental_uris": {"android": "https://dc.lft.to/lastmile_qr_scan", "ios": "https://dc.lft.to/lastmile_qr_scan"}, "fusion_lat": 0.0, "name": "6c9170bb3a4609585e57d3b6282c2a1b", "bike_id": "6c9170bb3a4609585e57d3b6282c2a1b"}, {"is_disabled": 0, "is_reserved": 0, "type": "electric_scooter", "lon": -77.03854583333333, "fusion_lon": 0.0, "lat": 38.926519, "rental_uris": {"android": "https://dc.lft.to/lastmile_qr_scan", "ios": "https://dc.lft.to/lastmile_qr_scan"}, "fusion_lat": 0.0, "name": "6d9b0df6370378d805ec90649b4ae332", "bike_id": "6d9b0df6370378d805ec90649b4ae332"}, {"is_disabled": 0, "is_reserved": 0, "type": "electric_scooter", "lon": -77.0224845, "fusion_lon": 0.0, "lat": 38.878637833333336, "rental_uris": {"android": "https://dc.lft.to/lastmile_qr_scan", "ios": "https://dc.lft.to/lastmile_qr_scan"}, "fusion_lat": 0.0, "name": "e1b0029c97d7775a68dce00cd84b11cd", "bike_id": "e1b0029c97d7775a68dce00cd84b11cd"}, {"is_disabled": 0, "is_reserved": 0, "type": "electric_bike", "lon": -77.12819866666666, "fusion_lon": 0.0, "lat": 38.86520433333333, "rental_uris": {"android": "https://dc.lft.to/lastmile_qr_scan", "ios": "https://dc.lft.to/lastmile_qr_scan"}, "fusion_lat": 0.0, "name": "83db3f4e467955d1dc285314473c6e42", "bike_id": "83db3f4e467955d1dc285314473c6e42"}, {"is_disabled": 0, "is_reserved": 0, "type": "electric_scooter", "lon": -77.04159266666667, "fusion_lon": 0.0, "lat": 38.915719833333334, "rental_uris": {"android": "https://dc.lft.to/lastmile_qr_scan", "ios": "https://dc.lft.to/lastmile_qr_scan"}, "fusion_lat": 0.0, "name": "ed0a229208273da47b441102a4d3e714", "bike_id": "ed0a229208273da47b441102a4d3e714"}, {"is_disabled": 0, "is_reserved": 0, "type": "electric_scooter", "lon": -76.9870785, "fusion_lon": 0.0, "lat": 38.8653275, "rental_uris": {"android": "https://dc.lft.to/lastmile_qr_scan", "ios": "https://dc.lft.to/lastmile_qr_scan"}, "fusion_lat": 0.0, "name": "5c3193d0a4abdea62a97c3db45520b73", "bike_id": "5c3193d0a4abdea62a97c3db45520b73"}, {"is_disabled": 0, "is_reserved": 0, "type": "electric_bike", "lon": -77.040307, "fusion_lon": 0.0, "lat": 38.901294, "rental_uris": {"android": "https://dc.lft.to/lastmile_qr_scan", "ios": "https://dc.lft.to/lastmile_qr_scan"}, "fusion_lat": 0.0, "name": "fb115043cc2972f1d7481fb0b62d359f", "bike_id": "fb115043cc2972f1d7481fb0b62d359f"}, {"is_disabled": 0, "is_reserved": 0, "type": "electric_scooter", "lon": -77.0582625, "fusion_lon": 0.0, "lat": 38.9353585, "rental_uris": {"android": "https://dc.lft.to/lastmile_qr_scan", "ios": "https://dc.lft.to/lastmile_qr_scan"}, "fusion_lat": 0.0, "name": "f794ab11b0fa77c560dde6a7093fc72d", "bike_id": "f794ab11b0fa77c560dde6a7093fc72d"}, {"is_disabled": 0, "is_reserved": 0, "type": "electric_scooter", "lon": -77.02159266666666, "fusion_lon": 0.0, "lat": 38.92604083333333, "rental_uris": {"android": "https://dc.lft.to/lastmile_qr_scan", "ios": "https://dc.lft.to/lastmile_qr_scan"}, "fusion_lat": 0.0, "name": "5e950a1822bfff181cf7686581358536", "bike_id": "5e950a1822bfff181cf7686581358536"}, {"is_disabled": 0, "is_reserved": 0, "type": "electric_bike", "lon": -77.02870016666667, "fusion_lon": 0.0, "lat": 38.9986625, "rental_uris": {"android": "https://dc.lft.to/lastmile_qr_scan", "ios": "https://dc.lft.to/lastmile_qr_scan"}, "fusion_lat": 0.0, "name": "5d2c52f84c6f4c77ff33d31ded8eb951", "bike_id": "5d2c52f84c6f4c77ff33d31ded8eb951"}, {"is_disabled": 0, "is_reserved": 0, "type": "electric_scooter", "lon": -76.97333416666666, "fusion_lon": 0.0, "lat": 38.86505483333333, "rental_uris": {"android": "https://dc.lft.to/lastmile_qr_scan", "ios": "https://dc.lft.to/lastmile_qr_scan"}, "fusion_lat": 0.0, "name": "241db004b18d4fc86dae09bf434fb1ea", "bike_id": "241db004b18d4fc86dae09bf434fb1ea"}, {"is_disabled": 0, "is_reserved": 0, "type": "electric_scooter", "lon": -77.06776866666667, "fusion_lon": 0.0, "lat": 38.949734, "rental_uris": {"android": "https://dc.lft.to/lastmile_qr_scan", "ios": "https://dc.lft.to/lastmile_qr_scan"}, "fusion_lat": 0.0, "name": "403a3f82de8fd1d38689dfaab231a035", "bike_id": "403a3f82de8fd1d38689dfaab231a035"}, {"is_disabled": 0, "is_reserved": 0, "type": "electric_scooter", "lon": -77.02692883333333, "fusion_lon": 0.0, "lat": 38.90873233333333, "rental_uris": {"android": "https://dc.lft.to/lastmile_qr_scan", "ios": "https://dc.lft.to/lastmile_qr_scan"}, "fusion_lat": 0.0, "name": "2124653372f4dd152af4e4d8948597de", "bike_id": "2124653372f4dd152af4e4d8948597de"}, {"is_disabled": 0, "is_reserved": 0, "type": "electric_bike", "lon": -76.97214883333334, "fusion_lon": 0.0, "lat": 38.844864666666666, "rental_uris": {"android": "https://dc.lft.to/lastmile_qr_scan", "ios": "https://dc.lft.to/lastmile_qr_scan"}, "fusion_lat": 0.0, "name": "f10f08b48afd03bc9c9d9b3c5f154c56", "bike_id": "f10f08b48afd03bc9c9d9b3c5f154c56"}, {"is_disabled": 0, "is_reserved": 0, "type": "electric_scooter", "lon": -77.0522715, "fusion_lon": 0.0, "lat": 38.9246315, "rental_uris": {"android": "https://dc.lft.to/lastmile_qr_scan", "ios": "https://dc.lft.to/lastmile_qr_scan"}, "fusion_lat": 0.0, "name": "5c5489c3a927db396b658a1a284f58ab", "bike_id": "5c5489c3a927db396b658a1a284f58ab"}, {"is_disabled": 0, "is_reserved": 0, "type": "electric_scooter", "lon": -77.0472955, "fusion_lon": 0.0, "lat": 38.898461, "rental_uris": {"android": "https://dc.lft.to/lastmile_qr_scan", "ios": "https://dc.lft.to/lastmile_qr_scan"}, "fusion_lat": 0.0, "name": "472eb618b077593421247ba1a426c51a", "bike_id": "472eb618b077593421247ba1a426c51a"}, {"is_disabled": 0, "is_reserved": 0, "type": "electric_scooter", "lon": -77.02620633333333, "fusion_lon": 0.0, "lat": 38.919143166666665, "rental_uris": {"android": "https://dc.lft.to/lastmile_qr_scan", "ios": "https://dc.lft.to/lastmile_qr_scan"}, "fusion_lat": 0.0, "name": "092b17bae2906060915c41e92918f746", "bike_id": "092b17bae2906060915c41e92918f746"}, {"is_disabled": 0, "is_reserved": 0, "type": "electric_scooter", "lon": -76.93751516666667, "fusion_lon": 0.0, "lat": 38.89033366666666, "rental_uris": {"android": "https://dc.lft.to/lastmile_qr_scan", "ios": "https://dc.lft.to/lastmile_qr_scan"}, "fusion_lat": 0.0, "name": "f233553890a8ff696b57ed4aa60b49da", "bike_id": "f233553890a8ff696b57ed4aa60b49da"}, {"is_disabled": 0, "is_reserved": 0, "type": "electric_scooter", "lon": -77.04594883333333, "fusion_lon": 0.0, "lat": 38.896104, "rental_uris": {"android": "https://dc.lft.to/lastmile_qr_scan", "ios": "https://dc.lft.to/lastmile_qr_scan"}, "fusion_lat": 0.0, "name": "20a6502060f7f655c2737d4feed9a1a5", "bike_id": "20a6502060f7f655c2737d4feed9a1a5"}, {"is_disabled": 0, "is_reserved": 0, "type": "electric_bike", "lon": -77.11224083333333, "fusion_lon": 0.0, "lat": 38.82869933333333, "rental_uris": {"android": "https://dc.lft.to/lastmile_qr_scan", "ios": "https://dc.lft.to/lastmile_qr_scan"}, "fusion_lat": 0.0, "name": "a553ae8b66090bd40c15b1006afa15fa", "bike_id": "a553ae8b66090bd40c15b1006afa15fa"}, {"is_disabled": 0, "is_reserved": 0, "type": "electric_scooter", "lon": -77.02800383333333, "fusion_lon": 0.0, "lat": 38.89709583333333, "rental_uris": {"android": "https://dc.lft.to/lastmile_qr_scan", "ios": "https://dc.lft.to/lastmile_qr_scan"}, "fusion_lat": 0.0, "name": "69f727e0b689e8345e36ce12f7889ee7", "bike_id": "69f727e0b689e8345e36ce12f7889ee7"}, {"is_disabled": 0, "is_reserved": 0, "type": "electric_scooter", "lon": -77.03963916666666, "fusion_lon": 0.0, "lat": 38.900672166666666, "rental_uris": {"android": "https://dc.lft.to/lastmile_qr_scan", "ios": "https://dc.lft.to/lastmile_qr_scan"}, "fusion_lat": 0.0, "name": "aacc0fb0ead05d69d34b7c025abf10bd", "bike_id": "aacc0fb0ead05d69d34b7c025abf10bd"}, {"is_disabled": 0, "is_reserved": 0, "type": "electric_scooter", "lon": -77.04336983333333, "fusion_lon": 0.0, "lat": 38.90324916666667, "rental_uris": {"android": "https://dc.lft.to/lastmile_qr_scan", "ios": "https://dc.lft.to/lastmile_qr_scan"}, "fusion_lat": 0.0, "name": "689da4f05404b2ad2dd0164abafde2f3", "bike_id": "689da4f05404b2ad2dd0164abafde2f3"}, {"is_disabled": 0, "is_reserved": 0, "type": "electric_scooter", "lon": -77.03180516666667, "fusion_lon": 0.0, "lat": 38.90756233333333, "rental_uris": {"android": "https://dc.lft.to/lastmile_qr_scan", "ios": "https://dc.lft.to/lastmile_qr_scan"}, "fusion_lat": 0.0, "name": "4de23ce7ffefeaf31022421914d6abb1", "bike_id": "4de23ce7ffefeaf31022421914d6abb1"}, {"is_disabled": 0, "is_reserved": 0, "type": "electric_scooter", "lon": -77.02438916666667, "fusion_lon": 0.0, "lat": 38.920496666666665, "rental_uris": {"android": "https://dc.lft.to/lastmile_qr_scan", "ios": "https://dc.lft.to/lastmile_qr_scan"}, "fusion_lat": 0.0, "name": "f5c2dc2d22b039cb9bd01c93fd8539f6", "bike_id": "f5c2dc2d22b039cb9bd01c93fd8539f6"}, {"is_disabled": 0, "is_reserved": 0, "type": "electric_scooter", "lon": -77.02726916666667, "fusion_lon": 0.0, "lat": 38.90151, "rental_uris": {"android": "https://dc.lft.to/lastmile_qr_scan", "ios": "https://dc.lft.to/lastmile_qr_scan"}, "fusion_lat": 0.0, "name": "36e88d9cb2b2dc1fa2b9077cfd6f883e", "bike_id": "36e88d9cb2b2dc1fa2b9077cfd6f883e"}, {"is_disabled": 0, "is_reserved": 0, "type": "electric_bike", "lon": -76.87496766666666, "fusion_lon": 0.0, "lat": 38.99089033333333, "rental_uris": {"android": "https://dc.lft.to/lastmile_qr_scan", "ios": "https://dc.lft.to/lastmile_qr_scan"}, "fusion_lat": 0.0, "name": "997c8adc28911f0f006cdc7ed9c8468d", "bike_id": "997c8adc28911f0f006cdc7ed9c8468d"}, {"is_disabled": 0, "is_reserved": 0, "type": "electric_scooter", "lon": -77.02853266666666, "fusion_lon": 0.0, "lat": 38.901538333333335, "rental_uris": {"android": "https://dc.lft.to/lastmile_qr_scan", "ios": "https://dc.lft.to/lastmile_qr_scan"}, "fusion_lat": 0.0, "name": "67a151a6806d296bcf96fcdcb764dc3f", "bike_id": "67a151a6806d296bcf96fcdcb764dc3f"}, {"is_disabled": 0, "is_reserved": 0, "type": "electric_scooter", "lon": -77.009181, "fusion_lon": 0.0, "lat": 38.896396, "rental_uris": {"android": "https://dc.lft.to/lastmile_qr_scan", "ios": "https://dc.lft.to/lastmile_qr_scan"}, "fusion_lat": 0.0, "name": "dcd4d55a19171e71da89fb0d1c77d36a", "bike_id": "dcd4d55a19171e71da89fb0d1c77d36a"}, {"is_disabled": 0, "is_reserved": 0, "type": "electric_scooter", "lon": -77.04175133333334, "fusion_lon": 0.0, "lat": 38.920098833333334, "rental_uris": {"android": "https://dc.lft.to/lastmile_qr_scan", "ios": "https://dc.lft.to/lastmile_qr_scan"}, "fusion_lat": 0.0, "name": "b17d32c9c2a367d9a06d68605fc74fed", "bike_id": "b17d32c9c2a367d9a06d68605fc74fed"}, {"is_disabled": 0, "is_reserved": 0, "type": "electric_scooter", "lon": -77.03114683333334, "fusion_lon": 0.0, "lat": 38.9202615, "rental_uris": {"android": "https://dc.lft.to/lastmile_qr_scan", "ios": "https://dc.lft.to/lastmile_qr_scan"}, "fusion_lat": 0.0, "name": "3076fbbdd532736ee7d2b020e040186c", "bike_id": "3076fbbdd532736ee7d2b020e040186c"}, {"is_disabled": 0, "is_reserved": 0, "type": "electric_scooter", "lon": -77.03615933333333, "fusion_lon": 0.0, "lat": 38.923347166666666, "rental_uris": {"android": "https://dc.lft.to/lastmile_qr_scan", "ios": "https://dc.lft.to/lastmile_qr_scan"}, "fusion_lat": 0.0, "name": "bb58bbace0e2dafc9db9c55359574c24", "bike_id": "bb58bbace0e2dafc9db9c55359574c24"}, {"is_disabled": 0, "is_reserved": 0, "type": "electric_scooter", "lon": -77.03702166666666, "fusion_lon": 0.0, "lat": 38.926432, "rental_uris": {"android": "https://dc.lft.to/lastmile_qr_scan", "ios": "https://dc.lft.to/lastmile_qr_scan"}, "fusion_lat": 0.0, "name": "405ccc0508bf36b10cab3e61da35e934", "bike_id": "405ccc0508bf36b10cab3e61da35e934"}, {"is_disabled": 0, "is_reserved": 0, "type": "electric_scooter", "lon": -77.0199785, "fusion_lon": 0.0, "lat": 38.966266, "rental_uris": {"android": "https://dc.lft.to/lastmile_qr_scan", "ios": "https://dc.lft.to/lastmile_qr_scan"}, "fusion_lat": 0.0, "name": "dd327dc8ccf42ca8dd201b20c7488b11", "bike_id": "dd327dc8ccf42ca8dd201b20c7488b11"}, {"is_disabled": 0, "is_reserved": 0, "type": "electric_scooter", "lon": -77.01514516666667, "fusion_lon": 0.0, "lat": 38.910348666666664, "rental_uris": {"android": "https://dc.lft.to/lastmile_qr_scan", "ios": "https://dc.lft.to/lastmile_qr_scan"}, "fusion_lat": 0.0, "name": "50bd2407c04a59f10a1e21233937ba32", "bike_id": "50bd2407c04a59f10a1e21233937ba32"}, {"is_disabled": 0, "is_reserved": 0, "type": "electric_scooter", "lon": -77.0458445, "fusion_lon": 0.0, "lat": 38.924199, "rental_uris": {"android": "https://dc.lft.to/lastmile_qr_scan", "ios": "https://dc.lft.to/lastmile_qr_scan"}, "fusion_lat": 0.0, "name": "ec09cfb4cc66b2c984d8378cb0c87262", "bike_id": "ec09cfb4cc66b2c984d8378cb0c87262"}, {"is_disabled": 0, "is_reserved": 0, "type": "electric_scooter", "lon": -77.04235616666666, "fusion_lon": 0.0, "lat": 38.90564583333333, "rental_uris": {"android": "https://dc.lft.to/lastmile_qr_scan", "ios": "https://dc.lft.to/lastmile_qr_scan"}, "fusion_lat": 0.0, "name": "5b193c83e3825aec37e8621c6596f3c6", "bike_id": "5b193c83e3825aec37e8621c6596f3c6"}, {"is_disabled": 0, "is_reserved": 0, "type": "electric_scooter", "lon": -77.03209583333333, "fusion_lon": 0.0, "lat": 38.91537183333333, "rental_uris": {"android": "https://dc.lft.to/lastmile_qr_scan", "ios": "https://dc.lft.to/lastmile_qr_scan"}, "fusion_lat": 0.0, "name": "af3888249a3dbdf670237513eef1bdf8", "bike_id": "af3888249a3dbdf670237513eef1bdf8"}, {"is_disabled": 0, "is_reserved": 0, "type": "electric_scooter", "lon": -77.027217, "fusion_lon": 0.0, "lat": 38.9109845, "rental_uris": {"android": "https://dc.lft.to/lastmile_qr_scan", "ios": "https://dc.lft.to/lastmile_qr_scan"}, "fusion_lat": 0.0, "name": "4a9130a21e5919d7a04f9f7c1f70b858", "bike_id": "4a9130a21e5919d7a04f9f7c1f70b858"}, {"is_disabled": 0, "is_reserved": 0, "type": "electric_bike", "lon": -77.07084, "fusion_lon": 0.0, "lat": 38.906251833333336, "rental_uris": {"android": "https://dc.lft.to/lastmile_qr_scan", "ios": "https://dc.lft.to/lastmile_qr_scan"}, "fusion_lat": 0.0, "name": "416611f3219af0be1c2ce39e7cdbfa3b", "bike_id": "416611f3219af0be1c2ce39e7cdbfa3b"}, {"is_disabled": 0, "is_reserved": 0, "type": "electric_bike", "lon": -77.038989, "fusion_lon": 0.0, "lat": 38.943942166666666, "rental_uris": {"android": "https://dc.lft.to/lastmile_qr_scan", "ios": "https://dc.lft.to/lastmile_qr_scan"}, "fusion_lat": 0.0, "name": "1dd6dd42c0c6efa5abcee8bcfc6044b1", "bike_id": "1dd6dd42c0c6efa5abcee8bcfc6044b1"}, {"is_disabled": 0, "is_reserved": 0, "type": "electric_scooter", "lon": -77.01972433333333, "fusion_lon": 0.0, "lat": 38.895058166666665, "rental_uris": {"android": "https://dc.lft.to/lastmile_qr_scan", "ios": "https://dc.lft.to/lastmile_qr_scan"}, "fusion_lat": 0.0, "name": "4f3e7a782b39d408597aca64f403d8de", "bike_id": "4f3e7a782b39d408597aca64f403d8de"}, {"is_disabled": 0, "is_reserved": 0, "type": "electric_scooter", "lon": -77.029394, "fusion_lon": 0.0, "lat": 38.896065, "rental_uris": {"android": "https://dc.lft.to/lastmile_qr_scan", "ios": "https://dc.lft.to/lastmile_qr_scan"}, "fusion_lat": 0.0, "name": "75df97f53b940ec0ffc785bb4514ed9a", "bike_id": "75df97f53b940ec0ffc785bb4514ed9a"}, {"is_disabled": 0, "is_reserved": 0, "type": "electric_scooter", "lon": -77.01681516666666, "fusion_lon": 0.0, "lat": 38.902381, "rental_uris": {"android": "https://dc.lft.to/lastmile_qr_scan", "ios": "https://dc.lft.to/lastmile_qr_scan"}, "fusion_lat": 0.0, "name": "9deab5b0920e8cafb697e45635708868", "bike_id": "9deab5b0920e8cafb697e45635708868"}, {"is_disabled": 0, "is_reserved": 0, "type": "electric_scooter", "lon": -77.0298085, "fusion_lon": 0.0, "lat": 38.927294833333335, "rental_uris": {"android": "https://dc.lft.to/lastmile_qr_scan", "ios": "https://dc.lft.to/lastmile_qr_scan"}, "fusion_lat": 0.0, "name": "daafc5270cd01d39169d909bb4ec2ce8", "bike_id": "daafc5270cd01d39169d909bb4ec2ce8"}, {"is_disabled": 0, "is_reserved": 0, "type": "electric_scooter", "lon": -77.04364133333333, "fusion_lon": 0.0, "lat": 38.90514, "rental_uris": {"android": "https://dc.lft.to/lastmile_qr_scan", "ios": "https://dc.lft.to/lastmile_qr_scan"}, "fusion_lat": 0.0, "name": "dc7425ffede0a9ab387d91e502f42313", "bike_id": "dc7425ffede0a9ab387d91e502f42313"}, {"is_disabled": 0, "is_reserved": 0, "type": "electric_scooter", "lon": -77.0186305, "fusion_lon": 0.0, "lat": 38.949168666666665, "rental_uris": {"android": "https://dc.lft.to/lastmile_qr_scan", "ios": "https://dc.lft.to/lastmile_qr_scan"}, "fusion_lat": 0.0, "name": "5e20c90ae16908cc53412e89e505794b", "bike_id": "5e20c90ae16908cc53412e89e505794b"}, {"is_disabled": 0, "is_reserved": 0, "type": "electric_scooter", "lon": -76.94889666666667, "fusion_lon": 0.0, "lat": 38.8950975, "rental_uris": {"android": "https://dc.lft.to/lastmile_qr_scan", "ios": "https://dc.lft.to/lastmile_qr_scan"}, "fusion_lat": 0.0, "name": "d15e542f551b9d3a266ff68f7e27f7d6", "bike_id": "d15e542f551b9d3a266ff68f7e27f7d6"}, {"is_disabled": 0, "is_reserved": 0, "type": "electric_scooter", "lon": -76.9804855, "fusion_lon": 0.0, "lat": 38.920332333333334, "rental_uris": {"android": "https://dc.lft.to/lastmile_qr_scan", "ios": "https://dc.lft.to/lastmile_qr_scan"}, "fusion_lat": 0.0, "name": "b9f454e255d7ec631ba6f659950e84cc", "bike_id": "b9f454e255d7ec631ba6f659950e84cc"}, {"is_disabled": 0, "is_reserved": 0, "type": "electric_scooter", "lon": -77.057024, "fusion_lon": 0.0, "lat": 38.904867333333335, "rental_uris": {"android": "https://dc.lft.to/lastmile_qr_scan", "ios": "https://dc.lft.to/lastmile_qr_scan"}, "fusion_lat": 0.0, "name": "0a025eb0aff4c0d5143b9e7ce5e4082c", "bike_id": "0a025eb0aff4c0d5143b9e7ce5e4082c"}, {"is_disabled": 0, "is_reserved": 0, "type": "electric_scooter", "lon": -77.0488365, "fusion_lon": 0.0, "lat": 38.900668333333336, "rental_uris": {"android": "https://dc.lft.to/lastmile_qr_scan", "ios": "https://dc.lft.to/lastmile_qr_scan"}, "fusion_lat": 0.0, "name": "da78f8f2e224e8571f6d3e5059c528be", "bike_id": "da78f8f2e224e8571f6d3e5059c528be"}, {"is_disabled": 0, "is_reserved": 0, "type": "electric_scooter", "lon": -77.0334935, "fusion_lon": 0.0, "lat": 38.89573816666667, "rental_uris": {"android": "https://dc.lft.to/lastmile_qr_scan", "ios": "https://dc.lft.to/lastmile_qr_scan"}, "fusion_lat": 0.0, "name": "b11e36ac773d0d6d0937e3e0ef2dee1f", "bike_id": "b11e36ac773d0d6d0937e3e0ef2dee1f"}, {"is_disabled": 0, "is_reserved": 0, "type": "electric_scooter", "lon": -77.00047916666666, "fusion_lon": 0.0, "lat": 38.918999166666666, "rental_uris": {"android": "https://dc.lft.to/lastmile_qr_scan", "ios": "https://dc.lft.to/lastmile_qr_scan"}, "fusion_lat": 0.0, "name": "7e5fea50a9e9d66139ffe23758dbd40e", "bike_id": "7e5fea50a9e9d66139ffe23758dbd40e"}, {"is_disabled": 0, "is_reserved": 0, "type": "electric_scooter", "lon": -76.99516883333334, "fusion_lon": 0.0, "lat": 38.8948075, "rental_uris": {"android": "https://dc.lft.to/lastmile_qr_scan", "ios": "https://dc.lft.to/lastmile_qr_scan"}, "fusion_lat": 0.0, "name": "9de995890aa370f5a9ecf5495b086759", "bike_id": "9de995890aa370f5a9ecf5495b086759"}, {"is_disabled": 0, "is_reserved": 0, "type": "electric_scooter", "lon": -77.031621, "fusion_lon": 0.0, "lat": 38.89888716666667, "rental_uris": {"android": "https://dc.lft.to/lastmile_qr_scan", "ios": "https://dc.lft.to/lastmile_qr_scan"}, "fusion_lat": 0.0, "name": "7c9de90f4543d283d5e3ecb7a9d6c159", "bike_id": "7c9de90f4543d283d5e3ecb7a9d6c159"}, {"is_disabled": 0, "is_reserved": 0, "type": "electric_scooter", "lon": -77.03501916666667, "fusion_lon": 0.0, "lat": 38.923470333333334, "rental_uris": {"android": "https://dc.lft.to/lastmile_qr_scan", "ios": "https://dc.lft.to/lastmile_qr_scan"}, "fusion_lat": 0.0, "name": "076e8db9e4ca2bb5ecd714fa03349f2a", "bike_id": "076e8db9e4ca2bb5ecd714fa03349f2a"}, {"is_disabled": 0, "is_reserved": 0, "type": "electric_scooter", "lon": -77.04209783333333, "fusion_lon": 0.0, "lat": 38.92322583333333, "rental_uris": {"android": "https://dc.lft.to/lastmile_qr_scan", "ios": "https://dc.lft.to/lastmile_qr_scan"}, "fusion_lat": 0.0, "name": "e1a626512f377cc466eedcf05bcfbf6b", "bike_id": "e1a626512f377cc466eedcf05bcfbf6b"}, {"is_disabled": 0, "is_reserved": 0, "type": "electric_scooter", "lon": -77.04611416666667, "fusion_lon": 0.0, "lat": 38.902536833333336, "rental_uris": {"android": "https://dc.lft.to/lastmile_qr_scan", "ios": "https://dc.lft.to/lastmile_qr_scan"}, "fusion_lat": 0.0, "name": "489d9d7d83a623abb32f57e3cb594961", "bike_id": "489d9d7d83a623abb32f57e3cb594961"}, {"is_disabled": 0, "is_reserved": 0, "type": "electric_scooter", "lon": -77.00728416666666, "fusion_lon": 0.0, "lat": 38.88493016666666, "rental_uris": {"android": "https://dc.lft.to/lastmile_qr_scan", "ios": "https://dc.lft.to/lastmile_qr_scan"}, "fusion_lat": 0.0, "name": "e3a754b51b2411fc6e7279331c4cbe96", "bike_id": "e3a754b51b2411fc6e7279331c4cbe96"}, {"is_disabled": 0, "is_reserved": 0, "type": "electric_scooter", "lon": -77.057003, "fusion_lon": 0.0, "lat": 38.91061666666667, "rental_uris": {"android": "https://dc.lft.to/lastmile_qr_scan", "ios": "https://dc.lft.to/lastmile_qr_scan"}, "fusion_lat": 0.0, "name": "3b69a3fb699e91f213b11f321294ecf0", "bike_id": "3b69a3fb699e91f213b11f321294ecf0"}, {"is_disabled": 0, "is_reserved": 0, "type": "electric_scooter", "lon": -77.038581, "fusion_lon": 0.0, "lat": 38.91842366666667, "rental_uris": {"android": "https://dc.lft.to/lastmile_qr_scan", "ios": "https://dc.lft.to/lastmile_qr_scan"}, "fusion_lat": 0.0, "name": "94000916a414e72525f854aa30aa9b5b", "bike_id": "94000916a414e72525f854aa30aa9b5b"}, {"is_disabled": 0, "is_reserved": 0, "type": "electric_scooter", "lon": -76.9980785, "fusion_lon": 0.0, "lat": 38.876656833333335, "rental_uris": {"android": "https://dc.lft.to/lastmile_qr_scan", "ios": "https://dc.lft.to/lastmile_qr_scan"}, "fusion_lat": 0.0, "name": "3e6933e89d75875487995799d3ecde82", "bike_id": "3e6933e89d75875487995799d3ecde82"}, {"is_disabled": 0, "is_reserved": 0, "type": "electric_scooter", "lon": -77.03803383333333, "fusion_lon": 0.0, "lat": 38.90565633333333, "rental_uris": {"android": "https://dc.lft.to/lastmile_qr_scan", "ios": "https://dc.lft.to/lastmile_qr_scan"}, "fusion_lat": 0.0, "name": "98094a7b38ba0ee208a882ab3f83d590", "bike_id": "98094a7b38ba0ee208a882ab3f83d590"}, {"is_disabled": 0, "is_reserved": 0, "type": "electric_scooter", "lon": -77.04302316666667, "fusion_lon": 0.0, "lat": 38.907933, "rental_uris": {"android": "https://dc.lft.to/lastmile_qr_scan", "ios": "https://dc.lft.to/lastmile_qr_scan"}, "fusion_lat": 0.0, "name": "2894453b674b9753b3487c16aa505cec", "bike_id": "2894453b674b9753b3487c16aa505cec"}, {"is_disabled": 0, "is_reserved": 0, "type": "electric_scooter", "lon": -76.9446935, "fusion_lon": 0.0, "lat": 38.9028145, "rental_uris": {"android": "https://dc.lft.to/lastmile_qr_scan", "ios": "https://dc.lft.to/lastmile_qr_scan"}, "fusion_lat": 0.0, "name": "d9893aa9987ae315c15e422d76835eb1", "bike_id": "d9893aa9987ae315c15e422d76835eb1"}, {"is_disabled": 0, "is_reserved": 0, "type": "electric_scooter", "lon": -77.04583683333334, "fusion_lon": 0.0, "lat": 38.917081, "rental_uris": {"android": "https://dc.lft.to/lastmile_qr_scan", "ios": "https://dc.lft.to/lastmile_qr_scan"}, "fusion_lat": 0.0, "name": "802d63b65e28586bd6bb0eeed523ac0d", "bike_id": "802d63b65e28586bd6bb0eeed523ac0d"}, {"is_disabled": 0, "is_reserved": 0, "type": "electric_scooter", "lon": -77.02977733333333, "fusion_lon": 0.0, "lat": 38.92038566666667, "rental_uris": {"android": "https://dc.lft.to/lastmile_qr_scan", "ios": "https://dc.lft.to/lastmile_qr_scan"}, "fusion_lat": 0.0, "name": "ae626e50345abd3ad25649fd000d7558", "bike_id": "ae626e50345abd3ad25649fd000d7558"}, {"is_disabled": 0, "is_reserved": 0, "type": "electric_scooter", "lon": -76.949996, "fusion_lon": 0.0, "lat": 38.89391616666666, "rental_uris": {"android": "https://dc.lft.to/lastmile_qr_scan", "ios": "https://dc.lft.to/lastmile_qr_scan"}, "fusion_lat": 0.0, "name": "403035b790f3d91cffcc5163f44acdcf", "bike_id": "403035b790f3d91cffcc5163f44acdcf"}, {"is_disabled": 0, "is_reserved": 0, "type": "electric_scooter", "lon": -77.02201716666667, "fusion_lon": 0.0, "lat": 38.89736883333333, "rental_uris": {"android": "https://dc.lft.to/lastmile_qr_scan", "ios": "https://dc.lft.to/lastmile_qr_scan"}, "fusion_lat": 0.0, "name": "06d2752777b68e4d09c0bbb6cff0805b", "bike_id": "06d2752777b68e4d09c0bbb6cff0805b"}, {"is_disabled": 0, "is_reserved": 0, "type": "electric_scooter", "lon": -77.02181966666667, "fusion_lon": 0.0, "lat": 38.894771, "rental_uris": {"android": "https://dc.lft.to/lastmile_qr_scan", "ios": "https://dc.lft.to/lastmile_qr_scan"}, "fusion_lat": 0.0, "name": "c90352c28d6a6ce618e72b6d64db7ca0", "bike_id": "c90352c28d6a6ce618e72b6d64db7ca0"}, {"is_disabled": 0, "is_reserved": 0, "type": "electric_scooter", "lon": -77.02276166666667, "fusion_lon": 0.0, "lat": 38.89716966666667, "rental_uris": {"android": "https://dc.lft.to/lastmile_qr_scan", "ios": "https://dc.lft.to/lastmile_qr_scan"}, "fusion_lat": 0.0, "name": "6c188477dc069ccc4b7750bae1d67b6c", "bike_id": "6c188477dc069ccc4b7750bae1d67b6c"}, {"is_disabled": 0, "is_reserved": 0, "type": "electric_scooter", "lon": -77.024938, "fusion_lon": 0.0, "lat": 38.94187133333333, "rental_uris": {"android": "https://dc.lft.to/lastmile_qr_scan", "ios": "https://dc.lft.to/lastmile_qr_scan"}, "fusion_lat": 0.0, "name": "00f78b7464f0e14e8108268cdfb7a534", "bike_id": "00f78b7464f0e14e8108268cdfb7a534"}, {"is_disabled": 0, "is_reserved": 0, "type": "electric_scooter", "lon": -77.04499483333333, "fusion_lon": 0.0, "lat": 38.90672033333333, "rental_uris": {"android": "https://dc.lft.to/lastmile_qr_scan", "ios": "https://dc.lft.to/lastmile_qr_scan"}, "fusion_lat": 0.0, "name": "89e40871224aad79f78c862b8a65c195", "bike_id": "89e40871224aad79f78c862b8a65c195"}, {"is_disabled": 0, "is_reserved": 0, "type": "electric_scooter", "lon": -77.0211905, "fusion_lon": 0.0, "lat": 38.892218, "rental_uris": {"android": "https://dc.lft.to/lastmile_qr_scan", "ios": "https://dc.lft.to/lastmile_qr_scan"}, "fusion_lat": 0.0, "name": "38de51f4b258d3fd245b4813e95a453b", "bike_id": "38de51f4b258d3fd245b4813e95a453b"}, {"is_disabled": 0, "is_reserved": 0, "type": "electric_scooter", "lon": -77.03524983333334, "fusion_lon": 0.0, "lat": 38.922599, "rental_uris": {"android": "https://dc.lft.to/lastmile_qr_scan", "ios": "https://dc.lft.to/lastmile_qr_scan"}, "fusion_lat": 0.0, "name": "c61c532ceb137e877706b62ec4b1863d", "bike_id": "c61c532ceb137e877706b62ec4b1863d"}, {"is_disabled": 0, "is_reserved": 0, "type": "electric_scooter", "lon": -77.057946, "fusion_lon": 0.0, "lat": 38.93477466666667, "rental_uris": {"android": "https://dc.lft.to/lastmile_qr_scan", "ios": "https://dc.lft.to/lastmile_qr_scan"}, "fusion_lat": 0.0, "name": "2be06d9b5b9d3eb5e77834d64d1e4286", "bike_id": "2be06d9b5b9d3eb5e77834d64d1e4286"}, {"is_disabled": 0, "is_reserved": 0, "type": "electric_scooter", "lon": -77.04314383333333, "fusion_lon": 0.0, "lat": 38.918834833333335, "rental_uris": {"android": "https://dc.lft.to/lastmile_qr_scan", "ios": "https://dc.lft.to/lastmile_qr_scan"}, "fusion_lat": 0.0, "name": "a11c16c5769a2e03879f3437c47155a2", "bike_id": "a11c16c5769a2e03879f3437c47155a2"}, {"is_disabled": 0, "is_reserved": 0, "type": "electric_scooter", "lon": -76.94639166666667, "fusion_lon": 0.0, "lat": 38.898469, "rental_uris": {"android": "https://dc.lft.to/lastmile_qr_scan", "ios": "https://dc.lft.to/lastmile_qr_scan"}, "fusion_lat": 0.0, "name": "e9a45c9a28d8579c280abb397555cf1f", "bike_id": "e9a45c9a28d8579c280abb397555cf1f"}, {"is_disabled": 0, "is_reserved": 0, "type": "electric_bike", "lon": -76.92918133333333, "fusion_lon": 0.0, "lat": 38.9802605, "rental_uris": {"android": "https://dc.lft.to/lastmile_qr_scan", "ios": "https://dc.lft.to/lastmile_qr_scan"}, "fusion_lat": 0.0, "name": "92e99d0f57f47a4b32c8c389629f4b0f", "bike_id": "92e99d0f57f47a4b32c8c389629f4b0f"}, {"is_disabled": 0, "is_reserved": 0, "type": "electric_scooter", "lon": -77.03829983333334, "fusion_lon": 0.0, "lat": 38.9125595, "rental_uris": {"android": "https://dc.lft.to/lastmile_qr_scan", "ios": "https://dc.lft.to/lastmile_qr_scan"}, "fusion_lat": 0.0, "name": "e245b94fdfeb1d1a8c930a4bd41a1434", "bike_id": "e245b94fdfeb1d1a8c930a4bd41a1434"}, {"is_disabled": 0, "is_reserved": 0, "type": "electric_scooter", "lon": -77.04764583333333, "fusion_lon": 0.0, "lat": 38.900914666666665, "rental_uris": {"android": "https://dc.lft.to/lastmile_qr_scan", "ios": "https://dc.lft.to/lastmile_qr_scan"}, "fusion_lat": 0.0, "name": "f05b292a2e3042c2e3acd0b642f14f4e", "bike_id": "f05b292a2e3042c2e3acd0b642f14f4e"}, {"is_disabled": 0, "is_reserved": 0, "type": "electric_scooter", "lon": -77.050638, "fusion_lon": 0.0, "lat": 38.90085466666667, "rental_uris": {"android": "https://dc.lft.to/lastmile_qr_scan", "ios": "https://dc.lft.to/lastmile_qr_scan"}, "fusion_lat": 0.0, "name": "728ec5faaa64fdcfeb3177de86daf63a", "bike_id": "728ec5faaa64fdcfeb3177de86daf63a"}, {"is_disabled": 0, "is_reserved": 0, "type": "electric_scooter", "lon": -77.04394116666667, "fusion_lon": 0.0, "lat": 38.9227325, "rental_uris": {"android": "https://dc.lft.to/lastmile_qr_scan", "ios": "https://dc.lft.to/lastmile_qr_scan"}, "fusion_lat": 0.0, "name": "785a5f873a9ab72346116adcfc0c7621", "bike_id": "785a5f873a9ab72346116adcfc0c7621"}, {"is_disabled": 0, "is_reserved": 0, "type": "electric_scooter", "lon": -77.0033495, "fusion_lon": 0.0, "lat": 38.8936255, "rental_uris": {"android": "https://dc.lft.to/lastmile_qr_scan", "ios": "https://dc.lft.to/lastmile_qr_scan"}, "fusion_lat": 0.0, "name": "71a1a6ac6754e34f66841714c8d8c285", "bike_id": "71a1a6ac6754e34f66841714c8d8c285"}, {"is_disabled": 0, "is_reserved": 0, "type": "electric_scooter", "lon": -76.98715166666666, "fusion_lon": 0.0, "lat": 38.86694833333333, "rental_uris": {"android": "https://dc.lft.to/lastmile_qr_scan", "ios": "https://dc.lft.to/lastmile_qr_scan"}, "fusion_lat": 0.0, "name": "2e626270ecebd4f705780f0e09ba85d9", "bike_id": "2e626270ecebd4f705780f0e09ba85d9"}, {"is_disabled": 0, "is_reserved": 0, "type": "electric_scooter", "lon": -77.06466, "fusion_lon": 0.0, "lat": 38.90508283333333, "rental_uris": {"android": "https://dc.lft.to/lastmile_qr_scan", "ios": "https://dc.lft.to/lastmile_qr_scan"}, "fusion_lat": 0.0, "name": "6adde0455019ba256210ed1d588525cc", "bike_id": "6adde0455019ba256210ed1d588525cc"}, {"is_disabled": 0, "is_reserved": 0, "type": "electric_scooter", "lon": -77.0617555, "fusion_lon": 0.0, "lat": 38.90692166666667, "rental_uris": {"android": "https://dc.lft.to/lastmile_qr_scan", "ios": "https://dc.lft.to/lastmile_qr_scan"}, "fusion_lat": 0.0, "name": "aa367e1fcd431c0454a472136de94d1e", "bike_id": "aa367e1fcd431c0454a472136de94d1e"}, {"is_disabled": 0, "is_reserved": 0, "type": "electric_bike", "lon": -76.98434716666667, "fusion_lon": 0.0, "lat": 38.855159666666665, "rental_uris": {"android": "https://dc.lft.to/lastmile_qr_scan", "ios": "https://dc.lft.to/lastmile_qr_scan"}, "fusion_lat": 0.0, "name": "1db5551e0a9ffc6b27247339c4af2a7b", "bike_id": "1db5551e0a9ffc6b27247339c4af2a7b"}, {"is_disabled": 0, "is_reserved": 0, "type": "electric_scooter", "lon": -77.04892633333333, "fusion_lon": 0.0, "lat": 38.89246966666666, "rental_uris": {"android": "https://dc.lft.to/lastmile_qr_scan", "ios": "https://dc.lft.to/lastmile_qr_scan"}, "fusion_lat": 0.0, "name": "ef8a1b0cec1ab3021275b53ec55baa6a", "bike_id": "ef8a1b0cec1ab3021275b53ec55baa6a"}, {"is_disabled": 0, "is_reserved": 0, "type": "electric_bike", "lon": -77.0022565, "fusion_lon": 0.0, "lat": 38.9574805, "rental_uris": {"android": "https://dc.lft.to/lastmile_qr_scan", "ios": "https://dc.lft.to/lastmile_qr_scan"}, "fusion_lat": 0.0, "name": "d2e56d4c4732ac10a2d3cc48dc938f2f", "bike_id": "d2e56d4c4732ac10a2d3cc48dc938f2f"}, {"is_disabled": 0, "is_reserved": 0, "type": "electric_scooter", "lon": -77.04675233333333, "fusion_lon": 0.0, "lat": 38.906726666666664, "rental_uris": {"android": "https://dc.lft.to/lastmile_qr_scan", "ios": "https://dc.lft.to/lastmile_qr_scan"}, "fusion_lat": 0.0, "name": "33147c97fdc03a684f38b466d3390d9a", "bike_id": "33147c97fdc03a684f38b466d3390d9a"}, {"is_disabled": 0, "is_reserved": 0, "type": "electric_scooter", "lon": -77.03192833333334, "fusion_lon": 0.0, "lat": 38.90249683333333, "rental_uris": {"android": "https://dc.lft.to/lastmile_qr_scan", "ios": "https://dc.lft.to/lastmile_qr_scan"}, "fusion_lat": 0.0, "name": "bdf998f77c16b17f2f861945b31230fa", "bike_id": "bdf998f77c16b17f2f861945b31230fa"}, {"is_disabled": 0, "is_reserved": 0, "type": "electric_scooter", "lon": -77.02590766666667, "fusion_lon": 0.0, "lat": 38.903569166666664, "rental_uris": {"android": "https://dc.lft.to/lastmile_qr_scan", "ios": "https://dc.lft.to/lastmile_qr_scan"}, "fusion_lat": 0.0, "name": "4d0b06b5c516f48b9acd008040f5b897", "bike_id": "4d0b06b5c516f48b9acd008040f5b897"}, {"is_disabled": 0, "is_reserved": 0, "type": "electric_scooter", "lon": -77.03970983333333, "fusion_lon": 0.0, "lat": 38.902596833333334, "rental_uris": {"android": "https://dc.lft.to/lastmile_qr_scan", "ios": "https://dc.lft.to/lastmile_qr_scan"}, "fusion_lat": 0.0, "name": "e1a66075500e36cd9f42f7e8bfabd9d4", "bike_id": "e1a66075500e36cd9f42f7e8bfabd9d4"}, {"is_disabled": 0, "is_reserved": 0, "type": "electric_scooter", "lon": -77.03210383333334, "fusion_lon": 0.0, "lat": 38.9205795, "rental_uris": {"android": "https://dc.lft.to/lastmile_qr_scan", "ios": "https://dc.lft.to/lastmile_qr_scan"}, "fusion_lat": 0.0, "name": "760fc56ff05a8d5999908aba0a842e33", "bike_id": "760fc56ff05a8d5999908aba0a842e33"}, {"is_disabled": 0, "is_reserved": 0, "type": "electric_scooter", "lon": -76.93189483333333, "fusion_lon": 0.0, "lat": 38.8987815, "rental_uris": {"android": "https://dc.lft.to/lastmile_qr_scan", "ios": "https://dc.lft.to/lastmile_qr_scan"}, "fusion_lat": 0.0, "name": "64286a607737cec837c518ac24ef40a1", "bike_id": "64286a607737cec837c518ac24ef40a1"}, {"is_disabled": 0, "is_reserved": 0, "type": "electric_scooter", "lon": -77.0551905, "fusion_lon": 0.0, "lat": 38.944144333333334, "rental_uris": {"android": "https://dc.lft.to/lastmile_qr_scan", "ios": "https://dc.lft.to/lastmile_qr_scan"}, "fusion_lat": 0.0, "name": "1186fac639a533e421dcc2fc163a256a", "bike_id": "1186fac639a533e421dcc2fc163a256a"}, {"is_disabled": 0, "is_reserved": 0, "type": "electric_scooter", "lon": -76.989284, "fusion_lon": 0.0, "lat": 38.9022175, "rental_uris": {"android": "https://dc.lft.to/lastmile_qr_scan", "ios": "https://dc.lft.to/lastmile_qr_scan"}, "fusion_lat": 0.0, "name": "d17923713fe12da7c91dfe5ad1d71fe0", "bike_id": "d17923713fe12da7c91dfe5ad1d71fe0"}, {"is_disabled": 0, "is_reserved": 0, "type": "electric_scooter", "lon": -77.04185216666667, "fusion_lon": 0.0, "lat": 38.905268666666665, "rental_uris": {"android": "https://dc.lft.to/lastmile_qr_scan", "ios": "https://dc.lft.to/lastmile_qr_scan"}, "fusion_lat": 0.0, "name": "7956ef35af62e16cdb1dd71cd984451c", "bike_id": "7956ef35af62e16cdb1dd71cd984451c"}, {"is_disabled": 0, "is_reserved": 0, "type": "electric_scooter", "lon": -77.04381233333334, "fusion_lon": 0.0, "lat": 38.910520166666664, "rental_uris": {"android": "https://dc.lft.to/lastmile_qr_scan", "ios": "https://dc.lft.to/lastmile_qr_scan"}, "fusion_lat": 0.0, "name": "6c2a7496f0b7cc99f0004d00d1819435", "bike_id": "6c2a7496f0b7cc99f0004d00d1819435"}, {"is_disabled": 0, "is_reserved": 0, "type": "electric_scooter", "lon": -77.05735583333333, "fusion_lon": 0.0, "lat": 38.933683333333335, "rental_uris": {"android": "https://dc.lft.to/lastmile_qr_scan", "ios": "https://dc.lft.to/lastmile_qr_scan"}, "fusion_lat": 0.0, "name": "ffb7304f8df98fca51d720c125ef0751", "bike_id": "ffb7304f8df98fca51d720c125ef0751"}, {"is_disabled": 0, "is_reserved": 0, "type": "electric_bike", "lon": -77.03207433333333, "fusion_lon": 0.0, "lat": 38.924885, "rental_uris": {"android": "https://dc.lft.to/lastmile_qr_scan", "ios": "https://dc.lft.to/lastmile_qr_scan"}, "fusion_lat": 0.0, "name": "213144889076c4c7f8c6322636798fbb", "bike_id": "213144889076c4c7f8c6322636798fbb"}, {"is_disabled": 0, "is_reserved": 0, "type": "electric_scooter", "lon": -77.03702683333333, "fusion_lon": 0.0, "lat": 38.9264285, "rental_uris": {"android": "https://dc.lft.to/lastmile_qr_scan", "ios": "https://dc.lft.to/lastmile_qr_scan"}, "fusion_lat": 0.0, "name": "074ecc01c0d5a0c720e6ab7137328d98", "bike_id": "074ecc01c0d5a0c720e6ab7137328d98"}, {"is_disabled": 0, "is_reserved": 0, "type": "electric_scooter", "lon": -77.044101, "fusion_lon": 0.0, "lat": 38.9005725, "rental_uris": {"android": "https://dc.lft.to/lastmile_qr_scan", "ios": "https://dc.lft.to/lastmile_qr_scan"}, "fusion_lat": 0.0, "name": "ca91f5026dd24d582839e7126d1a9687", "bike_id": "ca91f5026dd24d582839e7126d1a9687"}, {"is_disabled": 0, "is_reserved": 0, "type": "electric_scooter", "lon": -77.02257566666667, "fusion_lon": 0.0, "lat": 38.9230655, "rental_uris": {"android": "https://dc.lft.to/lastmile_qr_scan", "ios": "https://dc.lft.to/lastmile_qr_scan"}, "fusion_lat": 0.0, "name": "8f0a46fd363c976978e5274fa951253c", "bike_id": "8f0a46fd363c976978e5274fa951253c"}, {"is_disabled": 0, "is_reserved": 0, "type": "electric_scooter", "lon": -77.03154516666666, "fusion_lon": 0.0, "lat": 38.88747683333333, "rental_uris": {"android": "https://dc.lft.to/lastmile_qr_scan", "ios": "https://dc.lft.to/lastmile_qr_scan"}, "fusion_lat": 0.0, "name": "d48fbcb091a9380fe6e4eb373fb674c8", "bike_id": "d48fbcb091a9380fe6e4eb373fb674c8"}, {"is_disabled": 0, "is_reserved": 0, "type": "electric_scooter", "lon": -77.04166916666667, "fusion_lon": 0.0, "lat": 38.908694, "rental_uris": {"android": "https://dc.lft.to/lastmile_qr_scan", "ios": "https://dc.lft.to/lastmile_qr_scan"}, "fusion_lat": 0.0, "name": "9910a2aff51ec94c0ebebe3d06416f74", "bike_id": "9910a2aff51ec94c0ebebe3d06416f74"}, {"is_disabled": 0, "is_reserved": 0, "type": "electric_scooter", "lon": -77.03627666666667, "fusion_lon": 0.0, "lat": 38.936853666666664, "rental_uris": {"android": "https://dc.lft.to/lastmile_qr_scan", "ios": "https://dc.lft.to/lastmile_qr_scan"}, "fusion_lat": 0.0, "name": "255ce33e717615cb3061140b9d552083", "bike_id": "255ce33e717615cb3061140b9d552083"}, {"is_disabled": 0, "is_reserved": 0, "type": "electric_scooter", "lon": -77.04026766666667, "fusion_lon": 0.0, "lat": 38.91795283333333, "rental_uris": {"android": "https://dc.lft.to/lastmile_qr_scan", "ios": "https://dc.lft.to/lastmile_qr_scan"}, "fusion_lat": 0.0, "name": "c3ec4d7785c4e191d1826f983fc317b6", "bike_id": "c3ec4d7785c4e191d1826f983fc317b6"}, {"is_disabled": 0, "is_reserved": 0, "type": "electric_scooter", "lon": -77.04625366666667, "fusion_lon": 0.0, "lat": 38.923217, "rental_uris": {"android": "https://dc.lft.to/lastmile_qr_scan", "ios": "https://dc.lft.to/lastmile_qr_scan"}, "fusion_lat": 0.0, "name": "d6809520589dc7b24365546b136d485f", "bike_id": "d6809520589dc7b24365546b136d485f"}, {"is_disabled": 0, "is_reserved": 0, "type": "electric_scooter", "lon": -76.99062216666667, "fusion_lon": 0.0, "lat": 38.8440925, "rental_uris": {"android": "https://dc.lft.to/lastmile_qr_scan", "ios": "https://dc.lft.to/lastmile_qr_scan"}, "fusion_lat": 0.0, "name": "801064688983bc768cc841661bd3eb5c", "bike_id": "801064688983bc768cc841661bd3eb5c"}, {"is_disabled": 0, "is_reserved": 0, "type": "electric_scooter", "lon": -77.03470983333334, "fusion_lon": 0.0, "lat": 38.902545833333335, "rental_uris": {"android": "https://dc.lft.to/lastmile_qr_scan", "ios": "https://dc.lft.to/lastmile_qr_scan"}, "fusion_lat": 0.0, "name": "f44af871e60b6a4f3e4d541423e2190b", "bike_id": "f44af871e60b6a4f3e4d541423e2190b"}, {"is_disabled": 0, "is_reserved": 0, "type": "electric_scooter", "lon": -77.0426405, "fusion_lon": 0.0, "lat": 38.9103745, "rental_uris": {"android": "https://dc.lft.to/lastmile_qr_scan", "ios": "https://dc.lft.to/lastmile_qr_scan"}, "fusion_lat": 0.0, "name": "ebf4d3a56cf07e321dee5945f4bf8525", "bike_id": "ebf4d3a56cf07e321dee5945f4bf8525"}, {"is_disabled": 0, "is_reserved": 0, "type": "electric_scooter", "lon": -76.9412235, "fusion_lon": 0.0, "lat": 38.884486, "rental_uris": {"android": "https://dc.lft.to/lastmile_qr_scan", "ios": "https://dc.lft.to/lastmile_qr_scan"}, "fusion_lat": 0.0, "name": "865342a2e7f8083dac83308d03fd1008", "bike_id": "865342a2e7f8083dac83308d03fd1008"}, {"is_disabled": 0, "is_reserved": 0, "type": "electric_scooter", "lon": -77.038574, "fusion_lon": 0.0, "lat": 38.9038005, "rental_uris": {"android": "https://dc.lft.to/lastmile_qr_scan", "ios": "https://dc.lft.to/lastmile_qr_scan"}, "fusion_lat": 0.0, "name": "49dd6c7277f5f154e413a9b6289cc40b", "bike_id": "49dd6c7277f5f154e413a9b6289cc40b"}, {"is_disabled": 0, "is_reserved": 0, "type": "electric_scooter", "lon": -77.02997666666667, "fusion_lon": 0.0, "lat": 38.93238633333333, "rental_uris": {"android": "https://dc.lft.to/lastmile_qr_scan", "ios": "https://dc.lft.to/lastmile_qr_scan"}, "fusion_lat": 0.0, "name": "496ecec704399b7e714d4b92c30e34af", "bike_id": "496ecec704399b7e714d4b92c30e34af"}, {"is_disabled": 0, "is_reserved": 0, "type": "electric_scooter", "lon": -77.02390016666666, "fusion_lon": 0.0, "lat": 38.95739233333333, "rental_uris": {"android": "https://dc.lft.to/lastmile_qr_scan", "ios": "https://dc.lft.to/lastmile_qr_scan"}, "fusion_lat": 0.0, "name": "d66371d62454a6d1e6cf2fc27360cfda", "bike_id": "d66371d62454a6d1e6cf2fc27360cfda"}, {"is_disabled": 0, "is_reserved": 0, "type": "electric_scooter", "lon": -77.04693383333333, "fusion_lon": 0.0, "lat": 38.89730566666667, "rental_uris": {"android": "https://dc.lft.to/lastmile_qr_scan", "ios": "https://dc.lft.to/lastmile_qr_scan"}, "fusion_lat": 0.0, "name": "a7602ef6be5faa5471bad9eec6a9987b", "bike_id": "a7602ef6be5faa5471bad9eec6a9987b"}, {"is_disabled": 0, "is_reserved": 0, "type": "electric_scooter", "lon": -77.0389475, "fusion_lon": 0.0, "lat": 38.924983166666664, "rental_uris": {"android": "https://dc.lft.to/lastmile_qr_scan", "ios": "https://dc.lft.to/lastmile_qr_scan"}, "fusion_lat": 0.0, "name": "f12f8d9f98167fb9f97c17ec484bd72b", "bike_id": "f12f8d9f98167fb9f97c17ec484bd72b"}, {"is_disabled": 0, "is_reserved": 0, "type": "electric_bike", "lon": -76.98831383333334, "fusion_lon": 0.0, "lat": 38.985623833333335, "rental_uris": {"android": "https://dc.lft.to/lastmile_qr_scan", "ios": "https://dc.lft.to/lastmile_qr_scan"}, "fusion_lat": 0.0, "name": "6d550ecabef8e08dbb33c6f56a42bc8d", "bike_id": "6d550ecabef8e08dbb33c6f56a42bc8d"}, {"is_disabled": 0, "is_reserved": 0, "type": "electric_scooter", "lon": -76.99032033333333, "fusion_lon": 0.0, "lat": 38.89852466666667, "rental_uris": {"android": "https://dc.lft.to/lastmile_qr_scan", "ios": "https://dc.lft.to/lastmile_qr_scan"}, "fusion_lat": 0.0, "name": "59e899927fc2ae776c13fdfa5ac3ff77", "bike_id": "59e899927fc2ae776c13fdfa5ac3ff77"}, {"is_disabled": 0, "is_reserved": 0, "type": "electric_scooter", "lon": -77.02628116666666, "fusion_lon": 0.0, "lat": 38.97946116666667, "rental_uris": {"android": "https://dc.lft.to/lastmile_qr_scan", "ios": "https://dc.lft.to/lastmile_qr_scan"}, "fusion_lat": 0.0, "name": "880b6836626c2f7da8de5cb216e73571", "bike_id": "880b6836626c2f7da8de5cb216e73571"}, {"is_disabled": 0, "is_reserved": 0, "type": "electric_scooter", "lon": -77.05092616666667, "fusion_lon": 0.0, "lat": 38.90538133333333, "rental_uris": {"android": "https://dc.lft.to/lastmile_qr_scan", "ios": "https://dc.lft.to/lastmile_qr_scan"}, "fusion_lat": 0.0, "name": "e8301fccb96a4462f9c87ba7a528336c", "bike_id": "e8301fccb96a4462f9c87ba7a528336c"}, {"is_disabled": 0, "is_reserved": 0, "type": "electric_scooter", "lon": -77.02743333333333, "fusion_lon": 0.0, "lat": 38.9430505, "rental_uris": {"android": "https://dc.lft.to/lastmile_qr_scan", "ios": "https://dc.lft.to/lastmile_qr_scan"}, "fusion_lat": 0.0, "name": "f1aa78b73e31fec5fa5966d2afa941da", "bike_id": "f1aa78b73e31fec5fa5966d2afa941da"}, {"is_disabled": 0, "is_reserved": 0, "type": "electric_scooter", "lon": -77.0265265, "fusion_lon": 0.0, "lat": 38.93268616666667, "rental_uris": {"android": "https://dc.lft.to/lastmile_qr_scan", "ios": "https://dc.lft.to/lastmile_qr_scan"}, "fusion_lat": 0.0, "name": "edc68fa09aab782eb53caa6a947ffc45", "bike_id": "edc68fa09aab782eb53caa6a947ffc45"}, {"is_disabled": 0, "is_reserved": 0, "type": "electric_scooter", "lon": -77.03366566666666, "fusion_lon": 0.0, "lat": 38.90221583333334, "rental_uris": {"android": "https://dc.lft.to/lastmile_qr_scan", "ios": "https://dc.lft.to/lastmile_qr_scan"}, "fusion_lat": 0.0, "name": "8d063553fc2129afc688315fc72f2056", "bike_id": "8d063553fc2129afc688315fc72f2056"}, {"is_disabled": 0, "is_reserved": 0, "type": "electric_scooter", "lon": -77.03522766666667, "fusion_lon": 0.0, "lat": 38.92150266666667, "rental_uris": {"android": "https://dc.lft.to/lastmile_qr_scan", "ios": "https://dc.lft.to/lastmile_qr_scan"}, "fusion_lat": 0.0, "name": "fb57e968b2eaee2a89a4cc634677fa78", "bike_id": "fb57e968b2eaee2a89a4cc634677fa78"}, {"is_disabled": 0, "is_reserved": 0, "type": "electric_scooter", "lon": -77.02935266666667, "fusion_lon": 0.0, "lat": 38.9141385, "rental_uris": {"android": "https://dc.lft.to/lastmile_qr_scan", "ios": "https://dc.lft.to/lastmile_qr_scan"}, "fusion_lat": 0.0, "name": "a9dd26ed551431f63a2f49b6c1d6c6d9", "bike_id": "a9dd26ed551431f63a2f49b6c1d6c6d9"}, {"is_disabled": 0, "is_reserved": 0, "type": "electric_scooter", "lon": -77.035078, "fusion_lon": 0.0, "lat": 38.923467, "rental_uris": {"android": "https://dc.lft.to/lastmile_qr_scan", "ios": "https://dc.lft.to/lastmile_qr_scan"}, "fusion_lat": 0.0, "name": "df6ef1d1b784b816e96ae2329e349da6", "bike_id": "df6ef1d1b784b816e96ae2329e349da6"}, {"is_disabled": 0, "is_reserved": 0, "type": "electric_scooter", "lon": -77.04336666666667, "fusion_lon": 0.0, "lat": 38.8922835, "rental_uris": {"android": "https://dc.lft.to/lastmile_qr_scan", "ios": "https://dc.lft.to/lastmile_qr_scan"}, "fusion_lat": 0.0, "name": "908968865ca901a38ae46be4d2b91fe8", "bike_id": "908968865ca901a38ae46be4d2b91fe8"}, {"is_disabled": 0, "is_reserved": 0, "type": "electric_bike", "lon": -77.10032183333334, "fusion_lon": 0.0, "lat": 38.990620166666666, "rental_uris": {"android": "https://dc.lft.to/lastmile_qr_scan", "ios": "https://dc.lft.to/lastmile_qr_scan"}, "fusion_lat": 0.0, "name": "6ee0f3a33f2aaefec73dab00b54074ac", "bike_id": "6ee0f3a33f2aaefec73dab00b54074ac"}, {"is_disabled": 0, "is_reserved": 0, "type": "electric_scooter", "lon": -77.01407616666667, "fusion_lon": 0.0, "lat": 38.928666, "rental_uris": {"android": "https://dc.lft.to/lastmile_qr_scan", "ios": "https://dc.lft.to/lastmile_qr_scan"}, "fusion_lat": 0.0, "name": "693eb4c09715ec3e08850c3584ec0162", "bike_id": "693eb4c09715ec3e08850c3584ec0162"}, {"is_disabled": 0, "is_reserved": 0, "type": "electric_scooter", "lon": -77.02154933333334, "fusion_lon": 0.0, "lat": 38.92603916666667, "rental_uris": {"android": "https://dc.lft.to/lastmile_qr_scan", "ios": "https://dc.lft.to/lastmile_qr_scan"}, "fusion_lat": 0.0, "name": "32782fba7961f1f2819aa1a732ca190d", "bike_id": "32782fba7961f1f2819aa1a732ca190d"}, {"is_disabled": 0, "is_reserved": 0, "type": "electric_scooter", "lon": -77.00579916666666, "fusion_lon": 0.0, "lat": 38.875132666666666, "rental_uris": {"android": "https://dc.lft.to/lastmile_qr_scan", "ios": "https://dc.lft.to/lastmile_qr_scan"}, "fusion_lat": 0.0, "name": "03aa43fc510132f803a3d6e950018e2a", "bike_id": "03aa43fc510132f803a3d6e950018e2a"}, {"is_disabled": 0, "is_reserved": 0, "type": "electric_scooter", "lon": -77.03348233333334, "fusion_lon": 0.0, "lat": 38.967972333333336, "rental_uris": {"android": "https://dc.lft.to/lastmile_qr_scan", "ios": "https://dc.lft.to/lastmile_qr_scan"}, "fusion_lat": 0.0, "name": "61c0031412d4dfe5653781edebdf7197", "bike_id": "61c0031412d4dfe5653781edebdf7197"}, {"is_disabled": 0, "is_reserved": 0, "type": "electric_bike", "lon": -76.87493916666666, "fusion_lon": 0.0, "lat": 38.99090833333333, "rental_uris": {"android": "https://dc.lft.to/lastmile_qr_scan", "ios": "https://dc.lft.to/lastmile_qr_scan"}, "fusion_lat": 0.0, "name": "71702f581bbc9cbe2f840e622a6488d3", "bike_id": "71702f581bbc9cbe2f840e622a6488d3"}, {"is_disabled": 0, "is_reserved": 0, "type": "electric_scooter", "lon": -77.01791016666667, "fusion_lon": 0.0, "lat": 38.941159, "rental_uris": {"android": "https://dc.lft.to/lastmile_qr_scan", "ios": "https://dc.lft.to/lastmile_qr_scan"}, "fusion_lat": 0.0, "name": "2164a05e7b8019fd92a1c8c7a1dffd70", "bike_id": "2164a05e7b8019fd92a1c8c7a1dffd70"}, {"is_disabled": 0, "is_reserved": 0, "type": "electric_bike", "lon": -77.04898083333333, "fusion_lon": 0.0, "lat": 38.87490483333333, "rental_uris": {"android": "https://dc.lft.to/lastmile_qr_scan", "ios": "https://dc.lft.to/lastmile_qr_scan"}, "fusion_lat": 0.0, "name": "0f2b96c91fb27794cf1c160613895619", "bike_id": "0f2b96c91fb27794cf1c160613895619"}, {"is_disabled": 0, "is_reserved": 0, "type": "electric_scooter", "lon": -77.0282315, "fusion_lon": 0.0, "lat": 38.885798666666666, "rental_uris": {"android": "https://dc.lft.to/lastmile_qr_scan", "ios": "https://dc.lft.to/lastmile_qr_scan"}, "fusion_lat": 0.0, "name": "e28318eb43e92267b04d0b01827b2552", "bike_id": "e28318eb43e92267b04d0b01827b2552"}, {"is_disabled": 0, "is_reserved": 0, "type": "electric_scooter", "lon": -77.038287, "fusion_lon": 0.0, "lat": 38.9148455, "rental_uris": {"android": "https://dc.lft.to/lastmile_qr_scan", "ios": "https://dc.lft.to/lastmile_qr_scan"}, "fusion_lat": 0.0, "name": "da850797aece91214d4e241ae73949fa", "bike_id": "da850797aece91214d4e241ae73949fa"}, {"is_disabled": 0, "is_reserved": 0, "type": "electric_scooter", "lon": -77.028019, "fusion_lon": 0.0, "lat": 38.911009166666666, "rental_uris": {"android": "https://dc.lft.to/lastmile_qr_scan", "ios": "https://dc.lft.to/lastmile_qr_scan"}, "fusion_lat": 0.0, "name": "2dde4b18d806234e0b9768af2951b73e", "bike_id": "2dde4b18d806234e0b9768af2951b73e"}, {"is_disabled": 0, "is_reserved": 0, "type": "electric_scooter", "lon": -77.003363, "fusion_lon": 0.0, "lat": 38.90720533333333, "rental_uris": {"android": "https://dc.lft.to/lastmile_qr_scan", "ios": "https://dc.lft.to/lastmile_qr_scan"}, "fusion_lat": 0.0, "name": "bf6448fabaa8e7be77595c39bef35457", "bike_id": "bf6448fabaa8e7be77595c39bef35457"}, {"is_disabled": 0, "is_reserved": 0, "type": "electric_scooter", "lon": -77.0361685, "fusion_lon": 0.0, "lat": 38.904778, "rental_uris": {"android": "https://dc.lft.to/lastmile_qr_scan", "ios": "https://dc.lft.to/lastmile_qr_scan"}, "fusion_lat": 0.0, "name": "253666504331acb5b44bb12aa60f5ffd", "bike_id": "253666504331acb5b44bb12aa60f5ffd"}, {"is_disabled": 0, "is_reserved": 0, "type": "electric_scooter", "lon": -77.0499795, "fusion_lon": 0.0, "lat": 38.90148933333333, "rental_uris": {"android": "https://dc.lft.to/lastmile_qr_scan", "ios": "https://dc.lft.to/lastmile_qr_scan"}, "fusion_lat": 0.0, "name": "8ad6e1aa0f86a31283b22bd491cb57b6", "bike_id": "8ad6e1aa0f86a31283b22bd491cb57b6"}, {"is_disabled": 0, "is_reserved": 0, "type": "electric_scooter", "lon": -76.93359366666667, "fusion_lon": 0.0, "lat": 38.88796583333333, "rental_uris": {"android": "https://dc.lft.to/lastmile_qr_scan", "ios": "https://dc.lft.to/lastmile_qr_scan"}, "fusion_lat": 0.0, "name": "52882f58d4992b027cd942a19d9b8c3c", "bike_id": "52882f58d4992b027cd942a19d9b8c3c"}, {"is_disabled": 0, "is_reserved": 0, "type": "electric_scooter", "lon": -77.050044, "fusion_lon": 0.0, "lat": 38.91572333333333, "rental_uris": {"android": "https://dc.lft.to/lastmile_qr_scan", "ios": "https://dc.lft.to/lastmile_qr_scan"}, "fusion_lat": 0.0, "name": "036a7e8ae823a5ce525a93542a45d205", "bike_id": "036a7e8ae823a5ce525a93542a45d205"}, {"is_disabled": 0, "is_reserved": 0, "type": "electric_scooter", "lon": -77.0405605, "fusion_lon": 0.0, "lat": 38.9087775, "rental_uris": {"android": "https://dc.lft.to/lastmile_qr_scan", "ios": "https://dc.lft.to/lastmile_qr_scan"}, "fusion_lat": 0.0, "name": "b773e6cef26c9cf019becd962c8b0e87", "bike_id": "b773e6cef26c9cf019becd962c8b0e87"}, {"is_disabled": 0, "is_reserved": 0, "type": "electric_scooter", "lon": -77.01784616666667, "fusion_lon": 0.0, "lat": 38.9009125, "rental_uris": {"android": "https://dc.lft.to/lastmile_qr_scan", "ios": "https://dc.lft.to/lastmile_qr_scan"}, "fusion_lat": 0.0, "name": "99abe1e14b0817446ca54d102442cb89", "bike_id": "99abe1e14b0817446ca54d102442cb89"}, {"is_disabled": 0, "is_reserved": 0, "type": "electric_scooter", "lon": -77.02659016666667, "fusion_lon": 0.0, "lat": 38.8922185, "rental_uris": {"android": "https://dc.lft.to/lastmile_qr_scan", "ios": "https://dc.lft.to/lastmile_qr_scan"}, "fusion_lat": 0.0, "name": "8b4769bc8417f6024c6fc9921bf14ff0", "bike_id": "8b4769bc8417f6024c6fc9921bf14ff0"}, {"is_disabled": 0, "is_reserved": 0, "type": "electric_scooter", "lon": -77.00537566666667, "fusion_lon": 0.0, "lat": 38.87470233333333, "rental_uris": {"android": "https://dc.lft.to/lastmile_qr_scan", "ios": "https://dc.lft.to/lastmile_qr_scan"}, "fusion_lat": 0.0, "name": "6e59e36916ddb3c99da55134d0418b02", "bike_id": "6e59e36916ddb3c99da55134d0418b02"}, {"is_disabled": 0, "is_reserved": 0, "type": "electric_scooter", "lon": -77.03152566666667, "fusion_lon": 0.0, "lat": 38.92811116666667, "rental_uris": {"android": "https://dc.lft.to/lastmile_qr_scan", "ios": "https://dc.lft.to/lastmile_qr_scan"}, "fusion_lat": 0.0, "name": "0f3b020fe739ee2904c80873ce43c22a", "bike_id": "0f3b020fe739ee2904c80873ce43c22a"}, {"is_disabled": 0, "is_reserved": 0, "type": "electric_scooter", "lon": -77.0436035, "fusion_lon": 0.0, "lat": 38.90427833333333, "rental_uris": {"android": "https://dc.lft.to/lastmile_qr_scan", "ios": "https://dc.lft.to/lastmile_qr_scan"}, "fusion_lat": 0.0, "name": "9c9b2c96d82b9cd369e13873423e6ece", "bike_id": "9c9b2c96d82b9cd369e13873423e6ece"}, {"is_disabled": 0, "is_reserved": 0, "type": "electric_scooter", "lon": -77.02163866666666, "fusion_lon": 0.0, "lat": 38.92610083333334, "rental_uris": {"android": "https://dc.lft.to/lastmile_qr_scan", "ios": "https://dc.lft.to/lastmile_qr_scan"}, "fusion_lat": 0.0, "name": "e8e308ff576bed28814bae045c9193b0", "bike_id": "e8e308ff576bed28814bae045c9193b0"}, {"is_disabled": 0, "is_reserved": 0, "type": "electric_scooter", "lon": -77.011927, "fusion_lon": 0.0, "lat": 38.895256, "rental_uris": {"android": "https://dc.lft.to/lastmile_qr_scan", "ios": "https://dc.lft.to/lastmile_qr_scan"}, "fusion_lat": 0.0, "name": "5a89ecf2d85cdaa04a7dc73a2bdc6d88", "bike_id": "5a89ecf2d85cdaa04a7dc73a2bdc6d88"}, {"is_disabled": 0, "is_reserved": 0, "type": "electric_scooter", "lon": -77.03632716666667, "fusion_lon": 0.0, "lat": 38.930491833333335, "rental_uris": {"android": "https://dc.lft.to/lastmile_qr_scan", "ios": "https://dc.lft.to/lastmile_qr_scan"}, "fusion_lat": 0.0, "name": "80210c84fecdd8b2d065ff1053838ef9", "bike_id": "80210c84fecdd8b2d065ff1053838ef9"}, {"is_disabled": 0, "is_reserved": 0, "type": "electric_scooter", "lon": -76.99633316666667, "fusion_lon": 0.0, "lat": 38.846234833333334, "rental_uris": {"android": "https://dc.lft.to/lastmile_qr_scan", "ios": "https://dc.lft.to/lastmile_qr_scan"}, "fusion_lat": 0.0, "name": "b719fe57c6d3b9562264dc8649b576d5", "bike_id": "b719fe57c6d3b9562264dc8649b576d5"}, {"is_disabled": 0, "is_reserved": 0, "type": "electric_bike", "lon": -76.9875605, "fusion_lon": 0.0, "lat": 38.988233, "rental_uris": {"android": "https://dc.lft.to/lastmile_qr_scan", "ios": "https://dc.lft.to/lastmile_qr_scan"}, "fusion_lat": 0.0, "name": "13c6aa9fe8c17591cd0b6326760c6b4f", "bike_id": "13c6aa9fe8c17591cd0b6326760c6b4f"}, {"is_disabled": 0, "is_reserved": 0, "type": "electric_scooter", "lon": -77.01760366666667, "fusion_lon": 0.0, "lat": 38.87688883333333, "rental_uris": {"android": "https://dc.lft.to/lastmile_qr_scan", "ios": "https://dc.lft.to/lastmile_qr_scan"},