{"data": {"bikes": [{"bike_id": "fb23c5d6fc1f80597acfcc6fa926b5d6", "is_reserved": 0, "fusion_lon": 0.0, "lat": 38.92075116666667, "is_disabled": 0, "name": "fb23c5d6fc1f80597acfcc6fa926b5d6", "fusion_lat": 0.0, "rental_uris": {"ios": "https://dc.lft.to/lastmile_qr_scan", "android": "https://dc.lft.to/lastmile_qr_scan"}, "lon": -77.02426283333334, "type": "electric_scooter"}, {"bike_id": "84fbb0f66141eb7b6fe60b67b4f587ec", "is_reserved": 0, "fusion_lon": 0.0, "lat": 38.905116666666665, "is_disabled": 0, "name": "84fbb0f66141eb7b6fe60b67b4f587ec", "fusion_lat": 0.0, "rental_uris": {"ios": "https://dc.lft.to/lastmile_qr_scan", "android": "https://dc.lft.to/lastmile_qr_scan"}, "lon": -77.0638615, "type": "electric_bike"}, {"bike_id": "591fb9b09c251925be16f6df83e7bbf2", "is_reserved": 0, "fusion_lon": 0.0, "lat": 38.905016833333335, "is_disabled": 0, "name": "591fb9b09c251925be16f6df83e7bbf2", "fusion_lat": 0.0, "rental_uris": {"ios": "https://dc.lft.to/lastmile_qr_scan", "android": "https://dc.lft.to/lastmile_qr_scan"}, "lon": -76.99013416666666, "type": "electric_scooter"}, {"bike_id": "9784ef31773bfd4b2e9fd03c53d18539", "is_reserved": 0, "fusion_lon": 0.0, "lat": 38.885056666666664, "is_disabled": 0, "name": "9784ef31773bfd4b2e9fd03c53d18539", "fusion_lat": 0.0, "rental_uris": {"ios": "https://dc.lft.to/lastmile_qr_scan", "android": "https://dc.lft.to/lastmile_qr_scan"}, "lon": -77.005674, "type": "electric_scooter"}, {"bike_id": "8cb941eec8dbeb2399b7d7931b6436ce", "is_reserved": 0, "fusion_lon": 0.0, "lat": 38.92132083333333, "is_disabled": 0, "name": "8cb941eec8dbeb2399b7d7931b6436ce", "fusion_lat": 0.0, "rental_uris": {"ios": "https://dc.lft.to/lastmile_qr_scan", "android": "https://dc.lft.to/lastmile_qr_scan"}, "lon": -77.01095116666667, "type": "electric_bike"}, {"bike_id": "a3b9d3eacd46285d92243e00482a32b2", "is_reserved": 0, "fusion_lon": 0.0, "lat": 38.917148, "is_disabled": 0, "name": "a3b9d3eacd46285d92243e00482a32b2", "fusion_lat": 0.0, "rental_uris": {"ios": "https://dc.lft.to/lastmile_qr_scan", "android": "https://dc.lft.to/lastmile_qr_scan"}, "lon": -77.0121, "type": "electric_scooter"}, {"bike_id": "11c08dbca2e5af128e5f4875c89d5701", "is_reserved": 0, "fusion_lon": 0.0, "lat": 38.91359, "is_disabled": 0, "name": "11c08dbca2e5af128e5f4875c89d5701", "fusion_lat": 0.0, "rental_uris": {"ios": "https://dc.lft.to/lastmile_qr_scan", "android": "https://dc.lft.to/lastmile_qr_scan"}, "lon": -77.017548, "type": "electric_scooter"}, {"bike_id": "098f0831affd3ada4fe56532da58c848", "is_reserved": 0, "fusion_lon": 0.0, "lat": 38.91406816666667, "is_disabled": 0, "name": "098f0831affd3ada4fe56532da58c848", "fusion_lat": 0.0, "rental_uris": {"ios": "https://dc.lft.to/lastmile_qr_scan", "android": "https://dc.lft.to/lastmile_qr_scan"}, "lon": -77.03175433333334, "type": "electric_scooter"}, {"bike_id": "c23704713418003523f177f80efca50e", "is_reserved": 0, "fusion_lon": 0.0, "lat": 38.89223666666667, "is_disabled": 0, "name": "c23704713418003523f177f80efca50e", "fusion_lat": 0.0, "rental_uris": {"ios": "https://dc.lft.to/lastmile_qr_scan", "android": "https://dc.lft.to/lastmile_qr_scan"}, "lon": -77.02624116666667, "type": "electric_scooter"}, {"bike_id": "f3722584b8c066bd533bc06e264232bd", "is_reserved": 0, "fusion_lon": 0.0, "lat": 38.9040435, "is_disabled": 0, "name": "f3722584b8c066bd533bc06e264232bd", "fusion_lat": 0.0, "rental_uris": {"ios": "https://dc.lft.to/lastmile_qr_scan", "android": "https://dc.lft.to/lastmile_qr_scan"}, "lon": -77.03259116666666, "type": "electric_scooter"}, {"bike_id": "770e1401a4d8e4cdae65b34b6fa0723d", "is_reserved": 0, "fusion_lon": 0.0, "lat": 38.91567333333333, "is_disabled": 0, "name": "770e1401a4d8e4cdae65b34b6fa0723d", "fusion_lat": 0.0, "rental_uris": {"ios": "https://dc.lft.to/lastmile_qr_scan", "android": "https://dc.lft.to/lastmile_qr_scan"}, "lon": -77.01255683333333, "type": "electric_scooter"}, {"bike_id": "9293ea48b810ba8058f4a662ad8388b4", "is_reserved": 0, "fusion_lon": 0.0, "lat": 38.88510683333333, "is_disabled": 0, "name": "9293ea48b810ba8058f4a662ad8388b4", "fusion_lat": 0.0, "rental_uris": {"ios": "https://dc.lft.to/lastmile_qr_scan", "android": "https://dc.lft.to/lastmile_qr_scan"}, "lon": -77.005703, "type": "electric_scooter"}, {"bike_id": "0de6203991416cc239df950e71ded541", "is_reserved": 0, "fusion_lon": 0.0, "lat": 38.901195333333334, "is_disabled": 0, "name": "0de6203991416cc239df950e71ded541", "fusion_lat": 0.0, "rental_uris": {"ios": "https://dc.lft.to/lastmile_qr_scan", "android": "https://dc.lft.to/lastmile_qr_scan"}, "lon": -77.03327383333334, "type": "electric_scooter"}, {"bike_id": "16f0f6825b37ca6a6290751405ce8781", "is_reserved": 0, "fusion_lon": 0.0, "lat": 38.924783833333336, "is_disabled": 0, "name": "16f0f6825b37ca6a6290751405ce8781", "fusion_lat": 0.0, "rental_uris": {"ios": "https://dc.lft.to/lastmile_qr_scan", "android": "https://dc.lft.to/lastmile_qr_scan"}, "lon": -77.02643233333333, "type": "electric_scooter"}, {"bike_id": "47fc0a423b1d64bbbb80d168d4a07ad6", "is_reserved": 0, "fusion_lon": 0.0, "lat": 38.91387783333333, "is_disabled": 0, "name": "47fc0a423b1d64bbbb80d168d4a07ad6", "fusion_lat": 0.0, "rental_uris": {"ios": "https://dc.lft.to/lastmile_qr_scan", "android": "https://dc.lft.to/lastmile_qr_scan"}, "lon": -77.01700783333334, "type": "electric_scooter"}, {"bike_id": "b19d2255189685622a0c4027f08ee9ad", "is_reserved": 0, "fusion_lon": 0.0, "lat": 38.92862066666667, "is_disabled": 0, "name": "b19d2255189685622a0c4027f08ee9ad", "fusion_lat": 0.0, "rental_uris": {"ios": "https://dc.lft.to/lastmile_qr_scan", "android": "https://dc.lft.to/lastmile_qr_scan"}, "lon": -77.0139255, "type": "electric_scooter"}, {"bike_id": "5d40b0b07cb87b8ca97dc2dcaecc2816", "is_reserved": 0, "fusion_lon": 0.0, "lat": 38.937147333333336, "is_disabled": 0, "name": "5d40b0b07cb87b8ca97dc2dcaecc2816", "fusion_lat": 0.0, "rental_uris": {"ios": "https://dc.lft.to/lastmile_qr_scan", "android": "https://dc.lft.to/lastmile_qr_scan"}, "lon": -77.029358, "type": "electric_scooter"}, {"bike_id": "238acf0e3e251d2adce5d7c730916bdb", "is_reserved": 0, "fusion_lon": 0.0, "lat": 38.900377666666664, "is_disabled": 0, "name": "238acf0e3e251d2adce5d7c730916bdb", "fusion_lat": 0.0, "rental_uris": {"ios": "https://dc.lft.to/lastmile_qr_scan", "android": "https://dc.lft.to/lastmile_qr_scan"}, "lon": -77.0020585, "type": "electric_scooter"}, {"bike_id": "b91fb381fa969019ef493a932a9e1a10", "is_reserved": 0, "fusion_lon": 0.0, "lat": 38.917080166666665, "is_disabled": 0, "name": "b91fb381fa969019ef493a932a9e1a10", "fusion_lat": 0.0, "rental_uris": {"ios": "https://dc.lft.to/lastmile_qr_scan", "android": "https://dc.lft.to/lastmile_qr_scan"}, "lon": -77.03130666666667, "type": "electric_scooter"}, {"bike_id": "d4ed413fed3db9c4c9a6f2e4af2d525a", "is_reserved": 0, "fusion_lon": 0.0, "lat": 38.8372555, "is_disabled": 0, "name": "d4ed413fed3db9c4c9a6f2e4af2d525a", "fusion_lat": 0.0, "rental_uris": {"ios": "https://dc.lft.to/lastmile_qr_scan", "android": "https://dc.lft.to/lastmile_qr_scan"}, "lon": -76.997594, "type": "electric_bike"}, {"bike_id": "b792ca98eef356edd818249a7fffb9c0", "is_reserved": 0, "fusion_lon": 0.0, "lat": 38.898310333333335, "is_disabled": 0, "name": "b792ca98eef356edd818249a7fffb9c0", "fusion_lat": 0.0, "rental_uris": {"ios": "https://dc.lft.to/lastmile_qr_scan", "android": "https://dc.lft.to/lastmile_qr_scan"}, "lon": -77.00727116666667, "type": "electric_scooter"}, {"bike_id": "61fc955c02aabe74422d99cfa4a4b493", "is_reserved": 0, "fusion_lon": 0.0, "lat": 38.8314615, "is_disabled": 0, "name": "61fc955c02aabe74422d99cfa4a4b493", "fusion_lat": 0.0, "rental_uris": {"ios": "https://dc.lft.to/lastmile_qr_scan", "android": "https://dc.lft.to/lastmile_qr_scan"}, "lon": -77.11307916666667, "type": "electric_bike"}, {"bike_id": "33239a48130e02a58d760bbd6b4e693c", "is_reserved": 0, "fusion_lon": 0.0, "lat": 38.92178783333333, "is_disabled": 0, "name": "33239a48130e02a58d760bbd6b4e693c", "fusion_lat": 0.0, "rental_uris": {"ios": "https://dc.lft.to/lastmile_qr_scan", "android": "https://dc.lft.to/lastmile_qr_scan"}, "lon": -77.0401725, "type": "electric_scooter"}, {"bike_id": "7aa79b1204faa2dc64ef046a5afc23ea", "is_reserved": 0, "fusion_lon": 0.0, "lat": 38.950748833333336, "is_disabled": 0, "name": "7aa79b1204faa2dc64ef046a5afc23ea", "fusion_lat": 0.0, "rental_uris": {"ios": "https://dc.lft.to/lastmile_qr_scan", "android": "https://dc.lft.to/lastmile_qr_scan"}, "lon": -77.0120085, "type": "electric_bike"}, {"bike_id": "a3f8225eb55bb629aa949fe211961af9", "is_reserved": 0, "fusion_lon": 0.0, "lat": 38.9059795, "is_disabled": 0, "name": "a3f8225eb55bb629aa949fe211961af9", "fusion_lat": 0.0, "rental_uris": {"ios": "https://dc.lft.to/lastmile_qr_scan", "android": "https://dc.lft.to/lastmile_qr_scan"}, "lon": -77.05091133333333, "type": "electric_scooter"}, {"bike_id": "6da9748edd8aecfabf77e206e00f7caa", "is_reserved": 0, "fusion_lon": 0.0, "lat": 38.901487333333336, "is_disabled": 0, "name": "6da9748edd8aecfabf77e206e00f7caa", "fusion_lat": 0.0, "rental_uris": {"ios": "https://dc.lft.to/lastmile_qr_scan", "android": "https://dc.lft.to/lastmile_qr_scan"}, "lon": -77.02504333333333, "type": "electric_scooter"}, {"bike_id": "dbdb762b400669c0e8b2d6e1853c27a6", "is_reserved": 0, "fusion_lon": 0.0, "lat": 38.93968116666667, "is_disabled": 0, "name": "dbdb762b400669c0e8b2d6e1853c27a6", "fusion_lat": 0.0, "rental_uris": {"ios": "https://dc.lft.to/lastmile_qr_scan", "android": "https://dc.lft.to/lastmile_qr_scan"}, "lon": -77.03259666666666, "type": "electric_scooter"}, {"bike_id": "fdd2dfe4e6f750bb5410da8d1fd415ea", "is_reserved": 0, "fusion_lon": 0.0, "lat": 38.88610466666667, "is_disabled": 0, "name": "fdd2dfe4e6f750bb5410da8d1fd415ea", "fusion_lat": 0.0, "rental_uris": {"ios": "https://dc.lft.to/lastmile_qr_scan", "android": "https://dc.lft.to/lastmile_qr_scan"}, "lon": -76.9360305, "type": "electric_scooter"}, {"bike_id": "b82bd76476d0bb06f440c46f1367519d", "is_reserved": 0, "fusion_lon": 0.0, "lat": 38.9343175, "is_disabled": 0, "name": "b82bd76476d0bb06f440c46f1367519d", "fusion_lat": 0.0, "rental_uris": {"ios": "https://dc.lft.to/lastmile_qr_scan", "android": "https://dc.lft.to/lastmile_qr_scan"}, "lon": -77.039945, "type": "electric_scooter"}, {"bike_id": "d4b5d6b33f7c66351571d565b0756bf5", "is_reserved": 0, "fusion_lon": 0.0, "lat": 38.904772333333334, "is_disabled": 0, "name": "d4b5d6b33f7c66351571d565b0756bf5", "fusion_lat": 0.0, "rental_uris": {"ios": "https://dc.lft.to/lastmile_qr_scan", "android": "https://dc.lft.to/lastmile_qr_scan"}, "lon": -77.04030633333333, "type": "electric_scooter"}, {"bike_id": "f8c1e67e0f2140c76dc27a83493ff8d6", "is_reserved": 0, "fusion_lon": 0.0, "lat": 38.92857933333333, "is_disabled": 0, "name": "f8c1e67e0f2140c76dc27a83493ff8d6", "fusion_lat": 0.0, "rental_uris": {"ios": "https://dc.lft.to/lastmile_qr_scan", "android": "https://dc.lft.to/lastmile_qr_scan"}, "lon": -77.03597966666666, "type": "electric_scooter"}, {"bike_id": "db2105315a23ec9a75dfa849984f838f", "is_reserved": 0, "fusion_lon": 0.0, "lat": 38.899454, "is_disabled": 0, "name": "db2105315a23ec9a75dfa849984f838f", "fusion_lat": 0.0, "rental_uris": {"ios": "https://dc.lft.to/lastmile_qr_scan", "android": "https://dc.lft.to/lastmile_qr_scan"}, "lon": -77.031796, "type": "electric_scooter"}, {"bike_id": "d826fe90a0984c30772603838becf849", "is_reserved": 0, "fusion_lon": 0.0, "lat": 38.91601133333333, "is_disabled": 0, "name": "d826fe90a0984c30772603838becf849", "fusion_lat": 0.0, "rental_uris": {"ios": "https://dc.lft.to/lastmile_qr_scan", "android": "https://dc.lft.to/lastmile_qr_scan"}, "lon": -77.043407, "type": "electric_scooter"}, {"bike_id": "0ea8d2bede1f807bc906473bb9427c0d", "is_reserved": 0, "fusion_lon": 0.0, "lat": 38.8979915, "is_disabled": 0, "name": "0ea8d2bede1f807bc906473bb9427c0d", "fusion_lat": 0.0, "rental_uris": {"ios": "https://dc.lft.to/lastmile_qr_scan", "android": "https://dc.lft.to/lastmile_qr_scan"}, "lon": -76.99162966666667, "type": "electric_scooter"}, {"bike_id": "71f06e3c0a249385cd9ac328bfe96cc5", "is_reserved": 0, "fusion_lon": 0.0, "lat": 38.918430666666666, "is_disabled": 0, "name": "71f06e3c0a249385cd9ac328bfe96cc5", "fusion_lat": 0.0, "rental_uris": {"ios": "https://dc.lft.to/lastmile_qr_scan", "android": "https://dc.lft.to/lastmile_qr_scan"}, "lon": -77.038994, "type": "electric_scooter"}, {"bike_id": "aa4e1bc68b7228fba8b7dc34389b32e1", "is_reserved": 0, "fusion_lon": 0.0, "lat": 38.883366333333335, "is_disabled": 0, "name": "aa4e1bc68b7228fba8b7dc34389b32e1", "fusion_lat": 0.0, "rental_uris": {"ios": "https://dc.lft.to/lastmile_qr_scan", "android": "https://dc.lft.to/lastmile_qr_scan"}, "lon": -77.01754316666667, "type": "electric_scooter"}, {"bike_id": "b14e7422eefa357c128030954c6f20e5", "is_reserved": 0, "fusion_lon": 0.0, "lat": 38.90553383333334, "is_disabled": 0, "name": "b14e7422eefa357c128030954c6f20e5", "fusion_lat": 0.0, "rental_uris": {"ios": "https://dc.lft.to/lastmile_qr_scan", "android": "https://dc.lft.to/lastmile_qr_scan"}, "lon": -77.00579983333333, "type": "electric_scooter"}, {"bike_id": "5746b8c3e5389452a2a0438a9d097e26", "is_reserved": 0, "fusion_lon": 0.0, "lat": 38.897550833333334, "is_disabled": 0, "name": "5746b8c3e5389452a2a0438a9d097e26", "fusion_lat": 0.0, "rental_uris": {"ios": "https://dc.lft.to/lastmile_qr_scan", "android": "https://dc.lft.to/lastmile_qr_scan"}, "lon": -77.02689416666666, "type": "electric_scooter"}, {"bike_id": "3f2f97e9a0a25224db9c1068b660462e", "is_reserved": 0, "fusion_lon": 0.0, "lat": 38.9562535, "is_disabled": 0, "name": "3f2f97e9a0a25224db9c1068b660462e", "fusion_lat": 0.0, "rental_uris": {"ios": "https://dc.lft.to/lastmile_qr_scan", "android": "https://dc.lft.to/lastmile_qr_scan"}, "lon": -76.93886183333333, "type": "electric_bike"}, {"bike_id": "daf10ce586c5fcc15012519e93f68573", "is_reserved": 0, "fusion_lon": 0.0, "lat": 38.934500166666666, "is_disabled": 0, "name": "daf10ce586c5fcc15012519e93f68573", "fusion_lat": 0.0, "rental_uris": {"ios": "https://dc.lft.to/lastmile_qr_scan", "android": "https://dc.lft.to/lastmile_qr_scan"}, "lon": -77.02847816666667, "type": "electric_scooter"}, {"bike_id": "165be839c957db767c78b0498161ce3b", "is_reserved": 0, "fusion_lon": 0.0, "lat": 38.92471116666667, "is_disabled": 0, "name": "165be839c957db767c78b0498161ce3b", "fusion_lat": 0.0, "rental_uris": {"ios": "https://dc.lft.to/lastmile_qr_scan", "android": "https://dc.lft.to/lastmile_qr_scan"}, "lon": -77.03767466666666, "type": "electric_scooter"}, {"bike_id": "a86b9eceec6c33ebe6c73e0211cdac0f", "is_reserved": 0, "fusion_lon": 0.0, "lat": 38.885043333333336, "is_disabled": 0, "name": "a86b9eceec6c33ebe6c73e0211cdac0f", "fusion_lat": 0.0, "rental_uris": {"ios": "https://dc.lft.to/lastmile_qr_scan", "android": "https://dc.lft.to/lastmile_qr_scan"}, "lon": -77.00567333333333, "type": "electric_scooter"}, {"bike_id": "2e6b5572b6d279db52d9a1eb0e5a7158", "is_reserved": 0, "fusion_lon": 0.0, "lat": 38.92839016666667, "is_disabled": 0, "name": "2e6b5572b6d279db52d9a1eb0e5a7158", "fusion_lat": 0.0, "rental_uris": {"ios": "https://dc.lft.to/lastmile_qr_scan", "android": "https://dc.lft.to/lastmile_qr_scan"}, "lon": -77.05513283333333, "type": "electric_scooter"}, {"bike_id": "391ed656f5f51eeb4dbbd30357d39585", "is_reserved": 0, "fusion_lon": 0.0, "lat": 38.9170485, "is_disabled": 0, "name": "391ed656f5f51eeb4dbbd30357d39585", "fusion_lat": 0.0, "rental_uris": {"ios": "https://dc.lft.to/lastmile_qr_scan", "android": "https://dc.lft.to/lastmile_qr_scan"}, "lon": -77.02277066666667, "type": "electric_scooter"}, {"bike_id": "184f2fc0dfcb51438e9f44ff7dfab58c", "is_reserved": 0, "fusion_lon": 0.0, "lat": 38.897596, "is_disabled": 0, "name": "184f2fc0dfcb51438e9f44ff7dfab58c", "fusion_lat": 0.0, "rental_uris": {"ios": "https://dc.lft.to/lastmile_qr_scan", "android": "https://dc.lft.to/lastmile_qr_scan"}, "lon": -76.90442266666666, "type": "electric_bike"}, {"bike_id": "065d18fe7d3f87f8e470e24a5f4a1430", "is_reserved": 0, "fusion_lon": 0.0, "lat": 38.86630783333333, "is_disabled": 0, "name": "065d18fe7d3f87f8e470e24a5f4a1430", "fusion_lat": 0.0, "rental_uris": {"ios": "https://dc.lft.to/lastmile_qr_scan", "android": "https://dc.lft.to/lastmile_qr_scan"}, "lon": -76.98716133333333, "type": "electric_scooter"}, {"bike_id": "1b64fa888dd4014a91b7255c53dccdcb", "is_reserved": 0, "fusion_lon": 0.0, "lat": 38.8803715, "is_disabled": 0, "name": "1b64fa888dd4014a91b7255c53dccdcb", "fusion_lat": 0.0, "rental_uris": {"ios": "https://dc.lft.to/lastmile_qr_scan", "android": "https://dc.lft.to/lastmile_qr_scan"}, "lon": -77.02512466666667, "type": "electric_scooter"}, {"bike_id": "56a48b1ae7255e578afde7dddda556e5", "is_reserved": 0, "fusion_lon": 0.0, "lat": 38.90028983333333, "is_disabled": 0, "name": "56a48b1ae7255e578afde7dddda556e5", "fusion_lat": 0.0, "rental_uris": {"ios": "https://dc.lft.to/lastmile_qr_scan", "android": "https://dc.lft.to/lastmile_qr_scan"}, "lon": -76.995359, "type": "electric_scooter"}, {"bike_id": "ef4b3b5f4f56f1aa2dc4c3fa1030f9fd", "is_reserved": 0, "fusion_lon": 0.0, "lat": 38.90668933333333, "is_disabled": 0, "name": "ef4b3b5f4f56f1aa2dc4c3fa1030f9fd", "fusion_lat": 0.0, "rental_uris": {"ios": "https://dc.lft.to/lastmile_qr_scan", "android": "https://dc.lft.to/lastmile_qr_scan"}, "lon": -77.0271195, "type": "electric_scooter"}, {"bike_id": "fe24c9851fd2351accabad1098730d5a", "is_reserved": 0, "fusion_lon": 0.0, "lat": 38.8672005, "is_disabled": 0, "name": "fe24c9851fd2351accabad1098730d5a", "fusion_lat": 0.0, "rental_uris": {"ios": "https://dc.lft.to/lastmile_qr_scan", "android": "https://dc.lft.to/lastmile_qr_scan"}, "lon": -76.98771183333334, "type": "electric_scooter"}, {"bike_id": "707e2241de5da7cbcd9f84278cc4e135", "is_reserved": 0, "fusion_lon": 0.0, "lat": 38.96765216666667, "is_disabled": 0, "name": "707e2241de5da7cbcd9f84278cc4e135", "fusion_lat": 0.0, "rental_uris": {"ios": "https://dc.lft.to/lastmile_qr_scan", "android": "https://dc.lft.to/lastmile_qr_scan"}, "lon": -77.09158733333334, "type": "electric_bike"}, {"bike_id": "8a00d5cfbd00f805a1342b287bd64062", "is_reserved": 0, "fusion_lon": 0.0, "lat": 38.909577, "is_disabled": 0, "name": "8a00d5cfbd00f805a1342b287bd64062", "fusion_lat": 0.0, "rental_uris": {"ios": "https://dc.lft.to/lastmile_qr_scan", "android": "https://dc.lft.to/lastmile_qr_scan"}, "lon": -76.984742, "type": "electric_scooter"}, {"bike_id": "a195a5021edce921955e976b8f7538c1", "is_reserved": 0, "fusion_lon": 0.0, "lat": 38.90028566666667, "is_disabled": 0, "name": "a195a5021edce921955e976b8f7538c1", "fusion_lat": 0.0, "rental_uris": {"ios": "https://dc.lft.to/lastmile_qr_scan", "android": "https://dc.lft.to/lastmile_qr_scan"}, "lon": -76.9879235, "type": "electric_scooter"}, {"bike_id": "3da662a07783005097862ca3d0dce044", "is_reserved": 0, "fusion_lon": 0.0, "lat": 38.90975066666667, "is_disabled": 0, "name": "3da662a07783005097862ca3d0dce044", "fusion_lat": 0.0, "rental_uris": {"ios": "https://dc.lft.to/lastmile_qr_scan", "android": "https://dc.lft.to/lastmile_qr_scan"}, "lon": -77.02723383333333, "type": "electric_scooter"}, {"bike_id": "235cdbd56de22d3d0c6919821d8ff0c5", "is_reserved": 0, "fusion_lon": 0.0, "lat": 38.94186, "is_disabled": 0, "name": "235cdbd56de22d3d0c6919821d8ff0c5", "fusion_lat": 0.0, "rental_uris": {"ios": "https://dc.lft.to/lastmile_qr_scan", "android": "https://dc.lft.to/lastmile_qr_scan"}, "lon": -77.017026, "type": "electric_scooter"}, {"bike_id": "ff5a996cacdf7a57f6e2072053b40a66", "is_reserved": 0, "fusion_lon": 0.0, "lat": 38.902340333333335, "is_disabled": 0, "name": "ff5a996cacdf7a57f6e2072053b40a66", "fusion_lat": 0.0, "rental_uris": {"ios": "https://dc.lft.to/lastmile_qr_scan", "android": "https://dc.lft.to/lastmile_qr_scan"}, "lon": -76.97416833333334, "type": "electric_scooter"}, {"bike_id": "7e7b2eeb503674458e732aaf34ec268e", "is_reserved": 0, "fusion_lon": 0.0, "lat": 38.90009216666667, "is_disabled": 0, "name": "7e7b2eeb503674458e732aaf34ec268e", "fusion_lat": 0.0, "rental_uris": {"ios": "https://dc.lft.to/lastmile_qr_scan", "android": "https://dc.lft.to/lastmile_qr_scan"}, "lon": -77.04385033333334, "type": "electric_scooter"}, {"bike_id": "5ee45cfbaea07e9fa48fed8d0c019623", "is_reserved": 0, "fusion_lon": 0.0, "lat": 38.915933333333335, "is_disabled": 0, "name": "5ee45cfbaea07e9fa48fed8d0c019623", "fusion_lat": 0.0, "rental_uris": {"ios": "https://dc.lft.to/lastmile_qr_scan", "android": "https://dc.lft.to/lastmile_qr_scan"}, "lon": -77.041729, "type": "electric_scooter"}, {"bike_id": "93d86f726906662e99a33e1e73fadb37", "is_reserved": 0, "fusion_lon": 0.0, "lat": 38.86162916666667, "is_disabled": 0, "name": "93d86f726906662e99a33e1e73fadb37", "fusion_lat": 0.0, "rental_uris": {"ios": "https://dc.lft.to/lastmile_qr_scan", "android": "https://dc.lft.to/lastmile_qr_scan"}, "lon": -77.1309425, "type": "electric_bike"}, {"bike_id": "ea46c67103f184843aaed6dead11b3bf", "is_reserved": 0, "fusion_lon": 0.0, "lat": 38.937564333333334, "is_disabled": 0, "name": "ea46c67103f184843aaed6dead11b3bf", "fusion_lat": 0.0, "rental_uris": {"ios": "https://dc.lft.to/lastmile_qr_scan", "android": "https://dc.lft.to/lastmile_qr_scan"}, "lon": -77.03576816666667, "type": "electric_scooter"}, {"bike_id": "f3cca5bd40acf4624ba76f9e3bb5a658", "is_reserved": 0, "fusion_lon": 0.0, "lat": 38.905703, "is_disabled": 0, "name": "f3cca5bd40acf4624ba76f9e3bb5a658", "fusion_lat": 0.0, "rental_uris": {"ios": "https://dc.lft.to/lastmile_qr_scan", "android": "https://dc.lft.to/lastmile_qr_scan"}, "lon": -77.0151045, "type": "electric_scooter"}, {"bike_id": "f2be0212bd68ae1b8079dbe393db8e54", "is_reserved": 0, "fusion_lon": 0.0, "lat": 38.925857666666666, "is_disabled": 0, "name": "f2be0212bd68ae1b8079dbe393db8e54", "fusion_lat": 0.0, "rental_uris": {"ios": "https://dc.lft.to/lastmile_qr_scan", "android": "https://dc.lft.to/lastmile_qr_scan"}, "lon": -77.004646, "type": "electric_scooter"}, {"bike_id": "3ae49bd0ef57f6ec14757b84b4a37d2f", "is_reserved": 0, "fusion_lon": 0.0, "lat": 38.903289666666666, "is_disabled": 0, "name": "3ae49bd0ef57f6ec14757b84b4a37d2f", "fusion_lat": 0.0, "rental_uris": {"ios": "https://dc.lft.to/lastmile_qr_scan", "android": "https://dc.lft.to/lastmile_qr_scan"}, "lon": -76.97535283333333, "type": "electric_bike"}, {"bike_id": "5ec8249537fe3188211c54b714cad3ae", "is_reserved": 0, "fusion_lon": 0.0, "lat": 38.9081585, "is_disabled": 0, "name": "5ec8249537fe3188211c54b714cad3ae", "fusion_lat": 0.0, "rental_uris": {"ios": "https://dc.lft.to/lastmile_qr_scan", "android": "https://dc.lft.to/lastmile_qr_scan"}, "lon": -77.03442433333333, "type": "electric_scooter"}, {"bike_id": "b227e1aa2dc12c9089ce636d9473fde7", "is_reserved": 0, "fusion_lon": 0.0, "lat": 38.91724983333334, "is_disabled": 0, "name": "b227e1aa2dc12c9089ce636d9473fde7", "fusion_lat": 0.0, "rental_uris": {"ios": "https://dc.lft.to/lastmile_qr_scan", "android": "https://dc.lft.to/lastmile_qr_scan"}, "lon": -77.03655266666667, "type": "electric_scooter"}, {"bike_id": "d5377507093c6e6622f2fd0930439364", "is_reserved": 0, "fusion_lon": 0.0, "lat": 38.900046333333336, "is_disabled": 0, "name": "d5377507093c6e6622f2fd0930439364", "fusion_lat": 0.0, "rental_uris": {"ios": "https://dc.lft.to/lastmile_qr_scan", "android": "https://dc.lft.to/lastmile_qr_scan"}, "lon": -77.01173516666667, "type": "electric_scooter"}, {"bike_id": "bee4a622d17c912287f66b3d834b62ab", "is_reserved": 0, "fusion_lon": 0.0, "lat": 38.8804165, "is_disabled": 0, "name": "bee4a622d17c912287f66b3d834b62ab", "fusion_lat": 0.0, "rental_uris": {"ios": "https://dc.lft.to/lastmile_qr_scan", "android": "https://dc.lft.to/lastmile_qr_scan"}, "lon": -77.01323383333333, "type": "electric_bike"}, {"bike_id": "9394ba41b7105294ddcf5df79c351134", "is_reserved": 0, "fusion_lon": 0.0, "lat": 38.839381833333334, "is_disabled": 0, "name": "9394ba41b7105294ddcf5df79c351134", "fusion_lat": 0.0, "rental_uris": {"ios": "https://dc.lft.to/lastmile_qr_scan", "android": "https://dc.lft.to/lastmile_qr_scan"}, "lon": -77.0790385, "type": "electric_bike"}, {"bike_id": "c30f43fc1e487ff11a14524e5c2f2dce", "is_reserved": 0, "fusion_lon": 0.0, "lat": 38.91426583333333, "is_disabled": 0, "name": "c30f43fc1e487ff11a14524e5c2f2dce", "fusion_lat": 0.0, "rental_uris": {"ios": "https://dc.lft.to/lastmile_qr_scan", "android": "https://dc.lft.to/lastmile_qr_scan"}, "lon": -77.0415945, "type": "electric_scooter"}, {"bike_id": "6239ee52b39834d24f4eec9447c27b75", "is_reserved": 0, "fusion_lon": 0.0, "lat": 38.912488333333336, "is_disabled": 0, "name": "6239ee52b39834d24f4eec9447c27b75", "fusion_lat": 0.0, "rental_uris": {"ios": "https://dc.lft.to/lastmile_qr_scan", "android": "https://dc.lft.to/lastmile_qr_scan"}, "lon": -77.01626016666667, "type": "electric_scooter"}, {"bike_id": "8505e195db8808af9ffe6e03d5eb213f", "is_reserved": 0, "fusion_lon": 0.0, "lat": 38.88493583333333, "is_disabled": 0, "name": "8505e195db8808af9ffe6e03d5eb213f", "fusion_lat": 0.0, "rental_uris": {"ios": "https://dc.lft.to/lastmile_qr_scan", "android": "https://dc.lft.to/lastmile_qr_scan"}, "lon": -77.007263, "type": "electric_scooter"}, {"bike_id": "0e922cc77fec049bbb9959e9216d680e", "is_reserved": 0, "fusion_lon": 0.0, "lat": 38.903174666666665, "is_disabled": 0, "name": "0e922cc77fec049bbb9959e9216d680e", "fusion_lat": 0.0, "rental_uris": {"ios": "https://dc.lft.to/lastmile_qr_scan", "android": "https://dc.lft.to/lastmile_qr_scan"}, "lon": -77.03340933333334, "type": "electric_scooter"}, {"bike_id": "15d4da6ab4298018ccc65535fa75ed4b", "is_reserved": 0, "fusion_lon": 0.0, "lat": 38.89819166666667, "is_disabled": 0, "name": "15d4da6ab4298018ccc65535fa75ed4b", "fusion_lat": 0.0, "rental_uris": {"ios": "https://dc.lft.to/lastmile_qr_scan", "android": "https://dc.lft.to/lastmile_qr_scan"}, "lon": -77.03309516666667, "type": "electric_scooter"}, {"bike_id": "2d66525bd7263c3c45219ae87ee05b72", "is_reserved": 0, "fusion_lon": 0.0, "lat": 38.84271183333333, "is_disabled": 0, "name": "2d66525bd7263c3c45219ae87ee05b72", "fusion_lat": 0.0, "rental_uris": {"ios": "https://dc.lft.to/lastmile_qr_scan", "android": "https://dc.lft.to/lastmile_qr_scan"}, "lon": -76.98838483333333, "type": "electric_bike"}, {"bike_id": "3d27bae913f128f770da45f8909e8b1d", "is_reserved": 0, "fusion_lon": 0.0, "lat": 38.91586016666667, "is_disabled": 0, "name": "3d27bae913f128f770da45f8909e8b1d", "fusion_lat": 0.0, "rental_uris": {"ios": "https://dc.lft.to/lastmile_qr_scan", "android": "https://dc.lft.to/lastmile_qr_scan"}, "lon": -77.03173633333333, "type": "electric_scooter"}, {"bike_id": "c82839b9d1db674b36832c4b48083cc9", "is_reserved": 0, "fusion_lon": 0.0, "lat": 38.902666833333335, "is_disabled": 0, "name": "c82839b9d1db674b36832c4b48083cc9", "fusion_lat": 0.0, "rental_uris": {"ios": "https://dc.lft.to/lastmile_qr_scan", "android": "https://dc.lft.to/lastmile_qr_scan"}, "lon": -77.00323116666667, "type": "electric_scooter"}, {"bike_id": "097032355e6a39ea94a6ce24c30cb3ef", "is_reserved": 0, "fusion_lon": 0.0, "lat": 39.0563565, "is_disabled": 0, "name": "097032355e6a39ea94a6ce24c30cb3ef", "fusion_lat": 0.0, "rental_uris": {"ios": "https://dc.lft.to/lastmile_qr_scan", "android": "https://dc.lft.to/lastmile_qr_scan"}, "lon": -77.12529, "type": "electric_bike"}, {"bike_id": "284d40e4f6a96fc1825406ffc966a285", "is_reserved": 0, "fusion_lon": 0.0, "lat": 38.91693816666667, "is_disabled": 0, "name": "284d40e4f6a96fc1825406ffc966a285", "fusion_lat": 0.0, "rental_uris": {"ios": "https://dc.lft.to/lastmile_qr_scan", "android": "https://dc.lft.to/lastmile_qr_scan"}, "lon": -77.02597166666666, "type": "electric_scooter"}, {"bike_id": "fdf4973a16679aa72fa06d8432230a1f", "is_reserved": 0, "fusion_lon": 0.0, "lat": 38.936396333333334, "is_disabled": 0, "name": "fdf4973a16679aa72fa06d8432230a1f", "fusion_lat": 0.0, "rental_uris": {"ios": "https://dc.lft.to/lastmile_qr_scan", "android": "https://dc.lft.to/lastmile_qr_scan"}, "lon": -77.02082233333333, "type": "electric_scooter"}, {"bike_id": "781d79369be66270a137eaad36d8b7d8", "is_reserved": 0, "fusion_lon": 0.0, "lat": 38.924838666666666, "is_disabled": 0, "name": "781d79369be66270a137eaad36d8b7d8", "fusion_lat": 0.0, "rental_uris": {"ios": "https://dc.lft.to/lastmile_qr_scan", "android": "https://dc.lft.to/lastmile_qr_scan"}, "lon": -77.03499316666667, "type": "electric_scooter"}, {"bike_id": "ed2f8c6b86f3e2286145681e3f8a946a", "is_reserved": 0, "fusion_lon": 0.0, "lat": 38.927111333333336, "is_disabled": 0, "name": "ed2f8c6b86f3e2286145681e3f8a946a", "fusion_lat": 0.0, "rental_uris": {"ios": "https://dc.lft.to/lastmile_qr_scan", "android": "https://dc.lft.to/lastmile_qr_scan"}, "lon": -77.0410215, "type": "electric_scooter"}, {"bike_id": "2c9d0ca7632e380f75dc1484c821081d", "is_reserved": 0, "fusion_lon": 0.0, "lat": 38.8683295, "is_disabled": 0, "name": "2c9d0ca7632e380f75dc1484c821081d", "fusion_lat": 0.0, "rental_uris": {"ios": "https://dc.lft.to/lastmile_qr_scan", "android": "https://dc.lft.to/lastmile_qr_scan"}, "lon": -76.98609116666667, "type": "electric_scooter"}, {"bike_id": "a4054612f33047ae99549106d9c8812f", "is_reserved": 0, "fusion_lon": 0.0, "lat": 38.8853205, "is_disabled": 0, "name": "a4054612f33047ae99549106d9c8812f", "fusion_lat": 0.0, "rental_uris": {"ios": "https://dc.lft.to/lastmile_qr_scan", "android": "https://dc.lft.to/lastmile_qr_scan"}, "lon": -77.00578516666667, "type": "electric_scooter"}, {"bike_id": "60d9b6d4d1a57540d83f3ffdfcb7b8d1", "is_reserved": 0, "fusion_lon": 0.0, "lat": 38.92679283333333, "is_disabled": 0, "name": "60d9b6d4d1a57540d83f3ffdfcb7b8d1", "fusion_lat": 0.0, "rental_uris": {"ios": "https://dc.lft.to/lastmile_qr_scan", "android": "https://dc.lft.to/lastmile_qr_scan"}, "lon": -77.02262816666666, "type": "electric_scooter"}, {"bike_id": "11420656bb8b5b9b5f3110c503913b59", "is_reserved": 0, "fusion_lon": 0.0, "lat": 38.90211883333333, "is_disabled": 0, "name": "11420656bb8b5b9b5f3110c503913b59", "fusion_lat": 0.0, "rental_uris": {"ios": "https://dc.lft.to/lastmile_qr_scan", "android": "https://dc.lft.to/lastmile_qr_scan"}, "lon": -77.02331166666667, "type": "electric_scooter"}, {"bike_id": "34d134ae6f2567dc3129fd8280704b04", "is_reserved": 0, "fusion_lon": 0.0, "lat": 38.90705916666667, "is_disabled": 0, "name": "34d134ae6f2567dc3129fd8280704b04", "fusion_lat": 0.0, "rental_uris": {"ios": "https://dc.lft.to/lastmile_qr_scan", "android": "https://dc.lft.to/lastmile_qr_scan"}, "lon": -76.98698766666666, "type": "electric_scooter"}, {"bike_id": "f0f35312d42c1bc5b3bfc806a5b79c7d", "is_reserved": 0, "fusion_lon": 0.0, "lat": 38.917973333333336, "is_disabled": 0, "name": "f0f35312d42c1bc5b3bfc806a5b79c7d", "fusion_lat": 0.0, "rental_uris": {"ios": "https://dc.lft.to/lastmile_qr_scan", "android": "https://dc.lft.to/lastmile_qr_scan"}, "lon": -77.03440033333334, "type": "electric_scooter"}, {"bike_id": "8e877e668d20bb76ea3febf3ac29dc5f", "is_reserved": 0, "fusion_lon": 0.0, "lat": 38.845762, "is_disabled": 0, "name": "8e877e668d20bb76ea3febf3ac29dc5f", "fusion_lat": 0.0, "rental_uris": {"ios": "https://dc.lft.to/lastmile_qr_scan", "android": "https://dc.lft.to/lastmile_qr_scan"}, "lon": -77.09619433333333, "type": "electric_bike"}, {"bike_id": "6edebf3e9a3ce45acbeca61909730541", "is_reserved": 0, "fusion_lon": 0.0, "lat": 38.9274415, "is_disabled": 0, "name": "6edebf3e9a3ce45acbeca61909730541", "fusion_lat": 0.0, "rental_uris": {"ios": "https://dc.lft.to/lastmile_qr_scan", "android": "https://dc.lft.to/lastmile_qr_scan"}, "lon": -77.0363035, "type": "electric_bike"}, {"bike_id": "21822caeaabd5f47b5acbf50a12193cb", "is_reserved": 0, "fusion_lon": 0.0, "lat": 38.921648166666664, "is_disabled": 0, "name": "21822caeaabd5f47b5acbf50a12193cb", "fusion_lat": 0.0, "rental_uris": {"ios": "https://dc.lft.to/lastmile_qr_scan", "android": "https://dc.lft.to/lastmile_qr_scan"}, "lon": -77.04690916666667, "type": "electric_scooter"}, {"bike_id": "90ae957e216826d9eef7847cfcda238b", "is_reserved": 0, "fusion_lon": 0.0, "lat": 38.9233815, "is_disabled": 0, "name": "90ae957e216826d9eef7847cfcda238b", "fusion_lat": 0.0, "rental_uris": {"ios": "https://dc.lft.to/lastmile_qr_scan", "android": "https://dc.lft.to/lastmile_qr_scan"}, "lon": -77.035169, "type": "electric_scooter"}, {"bike_id": "2e8bdfab2fc25a45a3654a2b0f0d2d3f", "is_reserved": 0, "fusion_lon": 0.0, "lat": 38.908601166666664, "is_disabled": 0, "name": "2e8bdfab2fc25a45a3654a2b0f0d2d3f", "fusion_lat": 0.0, "rental_uris": {"ios": "https://dc.lft.to/lastmile_qr_scan", "android": "https://dc.lft.to/lastmile_qr_scan"}, "lon": -77.032765, "type": "electric_scooter"}, {"bike_id": "16a4bdb184b794b6b1a25dea3b560ab6", "is_reserved": 0, "fusion_lon": 0.0, "lat": 38.86370216666667, "is_disabled": 0, "name": "16a4bdb184b794b6b1a25dea3b560ab6", "fusion_lat": 0.0, "rental_uris": {"ios": "https://dc.lft.to/lastmile_qr_scan", "android": "https://dc.lft.to/lastmile_qr_scan"}, "lon": -77.013547, "type": "electric_scooter"}, {"bike_id": "4c3c74de51dc89589f62478f9b72e938", "is_reserved": 0, "fusion_lon": 0.0, "lat": 38.905336166666665, "is_disabled": 0, "name": "4c3c74de51dc89589f62478f9b72e938", "fusion_lat": 0.0, "rental_uris": {"ios": "https://dc.lft.to/lastmile_qr_scan", "android": "https://dc.lft.to/lastmile_qr_scan"}, "lon": -77.0576325, "type": "electric_scooter"}, {"bike_id": "9fe428ea7139040cb3bd31ddd363c4dd", "is_reserved": 0, "fusion_lon": 0.0, "lat": 38.92963533333333, "is_disabled": 0, "name": "9fe428ea7139040cb3bd31ddd363c4dd", "fusion_lat": 0.0, "rental_uris": {"ios": "https://dc.lft.to/lastmile_qr_scan", "android": "https://dc.lft.to/lastmile_qr_scan"}, "lon": -77.01146166666666, "type": "electric_scooter"}, {"bike_id": "1b8236f9561808d1ff7b0df0554a5271", "is_reserved": 0, "fusion_lon": 0.0, "lat": 38.962084833333336, "is_disabled": 0, "name": "1b8236f9561808d1ff7b0df0554a5271", "fusion_lat": 0.0, "rental_uris": {"ios": "https://dc.lft.to/lastmile_qr_scan", "android": "https://dc.lft.to/lastmile_qr_scan"}, "lon": -77.02227783333333, "type": "electric_bike"}, {"bike_id": "eb9ebf9ead8fee6b9ebadb4ef82be35b", "is_reserved": 0, "fusion_lon": 0.0, "lat": 38.9009235, "is_disabled": 0, "name": "eb9ebf9ead8fee6b9ebadb4ef82be35b", "fusion_lat": 0.0, "rental_uris": {"ios": "https://dc.lft.to/lastmile_qr_scan", "android": "https://dc.lft.to/lastmile_qr_scan"}, "lon": -77.048866, "type": "electric_bike"}, {"bike_id": "0b07750b427721fa828cea20073aa89a", "is_reserved": 0, "fusion_lon": 0.0, "lat": 38.91362783333334, "is_disabled": 0, "name": "0b07750b427721fa828cea20073aa89a", "fusion_lat": 0.0, "rental_uris": {"ios": "https://dc.lft.to/lastmile_qr_scan", "android": "https://dc.lft.to/lastmile_qr_scan"}, "lon": -77.04648433333334, "type": "electric_scooter"}, {"bike_id": "94db7dbb72b4fc688fd28e573f02e2d1", "is_reserved": 0, "fusion_lon": 0.0, "lat": 38.91845166666667, "is_disabled": 0, "name": "94db7dbb72b4fc688fd28e573f02e2d1", "fusion_lat": 0.0, "rental_uris": {"ios": "https://dc.lft.to/lastmile_qr_scan", "android": "https://dc.lft.to/lastmile_qr_scan"}, "lon": -77.02307283333333, "type": "electric_scooter"}, {"bike_id": "3ad0d04d932b8bf494fc83bf99637aed", "is_reserved": 0, "fusion_lon": 0.0, "lat": 38.928239833333336, "is_disabled": 0, "name": "3ad0d04d932b8bf494fc83bf99637aed", "fusion_lat": 0.0, "rental_uris": {"ios": "https://dc.lft.to/lastmile_qr_scan", "android": "https://dc.lft.to/lastmile_qr_scan"}, "lon": -77.0225565, "type": "electric_scooter"}, {"bike_id": "b8b728c08f8731cf25906a81ba541c87", "is_reserved": 0, "fusion_lon": 0.0, "lat": 38.903908333333334, "is_disabled": 0, "name": "b8b728c08f8731cf25906a81ba541c87", "fusion_lat": 0.0, "rental_uris": {"ios": "https://dc.lft.to/lastmile_qr_scan", "android": "https://dc.lft.to/lastmile_qr_scan"}, "lon": -77.04213916666667, "type": "electric_scooter"}, {"bike_id": "aa6c37e7ec31a7109e1b5d8854cd6e93", "is_reserved": 0, "fusion_lon": 0.0, "lat": 38.902610833333334, "is_disabled": 0, "name": "aa6c37e7ec31a7109e1b5d8854cd6e93", "fusion_lat": 0.0, "rental_uris": {"ios": "https://dc.lft.to/lastmile_qr_scan", "android": "https://dc.lft.to/lastmile_qr_scan"}, "lon": -77.02989333333333, "type": "electric_scooter"}, {"bike_id": "6f10dfe6fb60cab14c537f4f88c7ea60", "is_reserved": 0, "fusion_lon": 0.0, "lat": 38.9119385, "is_disabled": 0, "name": "6f10dfe6fb60cab14c537f4f88c7ea60", "fusion_lat": 0.0, "rental_uris": {"ios": "https://dc.lft.to/lastmile_qr_scan", "android": "https://dc.lft.to/lastmile_qr_scan"}, "lon": -77.06089233333333, "type": "electric_scooter"}, {"bike_id": "f05f3ed4977fcf3072d03b8e73d5e85e", "is_reserved": 0, "fusion_lon": 0.0, "lat": 38.9017015, "is_disabled": 0, "name": "f05f3ed4977fcf3072d03b8e73d5e85e", "fusion_lat": 0.0, "rental_uris": {"ios": "https://dc.lft.to/lastmile_qr_scan", "android": "https://dc.lft.to/lastmile_qr_scan"}, "lon": -76.980709, "type": "electric_scooter"}, {"bike_id": "af4ece2ae16c78f2a20df4e246f82705", "is_reserved": 0, "fusion_lon": 0.0, "lat": 38.9595955, "is_disabled": 0, "name": "af4ece2ae16c78f2a20df4e246f82705", "fusion_lat": 0.0, "rental_uris": {"ios": "https://dc.lft.to/lastmile_qr_scan", "android": "https://dc.lft.to/lastmile_qr_scan"}, "lon": -77.100894, "type": "electric_bike"}, {"bike_id": "dbb4de383504889ddbf2c6994b8e7db7", "is_reserved": 0, "fusion_lon": 0.0, "lat": 38.88887183333333, "is_disabled": 0, "name": "dbb4de383504889ddbf2c6994b8e7db7", "fusion_lat": 0.0, "rental_uris": {"ios": "https://dc.lft.to/lastmile_qr_scan", "android": "https://dc.lft.to/lastmile_qr_scan"}, "lon": -77.03322483333334, "type": "electric_bike"}, {"bike_id": "bc0924d9a5e91e0867c92e46c1c92e10", "is_reserved": 0, "fusion_lon": 0.0, "lat": 38.88495066666667, "is_disabled": 0, "name": "bc0924d9a5e91e0867c92e46c1c92e10", "fusion_lat": 0.0, "rental_uris": {"ios": "https://dc.lft.to/lastmile_qr_scan", "android": "https://dc.lft.to/lastmile_qr_scan"}, "lon": -77.00725233333333, "type": "electric_scooter"}, {"bike_id": "373965216043d9e1843310b47860062f", "is_reserved": 0, "fusion_lon": 0.0, "lat": 38.905703333333335, "is_disabled": 0, "name": "373965216043d9e1843310b47860062f", "fusion_lat": 0.0, "rental_uris": {"ios": "https://dc.lft.to/lastmile_qr_scan", "android": "https://dc.lft.to/lastmile_qr_scan"}, "lon": -77.03631833333333, "type": "electric_scooter"}, {"bike_id": "23db24d8046cc11326504455253b2d8f", "is_reserved": 0, "fusion_lon": 0.0, "lat": 38.897124, "is_disabled": 0, "name": "23db24d8046cc11326504455253b2d8f", "fusion_lat": 0.0, "rental_uris": {"ios": "https://dc.lft.to/lastmile_qr_scan", "android": "https://dc.lft.to/lastmile_qr_scan"}, "lon": -77.02713483333333, "type": "electric_scooter"}, {"bike_id": "42fe8eaae08764d6b32d460dffc7a487", "is_reserved": 0, "fusion_lon": 0.0, "lat": 38.91203816666667, "is_disabled": 0, "name": "42fe8eaae08764d6b32d460dffc7a487", "fusion_lat": 0.0, "rental_uris": {"ios": "https://dc.lft.to/lastmile_qr_scan", "android": "https://dc.lft.to/lastmile_qr_scan"}, "lon": -77.07315733333333, "type": "electric_scooter"}, {"bike_id": "7784a54c438b1b580a6602ec5093e8cb", "is_reserved": 0, "fusion_lon": 0.0, "lat": 38.9156735, "is_disabled": 0, "name": "7784a54c438b1b580a6602ec5093e8cb", "fusion_lat": 0.0, "rental_uris": {"ios": "https://dc.lft.to/lastmile_qr_scan", "android": "https://dc.lft.to/lastmile_qr_scan"}, "lon": -77.037656, "type": "electric_scooter"}, {"bike_id": "f6a8140e5ea62b03f8483ef1932e5c68", "is_reserved": 0, "fusion_lon": 0.0, "lat": 38.924835, "is_disabled": 0, "name": "f6a8140e5ea62b03f8483ef1932e5c68", "fusion_lat": 0.0, "rental_uris": {"ios": "https://dc.lft.to/lastmile_qr_scan", "android": "https://dc.lft.to/lastmile_qr_scan"}, "lon": -77.03767616666667, "type": "electric_scooter"}, {"bike_id": "920a01a3aa7d03a7ba3427a4b72b2dad", "is_reserved": 0, "fusion_lon": 0.0, "lat": 38.940135166666664, "is_disabled": 0, "name": "920a01a3aa7d03a7ba3427a4b72b2dad", "fusion_lat": 0.0, "rental_uris": {"ios": "https://dc.lft.to/lastmile_qr_scan", "android": "https://dc.lft.to/lastmile_qr_scan"}, "lon": -77.07169216666667, "type": "electric_scooter"}, {"bike_id": "af9b030bf477f92b7a3f0b8392b07586", "is_reserved": 0, "fusion_lon": 0.0, "lat": 38.850685166666665, "is_disabled": 0, "name": "af9b030bf477f92b7a3f0b8392b07586", "fusion_lat": 0.0, "rental_uris": {"ios": "https://dc.lft.to/lastmile_qr_scan", "android": "https://dc.lft.to/lastmile_qr_scan"}, "lon": -76.97337016666667, "type": "electric_bike"}, {"bike_id": "a186c6cab08196a9e4eb1665bb3c0764", "is_reserved": 0, "fusion_lon": 0.0, "lat": 38.930856, "is_disabled": 0, "name": "a186c6cab08196a9e4eb1665bb3c0764", "fusion_lat": 0.0, "rental_uris": {"ios": "https://dc.lft.to/lastmile_qr_scan", "android": "https://dc.lft.to/lastmile_qr_scan"}, "lon": -77.02505933333333, "type": "electric_scooter"}, {"bike_id": "bb10a19f1d02693b3d8920a093d20821", "is_reserved": 0, "fusion_lon": 0.0, "lat": 38.8982075, "is_disabled": 0, "name": "bb10a19f1d02693b3d8920a093d20821", "fusion_lat": 0.0, "rental_uris": {"ios": "https://dc.lft.to/lastmile_qr_scan", "android": "https://dc.lft.to/lastmile_qr_scan"}, "lon": -77.00597483333334, "type": "electric_bike"}, {"bike_id": "88c81c02d0b078242cb0b5abae88edeb", "is_reserved": 0, "fusion_lon": 0.0, "lat": 38.90725416666667, "is_disabled": 0, "name": "88c81c02d0b078242cb0b5abae88edeb", "fusion_lat": 0.0, "rental_uris": {"ios": "https://dc.lft.to/lastmile_qr_scan", "android": "https://dc.lft.to/lastmile_qr_scan"}, "lon": -76.9860035, "type": "electric_scooter"}, {"bike_id": "1b3ed00e91623a51fadd3093fda1cdd8", "is_reserved": 0, "fusion_lon": 0.0, "lat": 38.90613416666667, "is_disabled": 0, "name": "1b3ed00e91623a51fadd3093fda1cdd8", "fusion_lat": 0.0, "rental_uris": {"ios": "https://dc.lft.to/lastmile_qr_scan", "android": "https://dc.lft.to/lastmile_qr_scan"}, "lon": -77.041602, "type": "electric_scooter"}, {"bike_id": "15dd96fe1ccd9106c4d99ec11e7221f1", "is_reserved": 0, "fusion_lon": 0.0, "lat": 38.903831833333335, "is_disabled": 0, "name": "15dd96fe1ccd9106c4d99ec11e7221f1", "fusion_lat": 0.0, "rental_uris": {"ios": "https://dc.lft.to/lastmile_qr_scan", "android": "https://dc.lft.to/lastmile_qr_scan"}, "lon": -77.040147, "type": "electric_scooter"}, {"bike_id": "49994a254144c1fe6969a76a7229eca1", "is_reserved": 0, "fusion_lon": 0.0, "lat": 38.81335766666667, "is_disabled": 0, "name": "49994a254144c1fe6969a76a7229eca1", "fusion_lat": 0.0, "rental_uris": {"ios": "https://dc.lft.to/lastmile_qr_scan", "android": "https://dc.lft.to/lastmile_qr_scan"}, "lon": -77.05102566666666, "type": "electric_bike"}, {"bike_id": "52904fc1995d5996e2c809f2e4fd157d", "is_reserved": 0, "fusion_lon": 0.0, "lat": 38.88643833333333, "is_disabled": 0, "name": "52904fc1995d5996e2c809f2e4fd157d", "fusion_lat": 0.0, "rental_uris": {"ios": "https://dc.lft.to/lastmile_qr_scan", "android": "https://dc.lft.to/lastmile_qr_scan"}, "lon": -77.0213655, "type": "electric_scooter"}, {"bike_id": "2a2b50ce6d6f84a6b2ceb36b85b1db29", "is_reserved": 0, "fusion_lon": 0.0, "lat": 38.906718166666664, "is_disabled": 0, "name": "2a2b50ce6d6f84a6b2ceb36b85b1db29", "fusion_lat": 0.0, "rental_uris": {"ios": "https://dc.lft.to/lastmile_qr_scan", "android": "https://dc.lft.to/lastmile_qr_scan"}, "lon": -77.00025483333333, "type": "electric_scooter"}, {"bike_id": "bb7e43d1fad5da950d3ff669b835c3c7", "is_reserved": 0, "fusion_lon": 0.0, "lat": 38.9038715, "is_disabled": 0, "name": "bb7e43d1fad5da950d3ff669b835c3c7", "fusion_lat": 0.0, "rental_uris": {"ios": "https://dc.lft.to/lastmile_qr_scan", "android": "https://dc.lft.to/lastmile_qr_scan"}, "lon": -76.998327, "type": "electric_scooter"}, {"bike_id": "f43de8540861285c66c9f1ca0bc92e6c", "is_reserved": 0, "fusion_lon": 0.0, "lat": 38.924581833333335, "is_disabled": 0, "name": "f43de8540861285c66c9f1ca0bc92e6c", "fusion_lat": 0.0, "rental_uris": {"ios": "https://dc.lft.to/lastmile_qr_scan", "android": "https://dc.lft.to/lastmile_qr_scan"}, "lon": -76.9991165, "type": "electric_scooter"}, {"bike_id": "3f12c92d6ccdb8f35fab7c214ab52696", "is_reserved": 0, "fusion_lon": 0.0, "lat": 38.90353183333333, "is_disabled": 0, "name": "3f12c92d6ccdb8f35fab7c214ab52696", "fusion_lat": 0.0, "rental_uris": {"ios": "https://dc.lft.to/lastmile_qr_scan", "android": "https://dc.lft.to/lastmile_qr_scan"}, "lon": -77.03883983333333, "type": "electric_scooter"}, {"bike_id": "75c5a6c26841e11ab73bdeaa25720103", "is_reserved": 0, "fusion_lon": 0.0, "lat": 38.900911, "is_disabled": 0, "name": "75c5a6c26841e11ab73bdeaa25720103", "fusion_lat": 0.0, "rental_uris": {"ios": "https://dc.lft.to/lastmile_qr_scan", "android": "https://dc.lft.to/lastmile_qr_scan"}, "lon": -77.04922683333334, "type": "electric_scooter"}, {"bike_id": "ae56607120f8c70085cb5808b0af2acb", "is_reserved": 0, "fusion_lon": 0.0, "lat": 38.86164616666667, "is_disabled": 0, "name": "ae56607120f8c70085cb5808b0af2acb", "fusion_lat": 0.0, "rental_uris": {"ios": "https://dc.lft.to/lastmile_qr_scan", "android": "https://dc.lft.to/lastmile_qr_scan"}, "lon": -76.95064733333334, "type": "electric_bike"}, {"bike_id": "2b23ab61ab3db94b8a25ac31031ae597", "is_reserved": 0, "fusion_lon": 0.0, "lat": 38.923201, "is_disabled": 0, "name": "2b23ab61ab3db94b8a25ac31031ae597", "fusion_lat": 0.0, "rental_uris": {"ios": "https://dc.lft.to/lastmile_qr_scan", "android": "https://dc.lft.to/lastmile_qr_scan"}, "lon": -77.044845, "type": "electric_scooter"}, {"bike_id": "f2d76b5bb4db0c7c0de664f0b0038566", "is_reserved": 0, "fusion_lon": 0.0, "lat": 38.92336433333333, "is_disabled": 0, "name": "f2d76b5bb4db0c7c0de664f0b0038566", "fusion_lat": 0.0, "rental_uris": {"ios": "https://dc.lft.to/lastmile_qr_scan", "android": "https://dc.lft.to/lastmile_qr_scan"}, "lon": -77.03897966666666, "type": "electric_scooter"}, {"bike_id": "751169b38f0b9a0c714e26530615a376", "is_reserved": 0, "fusion_lon": 0.0, "lat": 38.924905, "is_disabled": 0, "name": "751169b38f0b9a0c714e26530615a376", "fusion_lat": 0.0, "rental_uris": {"ios": "https://dc.lft.to/lastmile_qr_scan", "android": "https://dc.lft.to/lastmile_qr_scan"}, "lon": -77.02715483333333, "type": "electric_scooter"}, {"bike_id": "dfa7d668b5068a6f58a6772dee20181e", "is_reserved": 0, "fusion_lon": 0.0, "lat": 38.9218875, "is_disabled": 0, "name": "dfa7d668b5068a6f58a6772dee20181e", "fusion_lat": 0.0, "rental_uris": {"ios": "https://dc.lft.to/lastmile_qr_scan", "android": "https://dc.lft.to/lastmile_qr_scan"}, "lon": -77.0412425, "type": "electric_scooter"}, {"bike_id": "443dbd04cbf9af45ed127532ecd66e5f", "is_reserved": 0, "fusion_lon": 0.0, "lat": 38.903020166666664, "is_disabled": 0, "name": "443dbd04cbf9af45ed127532ecd66e5f", "fusion_lat": 0.0, "rental_uris": {"ios": "https://dc.lft.to/lastmile_qr_scan", "android": "https://dc.lft.to/lastmile_qr_scan"}, "lon": -77.043334, "type": "electric_scooter"}, {"bike_id": "121c32cfa13946cde4304e5f34742f93", "is_reserved": 0, "fusion_lon": 0.0, "lat": 38.923657166666665, "is_disabled": 0, "name": "121c32cfa13946cde4304e5f34742f93", "fusion_lat": 0.0, "rental_uris": {"ios": "https://dc.lft.to/lastmile_qr_scan", "android": "https://dc.lft.to/lastmile_qr_scan"}, "lon": -77.05028016666667, "type": "electric_scooter"}, {"bike_id": "f527a61eb69659cce4070161edf3a510", "is_reserved": 0, "fusion_lon": 0.0, "lat": 38.90134416666667, "is_disabled": 0, "name": "f527a61eb69659cce4070161edf3a510", "fusion_lat": 0.0, "rental_uris": {"ios": "https://dc.lft.to/lastmile_qr_scan", "android": "https://dc.lft.to/lastmile_qr_scan"}, "lon": -77.04479983333333, "type": "electric_scooter"}, {"bike_id": "2e0a9061d05d10bd8b28bbb3aa78a26e", "is_reserved": 0, "fusion_lon": 0.0, "lat": 38.91996966666667, "is_disabled": 0, "name": "2e0a9061d05d10bd8b28bbb3aa78a26e", "fusion_lat": 0.0, "rental_uris": {"ios": "https://dc.lft.to/lastmile_qr_scan", "android": "https://dc.lft.to/lastmile_qr_scan"}, "lon": -77.03225766666667, "type": "electric_scooter"}, {"bike_id": "b34711bb23ef4ae444dafad9d3666f2d", "is_reserved": 0, "fusion_lon": 0.0, "lat": 38.928529, "is_disabled": 0, "name": "b34711bb23ef4ae444dafad9d3666f2d", "fusion_lat": 0.0, "rental_uris": {"ios": "https://dc.lft.to/lastmile_qr_scan", "android": "https://dc.lft.to/lastmile_qr_scan"}, "lon": -77.05421466666667, "type": "electric_scooter"}, {"bike_id": "c36d5f72c4d7212c0909108e82819cff", "is_reserved": 0, "fusion_lon": 0.0, "lat": 38.92406416666667, "is_disabled": 0, "name": "c36d5f72c4d7212c0909108e82819cff", "fusion_lat": 0.0, "rental_uris": {"ios": "https://dc.lft.to/lastmile_qr_scan", "android": "https://dc.lft.to/lastmile_qr_scan"}, "lon": -77.02545933333333, "type": "electric_scooter"}, {"bike_id": "557ef1a6e2e92a39125a8ad8bb486b15", "is_reserved": 0, "fusion_lon": 0.0, "lat": 38.92291083333333, "is_disabled": 0, "name": "557ef1a6e2e92a39125a8ad8bb486b15", "fusion_lat": 0.0, "rental_uris": {"ios": "https://dc.lft.to/lastmile_qr_scan", "android": "https://dc.lft.to/lastmile_qr_scan"}, "lon": -77.0319385, "type": "electric_scooter"}, {"bike_id": "057f98fe3b03f7b3f4a1cf26347555a1", "is_reserved": 0, "fusion_lon": 0.0, "lat": 38.990908833333336, "is_disabled": 0, "name": "057f98fe3b03f7b3f4a1cf26347555a1", "fusion_lat": 0.0, "rental_uris": {"ios": "https://dc.lft.to/lastmile_qr_scan", "android": "https://dc.lft.to/lastmile_qr_scan"}, "lon": -76.87496666666667, "type": "electric_bike"}, {"bike_id": "958807caf2f3124dfdc4ed2ba2ab04b1", "is_reserved": 0, "fusion_lon": 0.0, "lat": 38.905342833333336, "is_disabled": 0, "name": "958807caf2f3124dfdc4ed2ba2ab04b1", "fusion_lat": 0.0, "rental_uris": {"ios": "https://dc.lft.to/lastmile_qr_scan", "android": "https://dc.lft.to/lastmile_qr_scan"}, "lon": -76.99810666666667, "type": "electric_bike"}, {"bike_id": "f0028d43ae7012fc4c881b403f541021", "is_reserved": 0, "fusion_lon": 0.0, "lat": 38.900642500000004, "is_disabled": 0, "name": "f0028d43ae7012fc4c881b403f541021", "fusion_lat": 0.0, "rental_uris": {"ios": "https://dc.lft.to/lastmile_qr_scan", "android": "https://dc.lft.to/lastmile_qr_scan"}, "lon": -76.9339145, "type": "electric_scooter"}, {"bike_id": "7d79b756cd6e14331cc7c86734347c37", "is_reserved": 0, "fusion_lon": 0.0, "lat": 38.90745733333333, "is_disabled": 0, "name": "7d79b756cd6e14331cc7c86734347c37", "fusion_lat": 0.0, "rental_uris": {"ios": "https://dc.lft.to/lastmile_qr_scan", "android": "https://dc.lft.to/lastmile_qr_scan"}, "lon": -77.03477066666666, "type": "electric_scooter"}, {"bike_id": "ee996bc18d778b075213e0af3667f351", "is_reserved": 0, "fusion_lon": 0.0, "lat": 38.9198405, "is_disabled": 0, "name": "ee996bc18d778b075213e0af3667f351", "fusion_lat": 0.0, "rental_uris": {"ios": "https://dc.lft.to/lastmile_qr_scan", "android": "https://dc.lft.to/lastmile_qr_scan"}, "lon": -77.02591383333333, "type": "electric_scooter"}, {"bike_id": "77d121ce8d18a844d834f1181ce407c6", "is_reserved": 0, "fusion_lon": 0.0, "lat": 38.866985, "is_disabled": 0, "name": "77d121ce8d18a844d834f1181ce407c6", "fusion_lat": 0.0, "rental_uris": {"ios": "https://dc.lft.to/lastmile_qr_scan", "android": "https://dc.lft.to/lastmile_qr_scan"}, "lon": -76.98709383333333, "type": "electric_scooter"}, {"bike_id": "419ee5b180b1fbe13a6809bf843407ba", "is_reserved": 0, "fusion_lon": 0.0, "lat": 38.92287783333333, "is_disabled": 0, "name": "419ee5b180b1fbe13a6809bf843407ba", "fusion_lat": 0.0, "rental_uris": {"ios": "https://dc.lft.to/lastmile_qr_scan", "android": "https://dc.lft.to/lastmile_qr_scan"}, "lon": -77.02067066666666, "type": "electric_scooter"}, {"bike_id": "0630783147372dc1d2eb90f8a4ff5fcf", "is_reserved": 0, "fusion_lon": 0.0, "lat": 38.90571716666667, "is_disabled": 0, "name": "0630783147372dc1d2eb90f8a4ff5fcf", "fusion_lat": 0.0, "rental_uris": {"ios": "https://dc.lft.to/lastmile_qr_scan", "android": "https://dc.lft.to/lastmile_qr_scan"}, "lon": -77.02172266666666, "type": "electric_scooter"}, {"bike_id": "a4a0c5398597d6a5ba017dae62d6ac04", "is_reserved": 0, "fusion_lon": 0.0, "lat": 38.9056145, "is_disabled": 0, "name": "a4a0c5398597d6a5ba017dae62d6ac04", "fusion_lat": 0.0, "rental_uris": {"ios": "https://dc.lft.to/lastmile_qr_scan", "android": "https://dc.lft.to/lastmile_qr_scan"}, "lon": -76.99791383333333, "type": "electric_bike"}, {"bike_id": "872ae143b1c5ee75b9cd4e35bbb10067", "is_reserved": 0, "fusion_lon": 0.0, "lat": 38.94153383333333, "is_disabled": 0, "name": "872ae143b1c5ee75b9cd4e35bbb10067", "fusion_lat": 0.0, "rental_uris": {"ios": "https://dc.lft.to/lastmile_qr_scan", "android": "https://dc.lft.to/lastmile_qr_scan"}, "lon": -77.03652533333333, "type": "electric_scooter"}, {"bike_id": "717866c60f060fea8b00a8b891292ab9", "is_reserved": 0, "fusion_lon": 0.0, "lat": 38.91330933333333, "is_disabled": 0, "name": "717866c60f060fea8b00a8b891292ab9", "fusion_lat": 0.0, "rental_uris": {"ios": "https://dc.lft.to/lastmile_qr_scan", "android": "https://dc.lft.to/lastmile_qr_scan"}, "lon": -77.030408, "type": "electric_scooter"}, {"bike_id": "a2c58b16162cc4c24459dfea966939ab", "is_reserved": 0, "fusion_lon": 0.0, "lat": 38.884380166666666, "is_disabled": 0, "name": "a2c58b16162cc4c24459dfea966939ab", "fusion_lat": 0.0, "rental_uris": {"ios": "https://dc.lft.to/lastmile_qr_scan", "android": "https://dc.lft.to/lastmile_qr_scan"}, "lon": -76.9575725, "type": "electric_scooter"}, {"bike_id": "c442bc130c30c32302ce28ea98be305f", "is_reserved": 0, "fusion_lon": 0.0, "lat": 38.88424466666667, "is_disabled": 0, "name": "c442bc130c30c32302ce28ea98be305f", "fusion_lat": 0.0, "rental_uris": {"ios": "https://dc.lft.to/lastmile_qr_scan", "android": "https://dc.lft.to/lastmile_qr_scan"}, "lon": -76.95744216666667, "type": "electric_scooter"}, {"bike_id": "f4d5fe2b6dc675a530294df21bda5107", "is_reserved": 0, "fusion_lon": 0.0, "lat": 38.91260116666667, "is_disabled": 0, "name": "f4d5fe2b6dc675a530294df21bda5107", "fusion_lat": 0.0, "rental_uris": {"ios": "https://dc.lft.to/lastmile_qr_scan", "android": "https://dc.lft.to/lastmile_qr_scan"}, "lon": -77.031251, "type": "electric_scooter"}, {"bike_id": "a8d6ef852a7e994b64876e560e57c65a", "is_reserved": 0, "fusion_lon": 0.0, "lat": 38.916809, "is_disabled": 0, "name": "a8d6ef852a7e994b64876e560e57c65a", "fusion_lat": 0.0, "rental_uris": {"ios": "https://dc.lft.to/lastmile_qr_scan", "android": "https://dc.lft.to/lastmile_qr_scan"}, "lon": -77.027164, "type": "electric_scooter"}, {"bike_id": "60d70029a97553bda8cff70b1b901a50", "is_reserved": 0, "fusion_lon": 0.0, "lat": 38.90551933333333, "is_disabled": 0, "name": "60d70029a97553bda8cff70b1b901a50", "fusion_lat": 0.0, "rental_uris": {"ios": "https://dc.lft.to/lastmile_qr_scan", "android": "https://dc.lft.to/lastmile_qr_scan"}, "lon": -77.0058665, "type": "electric_scooter"}, {"bike_id": "fad46e297c4fa7eefd1bac1464eb0bd1", "is_reserved": 0, "fusion_lon": 0.0, "lat": 38.913327, "is_disabled": 0, "name": "fad46e297c4fa7eefd1bac1464eb0bd1", "fusion_lat": 0.0, "rental_uris": {"ios": "https://dc.lft.to/lastmile_qr_scan", "android": "https://dc.lft.to/lastmile_qr_scan"}, "lon": -77.0022205, "type": "electric_scooter"}, {"bike_id": "f87ae6e5005082dbbc202c98e67a9255", "is_reserved": 0, "fusion_lon": 0.0, "lat": 38.95482833333333, "is_disabled": 0, "name": "f87ae6e5005082dbbc202c98e67a9255", "fusion_lat": 0.0, "rental_uris": {"ios": "https://dc.lft.to/lastmile_qr_scan", "android": "https://dc.lft.to/lastmile_qr_scan"}, "lon": -77.082409, "type": "electric_bike"}, {"bike_id": "b23691b92d0cf9d8ff003754bbbaff14", "is_reserved": 0, "fusion_lon": 0.0, "lat": 38.92067433333333, "is_disabled": 0, "name": "b23691b92d0cf9d8ff003754bbbaff14", "fusion_lat": 0.0, "rental_uris": {"ios": "https://dc.lft.to/lastmile_qr_scan", "android": "https://dc.lft.to/lastmile_qr_scan"}, "lon": -77.04249383333334, "type": "electric_scooter"}, {"bike_id": "10df413feb6af187891fc0044ab07a03", "is_reserved": 0, "fusion_lon": 0.0, "lat": 38.92063616666667, "is_disabled": 0, "name": "10df413feb6af187891fc0044ab07a03", "fusion_lat": 0.0, "rental_uris": {"ios": "https://dc.lft.to/lastmile_qr_scan", "android": "https://dc.lft.to/lastmile_qr_scan"}, "lon": -77.042551, "type": "electric_scooter"}, {"bike_id": "5d7630d27edc394612816d2aad3042e2", "is_reserved": 0, "fusion_lon": 0.0, "lat": 38.92477933333333, "is_disabled": 0, "name": "5d7630d27edc394612816d2aad3042e2", "fusion_lat": 0.0, "rental_uris": {"ios": "https://dc.lft.to/lastmile_qr_scan", "android": "https://dc.lft.to/lastmile_qr_scan"}, "lon": -77.0354635, "type": "electric_scooter"}, {"bike_id": "bca1f77a314f7b2f348f5379809da733", "is_reserved": 0, "fusion_lon": 0.0, "lat": 38.92591383333333, "is_disabled": 0, "name": "bca1f77a314f7b2f348f5379809da733", "fusion_lat": 0.0, "rental_uris": {"ios": "https://dc.lft.to/lastmile_qr_scan", "android": "https://dc.lft.to/lastmile_qr_scan"}, "lon": -77.00560583333333, "type": "electric_scooter"}, {"bike_id": "ca7ff16cd7c5cb50b159cf0aa0221107", "is_reserved": 0, "fusion_lon": 0.0, "lat": 38.897616666666664, "is_disabled": 0, "name": "ca7ff16cd7c5cb50b159cf0aa0221107", "fusion_lat": 0.0, "rental_uris": {"ios": "https://dc.lft.to/lastmile_qr_scan", "android": "https://dc.lft.to/lastmile_qr_scan"}, "lon": -76.94183283333334, "type": "electric_scooter"}, {"bike_id": "08c69f649b39d9e378c435252bac2118", "is_reserved": 0, "fusion_lon": 0.0, "lat": 38.9209385, "is_disabled": 0, "name": "08c69f649b39d9e378c435252bac2118", "fusion_lat": 0.0, "rental_uris": {"ios": "https://dc.lft.to/lastmile_qr_scan", "android": "https://dc.lft.to/lastmile_qr_scan"}, "lon": -77.02591616666666, "type": "electric_scooter"}, {"bike_id": "8082e59565c0b0bff96138d1b8e013ec", "is_reserved": 0, "fusion_lon": 0.0, "lat": 38.9045685, "is_disabled": 0, "name": "8082e59565c0b0bff96138d1b8e013ec", "fusion_lat": 0.0, "rental_uris": {"ios": "https://dc.lft.to/lastmile_qr_scan", "android": "https://dc.lft.to/lastmile_qr_scan"}, "lon": -77.04868583333334, "type": "electric_scooter"}, {"bike_id": "a8e2272337df489117eb3edcbcbc6f43", "is_reserved": 0, "fusion_lon": 0.0, "lat": 38.84296066666667, "is_disabled": 0, "name": "a8e2272337df489117eb3edcbcbc6f43", "fusion_lat": 0.0, "rental_uris": {"ios": "https://dc.lft.to/lastmile_qr_scan", "android": "https://dc.lft.to/lastmile_qr_scan"}, "lon": -76.99947116666667, "type": "electric_scooter"}, {"bike_id": "60bf9c65d26accce42bc8cebb943e5af", "is_reserved": 0, "fusion_lon": 0.0, "lat": 38.91746933333334, "is_disabled": 0, "name": "60bf9c65d26accce42bc8cebb943e5af", "fusion_lat": 0.0, "rental_uris": {"ios": "https://dc.lft.to/lastmile_qr_scan", "android": "https://dc.lft.to/lastmile_qr_scan"}, "lon": -77.0075135, "type": "electric_scooter"}, {"bike_id": "fc4106441735619ff977ca7e76896fd3", "is_reserved": 0, "fusion_lon": 0.0, "lat": 38.906346666666664, "is_disabled": 0, "name": "fc4106441735619ff977ca7e76896fd3", "fusion_lat": 0.0, "rental_uris": {"ios": "https://dc.lft.to/lastmile_qr_scan", "android": "https://dc.lft.to/lastmile_qr_scan"}, "lon": -77.05137566666667, "type": "electric_scooter"}, {"bike_id": "3f06c4f95256b1386c8a9f2d937c7748", "is_reserved": 0, "fusion_lon": 0.0, "lat": 38.907613166666664, "is_disabled": 0, "name": "3f06c4f95256b1386c8a9f2d937c7748", "fusion_lat": 0.0, "rental_uris": {"ios": "https://dc.lft.to/lastmile_qr_scan", "android": "https://dc.lft.to/lastmile_qr_scan"}, "lon": -77.00112166666666, "type": "electric_scooter"}, {"bike_id": "23d5e0a5efcee081f0e4ef05b9ba7fc6", "is_reserved": 0, "fusion_lon": 0.0, "lat": 38.903674333333335, "is_disabled": 0, "name": "23d5e0a5efcee081f0e4ef05b9ba7fc6", "fusion_lat": 0.0, "rental_uris": {"ios": "https://dc.lft.to/lastmile_qr_scan", "android": "https://dc.lft.to/lastmile_qr_scan"}, "lon": -77.01898983333334, "type": "electric_scooter"}, {"bike_id": "1a4fcb4bcb4e491c36958913f076caeb", "is_reserved": 0, "fusion_lon": 0.0, "lat": 38.866998833333334, "is_disabled": 0, "name": "1a4fcb4bcb4e491c36958913f076caeb", "fusion_lat": 0.0, "rental_uris": {"ios": "https://dc.lft.to/lastmile_qr_scan", "android": "https://dc.lft.to/lastmile_qr_scan"}, "lon": -76.98713483333333, "type": "electric_scooter"}, {"bike_id": "9a22643421a87be6a4f2d84b5f739e99", "is_reserved": 0, "fusion_lon": 0.0, "lat": 38.94057466666667, "is_disabled": 0, "name": "9a22643421a87be6a4f2d84b5f739e99", "fusion_lat": 0.0, "rental_uris": {"ios": "https://dc.lft.to/lastmile_qr_scan", "android": "https://dc.lft.to/lastmile_qr_scan"}, "lon": -77.092692, "type": "electric_scooter"}, {"bike_id": "6d74b50ec0e33c6f1062d7b97d1e7129", "is_reserved": 0, "fusion_lon": 0.0, "lat": 38.92742783333333, "is_disabled": 0, "name": "6d74b50ec0e33c6f1062d7b97d1e7129", "fusion_lat": 0.0, "rental_uris": {"ios": "https://dc.lft.to/lastmile_qr_scan", "android": "https://dc.lft.to/lastmile_qr_scan"}, "lon": -77.0120115, "type": "electric_scooter"}, {"bike_id": "87be0076e3736b8f176066c85e6fcef1", "is_reserved": 0, "fusion_lon": 0.0, "lat": 38.9031545, "is_disabled": 0, "name": "87be0076e3736b8f176066c85e6fcef1", "fusion_lat": 0.0, "rental_uris": {"ios": "https://dc.lft.to/lastmile_qr_scan", "android": "https://dc.lft.to/lastmile_qr_scan"}, "lon": -77.03843416666666, "type": "electric_scooter"}, {"bike_id": "59a1f951e18af3ea838778d145a05c66", "is_reserved": 0, "fusion_lon": 0.0, "lat": 38.97430883333333, "is_disabled": 0, "name": "59a1f951e18af3ea838778d145a05c66", "fusion_lat": 0.0, "rental_uris": {"ios": "https://dc.lft.to/lastmile_qr_scan", "android": "https://dc.lft.to/lastmile_qr_scan"}, "lon": -77.015204, "type": "electric_scooter"}, {"bike_id": "749183bf8f312df3cea81ac1f72503df", "is_reserved": 0, "fusion_lon": 0.0, "lat": 38.914193166666664, "is_disabled": 0, "name": "749183bf8f312df3cea81ac1f72503df", "fusion_lat": 0.0, "rental_uris": {"ios": "https://dc.lft.to/lastmile_qr_scan", "android": "https://dc.lft.to/lastmile_qr_scan"}, "lon": -77.04142933333334, "type": "electric_scooter"}, {"bike_id": "fbc8969fcd6a236c4d30a91399e87dbd", "is_reserved": 0, "fusion_lon": 0.0, "lat": 38.92006266666667, "is_disabled": 0, "name": "fbc8969fcd6a236c4d30a91399e87dbd", "fusion_lat": 0.0, "rental_uris": {"ios": "https://dc.lft.to/lastmile_qr_scan", "android": "https://dc.lft.to/lastmile_qr_scan"}, "lon": -77.03885683333333, "type": "electric_scooter"}, {"bike_id": "00dc3853eb3fc36a76541bff9df94102", "is_reserved": 0, "fusion_lon": 0.0, "lat": 38.90863016666667, "is_disabled": 0, "name": "00dc3853eb3fc36a76541bff9df94102", "fusion_lat": 0.0, "rental_uris": {"ios": "https://dc.lft.to/lastmile_qr_scan", "android": "https://dc.lft.to/lastmile_qr_scan"}, "lon": -76.999427, "type": "electric_scooter"}, {"bike_id": "4e4884e713c9a5415e9fa8cec56e872c", "is_reserved": 0, "fusion_lon": 0.0, "lat": 38.91342816666667, "is_disabled": 0, "name": "4e4884e713c9a5415e9fa8cec56e872c", "fusion_lat": 0.0, "rental_uris": {"ios": "https://dc.lft.to/lastmile_qr_scan", "android": "https://dc.lft.to/lastmile_qr_scan"}, "lon": -77.03126266666666, "type": "electric_scooter"}, {"bike_id": "855c9dd88d3899fa4e1c4eb0b2ceb0ef", "is_reserved": 0, "fusion_lon": 0.0, "lat": 38.900347833333335, "is_disabled": 0, "name": "855c9dd88d3899fa4e1c4eb0b2ceb0ef", "fusion_lat": 0.0, "rental_uris": {"ios": "https://dc.lft.to/lastmile_qr_scan", "android": "https://dc.lft.to/lastmile_qr_scan"}, "lon": -77.00195, "type": "electric_scooter"}, {"bike_id": "94553492cd9afdc981e4409bc3d628d6", "is_reserved": 0, "fusion_lon": 0.0, "lat": 38.8967875, "is_disabled": 0, "name": "94553492cd9afdc981e4409bc3d628d6", "fusion_lat": 0.0, "rental_uris": {"ios": "https://dc.lft.to/lastmile_qr_scan", "android": "https://dc.lft.to/lastmile_qr_scan"}, "lon": -76.996178, "type": "electric_scooter"}, {"bike_id": "7fd9c0380e98980bb6ee05157d72041a", "is_reserved": 0, "fusion_lon": 0.0, "lat": 38.90460083333333, "is_disabled": 0, "name": "7fd9c0380e98980bb6ee05157d72041a", "fusion_lat": 0.0, "rental_uris": {"ios": "https://dc.lft.to/lastmile_qr_scan", "android": "https://dc.lft.to/lastmile_qr_scan"}, "lon": -77.01702066666667, "type": "electric_scooter"}, {"bike_id": "7b5a693172890c749f601613ca50de27", "is_reserved": 0, "fusion_lon": 0.0, "lat": 38.9432085, "is_disabled": 0, "name": "7b5a693172890c749f601613ca50de27", "fusion_lat": 0.0, "rental_uris": {"ios": "https://dc.lft.to/lastmile_qr_scan", "android": "https://dc.lft.to/lastmile_qr_scan"}, "lon": -77.07386783333334, "type": "electric_scooter"}, {"bike_id": "166ac8c00296437f29cd84918b2ed42f", "is_reserved": 0, "fusion_lon": 0.0, "lat": 38.9097975, "is_disabled": 0, "name": "166ac8c00296437f29cd84918b2ed42f", "fusion_lat": 0.0, "rental_uris": {"ios": "https://dc.lft.to/lastmile_qr_scan", "android": "https://dc.lft.to/lastmile_qr_scan"}, "lon": -77.06709466666666, "type": "electric_scooter"}, {"bike_id": "e18e9f43e47c3795e98a61fa3554d618", "is_reserved": 0, "fusion_lon": 0.0, "lat": 38.93116783333333, "is_disabled": 0, "name": "e18e9f43e47c3795e98a61fa3554d618", "fusion_lat": 0.0, "rental_uris": {"ios": "https://dc.lft.to/lastmile_qr_scan", "android": "https://dc.lft.to/lastmile_qr_scan"}, "lon": -77.0209715, "type": "electric_scooter"}, {"bike_id": "0f7c4fd44233d359310af74305ca8fc0", "is_reserved": 0, "fusion_lon": 0.0, "lat": 38.88327966666667, "is_disabled": 0, "name": "0f7c4fd44233d359310af74305ca8fc0", "fusion_lat": 0.0, "rental_uris": {"ios": "https://dc.lft.to/lastmile_qr_scan", "android": "https://dc.lft.to/lastmile_qr_scan"}, "lon": -77.01779483333334, "type": "electric_scooter"}, {"bike_id": "d6d4bdacb91e11705da41e18d2a78721", "is_reserved": 0, "fusion_lon": 0.0, "lat": 38.90567216666667, "is_disabled": 0, "name": "d6d4bdacb91e11705da41e18d2a78721", "fusion_lat": 0.0, "rental_uris": {"ios": "https://dc.lft.to/lastmile_qr_scan", "android": "https://dc.lft.to/lastmile_qr_scan"}, "lon": -77.0247255, "type": "electric_scooter"}, {"bike_id": "f4fbf3099db614ce95425ae09c788522", "is_reserved": 0, "fusion_lon": 0.0, "lat": 38.909001833333335, "is_disabled": 0, "name": "f4fbf3099db614ce95425ae09c788522", "fusion_lat": 0.0, "rental_uris": {"ios": "https://dc.lft.to/lastmile_qr_scan", "android": "https://dc.lft.to/lastmile_qr_scan"}, "lon": -77.0268905, "type": "electric_scooter"}, {"bike_id": "ce7f523f1ce5c75e275a3f0988733120", "is_reserved": 0, "fusion_lon": 0.0, "lat": 38.912826833333334, "is_disabled": 0, "name": "ce7f523f1ce5c75e275a3f0988733120", "fusion_lat": 0.0, "rental_uris": {"ios": "https://dc.lft.to/lastmile_qr_scan", "android": "https://dc.lft.to/lastmile_qr_scan"}, "lon": -77.02299433333333, "type": "electric_scooter"}, {"bike_id": "7a4ce477d7ed85e318d4fb7b0552dc13", "is_reserved": 0, "fusion_lon": 0.0, "lat": 38.91881683333333, "is_disabled": 0, "name": "7a4ce477d7ed85e318d4fb7b0552dc13", "fusion_lat": 0.0, "rental_uris": {"ios": "https://dc.lft.to/lastmile_qr_scan", "android": "https://dc.lft.to/lastmile_qr_scan"}, "lon": -76.97150033333334, "type": "electric_scooter"}, {"bike_id": "dce8bb2fe1a93c526e855e7638577758", "is_reserved": 0, "fusion_lon": 0.0, "lat": 38.91494383333333, "is_disabled": 0, "name": "dce8bb2fe1a93c526e855e7638577758", "fusion_lat": 0.0, "rental_uris": {"ios": "https://dc.lft.to/lastmile_qr_scan", "android": "https://dc.lft.to/lastmile_qr_scan"}, "lon": -77.026886, "type": "electric_scooter"}, {"bike_id": "539d87c50aa902d12cb5138a046e6dfb", "is_reserved": 0, "fusion_lon": 0.0, "lat": 38.89919716666667, "is_disabled": 0, "name": "539d87c50aa902d12cb5138a046e6dfb", "fusion_lat": 0.0, "rental_uris": {"ios": "https://dc.lft.to/lastmile_qr_scan", "android": "https://dc.lft.to/lastmile_qr_scan"}, "lon": -77.054438, "type": "electric_scooter"}, {"bike_id": "dccd67f0598f16069b8ae631ace2e37a", "is_reserved": 0, "fusion_lon": 0.0, "lat": 38.94926233333333, "is_disabled": 0, "name": "dccd67f0598f16069b8ae631ace2e37a", "fusion_lat": 0.0, "rental_uris": {"ios": "https://dc.lft.to/lastmile_qr_scan", "android": "https://dc.lft.to/lastmile_qr_scan"}, "lon": -77.019329, "type": "electric_scooter"}, {"bike_id": "92da04c28cad4998ee1d72b4b57535da", "is_reserved": 0, "fusion_lon": 0.0, "lat": 38.94616533333333, "is_disabled": 0, "name": "92da04c28cad4998ee1d72b4b57535da", "fusion_lat": 0.0, "rental_uris": {"ios": "https://dc.lft.to/lastmile_qr_scan", "android": "https://dc.lft.to/lastmile_qr_scan"}, "lon": -77.0351035, "type": "electric_scooter"}, {"bike_id": "5e7274100fb698e4a9116c0a020cd3cc", "is_reserved": 0, "fusion_lon": 0.0, "lat": 38.9133185, "is_disabled": 0, "name": "5e7274100fb698e4a9116c0a020cd3cc", "fusion_lat": 0.0, "rental_uris": {"ios": "https://dc.lft.to/lastmile_qr_scan", "android": "https://dc.lft.to/lastmile_qr_scan"}, "lon": -77.04815716666667, "type": "electric_scooter"}, {"bike_id": "9e1322da104709897374437fb64b1417", "is_reserved": 0, "fusion_lon": 0.0, "lat": 38.90011883333333, "is_disabled": 0, "name": "9e1322da104709897374437fb64b1417", "fusion_lat": 0.0, "rental_uris": {"ios": "https://dc.lft.to/lastmile_qr_scan", "android": "https://dc.lft.to/lastmile_qr_scan"}, "lon": -77.03309733333333, "type": "electric_scooter"}, {"bike_id": "8d7f002c8626352c30139ea5bc213c26", "is_reserved": 0, "fusion_lon": 0.0, "lat": 38.89841116666667, "is_disabled": 0, "name": "8d7f002c8626352c30139ea5bc213c26", "fusion_lat": 0.0, "rental_uris": {"ios": "https://dc.lft.to/lastmile_qr_scan", "android": "https://dc.lft.to/lastmile_qr_scan"}, "lon": -77.03194083333334, "type": "electric_scooter"}, {"bike_id": "686aa57189800b9d289a06ad7558861d", "is_reserved": 0, "fusion_lon": 0.0, "lat": 38.88286816666667, "is_disabled": 0, "name": "686aa57189800b9d289a06ad7558861d", "fusion_lat": 0.0, "rental_uris": {"ios": "https://dc.lft.to/lastmile_qr_scan", "android": "https://dc.lft.to/lastmile_qr_scan"}, "lon": -76.98612616666666, "type": "electric_scooter"}, {"bike_id": "de9013687593f68649f18134aa09a9e6", "is_reserved": 0, "fusion_lon": 0.0, "lat": 38.91981116666667, "is_disabled": 0, "name": "de9013687593f68649f18134aa09a9e6", "fusion_lat": 0.0, "rental_uris": {"ios": "https://dc.lft.to/lastmile_qr_scan", "android": "https://dc.lft.to/lastmile_qr_scan"}, "lon": -77.04438, "type": "electric_scooter"}, {"bike_id": "cd3fd3a5d8ad4392ef9650ca99d449b1", "is_reserved": 0, "fusion_lon": 0.0, "lat": 38.90386783333334, "is_disabled": 0, "name": "cd3fd3a5d8ad4392ef9650ca99d449b1", "fusion_lat": 0.0, "rental_uris": {"ios": "https://dc.lft.to/lastmile_qr_scan", "android": "https://dc.lft.to/lastmile_qr_scan"}, "lon": -77.04453216666667, "type": "electric_scooter"}, {"bike_id": "0546ca4e887090881ce0f6faa916c903", "is_reserved": 0, "fusion_lon": 0.0, "lat": 38.93702033333334, "is_disabled": 0, "name": "0546ca4e887090881ce0f6faa916c903", "fusion_lat": 0.0, "rental_uris": {"ios": "https://dc.lft.to/lastmile_qr_scan", "android": "https://dc.lft.to/lastmile_qr_scan"}, "lon": -77.02975483333333, "type": "electric_bike"}, {"bike_id": "880d0f5005745860b7e00c2ba5d55f72", "is_reserved": 0, "fusion_lon": 0.0, "lat": 38.9024335, "is_disabled": 0, "name": "880d0f5005745860b7e00c2ba5d55f72", "fusion_lat": 0.0, "rental_uris": {"ios": "https://dc.lft.to/lastmile_qr_scan", "android": "https://dc.lft.to/lastmile_qr_scan"}, "lon": -77.00194533333334, "type": "electric_scooter"}, {"bike_id": "da52d044c372a4ada879278923c2425e", "is_reserved": 0, "fusion_lon": 0.0, "lat": 38.941811333333334, "is_disabled": 0, "name": "da52d044c372a4ada879278923c2425e", "fusion_lat": 0.0, "rental_uris": {"ios": "https://dc.lft.to/lastmile_qr_scan", "android": "https://dc.lft.to/lastmile_qr_scan"}, "lon": -77.0365035, "type": "electric_scooter"}, {"bike_id": "066460d468b25c8b9e20945937401132", "is_reserved": 0, "fusion_lon": 0.0, "lat": 38.87836083333333, "is_disabled": 0, "name": "066460d468b25c8b9e20945937401132", "fusion_lat": 0.0, "rental_uris": {"ios": "https://dc.lft.to/lastmile_qr_scan", "android": "https://dc.lft.to/lastmile_qr_scan"}, "lon": -76.99030666666667, "type": "electric_scooter"}, {"bike_id": "f22a22c045b3781e00f3039626256cc9", "is_reserved": 0, "fusion_lon": 0.0, "lat": 38.94175633333333, "is_disabled": 0, "name": "f22a22c045b3781e00f3039626256cc9", "fusion_lat": 0.0, "rental_uris": {"ios": "https://dc.lft.to/lastmile_qr_scan", "android": "https://dc.lft.to/lastmile_qr_scan"}, "lon": -77.02498816666666, "type": "electric_scooter"}, {"bike_id": "7502b1567b36585ac95193dd804ceb09", "is_reserved": 0, "fusion_lon": 0.0, "lat": 38.84292533333333, "is_disabled": 0, "name": "7502b1567b36585ac95193dd804ceb09", "fusion_lat": 0.0, "rental_uris": {"ios": "https://dc.lft.to/lastmile_qr_scan", "android": "https://dc.lft.to/lastmile_qr_scan"}, "lon": -76.99945133333334, "type": "electric_scooter"}, {"bike_id": "e11d6e740998bc5c596327ceb0ce4643", "is_reserved": 0, "fusion_lon": 0.0, "lat": 38.905689333333335, "is_disabled": 0, "name": "e11d6e740998bc5c596327ceb0ce4643", "fusion_lat": 0.0, "rental_uris": {"ios": "https://dc.lft.to/lastmile_qr_scan", "android": "https://dc.lft.to/lastmile_qr_scan"}, "lon": -77.02188033333333, "type": "electric_scooter"}, {"bike_id": "0d317ff544a95cdb97abf416a76a0c03", "is_reserved": 0, "fusion_lon": 0.0, "lat": 38.87629666666667, "is_disabled": 0, "name": "0d317ff544a95cdb97abf416a76a0c03", "fusion_lat": 0.0, "rental_uris": {"ios": "https://dc.lft.to/lastmile_qr_scan", "android": "https://dc.lft.to/lastmile_qr_scan"}, "lon": -76.9652205, "type": "electric_scooter"}, {"bike_id": "d0b6f6c5959f457c36de38349686179e", "is_reserved": 0, "fusion_lon": 0.0, "lat": 38.9193205, "is_disabled": 0, "name": "d0b6f6c5959f457c36de38349686179e", "fusion_lat": 0.0, "rental_uris": {"ios": "https://dc.lft.to/lastmile_qr_scan", "android": "https://dc.lft.to/lastmile_qr_scan"}, "lon": -77.0317875, "type": "electric_scooter"}, {"bike_id": "a3d570e0a640aaf860212efb1cb106c5", "is_reserved": 0, "fusion_lon": 0.0, "lat": 38.88505466666667, "is_disabled": 0, "name": "a3d570e0a640aaf860212efb1cb106c5", "fusion_lat": 0.0, "rental_uris": {"ios": "https://dc.lft.to/lastmile_qr_scan", "android": "https://dc.lft.to/lastmile_qr_scan"}, "lon": -77.09691783333334, "type": "electric_bike"}, {"bike_id": "4d2afadc9c9716e64635e36131dec8b9", "is_reserved": 0, "fusion_lon": 0.0, "lat": 38.907830833333335, "is_disabled": 0, "name": "4d2afadc9c9716e64635e36131dec8b9", "fusion_lat": 0.0, "rental_uris": {"ios": "https://dc.lft.to/lastmile_qr_scan", "android": "https://dc.lft.to/lastmile_qr_scan"}, "lon": -77.06927733333333, "type": "electric_scooter"}, {"bike_id": "0a9aea90d71c1e3d8eed29de82d51588", "is_reserved": 0, "fusion_lon": 0.0, "lat": 38.92266383333333, "is_disabled": 0, "name": "0a9aea90d71c1e3d8eed29de82d51588", "fusion_lat": 0.0, "rental_uris": {"ios": "https://dc.lft.to/lastmile_qr_scan", "android": "https://dc.lft.to/lastmile_qr_scan"}, "lon": -77.01827, "type": "electric_scooter"}, {"bike_id": "915869144e3164ef14180b3268095a5d", "is_reserved": 0, "fusion_lon": 0.0, "lat": 38.904451333333334, "is_disabled": 0, "name": "915869144e3164ef14180b3268095a5d", "fusion_lat": 0.0, "rental_uris": {"ios": "https://dc.lft.to/lastmile_qr_scan", "android": "https://dc.lft.to/lastmile_qr_scan"}, "lon": -76.996236, "type": "electric_scooter"}, {"bike_id": "5d94667c0aaf160da408c978c5a610d9", "is_reserved": 0, "fusion_lon": 0.0, "lat": 38.916135, "is_disabled": 0, "name": "5d94667c0aaf160da408c978c5a610d9", "fusion_lat": 0.0, "rental_uris": {"ios": "https://dc.lft.to/lastmile_qr_scan", "android": "https://dc.lft.to/lastmile_qr_scan"}, "lon": -77.031595, "type": "electric_scooter"}, {"bike_id": "e59707b2d0f812fd89440f62f0a6521b", "is_reserved": 0, "fusion_lon": 0.0, "lat": 38.903012833333335, "is_disabled": 0, "name": "e59707b2d0f812fd89440f62f0a6521b", "fusion_lat": 0.0, "rental_uris": {"ios": "https://dc.lft.to/lastmile_qr_scan", "android": "https://dc.lft.to/lastmile_qr_scan"}, "lon": -76.99862383333334, "type": "electric_scooter"}, {"bike_id": "c1ce8199608789f6e801a639a5dc757c", "is_reserved": 0, "fusion_lon": 0.0, "lat": 38.86358333333333, "is_disabled": 0, "name": "c1ce8199608789f6e801a639a5dc757c", "fusion_lat": 0.0, "rental_uris": {"ios": "https://dc.lft.to/lastmile_qr_scan", "android": "https://dc.lft.to/lastmile_qr_scan"}, "lon": -76.99064716666666, "type": "electric_scooter"}, {"bike_id": "fc490aaab777c60454bf5e6e8eb08075", "is_reserved": 0, "fusion_lon": 0.0, "lat": 38.899557333333334, "is_disabled": 0, "name": "fc490aaab777c60454bf5e6e8eb08075", "fusion_lat": 0.0, "rental_uris": {"ios": "https://dc.lft.to/lastmile_qr_scan", "android": "https://dc.lft.to/lastmile_qr_scan"}, "lon": -77.016172, "type": "electric_scooter"}, {"bike_id": "b596f3fb81263a039bcbd27de6a57f30", "is_reserved": 0, "fusion_lon": 0.0, "lat": 38.9339605, "is_disabled": 0, "name": "b596f3fb81263a039bcbd27de6a57f30", "fusion_lat": 0.0, "rental_uris": {"ios": "https://dc.lft.to/lastmile_qr_scan", "android": "https://dc.lft.to/lastmile_qr_scan"}, "lon": -77.02063966666667, "type": "electric_scooter"}, {"bike_id": "592ac00a00cebabf370042c00eb15f47", "is_reserved": 0, "fusion_lon": 0.0, "lat": 38.900174166666666, "is_disabled": 0, "name": "592ac00a00cebabf370042c00eb15f47", "fusion_lat": 0.0, "rental_uris": {"ios": "https://dc.lft.to/lastmile_qr_scan", "android": "https://dc.lft.to/lastmile_qr_scan"}, "lon": -77.001872, "type": "electric_scooter"}, {"bike_id": "5fe59f76177ec4bb394d492595df74f9", "is_reserved": 0, "fusion_lon": 0.0, "lat": 38.952808, "is_disabled": 0, "name": "5fe59f76177ec4bb394d492595df74f9", "fusion_lat": 0.0, "rental_uris": {"ios": "https://dc.lft.to/lastmile_qr_scan", "android": "https://dc.lft.to/lastmile_qr_scan"}, "lon": -77.00788233333333, "type": "electric_scooter"}, {"bike_id": "2fd73ffdc237526650b5ef258e000811", "is_reserved": 0, "fusion_lon": 0.0, "lat": 38.9906155, "is_disabled": 0, "name": "2fd73ffdc237526650b5ef258e000811", "fusion_lat": 0.0, "rental_uris": {"ios": "https://dc.lft.to/lastmile_qr_scan", "android": "https://dc.lft.to/lastmile_qr_scan"}, "lon": -77.1002435, "type": "electric_bike"}, {"bike_id": "0f34e8689fe365234919077860a2ece3", "is_reserved": 0, "fusion_lon": 0.0, "lat": 38.900049833333334, "is_disabled": 0, "name": "0f34e8689fe365234919077860a2ece3", "fusion_lat": 0.0, "rental_uris": {"ios": "https://dc.lft.to/lastmile_qr_scan", "android": "https://dc.lft.to/lastmile_qr_scan"}, "lon": -76.99783533333333, "type": "electric_scooter"}, {"bike_id": "8a29708b2bb8ca86c4685c0c309a7d47", "is_reserved": 0, "fusion_lon": 0.0, "lat": 38.87234816666667, "is_disabled": 0, "name": "8a29708b2bb8ca86c4685c0c309a7d47", "fusion_lat": 0.0, "rental_uris": {"ios": "https://dc.lft.to/lastmile_qr_scan", "android": "https://dc.lft.to/lastmile_qr_scan"}, "lon": -77.0116685, "type": "electric_bike"}, {"bike_id": "cdc5000019f3cf6e4c8f38997a0337ac", "is_reserved": 0, "fusion_lon": 0.0, "lat": 38.92436816666667, "is_disabled": 0, "name": "cdc5000019f3cf6e4c8f38997a0337ac", "fusion_lat": 0.0, "rental_uris": {"ios": "https://dc.lft.to/lastmile_qr_scan", "android": "https://dc.lft.to/lastmile_qr_scan"}, "lon": -77.03999533333334, "type": "electric_scooter"}, {"bike_id": "004654100671c9b312287a9fb5130f54", "is_reserved": 0, "fusion_lon": 0.0, "lat": 38.853194, "is_disabled": 0, "name": "004654100671c9b312287a9fb5130f54", "fusion_lat": 0.0, "rental_uris": {"ios": "https://dc.lft.to/lastmile_qr_scan", "android": "https://dc.lft.to/lastmile_qr_scan"}, "lon": -76.9800125, "type": "electric_scooter"}, {"bike_id": "a931e438196f55380633c05ffb512898", "is_reserved": 0, "fusion_lon": 0.0, "lat": 38.94047233333333, "is_disabled": 0, "name": "a931e438196f55380633c05ffb512898", "fusion_lat": 0.0, "rental_uris": {"ios": "https://dc.lft.to/lastmile_qr_scan", "android": "https://dc.lft.to/lastmile_qr_scan"}, "lon": -77.02979133333334, "type": "electric_scooter"}, {"bike_id": "4ede565d50092c716510deee8c9a3056", "is_reserved": 0, "fusion_lon": 0.0, "lat": 38.92265116666667, "is_disabled": 0, "name": "4ede565d50092c716510deee8c9a3056", "fusion_lat": 0.0, "rental_uris": {"ios": "https://dc.lft.to/lastmile_qr_scan", "android": "https://dc.lft.to/lastmile_qr_scan"}, "lon": -77.04125133333334, "type": "electric_scooter"}, {"bike_id": "1ec4addf08d1af91db63a4548c312536", "is_reserved": 0, "fusion_lon": 0.0, "lat": 38.920863, "is_disabled": 0, "name": "1ec4addf08d1af91db63a4548c312536", "fusion_lat": 0.0, "rental_uris": {"ios": "https://dc.lft.to/lastmile_qr_scan", "android": "https://dc.lft.to/lastmile_qr_scan"}, "lon": -76.9990215, "type": "electric_scooter"}, {"bike_id": "fd92c8ac8657ece717d1dfe08fa3301a", "is_reserved": 0, "fusion_lon": 0.0, "lat": 38.91880483333333, "is_disabled": 0, "name": "fd92c8ac8657ece717d1dfe08fa3301a", "fusion_lat": 0.0, "rental_uris": {"ios": "https://dc.lft.to/lastmile_qr_scan", "android": "https://dc.lft.to/lastmile_qr_scan"}, "lon": -77.03508416666666, "type": "electric_scooter"}, {"bike_id": "1ee046f4e9191b5266d56df78511349f", "is_reserved": 0, "fusion_lon": 0.0, "lat": 38.920501333333334, "is_disabled": 0, "name": "1ee046f4e9191b5266d56df78511349f", "fusion_lat": 0.0, "rental_uris": {"ios": "https://dc.lft.to/lastmile_qr_scan", "android": "https://dc.lft.to/lastmile_qr_scan"}, "lon": -76.99816566666667, "type": "electric_scooter"}, {"bike_id": "020a5bf0d58e11479d1b4922e3c808c3", "is_reserved": 0, "fusion_lon": 0.0, "lat": 38.9241795, "is_disabled": 0, "name": "020a5bf0d58e11479d1b4922e3c808c3", "fusion_lat": 0.0, "rental_uris": {"ios": "https://dc.lft.to/lastmile_qr_scan", "android": "https://dc.lft.to/lastmile_qr_scan"}, "lon": -77.0355785, "type": "electric_scooter"}, {"bike_id": "b6c37e097dcdf879b21b91b1029ecbed", "is_reserved": 0, "fusion_lon": 0.0, "lat": 38.91807716666667, "is_disabled": 0, "name": "b6c37e097dcdf879b21b91b1029ecbed", "fusion_lat": 0.0, "rental_uris": {"ios": "https://dc.lft.to/lastmile_qr_scan", "android": "https://dc.lft.to/lastmile_qr_scan"}, "lon": -77.03446433333333, "type": "electric_scooter"}, {"bike_id": "b8b437ac9b8e50e7841fff186839fd4a", "is_reserved": 0, "fusion_lon": 0.0, "lat": 38.93948916666667, "is_disabled": 0, "name": "b8b437ac9b8e50e7841fff186839fd4a", "fusion_lat": 0.0, "rental_uris": {"ios": "https://dc.lft.to/lastmile_qr_scan", "android": "https://dc.lft.to/lastmile_qr_scan"}, "lon": -77.03260516666667, "type": "electric_scooter"}, {"bike_id": "17307b3925e57e1768fd2b82a3af38d3", "is_reserved": 0, "fusion_lon": 0.0, "lat": 38.917173, "is_disabled": 0, "name": "17307b3925e57e1768fd2b82a3af38d3", "fusion_lat": 0.0, "rental_uris": {"ios": "https://dc.lft.to/lastmile_qr_scan", "android": "https://dc.lft.to/lastmile_qr_scan"}, "lon": -77.01206066666667, "type": "electric_scooter"}, {"bike_id": "f13494d6cc7b8b1fdf3e60e7c94e4c16", "is_reserved": 0, "fusion_lon": 0.0, "lat": 38.92953683333333, "is_disabled": 0, "name": "f13494d6cc7b8b1fdf3e60e7c94e4c16", "fusion_lat": 0.0, "rental_uris": {"ios": "https://dc.lft.to/lastmile_qr_scan", "android": "https://dc.lft.to/lastmile_qr_scan"}, "lon": -77.04401116666666, "type": "electric_scooter"}, {"bike_id": "5801ec1511b2802c9dbdb7593907388c", "is_reserved": 0, "fusion_lon": 0.0, "lat": 38.8023, "is_disabled": 0, "name": "5801ec1511b2802c9dbdb7593907388c", "fusion_lat": 0.0, "rental_uris": {"ios": "https://dc.lft.to/lastmile_qr_scan", "android": "https://dc.lft.to/lastmile_qr_scan"}, "lon": -77.07917283333333, "type": "electric_bike"}, {"bike_id": "f36421f74c337522f9fb71619b0f6b7f", "is_reserved": 0, "fusion_lon": 0.0, "lat": 38.9014515, "is_disabled": 0, "name": "f36421f74c337522f9fb71619b0f6b7f", "fusion_lat": 0.0, "rental_uris": {"ios": "https://dc.lft.to/lastmile_qr_scan", "android": "https://dc.lft.to/lastmile_qr_scan"}, "lon": -77.0332835, "type": "electric_scooter"}, {"bike_id": "771f98558981b5d1a674378fd0312bf2", "is_reserved": 0, "fusion_lon": 0.0, "lat": 38.95882483333333, "is_disabled": 0, "name": "771f98558981b5d1a674378fd0312bf2", "fusion_lat": 0.0, "rental_uris": {"ios": "https://dc.lft.to/lastmile_qr_scan", "android": "https://dc.lft.to/lastmile_qr_scan"}, "lon": -77.01034933333334, "type": "electric_bike"}, {"bike_id": "5b8ae23b26ea71c169afaa7e275f70c4", "is_reserved": 0, "fusion_lon": 0.0, "lat": 38.90688266666667, "is_disabled": 0, "name": "5b8ae23b26ea71c169afaa7e275f70c4", "fusion_lat": 0.0, "rental_uris": {"ios": "https://dc.lft.to/lastmile_qr_scan", "android": "https://dc.lft.to/lastmile_qr_scan"}, "lon": -76.9518625, "type": "electric_bike"}, {"bike_id": "40010d0b0dfd8ea50f0fa003061d92eb", "is_reserved": 0, "fusion_lon": 0.0, "lat": 38.93202633333333, "is_disabled": 0, "name": "40010d0b0dfd8ea50f0fa003061d92eb", "fusion_lat": 0.0, "rental_uris": {"ios": "https://dc.lft.to/lastmile_qr_scan", "android": "https://dc.lft.to/lastmile_qr_scan"}, "lon": -77.03872066666666, "type": "electric_scooter"}, {"bike_id": "57500d04a4be1369e19307e9ec00aaf4", "is_reserved": 0, "fusion_lon": 0.0, "lat": 38.944177833333335, "is_disabled": 0, "name": "57500d04a4be1369e19307e9ec00aaf4", "fusion_lat": 0.0, "rental_uris": {"ios": "https://dc.lft.to/lastmile_qr_scan", "android": "https://dc.lft.to/lastmile_qr_scan"}, "lon": -77.05520483333333, "type": "electric_scooter"}, {"bike_id": "c1a5c999e7682d10d3cbf782e4d7d61f", "is_reserved": 0, "fusion_lon": 0.0, "lat": 38.8948675, "is_disabled": 0, "name": "c1a5c999e7682d10d3cbf782e4d7d61f", "fusion_lat": 0.0, "rental_uris": {"ios": "https://dc.lft.to/lastmile_qr_scan", "android": "https://dc.lft.to/lastmile_qr_scan"}, "lon": -77.02297133333333, "type": "electric_scooter"}, {"bike_id": "1023521ee5baf5dd528caa55a6f7b790", "is_reserved": 0, "fusion_lon": 0.0, "lat": 38.9047285, "is_disabled": 0, "name": "1023521ee5baf5dd528caa55a6f7b790", "fusion_lat": 0.0, "rental_uris": {"ios": "https://dc.lft.to/lastmile_qr_scan", "android": "https://dc.lft.to/lastmile_qr_scan"}, "lon": -77.03245366666667, "type": "electric_scooter"}, {"bike_id": "9b064c885a8cc03dbc0fe5bf7b23173b", "is_reserved": 0, "fusion_lon": 0.0, "lat": 38.939499166666664, "is_disabled": 0, "name": "9b064c885a8cc03dbc0fe5bf7b23173b", "fusion_lat": 0.0, "rental_uris": {"ios": "https://dc.lft.to/lastmile_qr_scan", "android": "https://dc.lft.to/lastmile_qr_scan"}, "lon": -77.07241116666667, "type": "electric_scooter"}, {"bike_id": "4dcce0c7900ee8775049b51d4dc43088", "is_reserved": 0, "fusion_lon": 0.0, "lat": 38.90272433333333, "is_disabled": 0, "name": "4dcce0c7900ee8775049b51d4dc43088", "fusion_lat": 0.0, "rental_uris": {"ios": "https://dc.lft.to/lastmile_qr_scan", "android": "https://dc.lft.to/lastmile_qr_scan"}, "lon": -77.02803883333333, "type": "electric_scooter"}, {"bike_id": "b0081220b0a50710d6ea1948fea69072", "is_reserved": 0, "fusion_lon": 0.0, "lat": 38.896083, "is_disabled": 0, "name": "b0081220b0a50710d6ea1948fea69072", "fusion_lat": 0.0, "rental_uris": {"ios": "https://dc.lft.to/lastmile_qr_scan", "android": "https://dc.lft.to/lastmile_qr_scan"}, "lon": -76.9845265, "type": "electric_scooter"}, {"bike_id": "8ea7fd566d510d18877f938025b90914", "is_reserved": 0, "fusion_lon": 0.0, "lat": 38.901181, "is_disabled": 0, "name": "8ea7fd566d510d18877f938025b90914", "fusion_lat": 0.0, "rental_uris": {"ios": "https://dc.lft.to/lastmile_qr_scan", "android": "https://dc.lft.to/lastmile_qr_scan"}, "lon": -77.043228, "type": "electric_scooter"}, {"bike_id": "2493c3d1c383dd0fc0b19bf327626bb9", "is_reserved": 0, "fusion_lon": 0.0, "lat": 38.9095885, "is_disabled": 0, "name": "2493c3d1c383dd0fc0b19bf327626bb9", "fusion_lat": 0.0, "rental_uris": {"ios": "https://dc.lft.to/lastmile_qr_scan", "android": "https://dc.lft.to/lastmile_qr_scan"}, "lon": -77.04861366666667, "type": "electric_scooter"}, {"bike_id": "df28b487c8cd0604bab697cde9470b20", "is_reserved": 0, "fusion_lon": 0.0, "lat": 39.038854, "is_disabled": 0, "name": "df28b487c8cd0604bab697cde9470b20", "fusion_lat": 0.0, "rental_uris": {"ios": "https://dc.lft.to/lastmile_qr_scan", "android": "https://dc.lft.to/lastmile_qr_scan"}, "lon": -76.9904065, "type": "electric_bike"}, {"bike_id": "29252126160948bee489f37b51dacc7c", "is_reserved": 0, "fusion_lon": 0.0, "lat": 38.9143055, "is_disabled": 0, "name": "29252126160948bee489f37b51dacc7c", "fusion_lat": 0.0, "rental_uris": {"ios": "https://dc.lft.to/lastmile_qr_scan", "android": "https://dc.lft.to/lastmile_qr_scan"}, "lon": -77.0448795, "type": "electric_scooter"}, {"bike_id": "551cfd216b7d2911418439faa58dea33", "is_reserved": 0, "fusion_lon": 0.0, "lat": 38.89224166666666, "is_disabled": 0, "name": "551cfd216b7d2911418439faa58dea33", "fusion_lat": 0.0, "rental_uris": {"ios": "https://dc.lft.to/lastmile_qr_scan", "android": "https://dc.lft.to/lastmile_qr_scan"}, "lon": -77.02444283333334, "type": "electric_scooter"}, {"bike_id": "abc22a0a510f48fa46475e97abb12d9b", "is_reserved": 0, "fusion_lon": 0.0, "lat": 38.906150333333336, "is_disabled": 0, "name": "abc22a0a510f48fa46475e97abb12d9b", "fusion_lat": 0.0, "rental_uris": {"ios": "https://dc.lft.to/lastmile_qr_scan", "android": "https://dc.lft.to/lastmile_qr_scan"}, "lon": -77.07486166666666, "type": "electric_scooter"}, {"bike_id": "8e2f02544eb2243a2fa41f8f0d054d11", "is_reserved": 0, "fusion_lon": 0.0, "lat": 38.906039, "is_disabled": 0, "name": "8e2f02544eb2243a2fa41f8f0d054d11", "fusion_lat": 0.0, "rental_uris": {"ios": "https://dc.lft.to/lastmile_qr_scan", "android": "https://dc.lft.to/lastmile_qr_scan"}, "lon": -77.04027283333333, "type": "electric_scooter"}, {"bike_id": "c6a3e8c243ee911729525d846b5077da", "is_reserved": 0, "fusion_lon": 0.0, "lat": 38.92215, "is_disabled": 0, "name": "c6a3e8c243ee911729525d846b5077da", "fusion_lat": 0.0, "rental_uris": {"ios": "https://dc.lft.to/lastmile_qr_scan", "android": "https://dc.lft.to/lastmile_qr_scan"}, "lon": -77.04252816666667, "type": "electric_scooter"}, {"bike_id": "7fae1fc0920e46bddf4cfd1c0b4527a3", "is_reserved": 0, "fusion_lon": 0.0, "lat": 38.933777666666664, "is_disabled": 0, "name": "7fae1fc0920e46bddf4cfd1c0b4527a3", "fusion_lat": 0.0, "rental_uris": {"ios": "https://dc.lft.to/lastmile_qr_scan", "android": "https://dc.lft.to/lastmile_qr_scan"}, "lon": -77.03464716666667, "type": "electric_scooter"}, {"bike_id": "24879b6885c833b687f0f219989ef145", "is_reserved": 0, "fusion_lon": 0.0, "lat": 38.94832666666667, "is_disabled": 0, "name": "24879b6885c833b687f0f219989ef145", "fusion_lat": 0.0, "rental_uris": {"ios": "https://dc.lft.to/lastmile_qr_scan", "android": "https://dc.lft.to/lastmile_qr_scan"}, "lon": -77.0389975, "type": "electric_bike"}, {"bike_id": "2b22124ee5b09d9fc035c4fb2ea3dae3", "is_reserved": 0, "fusion_lon": 0.0, "lat": 38.9173055, "is_disabled": 0, "name": "2b22124ee5b09d9fc035c4fb2ea3dae3", "fusion_lat": 0.0, "rental_uris": {"ios": "https://dc.lft.to/lastmile_qr_scan", "android": "https://dc.lft.to/lastmile_qr_scan"}, "lon": -77.06832266666666, "type": "electric_scooter"}, {"bike_id": "73fe0431dcb22511b933917ed54fc23d", "is_reserved": 0, "fusion_lon": 0.0, "lat": 38.938955666666665, "is_disabled": 0, "name": "73fe0431dcb22511b933917ed54fc23d", "fusion_lat": 0.0, "rental_uris": {"ios": "https://dc.lft.to/lastmile_qr_scan", "android": "https://dc.lft.to/lastmile_qr_scan"}, "lon": -77.07722783333334, "type": "electric_scooter"}, {"bike_id": "140d0610f8dccaf6c08e71b1dbcee61c", "is_reserved": 0, "fusion_lon": 0.0, "lat": 38.894803833333334, "is_disabled": 0, "name": "140d0610f8dccaf6c08e71b1dbcee61c", "fusion_lat": 0.0, "rental_uris": {"ios": "https://dc.lft.to/lastmile_qr_scan", "android": "https://dc.lft.to/lastmile_qr_scan"}, "lon": -77.03080333333334, "type": "electric_scooter"}, {"bike_id": "6aa7498506e7d67f3ed1809c09451ee5", "is_reserved": 0, "fusion_lon": 0.0, "lat": 38.92754333333333, "is_disabled": 0, "name": "6aa7498506e7d67f3ed1809c09451ee5", "fusion_lat": 0.0, "rental_uris": {"ios": "https://dc.lft.to/lastmile_qr_scan", "android": "https://dc.lft.to/lastmile_qr_scan"}, "lon": -77.0537925, "type": "electric_scooter"}, {"bike_id": "358bed939f8e431eeddfa1ed0a234c5e", "is_reserved": 0, "fusion_lon": 0.0, "lat": 38.90272133333333, "is_disabled": 0, "name": "358bed939f8e431eeddfa1ed0a234c5e", "fusion_lat": 0.0, "rental_uris": {"ios": "https://dc.lft.to/lastmile_qr_scan", "android": "https://dc.lft.to/lastmile_qr_scan"}, "lon": -77.03849933333333, "type": "electric_scooter"}, {"bike_id": "be99704502a173997644f9383a12f0f0", "is_reserved": 0, "fusion_lon": 0.0, "lat": 38.9025735, "is_disabled": 0, "name": "be99704502a173997644f9383a12f0f0", "fusion_lat": 0.0, "rental_uris": {"ios": "https://dc.lft.to/lastmile_qr_scan", "android": "https://dc.lft.to/lastmile_qr_scan"}, "lon": -77.03960133333334, "type": "electric_scooter"}, {"bike_id": "eba3b5992687c1bd10e14780a42b944f", "is_reserved": 0, "fusion_lon": 0.0, "lat": 38.912085, "is_disabled": 0, "name": "eba3b5992687c1bd10e14780a42b944f", "fusion_lat": 0.0, "rental_uris": {"ios": "https://dc.lft.to/lastmile_qr_scan", "android": "https://dc.lft.to/lastmile_qr_scan"}, "lon": -77.02953083333334, "type": "electric_scooter"}, {"bike_id": "96f2a29fb09a567e1491ad248adb18e0", "is_reserved": 0, "fusion_lon": 0.0, "lat": 38.91123783333333, "is_disabled": 0, "name": "96f2a29fb09a567e1491ad248adb18e0", "fusion_lat": 0.0, "rental_uris": {"ios": "https://dc.lft.to/lastmile_qr_scan", "android": "https://dc.lft.to/lastmile_qr_scan"}, "lon": -77.03738233333333, "type": "electric_scooter"}, {"bike_id": "154988a229145e5677eb2fb43adcf463", "is_reserved": 0, "fusion_lon": 0.0, "lat": 38.975167, "is_disabled": 0, "name": "154988a229145e5677eb2fb43adcf463", "fusion_lat": 0.0, "rental_uris": {"ios": "https://dc.lft.to/lastmile_qr_scan", "android": "https://dc.lft.to/lastmile_qr_scan"}, "lon": -77.017418, "type": "electric_scooter"}, {"bike_id": "5f8b04e2eb0c4a7e1404dce4e0fe6e7f", "is_reserved": 0, "fusion_lon": 0.0, "lat": 38.93511183333333, "is_disabled": 0, "name": "5f8b04e2eb0c4a7e1404dce4e0fe6e7f", "fusion_lat": 0.0, "rental_uris": {"ios": "https://dc.lft.to/lastmile_qr_scan", "android": "https://dc.lft.to/lastmile_qr_scan"}, "lon": -77.03299466666667, "type": "electric_scooter"}, {"bike_id": "72aecc5febc69b17b281de527fd44bfb", "is_reserved": 0, "fusion_lon": 0.0, "lat": 38.910472166666665, "is_disabled": 0, "name": "72aecc5febc69b17b281de527fd44bfb", "fusion_lat": 0.0, "rental_uris": {"ios": "https://dc.lft.to/lastmile_qr_scan", "android": "https://dc.lft.to/lastmile_qr_scan"}, "lon": -77.02218933333333, "type": "electric_scooter"}, {"bike_id": "56874a109f3ddf5fc929f6378f9bebb7", "is_reserved": 0, "fusion_lon": 0.0, "lat": 38.90665583333333, "is_disabled": 0, "name": "56874a109f3ddf5fc929f6378f9bebb7", "fusion_lat": 0.0, "rental_uris": {"ios": "https://dc.lft.to/lastmile_qr_scan", "android": "https://dc.lft.to/lastmile_qr_scan"}, "lon": -77.009508, "type": "electric_scooter"}, {"bike_id": "4f5f51d69a9fe11959637cb1f128f60e", "is_reserved": 0, "fusion_lon": 0.0, "lat": 38.84291833333333, "is_disabled": 0, "name": "4f5f51d69a9fe11959637cb1f128f60e", "fusion_lat": 0.0, "rental_uris": {"ios": "https://dc.lft.to/lastmile_qr_scan", "android": "https://dc.lft.to/lastmile_qr_scan"}, "lon": -76.99946233333333, "type": "electric_scooter"}, {"bike_id": "695f4a1d64fc9a0c0cca73c1bfdc40db", "is_reserved": 0, "fusion_lon": 0.0, "lat": 38.886729, "is_disabled": 0, "name": "695f4a1d64fc9a0c0cca73c1bfdc40db", "fusion_lat": 0.0, "rental_uris": {"ios": "https://dc.lft.to/lastmile_qr_scan", "android": "https://dc.lft.to/lastmile_qr_scan"}, "lon": -77.01373416666667, "type": "electric_scooter"}, {"bike_id": "23f775460b42ba2352c82541bec7f410", "is_reserved": 0, "fusion_lon": 0.0, "lat": 38.9055975, "is_disabled": 0, "name": "23f775460b42ba2352c82541bec7f410", "fusion_lat": 0.0, "rental_uris": {"ios": "https://dc.lft.to/lastmile_qr_scan", "android": "https://dc.lft.to/lastmile_qr_scan"}, "lon": -77.01671216666666, "type": "electric_scooter"}, {"bike_id": "0495c1500e657a545e084950263659a7", "is_reserved": 0, "fusion_lon": 0.0, "lat": 38.921282166666664, "is_disabled": 0, "name": "0495c1500e657a545e084950263659a7", "fusion_lat": 0.0, "rental_uris": {"ios": "https://dc.lft.to/lastmile_qr_scan", "android": "https://dc.lft.to/lastmile_qr_scan"}, "lon": -77.02201533333333, "type": "electric_scooter"}, {"bike_id": "91fbc49185fc1a45689594967cd9c8e5", "is_reserved": 0, "fusion_lon": 0.0, "lat": 38.852469166666666, "is_disabled": 0, "name": "91fbc49185fc1a45689594967cd9c8e5", "fusion_lat": 0.0, "rental_uris": {"ios": "https://dc.lft.to/lastmile_qr_scan", "android": "https://dc.lft.to/lastmile_qr_scan"}, "lon": -77.114255, "type": "electric_bike"}, {"bike_id": "63a460c3a44d66875f28c025fbfcc183", "is_reserved": 0, "fusion_lon": 0.0, "lat": 38.936758166666664, "is_disabled": 0, "name": "63a460c3a44d66875f28c025fbfcc183", "fusion_lat": 0.0, "rental_uris": {"ios": "https://dc.lft.to/lastmile_qr_scan", "android": "https://dc.lft.to/lastmile_qr_scan"}, "lon": -77.03591983333334, "type": "electric_scooter"}, {"bike_id": "c64b904f3a26140b20014112bdb8973c", "is_reserved": 0, "fusion_lon": 0.0, "lat": 38.924838333333334, "is_disabled": 0, "name": "c64b904f3a26140b20014112bdb8973c", "fusion_lat": 0.0, "rental_uris": {"ios": "https://dc.lft.to/lastmile_qr_scan", "android": "https://dc.lft.to/lastmile_qr_scan"}, "lon": -77.02713733333333, "type": "electric_scooter"}, {"bike_id": "fa75c059aef24db46a892fd812189d3d", "is_reserved": 0, "fusion_lon": 0.0, "lat": 38.92110533333334, "is_disabled": 0, "name": "fa75c059aef24db46a892fd812189d3d", "fusion_lat": 0.0, "rental_uris": {"ios": "https://dc.lft.to/lastmile_qr_scan", "android": "https://dc.lft.to/lastmile_qr_scan"}, "lon": -77.04365416666667, "type": "electric_scooter"}, {"bike_id": "2ef872544876e96075b9b9129950e4c6", "is_reserved": 0, "fusion_lon": 0.0, "lat": 38.921593, "is_disabled": 0, "name": "2ef872544876e96075b9b9129950e4c6", "fusion_lat": 0.0, "rental_uris": {"ios": "https://dc.lft.to/lastmile_qr_scan", "android": "https://dc.lft.to/lastmile_qr_scan"}, "lon": -77.018115, "type": "electric_scooter"}, {"bike_id": "0724113a3afe0bf8ebb400ffd7e49f3f", "is_reserved": 0, "fusion_lon": 0.0, "lat": 38.86457766666667, "is_disabled": 0, "name": "0724113a3afe0bf8ebb400ffd7e49f3f", "fusion_lat": 0.0, "rental_uris": {"ios": "https://dc.lft.to/lastmile_qr_scan", "android": "https://dc.lft.to/lastmile_qr_scan"}, "lon": -76.94551983333334, "type": "electric_bike"}, {"bike_id": "c87fc3301fb52a10d578f1c2d4cd7c2b", "is_reserved": 0, "fusion_lon": 0.0, "lat": 38.89815933333333, "is_disabled": 0, "name": "c87fc3301fb52a10d578f1c2d4cd7c2b", "fusion_lat": 0.0, "rental_uris": {"ios": "https://dc.lft.to/lastmile_qr_scan", "android": "https://dc.lft.to/lastmile_qr_scan"}, "lon": -77.03280466666666, "type": "electric_scooter"}, {"bike_id": "a5bda5be9bc10d885576b85b9237c9f3", "is_reserved": 0, "fusion_lon": 0.0, "lat": 38.9012255, "is_disabled": 0, "name": "a5bda5be9bc10d885576b85b9237c9f3", "fusion_lat": 0.0, "rental_uris": {"ios": "https://dc.lft.to/lastmile_qr_scan", "android": "https://dc.lft.to/lastmile_qr_scan"}, "lon": -77.04355416666667, "type": "electric_scooter"}, {"bike_id": "23d9f907d4d2c07d208636f85ac2b0ed", "is_reserved": 0, "fusion_lon": 0.0, "lat": 38.922099833333334, "is_disabled": 0, "name": "23d9f907d4d2c07d208636f85ac2b0ed", "fusion_lat": 0.0, "rental_uris": {"ios": "https://dc.lft.to/lastmile_qr_scan", "android": "https://dc.lft.to/lastmile_qr_scan"}, "lon": -77.03655633333334, "type": "electric_scooter"}, {"bike_id": "a1abafb6446ce4eaa7f8401f1fdfaeb2", "is_reserved": 0, "fusion_lon": 0.0, "lat": 38.91983333333334, "is_disabled": 0, "name": "a1abafb6446ce4eaa7f8401f1fdfaeb2", "fusion_lat": 0.0, "rental_uris": {"ios": "https://dc.lft.to/lastmile_qr_scan", "android": "https://dc.lft.to/lastmile_qr_scan"}, "lon": -77.02391916666667, "type": "electric_scooter"}, {"bike_id": "5bbd265e8742f878291bbd85e9e2cb25", "is_reserved": 0, "fusion_lon": 0.0, "lat": 38.92990616666667, "is_disabled": 0, "name": "5bbd265e8742f878291bbd85e9e2cb25", "fusion_lat": 0.0, "rental_uris": {"ios": "https://dc.lft.to/lastmile_qr_scan", "android": "https://dc.lft.to/lastmile_qr_scan"}, "lon": -77.07947466666667, "type": "electric_scooter"}, {"bike_id": "650cbbd945e75069bde6663312e12cc5", "is_reserved": 0, "fusion_lon": 0.0, "lat": 38.92172033333333, "is_disabled": 0, "name": "650cbbd945e75069bde6663312e12cc5", "fusion_lat": 0.0, "rental_uris": {"ios": "https://dc.lft.to/lastmile_qr_scan", "android": "https://dc.lft.to/lastmile_qr_scan"}, "lon": -76.993946, "type": "electric_scooter"},