{"data": {"bikes": [{"is_disabled": 0, "is_reserved": 0, "type": "electric_scooter", "lon": -77.01403533333334, "fusion_lon": 0.0, "lat": 38.92857, "rental_uris": {"android": "https://dc.lft.to/lastmile_qr_scan", "ios": "https://dc.lft.to/lastmile_qr_scan"}, "fusion_lat": 0.0, "name": "e80a62814f8e9d678667139af7c108c1", "bike_id": "e80a62814f8e9d678667139af7c108c1"}, {"is_disabled": 0, "is_reserved": 0, "type": "electric_scooter", "lon": -77.0123815, "fusion_lon": 0.0, "lat": 38.874745, "rental_uris": {"android": "https://dc.lft.to/lastmile_qr_scan", "ios": "https://dc.lft.to/lastmile_qr_scan"}, "fusion_lat": 0.0, "name": "400dc62399c6e4177d93b33b46974f98", "bike_id": "400dc62399c6e4177d93b33b46974f98"}, {"is_disabled": 0, "is_reserved": 0, "type": "electric_bike", "lon": -77.1623305, "fusion_lon": 0.0, "lat": 38.886587, "rental_uris": {"android": "https://dc.lft.to/lastmile_qr_scan", "ios": "https://dc.lft.to/lastmile_qr_scan"}, "fusion_lat": 0.0, "name": "94480486880a98db1b722eb1069872d8", "bike_id": "94480486880a98db1b722eb1069872d8"}, {"is_disabled": 0, "is_reserved": 0, "type": "electric_scooter", "lon": -77.00381983333334, "fusion_lon": 0.0, "lat": 38.8763575, "rental_uris": {"android": "https://dc.lft.to/lastmile_qr_scan", "ios": "https://dc.lft.to/lastmile_qr_scan"}, "fusion_lat": 0.0, "name": "197eac7259f6354431d695cf8695733c", "bike_id": "197eac7259f6354431d695cf8695733c"}, {"is_disabled": 0, "is_reserved": 0, "type": "electric_scooter", "lon": -77.00758533333334, "fusion_lon": 0.0, "lat": 38.900470166666665, "rental_uris": {"android": "https://dc.lft.to/lastmile_qr_scan", "ios": "https://dc.lft.to/lastmile_qr_scan"}, "fusion_lat": 0.0, "name": "3278e5f6abba1af3567428f2a651b31e", "bike_id": "3278e5f6abba1af3567428f2a651b31e"}, {"is_disabled": 0, "is_reserved": 0, "type": "electric_scooter", "lon": -77.063519, "fusion_lon": 0.0, "lat": 38.94447, "rental_uris": {"android": "https://dc.lft.to/lastmile_qr_scan", "ios": "https://dc.lft.to/lastmile_qr_scan"}, "fusion_lat": 0.0, "name": "dc3913c871d016692fc8283005d27224", "bike_id": "dc3913c871d016692fc8283005d27224"}, {"is_disabled": 0, "is_reserved": 0, "type": "electric_scooter", "lon": -76.995382, "fusion_lon": 0.0, "lat": 38.862530166666666, "rental_uris": {"android": "https://dc.lft.to/lastmile_qr_scan", "ios": "https://dc.lft.to/lastmile_qr_scan"}, "fusion_lat": 0.0, "name": "616eee343b81b2ede65127d823955afc", "bike_id": "616eee343b81b2ede65127d823955afc"}, {"is_disabled": 0, "is_reserved": 0, "type": "electric_scooter", "lon": -77.02468866666666, "fusion_lon": 0.0, "lat": 38.93771483333333, "rental_uris": {"android": "https://dc.lft.to/lastmile_qr_scan", "ios": "https://dc.lft.to/lastmile_qr_scan"}, "fusion_lat": 0.0, "name": "a52d35e5471767110066be30c9bc4962", "bike_id": "a52d35e5471767110066be30c9bc4962"}, {"is_disabled": 0, "is_reserved": 0, "type": "electric_scooter", "lon": -77.04609583333334, "fusion_lon": 0.0, "lat": 38.8996525, "rental_uris": {"android": "https://dc.lft.to/lastmile_qr_scan", "ios": "https://dc.lft.to/lastmile_qr_scan"}, "fusion_lat": 0.0, "name": "231cd3ba2d6a0572d784a16987ed6ede", "bike_id": "231cd3ba2d6a0572d784a16987ed6ede"}, {"is_disabled": 0, "is_reserved": 0, "type": "electric_scooter", "lon": -77.02154016666667, "fusion_lon": 0.0, "lat": 38.930805, "rental_uris": {"android": "https://dc.lft.to/lastmile_qr_scan", "ios": "https://dc.lft.to/lastmile_qr_scan"}, "fusion_lat": 0.0, "name": "d5e108c99d03294d5253d627e0dc7f36", "bike_id": "d5e108c99d03294d5253d627e0dc7f36"}, {"is_disabled": 0, "is_reserved": 0, "type": "electric_scooter", "lon": -76.94117716666666, "fusion_lon": 0.0, "lat": 38.90788916666666, "rental_uris": {"android": "https://dc.lft.to/lastmile_qr_scan", "ios": "https://dc.lft.to/lastmile_qr_scan"}, "fusion_lat": 0.0, "name": "3ae5781763b1f862ae00763df3fdebb8", "bike_id": "3ae5781763b1f862ae00763df3fdebb8"}, {"is_disabled": 0, "is_reserved": 0, "type": "electric_scooter", "lon": -77.0418515, "fusion_lon": 0.0, "lat": 38.9080165, "rental_uris": {"android": "https://dc.lft.to/lastmile_qr_scan", "ios": "https://dc.lft.to/lastmile_qr_scan"}, "fusion_lat": 0.0, "name": "ea83552d3597dd33607c4ca0d04552ca", "bike_id": "ea83552d3597dd33607c4ca0d04552ca"}, {"is_disabled": 0, "is_reserved": 0, "type": "electric_scooter", "lon": -77.02795683333333, "fusion_lon": 0.0, "lat": 38.9039275, "rental_uris": {"android": "https://dc.lft.to/lastmile_qr_scan", "ios": "https://dc.lft.to/lastmile_qr_scan"}, "fusion_lat": 0.0, "name": "c3e2a9543863675f27851e190fdff155", "bike_id": "c3e2a9543863675f27851e190fdff155"}, {"is_disabled": 0, "is_reserved": 0, "type": "electric_scooter", "lon": -77.02702516666666, "fusion_lon": 0.0, "lat": 38.9196365, "rental_uris": {"android": "https://dc.lft.to/lastmile_qr_scan", "ios": "https://dc.lft.to/lastmile_qr_scan"}, "fusion_lat": 0.0, "name": "3d04aa5c1da268842f1bde236198427b", "bike_id": "3d04aa5c1da268842f1bde236198427b"}, {"is_disabled": 0, "is_reserved": 0, "type": "electric_scooter", "lon": -76.99193933333333, "fusion_lon": 0.0, "lat": 38.925780833333334, "rental_uris": {"android": "https://dc.lft.to/lastmile_qr_scan", "ios": "https://dc.lft.to/lastmile_qr_scan"}, "fusion_lat": 0.0, "name": "51e642d7e3d0e2496c57df11a11efb6c", "bike_id": "51e642d7e3d0e2496c57df11a11efb6c"}, {"is_disabled": 0, "is_reserved": 0, "type": "electric_scooter", "lon": -76.95672866666666, "fusion_lon": 0.0, "lat": 38.88763683333333, "rental_uris": {"android": "https://dc.lft.to/lastmile_qr_scan", "ios": "https://dc.lft.to/lastmile_qr_scan"}, "fusion_lat": 0.0, "name": "3b828ea3320f527df6f6f7ce35181a0c", "bike_id": "3b828ea3320f527df6f6f7ce35181a0c"}, {"is_disabled": 0, "is_reserved": 0, "type": "electric_scooter", "lon": -77.0545545, "fusion_lon": 0.0, "lat": 38.92893483333334, "rental_uris": {"android": "https://dc.lft.to/lastmile_qr_scan", "ios": "https://dc.lft.to/lastmile_qr_scan"}, "fusion_lat": 0.0, "name": "3419f8696439bd75d6581b633f291a90", "bike_id": "3419f8696439bd75d6581b633f291a90"}, {"is_disabled": 0, "is_reserved": 0, "type": "electric_scooter", "lon": -77.0343135, "fusion_lon": 0.0, "lat": 38.9342475, "rental_uris": {"android": "https://dc.lft.to/lastmile_qr_scan", "ios": "https://dc.lft.to/lastmile_qr_scan"}, "fusion_lat": 0.0, "name": "e1b4ce0c6795c87f932facd613fd7915", "bike_id": "e1b4ce0c6795c87f932facd613fd7915"}, {"is_disabled": 0, "is_reserved": 0, "type": "electric_scooter", "lon": -76.93349583333334, "fusion_lon": 0.0, "lat": 38.899154333333335, "rental_uris": {"android": "https://dc.lft.to/lastmile_qr_scan", "ios": "https://dc.lft.to/lastmile_qr_scan"}, "fusion_lat": 0.0, "name": "acee0adf1fe540c375f994be32b06f68", "bike_id": "acee0adf1fe540c375f994be32b06f68"}, {"is_disabled": 0, "is_reserved": 0, "type": "electric_scooter", "lon": -77.0279085, "fusion_lon": 0.0, "lat": 38.961310166666664, "rental_uris": {"android": "https://dc.lft.to/lastmile_qr_scan", "ios": "https://dc.lft.to/lastmile_qr_scan"}, "fusion_lat": 0.0, "name": "3f27b2821d882b26e4e0de08189ec4aa", "bike_id": "3f27b2821d882b26e4e0de08189ec4aa"}, {"is_disabled": 0, "is_reserved": 0, "type": "electric_scooter", "lon": -77.042165, "fusion_lon": 0.0, "lat": 38.916659833333334, "rental_uris": {"android": "https://dc.lft.to/lastmile_qr_scan", "ios": "https://dc.lft.to/lastmile_qr_scan"}, "fusion_lat": 0.0, "name": "a781545087e010dc34bb1e46d9836a95", "bike_id": "a781545087e010dc34bb1e46d9836a95"}, {"is_disabled": 0, "is_reserved": 0, "type": "electric_scooter", "lon": -77.02808983333334, "fusion_lon": 0.0, "lat": 38.930796666666666, "rental_uris": {"android": "https://dc.lft.to/lastmile_qr_scan", "ios": "https://dc.lft.to/lastmile_qr_scan"}, "fusion_lat": 0.0, "name": "00f96b686ad1b419dfc4d7feb6b872b6", "bike_id": "00f96b686ad1b419dfc4d7feb6b872b6"}, {"is_disabled": 0, "is_reserved": 0, "type": "electric_scooter", "lon": -76.99061066666667, "fusion_lon": 0.0, "lat": 38.90022416666667, "rental_uris": {"android": "https://dc.lft.to/lastmile_qr_scan", "ios": "https://dc.lft.to/lastmile_qr_scan"}, "fusion_lat": 0.0, "name": "78c89e96a922c71d484018a5a48ded3a", "bike_id": "78c89e96a922c71d484018a5a48ded3a"}, {"is_disabled": 0, "is_reserved": 0, "type": "electric_scooter", "lon": -77.041451, "fusion_lon": 0.0, "lat": 38.9126475, "rental_uris": {"android": "https://dc.lft.to/lastmile_qr_scan", "ios": "https://dc.lft.to/lastmile_qr_scan"}, "fusion_lat": 0.0, "name": "55f8a8f589714097fc6323e5499e2fc5", "bike_id": "55f8a8f589714097fc6323e5499e2fc5"}, {"is_disabled": 0, "is_reserved": 0, "type": "electric_bike", "lon": -76.981677, "fusion_lon": 0.0, "lat": 38.959583, "rental_uris": {"android": "https://dc.lft.to/lastmile_qr_scan", "ios": "https://dc.lft.to/lastmile_qr_scan"}, "fusion_lat": 0.0, "name": "9d9a98532b462c3e7b5c23e1c2778d19", "bike_id": "9d9a98532b462c3e7b5c23e1c2778d19"}, {"is_disabled": 0, "is_reserved": 0, "type": "electric_scooter", "lon": -77.00300366666667, "fusion_lon": 0.0, "lat": 38.89197433333333, "rental_uris": {"android": "https://dc.lft.to/lastmile_qr_scan", "ios": "https://dc.lft.to/lastmile_qr_scan"}, "fusion_lat": 0.0, "name": "0c1ee7cfdcc47b5c5e5867bb883ae16d", "bike_id": "0c1ee7cfdcc47b5c5e5867bb883ae16d"}, {"is_disabled": 0, "is_reserved": 0, "type": "electric_scooter", "lon": -77.02668083333333, "fusion_lon": 0.0, "lat": 38.912698166666665, "rental_uris": {"android": "https://dc.lft.to/lastmile_qr_scan", "ios": "https://dc.lft.to/lastmile_qr_scan"}, "fusion_lat": 0.0, "name": "1872aedd3925738f984702ffec44d006", "bike_id": "1872aedd3925738f984702ffec44d006"}, {"is_disabled": 0, "is_reserved": 0, "type": "electric_scooter", "lon": -77.00850566666666, "fusion_lon": 0.0, "lat": 38.88503566666667, "rental_uris": {"android": "https://dc.lft.to/lastmile_qr_scan", "ios": "https://dc.lft.to/lastmile_qr_scan"}, "fusion_lat": 0.0, "name": "74e9dc839979e9325d9472f5788a9d9e", "bike_id": "74e9dc839979e9325d9472f5788a9d9e"}, {"is_disabled": 0, "is_reserved": 0, "type": "electric_bike", "lon": -77.063816, "fusion_lon": 0.0, "lat": 39.01734666666667, "rental_uris": {"android": "https://dc.lft.to/lastmile_qr_scan", "ios": "https://dc.lft.to/lastmile_qr_scan"}, "fusion_lat": 0.0, "name": "35dd146e9a0b741386162f13a630839f", "bike_id": "35dd146e9a0b741386162f13a630839f"}, {"is_disabled": 0, "is_reserved": 0, "type": "electric_bike", "lon": -76.96091166666666, "fusion_lon": 0.0, "lat": 38.91850783333334, "rental_uris": {"android": "https://dc.lft.to/lastmile_qr_scan", "ios": "https://dc.lft.to/lastmile_qr_scan"}, "fusion_lat": 0.0, "name": "cc57cf55ae56470193039a28d2737f99", "bike_id": "cc57cf55ae56470193039a28d2737f99"}, {"is_disabled": 0, "is_reserved": 0, "type": "electric_scooter", "lon": -76.98884133333334, "fusion_lon": 0.0, "lat": 38.8667075, "rental_uris": {"android": "https://dc.lft.to/lastmile_qr_scan", "ios": "https://dc.lft.to/lastmile_qr_scan"}, "fusion_lat": 0.0, "name": "a7537a8fe9a801c9237b80a20da96d17", "bike_id": "a7537a8fe9a801c9237b80a20da96d17"}, {"is_disabled": 0, "is_reserved": 0, "type": "electric_scooter", "lon": -77.00806383333334, "fusion_lon": 0.0, "lat": 38.878274166666664, "rental_uris": {"android": "https://dc.lft.to/lastmile_qr_scan", "ios": "https://dc.lft.to/lastmile_qr_scan"}, "fusion_lat": 0.0, "name": "033845f6a32726c2108b391bef986cde", "bike_id": "033845f6a32726c2108b391bef986cde"}, {"is_disabled": 0, "is_reserved": 0, "type": "electric_bike", "lon": -77.00213133333334, "fusion_lon": 0.0, "lat": 38.81941466666667, "rental_uris": {"android": "https://dc.lft.to/lastmile_qr_scan", "ios": "https://dc.lft.to/lastmile_qr_scan"}, "fusion_lat": 0.0, "name": "0a56ff2e88a3197cb921cb7a2071cd70", "bike_id": "0a56ff2e88a3197cb921cb7a2071cd70"}, {"is_disabled": 0, "is_reserved": 0, "type": "electric_scooter", "lon": -77.02402983333333, "fusion_lon": 0.0, "lat": 38.931020333333336, "rental_uris": {"android": "https://dc.lft.to/lastmile_qr_scan", "ios": "https://dc.lft.to/lastmile_qr_scan"}, "fusion_lat": 0.0, "name": "eda2fa3ab6941603a5fa0082fcf7de7a", "bike_id": "eda2fa3ab6941603a5fa0082fcf7de7a"}, {"is_disabled": 0, "is_reserved": 0, "type": "electric_scooter", "lon": -77.01084966666667, "fusion_lon": 0.0, "lat": 38.86671483333333, "rental_uris": {"android": "https://dc.lft.to/lastmile_qr_scan", "ios": "https://dc.lft.to/lastmile_qr_scan"}, "fusion_lat": 0.0, "name": "3736b73eecfbeb8acc3566446069592c", "bike_id": "3736b73eecfbeb8acc3566446069592c"}, {"is_disabled": 0, "is_reserved": 0, "type": "electric_scooter", "lon": -77.05219283333334, "fusion_lon": 0.0, "lat": 38.8980875, "rental_uris": {"android": "https://dc.lft.to/lastmile_qr_scan", "ios": "https://dc.lft.to/lastmile_qr_scan"}, "fusion_lat": 0.0, "name": "25893412a4c612778afe7f4fcb9ff184", "bike_id": "25893412a4c612778afe7f4fcb9ff184"}, {"is_disabled": 0, "is_reserved": 0, "type": "electric_bike", "lon": -76.927633, "fusion_lon": 0.0, "lat": 38.96034183333333, "rental_uris": {"android": "https://dc.lft.to/lastmile_qr_scan", "ios": "https://dc.lft.to/lastmile_qr_scan"}, "fusion_lat": 0.0, "name": "8c06ec4760538fcd00393650fbca9bac", "bike_id": "8c06ec4760538fcd00393650fbca9bac"}, {"is_disabled": 0, "is_reserved": 0, "type": "electric_scooter", "lon": -76.9772225, "fusion_lon": 0.0, "lat": 38.88832216666667, "rental_uris": {"android": "https://dc.lft.to/lastmile_qr_scan", "ios": "https://dc.lft.to/lastmile_qr_scan"}, "fusion_lat": 0.0, "name": "b15928924bcb13216499a180cffadd88", "bike_id": "b15928924bcb13216499a180cffadd88"}, {"is_disabled": 0, "is_reserved": 0, "type": "electric_scooter", "lon": -77.00337466666667, "fusion_lon": 0.0, "lat": 38.893534833333334, "rental_uris": {"android": "https://dc.lft.to/lastmile_qr_scan", "ios": "https://dc.lft.to/lastmile_qr_scan"}, "fusion_lat": 0.0, "name": "c91f672359e642ee25e3ccba2df1bb1b", "bike_id": "c91f672359e642ee25e3ccba2df1bb1b"}, {"is_disabled": 0, "is_reserved": 0, "type": "electric_scooter", "lon": -77.04513516666667, "fusion_lon": 0.0, "lat": 38.903732833333336, "rental_uris": {"android": "https://dc.lft.to/lastmile_qr_scan", "ios": "https://dc.lft.to/lastmile_qr_scan"}, "fusion_lat": 0.0, "name": "0f5bd656caeff70351d040448cf81a51", "bike_id": "0f5bd656caeff70351d040448cf81a51"}, {"is_disabled": 0, "is_reserved": 0, "type": "electric_scooter", "lon": -77.027938, "fusion_lon": 0.0, "lat": 38.929698333333334, "rental_uris": {"android": "https://dc.lft.to/lastmile_qr_scan", "ios": "https://dc.lft.to/lastmile_qr_scan"}, "fusion_lat": 0.0, "name": "4036b2173a900846a3c2e38636d3d6d8", "bike_id": "4036b2173a900846a3c2e38636d3d6d8"}, {"is_disabled": 0, "is_reserved": 0, "type": "electric_scooter", "lon": -77.02314116666666, "fusion_lon": 0.0, "lat": 38.91701666666667, "rental_uris": {"android": "https://dc.lft.to/lastmile_qr_scan", "ios": "https://dc.lft.to/lastmile_qr_scan"}, "fusion_lat": 0.0, "name": "35cf9f97ce00654458e891c5ea7231b3", "bike_id": "35cf9f97ce00654458e891c5ea7231b3"}, {"is_disabled": 0, "is_reserved": 0, "type": "electric_scooter", "lon": -77.03448166666666, "fusion_lon": 0.0, "lat": 38.915866333333334, "rental_uris": {"android": "https://dc.lft.to/lastmile_qr_scan", "ios": "https://dc.lft.to/lastmile_qr_scan"}, "fusion_lat": 0.0, "name": "db4476e6c9fd7420d2d521a97b44597a", "bike_id": "db4476e6c9fd7420d2d521a97b44597a"}, {"is_disabled": 0, "is_reserved": 0, "type": "electric_scooter", "lon": -77.04417066666667, "fusion_lon": 0.0, "lat": 38.91777616666667, "rental_uris": {"android": "https://dc.lft.to/lastmile_qr_scan", "ios": "https://dc.lft.to/lastmile_qr_scan"}, "fusion_lat": 0.0, "name": "8bd942b0e85c1ed12bb99c330acaef7a", "bike_id": "8bd942b0e85c1ed12bb99c330acaef7a"}, {"is_disabled": 0, "is_reserved": 0, "type": "electric_scooter", "lon": -76.9847055, "fusion_lon": 0.0, "lat": 38.89353716666667, "rental_uris": {"android": "https://dc.lft.to/lastmile_qr_scan", "ios": "https://dc.lft.to/lastmile_qr_scan"}, "fusion_lat": 0.0, "name": "db6a3673ba9a9e23fbb831ab0307b024", "bike_id": "db6a3673ba9a9e23fbb831ab0307b024"}, {"is_disabled": 0, "is_reserved": 0, "type": "electric_scooter", "lon": -76.97995516666667, "fusion_lon": 0.0, "lat": 38.888703, "rental_uris": {"android": "https://dc.lft.to/lastmile_qr_scan", "ios": "https://dc.lft.to/lastmile_qr_scan"}, "fusion_lat": 0.0, "name": "96b3510eb27163e8fa98e9d518708fa0", "bike_id": "96b3510eb27163e8fa98e9d518708fa0"}, {"is_disabled": 0, "is_reserved": 0, "type": "electric_scooter", "lon": -77.028042, "fusion_lon": 0.0, "lat": 38.88430983333333, "rental_uris": {"android": "https://dc.lft.to/lastmile_qr_scan", "ios": "https://dc.lft.to/lastmile_qr_scan"}, "fusion_lat": 0.0, "name": "0ce5566de5f18b537305c52a54523de9", "bike_id": "0ce5566de5f18b537305c52a54523de9"}, {"is_disabled": 0, "is_reserved": 0, "type": "electric_scooter", "lon": -77.04411183333333, "fusion_lon": 0.0, "lat": 38.911303333333336, "rental_uris": {"android": "https://dc.lft.to/lastmile_qr_scan", "ios": "https://dc.lft.to/lastmile_qr_scan"}, "fusion_lat": 0.0, "name": "6f4c714af7fa312b0cd422c190386c33", "bike_id": "6f4c714af7fa312b0cd422c190386c33"}, {"is_disabled": 0, "is_reserved": 0, "type": "electric_scooter", "lon": -77.04150366666667, "fusion_lon": 0.0, "lat": 38.90129783333333, "rental_uris": {"android": "https://dc.lft.to/lastmile_qr_scan", "ios": "https://dc.lft.to/lastmile_qr_scan"}, "fusion_lat": 0.0, "name": "e241422cca758b75cdfd921f19aa1327", "bike_id": "e241422cca758b75cdfd921f19aa1327"}, {"is_disabled": 0, "is_reserved": 0, "type": "electric_scooter", "lon": -77.01054, "fusion_lon": 0.0, "lat": 38.89900933333333, "rental_uris": {"android": "https://dc.lft.to/lastmile_qr_scan", "ios": "https://dc.lft.to/lastmile_qr_scan"}, "fusion_lat": 0.0, "name": "8cf63dc847eae057993267ad271a61f5", "bike_id": "8cf63dc847eae057993267ad271a61f5"}, {"is_disabled": 0, "is_reserved": 0, "type": "electric_scooter", "lon": -77.0327315, "fusion_lon": 0.0, "lat": 38.91624983333333, "rental_uris": {"android": "https://dc.lft.to/lastmile_qr_scan", "ios": "https://dc.lft.to/lastmile_qr_scan"}, "fusion_lat": 0.0, "name": "6f372d792ba499ebb687859f801065d8", "bike_id": "6f372d792ba499ebb687859f801065d8"}, {"is_disabled": 0, "is_reserved": 0, "type": "electric_bike", "lon": -77.115187, "fusion_lon": 0.0, "lat": 38.88193183333333, "rental_uris": {"android": "https://dc.lft.to/lastmile_qr_scan", "ios": "https://dc.lft.to/lastmile_qr_scan"}, "fusion_lat": 0.0, "name": "ce0d8874a82a22bb55c17dd92a2b085b", "bike_id": "ce0d8874a82a22bb55c17dd92a2b085b"}, {"is_disabled": 0, "is_reserved": 0, "type": "electric_scooter", "lon": -77.06524066666667, "fusion_lon": 0.0, "lat": 38.905165833333335, "rental_uris": {"android": "https://dc.lft.to/lastmile_qr_scan", "ios": "https://dc.lft.to/lastmile_qr_scan"}, "fusion_lat": 0.0, "name": "3eeb041f1ca0fcbd78243b50c88b348d", "bike_id": "3eeb041f1ca0fcbd78243b50c88b348d"}, {"is_disabled": 0, "is_reserved": 0, "type": "electric_scooter", "lon": -77.04502133333334, "fusion_lon": 0.0, "lat": 38.89616683333333, "rental_uris": {"android": "https://dc.lft.to/lastmile_qr_scan", "ios": "https://dc.lft.to/lastmile_qr_scan"}, "fusion_lat": 0.0, "name": "e8e470bfa728d2e5ad9760fb30f57fba", "bike_id": "e8e470bfa728d2e5ad9760fb30f57fba"}, {"is_disabled": 0, "is_reserved": 0, "type": "electric_scooter", "lon": -77.03528166666666, "fusion_lon": 0.0, "lat": 38.92235766666667, "rental_uris": {"android": "https://dc.lft.to/lastmile_qr_scan", "ios": "https://dc.lft.to/lastmile_qr_scan"}, "fusion_lat": 0.0, "name": "7ca92ec5a420b9cbc1030feef1f33756", "bike_id": "7ca92ec5a420b9cbc1030feef1f33756"}, {"is_disabled": 0, "is_reserved": 0, "type": "electric_scooter", "lon": -77.04345283333333, "fusion_lon": 0.0, "lat": 38.9112565, "rental_uris": {"android": "https://dc.lft.to/lastmile_qr_scan", "ios": "https://dc.lft.to/lastmile_qr_scan"}, "fusion_lat": 0.0, "name": "dd65db5068696508f5f2151bcde4a222", "bike_id": "dd65db5068696508f5f2151bcde4a222"}, {"is_disabled": 0, "is_reserved": 0, "type": "electric_scooter", "lon": -76.94785116666667, "fusion_lon": 0.0, "lat": 38.884576333333335, "rental_uris": {"android": "https://dc.lft.to/lastmile_qr_scan", "ios": "https://dc.lft.to/lastmile_qr_scan"}, "fusion_lat": 0.0, "name": "4106ab7bdb3fca67de8eb527a294ee83", "bike_id": "4106ab7bdb3fca67de8eb527a294ee83"}, {"is_disabled": 0, "is_reserved": 0, "type": "electric_scooter", "lon": -77.054159, "fusion_lon": 0.0, "lat": 38.950479666666666, "rental_uris": {"android": "https://dc.lft.to/lastmile_qr_scan", "ios": "https://dc.lft.to/lastmile_qr_scan"}, "fusion_lat": 0.0, "name": "86090072033521f5ff71d13901feb0f2", "bike_id": "86090072033521f5ff71d13901feb0f2"}, {"is_disabled": 0, "is_reserved": 0, "type": "electric_scooter", "lon": -76.99959733333333, "fusion_lon": 0.0, "lat": 38.84295083333333, "rental_uris": {"android": "https://dc.lft.to/lastmile_qr_scan", "ios": "https://dc.lft.to/lastmile_qr_scan"}, "fusion_lat": 0.0, "name": "cdd2b32b341efb57f809a32768a61335", "bike_id": "cdd2b32b341efb57f809a32768a61335"}, {"is_disabled": 0, "is_reserved": 0, "type": "electric_scooter", "lon": -76.99877733333334, "fusion_lon": 0.0, "lat": 38.90751516666667, "rental_uris": {"android": "https://dc.lft.to/lastmile_qr_scan", "ios": "https://dc.lft.to/lastmile_qr_scan"}, "fusion_lat": 0.0, "name": "033ebed299db32eecef62403ad15e8f9", "bike_id": "033ebed299db32eecef62403ad15e8f9"}, {"is_disabled": 0, "is_reserved": 0, "type": "electric_scooter", "lon": -77.040756, "fusion_lon": 0.0, "lat": 38.8961715, "rental_uris": {"android": "https://dc.lft.to/lastmile_qr_scan", "ios": "https://dc.lft.to/lastmile_qr_scan"}, "fusion_lat": 0.0, "name": "a153a8ba1aca77880a7d372d15c66324", "bike_id": "a153a8ba1aca77880a7d372d15c66324"}, {"is_disabled": 0, "is_reserved": 0, "type": "electric_scooter", "lon": -77.0216335, "fusion_lon": 0.0, "lat": 38.92615166666667, "rental_uris": {"android": "https://dc.lft.to/lastmile_qr_scan", "ios": "https://dc.lft.to/lastmile_qr_scan"}, "fusion_lat": 0.0, "name": "6f4f91de0b64b56c19f37782626a1c48", "bike_id": "6f4f91de0b64b56c19f37782626a1c48"}, {"is_disabled": 0, "is_reserved": 0, "type": "electric_scooter", "lon": -77.04115033333333, "fusion_lon": 0.0, "lat": 38.900283, "rental_uris": {"android": "https://dc.lft.to/lastmile_qr_scan", "ios": "https://dc.lft.to/lastmile_qr_scan"}, "fusion_lat": 0.0, "name": "a0a8401c1a90a8e3cd7866136e80a2a0", "bike_id": "a0a8401c1a90a8e3cd7866136e80a2a0"}, {"is_disabled": 0, "is_reserved": 0, "type": "electric_scooter", "lon": -76.948975, "fusion_lon": 0.0, "lat": 38.895260666666665, "rental_uris": {"android": "https://dc.lft.to/lastmile_qr_scan", "ios": "https://dc.lft.to/lastmile_qr_scan"}, "fusion_lat": 0.0, "name": "3745a6c07d7e77037b1e23166b365180", "bike_id": "3745a6c07d7e77037b1e23166b365180"}, {"is_disabled": 0, "is_reserved": 0, "type": "electric_scooter", "lon": -77.0438715, "fusion_lon": 0.0, "lat": 38.9055415, "rental_uris": {"android": "https://dc.lft.to/lastmile_qr_scan", "ios": "https://dc.lft.to/lastmile_qr_scan"}, "fusion_lat": 0.0, "name": "7a0801a30d6c1c77bae34b03d67a5380", "bike_id": "7a0801a30d6c1c77bae34b03d67a5380"}, {"is_disabled": 0, "is_reserved": 0, "type": "electric_scooter", "lon": -76.97387533333334, "fusion_lon": 0.0, "lat": 38.883708, "rental_uris": {"android": "https://dc.lft.to/lastmile_qr_scan", "ios": "https://dc.lft.to/lastmile_qr_scan"}, "fusion_lat": 0.0, "name": "ef9e985035c1470d04dc5658fc98c6f5", "bike_id": "ef9e985035c1470d04dc5658fc98c6f5"}, {"is_disabled": 0, "is_reserved": 0, "type": "electric_scooter", "lon": -77.043508, "fusion_lon": 0.0, "lat": 38.898195666666666, "rental_uris": {"android": "https://dc.lft.to/lastmile_qr_scan", "ios": "https://dc.lft.to/lastmile_qr_scan"}, "fusion_lat": 0.0, "name": "1b83448e34c3d6ef4e151a33604f7a16", "bike_id": "1b83448e34c3d6ef4e151a33604f7a16"}, {"is_disabled": 0, "is_reserved": 0, "type": "electric_scooter", "lon": -77.02343333333333, "fusion_lon": 0.0, "lat": 38.91598466666667, "rental_uris": {"android": "https://dc.lft.to/lastmile_qr_scan", "ios": "https://dc.lft.to/lastmile_qr_scan"}, "fusion_lat": 0.0, "name": "a991a82cd4d97150daa9f1a8182e8cff", "bike_id": "a991a82cd4d97150daa9f1a8182e8cff"}, {"is_disabled": 0, "is_reserved": 0, "type": "electric_scooter", "lon": -77.045657, "fusion_lon": 0.0, "lat": 38.917776, "rental_uris": {"android": "https://dc.lft.to/lastmile_qr_scan", "ios": "https://dc.lft.to/lastmile_qr_scan"}, "fusion_lat": 0.0, "name": "ff06c76778cd35fd4e91394037767a20", "bike_id": "ff06c76778cd35fd4e91394037767a20"}, {"is_disabled": 0, "is_reserved": 0, "type": "electric_scooter", "lon": -77.01954, "fusion_lon": 0.0, "lat": 38.92250033333333, "rental_uris": {"android": "https://dc.lft.to/lastmile_qr_scan", "ios": "https://dc.lft.to/lastmile_qr_scan"}, "fusion_lat": 0.0, "name": "1b3ae42859c9e9a17fe2b3d24b315166", "bike_id": "1b3ae42859c9e9a17fe2b3d24b315166"}, {"is_disabled": 0, "is_reserved": 0, "type": "electric_scooter", "lon": -77.04065566666667, "fusion_lon": 0.0, "lat": 38.89854866666667, "rental_uris": {"android": "https://dc.lft.to/lastmile_qr_scan", "ios": "https://dc.lft.to/lastmile_qr_scan"}, "fusion_lat": 0.0, "name": "9015f219d1eb8c3b29122789c06cbeb6", "bike_id": "9015f219d1eb8c3b29122789c06cbeb6"}, {"is_disabled": 0, "is_reserved": 0, "type": "electric_bike", "lon": -77.00957616666666, "fusion_lon": 0.0, "lat": 38.90704983333333, "rental_uris": {"android": "https://dc.lft.to/lastmile_qr_scan", "ios": "https://dc.lft.to/lastmile_qr_scan"}, "fusion_lat": 0.0, "name": "c68d71886df9285c25759ec4cb2aa8e9", "bike_id": "c68d71886df9285c25759ec4cb2aa8e9"}, {"is_disabled": 0, "is_reserved": 0, "type": "electric_scooter", "lon": -77.04362883333333, "fusion_lon": 0.0, "lat": 38.901348, "rental_uris": {"android": "https://dc.lft.to/lastmile_qr_scan", "ios": "https://dc.lft.to/lastmile_qr_scan"}, "fusion_lat": 0.0, "name": "7500bbbb5146e3dee173abcc0bcd0452", "bike_id": "7500bbbb5146e3dee173abcc0bcd0452"}, {"is_disabled": 0, "is_reserved": 0, "type": "electric_scooter", "lon": -77.03316983333333, "fusion_lon": 0.0, "lat": 38.8983095, "rental_uris": {"android": "https://dc.lft.to/lastmile_qr_scan", "ios": "https://dc.lft.to/lastmile_qr_scan"}, "fusion_lat": 0.0, "name": "a07547241eb628a219705c1fdcf2544a", "bike_id": "a07547241eb628a219705c1fdcf2544a"}, {"is_disabled": 0, "is_reserved": 0, "type": "electric_scooter", "lon": -77.01224383333333, "fusion_lon": 0.0, "lat": 38.885831333333336, "rental_uris": {"android": "https://dc.lft.to/lastmile_qr_scan", "ios": "https://dc.lft.to/lastmile_qr_scan"}, "fusion_lat": 0.0, "name": "44c18ce8acbcf44df0faadf2e91eeb41", "bike_id": "44c18ce8acbcf44df0faadf2e91eeb41"}, {"is_disabled": 0, "is_reserved": 0, "type": "electric_scooter", "lon": -77.02300383333333, "fusion_lon": 0.0, "lat": 38.9165635, "rental_uris": {"android": "https://dc.lft.to/lastmile_qr_scan", "ios": "https://dc.lft.to/lastmile_qr_scan"}, "fusion_lat": 0.0, "name": "eb3985e3d4700ab27481a117743e93b8", "bike_id": "eb3985e3d4700ab27481a117743e93b8"}, {"is_disabled": 0, "is_reserved": 0, "type": "electric_scooter", "lon": -76.9788015, "fusion_lon": 0.0, "lat": 38.927256166666666, "rental_uris": {"android": "https://dc.lft.to/lastmile_qr_scan", "ios": "https://dc.lft.to/lastmile_qr_scan"}, "fusion_lat": 0.0, "name": "67560e7855f3badd0de48c16e3b265a0", "bike_id": "67560e7855f3badd0de48c16e3b265a0"}, {"is_disabled": 0, "is_reserved": 0, "type": "electric_scooter", "lon": -76.94826933333333, "fusion_lon": 0.0, "lat": 38.8851075, "rental_uris": {"android": "https://dc.lft.to/lastmile_qr_scan", "ios": "https://dc.lft.to/lastmile_qr_scan"}, "fusion_lat": 0.0, "name": "ec3ff11745028e142e21caa2f3f37649", "bike_id": "ec3ff11745028e142e21caa2f3f37649"}, {"is_disabled": 0, "is_reserved": 0, "type": "electric_scooter", "lon": -77.008565, "fusion_lon": 0.0, "lat": 38.90660533333333, "rental_uris": {"android": "https://dc.lft.to/lastmile_qr_scan", "ios": "https://dc.lft.to/lastmile_qr_scan"}, "fusion_lat": 0.0, "name": "9c7ee7ebe1b226ae54fd0a052490d862", "bike_id": "9c7ee7ebe1b226ae54fd0a052490d862"}, {"is_disabled": 0, "is_reserved": 0, "type": "electric_scooter", "lon": -77.03762516666667, "fusion_lon": 0.0, "lat": 38.916962166666664, "rental_uris": {"android": "https://dc.lft.to/lastmile_qr_scan", "ios": "https://dc.lft.to/lastmile_qr_scan"}, "fusion_lat": 0.0, "name": "34eb7f65c18dcc0212a524161724f553", "bike_id": "34eb7f65c18dcc0212a524161724f553"}, {"is_disabled": 0, "is_reserved": 0, "type": "electric_scooter", "lon": -77.0543825, "fusion_lon": 0.0, "lat": 38.896046, "rental_uris": {"android": "https://dc.lft.to/lastmile_qr_scan", "ios": "https://dc.lft.to/lastmile_qr_scan"}, "fusion_lat": 0.0, "name": "bb7bfcfec48a9607701ba0b6d6f6d94c", "bike_id": "bb7bfcfec48a9607701ba0b6d6f6d94c"}, {"is_disabled": 0, "is_reserved": 0, "type": "electric_scooter", "lon": -77.038563, "fusion_lon": 0.0, "lat": 38.903313833333335, "rental_uris": {"android": "https://dc.lft.to/lastmile_qr_scan", "ios": "https://dc.lft.to/lastmile_qr_scan"}, "fusion_lat": 0.0, "name": "5fa88b82b387fcab0b8f682539d94a67", "bike_id": "5fa88b82b387fcab0b8f682539d94a67"}, {"is_disabled": 0, "is_reserved": 0, "type": "electric_scooter", "lon": -76.93524633333334, "fusion_lon": 0.0, "lat": 38.8789475, "rental_uris": {"android": "https://dc.lft.to/lastmile_qr_scan", "ios": "https://dc.lft.to/lastmile_qr_scan"}, "fusion_lat": 0.0, "name": "533ec81c60f92b60f4f821f0b8645a97", "bike_id": "533ec81c60f92b60f4f821f0b8645a97"}, {"is_disabled": 0, "is_reserved": 0, "type": "electric_scooter", "lon": -76.93351866666667, "fusion_lon": 0.0, "lat": 38.90197583333333, "rental_uris": {"android": "https://dc.lft.to/lastmile_qr_scan", "ios": "https://dc.lft.to/lastmile_qr_scan"}, "fusion_lat": 0.0, "name": "bb6adcc583e19851c09ef0bfcf44da79", "bike_id": "bb6adcc583e19851c09ef0bfcf44da79"}, {"is_disabled": 0, "is_reserved": 0, "type": "electric_scooter", "lon": -77.0336415, "fusion_lon": 0.0, "lat": 38.9118815, "rental_uris": {"android": "https://dc.lft.to/lastmile_qr_scan", "ios": "https://dc.lft.to/lastmile_qr_scan"}, "fusion_lat": 0.0, "name": "dff4f61e78d59cdf305dcf760c25d1ac", "bike_id": "dff4f61e78d59cdf305dcf760c25d1ac"}, {"is_disabled": 0, "is_reserved": 0, "type": "electric_scooter", "lon": -77.03179166666666, "fusion_lon": 0.0, "lat": 38.91923033333333, "rental_uris": {"android": "https://dc.lft.to/lastmile_qr_scan", "ios": "https://dc.lft.to/lastmile_qr_scan"}, "fusion_lat": 0.0, "name": "59220339f8f90922f7ff8165fba2ea87", "bike_id": "59220339f8f90922f7ff8165fba2ea87"}, {"is_disabled": 0, "is_reserved": 0, "type": "electric_scooter", "lon": -77.03971683333333, "fusion_lon": 0.0, "lat": 38.905582333333335, "rental_uris": {"android": "https://dc.lft.to/lastmile_qr_scan", "ios": "https://dc.lft.to/lastmile_qr_scan"}, "fusion_lat": 0.0, "name": "fc6f5607b33d70380aa551031325f93c", "bike_id": "fc6f5607b33d70380aa551031325f93c"}, {"is_disabled": 0, "is_reserved": 0, "type": "electric_scooter", "lon": -77.033123, "fusion_lon": 0.0, "lat": 38.956138, "rental_uris": {"android": "https://dc.lft.to/lastmile_qr_scan", "ios": "https://dc.lft.to/lastmile_qr_scan"}, "fusion_lat": 0.0, "name": "cc68339c9fe16dbca3902f4be7005986", "bike_id": "cc68339c9fe16dbca3902f4be7005986"}, {"is_disabled": 0, "is_reserved": 0, "type": "electric_scooter", "lon": -77.02674516666667, "fusion_lon": 0.0, "lat": 38.899842, "rental_uris": {"android": "https://dc.lft.to/lastmile_qr_scan", "ios": "https://dc.lft.to/lastmile_qr_scan"}, "fusion_lat": 0.0, "name": "3675d12b14d46ae7321b583e7d8b6631", "bike_id": "3675d12b14d46ae7321b583e7d8b6631"}, {"is_disabled": 0, "is_reserved": 0, "type": "electric_bike", "lon": -77.02493266666667, "fusion_lon": 0.0, "lat": 38.97400866666667, "rental_uris": {"android": "https://dc.lft.to/lastmile_qr_scan", "ios": "https://dc.lft.to/lastmile_qr_scan"}, "fusion_lat": 0.0, "name": "ac99d32871d2529928240fd205d3cc22", "bike_id": "ac99d32871d2529928240fd205d3cc22"}, {"is_disabled": 0, "is_reserved": 0, "type": "electric_scooter", "lon": -77.02227716666667, "fusion_lon": 0.0, "lat": 38.89218866666667, "rental_uris": {"android": "https://dc.lft.to/lastmile_qr_scan", "ios": "https://dc.lft.to/lastmile_qr_scan"}, "fusion_lat": 0.0, "name": "cb7092dc9e2ec065048a9d7c3ce6b9eb", "bike_id": "cb7092dc9e2ec065048a9d7c3ce6b9eb"}, {"is_disabled": 0, "is_reserved": 0, "type": "electric_scooter", "lon": -77.00571116666667, "fusion_lon": 0.0, "lat": 38.9022135, "rental_uris": {"android": "https://dc.lft.to/lastmile_qr_scan", "ios": "https://dc.lft.to/lastmile_qr_scan"}, "fusion_lat": 0.0, "name": "e1fbfbd2c5ddc8c43970ac72f4c55b89", "bike_id": "e1fbfbd2c5ddc8c43970ac72f4c55b89"}, {"is_disabled": 0, "is_reserved": 0, "type": "electric_scooter", "lon": -76.93188583333334, "fusion_lon": 0.0, "lat": 38.89876566666667, "rental_uris": {"android": "https://dc.lft.to/lastmile_qr_scan", "ios": "https://dc.lft.to/lastmile_qr_scan"}, "fusion_lat": 0.0, "name": "0dd90d453e39196931f86cea03a6201a", "bike_id": "0dd90d453e39196931f86cea03a6201a"}, {"is_disabled": 0, "is_reserved": 0, "type": "electric_scooter", "lon": -77.0533155, "fusion_lon": 0.0, "lat": 38.905696666666664, "rental_uris": {"android": "https://dc.lft.to/lastmile_qr_scan", "ios": "https://dc.lft.to/lastmile_qr_scan"}, "fusion_lat": 0.0, "name": "39bd062b26a12ce47331c0e3aaf04432", "bike_id": "39bd062b26a12ce47331c0e3aaf04432"}, {"is_disabled": 0, "is_reserved": 0, "type": "electric_bike", "lon": -77.09834433333333, "fusion_lon": 0.0, "lat": 38.857885833333334, "rental_uris": {"android": "https://dc.lft.to/lastmile_qr_scan", "ios": "https://dc.lft.to/lastmile_qr_scan"}, "fusion_lat": 0.0, "name": "cfef840e51c5ceebd3bd9caab03221b1", "bike_id": "cfef840e51c5ceebd3bd9caab03221b1"}, {"is_disabled": 0, "is_reserved": 0, "type": "electric_scooter", "lon": -76.99081683333333, "fusion_lon": 0.0, "lat": 38.90422616666667, "rental_uris": {"android": "https://dc.lft.to/lastmile_qr_scan", "ios": "https://dc.lft.to/lastmile_qr_scan"}, "fusion_lat": 0.0, "name": "e4aee4f68d7bb691a953bb341f4eaaa3", "bike_id": "e4aee4f68d7bb691a953bb341f4eaaa3"}, {"is_disabled": 0, "is_reserved": 0, "type": "electric_scooter", "lon": -77.02175966666667, "fusion_lon": 0.0, "lat": 38.94293366666667, "rental_uris": {"android": "https://dc.lft.to/lastmile_qr_scan", "ios": "https://dc.lft.to/lastmile_qr_scan"}, "fusion_lat": 0.0, "name": "a8fd33fbe92a090cdd21af9b08f8ce20", "bike_id": "a8fd33fbe92a090cdd21af9b08f8ce20"}, {"is_disabled": 0, "is_reserved": 0, "type": "electric_scooter", "lon": -77.00567766666667, "fusion_lon": 0.0, "lat": 38.88503883333333, "rental_uris": {"android": "https://dc.lft.to/lastmile_qr_scan", "ios": "https://dc.lft.to/lastmile_qr_scan"}, "fusion_lat": 0.0, "name": "1ec85eb8ff149e27f7a996e74a151e01", "bike_id": "1ec85eb8ff149e27f7a996e74a151e01"}, {"is_disabled": 0, "is_reserved": 0, "type": "electric_scooter", "lon": -77.03449033333334, "fusion_lon": 0.0, "lat": 38.902719166666664, "rental_uris": {"android": "https://dc.lft.to/lastmile_qr_scan", "ios": "https://dc.lft.to/lastmile_qr_scan"}, "fusion_lat": 0.0, "name": "59bf6d97ac4c893a59a7f72251bf0196", "bike_id": "59bf6d97ac4c893a59a7f72251bf0196"}, {"is_disabled": 0, "is_reserved": 0, "type": "electric_scooter", "lon": -77.04520683333334, "fusion_lon": 0.0, "lat": 38.90354883333333, "rental_uris": {"android": "https://dc.lft.to/lastmile_qr_scan", "ios": "https://dc.lft.to/lastmile_qr_scan"}, "fusion_lat": 0.0, "name": "8497c1b48746cd37b912b1c274b54272", "bike_id": "8497c1b48746cd37b912b1c274b54272"}, {"is_disabled": 0, "is_reserved": 0, "type": "electric_scooter", "lon": -77.02988133333334, "fusion_lon": 0.0, "lat": 38.90727116666667, "rental_uris": {"android": "https://dc.lft.to/lastmile_qr_scan", "ios": "https://dc.lft.to/lastmile_qr_scan"}, "fusion_lat": 0.0, "name": "fca048f9b9f5ade1241ca166165490ec", "bike_id": "fca048f9b9f5ade1241ca166165490ec"}, {"is_disabled": 0, "is_reserved": 0, "type": "electric_scooter", "lon": -76.97940916666667, "fusion_lon": 0.0, "lat": 38.90504266666667, "rental_uris": {"android": "https://dc.lft.to/lastmile_qr_scan", "ios": "https://dc.lft.to/lastmile_qr_scan"}, "fusion_lat": 0.0, "name": "d9a8540815e6ed68b5b24410ab51981c", "bike_id": "d9a8540815e6ed68b5b24410ab51981c"}, {"is_disabled": 0, "is_reserved": 0, "type": "electric_scooter", "lon": -77.02010783333333, "fusion_lon": 0.0, "lat": 38.924203166666665, "rental_uris": {"android": "https://dc.lft.to/lastmile_qr_scan", "ios": "https://dc.lft.to/lastmile_qr_scan"}, "fusion_lat": 0.0, "name": "83685c4ea4592fc3e9cac101c638fa8c", "bike_id": "83685c4ea4592fc3e9cac101c638fa8c"}, {"is_disabled": 0, "is_reserved": 0, "type": "electric_scooter", "lon": -77.02157, "fusion_lon": 0.0, "lat": 38.89413233333333, "rental_uris": {"android": "https://dc.lft.to/lastmile_qr_scan", "ios": "https://dc.lft.to/lastmile_qr_scan"}, "fusion_lat": 0.0, "name": "0aeb474fa431c451e618716c7a5b1b9a", "bike_id": "0aeb474fa431c451e618716c7a5b1b9a"}, {"is_disabled": 0, "is_reserved": 0, "type": "electric_scooter", "lon": -76.98051566666666, "fusion_lon": 0.0, "lat": 38.92033933333333, "rental_uris": {"android": "https://dc.lft.to/lastmile_qr_scan", "ios": "https://dc.lft.to/lastmile_qr_scan"}, "fusion_lat": 0.0, "name": "753887260dceefd6098431748787e952", "bike_id": "753887260dceefd6098431748787e952"}, {"is_disabled": 0, "is_reserved": 0, "type": "electric_scooter", "lon": -77.02982983333334, "fusion_lon": 0.0, "lat": 38.92729666666666, "rental_uris": {"android": "https://dc.lft.to/lastmile_qr_scan", "ios": "https://dc.lft.to/lastmile_qr_scan"}, "fusion_lat": 0.0, "name": "a985d4d76f1db59dff6152678285b7ac", "bike_id": "a985d4d76f1db59dff6152678285b7ac"}, {"is_disabled": 0, "is_reserved": 0, "type": "electric_scooter", "lon": -77.02857833333333, "fusion_lon": 0.0, "lat": 38.90254, "rental_uris": {"android": "https://dc.lft.to/lastmile_qr_scan", "ios": "https://dc.lft.to/lastmile_qr_scan"}, "fusion_lat": 0.0, "name": "868c23b2d2e5b68c3f409dc7d93eb9a1", "bike_id": "868c23b2d2e5b68c3f409dc7d93eb9a1"}, {"is_disabled": 0, "is_reserved": 0, "type": "electric_scooter", "lon": -77.01862383333334, "fusion_lon": 0.0, "lat": 38.949199666666665, "rental_uris": {"android": "https://dc.lft.to/lastmile_qr_scan", "ios": "https://dc.lft.to/lastmile_qr_scan"}, "fusion_lat": 0.0, "name": "678fc71d92064d3401e4761f7237a872", "bike_id": "678fc71d92064d3401e4761f7237a872"}, {"is_disabled": 0, "is_reserved": 0, "type": "electric_scooter", "lon": -76.94890166666667, "fusion_lon": 0.0, "lat": 38.8951045, "rental_uris": {"android": "https://dc.lft.to/lastmile_qr_scan", "ios": "https://dc.lft.to/lastmile_qr_scan"}, "fusion_lat": 0.0, "name": "161f35e4db39f15c87a0b0454969a7b0", "bike_id": "161f35e4db39f15c87a0b0454969a7b0"}, {"is_disabled": 0, "is_reserved": 0, "type": "electric_scooter", "lon": -77.014697, "fusion_lon": 0.0, "lat": 38.92667316666667, "rental_uris": {"android": "https://dc.lft.to/lastmile_qr_scan", "ios": "https://dc.lft.to/lastmile_qr_scan"}, "fusion_lat": 0.0, "name": "8e86333e34470d3fcf29272202f30b2b", "bike_id": "8e86333e34470d3fcf29272202f30b2b"}, {"is_disabled": 0, "is_reserved": 0, "type": "electric_scooter", "lon": -77.01981166666667, "fusion_lon": 0.0, "lat": 38.895177, "rental_uris": {"android": "https://dc.lft.to/lastmile_qr_scan", "ios": "https://dc.lft.to/lastmile_qr_scan"}, "fusion_lat": 0.0, "name": "b89178736a1eaf9b587325d2d96ccd92", "bike_id": "b89178736a1eaf9b587325d2d96ccd92"}, {"is_disabled": 0, "is_reserved": 0, "type": "electric_scooter", "lon": -77.04458633333333, "fusion_lon": 0.0, "lat": 38.91403783333333, "rental_uris": {"android": "https://dc.lft.to/lastmile_qr_scan", "ios": "https://dc.lft.to/lastmile_qr_scan"}, "fusion_lat": 0.0, "name": "c404c3b1d7a8e8e9e2b4b3ba689c1424", "bike_id": "c404c3b1d7a8e8e9e2b4b3ba689c1424"}, {"is_disabled": 0, "is_reserved": 0, "type": "electric_scooter", "lon": -77.02941, "fusion_lon": 0.0, "lat": 38.8960485, "rental_uris": {"android": "https://dc.lft.to/lastmile_qr_scan", "ios": "https://dc.lft.to/lastmile_qr_scan"}, "fusion_lat": 0.0, "name": "e655298a6e6f44277cb52896ae82ed6a", "bike_id": "e655298a6e6f44277cb52896ae82ed6a"}, {"is_disabled": 0, "is_reserved": 0, "type": "electric_scooter", "lon": -77.01687383333334, "fusion_lon": 0.0, "lat": 38.90253466666667, "rental_uris": {"android": "https://dc.lft.to/lastmile_qr_scan", "ios": "https://dc.lft.to/lastmile_qr_scan"}, "fusion_lat": 0.0, "name": "2e194ecaec7f50f2150cced12fde4951", "bike_id": "2e194ecaec7f50f2150cced12fde4951"}, {"is_disabled": 0, "is_reserved": 0, "type": "electric_scooter", "lon": -77.06757016666667, "fusion_lon": 0.0, "lat": 38.90500516666667, "rental_uris": {"android": "https://dc.lft.to/lastmile_qr_scan", "ios": "https://dc.lft.to/lastmile_qr_scan"}, "fusion_lat": 0.0, "name": "779c377f02101f43d00a83c7aedfebf1", "bike_id": "779c377f02101f43d00a83c7aedfebf1"}, {"is_disabled": 0, "is_reserved": 0, "type": "electric_bike", "lon": -77.03394333333334, "fusion_lon": 0.0, "lat": 38.96024533333333, "rental_uris": {"android": "https://dc.lft.to/lastmile_qr_scan", "ios": "https://dc.lft.to/lastmile_qr_scan"}, "fusion_lat": 0.0, "name": "84e1fcf4bdc8f0e904bedc7d934e3a60", "bike_id": "84e1fcf4bdc8f0e904bedc7d934e3a60"}, {"is_disabled": 0, "is_reserved": 0, "type": "electric_scooter", "lon": -77.0451245, "fusion_lon": 0.0, "lat": 38.903769833333335, "rental_uris": {"android": "https://dc.lft.to/lastmile_qr_scan", "ios": "https://dc.lft.to/lastmile_qr_scan"}, "fusion_lat": 0.0, "name": "d0cb0d170278bfa440967d64ec20816a", "bike_id": "d0cb0d170278bfa440967d64ec20816a"}, {"is_disabled": 0, "is_reserved": 0, "type": "electric_scooter", "lon": -77.02442483333333, "fusion_lon": 0.0, "lat": 38.9371295, "rental_uris": {"android": "https://dc.lft.to/lastmile_qr_scan", "ios": "https://dc.lft.to/lastmile_qr_scan"}, "fusion_lat": 0.0, "name": "ef7daa62f2bd455b946f504221d550b7", "bike_id": "ef7daa62f2bd455b946f504221d550b7"}, {"is_disabled": 0, "is_reserved": 0, "type": "electric_scooter", "lon": -76.9951785, "fusion_lon": 0.0, "lat": 38.894829, "rental_uris": {"android": "https://dc.lft.to/lastmile_qr_scan", "ios": "https://dc.lft.to/lastmile_qr_scan"}, "fusion_lat": 0.0, "name": "754f1c02269e34f7f70e9ceb6008553d", "bike_id": "754f1c02269e34f7f70e9ceb6008553d"}, {"is_disabled": 0, "is_reserved": 0, "type": "electric_scooter", "lon": -77.04598166666666, "fusion_lon": 0.0, "lat": 38.9024535, "rental_uris": {"android": "https://dc.lft.to/lastmile_qr_scan", "ios": "https://dc.lft.to/lastmile_qr_scan"}, "fusion_lat": 0.0, "name": "67888f52b478aacae6cd93584a31d811", "bike_id": "67888f52b478aacae6cd93584a31d811"}, {"is_disabled": 0, "is_reserved": 0, "type": "electric_scooter", "lon": -77.0328715, "fusion_lon": 0.0, "lat": 38.923388, "rental_uris": {"android": "https://dc.lft.to/lastmile_qr_scan", "ios": "https://dc.lft.to/lastmile_qr_scan"}, "fusion_lat": 0.0, "name": "835445e63badee7b8faba88285182289", "bike_id": "835445e63badee7b8faba88285182289"}, {"is_disabled": 0, "is_reserved": 0, "type": "electric_scooter", "lon": -77.01756616666667, "fusion_lon": 0.0, "lat": 38.8768725, "rental_uris": {"android": "https://dc.lft.to/lastmile_qr_scan", "ios": "https://dc.lft.to/lastmile_qr_scan"}, "fusion_lat": 0.0, "name": "f015e0fec18ac9231163bb21aead0643", "bike_id": "f015e0fec18ac9231163bb21aead0643"}, {"is_disabled": 0, "is_reserved": 0, "type": "electric_scooter", "lon": -77.04656616666666, "fusion_lon": 0.0, "lat": 38.892973166666664, "rental_uris": {"android": "https://dc.lft.to/lastmile_qr_scan", "ios": "https://dc.lft.to/lastmile_qr_scan"}, "fusion_lat": 0.0, "name": "9cb1c51728265f8902a8c976556dac56", "bike_id": "9cb1c51728265f8902a8c976556dac56"}, {"is_disabled": 0, "is_reserved": 0, "type": "electric_scooter", "lon": -76.99700966666667, "fusion_lon": 0.0, "lat": 38.83863933333333, "rental_uris": {"android": "https://dc.lft.to/lastmile_qr_scan", "ios": "https://dc.lft.to/lastmile_qr_scan"}, "fusion_lat": 0.0, "name": "a0ae8c7631621f29be4e2c9780ac8ca1", "bike_id": "a0ae8c7631621f29be4e2c9780ac8ca1"}, {"is_disabled": 0, "is_reserved": 0, "type": "electric_scooter", "lon": -77.05228366666667, "fusion_lon": 0.0, "lat": 38.924556833333334, "rental_uris": {"android": "https://dc.lft.to/lastmile_qr_scan", "ios": "https://dc.lft.to/lastmile_qr_scan"}, "fusion_lat": 0.0, "name": "62e43481c51ebef392287db02d67b12d", "bike_id": "62e43481c51ebef392287db02d67b12d"}, {"is_disabled": 0, "is_reserved": 0, "type": "electric_scooter", "lon": -76.98680116666667, "fusion_lon": 0.0, "lat": 38.85813733333333, "rental_uris": {"android": "https://dc.lft.to/lastmile_qr_scan", "ios": "https://dc.lft.to/lastmile_qr_scan"}, "fusion_lat": 0.0, "name": "4146910bfbd4d58d95751c3660e7e524", "bike_id": "4146910bfbd4d58d95751c3660e7e524"}, {"is_disabled": 0, "is_reserved": 0, "type": "electric_scooter", "lon": -77.02384216666667, "fusion_lon": 0.0, "lat": 38.89616183333333, "rental_uris": {"android": "https://dc.lft.to/lastmile_qr_scan", "ios": "https://dc.lft.to/lastmile_qr_scan"}, "fusion_lat": 0.0, "name": "8884d9a0b1008fa3ce82c23bb16abb35", "bike_id": "8884d9a0b1008fa3ce82c23bb16abb35"}, {"is_disabled": 0, "is_reserved": 0, "type": "electric_bike", "lon": -77.091622, "fusion_lon": 0.0, "lat": 38.9676315, "rental_uris": {"android": "https://dc.lft.to/lastmile_qr_scan", "ios": "https://dc.lft.to/lastmile_qr_scan"}, "fusion_lat": 0.0, "name": "826d323a01a71be082f7e17d9ec56665", "bike_id": "826d323a01a71be082f7e17d9ec56665"}, {"is_disabled": 0, "is_reserved": 0, "type": "electric_scooter", "lon": -77.03628233333333, "fusion_lon": 0.0, "lat": 38.956041166666665, "rental_uris": {"android": "https://dc.lft.to/lastmile_qr_scan", "ios": "https://dc.lft.to/lastmile_qr_scan"}, "fusion_lat": 0.0, "name": "a70c5ee68d52e2ae40fbd8a173485115", "bike_id": "a70c5ee68d52e2ae40fbd8a173485115"}, {"is_disabled": 0, "is_reserved": 0, "type": "electric_scooter", "lon": -77.040405, "fusion_lon": 0.0, "lat": 38.90477033333333, "rental_uris": {"android": "https://dc.lft.to/lastmile_qr_scan", "ios": "https://dc.lft.to/lastmile_qr_scan"}, "fusion_lat": 0.0, "name": "f9b2fc881dc278e348fb732d97553fb7", "bike_id": "f9b2fc881dc278e348fb732d97553fb7"}, {"is_disabled": 0, "is_reserved": 0, "type": "electric_scooter", "lon": -77.043775, "fusion_lon": 0.0, "lat": 38.92576733333333, "rental_uris": {"android": "https://dc.lft.to/lastmile_qr_scan", "ios": "https://dc.lft.to/lastmile_qr_scan"}, "fusion_lat": 0.0, "name": "bcfa375ab1409ec8605128850b734a35", "bike_id": "bcfa375ab1409ec8605128850b734a35"}, {"is_disabled": 0, "is_reserved": 0, "type": "electric_scooter", "lon": -77.046084, "fusion_lon": 0.0, "lat": 38.9056625, "rental_uris": {"android": "https://dc.lft.to/lastmile_qr_scan", "ios": "https://dc.lft.to/lastmile_qr_scan"}, "fusion_lat": 0.0, "name": "f0146f241a755345ceeddfed8d652cbb", "bike_id": "f0146f241a755345ceeddfed8d652cbb"}, {"is_disabled": 0, "is_reserved": 0, "type": "electric_scooter", "lon": -77.00929866666667, "fusion_lon": 0.0, "lat": 38.898417333333335, "rental_uris": {"android": "https://dc.lft.to/lastmile_qr_scan", "ios": "https://dc.lft.to/lastmile_qr_scan"}, "fusion_lat": 0.0, "name": "7b17aad5c26639c827a7d90e88fe1512", "bike_id": "7b17aad5c26639c827a7d90e88fe1512"}, {"is_disabled": 0, "is_reserved": 0, "type": "electric_scooter", "lon": -76.99462966666667, "fusion_lon": 0.0, "lat": 38.86194016666666, "rental_uris": {"android": "https://dc.lft.to/lastmile_qr_scan", "ios": "https://dc.lft.to/lastmile_qr_scan"}, "fusion_lat": 0.0, "name": "671a01c8cd8e0f895d43ac1dca2c8db0", "bike_id": "671a01c8cd8e0f895d43ac1dca2c8db0"}, {"is_disabled": 0, "is_reserved": 0, "type": "electric_scooter", "lon": -77.03853733333334, "fusion_lon": 0.0, "lat": 38.918397666666664, "rental_uris": {"android": "https://dc.lft.to/lastmile_qr_scan", "ios": "https://dc.lft.to/lastmile_qr_scan"}, "fusion_lat": 0.0, "name": "5f7b01647257ed46fae0e17d507ea198", "bike_id": "5f7b01647257ed46fae0e17d507ea198"}, {"is_disabled": 0, "is_reserved": 0, "type": "electric_scooter", "lon": -77.00569483333334, "fusion_lon": 0.0, "lat": 38.885009333333336, "rental_uris": {"android": "https://dc.lft.to/lastmile_qr_scan", "ios": "https://dc.lft.to/lastmile_qr_scan"}, "fusion_lat": 0.0, "name": "7eedf2ab617beca99427e4a8e887402d", "bike_id": "7eedf2ab617beca99427e4a8e887402d"}, {"is_disabled": 0, "is_reserved": 0, "type": "electric_scooter", "lon": -77.0273135, "fusion_lon": 0.0, "lat": 38.90478183333333, "rental_uris": {"android": "https://dc.lft.to/lastmile_qr_scan", "ios": "https://dc.lft.to/lastmile_qr_scan"}, "fusion_lat": 0.0, "name": "a000222b0dba61d6bae7db06e8084227", "bike_id": "a000222b0dba61d6bae7db06e8084227"}, {"is_disabled": 0, "is_reserved": 0, "type": "electric_bike", "lon": -77.1143035, "fusion_lon": 0.0, "lat": 38.852446666666665, "rental_uris": {"android": "https://dc.lft.to/lastmile_qr_scan", "ios": "https://dc.lft.to/lastmile_qr_scan"}, "fusion_lat": 0.0, "name": "dfeffa75d0897094d1b76006e3aef85c", "bike_id": "dfeffa75d0897094d1b76006e3aef85c"}, {"is_disabled": 0, "is_reserved": 0, "type": "electric_scooter", "lon": -77.01133133333333, "fusion_lon": 0.0, "lat": 38.909533833333334, "rental_uris": {"android": "https://dc.lft.to/lastmile_qr_scan", "ios": "https://dc.lft.to/lastmile_qr_scan"}, "fusion_lat": 0.0, "name": "6b81d9b8189cc2fad86bc837ea2a3f8b", "bike_id": "6b81d9b8189cc2fad86bc837ea2a3f8b"}, {"is_disabled": 0, "is_reserved": 0, "type": "electric_scooter", "lon": -77.0326475, "fusion_lon": 0.0, "lat": 38.935216833333335, "rental_uris": {"android": "https://dc.lft.to/lastmile_qr_scan", "ios": "https://dc.lft.to/lastmile_qr_scan"}, "fusion_lat": 0.0, "name": "13962125ef3a82dc46674013fecc9641", "bike_id": "13962125ef3a82dc46674013fecc9641"}, {"is_disabled": 0, "is_reserved": 0, "type": "electric_scooter", "lon": -77.02066516666666, "fusion_lon": 0.0, "lat": 38.90337383333333, "rental_uris": {"android": "https://dc.lft.to/lastmile_qr_scan", "ios": "https://dc.lft.to/lastmile_qr_scan"}, "fusion_lat": 0.0, "name": "4f4cfba3d2c48824ce64f6bd20b4c6b2", "bike_id": "4f4cfba3d2c48824ce64f6bd20b4c6b2"}, {"is_disabled": 0, "is_reserved": 0, "type": "electric_scooter", "lon": -77.02198083333333, "fusion_lon": 0.0, "lat": 38.92231233333333, "rental_uris": {"android": "https://dc.lft.to/lastmile_qr_scan", "ios": "https://dc.lft.to/lastmile_qr_scan"}, "fusion_lat": 0.0, "name": "fe8a29dce9e52382b3450637b6700a0d", "bike_id": "fe8a29dce9e52382b3450637b6700a0d"}, {"is_disabled": 0, "is_reserved": 0, "type": "electric_scooter", "lon": -77.016608, "fusion_lon": 0.0, "lat": 38.881163, "rental_uris": {"android": "https://dc.lft.to/lastmile_qr_scan", "ios": "https://dc.lft.to/lastmile_qr_scan"}, "fusion_lat": 0.0, "name": "ff41d432923455ce25a03c7f2b70d989", "bike_id": "ff41d432923455ce25a03c7f2b70d989"}, {"is_disabled": 0, "is_reserved": 0, "type": "electric_scooter", "lon": -77.032132, "fusion_lon": 0.0, "lat": 38.92580233333333, "rental_uris": {"android": "https://dc.lft.to/lastmile_qr_scan", "ios": "https://dc.lft.to/lastmile_qr_scan"}, "fusion_lat": 0.0, "name": "97934167a353c1be1456c18c3da064d8", "bike_id": "97934167a353c1be1456c18c3da064d8"}, {"is_disabled": 0, "is_reserved": 0, "type": "electric_scooter", "lon": -76.98957216666666, "fusion_lon": 0.0, "lat": 38.843952, "rental_uris": {"android": "https://dc.lft.to/lastmile_qr_scan", "ios": "https://dc.lft.to/lastmile_qr_scan"}, "fusion_lat": 0.0, "name": "610662e3d924b6a5c8dc9b89d50c8f96", "bike_id": "610662e3d924b6a5c8dc9b89d50c8f96"}, {"is_disabled": 0, "is_reserved": 0, "type": "electric_scooter", "lon": -77.06350966666666, "fusion_lon": 0.0, "lat": 38.9443905, "rental_uris": {"android": "https://dc.lft.to/lastmile_qr_scan", "ios": "https://dc.lft.to/lastmile_qr_scan"}, "fusion_lat": 0.0, "name": "c39478afce97055eb263a406744655f6", "bike_id": "c39478afce97055eb263a406744655f6"}, {"is_disabled": 0, "is_reserved": 0, "type": "electric_scooter", "lon": -77.0910075, "fusion_lon": 0.0, "lat": 38.956393, "rental_uris": {"android": "https://dc.lft.to/lastmile_qr_scan", "ios": "https://dc.lft.to/lastmile_qr_scan"}, "fusion_lat": 0.0, "name": "05cca385ad37e8942d626cf4be3456c1", "bike_id": "05cca385ad37e8942d626cf4be3456c1"}, {"is_disabled": 0, "is_reserved": 0, "type": "electric_scooter", "lon": -77.03547566666667, "fusion_lon": 0.0, "lat": 38.903677333333334, "rental_uris": {"android": "https://dc.lft.to/lastmile_qr_scan", "ios": "https://dc.lft.to/lastmile_qr_scan"}, "fusion_lat": 0.0, "name": "1653762ab2e17e50c0a485dffdce6174", "bike_id": "1653762ab2e17e50c0a485dffdce6174"}, {"is_disabled": 0, "is_reserved": 0, "type": "electric_scooter", "lon": -77.04330716666666, "fusion_lon": 0.0, "lat": 38.8983265, "rental_uris": {"android": "https://dc.lft.to/lastmile_qr_scan", "ios": "https://dc.lft.to/lastmile_qr_scan"}, "fusion_lat": 0.0, "name": "d7bc05af40569cea1ec41400e51c832b", "bike_id": "d7bc05af40569cea1ec41400e51c832b"}, {"is_disabled": 0, "is_reserved": 0, "type": "electric_scooter", "lon": -77.00333883333333, "fusion_lon": 0.0, "lat": 38.89354216666667, "rental_uris": {"android": "https://dc.lft.to/lastmile_qr_scan", "ios": "https://dc.lft.to/lastmile_qr_scan"}, "fusion_lat": 0.0, "name": "0ce9951293eb725cf3245f3add56b566", "bike_id": "0ce9951293eb725cf3245f3add56b566"}, {"is_disabled": 0, "is_reserved": 0, "type": "electric_scooter", "lon": -77.02346566666667, "fusion_lon": 0.0, "lat": 38.9226285, "rental_uris": {"android": "https://dc.lft.to/lastmile_qr_scan", "ios": "https://dc.lft.to/lastmile_qr_scan"}, "fusion_lat": 0.0, "name": "e177cbee2c09b28d3b4c4944604ba52e", "bike_id": "e177cbee2c09b28d3b4c4944604ba52e"}, {"is_disabled": 0, "is_reserved": 0, "type": "electric_bike", "lon": -76.95209616666666, "fusion_lon": 0.0, "lat": 38.9366865, "rental_uris": {"android": "https://dc.lft.to/lastmile_qr_scan", "ios": "https://dc.lft.to/lastmile_qr_scan"}, "fusion_lat": 0.0, "name": "9efccbf762a98b1fd5e3dba4c680757b", "bike_id": "9efccbf762a98b1fd5e3dba4c680757b"}, {"is_disabled": 0, "is_reserved": 0, "type": "electric_scooter", "lon": -77.01166666666667, "fusion_lon": 0.0, "lat": 38.897436, "rental_uris": {"android": "https://dc.lft.to/lastmile_qr_scan", "ios": "https://dc.lft.to/lastmile_qr_scan"}, "fusion_lat": 0.0, "name": "c6dd21da0e475fe8476ecb2e6d33766d", "bike_id": "c6dd21da0e475fe8476ecb2e6d33766d"}, {"is_disabled": 0, "is_reserved": 0, "type": "electric_scooter", "lon": -77.04758383333333, "fusion_lon": 0.0, "lat": 38.907183333333336, "rental_uris": {"android": "https://dc.lft.to/lastmile_qr_scan", "ios": "https://dc.lft.to/lastmile_qr_scan"}, "fusion_lat": 0.0, "name": "d0faf66631895718e836ee8e3e86183a", "bike_id": "d0faf66631895718e836ee8e3e86183a"}, {"is_disabled": 0, "is_reserved": 0, "type": "electric_scooter", "lon": -76.98723983333333, "fusion_lon": 0.0, "lat": 38.867164833333334, "rental_uris": {"android": "https://dc.lft.to/lastmile_qr_scan", "ios": "https://dc.lft.to/lastmile_qr_scan"}, "fusion_lat": 0.0, "name": "06bb4c22eb24adf472a6a2e6072e394c", "bike_id": "06bb4c22eb24adf472a6a2e6072e394c"}, {"is_disabled": 0, "is_reserved": 0, "type": "electric_scooter", "lon": -77.03204583333333, "fusion_lon": 0.0, "lat": 38.90752766666667, "rental_uris": {"android": "https://dc.lft.to/lastmile_qr_scan", "ios": "https://dc.lft.to/lastmile_qr_scan"}, "fusion_lat": 0.0, "name": "177d2506313cd831774422dd0da44cd9", "bike_id": "177d2506313cd831774422dd0da44cd9"}, {"is_disabled": 0, "is_reserved": 0, "type": "electric_scooter", "lon": -77.0333725, "fusion_lon": 0.0, "lat": 38.917188833333334, "rental_uris": {"android": "https://dc.lft.to/lastmile_qr_scan", "ios": "https://dc.lft.to/lastmile_qr_scan"}, "fusion_lat": 0.0, "name": "ff2fb70006bf15e64c05f0aec88b1be5", "bike_id": "ff2fb70006bf15e64c05f0aec88b1be5"}, {"is_disabled": 0, "is_reserved": 0, "type": "electric_scooter", "lon": -77.046264, "fusion_lon": 0.0, "lat": 38.918054833333336, "rental_uris": {"android": "https://dc.lft.to/lastmile_qr_scan", "ios": "https://dc.lft.to/lastmile_qr_scan"}, "fusion_lat": 0.0, "name": "94016538ae5be80f36990012ec585d4a", "bike_id": "94016538ae5be80f36990012ec585d4a"}, {"is_disabled": 0, "is_reserved": 0, "type": "electric_scooter", "lon": -77.0199105, "fusion_lon": 0.0, "lat": 38.87789383333333, "rental_uris": {"android": "https://dc.lft.to/lastmile_qr_scan", "ios": "https://dc.lft.to/lastmile_qr_scan"}, "fusion_lat": 0.0, "name": "51fa977fbb23fba642e12da4f88088c3", "bike_id": "51fa977fbb23fba642e12da4f88088c3"}, {"is_disabled": 0, "is_reserved": 0, "type": "electric_scooter", "lon": -77.0437005, "fusion_lon": 0.0, "lat": 38.91570216666667, "rental_uris": {"android": "https://dc.lft.to/lastmile_qr_scan", "ios": "https://dc.lft.to/lastmile_qr_scan"}, "fusion_lat": 0.0, "name": "43a727798c962c470edecf3df7f71834", "bike_id": "43a727798c962c470edecf3df7f71834"}, {"is_disabled": 0, "is_reserved": 0, "type": "electric_scooter", "lon": -77.03845383333334, "fusion_lon": 0.0, "lat": 38.9265145, "rental_uris": {"android": "https://dc.lft.to/lastmile_qr_scan", "ios": "https://dc.lft.to/lastmile_qr_scan"}, "fusion_lat": 0.0, "name": "8fa6d28d759763de5c98dc33c61adab6", "bike_id": "8fa6d28d759763de5c98dc33c61adab6"}, {"is_disabled": 0, "is_reserved": 0, "type": "electric_scooter", "lon": -77.01021866666666, "fusion_lon": 0.0, "lat": 38.906189, "rental_uris": {"android": "https://dc.lft.to/lastmile_qr_scan", "ios": "https://dc.lft.to/lastmile_qr_scan"}, "fusion_lat": 0.0, "name": "7786628e0462ad5ce40a6bf01395d215", "bike_id": "7786628e0462ad5ce40a6bf01395d215"}, {"is_disabled": 0, "is_reserved": 0, "type": "electric_scooter", "lon": -77.03461166666666, "fusion_lon": 0.0, "lat": 38.921565333333334, "rental_uris": {"android": "https://dc.lft.to/lastmile_qr_scan", "ios": "https://dc.lft.to/lastmile_qr_scan"}, "fusion_lat": 0.0, "name": "eeed73abaff29d0dc5cc8ff5b827cb44", "bike_id": "eeed73abaff29d0dc5cc8ff5b827cb44"}, {"is_disabled": 0, "is_reserved": 0, "type": "electric_scooter", "lon": -77.02115783333333, "fusion_lon": 0.0, "lat": 38.91735766666667, "rental_uris": {"android": "https://dc.lft.to/lastmile_qr_scan", "ios": "https://dc.lft.to/lastmile_qr_scan"}, "fusion_lat": 0.0, "name": "12c031899744aedc248d9235d18b27f4", "bike_id": "12c031899744aedc248d9235d18b27f4"}, {"is_disabled": 0, "is_reserved": 0, "type": "electric_scooter", "lon": -77.06856683333334, "fusion_lon": 0.0, "lat": 38.9522065, "rental_uris": {"android": "https://dc.lft.to/lastmile_qr_scan", "ios": "https://dc.lft.to/lastmile_qr_scan"}, "fusion_lat": 0.0, "name": "c767bbd0242d55d5adf4ee83cdbeda25", "bike_id": "c767bbd0242d55d5adf4ee83cdbeda25"}, {"is_disabled": 0, "is_reserved": 0, "type": "electric_scooter", "lon": -77.0383195, "fusion_lon": 0.0, "lat": 38.921754666666665, "rental_uris": {"android": "https://dc.lft.to/lastmile_qr_scan", "ios": "https://dc.lft.to/lastmile_qr_scan"}, "fusion_lat": 0.0, "name": "e2ac1c8d388cfc419fc25dca53cb249e", "bike_id": "e2ac1c8d388cfc419fc25dca53cb249e"}, {"is_disabled": 0, "is_reserved": 0, "type": "electric_scooter", "lon": -77.04502433333333, "fusion_lon": 0.0, "lat": 38.907749333333335, "rental_uris": {"android": "https://dc.lft.to/lastmile_qr_scan", "ios": "https://dc.lft.to/lastmile_qr_scan"}, "fusion_lat": 0.0, "name": "816b4d4b5802fde04b0468742f77fba6", "bike_id": "816b4d4b5802fde04b0468742f77fba6"}, {"is_disabled": 0, "is_reserved": 0, "type": "electric_scooter", "lon": -77.04374416666667, "fusion_lon": 0.0, "lat": 38.910516333333334, "rental_uris": {"android": "https://dc.lft.to/lastmile_qr_scan", "ios": "https://dc.lft.to/lastmile_qr_scan"}, "fusion_lat": 0.0, "name": "3de0e39e626c7caa578a61a263634dad", "bike_id": "3de0e39e626c7caa578a61a263634dad"}, {"is_disabled": 0, "is_reserved": 0, "type": "electric_scooter", "lon": -77.02717216666667, "fusion_lon": 0.0, "lat": 38.90079216666667, "rental_uris": {"android": "https://dc.lft.to/lastmile_qr_scan", "ios": "https://dc.lft.to/lastmile_qr_scan"}, "fusion_lat": 0.0, "name": "e949faaf8913ea86b6c358237e444861", "bike_id": "e949faaf8913ea86b6c358237e444861"}, {"is_disabled": 0, "is_reserved": 0, "type": "electric_scooter", "lon": -77.02995033333333, "fusion_lon": 0.0, "lat": 38.922497, "rental_uris": {"android": "https://dc.lft.to/lastmile_qr_scan", "ios": "https://dc.lft.to/lastmile_qr_scan"}, "fusion_lat": 0.0, "name": "f3d29223abba0a067c61baac4c65d5e3", "bike_id": "f3d29223abba0a067c61baac4c65d5e3"}, {"is_disabled": 0, "is_reserved": 0, "type": "electric_scooter", "lon": -77.01480066666667, "fusion_lon": 0.0, "lat": 38.876341833333335, "rental_uris": {"android": "https://dc.lft.to/lastmile_qr_scan", "ios": "https://dc.lft.to/lastmile_qr_scan"}, "fusion_lat": 0.0, "name": "e19b82e310b557a671b5ea75e8da14a7", "bike_id": "e19b82e310b557a671b5ea75e8da14a7"}, {"is_disabled": 0, "is_reserved": 0, "type": "electric_scooter", "lon": -76.947166, "fusion_lon": 0.0, "lat": 38.897203, "rental_uris": {"android": "https://dc.lft.to/lastmile_qr_scan", "ios": "https://dc.lft.to/lastmile_qr_scan"}, "fusion_lat": 0.0, "name": "b8ab8337c0598370dff1275049089ec4", "bike_id": "b8ab8337c0598370dff1275049089ec4"}, {"is_disabled": 0, "is_reserved": 0, "type": "electric_scooter", "lon": -77.04117833333333, "fusion_lon": 0.0, "lat": 38.923585, "rental_uris": {"android": "https://dc.lft.to/lastmile_qr_scan", "ios": "https://dc.lft.to/lastmile_qr_scan"}, "fusion_lat": 0.0, "name": "85efbdbe8cdd9433724218afc2703f56", "bike_id": "85efbdbe8cdd9433724218afc2703f56"}, {"is_disabled": 0, "is_reserved": 0, "type": "electric_scooter", "lon": -76.9797955, "fusion_lon": 0.0, "lat": 38.88771216666667, "rental_uris": {"android": "https://dc.lft.to/lastmile_qr_scan", "ios": "https://dc.lft.to/lastmile_qr_scan"}, "fusion_lat": 0.0, "name": "7d137ae7944ff62c4d8897207b39f56b", "bike_id": "7d137ae7944ff62c4d8897207b39f56b"}, {"is_disabled": 0, "is_reserved": 0, "type": "electric_scooter", "lon": -77.00566683333334, "fusion_lon": 0.0, "lat": 38.885062833333336, "rental_uris": {"android": "https://dc.lft.to/lastmile_qr_scan", "ios": "https://dc.lft.to/lastmile_qr_scan"}, "fusion_lat": 0.0, "name": "c29228a4ca61815ef9ad4de43f24e8f3", "bike_id": "c29228a4ca61815ef9ad4de43f24e8f3"}, {"is_disabled": 0, "is_reserved": 0, "type": "electric_scooter", "lon": -77.05095416666667, "fusion_lon": 0.0, "lat": 38.92338266666667, "rental_uris": {"android": "https://dc.lft.to/lastmile_qr_scan", "ios": "https://dc.lft.to/lastmile_qr_scan"}, "fusion_lat": 0.0, "name": "8df79ae4811edf21ebdc44b4b2ccdd95", "bike_id": "8df79ae4811edf21ebdc44b4b2ccdd95"}, {"is_disabled": 0, "is_reserved": 0, "type": "electric_scooter", "lon": -77.0417735, "fusion_lon": 0.0, "lat": 38.905471666666664, "rental_uris": {"android": "https://dc.lft.to/lastmile_qr_scan", "ios": "https://dc.lft.to/lastmile_qr_scan"}, "fusion_lat": 0.0, "name": "405a4652968b53b37605a92d8758934d", "bike_id": "405a4652968b53b37605a92d8758934d"}, {"is_disabled": 0, "is_reserved": 0, "type": "electric_scooter", "lon": -77.02079116666667, "fusion_lon": 0.0, "lat": 38.89743816666667, "rental_uris": {"android": "https://dc.lft.to/lastmile_qr_scan", "ios": "https://dc.lft.to/lastmile_qr_scan"}, "fusion_lat": 0.0, "name": "6817afa57918dffe787bddede741b23a", "bike_id": "6817afa57918dffe787bddede741b23a"}, {"is_disabled": 0, "is_reserved": 0, "type": "electric_scooter", "lon": -77.03920016666666, "fusion_lon": 0.0, "lat": 38.89992266666667, "rental_uris": {"android": "https://dc.lft.to/lastmile_qr_scan", "ios": "https://dc.lft.to/lastmile_qr_scan"}, "fusion_lat": 0.0, "name": "6877b5606649b1bb52aa83e7dfc9d5a0", "bike_id": "6877b5606649b1bb52aa83e7dfc9d5a0"}, {"is_disabled": 0, "is_reserved": 0, "type": "electric_scooter", "lon": -77.022945, "fusion_lon": 0.0, "lat": 38.92686966666667, "rental_uris": {"android": "https://dc.lft.to/lastmile_qr_scan", "ios": "https://dc.lft.to/lastmile_qr_scan"}, "fusion_lat": 0.0, "name": "5effdc35356b64fa5aca59ca736fd2b9", "bike_id": "5effdc35356b64fa5aca59ca736fd2b9"}, {"is_disabled": 0, "is_reserved": 0, "type": "electric_scooter", "lon": -77.04421433333333, "fusion_lon": 0.0, "lat": 38.909401833333334, "rental_uris": {"android": "https://dc.lft.to/lastmile_qr_scan", "ios": "https://dc.lft.to/lastmile_qr_scan"}, "fusion_lat": 0.0, "name": "6f1f33e3a22c36bb8ed6b2f7cb75898e", "bike_id": "6f1f33e3a22c36bb8ed6b2f7cb75898e"}, {"is_disabled": 0, "is_reserved": 0, "type": "electric_scooter", "lon": -77.027291, "fusion_lon": 0.0, "lat": 38.904939166666665, "rental_uris": {"android": "https://dc.lft.to/lastmile_qr_scan", "ios": "https://dc.lft.to/lastmile_qr_scan"}, "fusion_lat": 0.0, "name": "99082cd73b2d6904d01c2f88965d07a5", "bike_id": "99082cd73b2d6904d01c2f88965d07a5"}, {"is_disabled": 0, "is_reserved": 0, "type": "electric_scooter", "lon": -77.032036, "fusion_lon": 0.0, "lat": 38.91118933333333, "rental_uris": {"android": "https://dc.lft.to/lastmile_qr_scan", "ios": "https://dc.lft.to/lastmile_qr_scan"}, "fusion_lat": 0.0, "name": "645c6739bda03c420f22ebf0ee4dc572", "bike_id": "645c6739bda03c420f22ebf0ee4dc572"}, {"is_disabled": 0, "is_reserved": 0, "type": "electric_scooter", "lon": -77.0448975, "fusion_lon": 0.0, "lat": 38.913613833333336, "rental_uris": {"android": "https://dc.lft.to/lastmile_qr_scan", "ios": "https://dc.lft.to/lastmile_qr_scan"}, "fusion_lat": 0.0, "name": "563ac5de219b4ed3b4d3876d3d939171", "bike_id": "563ac5de219b4ed3b4d3876d3d939171"}, {"is_disabled": 0, "is_reserved": 0, "type": "electric_bike", "lon": -77.00760966666667, "fusion_lon": 0.0, "lat": 38.877967, "rental_uris": {"android": "https://dc.lft.to/lastmile_qr_scan", "ios": "https://dc.lft.to/lastmile_qr_scan"}, "fusion_lat": 0.0, "name": "f637e8346797121d98ecd96d06c0f533", "bike_id": "f637e8346797121d98ecd96d06c0f533"}, {"is_disabled": 0, "is_reserved": 0, "type": "electric_scooter", "lon": -77.01375133333333, "fusion_lon": 0.0, "lat": 38.92866083333333, "rental_uris": {"android": "https://dc.lft.to/lastmile_qr_scan", "ios": "https://dc.lft.to/lastmile_qr_scan"}, "fusion_lat": 0.0, "name": "c40863ad80742088052d95da1b3134bf", "bike_id": "c40863ad80742088052d95da1b3134bf"}, {"is_disabled": 0, "is_reserved": 0, "type": "electric_scooter", "lon": -77.03613883333334, "fusion_lon": 0.0, "lat": 38.931487833333335, "rental_uris": {"android": "https://dc.lft.to/lastmile_qr_scan", "ios": "https://dc.lft.to/lastmile_qr_scan"}, "fusion_lat": 0.0, "name": "8a134741538fb2367229e37aa6747e3a", "bike_id": "8a134741538fb2367229e37aa6747e3a"}, {"is_disabled": 0, "is_reserved": 0, "type": "electric_bike", "lon": -76.97329666666667, "fusion_lon": 0.0, "lat": 38.850639666666666, "rental_uris": {"android": "https://dc.lft.to/lastmile_qr_scan", "ios": "https://dc.lft.to/lastmile_qr_scan"}, "fusion_lat": 0.0, "name": "1995f67d0aec9fcd0b5ce527e4d4932e", "bike_id": "1995f67d0aec9fcd0b5ce527e4d4932e"}, {"is_disabled": 0, "is_reserved": 0, "type": "electric_scooter", "lon": -77.034638, "fusion_lon": 0.0, "lat": 38.90270016666667, "rental_uris": {"android": "https://dc.lft.to/lastmile_qr_scan", "ios": "https://dc.lft.to/lastmile_qr_scan"}, "fusion_lat": 0.0, "name": "220de7419e9c33c342420352f0603ea7", "bike_id": "220de7419e9c33c342420352f0603ea7"}, {"is_disabled": 0, "is_reserved": 0, "type": "electric_scooter", "lon": -77.04127683333333, "fusion_lon": 0.0, "lat": 38.92347433333333, "rental_uris": {"android": "https://dc.lft.to/lastmile_qr_scan", "ios": "https://dc.lft.to/lastmile_qr_scan"}, "fusion_lat": 0.0, "name": "677650db02107748b2a4b4225f4314e0", "bike_id": "677650db02107748b2a4b4225f4314e0"}, {"is_disabled": 0, "is_reserved": 0, "type": "electric_scooter", "lon": -77.0248365, "fusion_lon": 0.0, "lat": 38.91621833333333, "rental_uris": {"android": "https://dc.lft.to/lastmile_qr_scan", "ios": "https://dc.lft.to/lastmile_qr_scan"}, "fusion_lat": 0.0, "name": "7fa7d5c9738f42b9051d2d317ec776e1", "bike_id": "7fa7d5c9738f42b9051d2d317ec776e1"}, {"is_disabled": 0, "is_reserved": 0, "type": "electric_scooter", "lon": -77.04020383333334, "fusion_lon": 0.0, "lat": 38.9219695, "rental_uris": {"android": "https://dc.lft.to/lastmile_qr_scan", "ios": "https://dc.lft.to/lastmile_qr_scan"}, "fusion_lat": 0.0, "name": "09372b7ce86549fbf85c100cdd2789a7", "bike_id": "09372b7ce86549fbf85c100cdd2789a7"}, {"is_disabled": 0, "is_reserved": 0, "type": "electric_scooter", "lon": -77.03651916666666, "fusion_lon": 0.0, "lat": 38.95490183333333, "rental_uris": {"android": "https://dc.lft.to/lastmile_qr_scan", "ios": "https://dc.lft.to/lastmile_qr_scan"}, "fusion_lat": 0.0, "name": "3410e75e540ac8ce373dfcd8e9de54f6", "bike_id": "3410e75e540ac8ce373dfcd8e9de54f6"}, {"is_disabled": 0, "is_reserved": 0, "type": "electric_scooter", "lon": -77.043751, "fusion_lon": 0.0, "lat": 38.90246166666667, "rental_uris": {"android": "https://dc.lft.to/lastmile_qr_scan", "ios": "https://dc.lft.to/lastmile_qr_scan"}, "fusion_lat": 0.0, "name": "7fd4de54f58483d5c3063b9950a99217", "bike_id": "7fd4de54f58483d5c3063b9950a99217"}, {"is_disabled": 0, "is_reserved": 0, "type": "electric_scooter", "lon": -77.0334365, "fusion_lon": 0.0, "lat": 38.902442, "rental_uris": {"android": "https://dc.lft.to/lastmile_qr_scan", "ios": "https://dc.lft.to/lastmile_qr_scan"}, "fusion_lat": 0.0, "name": "961dbbce5c320ea376745945cca1720d", "bike_id": "961dbbce5c320ea376745945cca1720d"}, {"is_disabled": 0, "is_reserved": 0, "type": "electric_scooter", "lon": -76.99007083333333, "fusion_lon": 0.0, "lat": 38.8650685, "rental_uris": {"android": "https://dc.lft.to/lastmile_qr_scan", "ios": "https://dc.lft.to/lastmile_qr_scan"}, "fusion_lat": 0.0, "name": "e20bf88de34e2ce0b3f365ebeb69d825", "bike_id": "e20bf88de34e2ce0b3f365ebeb69d825"}, {"is_disabled": 0, "is_reserved": 0, "type": "electric_scooter", "lon": -77.03652633333333, "fusion_lon": 0.0, "lat": 38.902845666666664, "rental_uris": {"android": "https://dc.lft.to/lastmile_qr_scan", "ios": "https://dc.lft.to/lastmile_qr_scan"}, "fusion_lat": 0.0, "name": "21768c838df6c3456a9816d598cef658", "bike_id": "21768c838df6c3456a9816d598cef658"}, {"is_disabled": 0, "is_reserved": 0, "type": "electric_bike", "lon": -77.09565283333333, "fusion_lon": 0.0, "lat": 38.9169255, "rental_uris": {"android": "https://dc.lft.to/lastmile_qr_scan", "ios": "https://dc.lft.to/lastmile_qr_scan"}, "fusion_lat": 0.0, "name": "f21f3095d73bf4204e26d65e164db9b4", "bike_id": "f21f3095d73bf4204e26d65e164db9b4"}, {"is_disabled": 0, "is_reserved": 0, "type": "electric_scooter", "lon": -77.032998, "fusion_lon": 0.0, "lat": 38.9040415, "rental_uris": {"android": "https://dc.lft.to/lastmile_qr_scan", "ios": "https://dc.lft.to/lastmile_qr_scan"}, "fusion_lat": 0.0, "name": "5b62282e2dcdb51722b2febf672c9bac", "bike_id": "5b62282e2dcdb51722b2febf672c9bac"}, {"is_disabled": 0, "is_reserved": 0, "type": "electric_scooter", "lon": -77.044892, "fusion_lon": 0.0, "lat": 38.908588333333334, "rental_uris": {"android": "https://dc.lft.to/lastmile_qr_scan", "ios": "https://dc.lft.to/lastmile_qr_scan"}, "fusion_lat": 0.0, "name": "9309fa44ed4f4b8d0c9be248930c8401", "bike_id": "9309fa44ed4f4b8d0c9be248930c8401"}, {"is_disabled": 0, "is_reserved": 0, "type": "electric_scooter", "lon": -77.02698983333333, "fusion_lon": 0.0, "lat": 38.949572333333336, "rental_uris": {"android": "https://dc.lft.to/lastmile_qr_scan", "ios": "https://dc.lft.to/lastmile_qr_scan"}, "fusion_lat": 0.0, "name": "62d787262ab302a70ef4ef37c55c5955", "bike_id": "62d787262ab302a70ef4ef37c55c5955"}, {"is_disabled": 0, "is_reserved": 0, "type": "electric_scooter", "lon": -77.01896783333333, "fusion_lon": 0.0, "lat": 38.91218416666667, "rental_uris": {"android": "https://dc.lft.to/lastmile_qr_scan", "ios": "https://dc.lft.to/lastmile_qr_scan"}, "fusion_lat": 0.0, "name": "17aaf4bd3ef88a6e286e82ab0ddddfae", "bike_id": "17aaf4bd3ef88a6e286e82ab0ddddfae"}, {"is_disabled": 0, "is_reserved": 0, "type": "electric_scooter", "lon": -77.0284525, "fusion_lon": 0.0, "lat": 38.932996833333334, "rental_uris": {"android": "https://dc.lft.to/lastmile_qr_scan", "ios": "https://dc.lft.to/lastmile_qr_scan"}, "fusion_lat": 0.0, "name": "f7a6fc81da96d07982fa7134a5ba22e3", "bike_id": "f7a6fc81da96d07982fa7134a5ba22e3"}, {"is_disabled": 0, "is_reserved": 0, "type": "electric_scooter", "lon": -77.03865566666667, "fusion_lon": 0.0, "lat": 38.90382966666667, "rental_uris": {"android": "https://dc.lft.to/lastmile_qr_scan", "ios": "https://dc.lft.to/lastmile_qr_scan"}, "fusion_lat": 0.0, "name": "7eb20e580ad23ea1e4691749e1c9b47e", "bike_id": "7eb20e580ad23ea1e4691749e1c9b47e"}, {"is_disabled": 0, "is_reserved": 0, "type": "electric_scooter", "lon": -77.03448283333333, "fusion_lon": 0.0, "lat": 38.902704, "rental_uris": {"android": "https://dc.lft.to/lastmile_qr_scan", "ios": "https://dc.lft.to/lastmile_qr_scan"}, "fusion_lat": 0.0, "name": "0806d06cd82d00a50d345266043924f0", "bike_id": "0806d06cd82d00a50d345266043924f0"}, {"is_disabled": 0, "is_reserved": 0, "type": "electric_scooter", "lon": -77.02992466666667, "fusion_lon": 0.0, "lat": 38.93242683333333, "rental_uris": {"android": "https://dc.lft.to/lastmile_qr_scan", "ios": "https://dc.lft.to/lastmile_qr_scan"}, "fusion_lat": 0.0, "name": "e05f3c104365b7cd17bb075eceec660e", "bike_id": "e05f3c104365b7cd17bb075eceec660e"}, {"is_disabled": 0, "is_reserved": 0, "type": "electric_scooter", "lon": -77.0389595, "fusion_lon": 0.0, "lat": 38.924949166666664, "rental_uris": {"android": "https://dc.lft.to/lastmile_qr_scan", "ios": "https://dc.lft.to/lastmile_qr_scan"}, "fusion_lat": 0.0, "name": "516ac51c75247051ebeb46be358bdd4e", "bike_id": "516ac51c75247051ebeb46be358bdd4e"}, {"is_disabled": 0, "is_reserved": 0, "type": "electric_scooter", "lon": -77.04694366666666, "fusion_lon": 0.0, "lat": 38.8973655, "rental_uris": {"android": "https://dc.lft.to/lastmile_qr_scan", "ios": "https://dc.lft.to/lastmile_qr_scan"}, "fusion_lat": 0.0, "name": "864103c4613f231b7cdbbf0db9bef676", "bike_id": "864103c4613f231b7cdbbf0db9bef676"}, {"is_disabled": 0, "is_reserved": 0, "type": "electric_scooter", "lon": -77.02653583333333, "fusion_lon": 0.0, "lat": 38.93267266666667, "rental_uris": {"android": "https://dc.lft.to/lastmile_qr_scan", "ios": "https://dc.lft.to/lastmile_qr_scan"}, "fusion_lat": 0.0, "name": "c108b0cc1899a96b5e2c406f50e06679", "bike_id": "c108b0cc1899a96b5e2c406f50e06679"}, {"is_disabled": 0, "is_reserved": 0, "type": "electric_scooter", "lon": -76.98782033333333, "fusion_lon": 0.0, "lat": 38.8446835, "rental_uris": {"android": "https://dc.lft.to/lastmile_qr_scan", "ios": "https://dc.lft.to/lastmile_qr_scan"}, "fusion_lat": 0.0, "name": "2713d67833dccb07c65f7f31f02e8b9e", "bike_id": "2713d67833dccb07c65f7f31f02e8b9e"}, {"is_disabled": 0, "is_reserved": 0, "type": "electric_bike", "lon": -76.98830766666667, "fusion_lon": 0.0, "lat": 38.98559366666667, "rental_uris": {"android": "https://dc.lft.to/lastmile_qr_scan", "ios": "https://dc.lft.to/lastmile_qr_scan"}, "fusion_lat": 0.0, "name": "e5843ef134c21767a96e3bea7fe5dbe6", "bike_id": "e5843ef134c21767a96e3bea7fe5dbe6"}, {"is_disabled": 0, "is_reserved": 0, "type": "electric_scooter", "lon": -76.99030733333333, "fusion_lon": 0.0, "lat": 38.8985375, "rental_uris": {"android": "https://dc.lft.to/lastmile_qr_scan", "ios": "https://dc.lft.to/lastmile_qr_scan"}, "fusion_lat": 0.0, "name": "9b8266db24b25f6f74508f17db69fc49", "bike_id": "9b8266db24b25f6f74508f17db69fc49"}, {"is_disabled": 0, "is_reserved": 0, "type": "electric_scooter", "lon": -77.05079466666666, "fusion_lon": 0.0, "lat": 38.905391333333334, "rental_uris": {"android": "https://dc.lft.to/lastmile_qr_scan", "ios": "https://dc.lft.to/lastmile_qr_scan"}, "fusion_lat": 0.0, "name": "812641d113cd63a2ca4c22c04493c5f3", "bike_id": "812641d113cd63a2ca4c22c04493c5f3"}, {"is_disabled": 0, "is_reserved": 0, "type": "electric_scooter", "lon": -77.026312, "fusion_lon": 0.0, "lat": 38.979468833333335, "rental_uris": {"android": "https://dc.lft.to/lastmile_qr_scan", "ios": "https://dc.lft.to/lastmile_qr_scan"}, "fusion_lat": 0.0, "name": "3539ebd52d5bb31cd4e5ed5b8d914de0", "bike_id": "3539ebd52d5bb31cd4e5ed5b8d914de0"}, {"is_disabled": 0, "is_reserved": 0, "type": "electric_scooter", "lon": -77.02741866666666, "fusion_lon": 0.0, "lat": 38.943090166666664, "rental_uris": {"android": "https://dc.lft.to/lastmile_qr_scan", "ios": "https://dc.lft.to/lastmile_qr_scan"}, "fusion_lat": 0.0, "name": "ee7742bcfdcee74ec343d4fcab196556", "bike_id": "ee7742bcfdcee74ec343d4fcab196556"}, {"is_disabled": 0, "is_reserved": 0, "type": "electric_scooter", "lon": -77.040205, "fusion_lon": 0.0, "lat": 38.917967166666664, "rental_uris": {"android": "https://dc.lft.to/lastmile_qr_scan", "ios": "https://dc.lft.to/lastmile_qr_scan"}, "fusion_lat": 0.0, "name": "93c6fa69430409ab7beda2802d4f2f67", "bike_id": "93c6fa69430409ab7beda2802d4f2f67"}, {"is_disabled": 0, "is_reserved": 0, "type": "electric_scooter", "lon": -77.04613916666666, "fusion_lon": 0.0, "lat": 38.9231365, "rental_uris": {"android": "https://dc.lft.to/lastmile_qr_scan", "ios": "https://dc.lft.to/lastmile_qr_scan"}, "fusion_lat": 0.0, "name": "ae08013d045e1ba78354b40e9c94de4a", "bike_id": "ae08013d045e1ba78354b40e9c94de4a"}, {"is_disabled": 0, "is_reserved": 0, "type": "electric_scooter", "lon": -76.94117983333334, "fusion_lon": 0.0, "lat": 38.88446, "rental_uris": {"android": "https://dc.lft.to/lastmile_qr_scan", "ios": "https://dc.lft.to/lastmile_qr_scan"}, "fusion_lat": 0.0, "name": "a8a5c741d1bf8e3cf889448139c1d65c", "bike_id": "a8a5c741d1bf8e3cf889448139c1d65c"}, {"is_disabled": 0, "is_reserved": 0, "type": "electric_scooter", "lon": -77.0425805, "fusion_lon": 0.0, "lat": 38.91032516666667, "rental_uris": {"android": "https://dc.lft.to/lastmile_qr_scan", "ios": "https://dc.lft.to/lastmile_qr_scan"}, "fusion_lat": 0.0, "name": "2228f3a855aa9a4e50deca3240a72263", "bike_id": "2228f3a855aa9a4e50deca3240a72263"}, {"is_disabled": 0, "is_reserved": 0, "type": "electric_scooter", "lon": -77.01740066666666, "fusion_lon": 0.0, "lat": 38.92111166666667, "rental_uris": {"android": "https://dc.lft.to/lastmile_qr_scan", "ios": "https://dc.lft.to/lastmile_qr_scan"}, "fusion_lat": 0.0, "name": "aeee140277451fe6cbfb19caf3fb8b87", "bike_id": "aeee140277451fe6cbfb19caf3fb8b87"}, {"is_disabled": 0, "is_reserved": 0, "type": "electric_scooter", "lon": -77.03240166666667, "fusion_lon": 0.0, "lat": 38.931415666666666, "rental_uris": {"android": "https://dc.lft.to/lastmile_qr_scan", "ios": "https://dc.lft.to/lastmile_qr_scan"}, "fusion_lat": 0.0, "name": "100d9d266c4e06659fd5a9a43bd1797c", "bike_id": "100d9d266c4e06659fd5a9a43bd1797c"}, {"is_disabled": 0, "is_reserved": 0, "type": "electric_bike", "lon": -77.12901416666666, "fusion_lon": 0.0, "lat": 38.86376816666667, "rental_uris": {"android": "https://dc.lft.to/lastmile_qr_scan", "ios": "https://dc.lft.to/lastmile_qr_scan"}, "fusion_lat": 0.0, "name": "87afb4fa6e12ad62d1690de926f42d55", "bike_id": "87afb4fa6e12ad62d1690de926f42d55"}, {"is_disabled": 0, "is_reserved": 0, "type": "electric_scooter", "lon": -77.04370933333334, "fusion_lon": 0.0, "lat": 38.920888, "rental_uris": {"android": "https://dc.lft.to/lastmile_qr_scan", "ios": "https://dc.lft.to/lastmile_qr_scan"}, "fusion_lat": 0.0, "name": "38c6cad208ac10b0ac233a339d614dc7", "bike_id": "38c6cad208ac10b0ac233a339d614dc7"}, {"is_disabled": 0, "is_reserved": 0, "type": "electric_scooter", "lon": -77.04363733333334, "fusion_lon": 0.0, "lat": 38.90007, "rental_uris": {"android": "https://dc.lft.to/lastmile_qr_scan", "ios": "https://dc.lft.to/lastmile_qr_scan"}, "fusion_lat": 0.0, "name": "2c81ff8cd6228af8680e1dc4836abc53", "bike_id": "2c81ff8cd6228af8680e1dc4836abc53"}, {"is_disabled": 0, "is_reserved": 0, "type": "electric_scooter", "lon": -76.99846033333333, "fusion_lon": 0.0, "lat": 38.90237483333333, "rental_uris": {"android": "https://dc.lft.to/lastmile_qr_scan", "ios": "https://dc.lft.to/lastmile_qr_scan"}, "fusion_lat": 0.0, "name": "ae8b880ee974a07de66a48806d69ce8d", "bike_id": "ae8b880ee974a07de66a48806d69ce8d"}, {"is_disabled": 0, "is_reserved": 0, "type": "electric_bike", "lon": -77.02101216666667, "fusion_lon": 0.0, "lat": 39.022938, "rental_uris": {"android": "https://dc.lft.to/lastmile_qr_scan", "ios": "https://dc.lft.to/lastmile_qr_scan"}, "fusion_lat": 0.0, "name": "5e2a988da2de5a54827a8269ff15aa96", "bike_id": "5e2a988da2de5a54827a8269ff15aa96"}, {"is_disabled": 0, "is_reserved": 0, "type": "electric_scooter", "lon": -77.05859183333334, "fusion_lon": 0.0, "lat": 38.93602383333333, "rental_uris": {"android": "https://dc.lft.to/lastmile_qr_scan", "ios": "https://dc.lft.to/lastmile_qr_scan"}, "fusion_lat": 0.0, "name": "555af2396e44bb1e96b1700f5e43e2c6", "bike_id": "555af2396e44bb1e96b1700f5e43e2c6"}, {"is_disabled": 0, "is_reserved": 0, "type": "electric_scooter", "lon": -77.02723033333334, "fusion_lon": 0.0, "lat": 38.940871666666666, "rental_uris": {"android": "https://dc.lft.to/lastmile_qr_scan", "ios": "https://dc.lft.to/lastmile_qr_scan"}, "fusion_lat": 0.0, "name": "0a34316527ae7e5315ae223c180a1275", "bike_id": "0a34316527ae7e5315ae223c180a1275"}, {"is_disabled": 0, "is_reserved": 0, "type": "electric_scooter", "lon": -77.024926, "fusion_lon": 0.0, "lat": 38.916988333333336, "rental_uris": {"android": "https://dc.lft.to/lastmile_qr_scan", "ios": "https://dc.lft.to/lastmile_qr_scan"}, "fusion_lat": 0.0, "name": "9a8e3ba23fbda066d8ba4652e53aafd0", "bike_id": "9a8e3ba23fbda066d8ba4652e53aafd0"}, {"is_disabled": 0, "is_reserved": 0, "type": "electric_scooter", "lon": -77.04152266666667, "fusion_lon": 0.0, "lat": 38.9013255, "rental_uris": {"android": "https://dc.lft.to/lastmile_qr_scan", "ios": "https://dc.lft.to/lastmile_qr_scan"}, "fusion_lat": 0.0, "name": "7e18a05d1116b9b7cd77c5d6f5bc4fb2", "bike_id": "7e18a05d1116b9b7cd77c5d6f5bc4fb2"}, {"is_disabled": 0, "is_reserved": 0, "type": "electric_scooter", "lon": -77.02238416666667, "fusion_lon": 0.0, "lat": 38.89862016666667, "rental_uris": {"android": "https://dc.lft.to/lastmile_qr_scan", "ios": "https://dc.lft.to/lastmile_qr_scan"}, "fusion_lat": 0.0, "name": "084c93593942422f3a6233a716442b01", "bike_id": "084c93593942422f3a6233a716442b01"}, {"is_disabled": 0, "is_reserved": 0, "type": "electric_scooter", "lon": -77.0268045, "fusion_lon": 0.0, "lat": 38.909592333333336, "rental_uris": {"android": "https://dc.lft.to/lastmile_qr_scan", "ios": "https://dc.lft.to/lastmile_qr_scan"}, "fusion_lat": 0.0, "name": "2b7e28e7b88b5d102cd57cc42967e6a7", "bike_id": "2b7e28e7b88b5d102cd57cc42967e6a7"}, {"is_disabled": 0, "is_reserved": 0, "type": "electric_scooter", "lon": -77.074363, "fusion_lon": 0.0, "lat": 38.91106383333333, "rental_uris": {"android": "https://dc.lft.to/lastmile_qr_scan", "ios": "https://dc.lft.to/lastmile_qr_scan"}, "fusion_lat": 0.0, "name": "4733271f96236d7d621bcf07ac51282c", "bike_id": "4733271f96236d7d621bcf07ac51282c"}, {"is_disabled": 0, "is_reserved": 0, "type": "electric_scooter", "lon": -77.009161, "fusion_lon": 0.0, "lat": 38.9594825, "rental_uris": {"android": "https://dc.lft.to/lastmile_qr_scan", "ios": "https://dc.lft.to/lastmile_qr_scan"}, "fusion_lat": 0.0, "name": "7d6fce4fe9408f3ee7b4d7fc50c151df", "bike_id": "7d6fce4fe9408f3ee7b4d7fc50c151df"}, {"is_disabled": 0, "is_reserved": 0, "type": "electric_scooter", "lon": -77.03878233333333, "fusion_lon": 0.0, "lat": 38.91265116666667, "rental_uris": {"android": "https://dc.lft.to/lastmile_qr_scan", "ios": "https://dc.lft.to/lastmile_qr_scan"}, "fusion_lat": 0.0, "name": "8015e303638d56cb5b7e1c8c534e4338", "bike_id": "8015e303638d56cb5b7e1c8c534e4338"}, {"is_disabled": 0, "is_reserved": 0, "type": "electric_scooter", "lon": -77.03423883333333, "fusion_lon": 0.0, "lat": 38.9192195, "rental_uris": {"android": "https://dc.lft.to/lastmile_qr_scan", "ios": "https://dc.lft.to/lastmile_qr_scan"}, "fusion_lat": 0.0, "name": "9f716f25add706673b030597fcb8be1d", "bike_id": "9f716f25add706673b030597fcb8be1d"}, {"is_disabled": 0, "is_reserved": 0, "type": "electric_bike", "lon": -77.080534, "fusion_lon": 0.0, "lat": 38.848434, "rental_uris": {"android": "https://dc.lft.to/lastmile_qr_scan", "ios": "https://dc.lft.to/lastmile_qr_scan"}, "fusion_lat": 0.0, "name": "edfdbe9d59b829818356b4d2a2810819", "bike_id": "edfdbe9d59b829818356b4d2a2810819"}, {"is_disabled": 0, "is_reserved": 0, "type": "electric_scooter", "lon": -77.03160333333334, "fusion_lon": 0.0, "lat": 38.916246, "rental_uris": {"android": "https://dc.lft.to/lastmile_qr_scan", "ios": "https://dc.lft.to/lastmile_qr_scan"}, "fusion_lat": 0.0, "name": "cf1cbc051e5b7818b5e1204faedf449d", "bike_id": "cf1cbc051e5b7818b5e1204faedf449d"}, {"is_disabled": 0, "is_reserved": 0, "type": "electric_scooter", "lon": -77.05414783333333, "fusion_lon": 0.0, "lat": 38.92823283333333, "rental_uris": {"android": "https://dc.lft.to/lastmile_qr_scan", "ios": "https://dc.lft.to/lastmile_qr_scan"}, "fusion_lat": 0.0, "name": "8debbaed858366ea0d1835ea00f655fb", "bike_id": "8debbaed858366ea0d1835ea00f655fb"}, {"is_disabled": 0, "is_reserved": 0, "type": "electric_scooter", "lon": -76.99821316666667, "fusion_lon": 0.0, "lat": 38.84434, "rental_uris": {"android": "https://dc.lft.to/lastmile_qr_scan", "ios": "https://dc.lft.to/lastmile_qr_scan"}, "fusion_lat": 0.0, "name": "2069b0c0514b81708591fd3a76a8bb20", "bike_id": "2069b0c0514b81708591fd3a76a8bb20"}, {"is_disabled": 0, "is_reserved": 0, "type": "electric_scooter", "lon": -76.99144133333333, "fusion_lon": 0.0, "lat": 38.90000116666667, "rental_uris": {"android": "https://dc.lft.to/lastmile_qr_scan", "ios": "https://dc.lft.to/lastmile_qr_scan"}, "fusion_lat": 0.0, "name": "00672250bf7ad07ac7f3067435a7daaf", "bike_id": "00672250bf7ad07ac7f3067435a7daaf"}, {"is_disabled": 0, "is_reserved": 0, "type": "electric_scooter", "lon": -76.95001733333334, "fusion_lon": 0.0, "lat": 38.893944833333336, "rental_uris": {"android": "https://dc.lft.to/lastmile_qr_scan", "ios": "https://dc.lft.to/lastmile_qr_scan"}, "fusion_lat": 0.0, "name": "8efb547f85eb68550bc59a02cac5cfb2", "bike_id": "8efb547f85eb68550bc59a02cac5cfb2"}, {"is_disabled": 0, "is_reserved": 0, "type": "electric_bike", "lon": -76.98257183333334, "fusion_lon": 0.0, "lat": 38.953342, "rental_uris": {"android": "https://dc.lft.to/lastmile_qr_scan", "ios": "https://dc.lft.to/lastmile_qr_scan"}, "fusion_lat": 0.0, "name": "eab108cbadc15d13db8b87a125bd8dba", "bike_id": "eab108cbadc15d13db8b87a125bd8dba"}, {"is_disabled": 0, "is_reserved": 0, "type": "electric_scooter", "lon": -77.0346835, "fusion_lon": 0.0, "lat": 38.909787666666666, "rental_uris": {"android": "https://dc.lft.to/lastmile_qr_scan", "ios": "https://dc.lft.to/lastmile_qr_scan"}, "fusion_lat": 0.0, "name": "7a3bf281afa7e006ebcf0f513241beed", "bike_id": "7a3bf281afa7e006ebcf0f513241beed"}, {"is_disabled": 0, "is_reserved": 0, "type": "electric_scooter", "lon": -76.9949795, "fusion_lon": 0.0, "lat": 38.8624395, "rental_uris": {"android": "https://dc.lft.to/lastmile_qr_scan", "ios": "https://dc.lft.to/lastmile_qr_scan"}, "fusion_lat": 0.0, "name": "ce459e68727a8577f017dab65efb9664", "bike_id": "ce459e68727a8577f017dab65efb9664"}, {"is_disabled": 0, "is_reserved": 0, "type": "electric_scooter", "lon": -77.04661083333333, "fusion_lon": 0.0, "lat": 38.89341816666666, "rental_uris": {"android": "https://dc.lft.to/lastmile_qr_scan", "ios": "https://dc.lft.to/lastmile_qr_scan"}, "fusion_lat": 0.0, "name": "dffebac012607c8ad16dfdf9e3b2769b", "bike_id": "dffebac012607c8ad16dfdf9e3b2769b"}, {"is_disabled": 0, "is_reserved": 0, "type": "electric_scooter", "lon": -77.02616066666667, "fusion_lon": 0.0, "lat": 38.905624833333334, "rental_uris": {"android": "https://dc.lft.to/lastmile_qr_scan", "ios": "https://dc.lft.to/lastmile_qr_scan"}, "fusion_lat": 0.0, "name": "76f5e7803a03c7d61d322f1747d56e0c", "bike_id": "76f5e7803a03c7d61d322f1747d56e0c"}, {"is_disabled": 0, "is_reserved": 0, "type": "electric_scooter", "lon": -76.957563, "fusion_lon": 0.0, "lat": 38.88427633333333, "rental_uris": {"android": "https://dc.lft.to/lastmile_qr_scan", "ios": "https://dc.lft.to/lastmile_qr_scan"}, "fusion_lat": 0.0, "name": "78d55d884690a1f53a6d47542502824f", "bike_id": "78d55d884690a1f53a6d47542502824f"}, {"is_disabled": 0, "is_reserved": 0, "type": "electric_scooter", "lon": -77.04498566666666, "fusion_lon": 0.0, "lat": 38.90841666666667, "rental_uris": {"android": "https://dc.lft.to/lastmile_qr_scan", "ios": "https://dc.lft.to/lastmile_qr_scan"}, "fusion_lat": 0.0, "name": "613faf29b7b9ba336127fb7d7472e36f", "bike_id": "613faf29b7b9ba336127fb7d7472e36f"}, {"is_disabled": 0, "is_reserved": 0, "type": "electric_scooter", "lon": -77.01993266666666, "fusion_lon": 0.0, "lat": 38.875715, "rental_uris": {"android": "https://dc.lft.to/lastmile_qr_scan", "ios": "https://dc.lft.to/lastmile_qr_scan"}, "fusion_lat": 0.0, "name": "fcfd929e5c46b68d6390c390a82e9e2b", "bike_id": "fcfd929e5c46b68d6390c390a82e9e2b"}, {"is_disabled": 0, "is_reserved": 0, "type": "electric_bike", "lon": -76.96685166666667, "fusion_lon": 0.0, "lat": 38.95882983333333, "rental_uris": {"android": "https://dc.lft.to/lastmile_qr_scan", "ios": "https://dc.lft.to/lastmile_qr_scan"}, "fusion_lat": 0.0, "name": "fc544c489b63ee18f0aa0ce7c6efe8f4", "bike_id": "fc544c489b63ee18f0aa0ce7c6efe8f4"}, {"is_disabled": 0, "is_reserved": 0, "type": "electric_scooter", "lon": -77.04353566666667, "fusion_lon": 0.0, "lat": 38.91119783333333, "rental_uris": {"android": "https://dc.lft.to/lastmile_qr_scan", "ios": "https://dc.lft.to/lastmile_qr_scan"}, "fusion_lat": 0.0, "name": "be2e580d904d1a245e302af0a7f89afd", "bike_id": "be2e580d904d1a245e302af0a7f89afd"}, {"is_disabled": 0, "is_reserved": 0, "type": "electric_scooter", "lon": -77.0319235, "fusion_lon": 0.0, "lat": 38.892327333333334, "rental_uris": {"android": "https://dc.lft.to/lastmile_qr_scan", "ios": "https://dc.lft.to/lastmile_qr_scan"}, "fusion_lat": 0.0, "name": "6dd94c50e9174a88086409c17db4b257", "bike_id": "6dd94c50e9174a88086409c17db4b257"}, {"is_disabled": 0, "is_reserved": 0, "type": "electric_scooter", "lon": -77.05184483333333, "fusion_lon": 0.0, "lat": 38.9254415, "rental_uris": {"android": "https://dc.lft.to/lastmile_qr_scan", "ios": "https://dc.lft.to/lastmile_qr_scan"}, "fusion_lat": 0.0, "name": "5a7e588e5d510b32c42aebd86b052772", "bike_id": "5a7e588e5d510b32c42aebd86b052772"}, {"is_disabled": 0, "is_reserved": 0, "type": "electric_scooter", "lon": -77.02226, "fusion_lon": 0.0, "lat": 38.887410833333334, "rental_uris": {"android": "https://dc.lft.to/lastmile_qr_scan", "ios": "https://dc.lft.to/lastmile_qr_scan"}, "fusion_lat": 0.0, "name": "e62e50e79f9bc96d196e79d67c64dd3f", "bike_id": "e62e50e79f9bc96d196e79d67c64dd3f"}, {"is_disabled": 0, "is_reserved": 0, "type": "electric_scooter", "lon": -77.01027683333334, "fusion_lon": 0.0, "lat": 38.911143833333334, "rental_uris": {"android": "https://dc.lft.to/lastmile_qr_scan", "ios": "https://dc.lft.to/lastmile_qr_scan"}, "fusion_lat": 0.0, "name": "380111afe9ecf59403189b690b45cd04", "bike_id": "380111afe9ecf59403189b690b45cd04"}, {"is_disabled": 0, "is_reserved": 0, "type": "electric_scooter", "lon": -77.045909, "fusion_lon": 0.0, "lat": 38.91715, "rental_uris": {"android": "https://dc.lft.to/lastmile_qr_scan", "ios": "https://dc.lft.to/lastmile_qr_scan"}, "fusion_lat": 0.0, "name": "c9d58c82b5da9f3251c5b474d19fd079", "bike_id": "c9d58c82b5da9f3251c5b474d19fd079"}, {"is_disabled": 0, "is_reserved": 0, "type": "electric_scooter", "lon": -77.06529533333334, "fusion_lon": 0.0, "lat": 38.905209666666664, "rental_uris": {"android": "https://dc.lft.to/lastmile_qr_scan", "ios": "https://dc.lft.to/lastmile_qr_scan"}, "fusion_lat": 0.0, "name": "0c7f589b4b6c388618c642cbec0438b6", "bike_id": "0c7f589b4b6c388618c642cbec0438b6"}, {"is_disabled": 0, "is_reserved": 0, "type": "electric_scooter", "lon": -77.04189166666667, "fusion_lon": 0.0, "lat": 38.91669616666667, "rental_uris": {"android": "https://dc.lft.to/lastmile_qr_scan", "ios": "https://dc.lft.to/lastmile_qr_scan"}, "fusion_lat": 0.0, "name": "023fbb1bf3da8c28eb1ebf956e323453", "bike_id": "023fbb1bf3da8c28eb1ebf956e323453"}, {"is_disabled": 0, "is_reserved": 0, "type": "electric_bike", "lon": -77.00863366666667, "fusion_lon": 0.0, "lat": 38.827271, "rental_uris": {"android": "https://dc.lft.to/lastmile_qr_scan", "ios": "https://dc.lft.to/lastmile_qr_scan"}, "fusion_lat": 0.0, "name": "510207659d484fbfa3ac070e00cf2fdd", "bike_id": "510207659d484fbfa3ac070e00cf2fdd"}, {"is_disabled": 0, "is_reserved": 0, "type": "electric_scooter", "lon": -77.02974366666666, "fusion_lon": 0.0, "lat": 38.89834833333333, "rental_uris": {"android": "https://dc.lft.to/lastmile_qr_scan", "ios": "https://dc.lft.to/lastmile_qr_scan"}, "fusion_lat": 0.0, "name": "b799f374aaabe55ccc8f00c42056be96", "bike_id": "b799f374aaabe55ccc8f00c42056be96"}, {"is_disabled": 0, "is_reserved": 0, "type": "electric_scooter", "lon": -77.02931416666667, "fusion_lon": 0.0, "lat": 38.882186, "rental_uris": {"android": "https://dc.lft.to/lastmile_qr_scan", "ios": "https://dc.lft.to/lastmile_qr_scan"}, "fusion_lat": 0.0, "name": "a714226c9ce543f4222578e16ad02540", "bike_id": "a714226c9ce543f4222578e16ad02540"}, {"is_disabled": 0, "is_reserved": 0, "type": "electric_scooter", "lon": -77.03855933333334, "fusion_lon": 0.0, "lat": 38.91169133333333, "rental_uris": {"android": "https://dc.lft.to/lastmile_qr_scan", "ios": "https://dc.lft.to/lastmile_qr_scan"}, "fusion_lat": 0.0, "name": "dbda0e00ddbf8e602191c1ec28cfd924", "bike_id": "dbda0e00ddbf8e602191c1ec28cfd924"}, {"is_disabled": 0, "is_reserved": 0, "type": "electric_scooter", "lon": -77.025843, "fusion_lon": 0.0, "lat": 38.884857, "rental_uris": {"android": "https://dc.lft.to/lastmile_qr_scan", "ios": "https://dc.lft.to/lastmile_qr_scan"}, "fusion_lat": 0.0, "name": "0fe307a5e6983cf92b7538d57d497435", "bike_id": "0fe307a5e6983cf92b7538d57d497435"}, {"is_disabled": 0, "is_reserved": 0, "type": "electric_scooter", "lon": -77.03192483333333, "fusion_lon": 0.0, "lat": 38.9052395, "rental_uris": {"android": "https://dc.lft.to/lastmile_qr_scan", "ios": "https://dc.lft.to/lastmile_qr_scan"}, "fusion_lat": 0.0, "name": "e382f9cb1a78bb688ce8b1eeb3b3ee8f", "bike_id": "e382f9cb1a78bb688ce8b1eeb3b3ee8f"}, {"is_disabled": 0, "is_reserved": 0, "type": "electric_scooter", "lon": -77.0399635, "fusion_lon": 0.0, "lat": 38.918083333333335, "rental_uris": {"android": "https://dc.lft.to/lastmile_qr_scan", "ios": "https://dc.lft.to/lastmile_qr_scan"}, "fusion_lat": 0.0, "name": "396506ef54c437c46de54845ffe2938b", "bike_id": "396506ef54c437c46de54845ffe2938b"}, {"is_disabled": 0, "is_reserved": 0, "type": "electric_scooter", "lon": -76.99498666666666, "fusion_lon": 0.0, "lat": 38.8624485, "rental_uris": {"android": "https://dc.lft.to/lastmile_qr_scan", "ios": "https://dc.lft.to/lastmile_qr_scan"}, "fusion_lat": 0.0, "name": "2d6f82e285315bfe00dab25d0bf94ed3", "bike_id": "2d6f82e285315bfe00dab25d0bf94ed3"}, {"is_disabled": 0, "is_reserved": 0, "type": "electric_scooter", "lon": -77.05330966666666, "fusion_lon": 0.0, "lat": 38.923147, "rental_uris": {"android": "https://dc.lft.to/lastmile_qr_scan", "ios": "https://dc.lft.to/lastmile_qr_scan"}, "fusion_lat": 0.0, "name": "18c832cd74edafb9f97646e14179ed22", "bike_id": "18c832cd74edafb9f97646e14179ed22"}, {"is_disabled": 0, "is_reserved": 0, "type": "electric_scooter", "lon": -77.00742433333333, "fusion_lon": 0.0, "lat": 38.911935, "rental_uris": {"android": "https://dc.lft.to/lastmile_qr_scan", "ios": "https://dc.lft.to/lastmile_qr_scan"}, "fusion_lat": 0.0, "name": "ccc4c6c33bc056d34ca50951b139f6e9", "bike_id": "ccc4c6c33bc056d34ca50951b139f6e9"}, {"is_disabled": 0, "is_reserved": 0, "type": "electric_scooter", "lon": -77.041834, "fusion_lon": 0.0, "lat": 38.89853766666667, "rental_uris": {"android": "https://dc.lft.to/lastmile_qr_scan", "ios": "https://dc.lft.to/lastmile_qr_scan"}, "fusion_lat": 0.0, "name": "8730d2e5e4001243956be75234db2bb3", "bike_id": "8730d2e5e4001243956be75234db2bb3"}, {"is_disabled": 0, "is_reserved": 0, "type": "electric_bike", "lon": -77.0431985, "fusion_lon": 0.0, "lat": 38.83125733333333, "rental_uris": {"android": "https://dc.lft.to/lastmile_qr_scan", "ios": "https://dc.lft.to/lastmile_qr_scan"}, "fusion_lat": 0.0, "name": "30a1d46595e19eb27a0ab18cf19a5c55", "bike_id": "30a1d46595e19eb27a0ab18cf19a5c55"}, {"is_disabled": 0, "is_reserved": 0, "type": "electric_scooter", "lon": -77.04172083333333, "fusion_lon": 0.0, "lat": 38.901562, "rental_uris": {"android": "https://dc.lft.to/lastmile_qr_scan", "ios": "https://dc.lft.to/lastmile_qr_scan"}, "fusion_lat": 0.0, "name": "277d0e3c64014254ce20f4e729b2e3a8", "bike_id": "277d0e3c64014254ce20f4e729b2e3a8"}, {"is_disabled": 0, "is_reserved": 0, "type": "electric_scooter", "lon": -77.02540416666666, "fusion_lon": 0.0, "lat": 38.90070683333333, "rental_uris": {"android": "https://dc.lft.to/lastmile_qr_scan", "ios": "https://dc.lft.to/lastmile_qr_scan"}, "fusion_lat": 0.0, "name": "064d44e312345cfda2f34e8e6d1ac225", "bike_id": "064d44e312345cfda2f34e8e6d1ac225"}, {"is_disabled": 0, "is_reserved": 0, "type": "electric_scooter", "lon": -76.99397116666667, "fusion_lon": 0.0, "lat": 38.92156833333333, "rental_uris": {"android": "https://dc.lft.to/lastmile_qr_scan", "ios": "https://dc.lft.to/lastmile_qr_scan"}, "fusion_lat": 0.0, "name": "db97dfc0f28248ad36fea3b3b59e14c2", "bike_id": "db97dfc0f28248ad36fea3b3b59e14c2"}, {"is_disabled": 0, "is_reserved": 0, "type": "electric_scooter", "lon": -77.01291283333333, "fusion_lon": 0.0, "lat": 38.8998525, "rental_uris": {"android": "https://dc.lft.to/lastmile_qr_scan", "ios": "https://dc.lft.to/lastmile_qr_scan"}, "fusion_lat": 0.0, "name": "818d9a02deadff6ac6710ca73d149099", "bike_id": "818d9a02deadff6ac6710ca73d149099"}, {"is_disabled": 0, "is_reserved": 0, "type": "electric_scooter", "lon": -77.0175005, "fusion_lon": 0.0, "lat": 38.883275166666664, "rental_uris": {"android": "https://dc.lft.to/lastmile_qr_scan", "ios": "https://dc.lft.to/lastmile_qr_scan"}, "fusion_lat": 0.0, "name": "b7cffe1748e4d1ae1979de28393c88d1", "bike_id": "b7cffe1748e4d1ae1979de28393c88d1"}, {"is_disabled": 0, "is_reserved": 0, "type": "electric_scooter", "lon": -76.97545866666667, "fusion_lon": 0.0, "lat": 38.914114833333336, "rental_uris": {"android": "https://dc.lft.to/lastmile_qr_scan", "ios": "https://dc.lft.to/lastmile_qr_scan"}, "fusion_lat": 0.0, "name": "976a1a4f76c427a6178f7d3eaaf30f95", "bike_id": "976a1a4f76c427a6178f7d3eaaf30f95"}, {"is_disabled": 0, "is_reserved": 0, "type": "electric_scooter", "lon": -77.02412133333333, "fusion_lon": 0.0, "lat": 38.9265535, "rental_uris": {"android": "https://dc.lft.to/lastmile_qr_scan", "ios": "https://dc.lft.to/lastmile_qr_scan"}, "fusion_lat": 0.0, "name": "25ec9bbe388cf4365081c7355a274280", "bike_id": "25ec9bbe388cf4365081c7355a274280"}, {"is_disabled": 0, "is_reserved": 0, "type": "electric_bike", "lon": -77.0325155, "fusion_lon": 0.0, "lat": 38.90279916666667, "rental_uris": {"android": "https://dc.lft.to/lastmile_qr_scan", "ios": "https://dc.lft.to/lastmile_qr_scan"}, "fusion_lat": 0.0, "name": "16f25d8018cfdcfaaf4cd7dae1eac4b0", "bike_id": "16f25d8018cfdcfaaf4cd7dae1eac4b0"}, {"is_disabled": 0, "is_reserved": 0, "type": "electric_scooter", "lon": -77.01570383333333, "fusion_lon": 0.0, "lat": 38.872602666666666, "rental_uris": {"android": "https://dc.lft.to/lastmile_qr_scan", "ios": "https://dc.lft.to/lastmile_qr_scan"}, "fusion_lat": 0.0, "name": "5270e57d44f2f46c0386b42a18f7b4dd", "bike_id": "5270e57d44f2f46c0386b42a18f7b4dd"}, {"is_disabled": 0, "is_reserved": 0, "type": "electric_scooter", "lon": -77.01106366666667, "fusion_lon": 0.0, "lat": 38.90969116666667, "rental_uris": {"android": "https://dc.lft.to/lastmile_qr_scan", "ios": "https://dc.lft.to/lastmile_qr_scan"}, "fusion_lat": 0.0, "name": "8cd41682c1485f5f15b45e7d2b96278a", "bike_id": "8cd41682c1485f5f15b45e7d2b96278a"}, {"is_disabled": 0, "is_reserved": 0, "type": "electric_scooter", "lon": -76.995358, "fusion_lon": 0.0, "lat": 38.862546, "rental_uris": {"android": "https://dc.lft.to/lastmile_qr_scan", "ios": "https://dc.lft.to/lastmile_qr_scan"}, "fusion_lat": 0.0, "name": "0cf0c5283b120d073cf658d732121bee", "bike_id": "0cf0c5283b120d073cf658d732121bee"},