{"data": {"bikes": [{"fusion_lat": 0.0, "lat": 38.88141683333333, "rental_uris": {"ios": "https://dc.lft.to/lastmile_qr_scan", "android": "https://dc.lft.to/lastmile_qr_scan"}, "name": "6ee76dc9938c94fc8ecb57e4d24b929e", "type": "electric_scooter", "fusion_lon": 0.0, "is_disabled": 0, "is_reserved": 0, "bike_id": "6ee76dc9938c94fc8ecb57e4d24b929e", "lon": -77.02714033333334}, {"fusion_lat": 0.0, "lat": 38.8571805, "rental_uris": {"ios": "https://dc.lft.to/lastmile_qr_scan", "android": "https://dc.lft.to/lastmile_qr_scan"}, "name": "25baccdb65f3e4b34cb3125da68fc692", "type": "electric_scooter", "fusion_lon": 0.0, "is_disabled": 0, "is_reserved": 0, "bike_id": "25baccdb65f3e4b34cb3125da68fc692", "lon": -76.9810005}, {"fusion_lat": 0.0, "lat": 38.90589766666667, "rental_uris": {"ios": "https://dc.lft.to/lastmile_qr_scan", "android": "https://dc.lft.to/lastmile_qr_scan"}, "name": "6724426b288a26ed763c502161ecb967", "type": "electric_bike", "fusion_lon": 0.0, "is_disabled": 0, "is_reserved": 0, "bike_id": "6724426b288a26ed763c502161ecb967", "lon": -77.0430095}, {"fusion_lat": 0.0, "lat": 38.902362833333335, "rental_uris": {"ios": "https://dc.lft.to/lastmile_qr_scan", "android": "https://dc.lft.to/lastmile_qr_scan"}, "name": "e34d3d17f4304e6cfc7bf6d58bae23a5", "type": "electric_scooter", "fusion_lon": 0.0, "is_disabled": 0, "is_reserved": 0, "bike_id": "e34d3d17f4304e6cfc7bf6d58bae23a5", "lon": -77.001998}, {"fusion_lat": 0.0, "lat": 38.9272455, "rental_uris": {"ios": "https://dc.lft.to/lastmile_qr_scan", "android": "https://dc.lft.to/lastmile_qr_scan"}, "name": "340d4e1657843ee737d1fe35acf21a5a", "type": "electric_scooter", "fusion_lon": 0.0, "is_disabled": 0, "is_reserved": 0, "bike_id": "340d4e1657843ee737d1fe35acf21a5a", "lon": -77.0231775}, {"fusion_lat": 0.0, "lat": 38.90341016666667, "rental_uris": {"ios": "https://dc.lft.to/lastmile_qr_scan", "android": "https://dc.lft.to/lastmile_qr_scan"}, "name": "f0a1f81e60e9ac94ba31477e21d01ade", "type": "electric_scooter", "fusion_lon": 0.0, "is_disabled": 0, "is_reserved": 0, "bike_id": "f0a1f81e60e9ac94ba31477e21d01ade", "lon": -77.02014016666666}, {"fusion_lat": 0.0, "lat": 38.90737083333333, "rental_uris": {"ios": "https://dc.lft.to/lastmile_qr_scan", "android": "https://dc.lft.to/lastmile_qr_scan"}, "name": "0da245455a4c5d09b33039df99367323", "type": "electric_scooter", "fusion_lon": 0.0, "is_disabled": 0, "is_reserved": 0, "bike_id": "0da245455a4c5d09b33039df99367323", "lon": -77.0427605}, {"fusion_lat": 0.0, "lat": 38.9084135, "rental_uris": {"ios": "https://dc.lft.to/lastmile_qr_scan", "android": "https://dc.lft.to/lastmile_qr_scan"}, "name": "eed1c0d227bd1d69a6f6eefd7480d277", "type": "electric_scooter", "fusion_lon": 0.0, "is_disabled": 0, "is_reserved": 0, "bike_id": "eed1c0d227bd1d69a6f6eefd7480d277", "lon": -77.043365}, {"fusion_lat": 0.0, "lat": 38.90648916666667, "rental_uris": {"ios": "https://dc.lft.to/lastmile_qr_scan", "android": "https://dc.lft.to/lastmile_qr_scan"}, "name": "68b048f798adc209ea01aed8be0cfa0b", "type": "electric_scooter", "fusion_lon": 0.0, "is_disabled": 0, "is_reserved": 0, "bike_id": "68b048f798adc209ea01aed8be0cfa0b", "lon": -77.01432083333333}, {"fusion_lat": 0.0, "lat": 38.9260475, "rental_uris": {"ios": "https://dc.lft.to/lastmile_qr_scan", "android": "https://dc.lft.to/lastmile_qr_scan"}, "name": "01071cc6255e2c183fcba18fe5090cbd", "type": "electric_scooter", "fusion_lon": 0.0, "is_disabled": 0, "is_reserved": 0, "bike_id": "01071cc6255e2c183fcba18fe5090cbd", "lon": -77.02589283333333}, {"fusion_lat": 0.0, "lat": 38.8784135, "rental_uris": {"ios": "https://dc.lft.to/lastmile_qr_scan", "android": "https://dc.lft.to/lastmile_qr_scan"}, "name": "e66359bba6ae8359840e7a4cc8cd0f11", "type": "electric_scooter", "fusion_lon": 0.0, "is_disabled": 0, "is_reserved": 0, "bike_id": "e66359bba6ae8359840e7a4cc8cd0f11", "lon": -77.02279783333333}, {"fusion_lat": 0.0, "lat": 38.9287005, "rental_uris": {"ios": "https://dc.lft.to/lastmile_qr_scan", "android": "https://dc.lft.to/lastmile_qr_scan"}, "name": "91521d68af74fde4d63862df3b82cf77", "type": "electric_scooter", "fusion_lon": 0.0, "is_disabled": 0, "is_reserved": 0, "bike_id": "91521d68af74fde4d63862df3b82cf77", "lon": -77.03316683333334}, {"fusion_lat": 0.0, "lat": 38.92363666666667, "rental_uris": {"ios": "https://dc.lft.to/lastmile_qr_scan", "android": "https://dc.lft.to/lastmile_qr_scan"}, "name": "40eb45b20944e962be9950e84c58a68d", "type": "electric_scooter", "fusion_lon": 0.0, "is_disabled": 0, "is_reserved": 0, "bike_id": "40eb45b20944e962be9950e84c58a68d", "lon": -77.05029633333334}, {"fusion_lat": 0.0, "lat": 38.9468415, "rental_uris": {"ios": "https://dc.lft.to/lastmile_qr_scan", "android": "https://dc.lft.to/lastmile_qr_scan"}, "name": "2f9e21c05496cd60d3c50f66211dcfeb", "type": "electric_bike", "fusion_lon": 0.0, "is_disabled": 0, "is_reserved": 0, "bike_id": "2f9e21c05496cd60d3c50f66211dcfeb", "lon": -77.020528}, {"fusion_lat": 0.0, "lat": 38.908555, "rental_uris": {"ios": "https://dc.lft.to/lastmile_qr_scan", "android": "https://dc.lft.to/lastmile_qr_scan"}, "name": "d1a32efc48161d40c859fb840ae9f571", "type": "electric_scooter", "fusion_lon": 0.0, "is_disabled": 0, "is_reserved": 0, "bike_id": "d1a32efc48161d40c859fb840ae9f571", "lon": -76.99798616666666}, {"fusion_lat": 0.0, "lat": 38.9249265, "rental_uris": {"ios": "https://dc.lft.to/lastmile_qr_scan", "android": "https://dc.lft.to/lastmile_qr_scan"}, "name": "619b7774c68f6c1391b15c04f2849b10", "type": "electric_scooter", "fusion_lon": 0.0, "is_disabled": 0, "is_reserved": 0, "bike_id": "619b7774c68f6c1391b15c04f2849b10", "lon": -76.9902765}, {"fusion_lat": 0.0, "lat": 38.9206495, "rental_uris": {"ios": "https://dc.lft.to/lastmile_qr_scan", "android": "https://dc.lft.to/lastmile_qr_scan"}, "name": "f4c871fd5ff8ba222cf2206d14601c05", "type": "electric_scooter", "fusion_lon": 0.0, "is_disabled": 0, "is_reserved": 0, "bike_id": "f4c871fd5ff8ba222cf2206d14601c05", "lon": -76.98188016666667}, {"fusion_lat": 0.0, "lat": 38.8997295, "rental_uris": {"ios": "https://dc.lft.to/lastmile_qr_scan", "android": "https://dc.lft.to/lastmile_qr_scan"}, "name": "b0da8105c64222fe81f2e4132daa7ce4", "type": "electric_scooter", "fusion_lon": 0.0, "is_disabled": 0, "is_reserved": 0, "bike_id": "b0da8105c64222fe81f2e4132daa7ce4", "lon": -76.99490966666667}, {"fusion_lat": 0.0, "lat": 38.990975166666665, "rental_uris": {"ios": "https://dc.lft.to/lastmile_qr_scan", "android": "https://dc.lft.to/lastmile_qr_scan"}, "name": "542c753aa6cc05ab916dbeb490d8db44", "type": "electric_bike", "fusion_lon": 0.0, "is_disabled": 0, "is_reserved": 0, "bike_id": "542c753aa6cc05ab916dbeb490d8db44", "lon": -76.99371066666667}, {"fusion_lat": 0.0, "lat": 38.90964683333333, "rental_uris": {"ios": "https://dc.lft.to/lastmile_qr_scan", "android": "https://dc.lft.to/lastmile_qr_scan"}, "name": "cec1fc1c6a2f970a215d9559968185e6", "type": "electric_bike", "fusion_lon": 0.0, "is_disabled": 0, "is_reserved": 0, "bike_id": "cec1fc1c6a2f970a215d9559968185e6", "lon": -77.08813716666667}, {"fusion_lat": 0.0, "lat": 38.892300166666665, "rental_uris": {"ios": "https://dc.lft.to/lastmile_qr_scan", "android": "https://dc.lft.to/lastmile_qr_scan"}, "name": "8b664fe6f0d59c4c885ccf5fbd721018", "type": "electric_scooter", "fusion_lon": 0.0, "is_disabled": 0, "is_reserved": 0, "bike_id": "8b664fe6f0d59c4c885ccf5fbd721018", "lon": -77.0220705}, {"fusion_lat": 0.0, "lat": 38.902030833333335, "rental_uris": {"ios": "https://dc.lft.to/lastmile_qr_scan", "android": "https://dc.lft.to/lastmile_qr_scan"}, "name": "e885910ef72d4ba44e3520fe12b5b3b9", "type": "electric_scooter", "fusion_lon": 0.0, "is_disabled": 0, "is_reserved": 0, "bike_id": "e885910ef72d4ba44e3520fe12b5b3b9", "lon": -77.039251}, {"fusion_lat": 0.0, "lat": 38.92305016666667, "rental_uris": {"ios": "https://dc.lft.to/lastmile_qr_scan", "android": "https://dc.lft.to/lastmile_qr_scan"}, "name": "9556bfb90156b2927517c2618f831c7e", "type": "electric_scooter", "fusion_lon": 0.0, "is_disabled": 0, "is_reserved": 0, "bike_id": "9556bfb90156b2927517c2618f831c7e", "lon": -77.024436}, {"fusion_lat": 0.0, "lat": 38.943986333333335, "rental_uris": {"ios": "https://dc.lft.to/lastmile_qr_scan", "android": "https://dc.lft.to/lastmile_qr_scan"}, "name": "28666827f96bb152c3ea10b910e34c9a", "type": "electric_scooter", "fusion_lon": 0.0, "is_disabled": 0, "is_reserved": 0, "bike_id": "28666827f96bb152c3ea10b910e34c9a", "lon": -77.024116}, {"fusion_lat": 0.0, "lat": 38.866862833333336, "rental_uris": {"ios": "https://dc.lft.to/lastmile_qr_scan", "android": "https://dc.lft.to/lastmile_qr_scan"}, "name": "ea64cd860742d1ddf8d7fabdc77205bf", "type": "electric_scooter", "fusion_lon": 0.0, "is_disabled": 0, "is_reserved": 0, "bike_id": "ea64cd860742d1ddf8d7fabdc77205bf", "lon": -76.985663}, {"fusion_lat": 0.0, "lat": 38.876986, "rental_uris": {"ios": "https://dc.lft.to/lastmile_qr_scan", "android": "https://dc.lft.to/lastmile_qr_scan"}, "name": "32834b1858bfce6fea254c7828596a56", "type": "electric_scooter", "fusion_lon": 0.0, "is_disabled": 0, "is_reserved": 0, "bike_id": "32834b1858bfce6fea254c7828596a56", "lon": -77.00412316666667}, {"fusion_lat": 0.0, "lat": 38.905385, "rental_uris": {"ios": "https://dc.lft.to/lastmile_qr_scan", "android": "https://dc.lft.to/lastmile_qr_scan"}, "name": "0e0ed085c5dc993d041343c06ed71279", "type": "electric_scooter", "fusion_lon": 0.0, "is_disabled": 0, "is_reserved": 0, "bike_id": "0e0ed085c5dc993d041343c06ed71279", "lon": -77.0559375}, {"fusion_lat": 0.0, "lat": 38.88605533333333, "rental_uris": {"ios": "https://dc.lft.to/lastmile_qr_scan", "android": "https://dc.lft.to/lastmile_qr_scan"}, "name": "3c3dabcbbc244f48a7e106a7c998bf44", "type": "electric_scooter", "fusion_lon": 0.0, "is_disabled": 0, "is_reserved": 0, "bike_id": "3c3dabcbbc244f48a7e106a7c998bf44", "lon": -76.99523566666667}, {"fusion_lat": 0.0, "lat": 38.925436, "rental_uris": {"ios": "https://dc.lft.to/lastmile_qr_scan", "android": "https://dc.lft.to/lastmile_qr_scan"}, "name": "067d273b3086a96df12f0750fa47092a", "type": "electric_scooter", "fusion_lon": 0.0, "is_disabled": 0, "is_reserved": 0, "bike_id": "067d273b3086a96df12f0750fa47092a", "lon": -77.03534633333334}, {"fusion_lat": 0.0, "lat": 38.90527483333334, "rental_uris": {"ios": "https://dc.lft.to/lastmile_qr_scan", "android": "https://dc.lft.to/lastmile_qr_scan"}, "name": "57cbe1eebb67dc3c27ef191de46c5257", "type": "electric_scooter", "fusion_lon": 0.0, "is_disabled": 0, "is_reserved": 0, "bike_id": "57cbe1eebb67dc3c27ef191de46c5257", "lon": -77.060423}, {"fusion_lat": 0.0, "lat": 38.91693466666667, "rental_uris": {"ios": "https://dc.lft.to/lastmile_qr_scan", "android": "https://dc.lft.to/lastmile_qr_scan"}, "name": "53a5d1c9fa8e440a601cf0d6764ca341", "type": "electric_scooter", "fusion_lon": 0.0, "is_disabled": 0, "is_reserved": 0, "bike_id": "53a5d1c9fa8e440a601cf0d6764ca341", "lon": -77.037742}, {"fusion_lat": 0.0, "lat": 38.833645833333335, "rental_uris": {"ios": "https://dc.lft.to/lastmile_qr_scan", "android": "https://dc.lft.to/lastmile_qr_scan"}, "name": "a22398cb908d52efec23dc15ac48d7f6", "type": "electric_bike", "fusion_lon": 0.0, "is_disabled": 0, "is_reserved": 0, "bike_id": "a22398cb908d52efec23dc15ac48d7f6", "lon": -77.00304783333333}, {"fusion_lat": 0.0, "lat": 38.90471983333333, "rental_uris": {"ios": "https://dc.lft.to/lastmile_qr_scan", "android": "https://dc.lft.to/lastmile_qr_scan"}, "name": "21fae0b32d3e034875e8207b5f86938c", "type": "electric_scooter", "fusion_lon": 0.0, "is_disabled": 0, "is_reserved": 0, "bike_id": "21fae0b32d3e034875e8207b5f86938c", "lon": -77.03285333333334}, {"fusion_lat": 0.0, "lat": 38.909634833333335, "rental_uris": {"ios": "https://dc.lft.to/lastmile_qr_scan", "android": "https://dc.lft.to/lastmile_qr_scan"}, "name": "3486761bf4ccb206f218027c167c62b5", "type": "electric_scooter", "fusion_lon": 0.0, "is_disabled": 0, "is_reserved": 0, "bike_id": "3486761bf4ccb206f218027c167c62b5", "lon": -77.03943033333333}, {"fusion_lat": 0.0, "lat": 38.9095055, "rental_uris": {"ios": "https://dc.lft.to/lastmile_qr_scan", "android": "https://dc.lft.to/lastmile_qr_scan"}, "name": "5065d8f347b4b2e78089b8b46943c6fa", "type": "electric_scooter", "fusion_lon": 0.0, "is_disabled": 0, "is_reserved": 0, "bike_id": "5065d8f347b4b2e78089b8b46943c6fa", "lon": -76.9989645}, {"fusion_lat": 0.0, "lat": 38.907178, "rental_uris": {"ios": "https://dc.lft.to/lastmile_qr_scan", "android": "https://dc.lft.to/lastmile_qr_scan"}, "name": "5036b5f5e29218d8d935323bdff50ff4", "type": "electric_scooter", "fusion_lon": 0.0, "is_disabled": 0, "is_reserved": 0, "bike_id": "5036b5f5e29218d8d935323bdff50ff4", "lon": -77.00332416666667}, {"fusion_lat": 0.0, "lat": 38.9275405, "rental_uris": {"ios": "https://dc.lft.to/lastmile_qr_scan", "android": "https://dc.lft.to/lastmile_qr_scan"}, "name": "78d2572abdf6a2e6f7f8b676bac5cb69", "type": "electric_scooter", "fusion_lon": 0.0, "is_disabled": 0, "is_reserved": 0, "bike_id": "78d2572abdf6a2e6f7f8b676bac5cb69", "lon": -77.02131733333333}, {"fusion_lat": 0.0, "lat": 38.8973155, "rental_uris": {"ios": "https://dc.lft.to/lastmile_qr_scan", "android": "https://dc.lft.to/lastmile_qr_scan"}, "name": "a35e3bf72970a04f8c5dcc9cccf3e20f", "type": "electric_scooter", "fusion_lon": 0.0, "is_disabled": 0, "is_reserved": 0, "bike_id": "a35e3bf72970a04f8c5dcc9cccf3e20f", "lon": -77.055255}, {"fusion_lat": 0.0, "lat": 38.895547, "rental_uris": {"ios": "https://dc.lft.to/lastmile_qr_scan", "android": "https://dc.lft.to/lastmile_qr_scan"}, "name": "92fb609b32a2b967963834f3f4f9eb23", "type": "electric_scooter", "fusion_lon": 0.0, "is_disabled": 0, "is_reserved": 0, "bike_id": "92fb609b32a2b967963834f3f4f9eb23", "lon": -77.03954283333333}, {"fusion_lat": 0.0, "lat": 38.895382, "rental_uris": {"ios": "https://dc.lft.to/lastmile_qr_scan", "android": "https://dc.lft.to/lastmile_qr_scan"}, "name": "37b6add839770c0be71c827c107c6a5d", "type": "electric_scooter", "fusion_lon": 0.0, "is_disabled": 0, "is_reserved": 0, "bike_id": "37b6add839770c0be71c827c107c6a5d", "lon": -77.02816716666666}, {"fusion_lat": 0.0, "lat": 38.8798335, "rental_uris": {"ios": "https://dc.lft.to/lastmile_qr_scan", "android": "https://dc.lft.to/lastmile_qr_scan"}, "name": "63f2de6deb1f95148db42d6eb59db3f0", "type": "electric_scooter", "fusion_lon": 0.0, "is_disabled": 0, "is_reserved": 0, "bike_id": "63f2de6deb1f95148db42d6eb59db3f0", "lon": -77.024223}, {"fusion_lat": 0.0, "lat": 38.916926833333335, "rental_uris": {"ios": "https://dc.lft.to/lastmile_qr_scan", "android": "https://dc.lft.to/lastmile_qr_scan"}, "name": "e6e7577c25b5722e712a61b8c8d5e48b", "type": "electric_scooter", "fusion_lon": 0.0, "is_disabled": 0, "is_reserved": 0, "bike_id": "e6e7577c25b5722e712a61b8c8d5e48b", "lon": -77.037746}, {"fusion_lat": 0.0, "lat": 38.946571, "rental_uris": {"ios": "https://dc.lft.to/lastmile_qr_scan", "android": "https://dc.lft.to/lastmile_qr_scan"}, "name": "7999b0de0714e561c46b2fa792309a4f", "type": "electric_bike", "fusion_lon": 0.0, "is_disabled": 0, "is_reserved": 0, "bike_id": "7999b0de0714e561c46b2fa792309a4f", "lon": -76.94205833333334}, {"fusion_lat": 0.0, "lat": 38.89715833333333, "rental_uris": {"ios": "https://dc.lft.to/lastmile_qr_scan", "android": "https://dc.lft.to/lastmile_qr_scan"}, "name": "42531314db887630dc6985d9b61ae208", "type": "electric_scooter", "fusion_lon": 0.0, "is_disabled": 0, "is_reserved": 0, "bike_id": "42531314db887630dc6985d9b61ae208", "lon": -77.00838783333333}, {"fusion_lat": 0.0, "lat": 38.90262233333333, "rental_uris": {"ios": "https://dc.lft.to/lastmile_qr_scan", "android": "https://dc.lft.to/lastmile_qr_scan"}, "name": "452b752d3b32f6c95adcdfd47b10af2e", "type": "electric_scooter", "fusion_lon": 0.0, "is_disabled": 0, "is_reserved": 0, "bike_id": "452b752d3b32f6c95adcdfd47b10af2e", "lon": -77.01003866666667}, {"fusion_lat": 0.0, "lat": 38.90140866666667, "rental_uris": {"ios": "https://dc.lft.to/lastmile_qr_scan", "android": "https://dc.lft.to/lastmile_qr_scan"}, "name": "5bef64449f709041dd63cb3c12cfcc18", "type": "electric_scooter", "fusion_lon": 0.0, "is_disabled": 0, "is_reserved": 0, "bike_id": "5bef64449f709041dd63cb3c12cfcc18", "lon": -77.01795483333333}, {"fusion_lat": 0.0, "lat": 38.941915333333334, "rental_uris": {"ios": "https://dc.lft.to/lastmile_qr_scan", "android": "https://dc.lft.to/lastmile_qr_scan"}, "name": "51b4fdb05f1f7b7e99364fdf6ae48888", "type": "electric_scooter", "fusion_lon": 0.0, "is_disabled": 0, "is_reserved": 0, "bike_id": "51b4fdb05f1f7b7e99364fdf6ae48888", "lon": -77.0383775}, {"fusion_lat": 0.0, "lat": 38.92230816666667, "rental_uris": {"ios": "https://dc.lft.to/lastmile_qr_scan", "android": "https://dc.lft.to/lastmile_qr_scan"}, "name": "34684214812f746824e24201d2dec23b", "type": "electric_scooter", "fusion_lon": 0.0, "is_disabled": 0, "is_reserved": 0, "bike_id": "34684214812f746824e24201d2dec23b", "lon": -77.046447}, {"fusion_lat": 0.0, "lat": 38.90577533333333, "rental_uris": {"ios": "https://dc.lft.to/lastmile_qr_scan", "android": "https://dc.lft.to/lastmile_qr_scan"}, "name": "a93b0598f846f7cb85c0bc287bfed63b", "type": "electric_scooter", "fusion_lon": 0.0, "is_disabled": 0, "is_reserved": 0, "bike_id": "a93b0598f846f7cb85c0bc287bfed63b", "lon": -77.00401033333333}, {"fusion_lat": 0.0, "lat": 38.907726833333335, "rental_uris": {"ios": "https://dc.lft.to/lastmile_qr_scan", "android": "https://dc.lft.to/lastmile_qr_scan"}, "name": "5145d0bbbfce9bddbc6941fbd84674ee", "type": "electric_scooter", "fusion_lon": 0.0, "is_disabled": 0, "is_reserved": 0, "bike_id": "5145d0bbbfce9bddbc6941fbd84674ee", "lon": -77.03195916666667}, {"fusion_lat": 0.0, "lat": 38.905679166666665, "rental_uris": {"ios": "https://dc.lft.to/lastmile_qr_scan", "android": "https://dc.lft.to/lastmile_qr_scan"}, "name": "f597a9653cc2d1e864c756463ef9732a", "type": "electric_scooter", "fusion_lon": 0.0, "is_disabled": 0, "is_reserved": 0, "bike_id": "f597a9653cc2d1e864c756463ef9732a", "lon": -77.034799}, {"fusion_lat": 0.0, "lat": 38.90463483333333, "rental_uris": {"ios": "https://dc.lft.to/lastmile_qr_scan", "android": "https://dc.lft.to/lastmile_qr_scan"}, "name": "11e0a0c70784635fb484c2e689f0b188", "type": "electric_scooter", "fusion_lon": 0.0, "is_disabled": 0, "is_reserved": 0, "bike_id": "11e0a0c70784635fb484c2e689f0b188", "lon": -77.03457633333333}, {"fusion_lat": 0.0, "lat": 38.90036816666667, "rental_uris": {"ios": "https://dc.lft.to/lastmile_qr_scan", "android": "https://dc.lft.to/lastmile_qr_scan"}, "name": "e38af9ed4659ac6fdc26ea2ce719e9e0", "type": "electric_scooter", "fusion_lon": 0.0, "is_disabled": 0, "is_reserved": 0, "bike_id": "e38af9ed4659ac6fdc26ea2ce719e9e0", "lon": -76.99945566666666}, {"fusion_lat": 0.0, "lat": 38.91157583333333, "rental_uris": {"ios": "https://dc.lft.to/lastmile_qr_scan", "android": "https://dc.lft.to/lastmile_qr_scan"}, "name": "fba2a70184cd8eb9852763271510c196", "type": "electric_scooter", "fusion_lon": 0.0, "is_disabled": 0, "is_reserved": 0, "bike_id": "fba2a70184cd8eb9852763271510c196", "lon": -77.02377283333334}, {"fusion_lat": 0.0, "lat": 38.884904666666664, "rental_uris": {"ios": "https://dc.lft.to/lastmile_qr_scan", "android": "https://dc.lft.to/lastmile_qr_scan"}, "name": "efe08a164db963681708164ac4e39ddf", "type": "electric_scooter", "fusion_lon": 0.0, "is_disabled": 0, "is_reserved": 0, "bike_id": "efe08a164db963681708164ac4e39ddf", "lon": -77.00711216666667}, {"fusion_lat": 0.0, "lat": 38.907791833333334, "rental_uris": {"ios": "https://dc.lft.to/lastmile_qr_scan", "android": "https://dc.lft.to/lastmile_qr_scan"}, "name": "41a0945fa8ad91a237eb0d00d6234ee1", "type": "electric_scooter", "fusion_lon": 0.0, "is_disabled": 0, "is_reserved": 0, "bike_id": "41a0945fa8ad91a237eb0d00d6234ee1", "lon": -77.07155883333333}, {"fusion_lat": 0.0, "lat": 38.91782533333333, "rental_uris": {"ios": "https://dc.lft.to/lastmile_qr_scan", "android": "https://dc.lft.to/lastmile_qr_scan"}, "name": "730bca0ef2ceb1680632762b35ab556c", "type": "electric_scooter", "fusion_lon": 0.0, "is_disabled": 0, "is_reserved": 0, "bike_id": "730bca0ef2ceb1680632762b35ab556c", "lon": -77.04341016666666}, {"fusion_lat": 0.0, "lat": 38.917350166666665, "rental_uris": {"ios": "https://dc.lft.to/lastmile_qr_scan", "android": "https://dc.lft.to/lastmile_qr_scan"}, "name": "7dd7c7a9a2a369f332264358dea6edb7", "type": "electric_scooter", "fusion_lon": 0.0, "is_disabled": 0, "is_reserved": 0, "bike_id": "7dd7c7a9a2a369f332264358dea6edb7", "lon": -77.0260265}, {"fusion_lat": 0.0, "lat": 38.92792633333333, "rental_uris": {"ios": "https://dc.lft.to/lastmile_qr_scan", "android": "https://dc.lft.to/lastmile_qr_scan"}, "name": "4cdc3f4e17a77f5ee263f667c5eb4298", "type": "electric_scooter", "fusion_lon": 0.0, "is_disabled": 0, "is_reserved": 0, "bike_id": "4cdc3f4e17a77f5ee263f667c5eb4298", "lon": -77.05531266666667}, {"fusion_lat": 0.0, "lat": 38.874752666666666, "rental_uris": {"ios": "https://dc.lft.to/lastmile_qr_scan", "android": "https://dc.lft.to/lastmile_qr_scan"}, "name": "8f206fbcd763a7d1e259ef7d21422083", "type": "electric_scooter", "fusion_lon": 0.0, "is_disabled": 0, "is_reserved": 0, "bike_id": "8f206fbcd763a7d1e259ef7d21422083", "lon": -77.00833616666667}, {"fusion_lat": 0.0, "lat": 38.91362383333333, "rental_uris": {"ios": "https://dc.lft.to/lastmile_qr_scan", "android": "https://dc.lft.to/lastmile_qr_scan"}, "name": "a12a2abbcfbf104ad2508cc65dff6718", "type": "electric_scooter", "fusion_lon": 0.0, "is_disabled": 0, "is_reserved": 0, "bike_id": "a12a2abbcfbf104ad2508cc65dff6718", "lon": -77.04657516666667}, {"fusion_lat": 0.0, "lat": 38.884704666666664, "rental_uris": {"ios": "https://dc.lft.to/lastmile_qr_scan", "android": "https://dc.lft.to/lastmile_qr_scan"}, "name": "757c5917e23bac127b83aeaa78879806", "type": "electric_bike", "fusion_lon": 0.0, "is_disabled": 0, "is_reserved": 0, "bike_id": "757c5917e23bac127b83aeaa78879806", "lon": -76.95668533333334}, {"fusion_lat": 0.0, "lat": 39.03407166666667, "rental_uris": {"ios": "https://dc.lft.to/lastmile_qr_scan", "android": "https://dc.lft.to/lastmile_qr_scan"}, "name": "a1cf2156d6f725ca007392aaeb1257a8", "type": "electric_bike", "fusion_lon": 0.0, "is_disabled": 0, "is_reserved": 0, "bike_id": "a1cf2156d6f725ca007392aaeb1257a8", "lon": -77.04124966666667}, {"fusion_lat": 0.0, "lat": 38.9247865, "rental_uris": {"ios": "https://dc.lft.to/lastmile_qr_scan", "android": "https://dc.lft.to/lastmile_qr_scan"}, "name": "1a3b40a67b26f2606a4574ac3bb5d878", "type": "electric_scooter", "fusion_lon": 0.0, "is_disabled": 0, "is_reserved": 0, "bike_id": "1a3b40a67b26f2606a4574ac3bb5d878", "lon": -77.0219935}, {"fusion_lat": 0.0, "lat": 38.957212166666665, "rental_uris": {"ios": "https://dc.lft.to/lastmile_qr_scan", "android": "https://dc.lft.to/lastmile_qr_scan"}, "name": "16eccb4654ed821a613adf5ba38b4ba2", "type": "electric_scooter", "fusion_lon": 0.0, "is_disabled": 0, "is_reserved": 0, "bike_id": "16eccb4654ed821a613adf5ba38b4ba2", "lon": -77.028776}, {"fusion_lat": 0.0, "lat": 38.90841066666667, "rental_uris": {"ios": "https://dc.lft.to/lastmile_qr_scan", "android": "https://dc.lft.to/lastmile_qr_scan"}, "name": "86259afe85e12e9d2f610007f8ef8682", "type": "electric_scooter", "fusion_lon": 0.0, "is_disabled": 0, "is_reserved": 0, "bike_id": "86259afe85e12e9d2f610007f8ef8682", "lon": -77.055772}, {"fusion_lat": 0.0, "lat": 38.90686766666666, "rental_uris": {"ios": "https://dc.lft.to/lastmile_qr_scan", "android": "https://dc.lft.to/lastmile_qr_scan"}, "name": "41873ecaa392c7eaa8a03f6f0cac5aaa", "type": "electric_scooter", "fusion_lon": 0.0, "is_disabled": 0, "is_reserved": 0, "bike_id": "41873ecaa392c7eaa8a03f6f0cac5aaa", "lon": -76.98500333333334}, {"fusion_lat": 0.0, "lat": 38.8905125, "rental_uris": {"ios": "https://dc.lft.to/lastmile_qr_scan", "android": "https://dc.lft.to/lastmile_qr_scan"}, "name": "7621eb76232c26ca830b0b6d5d9d6323", "type": "electric_scooter", "fusion_lon": 0.0, "is_disabled": 0, "is_reserved": 0, "bike_id": "7621eb76232c26ca830b0b6d5d9d6323", "lon": -76.9904305}, {"fusion_lat": 0.0, "lat": 38.8861085, "rental_uris": {"ios": "https://dc.lft.to/lastmile_qr_scan", "android": "https://dc.lft.to/lastmile_qr_scan"}, "name": "9b17e5c843dcf7b2cb3dc0067ea6560f", "type": "electric_scooter", "fusion_lon": 0.0, "is_disabled": 0, "is_reserved": 0, "bike_id": "9b17e5c843dcf7b2cb3dc0067ea6560f", "lon": -77.01513816666667}, {"fusion_lat": 0.0, "lat": 38.86249633333333, "rental_uris": {"ios": "https://dc.lft.to/lastmile_qr_scan", "android": "https://dc.lft.to/lastmile_qr_scan"}, "name": "c8b2c007c917a93269ad5c9a667cdabf", "type": "electric_scooter", "fusion_lon": 0.0, "is_disabled": 0, "is_reserved": 0, "bike_id": "c8b2c007c917a93269ad5c9a667cdabf", "lon": -76.99533083333333}, {"fusion_lat": 0.0, "lat": 38.879646666666666, "rental_uris": {"ios": "https://dc.lft.to/lastmile_qr_scan", "android": "https://dc.lft.to/lastmile_qr_scan"}, "name": "020a5e78d6b36b557c282fbc1c679d45", "type": "electric_scooter", "fusion_lon": 0.0, "is_disabled": 0, "is_reserved": 0, "bike_id": "020a5e78d6b36b557c282fbc1c679d45", "lon": -77.02418}, {"fusion_lat": 0.0, "lat": 38.932619333333335, "rental_uris": {"ios": "https://dc.lft.to/lastmile_qr_scan", "android": "https://dc.lft.to/lastmile_qr_scan"}, "name": "87083592ad1108b256e8a342d1b0ccb9", "type": "electric_scooter", "fusion_lon": 0.0, "is_disabled": 0, "is_reserved": 0, "bike_id": "87083592ad1108b256e8a342d1b0ccb9", "lon": -77.03105866666667}, {"fusion_lat": 0.0, "lat": 38.904488, "rental_uris": {"ios": "https://dc.lft.to/lastmile_qr_scan", "android": "https://dc.lft.to/lastmile_qr_scan"}, "name": "4e7575d49f0b059726762488bed22192", "type": "electric_scooter", "fusion_lon": 0.0, "is_disabled": 0, "is_reserved": 0, "bike_id": "4e7575d49f0b059726762488bed22192", "lon": -76.97426116666666}, {"fusion_lat": 0.0, "lat": 38.908716166666665, "rental_uris": {"ios": "https://dc.lft.to/lastmile_qr_scan", "android": "https://dc.lft.to/lastmile_qr_scan"}, "name": "61c094b5bb7a49e23b34b0909cc782ed", "type": "electric_scooter", "fusion_lon": 0.0, "is_disabled": 0, "is_reserved": 0, "bike_id": "61c094b5bb7a49e23b34b0909cc782ed", "lon": -77.07166316666667}, {"fusion_lat": 0.0, "lat": 38.8992145, "rental_uris": {"ios": "https://dc.lft.to/lastmile_qr_scan", "android": "https://dc.lft.to/lastmile_qr_scan"}, "name": "2362064be82a694cb5edde5308660082", "type": "electric_scooter", "fusion_lon": 0.0, "is_disabled": 0, "is_reserved": 0, "bike_id": "2362064be82a694cb5edde5308660082", "lon": -77.03230016666667}, {"fusion_lat": 0.0, "lat": 38.918326, "rental_uris": {"ios": "https://dc.lft.to/lastmile_qr_scan", "android": "https://dc.lft.to/lastmile_qr_scan"}, "name": "a1c57a17ccf010481816e62b673c8010", "type": "electric_scooter", "fusion_lon": 0.0, "is_disabled": 0, "is_reserved": 0, "bike_id": "a1c57a17ccf010481816e62b673c8010", "lon": -77.01214016666667}, {"fusion_lat": 0.0, "lat": 38.87878116666667, "rental_uris": {"ios": "https://dc.lft.to/lastmile_qr_scan", "android": "https://dc.lft.to/lastmile_qr_scan"}, "name": "977451f30759eaad6f16a6d1f3b737ab", "type": "electric_scooter", "fusion_lon": 0.0, "is_disabled": 0, "is_reserved": 0, "bike_id": "977451f30759eaad6f16a6d1f3b737ab", "lon": -77.00134383333334}, {"fusion_lat": 0.0, "lat": 38.908426666666664, "rental_uris": {"ios": "https://dc.lft.to/lastmile_qr_scan", "android": "https://dc.lft.to/lastmile_qr_scan"}, "name": "75dca5a4bf8b7da539bf21caab1e2410", "type": "electric_scooter", "fusion_lon": 0.0, "is_disabled": 0, "is_reserved": 0, "bike_id": "75dca5a4bf8b7da539bf21caab1e2410", "lon": -76.99244483333334}, {"fusion_lat": 0.0, "lat": 38.91224016666666, "rental_uris": {"ios": "https://dc.lft.to/lastmile_qr_scan", "android": "https://dc.lft.to/lastmile_qr_scan"}, "name": "ccb18521de4004051e8ac6fd77c58e13", "type": "electric_scooter", "fusion_lon": 0.0, "is_disabled": 0, "is_reserved": 0, "bike_id": "ccb18521de4004051e8ac6fd77c58e13", "lon": -77.07699833333334}, {"fusion_lat": 0.0, "lat": 38.91405916666667, "rental_uris": {"ios": "https://dc.lft.to/lastmile_qr_scan", "android": "https://dc.lft.to/lastmile_qr_scan"}, "name": "d8ac129a9d977f5883a8210d93aeb66a", "type": "electric_scooter", "fusion_lon": 0.0, "is_disabled": 0, "is_reserved": 0, "bike_id": "d8ac129a9d977f5883a8210d93aeb66a", "lon": -77.03222716666667}, {"fusion_lat": 0.0, "lat": 38.90788083333333, "rental_uris": {"ios": "https://dc.lft.to/lastmile_qr_scan", "android": "https://dc.lft.to/lastmile_qr_scan"}, "name": "b33d81e19faa0d399175610c3c25bf36", "type": "electric_scooter", "fusion_lon": 0.0, "is_disabled": 0, "is_reserved": 0, "bike_id": "b33d81e19faa0d399175610c3c25bf36", "lon": -77.000214}, {"fusion_lat": 0.0, "lat": 38.89884816666667, "rental_uris": {"ios": "https://dc.lft.to/lastmile_qr_scan", "android": "https://dc.lft.to/lastmile_qr_scan"}, "name": "2b16da074efd108790550624eb6d1fd7", "type": "electric_scooter", "fusion_lon": 0.0, "is_disabled": 0, "is_reserved": 0, "bike_id": "2b16da074efd108790550624eb6d1fd7", "lon": -77.02730866666667}, {"fusion_lat": 0.0, "lat": 38.92496883333333, "rental_uris": {"ios": "https://dc.lft.to/lastmile_qr_scan", "android": "https://dc.lft.to/lastmile_qr_scan"}, "name": "086fa8e3fa7f1cb35aecdcfbf109aa38", "type": "electric_scooter", "fusion_lon": 0.0, "is_disabled": 0, "is_reserved": 0, "bike_id": "086fa8e3fa7f1cb35aecdcfbf109aa38", "lon": -77.0511535}, {"fusion_lat": 0.0, "lat": 38.920474166666665, "rental_uris": {"ios": "https://dc.lft.to/lastmile_qr_scan", "android": "https://dc.lft.to/lastmile_qr_scan"}, "name": "5123bd6c822436f4dce17398c328a7aa", "type": "electric_scooter", "fusion_lon": 0.0, "is_disabled": 0, "is_reserved": 0, "bike_id": "5123bd6c822436f4dce17398c328a7aa", "lon": -77.02572266666667}, {"fusion_lat": 0.0, "lat": 38.90420533333333, "rental_uris": {"ios": "https://dc.lft.to/lastmile_qr_scan", "android": "https://dc.lft.to/lastmile_qr_scan"}, "name": "4a01d23c8f4edeee117e9a00055c80c9", "type": "electric_scooter", "fusion_lon": 0.0, "is_disabled": 0, "is_reserved": 0, "bike_id": "4a01d23c8f4edeee117e9a00055c80c9", "lon": -77.04351716666666}, {"fusion_lat": 0.0, "lat": 38.85552783333333, "rental_uris": {"ios": "https://dc.lft.to/lastmile_qr_scan", "android": "https://dc.lft.to/lastmile_qr_scan"}, "name": "52be6fcb5660fb6ea6e2d8ea407d8d75", "type": "electric_scooter", "fusion_lon": 0.0, "is_disabled": 0, "is_reserved": 0, "bike_id": "52be6fcb5660fb6ea6e2d8ea407d8d75", "lon": -76.9875705}, {"fusion_lat": 0.0, "lat": 38.917105166666666, "rental_uris": {"ios": "https://dc.lft.to/lastmile_qr_scan", "android": "https://dc.lft.to/lastmile_qr_scan"}, "name": "4706a350633d983b7f8893d213a89d51", "type": "electric_scooter", "fusion_lon": 0.0, "is_disabled": 0, "is_reserved": 0, "bike_id": "4706a350633d983b7f8893d213a89d51", "lon": -77.03865083333334}, {"fusion_lat": 0.0, "lat": 38.9171155, "rental_uris": {"ios": "https://dc.lft.to/lastmile_qr_scan", "android": "https://dc.lft.to/lastmile_qr_scan"}, "name": "0627ff64722f86fba92ea2a59753d573", "type": "electric_scooter", "fusion_lon": 0.0, "is_disabled": 0, "is_reserved": 0, "bike_id": "0627ff64722f86fba92ea2a59753d573", "lon": -77.03869666666667}, {"fusion_lat": 0.0, "lat": 38.89936683333333, "rental_uris": {"ios": "https://dc.lft.to/lastmile_qr_scan", "android": "https://dc.lft.to/lastmile_qr_scan"}, "name": "0981fa7c4c97e9a3e92293438af9493b", "type": "electric_scooter", "fusion_lon": 0.0, "is_disabled": 0, "is_reserved": 0, "bike_id": "0981fa7c4c97e9a3e92293438af9493b", "lon": -77.04013833333333}, {"fusion_lat": 0.0, "lat": 38.931729, "rental_uris": {"ios": "https://dc.lft.to/lastmile_qr_scan", "android": "https://dc.lft.to/lastmile_qr_scan"}, "name": "b819948520291fa7a7899fd4b2d5ff66", "type": "electric_scooter", "fusion_lon": 0.0, "is_disabled": 0, "is_reserved": 0, "bike_id": "b819948520291fa7a7899fd4b2d5ff66", "lon": -77.0707385}, {"fusion_lat": 0.0, "lat": 38.901192333333334, "rental_uris": {"ios": "https://dc.lft.to/lastmile_qr_scan", "android": "https://dc.lft.to/lastmile_qr_scan"}, "name": "647b383d65c3889c5268b9e94166df64", "type": "electric_scooter", "fusion_lon": 0.0, "is_disabled": 0, "is_reserved": 0, "bike_id": "647b383d65c3889c5268b9e94166df64", "lon": -77.044886}, {"fusion_lat": 0.0, "lat": 38.93111866666667, "rental_uris": {"ios": "https://dc.lft.to/lastmile_qr_scan", "android": "https://dc.lft.to/lastmile_qr_scan"}, "name": "48aa85b6369a8464dfa8dfad4a1bbddf", "type": "electric_scooter", "fusion_lon": 0.0, "is_disabled": 0, "is_reserved": 0, "bike_id": "48aa85b6369a8464dfa8dfad4a1bbddf", "lon": -77.02121183333334}, {"fusion_lat": 0.0, "lat": 38.897422, "rental_uris": {"ios": "https://dc.lft.to/lastmile_qr_scan", "android": "https://dc.lft.to/lastmile_qr_scan"}, "name": "50f16e0e4278d05338b786c3db19f9f2", "type": "electric_scooter", "fusion_lon": 0.0, "is_disabled": 0, "is_reserved": 0, "bike_id": "50f16e0e4278d05338b786c3db19f9f2", "lon": -77.0092245}, {"fusion_lat": 0.0, "lat": 38.91985533333333, "rental_uris": {"ios": "https://dc.lft.to/lastmile_qr_scan", "android": "https://dc.lft.to/lastmile_qr_scan"}, "name": "99117036e07f95b48c9bcc1329329690", "type": "electric_scooter", "fusion_lon": 0.0, "is_disabled": 0, "is_reserved": 0, "bike_id": "99117036e07f95b48c9bcc1329329690", "lon": -76.97311383333333}, {"fusion_lat": 0.0, "lat": 38.88706966666667, "rental_uris": {"ios": "https://dc.lft.to/lastmile_qr_scan", "android": "https://dc.lft.to/lastmile_qr_scan"}, "name": "9fbb5eda2c3b6b5777affc143c8495dc", "type": "electric_scooter", "fusion_lon": 0.0, "is_disabled": 0, "is_reserved": 0, "bike_id": "9fbb5eda2c3b6b5777affc143c8495dc", "lon": -77.01376133333333}, {"fusion_lat": 0.0, "lat": 38.90261066666667, "rental_uris": {"ios": "https://dc.lft.to/lastmile_qr_scan", "android": "https://dc.lft.to/lastmile_qr_scan"}, "name": "ca162eed0086bf1927e0b5d0c123c231", "type": "electric_scooter", "fusion_lon": 0.0, "is_disabled": 0, "is_reserved": 0, "bike_id": "ca162eed0086bf1927e0b5d0c123c231", "lon": -77.03139866666666}, {"fusion_lat": 0.0, "lat": 38.92472133333333, "rental_uris": {"ios": "https://dc.lft.to/lastmile_qr_scan", "android": "https://dc.lft.to/lastmile_qr_scan"}, "name": "be922150ff195444bf811ff78d3bd56b", "type": "electric_scooter", "fusion_lon": 0.0, "is_disabled": 0, "is_reserved": 0, "bike_id": "be922150ff195444bf811ff78d3bd56b", "lon": -77.0226595}, {"fusion_lat": 0.0, "lat": 38.91177533333333, "rental_uris": {"ios": "https://dc.lft.to/lastmile_qr_scan", "android": "https://dc.lft.to/lastmile_qr_scan"}, "name": "5c1e81cabc944b0e450a542204d37b86", "type": "electric_scooter", "fusion_lon": 0.0, "is_disabled": 0, "is_reserved": 0, "bike_id": "5c1e81cabc944b0e450a542204d37b86", "lon": -77.06096583333333}, {"fusion_lat": 0.0, "lat": 38.90535533333333, "rental_uris": {"ios": "https://dc.lft.to/lastmile_qr_scan", "android": "https://dc.lft.to/lastmile_qr_scan"}, "name": "99002c0f645cfbb75b479483b1346d4e", "type": "electric_scooter", "fusion_lon": 0.0, "is_disabled": 0, "is_reserved": 0, "bike_id": "99002c0f645cfbb75b479483b1346d4e", "lon": -76.99626166666667}, {"fusion_lat": 0.0, "lat": 38.901509, "rental_uris": {"ios": "https://dc.lft.to/lastmile_qr_scan", "android": "https://dc.lft.to/lastmile_qr_scan"}, "name": "4802415a5d3c2737fb4db0f20bd2c428", "type": "electric_scooter", "fusion_lon": 0.0, "is_disabled": 0, "is_reserved": 0, "bike_id": "4802415a5d3c2737fb4db0f20bd2c428", "lon": -77.03566433333333}, {"fusion_lat": 0.0, "lat": 38.90866916666667, "rental_uris": {"ios": "https://dc.lft.to/lastmile_qr_scan", "android": "https://dc.lft.to/lastmile_qr_scan"}, "name": "5b46173e4302fab053338c59121290fc", "type": "electric_scooter", "fusion_lon": 0.0, "is_disabled": 0, "is_reserved": 0, "bike_id": "5b46173e4302fab053338c59121290fc", "lon": -76.93339}, {"fusion_lat": 0.0, "lat": 38.92142166666667, "rental_uris": {"ios": "https://dc.lft.to/lastmile_qr_scan", "android": "https://dc.lft.to/lastmile_qr_scan"}, "name": "cbd82073132a8b02165245f92952f97b", "type": "electric_scooter", "fusion_lon": 0.0, "is_disabled": 0, "is_reserved": 0, "bike_id": "cbd82073132a8b02165245f92952f97b", "lon": -77.0349735}, {"fusion_lat": 0.0, "lat": 38.9100905, "rental_uris": {"ios": "https://dc.lft.to/lastmile_qr_scan", "android": "https://dc.lft.to/lastmile_qr_scan"}, "name": "703df3ae4e3bca4ecae22404226070b6", "type": "electric_scooter", "fusion_lon": 0.0, "is_disabled": 0, "is_reserved": 0, "bike_id": "703df3ae4e3bca4ecae22404226070b6", "lon": -77.03191066666666}, {"fusion_lat": 0.0, "lat": 38.88529116666667, "rental_uris": {"ios": "https://dc.lft.to/lastmile_qr_scan", "android": "https://dc.lft.to/lastmile_qr_scan"}, "name": "3822919105a876bb49729d6d0e6b621d", "type": "electric_scooter", "fusion_lon": 0.0, "is_disabled": 0, "is_reserved": 0, "bike_id": "3822919105a876bb49729d6d0e6b621d", "lon": -77.01517216666667}, {"fusion_lat": 0.0, "lat": 38.925778, "rental_uris": {"ios": "https://dc.lft.to/lastmile_qr_scan", "android": "https://dc.lft.to/lastmile_qr_scan"}, "name": "24e3df25256e499d476f51b3c77ce20b", "type": "electric_scooter", "fusion_lon": 0.0, "is_disabled": 0, "is_reserved": 0, "bike_id": "24e3df25256e499d476f51b3c77ce20b", "lon": -77.03642016666667}, {"fusion_lat": 0.0, "lat": 38.927688333333336, "rental_uris": {"ios": "https://dc.lft.to/lastmile_qr_scan", "android": "https://dc.lft.to/lastmile_qr_scan"}, "name": "6edc8708befaf7d223dd7871901c830e", "type": "electric_scooter", "fusion_lon": 0.0, "is_disabled": 0, "is_reserved": 0, "bike_id": "6edc8708befaf7d223dd7871901c830e", "lon": -77.027411}, {"fusion_lat": 0.0, "lat": 38.89726733333333, "rental_uris": {"ios": "https://dc.lft.to/lastmile_qr_scan", "android": "https://dc.lft.to/lastmile_qr_scan"}, "name": "49347a26343cba8981b937bca4c56832", "type": "electric_scooter", "fusion_lon": 0.0, "is_disabled": 0, "is_reserved": 0, "bike_id": "49347a26343cba8981b937bca4c56832", "lon": -77.00931183333333}, {"fusion_lat": 0.0, "lat": 38.9040325, "rental_uris": {"ios": "https://dc.lft.to/lastmile_qr_scan", "android": "https://dc.lft.to/lastmile_qr_scan"}, "name": "5b5fb7342bf9d5ac86d7472d4a2428c4", "type": "electric_scooter", "fusion_lon": 0.0, "is_disabled": 0, "is_reserved": 0, "bike_id": "5b5fb7342bf9d5ac86d7472d4a2428c4", "lon": -77.043462}, {"fusion_lat": 0.0, "lat": 38.896286, "rental_uris": {"ios": "https://dc.lft.to/lastmile_qr_scan", "android": "https://dc.lft.to/lastmile_qr_scan"}, "name": "6418ffe49aa256e5dda92c96b477b127", "type": "electric_scooter", "fusion_lon": 0.0, "is_disabled": 0, "is_reserved": 0, "bike_id": "6418ffe49aa256e5dda92c96b477b127", "lon": -77.02938816666666}, {"fusion_lat": 0.0, "lat": 38.907361333333334, "rental_uris": {"ios": "https://dc.lft.to/lastmile_qr_scan", "android": "https://dc.lft.to/lastmile_qr_scan"}, "name": "fa2e13ca82c0da9db6cccd273d382deb", "type": "electric_scooter", "fusion_lon": 0.0, "is_disabled": 0, "is_reserved": 0, "bike_id": "fa2e13ca82c0da9db6cccd273d382deb", "lon": -77.045077}, {"fusion_lat": 0.0, "lat": 38.92865066666667, "rental_uris": {"ios": "https://dc.lft.to/lastmile_qr_scan", "android": "https://dc.lft.to/lastmile_qr_scan"}, "name": "febf2830b5b195e8b7edd77f391b2891", "type": "electric_scooter", "fusion_lon": 0.0, "is_disabled": 0, "is_reserved": 0, "bike_id": "febf2830b5b195e8b7edd77f391b2891", "lon": -77.03499166666667}, {"fusion_lat": 0.0, "lat": 38.90455683333333, "rental_uris": {"ios": "https://dc.lft.to/lastmile_qr_scan", "android": "https://dc.lft.to/lastmile_qr_scan"}, "name": "03f1fe6766f55e9a8ffb64597f1ec1df", "type": "electric_scooter", "fusion_lon": 0.0, "is_disabled": 0, "is_reserved": 0, "bike_id": "03f1fe6766f55e9a8ffb64597f1ec1df", "lon": -76.99485566666667}, {"fusion_lat": 0.0, "lat": 38.902842166666666, "rental_uris": {"ios": "https://dc.lft.to/lastmile_qr_scan", "android": "https://dc.lft.to/lastmile_qr_scan"}, "name": "5ad84a3d2a5fb1480b8d9088f1124643", "type": "electric_scooter", "fusion_lon": 0.0, "is_disabled": 0, "is_reserved": 0, "bike_id": "5ad84a3d2a5fb1480b8d9088f1124643", "lon": -77.03832233333333}, {"fusion_lat": 0.0, "lat": 38.863904, "rental_uris": {"ios": "https://dc.lft.to/lastmile_qr_scan", "android": "https://dc.lft.to/lastmile_qr_scan"}, "name": "c41078479c828ddb6348db86c2183463", "type": "electric_scooter", "fusion_lon": 0.0, "is_disabled": 0, "is_reserved": 0, "bike_id": "c41078479c828ddb6348db86c2183463", "lon": -76.9903815}, {"fusion_lat": 0.0, "lat": 38.9119235, "rental_uris": {"ios": "https://dc.lft.to/lastmile_qr_scan", "android": "https://dc.lft.to/lastmile_qr_scan"}, "name": "cf0923085df2ccc5ea7d22acb14f48a3", "type": "electric_scooter", "fusion_lon": 0.0, "is_disabled": 0, "is_reserved": 0, "bike_id": "cf0923085df2ccc5ea7d22acb14f48a3", "lon": -77.03234783333333}, {"fusion_lat": 0.0, "lat": 38.902612833333336, "rental_uris": {"ios": "https://dc.lft.to/lastmile_qr_scan", "android": "https://dc.lft.to/lastmile_qr_scan"}, "name": "a3d13f7d479d56fec19d34f01c28e1e4", "type": "electric_scooter", "fusion_lon": 0.0, "is_disabled": 0, "is_reserved": 0, "bike_id": "a3d13f7d479d56fec19d34f01c28e1e4", "lon": -77.0248445}, {"fusion_lat": 0.0, "lat": 38.88400383333333, "rental_uris": {"ios": "https://dc.lft.to/lastmile_qr_scan", "android": "https://dc.lft.to/lastmile_qr_scan"}, "name": "289470c065566a980d86a9d41e600bb6", "type": "electric_bike", "fusion_lon": 0.0, "is_disabled": 0, "is_reserved": 0, "bike_id": "289470c065566a980d86a9d41e600bb6", "lon": -76.960544}, {"fusion_lat": 0.0, "lat": 38.8972885, "rental_uris": {"ios": "https://dc.lft.to/lastmile_qr_scan", "android": "https://dc.lft.to/lastmile_qr_scan"}, "name": "a7033fcdb91c17c048dbb127390e1a0f", "type": "electric_scooter", "fusion_lon": 0.0, "is_disabled": 0, "is_reserved": 0, "bike_id": "a7033fcdb91c17c048dbb127390e1a0f", "lon": -76.947012}, {"fusion_lat": 0.0, "lat": 38.89605783333333, "rental_uris": {"ios": "https://dc.lft.to/lastmile_qr_scan", "android": "https://dc.lft.to/lastmile_qr_scan"}, "name": "2575f4d76698a86328007c6f61061698", "type": "electric_scooter", "fusion_lon": 0.0, "is_disabled": 0, "is_reserved": 0, "bike_id": "2575f4d76698a86328007c6f61061698", "lon": -77.009323}, {"fusion_lat": 0.0, "lat": 38.902301333333334, "rental_uris": {"ios": "https://dc.lft.to/lastmile_qr_scan", "android": "https://dc.lft.to/lastmile_qr_scan"}, "name": "19cbb7b5e9e7e0ace8a6d403508bedad", "type": "electric_scooter", "fusion_lon": 0.0, "is_disabled": 0, "is_reserved": 0, "bike_id": "19cbb7b5e9e7e0ace8a6d403508bedad", "lon": -77.0347295}, {"fusion_lat": 0.0, "lat": 38.86033366666667, "rental_uris": {"ios": "https://dc.lft.to/lastmile_qr_scan", "android": "https://dc.lft.to/lastmile_qr_scan"}, "name": "f0203a11544d04c6441d642a02b42c90", "type": "electric_scooter", "fusion_lon": 0.0, "is_disabled": 0, "is_reserved": 0, "bike_id": "f0203a11544d04c6441d642a02b42c90", "lon": -76.98373933333333}, {"fusion_lat": 0.0, "lat": 38.88739866666667, "rental_uris": {"ios": "https://dc.lft.to/lastmile_qr_scan", "android": "https://dc.lft.to/lastmile_qr_scan"}, "name": "d874d046f39514db3576916f9aea9181", "type": "electric_scooter", "fusion_lon": 0.0, "is_disabled": 0, "is_reserved": 0, "bike_id": "d874d046f39514db3576916f9aea9181", "lon": -77.031745}, {"fusion_lat": 0.0, "lat": 38.905359833333335, "rental_uris": {"ios": "https://dc.lft.to/lastmile_qr_scan", "android": "https://dc.lft.to/lastmile_qr_scan"}, "name": "911a5b95c292c96b46e1ce92e6e771c0", "type": "electric_scooter", "fusion_lon": 0.0, "is_disabled": 0, "is_reserved": 0, "bike_id": "911a5b95c292c96b46e1ce92e6e771c0", "lon": -77.05143633333333}, {"fusion_lat": 0.0, "lat": 38.907227666666664, "rental_uris": {"ios": "https://dc.lft.to/lastmile_qr_scan", "android": "https://dc.lft.to/lastmile_qr_scan"}, "name": "7a6d34917f1c4e34777250ec3d581dd1", "type": "electric_scooter", "fusion_lon": 0.0, "is_disabled": 0, "is_reserved": 0, "bike_id": "7a6d34917f1c4e34777250ec3d581dd1", "lon": -77.02508333333333}, {"fusion_lat": 0.0, "lat": 38.86632516666667, "rental_uris": {"ios": "https://dc.lft.to/lastmile_qr_scan", "android": "https://dc.lft.to/lastmile_qr_scan"}, "name": "359522020412340c8227b75351b25811", "type": "electric_scooter", "fusion_lon": 0.0, "is_disabled": 0, "is_reserved": 0, "bike_id": "359522020412340c8227b75351b25811", "lon": -76.98715183333333}, {"fusion_lat": 0.0, "lat": 38.924158, "rental_uris": {"ios": "https://dc.lft.to/lastmile_qr_scan", "android": "https://dc.lft.to/lastmile_qr_scan"}, "name": "672e2b9d0bb1b7fc8c4ca13cf14cc43b", "type": "electric_scooter", "fusion_lon": 0.0, "is_disabled": 0, "is_reserved": 0, "bike_id": "672e2b9d0bb1b7fc8c4ca13cf14cc43b", "lon": -77.020113}, {"fusion_lat": 0.0, "lat": 38.8710385, "rental_uris": {"ios": "https://dc.lft.to/lastmile_qr_scan", "android": "https://dc.lft.to/lastmile_qr_scan"}, "name": "40096b3963abd9b62f4e3509ddecab27", "type": "electric_scooter", "fusion_lon": 0.0, "is_disabled": 0, "is_reserved": 0, "bike_id": "40096b3963abd9b62f4e3509ddecab27", "lon": -77.00782366666667}, {"fusion_lat": 0.0, "lat": 38.9314945, "rental_uris": {"ios": "https://dc.lft.to/lastmile_qr_scan", "android": "https://dc.lft.to/lastmile_qr_scan"}, "name": "b26737ed8e3789ed07e27079ca3c30d0", "type": "electric_scooter", "fusion_lon": 0.0, "is_disabled": 0, "is_reserved": 0, "bike_id": "b26737ed8e3789ed07e27079ca3c30d0", "lon": -77.07837983333333}, {"fusion_lat": 0.0, "lat": 38.92582566666667, "rental_uris": {"ios": "https://dc.lft.to/lastmile_qr_scan", "android": "https://dc.lft.to/lastmile_qr_scan"}, "name": "8e9a42b1ddbb9289e2861af2ca8d8bd5", "type": "electric_scooter", "fusion_lon": 0.0, "is_disabled": 0, "is_reserved": 0, "bike_id": "8e9a42b1ddbb9289e2861af2ca8d8bd5", "lon": -77.02760983333333}, {"fusion_lat": 0.0, "lat": 38.89224933333333, "rental_uris": {"ios": "https://dc.lft.to/lastmile_qr_scan", "android": "https://dc.lft.to/lastmile_qr_scan"}, "name": "e0848c913b0ae33c6f0ee15787f7dc0b", "type": "electric_scooter", "fusion_lon": 0.0, "is_disabled": 0, "is_reserved": 0, "bike_id": "e0848c913b0ae33c6f0ee15787f7dc0b", "lon": -77.04690133333334}, {"fusion_lat": 0.0, "lat": 38.90816866666667, "rental_uris": {"ios": "https://dc.lft.to/lastmile_qr_scan", "android": "https://dc.lft.to/lastmile_qr_scan"}, "name": "f8e7c9a5dd182cddb28e48571487600a", "type": "electric_scooter", "fusion_lon": 0.0, "is_disabled": 0, "is_reserved": 0, "bike_id": "f8e7c9a5dd182cddb28e48571487600a", "lon": -77.05475033333333}, {"fusion_lat": 0.0, "lat": 38.89826166666667, "rental_uris": {"ios": "https://dc.lft.to/lastmile_qr_scan", "android": "https://dc.lft.to/lastmile_qr_scan"}, "name": "5128b52a47248a76875ca331444b46a2", "type": "electric_scooter", "fusion_lon": 0.0, "is_disabled": 0, "is_reserved": 0, "bike_id": "5128b52a47248a76875ca331444b46a2", "lon": -77.0436075}, {"fusion_lat": 0.0, "lat": 38.94916333333333, "rental_uris": {"ios": "https://dc.lft.to/lastmile_qr_scan", "android": "https://dc.lft.to/lastmile_qr_scan"}, "name": "a75daf3ccd1441937353872cb9c963aa", "type": "electric_bike", "fusion_lon": 0.0, "is_disabled": 0, "is_reserved": 0, "bike_id": "a75daf3ccd1441937353872cb9c963aa", "lon": -77.0065025}, {"fusion_lat": 0.0, "lat": 38.86508583333333, "rental_uris": {"ios": "https://dc.lft.to/lastmile_qr_scan", "android": "https://dc.lft.to/lastmile_qr_scan"}, "name": "a4ae4ae0d1075f2692a68a6c0e938685", "type": "electric_scooter", "fusion_lon": 0.0, "is_disabled": 0, "is_reserved": 0, "bike_id": "a4ae4ae0d1075f2692a68a6c0e938685", "lon": -76.99006266666666}, {"fusion_lat": 0.0, "lat": 38.91771033333333, "rental_uris": {"ios": "https://dc.lft.to/lastmile_qr_scan", "android": "https://dc.lft.to/lastmile_qr_scan"}, "name": "4b068a54ade48155df026276fc1f08f0", "type": "electric_scooter", "fusion_lon": 0.0, "is_disabled": 0, "is_reserved": 0, "bike_id": "4b068a54ade48155df026276fc1f08f0", "lon": -77.04058083333334}, {"fusion_lat": 0.0, "lat": 38.904543333333336, "rental_uris": {"ios": "https://dc.lft.to/lastmile_qr_scan", "android": "https://dc.lft.to/lastmile_qr_scan"}, "name": "a8b4e9aed65348734056a107b676976a", "type": "electric_scooter", "fusion_lon": 0.0, "is_disabled": 0, "is_reserved": 0, "bike_id": "a8b4e9aed65348734056a107b676976a", "lon": -76.98252533333333}, {"fusion_lat": 0.0, "lat": 38.90731516666666, "rental_uris": {"ios": "https://dc.lft.to/lastmile_qr_scan", "android": "https://dc.lft.to/lastmile_qr_scan"}, "name": "838ef7d3d2cd71861ee402fbec28718f", "type": "electric_scooter", "fusion_lon": 0.0, "is_disabled": 0, "is_reserved": 0, "bike_id": "838ef7d3d2cd71861ee402fbec28718f", "lon": -76.98616233333334}, {"fusion_lat": 0.0, "lat": 38.9010555, "rental_uris": {"ios": "https://dc.lft.to/lastmile_qr_scan", "android": "https://dc.lft.to/lastmile_qr_scan"}, "name": "008d6fc13bbfea86bba9a2ae8d9d514c", "type": "electric_scooter", "fusion_lon": 0.0, "is_disabled": 0, "is_reserved": 0, "bike_id": "008d6fc13bbfea86bba9a2ae8d9d514c", "lon": -77.03189883333333}, {"fusion_lat": 0.0, "lat": 38.937101, "rental_uris": {"ios": "https://dc.lft.to/lastmile_qr_scan", "android": "https://dc.lft.to/lastmile_qr_scan"}, "name": "0d5df257dc108f37bcd3ab33ebd61bb1", "type": "electric_scooter", "fusion_lon": 0.0, "is_disabled": 0, "is_reserved": 0, "bike_id": "0d5df257dc108f37bcd3ab33ebd61bb1", "lon": -77.03234616666667}, {"fusion_lat": 0.0, "lat": 38.90036166666667, "rental_uris": {"ios": "https://dc.lft.to/lastmile_qr_scan", "android": "https://dc.lft.to/lastmile_qr_scan"}, "name": "f94156df32746d77d2317fc08f6242e4", "type": "electric_scooter", "fusion_lon": 0.0, "is_disabled": 0, "is_reserved": 0, "bike_id": "f94156df32746d77d2317fc08f6242e4", "lon": -76.98815516666667}, {"fusion_lat": 0.0, "lat": 38.90489266666667, "rental_uris": {"ios": "https://dc.lft.to/lastmile_qr_scan", "android": "https://dc.lft.to/lastmile_qr_scan"}, "name": "c3f51a54579332d86dc4d2d1f75a2ab8", "type": "electric_bike", "fusion_lon": 0.0, "is_disabled": 0, "is_reserved": 0, "bike_id": "c3f51a54579332d86dc4d2d1f75a2ab8", "lon": -76.974272}, {"fusion_lat": 0.0, "lat": 38.927980833333336, "rental_uris": {"ios": "https://dc.lft.to/lastmile_qr_scan", "android": "https://dc.lft.to/lastmile_qr_scan"}, "name": "53537e96f11febb95608cc5fe900e761", "type": "electric_bike", "fusion_lon": 0.0, "is_disabled": 0, "is_reserved": 0, "bike_id": "53537e96f11febb95608cc5fe900e761", "lon": -77.0536085}, {"fusion_lat": 0.0, "lat": 38.90292566666667, "rental_uris": {"ios": "https://dc.lft.to/lastmile_qr_scan", "android": "https://dc.lft.to/lastmile_qr_scan"}, "name": "42d0d521c795d40b3777ae2cfc753272", "type": "electric_scooter", "fusion_lon": 0.0, "is_disabled": 0, "is_reserved": 0, "bike_id": "42d0d521c795d40b3777ae2cfc753272", "lon": -77.0467955}, {"fusion_lat": 0.0, "lat": 38.86268183333333, "rental_uris": {"ios": "https://dc.lft.to/lastmile_qr_scan", "android": "https://dc.lft.to/lastmile_qr_scan"}, "name": "584e738ab58cf9003d5c6786927dfb28", "type": "electric_bike", "fusion_lon": 0.0, "is_disabled": 0, "is_reserved": 0, "bike_id": "584e738ab58cf9003d5c6786927dfb28", "lon": -76.98354433333333}, {"fusion_lat": 0.0, "lat": 38.90014133333333, "rental_uris": {"ios": "https://dc.lft.to/lastmile_qr_scan", "android": "https://dc.lft.to/lastmile_qr_scan"}, "name": "3663bc54b79e659f29d6fab93e684be4", "type": "electric_scooter", "fusion_lon": 0.0, "is_disabled": 0, "is_reserved": 0, "bike_id": "3663bc54b79e659f29d6fab93e684be4", "lon": -77.01119516666667}, {"fusion_lat": 0.0, "lat": 38.932156, "rental_uris": {"ios": "https://dc.lft.to/lastmile_qr_scan", "android": "https://dc.lft.to/lastmile_qr_scan"}, "name": "3bab19b595e7e10d6f81e76a04f13efe", "type": "electric_scooter", "fusion_lon": 0.0, "is_disabled": 0, "is_reserved": 0, "bike_id": "3bab19b595e7e10d6f81e76a04f13efe", "lon": -77.03261333333333}, {"fusion_lat": 0.0, "lat": 38.93674516666667, "rental_uris": {"ios": "https://dc.lft.to/lastmile_qr_scan", "android": "https://dc.lft.to/lastmile_qr_scan"}, "name": "6aee99a23feace29a332197df6e5a961", "type": "electric_scooter", "fusion_lon": 0.0, "is_disabled": 0, "is_reserved": 0, "bike_id": "6aee99a23feace29a332197df6e5a961", "lon": -77.03587}, {"fusion_lat": 0.0, "lat": 38.91706533333333, "rental_uris": {"ios": "https://dc.lft.to/lastmile_qr_scan", "android": "https://dc.lft.to/lastmile_qr_scan"}, "name": "5668b182bafb2a2ebb5b8f588a92d797", "type": "electric_scooter", "fusion_lon": 0.0, "is_disabled": 0, "is_reserved": 0, "bike_id": "5668b182bafb2a2ebb5b8f588a92d797", "lon": -77.02848066666667}, {"fusion_lat": 0.0, "lat": 38.92863416666667, "rental_uris": {"ios": "https://dc.lft.to/lastmile_qr_scan", "android": "https://dc.lft.to/lastmile_qr_scan"}, "name": "aaa8738cf3d5aeb3f41aa20c93968e70", "type": "electric_scooter", "fusion_lon": 0.0, "is_disabled": 0, "is_reserved": 0, "bike_id": "aaa8738cf3d5aeb3f41aa20c93968e70", "lon": -77.0364125}, {"fusion_lat": 0.0, "lat": 38.897104, "rental_uris": {"ios": "https://dc.lft.to/lastmile_qr_scan", "android": "https://dc.lft.to/lastmile_qr_scan"}, "name": "f34ff8e9c2d0e95ceb0bc3fbe845beb5", "type": "electric_scooter", "fusion_lon": 0.0, "is_disabled": 0, "is_reserved": 0, "bike_id": "f34ff8e9c2d0e95ceb0bc3fbe845beb5", "lon": -77.00734916666667}, {"fusion_lat": 0.0, "lat": 38.8833825, "rental_uris": {"ios": "https://dc.lft.to/lastmile_qr_scan", "android": "https://dc.lft.to/lastmile_qr_scan"}, "name": "1569d8f95ff1bcca7cd4a57d4017f01a", "type": "electric_scooter", "fusion_lon": 0.0, "is_disabled": 0, "is_reserved": 0, "bike_id": "1569d8f95ff1bcca7cd4a57d4017f01a", "lon": -77.028006}, {"fusion_lat": 0.0, "lat": 38.89876116666667, "rental_uris": {"ios": "https://dc.lft.to/lastmile_qr_scan", "android": "https://dc.lft.to/lastmile_qr_scan"}, "name": "ec0f9d7e1b72031a8628b6988e1612e5", "type": "electric_scooter", "fusion_lon": 0.0, "is_disabled": 0, "is_reserved": 0, "bike_id": "ec0f9d7e1b72031a8628b6988e1612e5", "lon": -77.03957816666667}, {"fusion_lat": 0.0, "lat": 38.90984916666667, "rental_uris": {"ios": "https://dc.lft.to/lastmile_qr_scan", "android": "https://dc.lft.to/lastmile_qr_scan"}, "name": "6f24e2e7afc6f1d130e014ee2f9ef425", "type": "electric_scooter", "fusion_lon": 0.0, "is_disabled": 0, "is_reserved": 0, "bike_id": "6f24e2e7afc6f1d130e014ee2f9ef425", "lon": -77.030432}, {"fusion_lat": 0.0, "lat": 38.93701883333333, "rental_uris": {"ios": "https://dc.lft.to/lastmile_qr_scan", "android": "https://dc.lft.to/lastmile_qr_scan"}, "name": "23fc71ef5f175b19b8c122d3cecb7370", "type": "electric_scooter", "fusion_lon": 0.0, "is_disabled": 0, "is_reserved": 0, "bike_id": "23fc71ef5f175b19b8c122d3cecb7370", "lon": -77.03281233333334}, {"fusion_lat": 0.0, "lat": 38.89225033333334, "rental_uris": {"ios": "https://dc.lft.to/lastmile_qr_scan", "android": "https://dc.lft.to/lastmile_qr_scan"}, "name": "5920c262a3ee4a8ff4e775c8fcec3974", "type": "electric_scooter", "fusion_lon": 0.0, "is_disabled": 0, "is_reserved": 0, "bike_id": "5920c262a3ee4a8ff4e775c8fcec3974", "lon": -77.04328366666667}, {"fusion_lat": 0.0, "lat": 38.886156166666666, "rental_uris": {"ios": "https://dc.lft.to/lastmile_qr_scan", "android": "https://dc.lft.to/lastmile_qr_scan"}, "name": "8761931f89041e1d473e0b1685699800", "type": "electric_scooter", "fusion_lon": 0.0, "is_disabled": 0, "is_reserved": 0, "bike_id": "8761931f89041e1d473e0b1685699800", "lon": -77.01252216666667}, {"fusion_lat": 0.0, "lat": 38.88493166666667, "rental_uris": {"ios": "https://dc.lft.to/lastmile_qr_scan", "android": "https://dc.lft.to/lastmile_qr_scan"}, "name": "c38054e168893ef012bab5b10c9f643a", "type": "electric_bike", "fusion_lon": 0.0, "is_disabled": 0, "is_reserved": 0, "bike_id": "c38054e168893ef012bab5b10c9f643a", "lon": -76.95660783333334}, {"fusion_lat": 0.0, "lat": 38.914965333333335, "rental_uris": {"ios": "https://dc.lft.to/lastmile_qr_scan", "android": "https://dc.lft.to/lastmile_qr_scan"}, "name": "566ddbe3618554ec696226c439701e48", "type": "electric_scooter", "fusion_lon": 0.0, "is_disabled": 0, "is_reserved": 0, "bike_id": "566ddbe3618554ec696226c439701e48", "lon": -76.98361033333333}, {"fusion_lat": 0.0, "lat": 38.910359166666666, "rental_uris": {"ios": "https://dc.lft.to/lastmile_qr_scan", "android": "https://dc.lft.to/lastmile_qr_scan"}, "name": "139f12318abfdbd6a42148563933158a", "type": "electric_scooter", "fusion_lon": 0.0, "is_disabled": 0, "is_reserved": 0, "bike_id": "139f12318abfdbd6a42148563933158a", "lon": -77.07570916666667}, {"fusion_lat": 0.0, "lat": 38.881619, "rental_uris": {"ios": "https://dc.lft.to/lastmile_qr_scan", "android": "https://dc.lft.to/lastmile_qr_scan"}, "name": "21f462fb23d351dd457673eb428727b4", "type": "electric_scooter", "fusion_lon": 0.0, "is_disabled": 0, "is_reserved": 0, "bike_id": "21f462fb23d351dd457673eb428727b4", "lon": -77.02734266666667}, {"fusion_lat": 0.0, "lat": 38.9234555, "rental_uris": {"ios": "https://dc.lft.to/lastmile_qr_scan", "android": "https://dc.lft.to/lastmile_qr_scan"}, "name": "d30a91be73253e349086c4c7de7974eb", "type": "electric_scooter", "fusion_lon": 0.0, "is_disabled": 0, "is_reserved": 0, "bike_id": "d30a91be73253e349086c4c7de7974eb", "lon": -77.05121233333334}, {"fusion_lat": 0.0, "lat": 38.883025, "rental_uris": {"ios": "https://dc.lft.to/lastmile_qr_scan", "android": "https://dc.lft.to/lastmile_qr_scan"}, "name": "eb9152cb9ff6e50c677079b4641e965d", "type": "electric_scooter", "fusion_lon": 0.0, "is_disabled": 0, "is_reserved": 0, "bike_id": "eb9152cb9ff6e50c677079b4641e965d", "lon": -77.01744516666666}, {"fusion_lat": 0.0, "lat": 38.924672666666666, "rental_uris": {"ios": "https://dc.lft.to/lastmile_qr_scan", "android": "https://dc.lft.to/lastmile_qr_scan"}, "name": "37603a6909d934225ff8d5d71b8cef5e", "type": "electric_scooter", "fusion_lon": 0.0, "is_disabled": 0, "is_reserved": 0, "bike_id": "37603a6909d934225ff8d5d71b8cef5e", "lon": -77.02152716666667}, {"fusion_lat": 0.0, "lat": 38.86757383333333, "rental_uris": {"ios": "https://dc.lft.to/lastmile_qr_scan", "android": "https://dc.lft.to/lastmile_qr_scan"}, "name": "787232df833860c5471da0b27259032f", "type": "electric_bike", "fusion_lon": 0.0, "is_disabled": 0, "is_reserved": 0, "bike_id": "787232df833860c5471da0b27259032f", "lon": -76.94535883333333}, {"fusion_lat": 0.0, "lat": 38.89469616666667, "rental_uris": {"ios": "https://dc.lft.to/lastmile_qr_scan", "android": "https://dc.lft.to/lastmile_qr_scan"}, "name": "4f668b527c575a6c4d8811ac5a2c6de6", "type": "electric_scooter", "fusion_lon": 0.0, "is_disabled": 0, "is_reserved": 0, "bike_id": "4f668b527c575a6c4d8811ac5a2c6de6", "lon": -77.01661033333333}, {"fusion_lat": 0.0, "lat": 38.904385833333336, "rental_uris": {"ios": "https://dc.lft.to/lastmile_qr_scan", "android": "https://dc.lft.to/lastmile_qr_scan"}, "name": "67854c6256bb21d5fd39e5354d82cf4b", "type": "electric_scooter", "fusion_lon": 0.0, "is_disabled": 0, "is_reserved": 0, "bike_id": "67854c6256bb21d5fd39e5354d82cf4b", "lon": -77.06011366666667}, {"fusion_lat": 0.0, "lat": 38.90253666666667, "rental_uris": {"ios": "https://dc.lft.to/lastmile_qr_scan", "android": "https://dc.lft.to/lastmile_qr_scan"}, "name": "f43e00fa6cae47363ea6926f4f9ec126", "type": "electric_scooter", "fusion_lon": 0.0, "is_disabled": 0, "is_reserved": 0, "bike_id": "f43e00fa6cae47363ea6926f4f9ec126", "lon": -77.0342555}, {"fusion_lat": 0.0, "lat": 38.912606833333335, "rental_uris": {"ios": "https://dc.lft.to/lastmile_qr_scan", "android": "https://dc.lft.to/lastmile_qr_scan"}, "name": "d9e89d86e1d5f82823b28e71eec1326f", "type": "electric_scooter", "fusion_lon": 0.0, "is_disabled": 0, "is_reserved": 0, "bike_id": "d9e89d86e1d5f82823b28e71eec1326f", "lon": -77.02412916666667}, {"fusion_lat": 0.0, "lat": 38.92328633333333, "rental_uris": {"ios": "https://dc.lft.to/lastmile_qr_scan", "android": "https://dc.lft.to/lastmile_qr_scan"}, "name": "9e185bd81faf6c49611bc7426a6a7124", "type": "electric_scooter", "fusion_lon": 0.0, "is_disabled": 0, "is_reserved": 0, "bike_id": "9e185bd81faf6c49611bc7426a6a7124", "lon": -77.028998}, {"fusion_lat": 0.0, "lat": 38.89727883333333, "rental_uris": {"ios": "https://dc.lft.to/lastmile_qr_scan", "android": "https://dc.lft.to/lastmile_qr_scan"}, "name": "35bb6af8397f9f23102fdd48267f3095", "type": "electric_scooter", "fusion_lon": 0.0, "is_disabled": 0, "is_reserved": 0, "bike_id": "35bb6af8397f9f23102fdd48267f3095", "lon": -76.99470016666666}, {"fusion_lat": 0.0, "lat": 38.8405515, "rental_uris": {"ios": "https://dc.lft.to/lastmile_qr_scan", "android": "https://dc.lft.to/lastmile_qr_scan"}, "name": "80925d3bd7b8690d05cc16b20f98d284", "type": "electric_scooter", "fusion_lon": 0.0, "is_disabled": 0, "is_reserved": 0, "bike_id": "80925d3bd7b8690d05cc16b20f98d284", "lon": -76.976673}, {"fusion_lat": 0.0, "lat": 38.91980133333333, "rental_uris": {"ios": "https://dc.lft.to/lastmile_qr_scan", "android": "https://dc.lft.to/lastmile_qr_scan"}, "name": "aa50c58c298f86e06cf839bb8810a2b9", "type": "electric_scooter", "fusion_lon": 0.0, "is_disabled": 0, "is_reserved": 0, "bike_id": "aa50c58c298f86e06cf839bb8810a2b9", "lon": -77.039679}, {"fusion_lat": 0.0, "lat": 38.92108483333333, "rental_uris": {"ios": "https://dc.lft.to/lastmile_qr_scan", "android": "https://dc.lft.to/lastmile_qr_scan"}, "name": "8bcfe8614e5cd115ee0ffb1a441bc69c", "type": "electric_scooter", "fusion_lon": 0.0, "is_disabled": 0, "is_reserved": 0, "bike_id": "8bcfe8614e5cd115ee0ffb1a441bc69c", "lon": -77.01766966666666}, {"fusion_lat": 0.0, "lat": 38.956406666666666, "rental_uris": {"ios": "https://dc.lft.to/lastmile_qr_scan", "android": "https://dc.lft.to/lastmile_qr_scan"}, "name": "6146fc52cb91efb8953c3f42abc1a605", "type": "electric_scooter", "fusion_lon": 0.0, "is_disabled": 0, "is_reserved": 0, "bike_id": "6146fc52cb91efb8953c3f42abc1a605", "lon": -77.01619866666667}, {"fusion_lat": 0.0, "lat": 38.8982775, "rental_uris": {"ios": "https://dc.lft.to/lastmile_qr_scan", "android": "https://dc.lft.to/lastmile_qr_scan"}, "name": "7fa405b916680225afae16b5766f6d58", "type": "electric_scooter", "fusion_lon": 0.0, "is_disabled": 0, "is_reserved": 0, "bike_id": "7fa405b916680225afae16b5766f6d58", "lon": -76.93183216666667}, {"fusion_lat": 0.0, "lat": 38.928171166666665, "rental_uris": {"ios": "https://dc.lft.to/lastmile_qr_scan", "android": "https://dc.lft.to/lastmile_qr_scan"}, "name": "47e945a7649d7882c3f9d2ea5c96c47d", "type": "electric_scooter", "fusion_lon": 0.0, "is_disabled": 0, "is_reserved": 0, "bike_id": "47e945a7649d7882c3f9d2ea5c96c47d", "lon": -77.014069}, {"fusion_lat": 0.0, "lat": 38.93558016666667, "rental_uris": {"ios": "https://dc.lft.to/lastmile_qr_scan", "android": "https://dc.lft.to/lastmile_qr_scan"}, "name": "8db1211dd83aae0678bd301c3e57b2c7", "type": "electric_scooter", "fusion_lon": 0.0, "is_disabled": 0, "is_reserved": 0, "bike_id": "8db1211dd83aae0678bd301c3e57b2c7", "lon": -77.07659216666667}, {"fusion_lat": 0.0, "lat": 38.933777166666665, "rental_uris": {"ios": "https://dc.lft.to/lastmile_qr_scan", "android": "https://dc.lft.to/lastmile_qr_scan"}, "name": "b5a826a9d9d1d4177fd744adc6c02f32", "type": "electric_bike", "fusion_lon": 0.0, "is_disabled": 0, "is_reserved": 0, "bike_id": "b5a826a9d9d1d4177fd744adc6c02f32", "lon": -76.995171}, {"fusion_lat": 0.0, "lat": 38.91306066666667, "rental_uris": {"ios": "https://dc.lft.to/lastmile_qr_scan", "android": "https://dc.lft.to/lastmile_qr_scan"}, "name": "ddf702fbcf3c456fe6607fb7a994d490", "type": "electric_scooter", "fusion_lon": 0.0, "is_disabled": 0, "is_reserved": 0, "bike_id": "ddf702fbcf3c456fe6607fb7a994d490", "lon": -77.0456195}, {"fusion_lat": 0.0, "lat": 38.8976555, "rental_uris": {"ios": "https://dc.lft.to/lastmile_qr_scan", "android": "https://dc.lft.to/lastmile_qr_scan"}, "name": "8d9f52dbe471cdb0965212c589250fb8", "type": "electric_scooter", "fusion_lon": 0.0, "is_disabled": 0, "is_reserved": 0, "bike_id": "8d9f52dbe471cdb0965212c589250fb8", "lon": -76.9855975}, {"fusion_lat": 0.0, "lat": 38.90134116666667, "rental_uris": {"ios": "https://dc.lft.to/lastmile_qr_scan", "android": "https://dc.lft.to/lastmile_qr_scan"}, "name": "1baf17a148d94b79e93ad438b678beff", "type": "electric_scooter", "fusion_lon": 0.0, "is_disabled": 0, "is_reserved": 0, "bike_id": "1baf17a148d94b79e93ad438b678beff", "lon": -77.01808783333334}, {"fusion_lat": 0.0, "lat": 38.87570483333333, "rental_uris": {"ios": "https://dc.lft.to/lastmile_qr_scan", "android": "https://dc.lft.to/lastmile_qr_scan"}, "name": "91f4bca400b1bf26d2145f72a2511587", "type": "electric_scooter", "fusion_lon": 0.0, "is_disabled": 0, "is_reserved": 0, "bike_id": "91f4bca400b1bf26d2145f72a2511587", "lon": -77.00930383333333}, {"fusion_lat": 0.0, "lat": 38.914449166666664, "rental_uris": {"ios": "https://dc.lft.to/lastmile_qr_scan", "android": "https://dc.lft.to/lastmile_qr_scan"}, "name": "3952951ded0d17ecf6140f088d19f86c", "type": "electric_scooter", "fusion_lon": 0.0, "is_disabled": 0, "is_reserved": 0, "bike_id": "3952951ded0d17ecf6140f088d19f86c", "lon": -77.0220465}, {"fusion_lat": 0.0, "lat": 38.9179555, "rental_uris": {"ios": "https://dc.lft.to/lastmile_qr_scan", "android": "https://dc.lft.to/lastmile_qr_scan"}, "name": "589ece20aced123227a324e450afccc5", "type": "electric_scooter", "fusion_lon": 0.0, "is_disabled": 0, "is_reserved": 0, "bike_id": "589ece20aced123227a324e450afccc5", "lon": -77.032102}, {"fusion_lat": 0.0, "lat": 38.898918333333334, "rental_uris": {"ios": "https://dc.lft.to/lastmile_qr_scan", "android": "https://dc.lft.to/lastmile_qr_scan"}, "name": "fde6c108324c4a9cf55f1dcfd9480447", "type": "electric_scooter", "fusion_lon": 0.0, "is_disabled": 0, "is_reserved": 0, "bike_id": "fde6c108324c4a9cf55f1dcfd9480447", "lon": -77.019111}, {"fusion_lat": 0.0, "lat": 38.9015965, "rental_uris": {"ios": "https://dc.lft.to/lastmile_qr_scan", "android": "https://dc.lft.to/lastmile_qr_scan"}, "name": "a1a168433da2f98a4114552efbf2ba59", "type": "electric_scooter", "fusion_lon": 0.0, "is_disabled": 0, "is_reserved": 0, "bike_id": "a1a168433da2f98a4114552efbf2ba59", "lon": -76.9762995}, {"fusion_lat": 0.0, "lat": 38.882458166666666, "rental_uris": {"ios": "https://dc.lft.to/lastmile_qr_scan", "android": "https://dc.lft.to/lastmile_qr_scan"}, "name": "553c110e3c6335704e0a68788957bc46", "type": "electric_bike", "fusion_lon": 0.0, "is_disabled": 0, "is_reserved": 0, "bike_id": "553c110e3c6335704e0a68788957bc46", "lon": -76.96260966666667}, {"fusion_lat": 0.0, "lat": 38.892894166666665, "rental_uris": {"ios": "https://dc.lft.to/lastmile_qr_scan", "android": "https://dc.lft.to/lastmile_qr_scan"}, "name": "1f4b4a22282d4c60ebc95cb84a1d7a64", "type": "electric_scooter", "fusion_lon": 0.0, "is_disabled": 0, "is_reserved": 0, "bike_id": "1f4b4a22282d4c60ebc95cb84a1d7a64", "lon": -77.0198345}, {"fusion_lat": 0.0, "lat": 38.896096, "rental_uris": {"ios": "https://dc.lft.to/lastmile_qr_scan", "android": "https://dc.lft.to/lastmile_qr_scan"}, "name": "51f508ca962e1b6630e83af3fd6d4cd2", "type": "electric_scooter", "fusion_lon": 0.0, "is_disabled": 0, "is_reserved": 0, "bike_id": "51f508ca962e1b6630e83af3fd6d4cd2", "lon": -77.02382683333333}, {"fusion_lat": 0.0, "lat": 38.92248283333333, "rental_uris": {"ios": "https://dc.lft.to/lastmile_qr_scan", "android": "https://dc.lft.to/lastmile_qr_scan"}, "name": "ce334373125d93df3253ecc3580dda4d", "type": "electric_scooter", "fusion_lon": 0.0, "is_disabled": 0, "is_reserved": 0, "bike_id": "ce334373125d93df3253ecc3580dda4d", "lon": -77.02124366666666}, {"fusion_lat": 0.0, "lat": 38.91651983333333, "rental_uris": {"ios": "https://dc.lft.to/lastmile_qr_scan", "android": "https://dc.lft.to/lastmile_qr_scan"}, "name": "343c9dfc3f4fc7fdf09de4133c1ff604", "type": "electric_scooter", "fusion_lon": 0.0, "is_disabled": 0, "is_reserved": 0, "bike_id": "343c9dfc3f4fc7fdf09de4133c1ff604", "lon": -77.0416495}, {"fusion_lat": 0.0, "lat": 38.9077835, "rental_uris": {"ios": "https://dc.lft.to/lastmile_qr_scan", "android": "https://dc.lft.to/lastmile_qr_scan"}, "name": "d994f775bdd4274b76d4c72b956dd29d", "type": "electric_scooter", "fusion_lon": 0.0, "is_disabled": 0, "is_reserved": 0, "bike_id": "d994f775bdd4274b76d4c72b956dd29d", "lon": -76.99855433333333}, {"fusion_lat": 0.0, "lat": 38.9367995, "rental_uris": {"ios": "https://dc.lft.to/lastmile_qr_scan", "android": "https://dc.lft.to/lastmile_qr_scan"}, "name": "5e0949402c58df264edc3d429e58b687", "type": "electric_scooter", "fusion_lon": 0.0, "is_disabled": 0, "is_reserved": 0, "bike_id": "5e0949402c58df264edc3d429e58b687", "lon": -77.03630883333334}, {"fusion_lat": 0.0, "lat": 38.9244105, "rental_uris": {"ios": "https://dc.lft.to/lastmile_qr_scan", "android": "https://dc.lft.to/lastmile_qr_scan"}, "name": "930735776d74c0d4cae2630f3dd54b10", "type": "electric_scooter", "fusion_lon": 0.0, "is_disabled": 0, "is_reserved": 0, "bike_id": "930735776d74c0d4cae2630f3dd54b10", "lon": -77.052499}, {"fusion_lat": 0.0, "lat": 38.88447933333333, "rental_uris": {"ios": "https://dc.lft.to/lastmile_qr_scan", "android": "https://dc.lft.to/lastmile_qr_scan"}, "name": "9af2dd775746e3681f09c72edb586d07", "type": "electric_scooter", "fusion_lon": 0.0, "is_disabled": 0, "is_reserved": 0, "bike_id": "9af2dd775746e3681f09c72edb586d07", "lon": -76.99625083333333}, {"fusion_lat": 0.0, "lat": 38.882275666666665, "rental_uris": {"ios": "https://dc.lft.to/lastmile_qr_scan", "android": "https://dc.lft.to/lastmile_qr_scan"}, "name": "06f0fbb458fd1a5366ed1574b6998bba", "type": "electric_scooter", "fusion_lon": 0.0, "is_disabled": 0, "is_reserved": 0, "bike_id": "06f0fbb458fd1a5366ed1574b6998bba", "lon": -76.989771}, {"fusion_lat": 0.0, "lat": 38.92958016666667, "rental_uris": {"ios": "https://dc.lft.to/lastmile_qr_scan", "android": "https://dc.lft.to/lastmile_qr_scan"}, "name": "d766aae6d56a60140b38a8fe14090eaa", "type": "electric_scooter", "fusion_lon": 0.0, "is_disabled": 0, "is_reserved": 0, "bike_id": "d766aae6d56a60140b38a8fe14090eaa", "lon": -77.05512666666667}, {"fusion_lat": 0.0, "lat": 38.920420666666665, "rental_uris": {"ios": "https://dc.lft.to/lastmile_qr_scan", "android": "https://dc.lft.to/lastmile_qr_scan"}, "name": "d167d8cf5fef7a60c4cc8cdd89920178", "type": "electric_scooter", "fusion_lon": 0.0, "is_disabled": 0, "is_reserved": 0, "bike_id": "d167d8cf5fef7a60c4cc8cdd89920178", "lon": -77.079791}, {"fusion_lat": 0.0, "lat": 38.879613166666665, "rental_uris": {"ios": "https://dc.lft.to/lastmile_qr_scan", "android": "https://dc.lft.to/lastmile_qr_scan"}, "name": "1aa4abab0adca4a555e23b1c6114c210", "type": "electric_scooter", "fusion_lon": 0.0, "is_disabled": 0, "is_reserved": 0, "bike_id": "1aa4abab0adca4a555e23b1c6114c210", "lon": -77.0241615}, {"fusion_lat": 0.0, "lat": 38.8204035, "rental_uris": {"ios": "https://dc.lft.to/lastmile_qr_scan", "android": "https://dc.lft.to/lastmile_qr_scan"}, "name": "f88380dca4da879d2c8eb2f7336c931a", "type": "electric_bike", "fusion_lon": 0.0, "is_disabled": 0, "is_reserved": 0, "bike_id": "f88380dca4da879d2c8eb2f7336c931a", "lon": -77.05350666666666}, {"fusion_lat": 0.0, "lat": 38.8951815, "rental_uris": {"ios": "https://dc.lft.to/lastmile_qr_scan", "android": "https://dc.lft.to/lastmile_qr_scan"}, "name": "4c8b14240fe730d834fc9669f0d8b92c", "type": "electric_scooter", "fusion_lon": 0.0, "is_disabled": 0, "is_reserved": 0, "bike_id": "4c8b14240fe730d834fc9669f0d8b92c", "lon": -77.0229185}, {"fusion_lat": 0.0, "lat": 38.9133845, "rental_uris": {"ios": "https://dc.lft.to/lastmile_qr_scan", "android": "https://dc.lft.to/lastmile_qr_scan"}, "name": "8c1e080f8e58402485d616d97ed23747", "type": "electric_scooter", "fusion_lon": 0.0, "is_disabled": 0, "is_reserved": 0, "bike_id": "8c1e080f8e58402485d616d97ed23747", "lon": -77.03712533333334}, {"fusion_lat": 0.0, "lat": 38.92359733333333, "rental_uris": {"ios": "https://dc.lft.to/lastmile_qr_scan", "android": "https://dc.lft.to/lastmile_qr_scan"}, "name": "80616fe9177fa9790194aae55c0221df", "type": "electric_scooter", "fusion_lon": 0.0, "is_disabled": 0, "is_reserved": 0, "bike_id": "80616fe9177fa9790194aae55c0221df", "lon": -77.0511955}, {"fusion_lat": 0.0, "lat": 38.924027333333335, "rental_uris": {"ios": "https://dc.lft.to/lastmile_qr_scan", "android": "https://dc.lft.to/lastmile_qr_scan"}, "name": "372027282a050e6a32e4c1928be28efc", "type": "electric_scooter", "fusion_lon": 0.0, "is_disabled": 0, "is_reserved": 0, "bike_id": "372027282a050e6a32e4c1928be28efc", "lon": -77.02561633333333}, {"fusion_lat": 0.0, "lat": 38.946106666666665, "rental_uris": {"ios": "https://dc.lft.to/lastmile_qr_scan", "android": "https://dc.lft.to/lastmile_qr_scan"}, "name": "4be7d88cacb038693e1971c8d4841874", "type": "electric_scooter", "fusion_lon": 0.0, "is_disabled": 0, "is_reserved": 0, "bike_id": "4be7d88cacb038693e1971c8d4841874", "lon": -77.0962975}, {"fusion_lat": 0.0, "lat": 38.91703, "rental_uris": {"ios": "https://dc.lft.to/lastmile_qr_scan", "android": "https://dc.lft.to/lastmile_qr_scan"}, "name": "233e2c3ec96917969758b53b2bfd6542", "type": "electric_scooter", "fusion_lon": 0.0, "is_disabled": 0, "is_reserved": 0, "bike_id": "233e2c3ec96917969758b53b2bfd6542", "lon": -77.03176083333334}, {"fusion_lat": 0.0, "lat": 38.9291705, "rental_uris": {"ios": "https://dc.lft.to/lastmile_qr_scan", "android": "https://dc.lft.to/lastmile_qr_scan"}, "name": "720e9ee91202688d4936c7d5a6076cb8", "type": "electric_scooter", "fusion_lon": 0.0, "is_disabled": 0, "is_reserved": 0, "bike_id": "720e9ee91202688d4936c7d5a6076cb8", "lon": -77.020385}, {"fusion_lat": 0.0, "lat": 38.92472433333333, "rental_uris": {"ios": "https://dc.lft.to/lastmile_qr_scan", "android": "https://dc.lft.to/lastmile_qr_scan"}, "name": "d08e32a61fa63347b5728e4a0855574c", "type": "electric_scooter", "fusion_lon": 0.0, "is_disabled": 0, "is_reserved": 0, "bike_id": "d08e32a61fa63347b5728e4a0855574c", "lon": -77.02200433333333}, {"fusion_lat": 0.0, "lat": 38.905696166666665, "rental_uris": {"ios": "https://dc.lft.to/lastmile_qr_scan", "android": "https://dc.lft.to/lastmile_qr_scan"}, "name": "b71d25e45600ae4223a09560f2eeb1bd", "type": "electric_scooter", "fusion_lon": 0.0, "is_disabled": 0, "is_reserved": 0, "bike_id": "b71d25e45600ae4223a09560f2eeb1bd", "lon": -77.04011316666667}, {"fusion_lat": 0.0, "lat": 38.898404666666664, "rental_uris": {"ios": "https://dc.lft.to/lastmile_qr_scan", "android": "https://dc.lft.to/lastmile_qr_scan"}, "name": "487b28e311c898c8a3f0c4fe9e32ac90", "type": "electric_scooter", "fusion_lon": 0.0, "is_disabled": 0, "is_reserved": 0, "bike_id": "487b28e311c898c8a3f0c4fe9e32ac90", "lon": -77.0133815}, {"fusion_lat": 0.0, "lat": 38.92287, "rental_uris": {"ios": "https://dc.lft.to/lastmile_qr_scan", "android": "https://dc.lft.to/lastmile_qr_scan"}, "name": "909436275459fe655e06fcf08533da65", "type": "electric_scooter", "fusion_lon": 0.0, "is_disabled": 0, "is_reserved": 0, "bike_id": "909436275459fe655e06fcf08533da65", "lon": -76.99387933333334}, {"fusion_lat": 0.0, "lat": 38.91054583333333, "rental_uris": {"ios": "https://dc.lft.to/lastmile_qr_scan", "android": "https://dc.lft.to/lastmile_qr_scan"}, "name": "7a0fa27772d6dbd67eabe591287ef1a6", "type": "electric_scooter", "fusion_lon": 0.0, "is_disabled": 0, "is_reserved": 0, "bike_id": "7a0fa27772d6dbd67eabe591287ef1a6", "lon": -77.05392366666666}, {"fusion_lat": 0.0, "lat": 38.8843175, "rental_uris": {"ios": "https://dc.lft.to/lastmile_qr_scan", "android": "https://dc.lft.to/lastmile_qr_scan"}, "name": "484b3e729a09572aee65ddbfb6763fd0", "type": "electric_scooter", "fusion_lon": 0.0, "is_disabled": 0, "is_reserved": 0, "bike_id": "484b3e729a09572aee65ddbfb6763fd0", "lon": -76.95746233333334}, {"fusion_lat": 0.0, "lat": 38.88406533333333, "rental_uris": {"ios": "https://dc.lft.to/lastmile_qr_scan", "android": "https://dc.lft.to/lastmile_qr_scan"}, "name": "47aa70e602ada672a0ea5d43be16ef61", "type": "electric_bike", "fusion_lon": 0.0, "is_disabled": 0, "is_reserved": 0, "bike_id": "47aa70e602ada672a0ea5d43be16ef61", "lon": -76.9605975}, {"fusion_lat": 0.0, "lat": 38.91980216666666, "rental_uris": {"ios": "https://dc.lft.to/lastmile_qr_scan", "android": "https://dc.lft.to/lastmile_qr_scan"}, "name": "a23418f15538be59b622e213d6721643", "type": "electric_scooter", "fusion_lon": 0.0, "is_disabled": 0, "is_reserved": 0, "bike_id": "a23418f15538be59b622e213d6721643", "lon": -77.02512216666666}, {"fusion_lat": 0.0, "lat": 38.9452355, "rental_uris": {"ios": "https://dc.lft.to/lastmile_qr_scan", "android": "https://dc.lft.to/lastmile_qr_scan"}, "name": "443d39470a20e7a9c3fa2797b375ae0a", "type": "electric_scooter", "fusion_lon": 0.0, "is_disabled": 0, "is_reserved": 0, "bike_id": "443d39470a20e7a9c3fa2797b375ae0a", "lon": -77.064007}, {"fusion_lat": 0.0, "lat": 38.88730016666667, "rental_uris": {"ios": "https://dc.lft.to/lastmile_qr_scan", "android": "https://dc.lft.to/lastmile_qr_scan"}, "name": "90aaad11011410055901cf616bf3f40b", "type": "electric_scooter", "fusion_lon": 0.0, "is_disabled": 0, "is_reserved": 0, "bike_id": "90aaad11011410055901cf616bf3f40b", "lon": -77.02579833333333}, {"fusion_lat": 0.0, "lat": 38.901420333333334, "rental_uris": {"ios": "https://dc.lft.to/lastmile_qr_scan", "android": "https://dc.lft.to/lastmile_qr_scan"}, "name": "581e694c57c964307573fef6bb440898", "type": "electric_scooter", "fusion_lon": 0.0, "is_disabled": 0, "is_reserved": 0, "bike_id": "581e694c57c964307573fef6bb440898", "lon": -77.03568783333333}, {"fusion_lat": 0.0, "lat": 38.866842, "rental_uris": {"ios": "https://dc.lft.to/lastmile_qr_scan", "android": "https://dc.lft.to/lastmile_qr_scan"}, "name": "560035c2914ae06b10297a1d08f32aa3", "type": "electric_scooter", "fusion_lon": 0.0, "is_disabled": 0, "is_reserved": 0, "bike_id": "560035c2914ae06b10297a1d08f32aa3", "lon": -76.98571666666666}, {"fusion_lat": 0.0, "lat": 38.8994825, "rental_uris": {"ios": "https://dc.lft.to/lastmile_qr_scan", "android": "https://dc.lft.to/lastmile_qr_scan"}, "name": "d765dce82e6f3f6e4f187a3321986a9d", "type": "electric_scooter", "fusion_lon": 0.0, "is_disabled": 0, "is_reserved": 0, "bike_id": "d765dce82e6f3f6e4f187a3321986a9d", "lon": -77.03189833333333}, {"fusion_lat": 0.0, "lat": 38.91708766666667, "rental_uris": {"ios": "https://dc.lft.to/lastmile_qr_scan", "android": "https://dc.lft.to/lastmile_qr_scan"}, "name": "afd4245a8caf3ab9b684bb7a358d567d", "type": "electric_scooter", "fusion_lon": 0.0, "is_disabled": 0, "is_reserved": 0, "bike_id": "afd4245a8caf3ab9b684bb7a358d567d", "lon": -77.04047833333334}, {"fusion_lat": 0.0, "lat": 38.903909, "rental_uris": {"ios": "https://dc.lft.to/lastmile_qr_scan", "android": "https://dc.lft.to/lastmile_qr_scan"}, "name": "e74457c0b2badca3d442cefca7c3d2f0", "type": "electric_scooter", "fusion_lon": 0.0, "is_disabled": 0, "is_reserved": 0, "bike_id": "e74457c0b2badca3d442cefca7c3d2f0", "lon": -77.05151116666667}, {"fusion_lat": 0.0, "lat": 38.894971166666664, "rental_uris": {"ios": "https://dc.lft.to/lastmile_qr_scan", "android": "https://dc.lft.to/lastmile_qr_scan"}, "name": "a916b72fa11fdf4720f77a42dd088e23", "type": "electric_scooter", "fusion_lon": 0.0, "is_disabled": 0, "is_reserved": 0, "bike_id": "a916b72fa11fdf4720f77a42dd088e23", "lon": -77.01083333333334}, {"fusion_lat": 0.0, "lat": 38.93704983333333, "rental_uris": {"ios": "https://dc.lft.to/lastmile_qr_scan", "android": "https://dc.lft.to/lastmile_qr_scan"}, "name": "30987a02ed5740dd6f95ad4c773457dc", "type": "electric_scooter", "fusion_lon": 0.0, "is_disabled": 0, "is_reserved": 0, "bike_id": "30987a02ed5740dd6f95ad4c773457dc", "lon": -77.03284166666667}, {"fusion_lat": 0.0, "lat": 38.886925, "rental_uris": {"ios": "https://dc.lft.to/lastmile_qr_scan", "android": "https://dc.lft.to/lastmile_qr_scan"}, "name": "e4bd73e14b019a55969f09f53352bde0", "type": "electric_scooter", "fusion_lon": 0.0, "is_disabled": 0, "is_reserved": 0, "bike_id": "e4bd73e14b019a55969f09f53352bde0", "lon": -77.001206}, {"fusion_lat": 0.0, "lat": 38.921610333333334, "rental_uris": {"ios": "https://dc.lft.to/lastmile_qr_scan", "android": "https://dc.lft.to/lastmile_qr_scan"}, "name": "c2a63a6330cafd9335a03370229ca03b", "type": "electric_scooter", "fusion_lon": 0.0, "is_disabled": 0, "is_reserved": 0, "bike_id": "c2a63a6330cafd9335a03370229ca03b", "lon": -77.04692866666667}, {"fusion_lat": 0.0, "lat": 38.896414166666666, "rental_uris": {"ios": "https://dc.lft.to/lastmile_qr_scan", "android": "https://dc.lft.to/lastmile_qr_scan"}, "name": "00551ac9994714c7f1eaf1aff57c039c", "type": "electric_scooter", "fusion_lon": 0.0, "is_disabled": 0, "is_reserved": 0, "bike_id": "00551ac9994714c7f1eaf1aff57c039c", "lon": -77.0090185}, {"fusion_lat": 0.0, "lat": 38.89744066666667, "rental_uris": {"ios": "https://dc.lft.to/lastmile_qr_scan", "android": "https://dc.lft.to/lastmile_qr_scan"}, "name": "3c3183ff97a30e2eb9ca2f3cda39736a", "type": "electric_scooter", "fusion_lon": 0.0, "is_disabled": 0, "is_reserved": 0, "bike_id": "3c3183ff97a30e2eb9ca2f3cda39736a", "lon": -76.97975983333333}, {"fusion_lat": 0.0, "lat": 38.898285333333334, "rental_uris": {"ios": "https://dc.lft.to/lastmile_qr_scan", "android": "https://dc.lft.to/lastmile_qr_scan"}, "name": "19b47afd1a5c620e00406955264a5bf0", "type": "electric_scooter", "fusion_lon": 0.0, "is_disabled": 0, "is_reserved": 0, "bike_id": "19b47afd1a5c620e00406955264a5bf0", "lon": -77.02432483333334}, {"fusion_lat": 0.0, "lat": 38.89220983333333, "rental_uris": {"ios": "https://dc.lft.to/lastmile_qr_scan", "android": "https://dc.lft.to/lastmile_qr_scan"}, "name": "aa4628a809be1520b06d7113261d82d2", "type": "electric_scooter", "fusion_lon": 0.0, "is_disabled": 0, "is_reserved": 0, "bike_id": "aa4628a809be1520b06d7113261d82d2", "lon": -77.04513816666666}, {"fusion_lat": 0.0, "lat": 38.920899666666664, "rental_uris": {"ios": "https://dc.lft.to/lastmile_qr_scan", "android": "https://dc.lft.to/lastmile_qr_scan"}, "name": "ec4aa44d7ae24358c41534e0123bbc5b", "type": "electric_scooter", "fusion_lon": 0.0, "is_disabled": 0, "is_reserved": 0, "bike_id": "ec4aa44d7ae24358c41534e0123bbc5b", "lon": -77.022268}, {"fusion_lat": 0.0, "lat": 38.90062566666667, "rental_uris": {"ios": "https://dc.lft.to/lastmile_qr_scan", "android": "https://dc.lft.to/lastmile_qr_scan"}, "name": "6e4e05d1e17733fe83cc145ab1c4da25", "type": "electric_scooter", "fusion_lon": 0.0, "is_disabled": 0, "is_reserved": 0, "bike_id": "6e4e05d1e17733fe83cc145ab1c4da25", "lon": -77.029729}, {"fusion_lat": 0.0, "lat": 38.924621, "rental_uris": {"ios": "https://dc.lft.to/lastmile_qr_scan", "android": "https://dc.lft.to/lastmile_qr_scan"}, "name": "6ec940968e793d926d8d839c46deda15", "type": "electric_scooter", "fusion_lon": 0.0, "is_disabled": 0, "is_reserved": 0, "bike_id": "6ec940968e793d926d8d839c46deda15", "lon": -77.0522505}, {"fusion_lat": 0.0, "lat": 38.8772185, "rental_uris": {"ios": "https://dc.lft.to/lastmile_qr_scan", "android": "https://dc.lft.to/lastmile_qr_scan"}, "name": "0a605517aa74870517ed1117d541ca6c", "type": "electric_scooter", "fusion_lon": 0.0, "is_disabled": 0, "is_reserved": 0, "bike_id": "0a605517aa74870517ed1117d541ca6c", "lon": -77.00709516666667}, {"fusion_lat": 0.0, "lat": 38.90153016666667, "rental_uris": {"ios": "https://dc.lft.to/lastmile_qr_scan", "android": "https://dc.lft.to/lastmile_qr_scan"}, "name": "ab3da84095e4901ece2be64d997f1648", "type": "electric_scooter", "fusion_lon": 0.0, "is_disabled": 0, "is_reserved": 0, "bike_id": "ab3da84095e4901ece2be64d997f1648", "lon": -77.042377}, {"fusion_lat": 0.0, "lat": 38.91049533333333, "rental_uris": {"ios": "https://dc.lft.to/lastmile_qr_scan", "android": "https://dc.lft.to/lastmile_qr_scan"}, "name": "1df288751cb8a2cc152c712afa4b52a6", "type": "electric_scooter", "fusion_lon": 0.0, "is_disabled": 0, "is_reserved": 0, "bike_id": "1df288751cb8a2cc152c712afa4b52a6", "lon": -77.0268465}, {"fusion_lat": 0.0, "lat": 38.866831833333336, "rental_uris": {"ios": "https://dc.lft.to/lastmile_qr_scan", "android": "https://dc.lft.to/lastmile_qr_scan"}, "name": "cd4747fc34bae85065fcd81f4fc5cd25", "type": "electric_scooter", "fusion_lon": 0.0, "is_disabled": 0, "is_reserved": 0, "bike_id": "cd4747fc34bae85065fcd81f4fc5cd25", "lon": -76.98566433333333}, {"fusion_lat": 0.0, "lat": 38.9171135, "rental_uris": {"ios": "https://dc.lft.to/lastmile_qr_scan", "android": "https://dc.lft.to/lastmile_qr_scan"}, "name": "e4d24a2baff0b7dd818d499d030d5e58", "type": "electric_scooter", "fusion_lon": 0.0, "is_disabled": 0, "is_reserved": 0, "bike_id": "e4d24a2baff0b7dd818d499d030d5e58", "lon": -77.0313675}, {"fusion_lat": 0.0, "lat": 38.954988166666666, "rental_uris": {"ios": "https://dc.lft.to/lastmile_qr_scan", "android": "https://dc.lft.to/lastmile_qr_scan"}, "name": "7e722a0dd36380c89cac575c1e063fc5", "type": "electric_scooter", "fusion_lon": 0.0, "is_disabled": 0, "is_reserved": 0, "bike_id": "7e722a0dd36380c89cac575c1e063fc5", "lon": -77.0172625}, {"fusion_lat": 0.0, "lat": 38.92864383333333, "rental_uris": {"ios": "https://dc.lft.to/lastmile_qr_scan", "android": "https://dc.lft.to/lastmile_qr_scan"}, "name": "f48cac55b495377371ddd5aa928cdb0e", "type": "electric_scooter", "fusion_lon": 0.0, "is_disabled": 0, "is_reserved": 0, "bike_id": "f48cac55b495377371ddd5aa928cdb0e", "lon": -77.014099}, {"fusion_lat": 0.0, "lat": 38.918027, "rental_uris": {"ios": "https://dc.lft.to/lastmile_qr_scan", "android": "https://dc.lft.to/lastmile_qr_scan"}, "name": "df6d38aaa82c628051e7a46a28fa589d", "type": "electric_scooter", "fusion_lon": 0.0, "is_disabled": 0, "is_reserved": 0, "bike_id": "df6d38aaa82c628051e7a46a28fa589d", "lon": -77.02700683333333}, {"fusion_lat": 0.0, "lat": 38.924712166666666, "rental_uris": {"ios": "https://dc.lft.to/lastmile_qr_scan", "android": "https://dc.lft.to/lastmile_qr_scan"}, "name": "6f7bc5d40ac55ee42a443edfd29c279b", "type": "electric_scooter", "fusion_lon": 0.0, "is_disabled": 0, "is_reserved": 0, "bike_id": "6f7bc5d40ac55ee42a443edfd29c279b", "lon": -77.03822633333333}, {"fusion_lat": 0.0, "lat": 38.875752, "rental_uris": {"ios": "https://dc.lft.to/lastmile_qr_scan", "android": "https://dc.lft.to/lastmile_qr_scan"}, "name": "fc7c0463ca4f0d221e2995d15cc622b6", "type": "electric_scooter", "fusion_lon": 0.0, "is_disabled": 0, "is_reserved": 0, "bike_id": "fc7c0463ca4f0d221e2995d15cc622b6", "lon": -77.00602616666667}, {"fusion_lat": 0.0, "lat": 38.90597116666667, "rental_uris": {"ios": "https://dc.lft.to/lastmile_qr_scan", "android": "https://dc.lft.to/lastmile_qr_scan"}, "name": "f2b40384bc9990aae7a5fe4ae0764817", "type": "electric_bike", "fusion_lon": 0.0, "is_disabled": 0, "is_reserved": 0, "bike_id": "f2b40384bc9990aae7a5fe4ae0764817", "lon": -77.03996333333333}, {"fusion_lat": 0.0, "lat": 38.8922145, "rental_uris": {"ios": "https://dc.lft.to/lastmile_qr_scan", "android": "https://dc.lft.to/lastmile_qr_scan"}, "name": "2e681d352bfc7e7dee663de557745350", "type": "electric_scooter", "fusion_lon": 0.0, "is_disabled": 0, "is_reserved": 0, "bike_id": "2e681d352bfc7e7dee663de557745350", "lon": -77.0419595}, {"fusion_lat": 0.0, "lat": 38.910628, "rental_uris": {"ios": "https://dc.lft.to/lastmile_qr_scan", "android": "https://dc.lft.to/lastmile_qr_scan"}, "name": "91dc0688d97d13b76a21b40c1ad71ae8", "type": "electric_scooter", "fusion_lon": 0.0, "is_disabled": 0, "is_reserved": 0, "bike_id": "91dc0688d97d13b76a21b40c1ad71ae8", "lon": -77.04384883333333}, {"fusion_lat": 0.0, "lat": 38.905678333333334, "rental_uris": {"ios": "https://dc.lft.to/lastmile_qr_scan", "android": "https://dc.lft.to/lastmile_qr_scan"}, "name": "6233b1aa279d734eb9410eb67e4f5f7a", "type": "electric_scooter", "fusion_lon": 0.0, "is_disabled": 0, "is_reserved": 0, "bike_id": "6233b1aa279d734eb9410eb67e4f5f7a", "lon": -77.04331766666667}, {"fusion_lat": 0.0, "lat": 38.923694166666664, "rental_uris": {"ios": "https://dc.lft.to/lastmile_qr_scan", "android": "https://dc.lft.to/lastmile_qr_scan"}, "name": "09408511cc74ac09522b23d58a7c9102", "type": "electric_scooter", "fusion_lon": 0.0, "is_disabled": 0, "is_reserved": 0, "bike_id": "09408511cc74ac09522b23d58a7c9102", "lon": -77.019044}, {"fusion_lat": 0.0, "lat": 38.895073333333336, "rental_uris": {"ios": "https://dc.lft.to/lastmile_qr_scan", "android": "https://dc.lft.to/lastmile_qr_scan"}, "name": "1bb451f22a7bafb8cfed746aabc45722", "type": "electric_scooter", "fusion_lon": 0.0, "is_disabled": 0, "is_reserved": 0, "bike_id": "1bb451f22a7bafb8cfed746aabc45722", "lon": -77.0262265}, {"fusion_lat": 0.0, "lat": 38.920496166666666, "rental_uris": {"ios": "https://dc.lft.to/lastmile_qr_scan", "android": "https://dc.lft.to/lastmile_qr_scan"}, "name": "d3d37b0f690572761de26653ef3e820d", "type": "electric_scooter", "fusion_lon": 0.0, "is_disabled": 0, "is_reserved": 0, "bike_id": "d3d37b0f690572761de26653ef3e820d", "lon": -77.0257835}, {"fusion_lat": 0.0, "lat": 38.9135705, "rental_uris": {"ios": "https://dc.lft.to/lastmile_qr_scan", "android": "https://dc.lft.to/lastmile_qr_scan"}, "name": "d70adcd867cc5bc9cfc1f8d8b8e70d15", "type": "electric_scooter", "fusion_lon": 0.0, "is_disabled": 0, "is_reserved": 0, "bike_id": "d70adcd867cc5bc9cfc1f8d8b8e70d15", "lon": -77.0439555}, {"fusion_lat": 0.0, "lat": 38.916643666666666, "rental_uris": {"ios": "https://dc.lft.to/lastmile_qr_scan", "android": "https://dc.lft.to/lastmile_qr_scan"}, "name": "5337c40abd671036613502be9cbac499", "type": "electric_scooter", "fusion_lon": 0.0, "is_disabled": 0, "is_reserved": 0, "bike_id": "5337c40abd671036613502be9cbac499", "lon": -77.0270765}, {"fusion_lat": 0.0, "lat": 38.940681166666664, "rental_uris": {"ios": "https://dc.lft.to/lastmile_qr_scan", "android": "https://dc.lft.to/lastmile_qr_scan"}, "name": "57f90e9c21f57f35c49321fcfd0bbbf0", "type": "electric_scooter", "fusion_lon": 0.0, "is_disabled": 0, "is_reserved": 0, "bike_id": "57f90e9c21f57f35c49321fcfd0bbbf0", "lon": -76.99948183333333}, {"fusion_lat": 0.0, "lat": 38.87630566666667, "rental_uris": {"ios": "https://dc.lft.to/lastmile_qr_scan", "android": "https://dc.lft.to/lastmile_qr_scan"}, "name": "122e0d3a9d2201927b15d6f689bef417", "type": "electric_scooter", "fusion_lon": 0.0, "is_disabled": 0, "is_reserved": 0, "bike_id": "122e0d3a9d2201927b15d6f689bef417", "lon": -77.0060105}, {"fusion_lat": 0.0, "lat": 38.8983675, "rental_uris": {"ios": "https://dc.lft.to/lastmile_qr_scan", "android": "https://dc.lft.to/lastmile_qr_scan"}, "name": "bc2cc2f6a5c6f28fad6800c04f8039e2", "type": "electric_scooter", "fusion_lon": 0.0, "is_disabled": 0, "is_reserved": 0, "bike_id": "bc2cc2f6a5c6f28fad6800c04f8039e2", "lon": -77.03334733333334}, {"fusion_lat": 0.0, "lat": 38.916252, "rental_uris": {"ios": "https://dc.lft.to/lastmile_qr_scan", "android": "https://dc.lft.to/lastmile_qr_scan"}, "name": "0c0932d6a1caafc20fd394c4cfeea253", "type": "electric_scooter", "fusion_lon": 0.0, "is_disabled": 0, "is_reserved": 0, "bike_id": "0c0932d6a1caafc20fd394c4cfeea253", "lon": -77.04299416666667}, {"fusion_lat": 0.0, "lat": 38.91845, "rental_uris": {"ios": "https://dc.lft.to/lastmile_qr_scan", "android": "https://dc.lft.to/lastmile_qr_scan"}, "name": "a14eab83d7c1e4c62573813493d54eee", "type": "electric_scooter", "fusion_lon": 0.0, "is_disabled": 0, "is_reserved": 0, "bike_id": "a14eab83d7c1e4c62573813493d54eee", "lon": -77.04030833333333}, {"fusion_lat": 0.0, "lat": 38.921383166666665, "rental_uris": {"ios": "https://dc.lft.to/lastmile_qr_scan", "android": "https://dc.lft.to/lastmile_qr_scan"}, "name": "db8661cca49bc280b77c16dd5928f25e", "type": "electric_scooter", "fusion_lon": 0.0, "is_disabled": 0, "is_reserved": 0, "bike_id": "db8661cca49bc280b77c16dd5928f25e", "lon": -77.011693}, {"fusion_lat": 0.0, "lat": 38.992223333333335, "rental_uris": {"ios": "https://dc.lft.to/lastmile_qr_scan", "android": "https://dc.lft.to/lastmile_qr_scan"}, "name": "2a38625c1e3ab47663ecb830d3cd9bdb", "type": "electric_bike", "fusion_lon": 0.0, "is_disabled": 0, "is_reserved": 0, "bike_id": "2a38625c1e3ab47663ecb830d3cd9bdb", "lon": -76.94442599999999}, {"fusion_lat": 0.0, "lat": 38.964801333333334, "rental_uris": {"ios": "https://dc.lft.to/lastmile_qr_scan", "android": "https://dc.lft.to/lastmile_qr_scan"}, "name": "7ababa7bd2e0fc195d03327747a677de", "type": "electric_scooter", "fusion_lon": 0.0, "is_disabled": 0, "is_reserved": 0, "bike_id": "7ababa7bd2e0fc195d03327747a677de", "lon": -77.01192666666667}, {"fusion_lat": 0.0, "lat": 38.902503333333335, "rental_uris": {"ios": "https://dc.lft.to/lastmile_qr_scan", "android": "https://dc.lft.to/lastmile_qr_scan"}, "name": "16a32e5c83d06ef1181371b46e513055", "type": "electric_scooter", "fusion_lon": 0.0, "is_disabled": 0, "is_reserved": 0, "bike_id": "16a32e5c83d06ef1181371b46e513055", "lon": -77.04003166666666}, {"fusion_lat": 0.0, "lat": 38.910404666666665, "rental_uris": {"ios": "https://dc.lft.to/lastmile_qr_scan", "android": "https://dc.lft.to/lastmile_qr_scan"}, "name": "7d134c313e7abae4b1f7128cbab1f310", "type": "electric_scooter", "fusion_lon": 0.0, "is_disabled": 0, "is_reserved": 0, "bike_id": "7d134c313e7abae4b1f7128cbab1f310", "lon": -77.03375266666667}, {"fusion_lat": 0.0, "lat": 38.857867666666664, "rental_uris": {"ios": "https://dc.lft.to/lastmile_qr_scan", "android": "https://dc.lft.to/lastmile_qr_scan"}, "name": "e4e64e5d15db3deaaa68f82aeeb69a00", "type": "electric_bike", "fusion_lon": 0.0, "is_disabled": 0, "is_reserved": 0, "bike_id": "e4e64e5d15db3deaaa68f82aeeb69a00", "lon": -77.12021066666667}, {"fusion_lat": 0.0, "lat": 38.85518583333333, "rental_uris": {"ios": "https://dc.lft.to/lastmile_qr_scan", "android": "https://dc.lft.to/lastmile_qr_scan"}, "name": "e940c9e192411dc6d50bad50689ed0f0", "type": "electric_bike", "fusion_lon": 0.0, "is_disabled": 0, "is_reserved": 0, "bike_id": "e940c9e192411dc6d50bad50689ed0f0", "lon": -77.12051216666667}, {"fusion_lat": 0.0, "lat": 38.89203783333333, "rental_uris": {"ios": "https://dc.lft.to/lastmile_qr_scan", "android": "https://dc.lft.to/lastmile_qr_scan"}, "name": "62bb57521704a930a77b242306d83c08", "type": "electric_scooter", "fusion_lon": 0.0, "is_disabled": 0, "is_reserved": 0, "bike_id": "62bb57521704a930a77b242306d83c08", "lon": -76.956992}, {"fusion_lat": 0.0, "lat": 38.923193166666664, "rental_uris": {"ios": "https://dc.lft.to/lastmile_qr_scan", "android": "https://dc.lft.to/lastmile_qr_scan"}, "name": "c38a5494ff957e7200d5b787e31b7ece", "type": "electric_scooter", "fusion_lon": 0.0, "is_disabled": 0, "is_reserved": 0, "bike_id": "c38a5494ff957e7200d5b787e31b7ece", "lon": -77.03406683333333}, {"fusion_lat": 0.0, "lat": 38.90971866666667, "rental_uris": {"ios": "https://dc.lft.to/lastmile_qr_scan", "android": "https://dc.lft.to/lastmile_qr_scan"}, "name": "fc7ac3a97bb59d22a11bb899bac9cfa9", "type": "electric_scooter", "fusion_lon": 0.0, "is_disabled": 0, "is_reserved": 0, "bike_id": "fc7ac3a97bb59d22a11bb899bac9cfa9", "lon": -77.04516433333333}, {"fusion_lat": 0.0, "lat": 38.92748516666666, "rental_uris": {"ios": "https://dc.lft.to/lastmile_qr_scan", "android": "https://dc.lft.to/lastmile_qr_scan"}, "name": "292062d92a95fba5538f880e0a019572", "type": "electric_scooter", "fusion_lon": 0.0, "is_disabled": 0, "is_reserved": 0, "bike_id": "292062d92a95fba5538f880e0a019572", "lon": -77.02491733333333}, {"fusion_lat": 0.0, "lat": 38.8913445, "rental_uris": {"ios": "https://dc.lft.to/lastmile_qr_scan", "android": "https://dc.lft.to/lastmile_qr_scan"}, "name": "a0e273733df011b09ae00e4886c75351", "type": "electric_scooter", "fusion_lon": 0.0, "is_disabled": 0, "is_reserved": 0, "bike_id": "a0e273733df011b09ae00e4886c75351", "lon": -76.99092383333333}, {"fusion_lat": 0.0, "lat": 38.984631, "rental_uris": {"ios": "https://dc.lft.to/lastmile_qr_scan", "android": "https://dc.lft.to/lastmile_qr_scan"}, "name": "b292183f1bd372ab83f31db5ae151230", "type": "electric_bike", "fusion_lon": 0.0, "is_disabled": 0, "is_reserved": 0, "bike_id": "b292183f1bd372ab83f31db5ae151230", "lon": -76.97052383333333}, {"fusion_lat": 0.0, "lat": 38.8825915, "rental_uris": {"ios": "https://dc.lft.to/lastmile_qr_scan", "android": "https://dc.lft.to/lastmile_qr_scan"}, "name": "46ca5be328980e94f6c8df82add2d9b2", "type": "electric_bike", "fusion_lon": 0.0, "is_disabled": 0, "is_reserved": 0, "bike_id": "46ca5be328980e94f6c8df82add2d9b2", "lon": -76.91036716666666}, {"fusion_lat": 0.0, "lat": 38.903077833333334, "rental_uris": {"ios": "https://dc.lft.to/lastmile_qr_scan", "android": "https://dc.lft.to/lastmile_qr_scan"}, "name": "9f99932675a110d2b2577a1ee46cdd16", "type": "electric_scooter", "fusion_lon": 0.0, "is_disabled": 0, "is_reserved": 0, "bike_id": "9f99932675a110d2b2577a1ee46cdd16", "lon": -77.02364466666667}, {"fusion_lat": 0.0, "lat": 38.9399095, "rental_uris": {"ios": "https://dc.lft.to/lastmile_qr_scan", "android": "https://dc.lft.to/lastmile_qr_scan"}, "name": "c5aaf2bfb4111c4b7c8af8adbe779543", "type": "electric_scooter", "fusion_lon": 0.0, "is_disabled": 0, "is_reserved": 0, "bike_id": "c5aaf2bfb4111c4b7c8af8adbe779543", "lon": -77.03265}, {"fusion_lat": 0.0, "lat": 38.922526166666664, "rental_uris": {"ios": "https://dc.lft.to/lastmile_qr_scan", "android": "https://dc.lft.to/lastmile_qr_scan"}, "name": "20cf0a6fdb333c16b54c19c428dd190e", "type": "electric_scooter", "fusion_lon": 0.0, "is_disabled": 0, "is_reserved": 0, "bike_id": "20cf0a6fdb333c16b54c19c428dd190e", "lon": -77.02103633333333}, {"fusion_lat": 0.0, "lat": 38.91612766666667, "rental_uris": {"ios": "https://dc.lft.to/lastmile_qr_scan", "android": "https://dc.lft.to/lastmile_qr_scan"}, "name": "0f878b24b9114d8870a5a69765d47599", "type": "electric_scooter", "fusion_lon": 0.0, "is_disabled": 0, "is_reserved": 0, "bike_id": "0f878b24b9114d8870a5a69765d47599", "lon": -77.02306266666666}, {"fusion_lat": 0.0, "lat": 38.85317033333333, "rental_uris": {"ios": "https://dc.lft.to/lastmile_qr_scan", "android": "https://dc.lft.to/lastmile_qr_scan"}, "name": "149247e2534412e7709b9252fb02981e", "type": "electric_bike", "fusion_lon": 0.0, "is_disabled": 0, "is_reserved": 0, "bike_id": "149247e2534412e7709b9252fb02981e", "lon": -76.98010533333333}, {"fusion_lat": 0.0, "lat": 38.84918316666667, "rental_uris": {"ios": "https://dc.lft.to/lastmile_qr_scan", "android": "https://dc.lft.to/lastmile_qr_scan"}, "name": "0bb3f33af4e64b997a2dae8c7fb78b5a", "type": "electric_bike", "fusion_lon": 0.0, "is_disabled": 0, "is_reserved": 0, "bike_id": "0bb3f33af4e64b997a2dae8c7fb78b5a", "lon": -77.07931083333334}, {"fusion_lat": 0.0, "lat": 38.93864816666667, "rental_uris": {"ios": "https://dc.lft.to/lastmile_qr_scan", "android": "https://dc.lft.to/lastmile_qr_scan"}, "name": "6f69d16209d29685656259bc5514488b", "type": "electric_scooter", "fusion_lon": 0.0, "is_disabled": 0, "is_reserved": 0, "bike_id": "6f69d16209d29685656259bc5514488b", "lon": -77.02631283333334}, {"fusion_lat": 0.0, "lat": 38.931128333333334, "rental_uris": {"ios": "https://dc.lft.to/lastmile_qr_scan", "android": "https://dc.lft.to/lastmile_qr_scan"}, "name": "fb921d59065eec37ace40c2dc35cc0c9", "type": "electric_scooter", "fusion_lon": 0.0, "is_disabled": 0, "is_reserved": 0, "bike_id": "fb921d59065eec37ace40c2dc35cc0c9", "lon": -77.03820466666667}, {"fusion_lat": 0.0, "lat": 38.92565, "rental_uris": {"ios": "https://dc.lft.to/lastmile_qr_scan", "android": "https://dc.lft.to/lastmile_qr_scan"}, "name": "aaab09e66868d68f9111f37ef7e94976", "type": "electric_scooter", "fusion_lon": 0.0, "is_disabled": 0, "is_reserved": 0, "bike_id": "aaab09e66868d68f9111f37ef7e94976", "lon": -77.02710583333334}, {"fusion_lat": 0.0, "lat": 38.86565783333333, "rental_uris": {"ios": "https://dc.lft.to/lastmile_qr_scan", "android": "https://dc.lft.to/lastmile_qr_scan"}, "name": "fdf08a67616a744cfa19d9d091d7fcb5", "type": "electric_scooter", "fusion_lon": 0.0, "is_disabled": 0, "is_reserved": 0, "bike_id": "fdf08a67616a744cfa19d9d091d7fcb5", "lon": -76.98336683333333}, {"fusion_lat": 0.0, "lat": 38.885046333333335, "rental_uris": {"ios": "https://dc.lft.to/lastmile_qr_scan", "android": "https://dc.lft.to/lastmile_qr_scan"}, "name": "7fd3b83d0e7924ac9a7169a4c009db95", "type": "electric_scooter", "fusion_lon": 0.0, "is_disabled": 0, "is_reserved": 0, "bike_id": "7fd3b83d0e7924ac9a7169a4c009db95", "lon": -77.006998}, {"fusion_lat": 0.0, "lat": 38.866572833333336, "rental_uris": {"ios": "https://dc.lft.to/lastmile_qr_scan", "android": "https://dc.lft.to/lastmile_qr_scan"},