{"data": {"bikes": [{"fusion_lon": 0.0, "bike_id": "285c8b94ef3fa10ba4124336fd95a039", "is_disabled": 0, "is_reserved": 0, "lat": 38.924101666666665, "name": "285c8b94ef3fa10ba4124336fd95a039", "rental_uris": {"ios": "https://dc.lft.to/lastmile_qr_scan", "android": "https://dc.lft.to/lastmile_qr_scan"}, "type": "electric_scooter", "fusion_lat": 0.0, "lon": -77.02006766666666}, {"fusion_lon": 0.0, "bike_id": "272868597f53897e3e5bbc12a434d69d", "is_disabled": 0, "is_reserved": 0, "lat": 38.896218166666664, "name": "272868597f53897e3e5bbc12a434d69d", "rental_uris": {"ios": "https://dc.lft.to/lastmile_qr_scan", "android": "https://dc.lft.to/lastmile_qr_scan"}, "type": "electric_bike", "fusion_lat": 0.0, "lon": -76.90750833333334}, {"fusion_lon": 0.0, "bike_id": "91438d23e4d0a09eb35d13e37b221948", "is_disabled": 0, "is_reserved": 0, "lat": 38.9192405, "name": "91438d23e4d0a09eb35d13e37b221948", "rental_uris": {"ios": "https://dc.lft.to/lastmile_qr_scan", "android": "https://dc.lft.to/lastmile_qr_scan"}, "type": "electric_scooter", "fusion_lat": 0.0, "lon": -77.03192766666666}, {"fusion_lon": 0.0, "bike_id": "6e88299add49686a6fa3ed78ed943980", "is_disabled": 0, "is_reserved": 0, "lat": 38.88515, "name": "6e88299add49686a6fa3ed78ed943980", "rental_uris": {"ios": "https://dc.lft.to/lastmile_qr_scan", "android": "https://dc.lft.to/lastmile_qr_scan"}, "type": "electric_scooter", "fusion_lat": 0.0, "lon": -76.924458}, {"fusion_lon": 0.0, "bike_id": "1f8bef65e00a8d5f598a82e6a4e137df", "is_disabled": 0, "is_reserved": 0, "lat": 38.914055, "name": "1f8bef65e00a8d5f598a82e6a4e137df", "rental_uris": {"ios": "https://dc.lft.to/lastmile_qr_scan", "android": "https://dc.lft.to/lastmile_qr_scan"}, "type": "electric_scooter", "fusion_lat": 0.0, "lon": -77.01804316666667}, {"fusion_lon": 0.0, "bike_id": "eaa97e11e089a2c1c8edee75dab7e816", "is_disabled": 0, "is_reserved": 0, "lat": 38.921676, "name": "eaa97e11e089a2c1c8edee75dab7e816", "rental_uris": {"ios": "https://dc.lft.to/lastmile_qr_scan", "android": "https://dc.lft.to/lastmile_qr_scan"}, "type": "electric_scooter", "fusion_lat": 0.0, "lon": -77.04018283333333}, {"fusion_lon": 0.0, "bike_id": "40458de098ffeb48cbd9152d9e480c3b", "is_disabled": 0, "is_reserved": 0, "lat": 38.90596133333333, "name": "40458de098ffeb48cbd9152d9e480c3b", "rental_uris": {"ios": "https://dc.lft.to/lastmile_qr_scan", "android": "https://dc.lft.to/lastmile_qr_scan"}, "type": "electric_scooter", "fusion_lat": 0.0, "lon": -77.07000716666667}, {"fusion_lon": 0.0, "bike_id": "c33712f4b20cd9c6f2e82082707d1457", "is_disabled": 0, "is_reserved": 0, "lat": 38.90251816666667, "name": "c33712f4b20cd9c6f2e82082707d1457", "rental_uris": {"ios": "https://dc.lft.to/lastmile_qr_scan", "android": "https://dc.lft.to/lastmile_qr_scan"}, "type": "electric_scooter", "fusion_lat": 0.0, "lon": -76.977032}, {"fusion_lon": 0.0, "bike_id": "7e9a55c16b02cbe492f26ff2f91fb09e", "is_disabled": 0, "is_reserved": 0, "lat": 38.88534116666666, "name": "7e9a55c16b02cbe492f26ff2f91fb09e", "rental_uris": {"ios": "https://dc.lft.to/lastmile_qr_scan", "android": "https://dc.lft.to/lastmile_qr_scan"}, "type": "electric_scooter", "fusion_lat": 0.0, "lon": -76.9805275}, {"fusion_lon": 0.0, "bike_id": "42ccad2a29d8579dc4d38d31237443b1", "is_disabled": 0, "is_reserved": 0, "lat": 38.89229233333333, "name": "42ccad2a29d8579dc4d38d31237443b1", "rental_uris": {"ios": "https://dc.lft.to/lastmile_qr_scan", "android": "https://dc.lft.to/lastmile_qr_scan"}, "type": "electric_scooter", "fusion_lat": 0.0, "lon": -77.02415633333334}, {"fusion_lon": 0.0, "bike_id": "82a5faf4179eeffc34d1c7d1be053cc3", "is_disabled": 0, "is_reserved": 0, "lat": 38.910373666666665, "name": "82a5faf4179eeffc34d1c7d1be053cc3", "rental_uris": {"ios": "https://dc.lft.to/lastmile_qr_scan", "android": "https://dc.lft.to/lastmile_qr_scan"}, "type": "electric_scooter", "fusion_lat": 0.0, "lon": -76.98572416666667}, {"fusion_lon": 0.0, "bike_id": "1f2423092d24f7f0823f2c1777fa3501", "is_disabled": 0, "is_reserved": 0, "lat": 38.9353955, "name": "1f2423092d24f7f0823f2c1777fa3501", "rental_uris": {"ios": "https://dc.lft.to/lastmile_qr_scan", "android": "https://dc.lft.to/lastmile_qr_scan"}, "type": "electric_scooter", "fusion_lat": 0.0, "lon": -77.0347835}, {"fusion_lon": 0.0, "bike_id": "8f706c5b923e30b9c60ecff8bbe88ede", "is_disabled": 0, "is_reserved": 0, "lat": 38.90182033333333, "name": "8f706c5b923e30b9c60ecff8bbe88ede", "rental_uris": {"ios": "https://dc.lft.to/lastmile_qr_scan", "android": "https://dc.lft.to/lastmile_qr_scan"}, "type": "electric_scooter", "fusion_lat": 0.0, "lon": -77.022353}, {"fusion_lon": 0.0, "bike_id": "47920af8cb968a15fa31fcffdf9b3a1a", "is_disabled": 0, "is_reserved": 0, "lat": 38.93196733333333, "name": "47920af8cb968a15fa31fcffdf9b3a1a", "rental_uris": {"ios": "https://dc.lft.to/lastmile_qr_scan", "android": "https://dc.lft.to/lastmile_qr_scan"}, "type": "electric_scooter", "fusion_lat": 0.0, "lon": -77.0375605}, {"fusion_lon": 0.0, "bike_id": "02aa84993db396e2691699e4a701bfd3", "is_disabled": 0, "is_reserved": 0, "lat": 38.91754533333334, "name": "02aa84993db396e2691699e4a701bfd3", "rental_uris": {"ios": "https://dc.lft.to/lastmile_qr_scan", "android": "https://dc.lft.to/lastmile_qr_scan"}, "type": "electric_scooter", "fusion_lat": 0.0, "lon": -77.02382533333333}, {"fusion_lon": 0.0, "bike_id": "fa244529f0d29d2c406a169ccea35e31", "is_disabled": 0, "is_reserved": 0, "lat": 38.9673335, "name": "fa244529f0d29d2c406a169ccea35e31", "rental_uris": {"ios": "https://dc.lft.to/lastmile_qr_scan", "android": "https://dc.lft.to/lastmile_qr_scan"}, "type": "electric_scooter", "fusion_lat": 0.0, "lon": -77.0253245}, {"fusion_lon": 0.0, "bike_id": "405d76f454488bcb3c37fa42f8032194", "is_disabled": 0, "is_reserved": 0, "lat": 38.958455, "name": "405d76f454488bcb3c37fa42f8032194", "rental_uris": {"ios": "https://dc.lft.to/lastmile_qr_scan", "android": "https://dc.lft.to/lastmile_qr_scan"}, "type": "electric_scooter", "fusion_lat": 0.0, "lon": -77.07168833333333}, {"fusion_lon": 0.0, "bike_id": "d0f88f3f76ff9330c1555806860d4978", "is_disabled": 0, "is_reserved": 0, "lat": 38.905031, "name": "d0f88f3f76ff9330c1555806860d4978", "rental_uris": {"ios": "https://dc.lft.to/lastmile_qr_scan", "android": "https://dc.lft.to/lastmile_qr_scan"}, "type": "electric_scooter", "fusion_lat": 0.0, "lon": -77.02948733333334}, {"fusion_lon": 0.0, "bike_id": "79175aaab426946a63a19a6ac5227d4d", "is_disabled": 0, "is_reserved": 0, "lat": 38.90510616666667, "name": "79175aaab426946a63a19a6ac5227d4d", "rental_uris": {"ios": "https://dc.lft.to/lastmile_qr_scan", "android": "https://dc.lft.to/lastmile_qr_scan"}, "type": "electric_scooter", "fusion_lat": 0.0, "lon": -76.98394933333333}, {"fusion_lon": 0.0, "bike_id": "d74c2d4d2ea1ebe776033b268aabb9fb", "is_disabled": 0, "is_reserved": 0, "lat": 38.91349, "name": "d74c2d4d2ea1ebe776033b268aabb9fb", "rental_uris": {"ios": "https://dc.lft.to/lastmile_qr_scan", "android": "https://dc.lft.to/lastmile_qr_scan"}, "type": "electric_scooter", "fusion_lat": 0.0, "lon": -77.031853}, {"fusion_lon": 0.0, "bike_id": "ecfa9609a77d51c7839ad854d7947fbe", "is_disabled": 0, "is_reserved": 0, "lat": 38.82206583333333, "name": "ecfa9609a77d51c7839ad854d7947fbe", "rental_uris": {"ios": "https://dc.lft.to/lastmile_qr_scan", "android": "https://dc.lft.to/lastmile_qr_scan"}, "type": "electric_bike", "fusion_lat": 0.0, "lon": -76.97702533333333}, {"fusion_lon": 0.0, "bike_id": "09676a290cb609a201031f501e042a27", "is_disabled": 0, "is_reserved": 0, "lat": 38.945038333333336, "name": "09676a290cb609a201031f501e042a27", "rental_uris": {"ios": "https://dc.lft.to/lastmile_qr_scan", "android": "https://dc.lft.to/lastmile_qr_scan"}, "type": "electric_bike", "fusion_lat": 0.0, "lon": -77.00664766666667}, {"fusion_lon": 0.0, "bike_id": "3e490235bd455b0811c783046d1e4314", "is_disabled": 0, "is_reserved": 0, "lat": 38.92826983333333, "name": "3e490235bd455b0811c783046d1e4314", "rental_uris": {"ios": "https://dc.lft.to/lastmile_qr_scan", "android": "https://dc.lft.to/lastmile_qr_scan"}, "type": "electric_scooter", "fusion_lat": 0.0, "lon": -77.0226105}, {"fusion_lon": 0.0, "bike_id": "17577e41a4668bcf4bb3b551576dfdc6", "is_disabled": 0, "is_reserved": 0, "lat": 38.909501, "name": "17577e41a4668bcf4bb3b551576dfdc6", "rental_uris": {"ios": "https://dc.lft.to/lastmile_qr_scan", "android": "https://dc.lft.to/lastmile_qr_scan"}, "type": "electric_scooter", "fusion_lat": 0.0, "lon": -77.01174566666667}, {"fusion_lon": 0.0, "bike_id": "5ee501e021e3d4f571971461c88b3c75", "is_disabled": 0, "is_reserved": 0, "lat": 38.926245333333334, "name": "5ee501e021e3d4f571971461c88b3c75", "rental_uris": {"ios": "https://dc.lft.to/lastmile_qr_scan", "android": "https://dc.lft.to/lastmile_qr_scan"}, "type": "electric_scooter", "fusion_lat": 0.0, "lon": -77.07717333333333}, {"fusion_lon": 0.0, "bike_id": "fbafa60d11ee87eb41bce9dd3ae8b123", "is_disabled": 0, "is_reserved": 0, "lat": 38.901649666666664, "name": "fbafa60d11ee87eb41bce9dd3ae8b123", "rental_uris": {"ios": "https://dc.lft.to/lastmile_qr_scan", "android": "https://dc.lft.to/lastmile_qr_scan"}, "type": "electric_scooter", "fusion_lat": 0.0, "lon": -77.05138583333333}, {"fusion_lon": 0.0, "bike_id": "c310205fab61ce0ac20b5d164f38182e", "is_disabled": 0, "is_reserved": 0, "lat": 38.89858433333333, "name": "c310205fab61ce0ac20b5d164f38182e", "rental_uris": {"ios": "https://dc.lft.to/lastmile_qr_scan", "android": "https://dc.lft.to/lastmile_qr_scan"}, "type": "electric_scooter", "fusion_lat": 0.0, "lon": -77.04673766666667}, {"fusion_lon": 0.0, "bike_id": "44af5df661bd4a81609f6c1774056e4b", "is_disabled": 0, "is_reserved": 0, "lat": 38.94738133333333, "name": "44af5df661bd4a81609f6c1774056e4b", "rental_uris": {"ios": "https://dc.lft.to/lastmile_qr_scan", "android": "https://dc.lft.to/lastmile_qr_scan"}, "type": "electric_scooter", "fusion_lat": 0.0, "lon": -77.02370766666667}, {"fusion_lon": 0.0, "bike_id": "ed5dc1b1dbc9ab0dbda223f16d6d9ced", "is_disabled": 0, "is_reserved": 0, "lat": 38.921471333333336, "name": "ed5dc1b1dbc9ab0dbda223f16d6d9ced", "rental_uris": {"ios": "https://dc.lft.to/lastmile_qr_scan", "android": "https://dc.lft.to/lastmile_qr_scan"}, "type": "electric_scooter", "fusion_lat": 0.0, "lon": -77.018748}, {"fusion_lon": 0.0, "bike_id": "5892c8dcc1bd5be8a17033b646917b0b", "is_disabled": 0, "is_reserved": 0, "lat": 38.974134166666666, "name": "5892c8dcc1bd5be8a17033b646917b0b", "rental_uris": {"ios": "https://dc.lft.to/lastmile_qr_scan", "android": "https://dc.lft.to/lastmile_qr_scan"}, "type": "electric_bike", "fusion_lat": 0.0, "lon": -76.98413883333333}, {"fusion_lon": 0.0, "bike_id": "def5434f22ba7dc68c4fc4fbf997db0e", "is_disabled": 0, "is_reserved": 0, "lat": 38.92473483333333, "name": "def5434f22ba7dc68c4fc4fbf997db0e", "rental_uris": {"ios": "https://dc.lft.to/lastmile_qr_scan", "android": "https://dc.lft.to/lastmile_qr_scan"}, "type": "electric_scooter", "fusion_lat": 0.0, "lon": -77.0220685}, {"fusion_lon": 0.0, "bike_id": "41ee783b0d0b5efa0bae0e35eac42f72", "is_disabled": 0, "is_reserved": 0, "lat": 38.91663416666667, "name": "41ee783b0d0b5efa0bae0e35eac42f72", "rental_uris": {"ios": "https://dc.lft.to/lastmile_qr_scan", "android": "https://dc.lft.to/lastmile_qr_scan"}, "type": "electric_scooter", "fusion_lat": 0.0, "lon": -77.03853033333333}, {"fusion_lon": 0.0, "bike_id": "c404101ecda5f74a28a2d271c0724042", "is_disabled": 0, "is_reserved": 0, "lat": 38.92274233333333, "name": "c404101ecda5f74a28a2d271c0724042", "rental_uris": {"ios": "https://dc.lft.to/lastmile_qr_scan", "android": "https://dc.lft.to/lastmile_qr_scan"}, "type": "electric_scooter", "fusion_lat": 0.0, "lon": -77.02129783333334}, {"fusion_lon": 0.0, "bike_id": "9b2308f5f3ee51629eae5a9e3231d1e0", "is_disabled": 0, "is_reserved": 0, "lat": 38.92332533333333, "name": "9b2308f5f3ee51629eae5a9e3231d1e0", "rental_uris": {"ios": "https://dc.lft.to/lastmile_qr_scan", "android": "https://dc.lft.to/lastmile_qr_scan"}, "type": "electric_scooter", "fusion_lat": 0.0, "lon": -77.02809083333334}, {"fusion_lon": 0.0, "bike_id": "3f10d5685b0561c45b7476eabc874bd5", "is_disabled": 0, "is_reserved": 0, "lat": 38.9430805, "name": "3f10d5685b0561c45b7476eabc874bd5", "rental_uris": {"ios": "https://dc.lft.to/lastmile_qr_scan", "android": "https://dc.lft.to/lastmile_qr_scan"}, "type": "electric_scooter", "fusion_lat": 0.0, "lon": -77.02950283333334}, {"fusion_lon": 0.0, "bike_id": "9ef593851c563abe79c778faac6daea7", "is_disabled": 0, "is_reserved": 0, "lat": 38.8992755, "name": "9ef593851c563abe79c778faac6daea7", "rental_uris": {"ios": "https://dc.lft.to/lastmile_qr_scan", "android": "https://dc.lft.to/lastmile_qr_scan"}, "type": "electric_scooter", "fusion_lat": 0.0, "lon": -77.00347733333334}, {"fusion_lon": 0.0, "bike_id": "6fb3b9699417824f7c8f75b0d0ebd75b", "is_disabled": 0, "is_reserved": 0, "lat": 38.9265155, "name": "6fb3b9699417824f7c8f75b0d0ebd75b", "rental_uris": {"ios": "https://dc.lft.to/lastmile_qr_scan", "android": "https://dc.lft.to/lastmile_qr_scan"}, "type": "electric_bike", "fusion_lat": 0.0, "lon": -77.090221}, {"fusion_lon": 0.0, "bike_id": "1221b31b05252f23065e3cf3051b7538", "is_disabled": 0, "is_reserved": 0, "lat": 38.91627883333334, "name": "1221b31b05252f23065e3cf3051b7538", "rental_uris": {"ios": "https://dc.lft.to/lastmile_qr_scan", "android": "https://dc.lft.to/lastmile_qr_scan"}, "type": "electric_scooter", "fusion_lat": 0.0, "lon": -77.00499833333333}, {"fusion_lon": 0.0, "bike_id": "26d425553e00eab45cbb9b7003c99226", "is_disabled": 0, "is_reserved": 0, "lat": 38.915028666666664, "name": "26d425553e00eab45cbb9b7003c99226", "rental_uris": {"ios": "https://dc.lft.to/lastmile_qr_scan", "android": "https://dc.lft.to/lastmile_qr_scan"}, "type": "electric_scooter", "fusion_lat": 0.0, "lon": -77.03832766666666}, {"fusion_lon": 0.0, "bike_id": "81ac0bf8ae60e4bc1af421ab748aff97", "is_disabled": 0, "is_reserved": 0, "lat": 38.89960816666667, "name": "81ac0bf8ae60e4bc1af421ab748aff97", "rental_uris": {"ios": "https://dc.lft.to/lastmile_qr_scan", "android": "https://dc.lft.to/lastmile_qr_scan"}, "type": "electric_scooter", "fusion_lat": 0.0, "lon": -76.994927}, {"fusion_lon": 0.0, "bike_id": "c2c83c4d8e8bc8c14f9e27ecb83fd884", "is_disabled": 0, "is_reserved": 0, "lat": 38.93491683333333, "name": "c2c83c4d8e8bc8c14f9e27ecb83fd884", "rental_uris": {"ios": "https://dc.lft.to/lastmile_qr_scan", "android": "https://dc.lft.to/lastmile_qr_scan"}, "type": "electric_scooter", "fusion_lat": 0.0, "lon": -77.03654733333333}, {"fusion_lon": 0.0, "bike_id": "d96ed04d50c689756601b8bcdb6f21a4", "is_disabled": 0, "is_reserved": 0, "lat": 38.92681283333334, "name": "d96ed04d50c689756601b8bcdb6f21a4", "rental_uris": {"ios": "https://dc.lft.to/lastmile_qr_scan", "android": "https://dc.lft.to/lastmile_qr_scan"}, "type": "electric_scooter", "fusion_lat": 0.0, "lon": -77.025817}, {"fusion_lon": 0.0, "bike_id": "10f6b08f2cf24749f9e1e5f03cc0509a", "is_disabled": 0, "is_reserved": 0, "lat": 38.92864616666667, "name": "10f6b08f2cf24749f9e1e5f03cc0509a", "rental_uris": {"ios": "https://dc.lft.to/lastmile_qr_scan", "android": "https://dc.lft.to/lastmile_qr_scan"}, "type": "electric_scooter", "fusion_lat": 0.0, "lon": -77.03692033333333}, {"fusion_lon": 0.0, "bike_id": "e85fe18a0b11e2ba0a89c9d93b47dfde", "is_disabled": 0, "is_reserved": 0, "lat": 38.9333135, "name": "e85fe18a0b11e2ba0a89c9d93b47dfde", "rental_uris": {"ios": "https://dc.lft.to/lastmile_qr_scan", "android": "https://dc.lft.to/lastmile_qr_scan"}, "type": "electric_bike", "fusion_lat": 0.0, "lon": -77.03969866666667}, {"fusion_lon": 0.0, "bike_id": "c18f0fcff30de9f0db728696c4e7d2af", "is_disabled": 0, "is_reserved": 0, "lat": 38.91924866666667, "name": "c18f0fcff30de9f0db728696c4e7d2af", "rental_uris": {"ios": "https://dc.lft.to/lastmile_qr_scan", "android": "https://dc.lft.to/lastmile_qr_scan"}, "type": "electric_scooter", "fusion_lat": 0.0, "lon": -77.08066716666667}, {"fusion_lon": 0.0, "bike_id": "28504c38bf9027d7b6e9afd5dcd4421a", "is_disabled": 0, "is_reserved": 0, "lat": 38.89976816666667, "name": "28504c38bf9027d7b6e9afd5dcd4421a", "rental_uris": {"ios": "https://dc.lft.to/lastmile_qr_scan", "android": "https://dc.lft.to/lastmile_qr_scan"}, "type": "electric_scooter", "fusion_lat": 0.0, "lon": -77.04199683333333}, {"fusion_lon": 0.0, "bike_id": "3c6c85861250f02fb657bdbcafe9df90", "is_disabled": 0, "is_reserved": 0, "lat": 38.916076833333335, "name": "3c6c85861250f02fb657bdbcafe9df90", "rental_uris": {"ios": "https://dc.lft.to/lastmile_qr_scan", "android": "https://dc.lft.to/lastmile_qr_scan"}, "type": "electric_scooter", "fusion_lat": 0.0, "lon": -77.032024}, {"fusion_lon": 0.0, "bike_id": "977f089ab6ae0d6e60be3b08effe7330", "is_disabled": 0, "is_reserved": 0, "lat": 38.9253085, "name": "977f089ab6ae0d6e60be3b08effe7330", "rental_uris": {"ios": "https://dc.lft.to/lastmile_qr_scan", "android": "https://dc.lft.to/lastmile_qr_scan"}, "type": "electric_scooter", "fusion_lat": 0.0, "lon": -77.03440783333333}, {"fusion_lon": 0.0, "bike_id": "3e7553d199a361e0a38517fadd5390a2", "is_disabled": 0, "is_reserved": 0, "lat": 38.9615525, "name": "3e7553d199a361e0a38517fadd5390a2", "rental_uris": {"ios": "https://dc.lft.to/lastmile_qr_scan", "android": "https://dc.lft.to/lastmile_qr_scan"}, "type": "electric_bike", "fusion_lat": 0.0, "lon": -77.032407}, {"fusion_lon": 0.0, "bike_id": "913ea39ba4f0ca38552631d9599eac7e", "is_disabled": 0, "is_reserved": 0, "lat": 38.9326715, "name": "913ea39ba4f0ca38552631d9599eac7e", "rental_uris": {"ios": "https://dc.lft.to/lastmile_qr_scan", "android": "https://dc.lft.to/lastmile_qr_scan"}, "type": "electric_scooter", "fusion_lat": 0.0, "lon": -77.01918633333334}, {"fusion_lon": 0.0, "bike_id": "0de0af730826ddbdfb75d7e57c870ad6", "is_disabled": 0, "is_reserved": 0, "lat": 38.91579933333333, "name": "0de0af730826ddbdfb75d7e57c870ad6", "rental_uris": {"ios": "https://dc.lft.to/lastmile_qr_scan", "android": "https://dc.lft.to/lastmile_qr_scan"}, "type": "electric_scooter", "fusion_lat": 0.0, "lon": -77.03194533333334}, {"fusion_lon": 0.0, "bike_id": "0d60d6316d5ea4e94edf190053fcdc69", "is_disabled": 0, "is_reserved": 0, "lat": 38.89544866666667, "name": "0d60d6316d5ea4e94edf190053fcdc69", "rental_uris": {"ios": "https://dc.lft.to/lastmile_qr_scan", "android": "https://dc.lft.to/lastmile_qr_scan"}, "type": "electric_scooter", "fusion_lat": 0.0, "lon": -76.98338683333333}, {"fusion_lon": 0.0, "bike_id": "cceea991eef3ff4da48c63b8118fcae8", "is_disabled": 0, "is_reserved": 0, "lat": 38.903615333333335, "name": "cceea991eef3ff4da48c63b8118fcae8", "rental_uris": {"ios": "https://dc.lft.to/lastmile_qr_scan", "android": "https://dc.lft.to/lastmile_qr_scan"}, "type": "electric_scooter", "fusion_lat": 0.0, "lon": -77.0268185}, {"fusion_lon": 0.0, "bike_id": "9d051e6f729af8a8cacb827abcdeb3d3", "is_disabled": 0, "is_reserved": 0, "lat": 38.9110435, "name": "9d051e6f729af8a8cacb827abcdeb3d3", "rental_uris": {"ios": "https://dc.lft.to/lastmile_qr_scan", "android": "https://dc.lft.to/lastmile_qr_scan"}, "type": "electric_scooter", "fusion_lat": 0.0, "lon": -77.009395}, {"fusion_lon": 0.0, "bike_id": "46d622f0464a5af15dc86b0c12e4099e", "is_disabled": 0, "is_reserved": 0, "lat": 38.907485, "name": "46d622f0464a5af15dc86b0c12e4099e", "rental_uris": {"ios": "https://dc.lft.to/lastmile_qr_scan", "android": "https://dc.lft.to/lastmile_qr_scan"}, "type": "electric_bike", "fusion_lat": 0.0, "lon": -77.00308666666666}, {"fusion_lon": 0.0, "bike_id": "72f7c6599d6fd135d09ab769a5272c29", "is_disabled": 0, "is_reserved": 0, "lat": 38.877658833333335, "name": "72f7c6599d6fd135d09ab769a5272c29", "rental_uris": {"ios": "https://dc.lft.to/lastmile_qr_scan", "android": "https://dc.lft.to/lastmile_qr_scan"}, "type": "electric_scooter", "fusion_lat": 0.0, "lon": -77.018629}, {"fusion_lon": 0.0, "bike_id": "c35d6eb776ab821853393b1ebce29e17", "is_disabled": 0, "is_reserved": 0, "lat": 38.919113, "name": "c35d6eb776ab821853393b1ebce29e17", "rental_uris": {"ios": "https://dc.lft.to/lastmile_qr_scan", "android": "https://dc.lft.to/lastmile_qr_scan"}, "type": "electric_scooter", "fusion_lat": 0.0, "lon": -77.04629216666666}, {"fusion_lon": 0.0, "bike_id": "8556e6b0c27c01dd87f5fdd3452d3074", "is_disabled": 0, "is_reserved": 0, "lat": 38.901636333333336, "name": "8556e6b0c27c01dd87f5fdd3452d3074", "rental_uris": {"ios": "https://dc.lft.to/lastmile_qr_scan", "android": "https://dc.lft.to/lastmile_qr_scan"}, "type": "electric_scooter", "fusion_lat": 0.0, "lon": -77.051328}, {"fusion_lon": 0.0, "bike_id": "cc9d2eb3b40f6dafbb66d4aa4d246bd2", "is_disabled": 0, "is_reserved": 0, "lat": 38.881785, "name": "cc9d2eb3b40f6dafbb66d4aa4d246bd2", "rental_uris": {"ios": "https://dc.lft.to/lastmile_qr_scan", "android": "https://dc.lft.to/lastmile_qr_scan"}, "type": "electric_scooter", "fusion_lat": 0.0, "lon": -77.01746666666666}, {"fusion_lon": 0.0, "bike_id": "dc7be60ae9edea122508b847b9d65cb0", "is_disabled": 0, "is_reserved": 0, "lat": 38.9668835, "name": "dc7be60ae9edea122508b847b9d65cb0", "rental_uris": {"ios": "https://dc.lft.to/lastmile_qr_scan", "android": "https://dc.lft.to/lastmile_qr_scan"}, "type": "electric_scooter", "fusion_lat": 0.0, "lon": -77.0340965}, {"fusion_lon": 0.0, "bike_id": "88c88e874508eb319db945bb67bb9bc6", "is_disabled": 0, "is_reserved": 0, "lat": 38.96778316666666, "name": "88c88e874508eb319db945bb67bb9bc6", "rental_uris": {"ios": "https://dc.lft.to/lastmile_qr_scan", "android": "https://dc.lft.to/lastmile_qr_scan"}, "type": "electric_bike", "fusion_lat": 0.0, "lon": -76.99661033333334}, {"fusion_lon": 0.0, "bike_id": "f8a8f427af3feac8e2a1ef7c5d2954ab", "is_disabled": 0, "is_reserved": 0, "lat": 38.91105233333333, "name": "f8a8f427af3feac8e2a1ef7c5d2954ab", "rental_uris": {"ios": "https://dc.lft.to/lastmile_qr_scan", "android": "https://dc.lft.to/lastmile_qr_scan"}, "type": "electric_scooter", "fusion_lat": 0.0, "lon": -77.01149966666667}, {"fusion_lon": 0.0, "bike_id": "089c1acd2d125b667e706fdfa0e7d3d7", "is_disabled": 0, "is_reserved": 0, "lat": 38.899731333333335, "name": "089c1acd2d125b667e706fdfa0e7d3d7", "rental_uris": {"ios": "https://dc.lft.to/lastmile_qr_scan", "android": "https://dc.lft.to/lastmile_qr_scan"}, "type": "electric_scooter", "fusion_lat": 0.0, "lon": -76.99486183333333}, {"fusion_lon": 0.0, "bike_id": "0cccc1955027710e36cff1941f8e0494", "is_disabled": 0, "is_reserved": 0, "lat": 38.87531583333333, "name": "0cccc1955027710e36cff1941f8e0494", "rental_uris": {"ios": "https://dc.lft.to/lastmile_qr_scan", "android": "https://dc.lft.to/lastmile_qr_scan"}, "type": "electric_scooter", "fusion_lat": 0.0, "lon": -77.0088385}, {"fusion_lon": 0.0, "bike_id": "d26ce983c4477f74f8e49a32d402644d", "is_disabled": 0, "is_reserved": 0, "lat": 38.9241945, "name": "d26ce983c4477f74f8e49a32d402644d", "rental_uris": {"ios": "https://dc.lft.to/lastmile_qr_scan", "android": "https://dc.lft.to/lastmile_qr_scan"}, "type": "electric_scooter", "fusion_lat": 0.0, "lon": -77.0203335}, {"fusion_lon": 0.0, "bike_id": "c5c37e2aee2a80403625a1a395b1e755", "is_disabled": 0, "is_reserved": 0, "lat": 38.90265266666667, "name": "c5c37e2aee2a80403625a1a395b1e755", "rental_uris": {"ios": "https://dc.lft.to/lastmile_qr_scan", "android": "https://dc.lft.to/lastmile_qr_scan"}, "type": "electric_scooter", "fusion_lat": 0.0, "lon": -77.02796883333333}, {"fusion_lon": 0.0, "bike_id": "1fc2ac01436e2e5969a9e70aab945f55", "is_disabled": 0, "is_reserved": 0, "lat": 38.92105683333333, "name": "1fc2ac01436e2e5969a9e70aab945f55", "rental_uris": {"ios": "https://dc.lft.to/lastmile_qr_scan", "android": "https://dc.lft.to/lastmile_qr_scan"}, "type": "electric_scooter", "fusion_lat": 0.0, "lon": -77.03928116666667}, {"fusion_lon": 0.0, "bike_id": "bf277e5912246ab7861e15617447b3b6", "is_disabled": 0, "is_reserved": 0, "lat": 38.92469583333333, "name": "bf277e5912246ab7861e15617447b3b6", "rental_uris": {"ios": "https://dc.lft.to/lastmile_qr_scan", "android": "https://dc.lft.to/lastmile_qr_scan"}, "type": "electric_scooter", "fusion_lat": 0.0, "lon": -77.02189316666667}, {"fusion_lon": 0.0, "bike_id": "aa3866ef35d7f558d57d0290df742709", "is_disabled": 0, "is_reserved": 0, "lat": 38.91563683333333, "name": "aa3866ef35d7f558d57d0290df742709", "rental_uris": {"ios": "https://dc.lft.to/lastmile_qr_scan", "android": "https://dc.lft.to/lastmile_qr_scan"}, "type": "electric_scooter", "fusion_lat": 0.0, "lon": -77.00699216666666}, {"fusion_lon": 0.0, "bike_id": "b6e37b69ac2464e346e6fcd011f43249", "is_disabled": 0, "is_reserved": 0, "lat": 38.940794333333336, "name": "b6e37b69ac2464e346e6fcd011f43249", "rental_uris": {"ios": "https://dc.lft.to/lastmile_qr_scan", "android": "https://dc.lft.to/lastmile_qr_scan"}, "type": "electric_scooter", "fusion_lat": 0.0, "lon": -77.07799133333333}, {"fusion_lon": 0.0, "bike_id": "1021075bb3e8b5ac32a7a0ca9fe4f14f", "is_disabled": 0, "is_reserved": 0, "lat": 38.91563133333333, "name": "1021075bb3e8b5ac32a7a0ca9fe4f14f", "rental_uris": {"ios": "https://dc.lft.to/lastmile_qr_scan", "android": "https://dc.lft.to/lastmile_qr_scan"}, "type": "electric_scooter", "fusion_lat": 0.0, "lon": -77.0335065}, {"fusion_lon": 0.0, "bike_id": "b6b3c8ad8eafea2f83bfbdcdd98ee096", "is_disabled": 0, "is_reserved": 0, "lat": 38.92053033333333, "name": "b6b3c8ad8eafea2f83bfbdcdd98ee096", "rental_uris": {"ios": "https://dc.lft.to/lastmile_qr_scan", "android": "https://dc.lft.to/lastmile_qr_scan"}, "type": "electric_scooter", "fusion_lat": 0.0, "lon": -77.0167465}, {"fusion_lon": 0.0, "bike_id": "5f03fbd10ffab381f28e9cd232aa5f64", "is_disabled": 0, "is_reserved": 0, "lat": 38.87166333333333, "name": "5f03fbd10ffab381f28e9cd232aa5f64", "rental_uris": {"ios": "https://dc.lft.to/lastmile_qr_scan", "android": "https://dc.lft.to/lastmile_qr_scan"}, "type": "electric_scooter", "fusion_lat": 0.0, "lon": -77.00637483333334}, {"fusion_lon": 0.0, "bike_id": "c8e9831fd84d21d4067b7f37d13863af", "is_disabled": 0, "is_reserved": 0, "lat": 38.8327085, "name": "c8e9831fd84d21d4067b7f37d13863af", "rental_uris": {"ios": "https://dc.lft.to/lastmile_qr_scan", "android": "https://dc.lft.to/lastmile_qr_scan"}, "type": "electric_bike", "fusion_lat": 0.0, "lon": -77.08365483333333}, {"fusion_lon": 0.0, "bike_id": "e64329e07be59fbc302354766f523230", "is_disabled": 0, "is_reserved": 0, "lat": 38.9208945, "name": "e64329e07be59fbc302354766f523230", "rental_uris": {"ios": "https://dc.lft.to/lastmile_qr_scan", "android": "https://dc.lft.to/lastmile_qr_scan"}, "type": "electric_scooter", "fusion_lat": 0.0, "lon": -77.0317095}, {"fusion_lon": 0.0, "bike_id": "2a8d3d9fd3320e479294356d8cdf8df0", "is_disabled": 0, "is_reserved": 0, "lat": 38.930296, "name": "2a8d3d9fd3320e479294356d8cdf8df0", "rental_uris": {"ios": "https://dc.lft.to/lastmile_qr_scan", "android": "https://dc.lft.to/lastmile_qr_scan"}, "type": "electric_scooter", "fusion_lat": 0.0, "lon": -77.038098}, {"fusion_lon": 0.0, "bike_id": "c8ba365aaf42d6bc4d3a1445546905d3", "is_disabled": 0, "is_reserved": 0, "lat": 38.90168083333333, "name": "c8ba365aaf42d6bc4d3a1445546905d3", "rental_uris": {"ios": "https://dc.lft.to/lastmile_qr_scan", "android": "https://dc.lft.to/lastmile_qr_scan"}, "type": "electric_scooter", "fusion_lat": 0.0, "lon": -76.9845455}, {"fusion_lon": 0.0, "bike_id": "800fed561de30e9d0388be6466fbb65d", "is_disabled": 0, "is_reserved": 0, "lat": 38.922890333333335, "name": "800fed561de30e9d0388be6466fbb65d", "rental_uris": {"ios": "https://dc.lft.to/lastmile_qr_scan", "android": "https://dc.lft.to/lastmile_qr_scan"}, "type": "electric_scooter", "fusion_lat": 0.0, "lon": -77.02245916666666}, {"fusion_lon": 0.0, "bike_id": "640ef78418b128bcb07d81600859d8fb", "is_disabled": 0, "is_reserved": 0, "lat": 38.887108166666664, "name": "640ef78418b128bcb07d81600859d8fb", "rental_uris": {"ios": "https://dc.lft.to/lastmile_qr_scan", "android": "https://dc.lft.to/lastmile_qr_scan"}, "type": "electric_scooter", "fusion_lat": 0.0, "lon": -76.98380433333334}, {"fusion_lon": 0.0, "bike_id": "c827d7b531b093ca0add4f030c4899ec", "is_disabled": 0, "is_reserved": 0, "lat": 38.92471033333333, "name": "c827d7b531b093ca0add4f030c4899ec", "rental_uris": {"ios": "https://dc.lft.to/lastmile_qr_scan", "android": "https://dc.lft.to/lastmile_qr_scan"}, "type": "electric_scooter", "fusion_lat": 0.0, "lon": -77.0221085}, {"fusion_lon": 0.0, "bike_id": "1ba2674fb79f6faec353b80d28923dab", "is_disabled": 0, "is_reserved": 0, "lat": 38.913674666666665, "name": "1ba2674fb79f6faec353b80d28923dab", "rental_uris": {"ios": "https://dc.lft.to/lastmile_qr_scan", "android": "https://dc.lft.to/lastmile_qr_scan"}, "type": "electric_scooter", "fusion_lat": 0.0, "lon": -77.04483783333333}, {"fusion_lon": 0.0, "bike_id": "a6d0450ebb30260383339b57f4134e0b", "is_disabled": 0, "is_reserved": 0, "lat": 38.913489166666665, "name": "a6d0450ebb30260383339b57f4134e0b", "rental_uris": {"ios": "https://dc.lft.to/lastmile_qr_scan", "android": "https://dc.lft.to/lastmile_qr_scan"}, "type": "electric_scooter", "fusion_lat": 0.0, "lon": -77.03185916666666}, {"fusion_lon": 0.0, "bike_id": "f945f6a1daf8366228d34c8f3fd7a125", "is_disabled": 0, "is_reserved": 0, "lat": 38.903588166666665, "name": "f945f6a1daf8366228d34c8f3fd7a125", "rental_uris": {"ios": "https://dc.lft.to/lastmile_qr_scan", "android": "https://dc.lft.to/lastmile_qr_scan"}, "type": "electric_scooter", "fusion_lat": 0.0, "lon": -77.017697}, {"fusion_lon": 0.0, "bike_id": "dc64d44a144da40cfae9aa8a8d31cadf", "is_disabled": 0, "is_reserved": 0, "lat": 38.9240935, "name": "dc64d44a144da40cfae9aa8a8d31cadf", "rental_uris": {"ios": "https://dc.lft.to/lastmile_qr_scan", "android": "https://dc.lft.to/lastmile_qr_scan"}, "type": "electric_scooter", "fusion_lat": 0.0, "lon": -77.0204435}, {"fusion_lon": 0.0, "bike_id": "7705d3ca8c211be7dc8602c92af17c6b", "is_disabled": 0, "is_reserved": 0, "lat": 38.9192455, "name": "7705d3ca8c211be7dc8602c92af17c6b", "rental_uris": {"ios": "https://dc.lft.to/lastmile_qr_scan", "android": "https://dc.lft.to/lastmile_qr_scan"}, "type": "electric_scooter", "fusion_lat": 0.0, "lon": -77.0179125}, {"fusion_lon": 0.0, "bike_id": "7ead3de202e5a5c5657b4ec561af1194", "is_disabled": 0, "is_reserved": 0, "lat": 38.91944133333333, "name": "7ead3de202e5a5c5657b4ec561af1194", "rental_uris": {"ios": "https://dc.lft.to/lastmile_qr_scan", "android": "https://dc.lft.to/lastmile_qr_scan"}, "type": "electric_scooter", "fusion_lat": 0.0, "lon": -77.01798366666667}, {"fusion_lon": 0.0, "bike_id": "613c82d8fe9291e717dc6020691f39da", "is_disabled": 0, "is_reserved": 0, "lat": 38.9181385, "name": "613c82d8fe9291e717dc6020691f39da", "rental_uris": {"ios": "https://dc.lft.to/lastmile_qr_scan", "android": "https://dc.lft.to/lastmile_qr_scan"}, "type": "electric_scooter", "fusion_lat": 0.0, "lon": -77.03999966666667}, {"fusion_lon": 0.0, "bike_id": "af8b33af6aed809c68a6514dd75952c7", "is_disabled": 0, "is_reserved": 0, "lat": 38.923703333333336, "name": "af8b33af6aed809c68a6514dd75952c7", "rental_uris": {"ios": "https://dc.lft.to/lastmile_qr_scan", "android": "https://dc.lft.to/lastmile_qr_scan"}, "type": "electric_scooter", "fusion_lat": 0.0, "lon": -77.08051716666667}, {"fusion_lon": 0.0, "bike_id": "95910c20ad8dd632ec133311900ad713", "is_disabled": 0, "is_reserved": 0, "lat": 38.892233, "name": "95910c20ad8dd632ec133311900ad713", "rental_uris": {"ios": "https://dc.lft.to/lastmile_qr_scan", "android": "https://dc.lft.to/lastmile_qr_scan"}, "type": "electric_scooter", "fusion_lat": 0.0, "lon": -77.039888}, {"fusion_lon": 0.0, "bike_id": "d9fd993c2310d559f8b8a11fbbe87a21", "is_disabled": 0, "is_reserved": 0, "lat": 38.92329566666667, "name": "d9fd993c2310d559f8b8a11fbbe87a21", "rental_uris": {"ios": "https://dc.lft.to/lastmile_qr_scan", "android": "https://dc.lft.to/lastmile_qr_scan"}, "type": "electric_scooter", "fusion_lat": 0.0, "lon": -77.0377725}, {"fusion_lon": 0.0, "bike_id": "1938360f999722d746cc5575c7440d7a", "is_disabled": 0, "is_reserved": 0, "lat": 38.89544433333333, "name": "1938360f999722d746cc5575c7440d7a", "rental_uris": {"ios": "https://dc.lft.to/lastmile_qr_scan", "android": "https://dc.lft.to/lastmile_qr_scan"}, "type": "electric_scooter", "fusion_lat": 0.0, "lon": -76.98339466666667}, {"fusion_lon": 0.0, "bike_id": "f2bd795f0db475d87bea1ce05584a7ee", "is_disabled": 0, "is_reserved": 0, "lat": 38.92846016666667, "name": "f2bd795f0db475d87bea1ce05584a7ee", "rental_uris": {"ios": "https://dc.lft.to/lastmile_qr_scan", "android": "https://dc.lft.to/lastmile_qr_scan"}, "type": "electric_scooter", "fusion_lat": 0.0, "lon": -77.014116}, {"fusion_lon": 0.0, "bike_id": "f06dd5b50d152d6db0853f3d7a86fe6f", "is_disabled": 0, "is_reserved": 0, "lat": 38.91111933333333, "name": "f06dd5b50d152d6db0853f3d7a86fe6f", "rental_uris": {"ios": "https://dc.lft.to/lastmile_qr_scan", "android": "https://dc.lft.to/lastmile_qr_scan"}, "type": "electric_scooter", "fusion_lat": 0.0, "lon": -77.03264366666667}, {"fusion_lon": 0.0, "bike_id": "37664f3093d350c4839dc8d9a310d991", "is_disabled": 0, "is_reserved": 0, "lat": 38.9518335, "name": "37664f3093d350c4839dc8d9a310d991", "rental_uris": {"ios": "https://dc.lft.to/lastmile_qr_scan", "android": "https://dc.lft.to/lastmile_qr_scan"}, "type": "electric_bike", "fusion_lat": 0.0, "lon": -76.9354455}, {"fusion_lon": 0.0, "bike_id": "90ad0a92c4cd82196436c67a1b04192a", "is_disabled": 0, "is_reserved": 0, "lat": 38.93535766666667, "name": "90ad0a92c4cd82196436c67a1b04192a", "rental_uris": {"ios": "https://dc.lft.to/lastmile_qr_scan", "android": "https://dc.lft.to/lastmile_qr_scan"}, "type": "electric_scooter", "fusion_lat": 0.0, "lon": -77.02351216666666}, {"fusion_lon": 0.0, "bike_id": "8e69efd79ec9547877525c019f6a9f1e", "is_disabled": 0, "is_reserved": 0, "lat": 38.89392383333333, "name": "8e69efd79ec9547877525c019f6a9f1e", "rental_uris": {"ios": "https://dc.lft.to/lastmile_qr_scan", "android": "https://dc.lft.to/lastmile_qr_scan"}, "type": "electric_scooter", "fusion_lat": 0.0, "lon": -77.054739}, {"fusion_lon": 0.0, "bike_id": "ef500bb36550259245cda02495c61b35", "is_disabled": 0, "is_reserved": 0, "lat": 38.88602866666667, "name": "ef500bb36550259245cda02495c61b35", "rental_uris": {"ios": "https://dc.lft.to/lastmile_qr_scan", "android": "https://dc.lft.to/lastmile_qr_scan"}, "type": "electric_scooter", "fusion_lat": 0.0, "lon": -76.92506233333333}, {"fusion_lon": 0.0, "bike_id": "312bbed1341b97165325857b8d253637", "is_disabled": 0, "is_reserved": 0, "lat": 38.90562233333333, "name": "312bbed1341b97165325857b8d253637", "rental_uris": {"ios": "https://dc.lft.to/lastmile_qr_scan", "android": "https://dc.lft.to/lastmile_qr_scan"}, "type": "electric_scooter", "fusion_lat": 0.0, "lon": -77.0346615}, {"fusion_lon": 0.0, "bike_id": "98543e636aa97b741bbea8878e824866", "is_disabled": 0, "is_reserved": 0, "lat": 38.900546, "name": "98543e636aa97b741bbea8878e824866", "rental_uris": {"ios": "https://dc.lft.to/lastmile_qr_scan", "android": "https://dc.lft.to/lastmile_qr_scan"}, "type": "electric_scooter", "fusion_lat": 0.0, "lon": -76.99339616666667}, {"fusion_lon": 0.0, "bike_id": "f978cc4ec29674485ea735e8fbc09ea2", "is_disabled": 0, "is_reserved": 0, "lat": 38.90365, "name": "f978cc4ec29674485ea735e8fbc09ea2", "rental_uris": {"ios": "https://dc.lft.to/lastmile_qr_scan", "android": "https://dc.lft.to/lastmile_qr_scan"}, "type": "electric_scooter", "fusion_lat": 0.0, "lon": -77.0034495}, {"fusion_lon": 0.0, "bike_id": "e84f87f949b65b9bec83157bd7b1c976", "is_disabled": 0, "is_reserved": 0, "lat": 38.91562833333333, "name": "e84f87f949b65b9bec83157bd7b1c976", "rental_uris": {"ios": "https://dc.lft.to/lastmile_qr_scan", "android": "https://dc.lft.to/lastmile_qr_scan"}, "type": "electric_scooter", "fusion_lat": 0.0, "lon": -77.03800983333333}, {"fusion_lon": 0.0, "bike_id": "5cdecc54e948a0086c92ce31ee52a1e7", "is_disabled": 0, "is_reserved": 0, "lat": 38.94164583333333, "name": "5cdecc54e948a0086c92ce31ee52a1e7", "rental_uris": {"ios": "https://dc.lft.to/lastmile_qr_scan", "android": "https://dc.lft.to/lastmile_qr_scan"}, "type": "electric_scooter", "fusion_lat": 0.0, "lon": -77.02560266666667}, {"fusion_lon": 0.0, "bike_id": "08414e0df1ae6a489e8b1bab906f4b87", "is_disabled": 0, "is_reserved": 0, "lat": 38.92469766666667, "name": "08414e0df1ae6a489e8b1bab906f4b87", "rental_uris": {"ios": "https://dc.lft.to/lastmile_qr_scan", "android": "https://dc.lft.to/lastmile_qr_scan"}, "type": "electric_scooter", "fusion_lat": 0.0, "lon": -77.03541916666667}, {"fusion_lon": 0.0, "bike_id": "248f3361df96d7c275a0d1e7b104e4a6", "is_disabled": 0, "is_reserved": 0, "lat": 38.908151833333335, "name": "248f3361df96d7c275a0d1e7b104e4a6", "rental_uris": {"ios": "https://dc.lft.to/lastmile_qr_scan", "android": "https://dc.lft.to/lastmile_qr_scan"}, "type": "electric_scooter", "fusion_lat": 0.0, "lon": -77.043394}, {"fusion_lon": 0.0, "bike_id": "bedfbcb8e6f2eb89525000a7674329e9", "is_disabled": 0, "is_reserved": 0, "lat": 38.916183333333336, "name": "bedfbcb8e6f2eb89525000a7674329e9", "rental_uris": {"ios": "https://dc.lft.to/lastmile_qr_scan", "android": "https://dc.lft.to/lastmile_qr_scan"}, "type": "electric_bike", "fusion_lat": 0.0, "lon": -77.009269}, {"fusion_lon": 0.0, "bike_id": "a447c72bc27a4c958d3e15fbf63f5a69", "is_disabled": 0, "is_reserved": 0, "lat": 38.92081666666667, "name": "a447c72bc27a4c958d3e15fbf63f5a69", "rental_uris": {"ios": "https://dc.lft.to/lastmile_qr_scan", "android": "https://dc.lft.to/lastmile_qr_scan"}, "type": "electric_scooter", "fusion_lat": 0.0, "lon": -77.0229315}, {"fusion_lon": 0.0, "bike_id": "d477b0cb8a173c14d3622e0cf73294ed", "is_disabled": 0, "is_reserved": 0, "lat": 38.9183095, "name": "d477b0cb8a173c14d3622e0cf73294ed", "rental_uris": {"ios": "https://dc.lft.to/lastmile_qr_scan", "android": "https://dc.lft.to/lastmile_qr_scan"}, "type": "electric_scooter", "fusion_lat": 0.0, "lon": -77.0451275}, {"fusion_lon": 0.0, "bike_id": "290fe04bc0f2e19048a12591e97ed70e", "is_disabled": 0, "is_reserved": 0, "lat": 38.91416366666667, "name": "290fe04bc0f2e19048a12591e97ed70e", "rental_uris": {"ios": "https://dc.lft.to/lastmile_qr_scan", "android": "https://dc.lft.to/lastmile_qr_scan"}, "type": "electric_scooter", "fusion_lat": 0.0, "lon": -77.02216116666666}, {"fusion_lon": 0.0, "bike_id": "67c51487fd0c81865c7f30e3660a1940", "is_disabled": 0, "is_reserved": 0, "lat": 38.9028305, "name": "67c51487fd0c81865c7f30e3660a1940", "rental_uris": {"ios": "https://dc.lft.to/lastmile_qr_scan", "android": "https://dc.lft.to/lastmile_qr_scan"}, "type": "electric_scooter", "fusion_lat": 0.0, "lon": -77.05179733333334}, {"fusion_lon": 0.0, "bike_id": "a24c7d0e4a4a57349d1364fb85dd584c", "is_disabled": 0, "is_reserved": 0, "lat": 38.97440516666666, "name": "a24c7d0e4a4a57349d1364fb85dd584c", "rental_uris": {"ios": "https://dc.lft.to/lastmile_qr_scan", "android": "https://dc.lft.to/lastmile_qr_scan"}, "type": "electric_bike", "fusion_lat": 0.0, "lon": -77.09614983333333}, {"fusion_lon": 0.0, "bike_id": "9129e104476795f836a3795f5a44c5e4", "is_disabled": 0, "is_reserved": 0, "lat": 38.93288033333333, "name": "9129e104476795f836a3795f5a44c5e4", "rental_uris": {"ios": "https://dc.lft.to/lastmile_qr_scan", "android": "https://dc.lft.to/lastmile_qr_scan"}, "type": "electric_scooter", "fusion_lat": 0.0, "lon": -76.98648916666667}, {"fusion_lon": 0.0, "bike_id": "186332464563a80a0f6255b2ea079a6b", "is_disabled": 0, "is_reserved": 0, "lat": 38.91921816666667, "name": "186332464563a80a0f6255b2ea079a6b", "rental_uris": {"ios": "https://dc.lft.to/lastmile_qr_scan", "android": "https://dc.lft.to/lastmile_qr_scan"}, "type": "electric_scooter", "fusion_lat": 0.0, "lon": -77.03423416666666}, {"fusion_lon": 0.0, "bike_id": "30603901be127f9c2730cd61e046e2ea", "is_disabled": 0, "is_reserved": 0, "lat": 38.854448833333336, "name": "30603901be127f9c2730cd61e046e2ea", "rental_uris": {"ios": "https://dc.lft.to/lastmile_qr_scan", "android": "https://dc.lft.to/lastmile_qr_scan"}, "type": "electric_scooter", "fusion_lat": 0.0, "lon": -76.98611666666666}, {"fusion_lon": 0.0, "bike_id": "68c07391da8644f2ff55aa7c8d6f1f25", "is_disabled": 0, "is_reserved": 0, "lat": 38.92413633333334, "name": "68c07391da8644f2ff55aa7c8d6f1f25", "rental_uris": {"ios": "https://dc.lft.to/lastmile_qr_scan", "android": "https://dc.lft.to/lastmile_qr_scan"}, "type": "electric_scooter", "fusion_lat": 0.0, "lon": -77.020094}, {"fusion_lon": 0.0, "bike_id": "99e07977c6e0690b388658523c7cf58a", "is_disabled": 0, "is_reserved": 0, "lat": 38.880287, "name": "99e07977c6e0690b388658523c7cf58a", "rental_uris": {"ios": "https://dc.lft.to/lastmile_qr_scan", "android": "https://dc.lft.to/lastmile_qr_scan"}, "type": "electric_bike", "fusion_lat": 0.0, "lon": -76.91723733333333}, {"fusion_lon": 0.0, "bike_id": "1e9e1dc538be26051a7903bddff300a1", "is_disabled": 0, "is_reserved": 0, "lat": 38.918097, "name": "1e9e1dc538be26051a7903bddff300a1", "rental_uris": {"ios": "https://dc.lft.to/lastmile_qr_scan", "android": "https://dc.lft.to/lastmile_qr_scan"}, "type": "electric_scooter", "fusion_lat": 0.0, "lon": -77.03437616666666}, {"fusion_lon": 0.0, "bike_id": "55dff779ded590be2df1e6b4f35d989a", "is_disabled": 0, "is_reserved": 0, "lat": 38.89726266666667, "name": "55dff779ded590be2df1e6b4f35d989a", "rental_uris": {"ios": "https://dc.lft.to/lastmile_qr_scan", "android": "https://dc.lft.to/lastmile_qr_scan"}, "type": "electric_scooter", "fusion_lat": 0.0, "lon": -76.99461183333334}, {"fusion_lon": 0.0, "bike_id": "c26854f51aabdaebb62128873c523ff4", "is_disabled": 0, "is_reserved": 0, "lat": 38.908733833333336, "name": "c26854f51aabdaebb62128873c523ff4", "rental_uris": {"ios": "https://dc.lft.to/lastmile_qr_scan", "android": "https://dc.lft.to/lastmile_qr_scan"}, "type": "electric_scooter", "fusion_lat": 0.0, "lon": -77.07163316666667}, {"fusion_lon": 0.0, "bike_id": "5a248cfb3535ca99f4302f1e073e1536", "is_disabled": 0, "is_reserved": 0, "lat": 38.898283666666664, "name": "5a248cfb3535ca99f4302f1e073e1536", "rental_uris": {"ios": "https://dc.lft.to/lastmile_qr_scan", "android": "https://dc.lft.to/lastmile_qr_scan"}, "type": "electric_scooter", "fusion_lat": 0.0, "lon": -76.94652066666667}, {"fusion_lon": 0.0, "bike_id": "c78cd56809b997875449de5ebfd1f7c7", "is_disabled": 0, "is_reserved": 0, "lat": 38.8763015, "name": "c78cd56809b997875449de5ebfd1f7c7", "rental_uris": {"ios": "https://dc.lft.to/lastmile_qr_scan", "android": "https://dc.lft.to/lastmile_qr_scan"}, "type": "electric_scooter", "fusion_lat": 0.0, "lon": -77.01933233333334}, {"fusion_lon": 0.0, "bike_id": "2319babd6cf64ac2d1a5e43829fc74c9", "is_disabled": 0, "is_reserved": 0, "lat": 38.90081133333333, "name": "2319babd6cf64ac2d1a5e43829fc74c9", "rental_uris": {"ios": "https://dc.lft.to/lastmile_qr_scan", "android": "https://dc.lft.to/lastmile_qr_scan"}, "type": "electric_scooter", "fusion_lat": 0.0, "lon": -77.02703733333334}, {"fusion_lon": 0.0, "bike_id": "919b7e8215523d07322ae77fbf94ee94", "is_disabled": 0, "is_reserved": 0, "lat": 38.9181845, "name": "919b7e8215523d07322ae77fbf94ee94", "rental_uris": {"ios": "https://dc.lft.to/lastmile_qr_scan", "android": "https://dc.lft.to/lastmile_qr_scan"}, "type": "electric_scooter", "fusion_lat": 0.0, "lon": -77.01160116666667}, {"fusion_lon": 0.0, "bike_id": "2256921db4d01d44087abedd6048f243", "is_disabled": 0, "is_reserved": 0, "lat": 38.913093833333335, "name": "2256921db4d01d44087abedd6048f243", "rental_uris": {"ios": "https://dc.lft.to/lastmile_qr_scan", "android": "https://dc.lft.to/lastmile_qr_scan"}, "type": "electric_scooter", "fusion_lat": 0.0, "lon": -77.03644833333334}, {"fusion_lon": 0.0, "bike_id": "d521949f3429622770d5f16b0710099b", "is_disabled": 0, "is_reserved": 0, "lat": 38.91924, "name": "d521949f3429622770d5f16b0710099b", "rental_uris": {"ios": "https://dc.lft.to/lastmile_qr_scan", "android": "https://dc.lft.to/lastmile_qr_scan"}, "type": "electric_scooter", "fusion_lat": 0.0, "lon": -77.01789633333334}, {"fusion_lon": 0.0, "bike_id": "0faa7336b8a6d7349bde924583cc2ce1", "is_disabled": 0, "is_reserved": 0, "lat": 38.919110833333335, "name": "0faa7336b8a6d7349bde924583cc2ce1", "rental_uris": {"ios": "https://dc.lft.to/lastmile_qr_scan", "android": "https://dc.lft.to/lastmile_qr_scan"}, "type": "electric_scooter", "fusion_lat": 0.0, "lon": -77.0446385}, {"fusion_lon": 0.0, "bike_id": "bfe9a9a536676f754c5d33f76360e8d2", "is_disabled": 0, "is_reserved": 0, "lat": 38.842895166666665, "name": "bfe9a9a536676f754c5d33f76360e8d2", "rental_uris": {"ios": "https://dc.lft.to/lastmile_qr_scan", "android": "https://dc.lft.to/lastmile_qr_scan"}, "type": "electric_bike", "fusion_lat": 0.0, "lon": -77.06358416666667}, {"fusion_lon": 0.0, "bike_id": "2931b4c1b2b4ce518bea54801c3236e2", "is_disabled": 0, "is_reserved": 0, "lat": 38.91814816666667, "name": "2931b4c1b2b4ce518bea54801c3236e2", "rental_uris": {"ios": "https://dc.lft.to/lastmile_qr_scan", "android": "https://dc.lft.to/lastmile_qr_scan"}, "type": "electric_scooter", "fusion_lat": 0.0, "lon": -77.02476833333333}, {"fusion_lon": 0.0, "bike_id": "18248c78fb5b5a0e91db7372e0f2e6f0", "is_disabled": 0, "is_reserved": 0, "lat": 38.9210955, "name": "18248c78fb5b5a0e91db7372e0f2e6f0", "rental_uris": {"ios": "https://dc.lft.to/lastmile_qr_scan", "android": "https://dc.lft.to/lastmile_qr_scan"}, "type": "electric_scooter", "fusion_lat": 0.0, "lon": -77.04208366666667}, {"fusion_lon": 0.0, "bike_id": "5dfb7752cf347e28ab161fb0a815bf64", "is_disabled": 0, "is_reserved": 0, "lat": 38.96531183333333, "name": "5dfb7752cf347e28ab161fb0a815bf64", "rental_uris": {"ios": "https://dc.lft.to/lastmile_qr_scan", "android": "https://dc.lft.to/lastmile_qr_scan"}, "type": "electric_bike", "fusion_lat": 0.0, "lon": -77.03429483333333}, {"fusion_lon": 0.0, "bike_id": "a735f4533fdd0c2db6ddb38bbb32f612", "is_disabled": 0, "is_reserved": 0, "lat": 38.90555616666666, "name": "a735f4533fdd0c2db6ddb38bbb32f612", "rental_uris": {"ios": "https://dc.lft.to/lastmile_qr_scan", "android": "https://dc.lft.to/lastmile_qr_scan"}, "type": "electric_scooter", "fusion_lat": 0.0, "lon": -77.0346555}, {"fusion_lon": 0.0, "bike_id": "89481ff9ae10f34a3007890f1ed6786f", "is_disabled": 0, "is_reserved": 0, "lat": 38.9137345, "name": "89481ff9ae10f34a3007890f1ed6786f", "rental_uris": {"ios": "https://dc.lft.to/lastmile_qr_scan", "android": "https://dc.lft.to/lastmile_qr_scan"}, "type": "electric_scooter", "fusion_lat": 0.0, "lon": -77.02182533333334}, {"fusion_lon": 0.0, "bike_id": "28cdc4882737d773af5afc61e3c5289d", "is_disabled": 0, "is_reserved": 0, "lat": 38.936066, "name": "28cdc4882737d773af5afc61e3c5289d", "rental_uris": {"ios": "https://dc.lft.to/lastmile_qr_scan", "android": "https://dc.lft.to/lastmile_qr_scan"}, "type": "electric_bike", "fusion_lat": 0.0, "lon": -77.0022205}, {"fusion_lon": 0.0, "bike_id": "cef6b377ef46635ee9733aed60ab401c", "is_disabled": 0, "is_reserved": 0, "lat": 38.952506166666666, "name": "cef6b377ef46635ee9733aed60ab401c", "rental_uris": {"ios": "https://dc.lft.to/lastmile_qr_scan", "android": "https://dc.lft.to/lastmile_qr_scan"}, "type": "electric_bike", "fusion_lat": 0.0, "lon": -77.09623266666667}, {"fusion_lon": 0.0, "bike_id": "6321a1d3543b88f841bf15962d44d105", "is_disabled": 0, "is_reserved": 0, "lat": 38.920367666666664, "name": "6321a1d3543b88f841bf15962d44d105", "rental_uris": {"ios": "https://dc.lft.to/lastmile_qr_scan", "android": "https://dc.lft.to/lastmile_qr_scan"}, "type": "electric_bike", "fusion_lat": 0.0, "lon": -76.97952616666667}, {"fusion_lon": 0.0, "bike_id": "c05d01377ffa2454b5c5db9a4525e4d4", "is_disabled": 0, "is_reserved": 0, "lat": 38.93126183333333, "name": "c05d01377ffa2454b5c5db9a4525e4d4", "rental_uris": {"ios": "https://dc.lft.to/lastmile_qr_scan", "android": "https://dc.lft.to/lastmile_qr_scan"}, "type": "electric_scooter", "fusion_lat": 0.0, "lon": -77.02193916666667}, {"fusion_lon": 0.0, "bike_id": "a96664fed3771045697520ac888608c6", "is_disabled": 0, "is_reserved": 0, "lat": 38.92163866666667, "name": "a96664fed3771045697520ac888608c6", "rental_uris": {"ios": "https://dc.lft.to/lastmile_qr_scan", "android": "https://dc.lft.to/lastmile_qr_scan"}, "type": "electric_scooter", "fusion_lat": 0.0, "lon": -77.03318166666666}, {"fusion_lon": 0.0, "bike_id": "dbc867ccefd334e48ec0b486ce11f20c", "is_disabled": 0, "is_reserved": 0, "lat": 38.9036065, "name": "dbc867ccefd334e48ec0b486ce11f20c", "rental_uris": {"ios": "https://dc.lft.to/lastmile_qr_scan", "android": "https://dc.lft.to/lastmile_qr_scan"}, "type": "electric_bike", "fusion_lat": 0.0, "lon": -76.98098933333333}, {"fusion_lon": 0.0, "bike_id": "56e6a29a9afb0496c80be00ff20fc301", "is_disabled": 0, "is_reserved": 0, "lat": 38.940895, "name": "56e6a29a9afb0496c80be00ff20fc301", "rental_uris": {"ios": "https://dc.lft.to/lastmile_qr_scan", "android": "https://dc.lft.to/lastmile_qr_scan"}, "type": "electric_scooter", "fusion_lat": 0.0, "lon": -77.061179}, {"fusion_lon": 0.0, "bike_id": "fccb6dd2a634f751ad1322daf9ad8d96", "is_disabled": 0, "is_reserved": 0, "lat": 39.01068716666666, "name": "fccb6dd2a634f751ad1322daf9ad8d96", "rental_uris": {"ios": "https://dc.lft.to/lastmile_qr_scan", "android": "https://dc.lft.to/lastmile_qr_scan"}, "type": "electric_bike", "fusion_lat": 0.0, "lon": -76.92240733333334}, {"fusion_lon": 0.0, "bike_id": "90d67797e8f7175343154ac21da58fcc", "is_disabled": 0, "is_reserved": 0, "lat": 38.90501016666666, "name": "90d67797e8f7175343154ac21da58fcc", "rental_uris": {"ios": "https://dc.lft.to/lastmile_qr_scan", "android": "https://dc.lft.to/lastmile_qr_scan"}, "type": "electric_scooter", "fusion_lat": 0.0, "lon": -77.029501}, {"fusion_lon": 0.0, "bike_id": "a2318da5e3541a699b8905debaac5ea0", "is_disabled": 0, "is_reserved": 0, "lat": 38.878395833333336, "name": "a2318da5e3541a699b8905debaac5ea0", "rental_uris": {"ios": "https://dc.lft.to/lastmile_qr_scan", "android": "https://dc.lft.to/lastmile_qr_scan"}, "type": "electric_scooter", "fusion_lat": 0.0, "lon": -76.931335}, {"fusion_lon": 0.0, "bike_id": "20780223f991756d9edacf754c085f16", "is_disabled": 0, "is_reserved": 0, "lat": 38.915757666666664, "name": "20780223f991756d9edacf754c085f16", "rental_uris": {"ios": "https://dc.lft.to/lastmile_qr_scan", "android": "https://dc.lft.to/lastmile_qr_scan"}, "type": "electric_scooter", "fusion_lat": 0.0, "lon": -77.036586}, {"fusion_lon": 0.0, "bike_id": "2a454ff76a00904d31b35f3ce34f6e50", "is_disabled": 0, "is_reserved": 0, "lat": 38.90906233333333, "name": "2a454ff76a00904d31b35f3ce34f6e50", "rental_uris": {"ios": "https://dc.lft.to/lastmile_qr_scan", "android": "https://dc.lft.to/lastmile_qr_scan"}, "type": "electric_scooter", "fusion_lat": 0.0, "lon": -77.00304533333333}, {"fusion_lon": 0.0, "bike_id": "ec2f790cc5d15ec0664944e82d5d5f3d", "is_disabled": 0, "is_reserved": 0, "lat": 38.926343, "name": "ec2f790cc5d15ec0664944e82d5d5f3d", "rental_uris": {"ios": "https://dc.lft.to/lastmile_qr_scan", "android": "https://dc.lft.to/lastmile_qr_scan"}, "type": "electric_scooter", "fusion_lat": 0.0, "lon": -77.02156366666667}, {"fusion_lon": 0.0, "bike_id": "c0fa23c5557d8f76e0d81c41dbec9602", "is_disabled": 0, "is_reserved": 0, "lat": 38.92059166666667, "name": "c0fa23c5557d8f76e0d81c41dbec9602", "rental_uris": {"ios": "https://dc.lft.to/lastmile_qr_scan", "android": "https://dc.lft.to/lastmile_qr_scan"}, "type": "electric_scooter", "fusion_lat": 0.0, "lon": -77.02560033333333}, {"fusion_lon": 0.0, "bike_id": "4e213d53f0909824553f50d9042f058a", "is_disabled": 0, "is_reserved": 0, "lat": 38.908661333333335, "name": "4e213d53f0909824553f50d9042f058a", "rental_uris": {"ios": "https://dc.lft.to/lastmile_qr_scan", "android": "https://dc.lft.to/lastmile_qr_scan"}, "type": "electric_scooter", "fusion_lat": 0.0, "lon": -77.03031216666666}, {"fusion_lon": 0.0, "bike_id": "591d8e5679fcfac514752861cd6b87fa", "is_disabled": 0, "is_reserved": 0, "lat": 38.91685116666667, "name": "591d8e5679fcfac514752861cd6b87fa", "rental_uris": {"ios": "https://dc.lft.to/lastmile_qr_scan", "android": "https://dc.lft.to/lastmile_qr_scan"}, "type": "electric_scooter", "fusion_lat": 0.0, "lon": -77.0363305}, {"fusion_lon": 0.0, "bike_id": "e5096ec2269335b8fd62b8c096395d70", "is_disabled": 0, "is_reserved": 0, "lat": 38.92469833333333, "name": "e5096ec2269335b8fd62b8c096395d70", "rental_uris": {"ios": "https://dc.lft.to/lastmile_qr_scan", "android": "https://dc.lft.to/lastmile_qr_scan"}, "type": "electric_scooter", "fusion_lat": 0.0, "lon": -77.02213483333334}, {"fusion_lon": 0.0, "bike_id": "f855a760cdf982318f525e4c272dd933", "is_disabled": 0, "is_reserved": 0, "lat": 38.875341666666664, "name": "f855a760cdf982318f525e4c272dd933", "rental_uris": {"ios": "https://dc.lft.to/lastmile_qr_scan", "android": "https://dc.lft.to/lastmile_qr_scan"}, "type": "electric_scooter", "fusion_lat": 0.0, "lon": -77.005067}, {"fusion_lon": 0.0, "bike_id": "863760a2aa0dc1640250413cc689fa5b", "is_disabled": 0, "is_reserved": 0, "lat": 38.930941, "name": "863760a2aa0dc1640250413cc689fa5b", "rental_uris": {"ios": "https://dc.lft.to/lastmile_qr_scan", "android": "https://dc.lft.to/lastmile_qr_scan"}, "type": "electric_scooter", "fusion_lat": 0.0, "lon": -77.03440433333333}, {"fusion_lon": 0.0, "bike_id": "e3909ccac207e7a5fadeef0180dd05e0", "is_disabled": 0, "is_reserved": 0, "lat": 38.9168355, "name": "e3909ccac207e7a5fadeef0180dd05e0", "rental_uris": {"ios": "https://dc.lft.to/lastmile_qr_scan", "android": "https://dc.lft.to/lastmile_qr_scan"}, "type": "electric_scooter", "fusion_lat": 0.0, "lon": -77.01578383333333}, {"fusion_lon": 0.0, "bike_id": "cb6f3ee5073ea898b3d8092ef3d428fa", "is_disabled": 0, "is_reserved": 0, "lat": 38.92194816666667, "name": "cb6f3ee5073ea898b3d8092ef3d428fa", "rental_uris": {"ios": "https://dc.lft.to/lastmile_qr_scan", "android": "https://dc.lft.to/lastmile_qr_scan"}, "type": "electric_scooter", "fusion_lat": 0.0, "lon": -77.09945433333333}, {"fusion_lon": 0.0, "bike_id": "98766a26d340cb065071005cf92fe43a", "is_disabled": 0, "is_reserved": 0, "lat": 38.84279166666666, "name": "98766a26d340cb065071005cf92fe43a", "rental_uris": {"ios": "https://dc.lft.to/lastmile_qr_scan", "android": "https://dc.lft.to/lastmile_qr_scan"}, "type": "electric_bike", "fusion_lat": 0.0, "lon": -76.98840266666667}, {"fusion_lon": 0.0, "bike_id": "b2d4978cdcebf1fd4041738495ad9573", "is_disabled": 0, "is_reserved": 0, "lat": 38.90058033333333, "name": "b2d4978cdcebf1fd4041738495ad9573", "rental_uris": {"ios": "https://dc.lft.to/lastmile_qr_scan", "android": "https://dc.lft.to/lastmile_qr_scan"}, "type": "electric_scooter", "fusion_lat": 0.0, "lon": -77.04463033333333}, {"fusion_lon": 0.0, "bike_id": "dd67785543d13c4e9974b49eb7c180d3", "is_disabled": 0, "is_reserved": 0, "lat": 38.899646, "name": "dd67785543d13c4e9974b49eb7c180d3", "rental_uris": {"ios": "https://dc.lft.to/lastmile_qr_scan", "android": "https://dc.lft.to/lastmile_qr_scan"}, "type": "electric_scooter", "fusion_lat": 0.0, "lon": -77.0335945}, {"fusion_lon": 0.0, "bike_id": "a8391617c2f31963c385b596cf53c367", "is_disabled": 0, "is_reserved": 0, "lat": 38.925968166666664, "name": "a8391617c2f31963c385b596cf53c367", "rental_uris": {"ios": "https://dc.lft.to/lastmile_qr_scan", "android": "https://dc.lft.to/lastmile_qr_scan"}, "type": "electric_scooter", "fusion_lat": 0.0, "lon": -77.0249855}, {"fusion_lon": 0.0, "bike_id": "5bc30d1d20e72f03a8c558ede66fbf16", "is_disabled": 0, "is_reserved": 0, "lat": 38.8947665, "name": "5bc30d1d20e72f03a8c558ede66fbf16", "rental_uris": {"ios": "https://dc.lft.to/lastmile_qr_scan", "android": "https://dc.lft.to/lastmile_qr_scan"}, "type": "electric_scooter", "fusion_lat": 0.0, "lon": -76.98594883333334}, {"fusion_lon": 0.0, "bike_id": "3a92ad1e66449c5144ed173c14832caf", "is_disabled": 0, "is_reserved": 0, "lat": 38.9043085, "name": "3a92ad1e66449c5144ed173c14832caf", "rental_uris": {"ios": "https://dc.lft.to/lastmile_qr_scan", "android": "https://dc.lft.to/lastmile_qr_scan"}, "type": "electric_bike", "fusion_lat": 0.0, "lon": -76.9723205}, {"fusion_lon": 0.0, "bike_id": "1b272e3e95c2bf29b8d2859e846da1c3", "is_disabled": 0, "is_reserved": 0, "lat": 38.9215035, "name": "1b272e3e95c2bf29b8d2859e846da1c3", "rental_uris": {"ios": "https://dc.lft.to/lastmile_qr_scan", "android": "https://dc.lft.to/lastmile_qr_scan"}, "type": "electric_scooter", "fusion_lat": 0.0, "lon": -77.04238933333333}, {"fusion_lon": 0.0, "bike_id": "79343d2c7cc561df29719bbb10187a86", "is_disabled": 0, "is_reserved": 0, "lat": 38.832967833333335, "name": "79343d2c7cc561df29719bbb10187a86", "rental_uris": {"ios": "https://dc.lft.to/lastmile_qr_scan", "android": "https://dc.lft.to/lastmile_qr_scan"}, "type": "electric_bike", "fusion_lat": 0.0, "lon": -77.0840855}, {"fusion_lon": 0.0, "bike_id": "1223176632ed5e327be5dc1df04e08f0", "is_disabled": 0, "is_reserved": 0, "lat": 38.91123, "name": "1223176632ed5e327be5dc1df04e08f0", "rental_uris": {"ios": "https://dc.lft.to/lastmile_qr_scan", "android": "https://dc.lft.to/lastmile_qr_scan"}, "type": "electric_scooter", "fusion_lat": 0.0, "lon": -77.00430466666667}, {"fusion_lon": 0.0, "bike_id": "456969c1aa0e6d9f7751cde3c49b8678", "is_disabled": 0, "is_reserved": 0, "lat": 38.898453833333335, "name": "456969c1aa0e6d9f7751cde3c49b8678", "rental_uris": {"ios": "https://dc.lft.to/lastmile_qr_scan", "android": "https://dc.lft.to/lastmile_qr_scan"}, "type": "electric_scooter", "fusion_lat": 0.0, "lon": -76.92747466666667}, {"fusion_lon": 0.0, "bike_id": "c8ae73e1852dc2b4ae90b52256711590", "is_disabled": 0, "is_reserved": 0, "lat": 38.92244633333333, "name": "c8ae73e1852dc2b4ae90b52256711590", "rental_uris": {"ios": "https://dc.lft.to/lastmile_qr_scan", "android": "https://dc.lft.to/lastmile_qr_scan"}, "type": "electric_scooter", "fusion_lat": 0.0, "lon": -77.0197175}, {"fusion_lon": 0.0, "bike_id": "7edb2c11e1e2e96480ca84f1a3a3dd97", "is_disabled": 0, "is_reserved": 0, "lat": 38.91286266666667, "name": "7edb2c11e1e2e96480ca84f1a3a3dd97", "rental_uris": {"ios": "https://dc.lft.to/lastmile_qr_scan", "android": "https://dc.lft.to/lastmile_qr_scan"}, "type": "electric_scooter", "fusion_lat": 0.0, "lon": -77.03444983333333}, {"fusion_lon": 0.0, "bike_id": "bdcf0f7f707a695b093547bd722aef34", "is_disabled": 0, "is_reserved": 0, "lat": 38.91578916666667, "name": "bdcf0f7f707a695b093547bd722aef34", "rental_uris": {"ios": "https://dc.lft.to/lastmile_qr_scan", "android": "https://dc.lft.to/lastmile_qr_scan"}, "type": "electric_scooter", "fusion_lat": 0.0, "lon": -77.03195983333333}, {"fusion_lon": 0.0, "bike_id": "742fd804175c7455c6237d49f9f30cbc", "is_disabled": 0, "is_reserved": 0, "lat": 38.9006665, "name": "742fd804175c7455c6237d49f9f30cbc", "rental_uris": {"ios": "https://dc.lft.to/lastmile_qr_scan", "android": "https://dc.lft.to/lastmile_qr_scan"}, "type": "electric_scooter", "fusion_lat": 0.0, "lon": -77.04546566666667}, {"fusion_lon": 0.0, "bike_id": "bf83fff72f3375040bb78e5789264527", "is_disabled": 0, "is_reserved": 0, "lat": 38.929611666666666, "name": "bf83fff72f3375040bb78e5789264527", "rental_uris": {"ios": "https://dc.lft.to/lastmile_qr_scan", "android": "https://dc.lft.to/lastmile_qr_scan"}, "type": "electric_scooter", "fusion_lat": 0.0, "lon": -77.03143416666667}, {"fusion_lon": 0.0, "bike_id": "7811b59f5a85d136d9f06ef60f6b82a9", "is_disabled": 0, "is_reserved": 0, "lat": 38.896959833333334, "name": "7811b59f5a85d136d9f06ef60f6b82a9", "rental_uris": {"ios": "https://dc.lft.to/lastmile_qr_scan", "android": "https://dc.lft.to/lastmile_qr_scan"}, "type": "electric_scooter", "fusion_lat": 0.0, "lon": -77.048688}, {"fusion_lon": 0.0, "bike_id": "4b8e7d938e3a91b2f895885afb00f034", "is_disabled": 0, "is_reserved": 0, "lat": 38.921596666666666, "name": "4b8e7d938e3a91b2f895885afb00f034", "rental_uris": {"ios": "https://dc.lft.to/lastmile_qr_scan", "android": "https://dc.lft.to/lastmile_qr_scan"}, "type": "electric_bike", "fusion_lat": 0.0, "lon": -77.0788195}, {"fusion_lon": 0.0, "bike_id": "7a16144e6a7ad61e0c3a0db221986a6c", "is_disabled": 0, "is_reserved": 0, "lat": 38.9012465, "name": "7a16144e6a7ad61e0c3a0db221986a6c", "rental_uris": {"ios": "https://dc.lft.to/lastmile_qr_scan", "android": "https://dc.lft.to/lastmile_qr_scan"}, "type": "electric_scooter", "fusion_lat": 0.0, "lon": -77.049951}, {"fusion_lon": 0.0, "bike_id": "316859598429c85738dd3310a837dd69", "is_disabled": 0, "is_reserved": 0, "lat": 38.836927333333335, "name": "316859598429c85738dd3310a837dd69", "rental_uris": {"ios": "https://dc.lft.to/lastmile_qr_scan", "android": "https://dc.lft.to/lastmile_qr_scan"}, "type": "electric_bike", "fusion_lat": 0.0, "lon": -77.05719633333334}, {"fusion_lon": 0.0, "bike_id": "7680378b3f7d5dabca4b175a3e470acf", "is_disabled": 0, "is_reserved": 0, "lat": 38.90082066666667, "name": "7680378b3f7d5dabca4b175a3e470acf", "rental_uris": {"ios": "https://dc.lft.to/lastmile_qr_scan", "android": "https://dc.lft.to/lastmile_qr_scan"}, "type": "electric_scooter", "fusion_lat": 0.0, "lon": -77.04753033333333}, {"fusion_lon": 0.0, "bike_id": "a0379835f5a4b60dc59a44f804a53424", "is_disabled": 0, "is_reserved": 0, "lat": 38.94702183333333, "name": "a0379835f5a4b60dc59a44f804a53424", "rental_uris": {"ios": "https://dc.lft.to/lastmile_qr_scan", "android": "https://dc.lft.to/lastmile_qr_scan"}, "type": "electric_scooter", "fusion_lat": 0.0, "lon": -77.01940183333333}, {"fusion_lon": 0.0, "bike_id": "131864421edb66de75a94ecb3ebe7d0e", "is_disabled": 0, "is_reserved": 0, "lat": 38.887693666666664, "name": "131864421edb66de75a94ecb3ebe7d0e", "rental_uris": {"ios": "https://dc.lft.to/lastmile_qr_scan", "android": "https://dc.lft.to/lastmile_qr_scan"}, "type": "electric_scooter", "fusion_lat": 0.0, "lon": -76.9773225}, {"fusion_lon": 0.0, "bike_id": "df1b727319d6b0bcd9fa33b30863472a", "is_disabled": 0, "is_reserved": 0, "lat": 38.91816, "name": "df1b727319d6b0bcd9fa33b30863472a", "rental_uris": {"ios": "https://dc.lft.to/lastmile_qr_scan", "android": "https://dc.lft.to/lastmile_qr_scan"}, "type": "electric_scooter", "fusion_lat": 0.0, "lon": -77.03666833333334}, {"fusion_lon": 0.0, "bike_id": "4f8d7b820421b654c14fee327264317d", "is_disabled": 0, "is_reserved": 0, "lat": 38.899166666666666, "name": "4f8d7b820421b654c14fee327264317d", "rental_uris": {"ios": "https://dc.lft.to/lastmile_qr_scan", "android": "https://dc.lft.to/lastmile_qr_scan"}, "type": "electric_scooter", "fusion_lat": 0.0, "lon": -76.933826}, {"fusion_lon": 0.0, "bike_id": "1136c24f5c309bb63ef6d6135cfd9f07", "is_disabled": 0, "is_reserved": 0, "lat": 38.90121533333333, "name": "1136c24f5c309bb63ef6d6135cfd9f07", "rental_uris": {"ios": "https://dc.lft.to/lastmile_qr_scan", "android": "https://dc.lft.to/lastmile_qr_scan"}, "type": "electric_scooter", "fusion_lat": 0.0, "lon": -77.04346116666666}, {"fusion_lon": 0.0, "bike_id": "2faf293c0271dca114114492a84a7f2f", "is_disabled": 0, "is_reserved": 0, "lat": 38.90385283333333, "name": "2faf293c0271dca114114492a84a7f2f", "rental_uris": {"ios": "https://dc.lft.to/lastmile_qr_scan", "android": "https://dc.lft.to/lastmile_qr_scan"}, "type": "electric_scooter", "fusion_lat": 0.0, "lon": -77.06103066666667}, {"fusion_lon": 0.0, "bike_id": "cc8b2ebb619825a2146e1226f7cef801", "is_disabled": 0, "is_reserved": 0, "lat": 38.87168783333333, "name": "cc8b2ebb619825a2146e1226f7cef801", "rental_uris": {"ios": "https://dc.lft.to/lastmile_qr_scan", "android": "https://dc.lft.to/lastmile_qr_scan"}, "type": "electric_scooter", "fusion_lat": 0.0, "lon": -77.00636983333334}, {"fusion_lon": 0.0, "bike_id": "6122cfa9e909383f3a6a2cd726b3eb8d", "is_disabled": 0, "is_reserved": 0, "lat": 38.92480533333333, "name": "6122cfa9e909383f3a6a2cd726b3eb8d", "rental_uris": {"ios": "https://dc.lft.to/lastmile_qr_scan", "android": "https://dc.lft.to/lastmile_qr_scan"}, "type": "electric_scooter", "fusion_lat": 0.0, "lon": -77.021807}, {"fusion_lon": 0.0, "bike_id": "b11bcae11e8c0c3963426f4820c1069b", "is_disabled": 0, "is_reserved": 0, "lat": 38.912821, "name": "b11bcae11e8c0c3963426f4820c1069b", "rental_uris": {"ios": "https://dc.lft.to/lastmile_qr_scan", "android": "https://dc.lft.to/lastmile_qr_scan"}, "type": "electric_scooter", "fusion_lat": 0.0, "lon": -77.0679585}, {"fusion_lon": 0.0, "bike_id": "0280deac243d0f352c76c5a152403deb", "is_disabled": 0, "is_reserved": 0, "lat": 38.9334635, "name": "0280deac243d0f352c76c5a152403deb", "rental_uris": {"ios": "https://dc.lft.to/lastmile_qr_scan", "android": "https://dc.lft.to/lastmile_qr_scan"}, "type": "electric_scooter", "fusion_lat": 0.0, "lon": -77.027437}, {"fusion_lon": 0.0, "bike_id": "20ac376b8ce1d83b8343114ee94867de", "is_disabled": 0, "is_reserved": 0, "lat": 38.88485466666667, "name": "20ac376b8ce1d83b8343114ee94867de", "rental_uris": {"ios": "https://dc.lft.to/lastmile_qr_scan", "android": "https://dc.lft.to/lastmile_qr_scan"}, "type": "electric_scooter", "fusion_lat": 0.0, "lon": -77.0334675}, {"fusion_lon": 0.0, "bike_id": "8a0b0db1894929dba5107f7fd134f201", "is_disabled": 0, "is_reserved": 0, "lat": 38.887712666666665, "name": "8a0b0db1894929dba5107f7fd134f201", "rental_uris": {"ios": "https://dc.lft.to/lastmile_qr_scan", "android": "https://dc.lft.to/lastmile_qr_scan"}, "type": "electric_scooter", "fusion_lat": 0.0, "lon": -76.97732783333333}, {"fusion_lon": 0.0, "bike_id": "6a8d6d2fa756426b4ce8c1474d65dd76", "is_disabled": 0, "is_reserved": 0, "lat": 38.91266916666667, "name": "6a8d6d2fa756426b4ce8c1474d65dd76", "rental_uris": {"ios": "https://dc.lft.to/lastmile_qr_scan", "android": "https://dc.lft.to/lastmile_qr_scan"}, "type": "electric_scooter", "fusion_lat": 0.0, "lon": -77.04771616666666}, {"fusion_lon": 0.0, "bike_id": "be125aaeac452b3eb835f69b4b110523", "is_disabled": 0, "is_reserved": 0, "lat": 38.94637816666667, "name": "be125aaeac452b3eb835f69b4b110523", "rental_uris": {"ios": "https://dc.lft.to/lastmile_qr_scan", "android": "https://dc.lft.to/lastmile_qr_scan"}, "type": "electric_bike", "fusion_lat": 0.0, "lon": -76.993078}, {"fusion_lon": 0.0, "bike_id": "86328fb2afa618af12a3316ff59e7fa0", "is_disabled": 0, "is_reserved": 0, "lat": 38.964887833333336, "name": "86328fb2afa618af12a3316ff59e7fa0", "rental_uris": {"ios": "https://dc.lft.to/lastmile_qr_scan", "android": "https://dc.lft.to/lastmile_qr_scan"}, "type": "electric_bike", "fusion_lat": 0.0, "lon": -77.02858833333333}, {"fusion_lon": 0.0, "bike_id": "ce57fd46ba3d93d7e022e3469c6234e5", "is_disabled": 0, "is_reserved": 0, "lat": 38.91769216666667, "name": "ce57fd46ba3d93d7e022e3469c6234e5", "rental_uris": {"ios": "https://dc.lft.to/lastmile_qr_scan", "android": "https://dc.lft.to/lastmile_qr_scan"}, "type": "electric_scooter", "fusion_lat": 0.0, "lon": -77.04749216666667}, {"fusion_lon": 0.0, "bike_id": "741a101991b497c6834d3ecf7c963197", "is_disabled": 0, "is_reserved": 0, "lat": 38.89961683333333, "name": "741a101991b497c6834d3ecf7c963197", "rental_uris": {"ios": "https://dc.lft.to/lastmile_qr_scan", "android": "https://dc.lft.to/lastmile_qr_scan"}, "type": "electric_scooter", "fusion_lat": 0.0, "lon": -77.0450995}, {"fusion_lon": 0.0, "bike_id": "00dc7749e38e64ae644cf7079221cd74", "is_disabled": 0, "is_reserved": 0, "lat": 38.9165115, "name": "00dc7749e38e64ae644cf7079221cd74", "rental_uris": {"ios": "https://dc.lft.to/lastmile_qr_scan", "android": "https://dc.lft.to/lastmile_qr_scan"}, "type": "electric_scooter", "fusion_lat": 0.0, "lon": -77.0101595}, {"fusion_lon": 0.0, "bike_id": "ab8c043e0597a71842db439669a14d2c", "is_disabled": 0, "is_reserved": 0, "lat": 38.92369433333333, "name": "ab8c043e0597a71842db439669a14d2c", "rental_uris": {"ios": "https://dc.lft.to/lastmile_qr_scan", "android": "https://dc.lft.to/lastmile_qr_scan"}, "type": "electric_scooter", "fusion_lat": 0.0, "lon": -77.01956083333333}, {"fusion_lon": 0.0, "bike_id": "9814361b6f8c953470873381311d3d89", "is_disabled": 0, "is_reserved": 0, "lat": 38.903448166666664, "name": "9814361b6f8c953470873381311d3d89", "rental_uris": {"ios": "https://dc.lft.to/lastmile_qr_scan", "android": "https://dc.lft.to/lastmile_qr_scan"}, "type": "electric_scooter", "fusion_lat": 0.0, "lon": -77.049498}, {"fusion_lon": 0.0, "bike_id": "835f961c251d369cfdefdb4deebb2938", "is_disabled": 0, "is_reserved": 0, "lat": 38.91923633333333, "name": "835f961c251d369cfdefdb4deebb2938", "rental_uris": {"ios": "https://dc.lft.to/lastmile_qr_scan", "android": "https://dc.lft.to/lastmile_qr_scan"}, "type": "electric_scooter", "fusion_lat": 0.0, "lon": -77.034205}, {"fusion_lon": 0.0, "bike_id": "31603bca97cdc920b56f54f54f0c23b2", "is_disabled": 0, "is_reserved": 0, "lat": 38.923367, "name": "31603bca97cdc920b56f54f54f0c23b2", "rental_uris": {"ios": "https://dc.lft.to/lastmile_qr_scan", "android": "https://dc.lft.to/lastmile_qr_scan"}, "type": "electric_scooter", "fusion_lat": 0.0, "lon": -77.0213375}, {"fusion_lon": 0.0, "bike_id": "c3978cde4cb00a52f210680d525fc76a", "is_disabled": 0, "is_reserved": 0, "lat": 38.922847833333336, "name": "c3978cde4cb00a52f210680d525fc76a", "rental_uris": {"ios": "https://dc.lft.to/lastmile_qr_scan", "android": "https://dc.lft.to/lastmile_qr_scan"}, "type": "electric_scooter", "fusion_lat": 0.0, "lon": -77.036581}, {"fusion_lon": 0.0, "bike_id": "753e2e901b13d6238e16af7d01da2ac5", "is_disabled": 0, "is_reserved": 0, "lat": 38.93110933333333, "name": "753e2e901b13d6238e16af7d01da2ac5", "rental_uris": {"ios": "https://dc.lft.to/lastmile_qr_scan", "android": "https://dc.lft.to/lastmile_qr_scan"}, "type": "electric_scooter", "fusion_lat": 0.0, "lon": -77.02127116666666}, {"fusion_lon": 0.0, "bike_id": "31c1376c61546e3d35369b8d9f722323", "is_disabled": 0, "is_reserved": 0, "lat": 38.89251633333333, "name": "31c1376c61546e3d35369b8d9f722323", "rental_uris": {"ios": "https://dc.lft.to/lastmile_qr_scan", "android": "https://dc.lft.to/lastmile_qr_scan"}, "type": "electric_scooter", "fusion_lat": 0.0, "lon": -77.04503816666667}, {"fusion_lon": 0.0, "bike_id": "2fd0ef748ab855e299204df787393e7f", "is_disabled": 0, "is_reserved": 0, "lat": 38.804775166666666, "name": "2fd0ef748ab855e299204df787393e7f", "rental_uris": {"ios": "https://dc.lft.to/lastmile_qr_scan", "android": "https://dc.lft.to/lastmile_qr_scan"}, "type": "electric_bike", "fusion_lat": 0.0, "lon": -77.0607945}, {"fusion_lon": 0.0, "bike_id": "0e1e9ad5527ec4fb408a769b1b885e7d", "is_disabled": 0, "is_reserved": 0, "lat": 38.913650833333335, "name": "0e1e9ad5527ec4fb408a769b1b885e7d", "rental_uris": {"ios": "https://dc.lft.to/lastmile_qr_scan", "android": "https://dc.lft.to/lastmile_qr_scan"}, "type": "electric_scooter", "fusion_lat": 0.0, "lon": -77.02050433333334}, {"fusion_lon": 0.0, "bike_id": "64a63a2834420f0ec40c0cf18b42737c", "is_disabled": 0, "is_reserved": 0, "lat": 38.857822166666665, "name": "64a63a2834420f0ec40c0cf18b42737c", "rental_uris": {"ios": "https://dc.lft.to/lastmile_qr_scan", "android": "https://dc.lft.to/lastmile_qr_scan"}, "type": "electric_bike", "fusion_lat": 0.0, "lon": -76.98739066666667}, {"fusion_lon": 0.0, "bike_id": "ea38d9318ae3a5b64bf0f7d2fb25e424", "is_disabled": 0, "is_reserved": 0, "lat": 38.92481333333333, "name": "ea38d9318ae3a5b64bf0f7d2fb25e424", "rental_uris": {"ios": "https://dc.lft.to/lastmile_qr_scan", "android": "https://dc.lft.to/lastmile_qr_scan"}, "type": "electric_scooter", "fusion_lat": 0.0, "lon": -77.031784}, {"fusion_lon": 0.0, "bike_id": "f961ae1914fec090d023588b044c9b86", "is_disabled": 0, "is_reserved": 0, "lat": 38.987661, "name": "f961ae1914fec090d023588b044c9b86", "rental_uris": {"ios": "https://dc.lft.to/lastmile_qr_scan", "android": "https://dc.lft.to/lastmile_qr_scan"}, "type": "electric_bike", "fusion_lat": 0.0, "lon": -77.026557}, {"fusion_lon": 0.0, "bike_id": "89e5b2cc18be7a6d9cfb253c10b22dc2", "is_disabled": 0, "is_reserved": 0, "lat": 38.90455583333333, "name": "89e5b2cc18be7a6d9cfb253c10b22dc2", "rental_uris": {"ios": "https://dc.lft.to/lastmile_qr_scan", "android": "https://dc.lft.to/lastmile_qr_scan"}, "type": "electric_scooter", "fusion_lat": 0.0, "lon": -76.98253516666666}, {"fusion_lon": 0.0, "bike_id": "133e2f558f5f639573d1aceca1357855", "is_disabled": 0, "is_reserved": 0, "lat": 38.925500666666665, "name": "133e2f558f5f639573d1aceca1357855", "rental_uris": {"ios": "https://dc.lft.to/lastmile_qr_scan", "android": "https://dc.lft.to/lastmile_qr_scan"}, "type": "electric_scooter", "fusion_lat": 0.0, "lon": -77.05294383333333}, {"fusion_lon": 0.0, "bike_id": "96d5f588a2d853e1b8288952da000d80", "is_disabled": 0, "is_reserved": 0, "lat": 38.91311683333333, "name": "96d5f588a2d853e1b8288952da000d80", "rental_uris": {"ios": "https://dc.lft.to/lastmile_qr_scan", "android": "https://dc.lft.to/lastmile_qr_scan"}, "type": "electric_scooter", "fusion_lat": 0.0, "lon": -77.02859}, {"fusion_lon": 0.0, "bike_id": "907c31c151278e2b1f25a469ba9f232a", "is_disabled": 0, "is_reserved": 0, "lat": 39.02623033333333, "name": "907c31c151278e2b1f25a469ba9f232a", "rental_uris": {"ios": "https://dc.lft.to/lastmile_qr_scan", "android": "https://dc.lft.to/lastmile_qr_scan"}, "type": "electric_bike", "fusion_lat": 0.0, "lon": -77.03879083333334}, {"fusion_lon": 0.0, "bike_id": "4113933d8c1b3810ead82452f1f9b143", "is_disabled": 0, "is_reserved": 0, "lat": 38.89772683333333, "name": "4113933d8c1b3810ead82452f1f9b143", "rental_uris": {"ios": "https://dc.lft.to/lastmile_qr_scan", "android": "https://dc.lft.to/lastmile_qr_scan"}, "type": "electric_scooter", "fusion_lat": 0.0, "lon": -77.02721866666667}, {"fusion_lon": 0.0, "bike_id": "2e56f9e6cfdced14ba833beb48b6a794", "is_disabled": 0, "is_reserved": 0, "lat": 38.90721933333333, "name": "2e56f9e6cfdced14ba833beb48b6a794", "rental_uris": {"ios": "https://dc.lft.to/lastmile_qr_scan", "android": "https://dc.lft.to/lastmile_qr_scan"}, "type": "electric_scooter", "fusion_lat": 0.0, "lon": -77.00504983333333}, {"fusion_lon": 0.0, "bike_id": "1d8b88fe6ae271ee9b2e868c123c9489", "is_disabled": 0, "is_reserved": 0, "lat": 38.899244833333334, "name": "1d8b88fe6ae271ee9b2e868c123c9489", "rental_uris": {"ios": "https://dc.lft.to/lastmile_qr_scan", "android": "https://dc.lft.to/lastmile_qr_scan"}, "type": "electric_scooter", "fusion_lat": 0.0, "lon": -76.94576333333333}, {"fusion_lon": 0.0, "bike_id": "ebdcf1a6f3166d6bac7cc12d903ed1d4", "is_disabled": 0, "is_reserved": 0, "lat": 38.97078916666667, "name": "ebdcf1a6f3166d6bac7cc12d903ed1d4", "rental_uris": {"ios": "https://dc.lft.to/lastmile_qr_scan", "android": "https://dc.lft.to/lastmile_qr_scan"}, "type": "electric_bike", "fusion_lat": 0.0, "lon": -76.93617066666667}, {"fusion_lon": 0.0, "bike_id": "070fd089048691afdb3a3e0def1f4da0", "is_disabled": 0, "is_reserved": 0, "lat": 38.917123833333335, "name": "070fd089048691afdb3a3e0def1f4da0", "rental_uris": {"ios": "https://dc.lft.to/lastmile_qr_scan", "android": "https://dc.lft.to/lastmile_qr_scan"}, "type": "electric_scooter", "fusion_lat": 0.0, "lon": -77.03251483333334}, {"fusion_lon": 0.0, "bike_id": "eb94a86be1ed5bb3175bbafff68f9122", "is_disabled": 0, "is_reserved": 0, "lat": 38.914138333333334, "name": "eb94a86be1ed5bb3175bbafff68f9122", "rental_uris": {"ios": "https://dc.lft.to/lastmile_qr_scan", "android": "https://dc.lft.to/lastmile_qr_scan"}, "type": "electric_scooter", "fusion_lat": 0.0, "lon": -77.02214483333333}, {"fusion_lon": 0.0, "bike_id": "8d2f4ccbf485b3495b13362d9b573b28", "is_disabled": 0, "is_reserved": 0, "lat": 38.91472983333333, "name": "8d2f4ccbf485b3495b13362d9b573b28", "rental_uris": {"ios": "https://dc.lft.to/lastmile_qr_scan", "android": "https://dc.lft.to/lastmile_qr_scan"}, "type": "electric_scooter", "fusion_lat": 0.0, "lon": -77.00889483333333}, {"fusion_lon": 0.0, "bike_id": "38274bfbeaaff1e7cffbd57e24ee8b3b", "is_disabled": 0, "is_reserved": 0, "lat": 38.90038416666667, "name": "38274bfbeaaff1e7cffbd57e24ee8b3b", "rental_uris": {"ios": "https://dc.lft.to/lastmile_qr_scan", "android": "https://dc.lft.to/lastmile_qr_scan"}, "type": "electric_scooter", "fusion_lat": 0.0, "lon": -77.01701316666667}, {"fusion_lon": 0.0, "bike_id": "550023df99f4a2618897ea762c548c50", "is_disabled": 0, "is_reserved": 0, "lat": 38.90825666666667, "name": "550023df99f4a2618897ea762c548c50", "rental_uris": {"ios": "https://dc.lft.to/lastmile_qr_scan", "android": "https://dc.lft.to/lastmile_qr_scan"}, "type": "electric_scooter", "fusion_lat": 0.0, "lon": -77.03906633333334}, {"fusion_lon": 0.0, "bike_id": "15f0adf423705d0580326143d5b14881", "is_disabled": 0, "is_reserved": 0, "lat": 38.89957316666667, "name": "15f0adf423705d0580326143d5b14881", "rental_uris": {"ios": "https://dc.lft.to/lastmile_qr_scan", "android": "https://dc.lft.to/lastmile_qr_scan"}, "type": "electric_scooter", "fusion_lat": 0.0, "lon": -77.02626083333334}, {"fusion_lon": 0.0, "bike_id": "7bb1b6c4e913057153b00a77f04ef1e3", "is_disabled": 0, "is_reserved": 0, "lat": 38.8999435, "name": "7bb1b6c4e913057153b00a77f04ef1e3", "rental_uris": {"ios": "https://dc.lft.to/lastmile_qr_scan", "android": "https://dc.lft.to/lastmile_qr_scan"}, "type": "electric_scooter", "fusion_lat": 0.0, "lon": -76.990124}, {"fusion_lon": 0.0, "bike_id": "16800da33169ba60dc4afc802840e5e9", "is_disabled": 0, "is_reserved": 0, "lat": 38.897433, "name": "16800da33169ba60dc4afc802840e5e9", "rental_uris": {"ios": "https://dc.lft.to/lastmile_qr_scan", "android": "https://dc.lft.to/lastmile_qr_scan"}, "type": "electric_scooter", "fusion_lat": 0.0, "lon": -77.02455616666667}, {"fusion_lon": 0.0, "bike_id": "969e28395cdad57042f80ec8afc7342a", "is_disabled": 0, "is_reserved": 0, "lat": 38.924946, "name": "969e28395cdad57042f80ec8afc7342a", "rental_uris": {"ios": "https://dc.lft.to/lastmile_qr_scan", "android": "https://dc.lft.to/lastmile_qr_scan"}, "type": "electric_scooter", "fusion_lat": 0.0, "lon": -77.0393065}, {"fusion_lon": 0.0, "bike_id": "12f6734f7c16e995ea1d0453efe0920f", "is_disabled": 0, "is_reserved": 0, "lat": 38.91570166666666, "name": "12f6734f7c16e995ea1d0453efe0920f", "rental_uris": {"ios": "https://dc.lft.to/lastmile_qr_scan", "android": "https://dc.lft.to/lastmile_qr_scan"}, "type": "electric_scooter", "fusion_lat": 0.0, "lon": -77.01986816666667}, {"fusion_lon": 0.0, "bike_id": "65aa0514a26b6ecc19e49878e6353e52", "is_disabled": 0, "is_reserved": 0, "lat": 38.89227966666667, "name": "65aa0514a26b6ecc19e49878e6353e52", "rental_uris": {"ios": "https://dc.lft.to/lastmile_qr_scan", "android": "https://dc.lft.to/lastmile_qr_scan"}, "type": "electric_scooter", "fusion_lat": 0.0, "lon": -77.0241375}, {"fusion_lon": 0.0, "bike_id": "8b99cba26d51ac39a68ac7e4e71aa65d", "is_disabled": 0, "is_reserved": 0, "lat": 38.902667666666666, "name": "8b99cba26d51ac39a68ac7e4e71aa65d", "rental_uris": {"ios": "https://dc.lft.to/lastmile_qr_scan", "android": "https://dc.lft.to/lastmile_qr_scan"}, "type": "electric_scooter", "fusion_lat": 0.0, "lon": -77.017561}, {"fusion_lon": 0.0, "bike_id": "db43b6de99f0ecd7d08e88a76e9cfb41", "is_disabled": 0, "is_reserved": 0, "lat": 38.89736516666667, "name": "db43b6de99f0ecd7d08e88a76e9cfb41", "rental_uris": {"ios": "https://dc.lft.to/lastmile_qr_scan", "android": "https://dc.lft.to/lastmile_qr_scan"}, "type": "electric_scooter", "fusion_lat": 0.0, "lon": -76.992134}, {"fusion_lon": 0.0, "bike_id": "81f826e419cead86075dfeb4f9ba5617", "is_disabled": 0, "is_reserved": 0, "lat": 38.91995566666667, "name": "81f826e419cead86075dfeb4f9ba5617", "rental_uris": {"ios": "https://dc.lft.to/lastmile_qr_scan", "android": "https://dc.lft.to/lastmile_qr_scan"}, "type": "electric_scooter", "fusion_lat": 0.0, "lon": -77.02130083333333}, {"fusion_lon": 0.0, "bike_id": "67f0deefcb2ed36aaa389b61a2d9a1e3", "is_disabled": 0, "is_reserved": 0, "lat": 38.92273683333333, "name": "67f0deefcb2ed36aaa389b61a2d9a1e3", "rental_uris": {"ios": "https://dc.lft.to/lastmile_qr_scan", "android": "https://dc.lft.to/lastmile_qr_scan"}, "type": "electric_scooter", "fusion_lat": 0.0, "lon": -77.0212865}, {"fusion_lon": 0.0, "bike_id": "f378829a3a9b70598e8e01edd23f9782", "is_disabled": 0, "is_reserved": 0, "lat": 38.924289, "name": "f378829a3a9b70598e8e01edd23f9782", "rental_uris": {"ios": "https://dc.lft.to/lastmile_qr_scan", "android": "https://dc.lft.to/lastmile_qr_scan"}, "type": "electric_scooter", "fusion_lat": 0.0, "lon": -77.04044533333334}, {"fusion_lon": 0.0, "bike_id": "5bd0d6f30a138627a0c7f1c56acce97a", "is_disabled": 0, "is_reserved": 0, "lat": 38.90186383333333, "name": "5bd0d6f30a138627a0c7f1c56acce97a", "rental_uris": {"ios": "https://dc.lft.to/lastmile_qr_scan", "android": "https://dc.lft.to/lastmile_qr_scan"}, "type": "electric_scooter", "fusion_lat": 0.0, "lon": -76.97668466666667}, {"fusion_lon": 0.0, "bike_id": "9a66aeff9b2f94c886b645f8ee599614", "is_disabled": 0, "is_reserved": 0, "lat": 38.8871175, "name": "9a66aeff9b2f94c886b645f8ee599614", "rental_uris": {"ios": "https://dc.lft.to/lastmile_qr_scan", "android": "https://dc.lft.to/lastmile_qr_scan"}, "type": "electric_scooter", "fusion_lat": 0.0, "lon": -76.98382333333333}, {"fusion_lon": 0.0, "bike_id": "b6fc893a205993bfb766213e3772230f", "is_disabled": 0, "is_reserved": 0, "lat": 38.927498, "name": "b6fc893a205993bfb766213e3772230f", "rental_uris": {"ios": "https://dc.lft.to/lastmile_qr_scan", "android": "https://dc.lft.to/lastmile_qr_scan"}, "type": "electric_scooter", "fusion_lat": 0.0, "lon": -77.0329965}, {"fusion_lon": 0.0, "bike_id": "1b2ef9248c02c1099275fb2492e00efa", "is_disabled": 0, "is_reserved": 0, "lat": 38.87449816666667, "name": "1b2ef9248c02c1099275fb2492e00efa", "rental_uris": {"ios": "https://dc.lft.to/lastmile_qr_scan", "android": "https://dc.lft.to/lastmile_qr_scan"}, "type": "electric_scooter", "fusion_lat": 0.0, "lon": -77.0005915}, {"fusion_lon": 0.0, "bike_id": "0b19415ecac5e6a29f73086cc605d057", "is_disabled": 0, "is_reserved": 0, "lat": 38.94261783333334, "name": "0b19415ecac5e6a29f73086cc605d057", "rental_uris": {"ios": "https://dc.lft.to/lastmile_qr_scan", "android": "https://dc.lft.to/lastmile_qr_scan"}, "type": "electric_scooter", "fusion_lat": 0.0, "lon": -77.0298505}, {"fusion_lon": 0.0, "bike_id": "b21df71f315b545188782a383fbeaeec", "is_disabled": 0, "is_reserved": 0, "lat": 38.924762333333334, "name": "b21df71f315b545188782a383fbeaeec", "rental_uris": {"ios": "https://dc.lft.to/lastmile_qr_scan", "android": "https://dc.lft.to/lastmile_qr_scan"}, "type": "electric_scooter", "fusion_lat": 0.0, "lon": -77.02667783333334}, {"fusion_lon": 0.0, "bike_id": "32eac43d314d09ef7a09260c162633b5", "is_disabled": 0, "is_reserved": 0, "lat": 38.908328166666664, "name": "32eac43d314d09ef7a09260c162633b5", "rental_uris": {"ios": "https://dc.lft.to/lastmile_qr_scan", "android": "https://dc.lft.to/lastmile_qr_scan"}, "type": "electric_scooter", "fusion_lat": 0.0, "lon": -77.0319195}, {"fusion_lon": 0.0, "bike_id": "99cf70d9bc35e6c8b2540f064c20c660", "is_disabled": 0, "is_reserved": 0, "lat": 38.8746555, "name": "99cf70d9bc35e6c8b2540f064c20c660", "rental_uris": {"ios": "https://dc.lft.to/lastmile_qr_scan", "android": "https://dc.lft.to/lastmile_qr_scan"}, "type": "electric_scooter", "fusion_lat": 0.0, "lon": -77.01575566666666}, {"fusion_lon": 0.0, "bike_id": "48f3d2f5dd8dddb90875ffba788a180e", "is_disabled": 0, "is_reserved": 0, "lat": 38.9288635, "name": "48f3d2f5dd8dddb90875ffba788a180e", "rental_uris": {"ios": "https://dc.lft.to/lastmile_qr_scan", "android": "https://dc.lft.to/lastmile_qr_scan"}, "type": "electric_scooter", "fusion_lat": 0.0, "lon": -77.03358266666666}, {"fusion_lon": 0.0, "bike_id": "0440abd4fe63cc53e7b0f3564e4d97bc", "is_disabled": 0, "is_reserved": 0, "lat": 38.936411666666665, "name": "0440abd4fe63cc53e7b0f3564e4d97bc", "rental_uris": {"ios": "https://dc.lft.to/lastmile_qr_scan", "android": "https://dc.lft.to/lastmile_qr_scan"}, "type": "electric_scooter", "fusion_lat": 0.0, "lon": -77.0199495}, {"fusion_lon": 0.0, "bike_id": "fb2574502ef5657685d7fd0e2d7c28ec", "is_disabled": 0, "is_reserved": 0, "lat": 38.906957166666665, "name": "fb2574502ef5657685d7fd0e2d7c28ec", "rental_uris": {"ios": "https://dc.lft.to/lastmile_qr_scan", "android": "https://dc.lft.to/lastmile_qr_scan"}, "type": "electric_bike", "fusion_lat": 0.0, "lon": -76.95251916666666}, {"fusion_lon": 0.0, "bike_id": "59ba679998570d37f3db892dea55175d", "is_disabled": 0, "is_reserved": 0, "lat": 38.91410583333333, "name": "59ba679998570d37f3db892dea55175d", "rental_uris": {"ios": "https://dc.lft.to/lastmile_qr_scan", "android": "https://dc.lft.to/lastmile_qr_scan"}, "type": "electric_scooter", "fusion_lat": 0.0, "lon": -77.0082965}, {"fusion_lon": 0.0, "bike_id": "54a11116e4c69a776814527eea4e0513", "is_disabled": 0, "is_reserved": 0, "lat": 38.88726883333333, "name": "54a11116e4c69a776814527eea4e0513", "rental_uris": {"ios": "https://dc.lft.to/lastmile_qr_scan", "android": "https://dc.lft.to/lastmile_qr_scan"}, "type": "electric_scooter", "fusion_lat": 0.0, "lon": -76.98376583333334}, {"fusion_lon": 0.0, "bike_id": "bcba3d19ce907124b578f3d259d2e0a8", "is_disabled": 0, "is_reserved": 0, "lat": 38.92166683333333, "name": "bcba3d19ce907124b578f3d259d2e0a8", "rental_uris": {"ios": "https://dc.lft.to/lastmile_qr_scan", "android": "https://dc.lft.to/lastmile_qr_scan"}, "type": "electric_scooter", "fusion_lat": 0.0, "lon": -77.0212065}, {"fusion_lon": 0.0, "bike_id": "f9988146e750ac3d76a953d8c5d9543f", "is_disabled": 0, "is_reserved": 0, "lat": 38.89328716666667, "name": "f9988146e750ac3d76a953d8c5d9543f", "rental_uris": {"ios": "https://dc.lft.to/lastmile_qr_scan", "android": "https://dc.lft.to/lastmile_qr_scan"}, "type": "electric_scooter", "fusion_lat": 0.0, "lon": -77.03373}, {"fusion_lon": 0.0, "bike_id": "a85d812b07c8bb42ef20fb0763527840", "is_disabled": 0, "is_reserved": 0, "lat": 38.90799783333333, "name": "a85d812b07c8bb42ef20fb0763527840", "rental_uris": {"ios": "https://dc.lft.to/lastmile_qr_scan", "android": "https://dc.lft.to/lastmile_qr_scan"}, "type": "electric_scooter", "fusion_lat": 0.0, "lon": -77.00021633333333}, {"fusion_lon": 0.0, "bike_id": "07589deedc0fbcaceff26d896d97f29e", "is_disabled": 0, "is_reserved": 0, "lat": 38.91988583333333, "name": "07589deedc0fbcaceff26d896d97f29e", "rental_uris": {"ios": "https://dc.lft.to/lastmile_qr_scan", "android": "https://dc.lft.to/lastmile_qr_scan"}, "type": "electric_scooter", "fusion_lat": 0.0, "lon": -77.0324405}, {"fusion_lon": 0.0, "bike_id": "59a06987f55c33d3b2b836795fe2989f", "is_disabled": 0, "is_reserved": 0, "lat": 38.923319166666666, "name": "59a06987f55c33d3b2b836795fe2989f", "rental_uris": {"ios": "https://dc.lft.to/lastmile_qr_scan", "android": "https://dc.lft.to/lastmile_qr_scan"}, "type": "electric_scooter", "fusion_lat": 0.0, "lon": -77.00895933333334}, {"fusion_lon": 0.0, "bike_id": "e14bb4dcb074066172f7bf5965452c12", "is_disabled": 0, "is_reserved": 0, "lat": 38.90379, "name": "e14bb4dcb074066172f7bf5965452c12", "rental_uris": {"ios": "https://dc.lft.to/lastmile_qr_scan", "android": "https://dc.lft.to/lastmile_qr_scan"}, "type": "electric_scooter", "fusion_lat": 0.0, "lon": -77.0504305}, {"fusion_lon": 0.0, "bike_id": "b9e85c3500a7e7c7bb431de2dcac4fa3", "is_disabled": 0, "is_reserved": 0, "lat": 38.94199416666667, "name": "b9e85c3500a7e7c7bb431de2dcac4fa3", "rental_uris": {"ios": "https://dc.lft.to/lastmile_qr_scan", "android": "https://dc.lft.to/lastmile_qr_scan"}, "type": "electric_scooter", "fusion_lat": 0.0, "lon": -77.02506583333333}, {"fusion_lon": 0.0, "bike_id": "55a9251729fb7867aca5a8a1a3534220", "is_disabled": 0, "is_reserved": 0, "lat": 38.90844716666667, "name": "55a9251729fb7867aca5a8a1a3534220", "rental_uris": {"ios": "https://dc.lft.to/lastmile_qr_scan", "android": "https://dc.lft.to/lastmile_qr_scan"}, "type": "electric_scooter", "fusion_lat": 0.0, "lon": -77.041696}, {"fusion_lon": 0.0, "bike_id": "a706d3e879575bb0466f57d01adcb6a2", "is_disabled": 0, "is_reserved": 0, "lat": 38.9169325, "name": "a706d3e879575bb0466f57d01adcb6a2", "rental_uris": {"ios": "https://dc.lft.to/lastmile_qr_scan", "android": "https://dc.lft.to/lastmile_qr_scan"}, "type": "electric_scooter", "fusion_lat": 0.0, "lon": -77.02725133333334}, {"fusion_lon": 0.0, "bike_id": "a53e7685cb20aad80836ef842f91dede", "is_disabled": 0, "is_reserved": 0, "lat": 38.9169395, "name": "a53e7685cb20aad80836ef842f91dede", "rental_uris": {"ios": "https://dc.lft.to/lastmile_qr_scan", "android": "https://dc.lft.to/lastmile_qr_scan"}, "type": "electric_scooter", "fusion_lat": 0.0, "lon": -77.02723783333333}, {"fusion_lon": 0.0, "bike_id": "ff23c87a8e192aa8685f4e717af1e9a0", "is_disabled": 0, "is_reserved": 0, "lat": 38.90002716666667, "name": "ff23c87a8e192aa8685f4e717af1e9a0", "rental_uris": {"ios": "https://dc.lft.to/lastmile_qr_scan", "android": "https://dc.lft.to/lastmile_qr_scan"}, "type": "electric_scooter", "fusion_lat": 0.0, "lon": -77.02210716666667}, {"fusion_lon": 0.0, "bike_id": "77092605b2b49925f00917d39ca48d54", "is_disabled": 0, "is_reserved": 0, "lat": 39.025186, "name": "77092605b2b49925f00917d39ca48d54", "rental_uris": {"ios": "https://dc.lft.to/lastmile_qr_scan", "android": "https://dc.lft.to/lastmile_qr_scan"}, "type": "electric_bike", "fusion_lat": 0.0, "lon": -77.01968283333333}, {"fusion_lon": 0.0, "bike_id": "38aaddb78fedc050288dd1e0fe70f1cc", "is_disabled": 0, "is_reserved": 0, "lat": 38.924727833333336, "name": "38aaddb78fedc050288dd1e0fe70f1cc", "rental_uris": {"ios": "https://dc.lft.to/lastmile_qr_scan", "android": "https://dc.lft.to/lastmile_qr_scan"}, "type": "electric_scooter", "fusion_lat": 0.0, "lon": -77.0221805}, {"fusion_lon": 0.0, "bike_id": "96ab8fd929b75b80d9c3e9b45190da6a", "is_disabled": 0, "is_reserved": 0, "lat": 38.86672866666667, "name": "96ab8fd929b75b80d9c3e9b45190da6a", "rental_uris": {"ios": "https://dc.lft.to/lastmile_qr_scan", "android": "https://dc.lft.to/lastmile_qr_scan"}, "type": "electric_scooter", "fusion_lat": 0.0, "lon": -76.9851915}, {"fusion_lon": 0.0, "bike_id": "346aed781780c3f5786329e6d20f2dd7", "is_disabled": 0, "is_reserved": 0, "lat": 38.89243233333333, "name": "346aed781780c3f5786329e6d20f2dd7", "rental_uris": {"ios": "https://dc.lft.to/lastmile_qr_scan", "android": "https://dc.lft.to/lastmile_qr_scan"}, "type": "electric_scooter", "fusion_lat": 0.0, "lon": -77.03191733333334}, {"fusion_lon": 0.0, "bike_id": "f9890e5d372d322ca1845fa329f43cca", "is_disabled": 0, "is_reserved": 0, "lat": 38.88782966666667, "name": "f9890e5d372d322ca1845fa329f43cca", "rental_uris": {"ios": "https://dc.lft.to/lastmile_qr_scan", "android": "https://dc.lft.to/lastmile_qr_scan"}, "type": "electric_scooter", "fusion_lat": 0.0, "lon": -76.95531883333334}, {"fusion_lon": 0.0, "bike_id": "5cec36efefc87fbc156e6ece7579422b", "is_disabled": 0, "is_reserved": 0, "lat": 38.92577283333333, "name": "5cec36efefc87fbc156e6ece7579422b", "rental_uris": {"ios": "https://dc.lft.to/lastmile_qr_scan", "android": "https://dc.lft.to/lastmile_qr_scan"}, "type": "electric_scooter", "fusion_lat": 0.0, "lon": -77.02810466666666}, {"fusion_lon": 0.0, "bike_id": "59047d94ce8b73ff9431fabd5908e286", "is_disabled": 0, "is_reserved": 0, "lat": 39.085068, "name": "59047d94ce8b73ff9431fabd5908e286", "rental_uris": {"ios": "https://dc.lft.to/lastmile_qr_scan", "android": "https://dc.lft.to/lastmile_qr_scan"}, "type": "electric_bike", "fusion_lat": 0.0, "lon": -76.950619}, {"fusion_lon": 0.0, "bike_id": "50d6f7a49bc742a064ce72035105e949", "is_disabled": 0, "is_reserved": 0, "lat": 38.9211405, "name": "50d6f7a49bc742a064ce72035105e949", "rental_uris": {"ios": "https://dc.lft.to/lastmile_qr_scan", "android": "https://dc.lft.to/lastmile_qr_scan"}, "type": "electric_scooter", "fusion_lat": 0.0, "lon": -77.04204716666666}, {"fusion_lon": 0.0, "bike_id": "9f1627fa9c7e668032504bfe37e79a50", "is_disabled": 0, "is_reserved": 0, "lat": 38.86748716666666, "name": "9f1627fa9c7e668032504bfe37e79a50", "rental_uris": {"ios": "https://dc.lft.to/lastmile_qr_scan", "android": "https://dc.lft.to/lastmile_qr_scan"}, "type": "electric_scooter", "fusion_lat": 0.0, "lon": -77.00146083333334}, {"fusion_lon": 0.0, "bike_id": "3f5bb0e124721333f36f55575a9928e2", "is_disabled": 0, "is_reserved": 0, "lat": 38.887420166666665, "name": "3f5bb0e124721333f36f55575a9928e2", "rental_uris": {"ios": "https://dc.lft.to/lastmile_qr_scan", "android": "https://dc.lft.to/lastmile_qr_scan"}, "type": "electric_scooter", "fusion_lat": 0.0, "lon": -77.0032085}, {"fusion_lon": 0.0, "bike_id": "e9572c9c0229d63c4ed424c7d11984a1", "is_disabled": 0, "is_reserved": 0, "lat": 38.91756983333333, "name": "e9572c9c0229d63c4ed424c7d11984a1", "rental_uris": {"ios": "https://dc.lft.to/lastmile_qr_scan", "android": "https://dc.lft.to/lastmile_qr_scan"}, "type": "electric_scooter", "fusion_lat": 0.0, "lon": -77.0281395}, {"fusion_lon": 0.0, "bike_id": "960615f0415534d8502a8a4a216c3517", "is_disabled": 0, "is_reserved": 0, "lat": 38.967309166666666, "name": "960615f0415534d8502a8a4a216c3517", "rental_uris": {"ios": "https://dc.lft.to/lastmile_qr_scan", "android": "https://dc.lft.to/lastmile_qr_scan"}, "type": "electric_bike", "fusion_lat": 0.0, "lon": -77.08908483333333}, {"fusion_lon": 0.0, "bike_id": "90e7b3a0cab6c626a030cf119631b77f", "is_disabled": 0, "is_reserved": 0, "lat": 38.936840833333335, "name": "90e7b3a0cab6c626a030cf119631b77f", "rental_uris": {"ios": "https://dc.lft.to/lastmile_qr_scan", "android": "https://dc.lft.to/lastmile_qr_scan"}, "type": "electric_scooter", "fusion_lat": 0.0, "lon": -77.06623366666666}, {"fusion_lon": 0.0, "bike_id": "7f0ca52d9cf5a7ef0133f8d6bc27cf1b", "is_disabled": 0, "is_reserved": 0, "lat": 38.920325, "name": "7f0ca52d9cf5a7ef0133f8d6bc27cf1b", "rental_uris": {"ios": "https://dc.lft.to/lastmile_qr_scan", "android": "https://dc.lft.to/lastmile_qr_scan"}, "type": "electric_scooter", "fusion_lat": 0.0, "lon": -77.04185733333334}, {"fusion_lon": 0.0, "bike_id": "56f37d9990d6b1a4c71b0ed54f0b33a1", "is_disabled": 0, "is_reserved": 0, "lat": 38.8876525, "name": "56f37d9990d6b1a4c71b0ed54f0b33a1", "rental_uris": {"ios": "https://dc.lft.to/lastmile_qr_scan", "android": "https://dc.lft.to/lastmile_qr_scan"}, "type": "electric_scooter", "fusion_lat": 0.0, "lon": -77.00051966666666}, {"fusion_lon": 0.0, "bike_id": "0fd612dd19089330ceca6ff29c172520", "is_disabled": 0, "is_reserved": 0, "lat": 38.9222765, "name": "0fd612dd19089330ceca6ff29c172520", "rental_uris": {"ios": "https://dc.lft.to/lastmile_qr_scan", "android": "https://dc.lft.to/lastmile_qr_scan"}, "type": "electric_scooter", "fusion_lat": 0.0, "lon": -77.02826083333333}, {"fusion_lon": 0.0, "bike_id": "71949cbd449aac43c0a0f435d9443a04", "is_disabled": 0, "is_reserved": 0, "lat": 38.83581916666667, "name": "71949cbd449aac43c0a0f435d9443a04", "rental_uris": {"ios": "https://dc.lft.to/lastmile_qr_scan", "android": "https://dc.lft.to/lastmile_qr_scan"}, "type": "electric_bike", "fusion_lat": 0.0, "lon": -76.99014616666666}, {"fusion_lon": 0.0, "bike_id": "fde8608f919c7cda23450abcac8da399", "is_disabled": 0, "is_reserved": 0, "lat": 38.895819333333336, "name": "fde8608f919c7cda23450abcac8da399", "rental_uris": {"ios": "https://dc.lft.to/lastmile_qr_scan", "android": "https://dc.lft.to/lastmile_qr_scan"}, "type": "electric_scooter", "fusion_lat": 0.0, "lon": -77.02961683333334}, {"fusion_lon": 0.0, "bike_id": "03045c5fd684750b01c9b90e56c9e25c", "is_disabled": 0, "is_reserved": 0, "lat": 38.88246633333333, "name": "03045c5fd684750b01c9b90e56c9e25c", "rental_uris": {"ios": "https://dc.lft.to/lastmile_qr_scan", "android": "https://dc.lft.to/lastmile_qr_scan"}, "type": "electric_bike", "fusion_lat": 0.0, "lon": -76.96258183333333}, {"fusion_lon": 0.0, "bike_id": "5abe08f78eca309eb34fdc90997bfc66", "is_disabled": 0, "is_reserved": 0, "lat": 38.914515, "name": "5abe08f78eca309eb34fdc90997bfc66", "rental_uris": {"ios": "https://dc.lft.to/lastmile_qr_scan", "android": "https://dc.lft.to/lastmile_qr_scan"}, "type": "electric_bike", "fusion_lat": 0.0, "lon": -76.97235083333334}, {"fusion_lon": 0.0, "bike_id": "079b6130a28cac63af9eba1541686cb6", "is_disabled": 0, "is_reserved": 0, "lat": 38.93260266666667, "name": "079b6130a28cac63af9eba1541686cb6", "rental_uris": {"ios": "https://dc.lft.to/lastmile_qr_scan", "android": "https://dc.lft.to/lastmile_qr_scan"}, "type": "electric_scooter", "fusion_lat": 0.0, "lon": -76.98876533333333}, {"fusion_lon": 0.0, "bike_id": "7fad6b96d5e014b147492e7029aa4701", "is_disabled": 0, "is_reserved": 0, "lat": 38.887701666666665, "name": "7fad6b96d5e014b147492e7029aa4701", "rental_uris": {"ios": "https://dc.lft.to/lastmile_qr_scan", "android": "https://dc.lft.to/lastmile_qr_scan"}, "type": "electric_scooter", "fusion_lat": 0.0, "lon": -76.9773095}, {"fusion_lon": 0.0, "bike_id": "b03bfb2d3a53b39fc84e85bceee054d6", "is_disabled": 0, "is_reserved": 0, "lat": 38.89711166666667, "name": "b03bfb2d3a53b39fc84e85bceee054d6", "rental_uris": {"ios": "https://dc.lft.to/lastmile_qr_scan", "android": "https://dc.lft.to/lastmile_qr_scan"}, "type": "electric_bike", "fusion_lat": 0.0, "lon": -77.00702483333333}, {"fusion_lon": 0.0, "bike_id": "fe80df65d607a2d8c4d3a6543a44149f", "is_disabled": 0, "is_reserved": 0, "lat": 38.881464333333334, "name": "fe80df65d607a2d8c4d3a6543a44149f", "rental_uris": {"ios": "https://dc.lft.to/lastmile_qr_scan", "android": "https://dc.lft.to/lastmile_qr_scan"}, "type": "electric_bike", "fusion_lat": 0.0, "lon": -77.01306066666666}, {"fusion_lon": 0.0, "bike_id": "570ca125c90c9f22c321818c82e0d896", "is_disabled": 0, "is_reserved": 0, "lat": 38.9212075, "name": "570ca125c90c9f22c321818c82e0d896", "rental_uris": {"ios": "https://dc.lft.to/lastmile_qr_scan", "android": "https://dc.lft.to/lastmile_qr_scan"}, "type": "electric_scooter", "fusion_lat": 0.0, "lon": -77.03657583333333}, {"fusion_lon": 0.0, "bike_id": "6a8d64f239471a3c22283d8d0c5fd8f8", "is_disabled": 0, "is_reserved": 0, "lat": 38.90289533333333, "name": "6a8d64f239471a3c22283d8d0c5fd8f8", "rental_uris": {"ios": "https://dc.lft.to/lastmile_qr_scan", "android": "https://dc.lft.to/lastmile_qr_scan"}, "type": "electric_scooter", "fusion_lat": 0.0, "lon": -77.0466245}, {"fusion_lon": 0.0, "bike_id": "d6262df0ec8cb148144551c74fac246e", "is_disabled": 0, "is_reserved": 0, "lat": 38.918187333333336, "name": "d6262df0ec8cb148144551c74fac246e", "rental_uris": {"ios": "https://dc.lft.to/lastmile_qr_scan", "android": "https://dc.lft.to/lastmile_qr_scan"}, "type": "electric_scooter", "fusion_lat": 0.0, "lon": -77.024756}, {"fusion_lon": 0.0, "bike_id": "98c3a86b265967a1db1fdf0ca72eb1cf", "is_disabled": 0, "is_reserved": 0, "lat": 38.95354416666667, "name": "98c3a86b265967a1db1fdf0ca72eb1cf", "rental_uris": {"ios": "https://dc.lft.to/lastmile_qr_scan", "android": "https://dc.lft.to/lastmile_qr_scan"}, "type": "electric_bike", "fusion_lat": 0.0, "lon": -76.98093083333333}, {"fusion_lon": 0.0, "bike_id": "9db3b3aba160120f9c9e33623f8f76b9", "is_disabled": 0, "is_reserved": 0, "lat": 38.90863816666667, "name": "9db3b3aba160120f9c9e33623f8f76b9", "rental_uris": {"ios": "https://dc.lft.to/lastmile_qr_scan", "android": "https://dc.lft.to/lastmile_qr_scan"}, "type": "electric_scooter", "fusion_lat": 0.0, "lon": -77.0183755}, {"fusion_lon": 0.0, "bike_id": "484bb341c95b44bc18b13a3fceee7a9e", "is_disabled": 0, "is_reserved": 0, "lat": 38.89492466666667, "name": "484bb341c95b44bc18b13a3fceee7a9e", "rental_uris": {"ios": "https://dc.lft.to/lastmile_qr_scan", "android": "https://dc.lft.to/lastmile_qr_scan"}, "type": "electric_scooter", "fusion_lat": 0.0, "lon": -77.055083}, {"fusion_lon": 0.0, "bike_id": "2bac07a19f669d297f538a1e062e4454", "is_disabled": 0, "is_reserved": 0, "lat": 38.8923975, "name": "2bac07a19f669d297f538a1e062e4454", "rental_uris": {"ios": "https://dc.lft.to/lastmile_qr_scan", "android": "https://dc.lft.to/lastmile_qr_scan"}, "type": "electric_scooter", "fusion_lat": 0.0, "lon": -77.0318575}, {"fusion_lon": 0.0, "bike_id": "c23bbb0f81e79f43bafd5f48d50f65bc", "is_disabled": 0, "is_reserved": 0, "lat": 38.8916485, "name": "c23bbb0f81e79f43bafd5f48d50f65bc", "rental_uris": {"ios": "https://dc.lft.to/lastmile_qr_scan", "android": "https://dc.lft.to/lastmile_qr_scan"}, "type": "electric_scooter", "fusion_lat": 0.0, "lon": -76.99149033333333},