{"data": {"bikes": [{"lat": 38.90730466666667, "fusion_lat": 0.0, "is_disabled": 0, "fusion_lon": 0.0, "type": "electric_bike", "bike_id": "e1174f4db4c565b52da6fd7e1c1769dd", "is_reserved": 0, "rental_uris": {"ios": "https://dc.lft.to/lastmile_qr_scan", "android": "https://dc.lft.to/lastmile_qr_scan"}, "name": "e1174f4db4c565b52da6fd7e1c1769dd", "lon": -77.00319866666666}, {"lat": 38.911073333333334, "fusion_lat": 0.0, "is_disabled": 0, "fusion_lon": 0.0, "type": "electric_scooter", "bike_id": "36200c306aceb0b65e06c516364e730f", "is_reserved": 0, "rental_uris": {"ios": "https://dc.lft.to/lastmile_qr_scan", "android": "https://dc.lft.to/lastmile_qr_scan"}, "name": "36200c306aceb0b65e06c516364e730f", "lon": -77.01155766666666}, {"lat": 38.918133, "fusion_lat": 0.0, "is_disabled": 0, "fusion_lon": 0.0, "type": "electric_scooter", "bike_id": "7ecf2ddc1ed7477778f8a4d31acbb424", "is_reserved": 0, "rental_uris": {"ios": "https://dc.lft.to/lastmile_qr_scan", "android": "https://dc.lft.to/lastmile_qr_scan"}, "name": "7ecf2ddc1ed7477778f8a4d31acbb424", "lon": -77.02682416666667}, {"lat": 38.9677855, "fusion_lat": 0.0, "is_disabled": 0, "fusion_lon": 0.0, "type": "electric_bike", "bike_id": "ce0e4ba5af11ca0752487f6b7c986088", "is_reserved": 0, "rental_uris": {"ios": "https://dc.lft.to/lastmile_qr_scan", "android": "https://dc.lft.to/lastmile_qr_scan"}, "name": "ce0e4ba5af11ca0752487f6b7c986088", "lon": -76.99649616666666}, {"lat": 38.89973783333333, "fusion_lat": 0.0, "is_disabled": 0, "fusion_lon": 0.0, "type": "electric_scooter", "bike_id": "5d8f982a524d93397c5d9449b8bbd36b", "is_reserved": 0, "rental_uris": {"ios": "https://dc.lft.to/lastmile_qr_scan", "android": "https://dc.lft.to/lastmile_qr_scan"}, "name": "5d8f982a524d93397c5d9449b8bbd36b", "lon": -76.99485233333333}, {"lat": 38.9111025, "fusion_lat": 0.0, "is_disabled": 0, "fusion_lon": 0.0, "type": "electric_scooter", "bike_id": "ae57e78ad0bf9ac3edd3c74ae81a263e", "is_reserved": 0, "rental_uris": {"ios": "https://dc.lft.to/lastmile_qr_scan", "android": "https://dc.lft.to/lastmile_qr_scan"}, "name": "ae57e78ad0bf9ac3edd3c74ae81a263e", "lon": -77.03833583333333}, {"lat": 38.928459, "fusion_lat": 0.0, "is_disabled": 0, "fusion_lon": 0.0, "type": "electric_scooter", "bike_id": "66c7fbfdc2351f3a27ede08b9c63835b", "is_reserved": 0, "rental_uris": {"ios": "https://dc.lft.to/lastmile_qr_scan", "android": "https://dc.lft.to/lastmile_qr_scan"}, "name": "66c7fbfdc2351f3a27ede08b9c63835b", "lon": -77.0544385}, {"lat": 38.877497, "fusion_lat": 0.0, "is_disabled": 0, "fusion_lon": 0.0, "type": "electric_scooter", "bike_id": "02a47448ccd7ca012ac4d9169b554798", "is_reserved": 0, "rental_uris": {"ios": "https://dc.lft.to/lastmile_qr_scan", "android": "https://dc.lft.to/lastmile_qr_scan"}, "name": "02a47448ccd7ca012ac4d9169b554798", "lon": -77.0188295}, {"lat": 38.966823, "fusion_lat": 0.0, "is_disabled": 0, "fusion_lon": 0.0, "type": "electric_scooter", "bike_id": "b030ef45686f2c53df2ba2d1a30d9f49", "is_reserved": 0, "rental_uris": {"ios": "https://dc.lft.to/lastmile_qr_scan", "android": "https://dc.lft.to/lastmile_qr_scan"}, "name": "b030ef45686f2c53df2ba2d1a30d9f49", "lon": -77.03401183333334}, {"lat": 38.88176933333333, "fusion_lat": 0.0, "is_disabled": 0, "fusion_lon": 0.0, "type": "electric_scooter", "bike_id": "afba1a83c0b14d627f3bf6bc01e704ac", "is_reserved": 0, "rental_uris": {"ios": "https://dc.lft.to/lastmile_qr_scan", "android": "https://dc.lft.to/lastmile_qr_scan"}, "name": "afba1a83c0b14d627f3bf6bc01e704ac", "lon": -77.0175685}, {"lat": 38.9016815, "fusion_lat": 0.0, "is_disabled": 0, "fusion_lon": 0.0, "type": "electric_scooter", "bike_id": "3cf27589afd01eda9b10a9d2e600d029", "is_reserved": 0, "rental_uris": {"ios": "https://dc.lft.to/lastmile_qr_scan", "android": "https://dc.lft.to/lastmile_qr_scan"}, "name": "3cf27589afd01eda9b10a9d2e600d029", "lon": -77.05137033333334}, {"lat": 38.895445, "fusion_lat": 0.0, "is_disabled": 0, "fusion_lon": 0.0, "type": "electric_scooter", "bike_id": "3385f5174040b2d522f63e6a7669aeb0", "is_reserved": 0, "rental_uris": {"ios": "https://dc.lft.to/lastmile_qr_scan", "android": "https://dc.lft.to/lastmile_qr_scan"}, "name": "3385f5174040b2d522f63e6a7669aeb0", "lon": -76.98339133333333}, {"lat": 38.91569716666667, "fusion_lat": 0.0, "is_disabled": 0, "fusion_lon": 0.0, "type": "electric_scooter", "bike_id": "2f8e06206ccb8b70af082acc91e08154", "is_reserved": 0, "rental_uris": {"ios": "https://dc.lft.to/lastmile_qr_scan", "android": "https://dc.lft.to/lastmile_qr_scan"}, "name": "2f8e06206ccb8b70af082acc91e08154", "lon": -77.0318385}, {"lat": 38.9171305, "fusion_lat": 0.0, "is_disabled": 0, "fusion_lon": 0.0, "type": "electric_scooter", "bike_id": "1e7e3e5b434f3d4f6e775f9988833840", "is_reserved": 0, "rental_uris": {"ios": "https://dc.lft.to/lastmile_qr_scan", "android": "https://dc.lft.to/lastmile_qr_scan"}, "name": "1e7e3e5b434f3d4f6e775f9988833840", "lon": -77.03216816666666}, {"lat": 38.909586, "fusion_lat": 0.0, "is_disabled": 0, "fusion_lon": 0.0, "type": "electric_scooter", "bike_id": "da5a98cfe399233e77e90f364d051596", "is_reserved": 0, "rental_uris": {"ios": "https://dc.lft.to/lastmile_qr_scan", "android": "https://dc.lft.to/lastmile_qr_scan"}, "name": "da5a98cfe399233e77e90f364d051596", "lon": -77.02410716666667}, {"lat": 38.92295466666667, "fusion_lat": 0.0, "is_disabled": 0, "fusion_lon": 0.0, "type": "electric_scooter", "bike_id": "bebfde540669218034aaaf35aef644ae", "is_reserved": 0, "rental_uris": {"ios": "https://dc.lft.to/lastmile_qr_scan", "android": "https://dc.lft.to/lastmile_qr_scan"}, "name": "bebfde540669218034aaaf35aef644ae", "lon": -77.03201133333333}, {"lat": 38.90348216666667, "fusion_lat": 0.0, "is_disabled": 0, "fusion_lon": 0.0, "type": "electric_scooter", "bike_id": "9018579548070eeee46d97157ac7ddea", "is_reserved": 0, "rental_uris": {"ios": "https://dc.lft.to/lastmile_qr_scan", "android": "https://dc.lft.to/lastmile_qr_scan"}, "name": "9018579548070eeee46d97157ac7ddea", "lon": -77.027069}, {"lat": 38.9192165, "fusion_lat": 0.0, "is_disabled": 0, "fusion_lon": 0.0, "type": "electric_scooter", "bike_id": "5088da4bd600eda210216561e588cffb", "is_reserved": 0, "rental_uris": {"ios": "https://dc.lft.to/lastmile_qr_scan", "android": "https://dc.lft.to/lastmile_qr_scan"}, "name": "5088da4bd600eda210216561e588cffb", "lon": -77.0806335}, {"lat": 38.922469, "fusion_lat": 0.0, "is_disabled": 0, "fusion_lon": 0.0, "type": "electric_scooter", "bike_id": "f069f266688b350c5569ded00236a661", "is_reserved": 0, "rental_uris": {"ios": "https://dc.lft.to/lastmile_qr_scan", "android": "https://dc.lft.to/lastmile_qr_scan"}, "name": "f069f266688b350c5569ded00236a661", "lon": -77.01950633333334}, {"lat": 38.8997415, "fusion_lat": 0.0, "is_disabled": 0, "fusion_lon": 0.0, "type": "electric_scooter", "bike_id": "3442924497e0e974deba4d761b4a3e8d", "is_reserved": 0, "rental_uris": {"ios": "https://dc.lft.to/lastmile_qr_scan", "android": "https://dc.lft.to/lastmile_qr_scan"}, "name": "3442924497e0e974deba4d761b4a3e8d", "lon": -77.04194066666666}, {"lat": 38.89716966666667, "fusion_lat": 0.0, "is_disabled": 0, "fusion_lon": 0.0, "type": "electric_scooter", "bike_id": "7bfb6dcb1012e3dc2aa11da15069db0c", "is_reserved": 0, "rental_uris": {"ios": "https://dc.lft.to/lastmile_qr_scan", "android": "https://dc.lft.to/lastmile_qr_scan"}, "name": "7bfb6dcb1012e3dc2aa11da15069db0c", "lon": -77.007941}, {"lat": 38.92604583333333, "fusion_lat": 0.0, "is_disabled": 0, "fusion_lon": 0.0, "type": "electric_scooter", "bike_id": "6997baeb377e1b2975cee645ac9a565b", "is_reserved": 0, "rental_uris": {"ios": "https://dc.lft.to/lastmile_qr_scan", "android": "https://dc.lft.to/lastmile_qr_scan"}, "name": "6997baeb377e1b2975cee645ac9a565b", "lon": -77.02693583333334}, {"lat": 38.9615505, "fusion_lat": 0.0, "is_disabled": 0, "fusion_lon": 0.0, "type": "electric_bike", "bike_id": "04d320a8bee2c40b48788cd53a838138", "is_reserved": 0, "rental_uris": {"ios": "https://dc.lft.to/lastmile_qr_scan", "android": "https://dc.lft.to/lastmile_qr_scan"}, "name": "04d320a8bee2c40b48788cd53a838138", "lon": -77.03242716666666}, {"lat": 38.92528933333333, "fusion_lat": 0.0, "is_disabled": 0, "fusion_lon": 0.0, "type": "electric_scooter", "bike_id": "17b7240a55ce7e993e6dab1c8abd20af", "is_reserved": 0, "rental_uris": {"ios": "https://dc.lft.to/lastmile_qr_scan", "android": "https://dc.lft.to/lastmile_qr_scan"}, "name": "17b7240a55ce7e993e6dab1c8abd20af", "lon": -77.03441266666667}, {"lat": 38.933229833333336, "fusion_lat": 0.0, "is_disabled": 0, "fusion_lon": 0.0, "type": "electric_scooter", "bike_id": "70b2040eb9815c8177acdeacd81172cd", "is_reserved": 0, "rental_uris": {"ios": "https://dc.lft.to/lastmile_qr_scan", "android": "https://dc.lft.to/lastmile_qr_scan"}, "name": "70b2040eb9815c8177acdeacd81172cd", "lon": -77.0344135}, {"lat": 38.916888666666665, "fusion_lat": 0.0, "is_disabled": 0, "fusion_lon": 0.0, "type": "electric_scooter", "bike_id": "4d2dd12cfab45200ffbfe77f579437c4", "is_reserved": 0, "rental_uris": {"ios": "https://dc.lft.to/lastmile_qr_scan", "android": "https://dc.lft.to/lastmile_qr_scan"}, "name": "4d2dd12cfab45200ffbfe77f579437c4", "lon": -77.037695}, {"lat": 38.89885483333333, "fusion_lat": 0.0, "is_disabled": 0, "fusion_lon": 0.0, "type": "electric_scooter", "bike_id": "c222b14d2d866077f99c98baeb7b1417", "is_reserved": 0, "rental_uris": {"ios": "https://dc.lft.to/lastmile_qr_scan", "android": "https://dc.lft.to/lastmile_qr_scan"}, "name": "c222b14d2d866077f99c98baeb7b1417", "lon": -76.93174233333333}, {"lat": 38.944721, "fusion_lat": 0.0, "is_disabled": 0, "fusion_lon": 0.0, "type": "electric_scooter", "bike_id": "97d48373814b12659d8b9660ac975041", "is_reserved": 0, "rental_uris": {"ios": "https://dc.lft.to/lastmile_qr_scan", "android": "https://dc.lft.to/lastmile_qr_scan"}, "name": "97d48373814b12659d8b9660ac975041", "lon": -77.02319183333333}, {"lat": 38.897239166666665, "fusion_lat": 0.0, "is_disabled": 0, "fusion_lon": 0.0, "type": "electric_scooter", "bike_id": "a7f79c76858d2f215190b6ee36841c7b", "is_reserved": 0, "rental_uris": {"ios": "https://dc.lft.to/lastmile_qr_scan", "android": "https://dc.lft.to/lastmile_qr_scan"}, "name": "a7f79c76858d2f215190b6ee36841c7b", "lon": -77.01912966666667}, {"lat": 38.95606266666667, "fusion_lat": 0.0, "is_disabled": 0, "fusion_lon": 0.0, "type": "electric_scooter", "bike_id": "d769527be8ccafe210bd4e1815434486", "is_reserved": 0, "rental_uris": {"ios": "https://dc.lft.to/lastmile_qr_scan", "android": "https://dc.lft.to/lastmile_qr_scan"}, "name": "d769527be8ccafe210bd4e1815434486", "lon": -77.08038966666666}, {"lat": 38.967346666666664, "fusion_lat": 0.0, "is_disabled": 0, "fusion_lon": 0.0, "type": "electric_bike", "bike_id": "898d6c7818adeb2aa0d05b1244c76e73", "is_reserved": 0, "rental_uris": {"ios": "https://dc.lft.to/lastmile_qr_scan", "android": "https://dc.lft.to/lastmile_qr_scan"}, "name": "898d6c7818adeb2aa0d05b1244c76e73", "lon": -76.96048083333334}, {"lat": 38.932420666666665, "fusion_lat": 0.0, "is_disabled": 0, "fusion_lon": 0.0, "type": "electric_scooter", "bike_id": "3f10ca085b7f9d134ca2d227435b9cfd", "is_reserved": 0, "rental_uris": {"ios": "https://dc.lft.to/lastmile_qr_scan", "android": "https://dc.lft.to/lastmile_qr_scan"}, "name": "3f10ca085b7f9d134ca2d227435b9cfd", "lon": -77.03273233333333}, {"lat": 38.97367216666667, "fusion_lat": 0.0, "is_disabled": 0, "fusion_lon": 0.0, "type": "electric_scooter", "bike_id": "3fa9c7eda130605d554c4a0a5bb7d345", "is_reserved": 0, "rental_uris": {"ios": "https://dc.lft.to/lastmile_qr_scan", "android": "https://dc.lft.to/lastmile_qr_scan"}, "name": "3fa9c7eda130605d554c4a0a5bb7d345", "lon": -77.0186735}, {"lat": 38.90734783333333, "fusion_lat": 0.0, "is_disabled": 0, "fusion_lon": 0.0, "type": "electric_scooter", "bike_id": "f6eac91c40e88668820757482e647162", "is_reserved": 0, "rental_uris": {"ios": "https://dc.lft.to/lastmile_qr_scan", "android": "https://dc.lft.to/lastmile_qr_scan"}, "name": "f6eac91c40e88668820757482e647162", "lon": -77.02182}, {"lat": 38.934923833333336, "fusion_lat": 0.0, "is_disabled": 0, "fusion_lon": 0.0, "type": "electric_scooter", "bike_id": "8f660eb2ed329c1f5fea5417061a4653", "is_reserved": 0, "rental_uris": {"ios": "https://dc.lft.to/lastmile_qr_scan", "android": "https://dc.lft.to/lastmile_qr_scan"}, "name": "8f660eb2ed329c1f5fea5417061a4653", "lon": -77.03333966666666}, {"lat": 38.91878966666667, "fusion_lat": 0.0, "is_disabled": 0, "fusion_lon": 0.0, "type": "electric_scooter", "bike_id": "d099c4e0bd3e2589dc143e511ef3d5fe", "is_reserved": 0, "rental_uris": {"ios": "https://dc.lft.to/lastmile_qr_scan", "android": "https://dc.lft.to/lastmile_qr_scan"}, "name": "d099c4e0bd3e2589dc143e511ef3d5fe", "lon": -77.03501816666666}, {"lat": 38.9326845, "fusion_lat": 0.0, "is_disabled": 0, "fusion_lon": 0.0, "type": "electric_scooter", "bike_id": "7af54b374b827e4985a652fd03271af8", "is_reserved": 0, "rental_uris": {"ios": "https://dc.lft.to/lastmile_qr_scan", "android": "https://dc.lft.to/lastmile_qr_scan"}, "name": "7af54b374b827e4985a652fd03271af8", "lon": -77.03485333333333}, {"lat": 38.908868166666664, "fusion_lat": 0.0, "is_disabled": 0, "fusion_lon": 0.0, "type": "electric_scooter", "bike_id": "71d7a48da8be7d3d0977acd908e3bd62", "is_reserved": 0, "rental_uris": {"ios": "https://dc.lft.to/lastmile_qr_scan", "android": "https://dc.lft.to/lastmile_qr_scan"}, "name": "71d7a48da8be7d3d0977acd908e3bd62", "lon": -77.045028}, {"lat": 38.976055333333335, "fusion_lat": 0.0, "is_disabled": 0, "fusion_lon": 0.0, "type": "electric_scooter", "bike_id": "30c8f3690e90fd729409500333546634", "is_reserved": 0, "rental_uris": {"ios": "https://dc.lft.to/lastmile_qr_scan", "android": "https://dc.lft.to/lastmile_qr_scan"}, "name": "30c8f3690e90fd729409500333546634", "lon": -77.02654233333334}, {"lat": 38.9288935, "fusion_lat": 0.0, "is_disabled": 0, "fusion_lon": 0.0, "type": "electric_scooter", "bike_id": "6f742f8e76687e2b95c3ced7df02c418", "is_reserved": 0, "rental_uris": {"ios": "https://dc.lft.to/lastmile_qr_scan", "android": "https://dc.lft.to/lastmile_qr_scan"}, "name": "6f742f8e76687e2b95c3ced7df02c418", "lon": -77.02261383333334}, {"lat": 38.918068833333336, "fusion_lat": 0.0, "is_disabled": 0, "fusion_lon": 0.0, "type": "electric_scooter", "bike_id": "37f2daac62b9d7c2a87a8137c12b10d9", "is_reserved": 0, "rental_uris": {"ios": "https://dc.lft.to/lastmile_qr_scan", "android": "https://dc.lft.to/lastmile_qr_scan"}, "name": "37f2daac62b9d7c2a87a8137c12b10d9", "lon": -77.0244945}, {"lat": 38.9276865, "fusion_lat": 0.0, "is_disabled": 0, "fusion_lon": 0.0, "type": "electric_scooter", "bike_id": "c95ff1b1d91fdf9c710ac678395598a2", "is_reserved": 0, "rental_uris": {"ios": "https://dc.lft.to/lastmile_qr_scan", "android": "https://dc.lft.to/lastmile_qr_scan"}, "name": "c95ff1b1d91fdf9c710ac678395598a2", "lon": -77.02050483333333}, {"lat": 38.91556216666667, "fusion_lat": 0.0, "is_disabled": 0, "fusion_lon": 0.0, "type": "electric_scooter", "bike_id": "a3c67dd9563ab7c74a94ba849fa0ef08", "is_reserved": 0, "rental_uris": {"ios": "https://dc.lft.to/lastmile_qr_scan", "android": "https://dc.lft.to/lastmile_qr_scan"}, "name": "a3c67dd9563ab7c74a94ba849fa0ef08", "lon": -77.01201983333333}, {"lat": 38.90127783333333, "fusion_lat": 0.0, "is_disabled": 0, "fusion_lon": 0.0, "type": "electric_scooter", "bike_id": "9e5fbddbeb55df8561faa35ed977412f", "is_reserved": 0, "rental_uris": {"ios": "https://dc.lft.to/lastmile_qr_scan", "android": "https://dc.lft.to/lastmile_qr_scan"}, "name": "9e5fbddbeb55df8561faa35ed977412f", "lon": -77.04343166666666}, {"lat": 38.92456166666667, "fusion_lat": 0.0, "is_disabled": 0, "fusion_lon": 0.0, "type": "electric_scooter", "bike_id": "90da9510e61938f5667e53fb26169249", "is_reserved": 0, "rental_uris": {"ios": "https://dc.lft.to/lastmile_qr_scan", "android": "https://dc.lft.to/lastmile_qr_scan"}, "name": "90da9510e61938f5667e53fb26169249", "lon": -77.02200066666667}, {"lat": 38.90066183333333, "fusion_lat": 0.0, "is_disabled": 0, "fusion_lon": 0.0, "type": "electric_scooter", "bike_id": "66f9162d75affe9e0fcc87f6adf06ff9", "is_reserved": 0, "rental_uris": {"ios": "https://dc.lft.to/lastmile_qr_scan", "android": "https://dc.lft.to/lastmile_qr_scan"}, "name": "66f9162d75affe9e0fcc87f6adf06ff9", "lon": -77.0474315}, {"lat": 38.93341933333333, "fusion_lat": 0.0, "is_disabled": 0, "fusion_lon": 0.0, "type": "electric_scooter", "bike_id": "ff40a3ee7c676b3520621c8fde1dfafb", "is_reserved": 0, "rental_uris": {"ios": "https://dc.lft.to/lastmile_qr_scan", "android": "https://dc.lft.to/lastmile_qr_scan"}, "name": "ff40a3ee7c676b3520621c8fde1dfafb", "lon": -77.0274605}, {"lat": 38.91277766666666, "fusion_lat": 0.0, "is_disabled": 0, "fusion_lon": 0.0, "type": "electric_scooter", "bike_id": "8cfae9b9692b5b33959724d6faefeaa7", "is_reserved": 0, "rental_uris": {"ios": "https://dc.lft.to/lastmile_qr_scan", "android": "https://dc.lft.to/lastmile_qr_scan"}, "name": "8cfae9b9692b5b33959724d6faefeaa7", "lon": -77.06793633333334}, {"lat": 38.87163566666667, "fusion_lat": 0.0, "is_disabled": 0, "fusion_lon": 0.0, "type": "electric_scooter", "bike_id": "e92a61da6aef66b3830127b90d205a8f", "is_reserved": 0, "rental_uris": {"ios": "https://dc.lft.to/lastmile_qr_scan", "android": "https://dc.lft.to/lastmile_qr_scan"}, "name": "e92a61da6aef66b3830127b90d205a8f", "lon": -77.00641833333333}, {"lat": 38.884791166666666, "fusion_lat": 0.0, "is_disabled": 0, "fusion_lon": 0.0, "type": "electric_scooter", "bike_id": "f9a2631c4b391524e576a48ae30d2e8d", "is_reserved": 0, "rental_uris": {"ios": "https://dc.lft.to/lastmile_qr_scan", "android": "https://dc.lft.to/lastmile_qr_scan"}, "name": "f9a2631c4b391524e576a48ae30d2e8d", "lon": -77.0334895}, {"lat": 38.901583, "fusion_lat": 0.0, "is_disabled": 0, "fusion_lon": 0.0, "type": "electric_scooter", "bike_id": "b573ba34dacf3aea2f288f4f13c6e86c", "is_reserved": 0, "rental_uris": {"ios": "https://dc.lft.to/lastmile_qr_scan", "android": "https://dc.lft.to/lastmile_qr_scan"}, "name": "b573ba34dacf3aea2f288f4f13c6e86c", "lon": -77.02216016666667}, {"lat": 38.887674, "fusion_lat": 0.0, "is_disabled": 0, "fusion_lon": 0.0, "type": "electric_scooter", "bike_id": "0dfec63029508df97b91454abae70659", "is_reserved": 0, "rental_uris": {"ios": "https://dc.lft.to/lastmile_qr_scan", "android": "https://dc.lft.to/lastmile_qr_scan"}, "name": "0dfec63029508df97b91454abae70659", "lon": -76.97731183333333}, {"lat": 38.87671683333333, "fusion_lat": 0.0, "is_disabled": 0, "fusion_lon": 0.0, "type": "electric_scooter", "bike_id": "cb878d9b033055f8f296b07421aafc14", "is_reserved": 0, "rental_uris": {"ios": "https://dc.lft.to/lastmile_qr_scan", "android": "https://dc.lft.to/lastmile_qr_scan"}, "name": "cb878d9b033055f8f296b07421aafc14", "lon": -77.00357983333333}, {"lat": 38.912609, "fusion_lat": 0.0, "is_disabled": 0, "fusion_lon": 0.0, "type": "electric_scooter", "bike_id": "8873dcb4c9141faf49353df648608be2", "is_reserved": 0, "rental_uris": {"ios": "https://dc.lft.to/lastmile_qr_scan", "android": "https://dc.lft.to/lastmile_qr_scan"}, "name": "8873dcb4c9141faf49353df648608be2", "lon": -77.0477135}, {"lat": 38.887641, "fusion_lat": 0.0, "is_disabled": 0, "fusion_lon": 0.0, "type": "electric_scooter", "bike_id": "1a09fd8bfe663f39010169d782a45b27", "is_reserved": 0, "rental_uris": {"ios": "https://dc.lft.to/lastmile_qr_scan", "android": "https://dc.lft.to/lastmile_qr_scan"}, "name": "1a09fd8bfe663f39010169d782a45b27", "lon": -76.97728783333334}, {"lat": 38.8991165, "fusion_lat": 0.0, "is_disabled": 0, "fusion_lon": 0.0, "type": "electric_scooter", "bike_id": "f27ca89978ff1869310ae63909a47103", "is_reserved": 0, "rental_uris": {"ios": "https://dc.lft.to/lastmile_qr_scan", "android": "https://dc.lft.to/lastmile_qr_scan"}, "name": "f27ca89978ff1869310ae63909a47103", "lon": -76.93386883333334}, {"lat": 38.9180985, "fusion_lat": 0.0, "is_disabled": 0, "fusion_lon": 0.0, "type": "electric_scooter", "bike_id": "9ae5b533581c89731b7762704bce3913", "is_reserved": 0, "rental_uris": {"ios": "https://dc.lft.to/lastmile_qr_scan", "android": "https://dc.lft.to/lastmile_qr_scan"}, "name": "9ae5b533581c89731b7762704bce3913", "lon": -77.02688266666667}, {"lat": 38.9038315, "fusion_lat": 0.0, "is_disabled": 0, "fusion_lon": 0.0, "type": "electric_scooter", "bike_id": "1728f0e4366e67eb7f32152ce36dff76", "is_reserved": 0, "rental_uris": {"ios": "https://dc.lft.to/lastmile_qr_scan", "android": "https://dc.lft.to/lastmile_qr_scan"}, "name": "1728f0e4366e67eb7f32152ce36dff76", "lon": -77.0610835}, {"lat": 38.907328166666666, "fusion_lat": 0.0, "is_disabled": 0, "fusion_lon": 0.0, "type": "electric_scooter", "bike_id": "8da510ad078bb76dee4cf0dd17d5179c", "is_reserved": 0, "rental_uris": {"ios": "https://dc.lft.to/lastmile_qr_scan", "android": "https://dc.lft.to/lastmile_qr_scan"}, "name": "8da510ad078bb76dee4cf0dd17d5179c", "lon": -77.04159216666666}, {"lat": 38.94447383333333, "fusion_lat": 0.0, "is_disabled": 0, "fusion_lon": 0.0, "type": "electric_scooter", "bike_id": "b64bafd2327284213716a249a31a17f1", "is_reserved": 0, "rental_uris": {"ios": "https://dc.lft.to/lastmile_qr_scan", "android": "https://dc.lft.to/lastmile_qr_scan"}, "name": "b64bafd2327284213716a249a31a17f1", "lon": -77.02801266666667}, {"lat": 38.905314833333335, "fusion_lat": 0.0, "is_disabled": 0, "fusion_lon": 0.0, "type": "electric_scooter", "bike_id": "f233fc8376523eae635964581d5f837c", "is_reserved": 0, "rental_uris": {"ios": "https://dc.lft.to/lastmile_qr_scan", "android": "https://dc.lft.to/lastmile_qr_scan"}, "name": "f233fc8376523eae635964581d5f837c", "lon": -77.05033416666667}, {"lat": 38.90655266666667, "fusion_lat": 0.0, "is_disabled": 0, "fusion_lon": 0.0, "type": "electric_scooter", "bike_id": "821a3899cbfb251347a3920415963afd", "is_reserved": 0, "rental_uris": {"ios": "https://dc.lft.to/lastmile_qr_scan", "android": "https://dc.lft.to/lastmile_qr_scan"}, "name": "821a3899cbfb251347a3920415963afd", "lon": -77.01409666666666}, {"lat": 38.922345166666666, "fusion_lat": 0.0, "is_disabled": 0, "fusion_lon": 0.0, "type": "electric_scooter", "bike_id": "c06ef34cbbd1b4cf18a3408b88a90138", "is_reserved": 0, "rental_uris": {"ios": "https://dc.lft.to/lastmile_qr_scan", "android": "https://dc.lft.to/lastmile_qr_scan"}, "name": "c06ef34cbbd1b4cf18a3408b88a90138", "lon": -77.033505}, {"lat": 38.90018366666666, "fusion_lat": 0.0, "is_disabled": 0, "fusion_lon": 0.0, "type": "electric_scooter", "bike_id": "2abf3a07ed77d53f9ed3ccd066c94cde", "is_reserved": 0, "rental_uris": {"ios": "https://dc.lft.to/lastmile_qr_scan", "android": "https://dc.lft.to/lastmile_qr_scan"}, "name": "2abf3a07ed77d53f9ed3ccd066c94cde", "lon": -77.044779}, {"lat": 38.936866333333334, "fusion_lat": 0.0, "is_disabled": 0, "fusion_lon": 0.0, "type": "electric_bike", "bike_id": "5eee6751ea22b1e06ebefe5ffb49962c", "is_reserved": 0, "rental_uris": {"ios": "https://dc.lft.to/lastmile_qr_scan", "android": "https://dc.lft.to/lastmile_qr_scan"}, "name": "5eee6751ea22b1e06ebefe5ffb49962c", "lon": -76.99059683333333}, {"lat": 38.8955805, "fusion_lat": 0.0, "is_disabled": 0, "fusion_lon": 0.0, "type": "electric_scooter", "bike_id": "429b84c2024cbbe96e0b9a79bbdf53d5", "is_reserved": 0, "rental_uris": {"ios": "https://dc.lft.to/lastmile_qr_scan", "android": "https://dc.lft.to/lastmile_qr_scan"}, "name": "429b84c2024cbbe96e0b9a79bbdf53d5", "lon": -77.04675883333333}, {"lat": 38.90961216666667, "fusion_lat": 0.0, "is_disabled": 0, "fusion_lon": 0.0, "type": "electric_scooter", "bike_id": "3cb5819fc1b497ee206f26cf288f3ac1", "is_reserved": 0, "rental_uris": {"ios": "https://dc.lft.to/lastmile_qr_scan", "android": "https://dc.lft.to/lastmile_qr_scan"}, "name": "3cb5819fc1b497ee206f26cf288f3ac1", "lon": -77.02411916666667}, {"lat": 38.815367, "fusion_lat": 0.0, "is_disabled": 0, "fusion_lon": 0.0, "type": "electric_bike", "bike_id": "4c61eb2f47058d7d024f582205f60a52", "is_reserved": 0, "rental_uris": {"ios": "https://dc.lft.to/lastmile_qr_scan", "android": "https://dc.lft.to/lastmile_qr_scan"}, "name": "4c61eb2f47058d7d024f582205f60a52", "lon": -77.04640233333333}, {"lat": 38.901579, "fusion_lat": 0.0, "is_disabled": 0, "fusion_lon": 0.0, "type": "electric_scooter", "bike_id": "caa2b1de545bc415d4247120d3826f77", "is_reserved": 0, "rental_uris": {"ios": "https://dc.lft.to/lastmile_qr_scan", "android": "https://dc.lft.to/lastmile_qr_scan"}, "name": "caa2b1de545bc415d4247120d3826f77", "lon": -77.02223633333334}, {"lat": 38.89723683333333, "fusion_lat": 0.0, "is_disabled": 0, "fusion_lon": 0.0, "type": "electric_scooter", "bike_id": "2e757cd1bbc2c53100e194b4488912f6", "is_reserved": 0, "rental_uris": {"ios": "https://dc.lft.to/lastmile_qr_scan", "android": "https://dc.lft.to/lastmile_qr_scan"}, "name": "2e757cd1bbc2c53100e194b4488912f6", "lon": -76.978592}, {"lat": 38.932482, "fusion_lat": 0.0, "is_disabled": 0, "fusion_lon": 0.0, "type": "electric_scooter", "bike_id": "c69aeb89201c419eb50dce6eedd7a1ab", "is_reserved": 0, "rental_uris": {"ios": "https://dc.lft.to/lastmile_qr_scan", "android": "https://dc.lft.to/lastmile_qr_scan"}, "name": "c69aeb89201c419eb50dce6eedd7a1ab", "lon": -77.032794}, {"lat": 38.900727, "fusion_lat": 0.0, "is_disabled": 0, "fusion_lon": 0.0, "type": "electric_scooter", "bike_id": "43e4dd8d01ec243200043ddf9c821917", "is_reserved": 0, "rental_uris": {"ios": "https://dc.lft.to/lastmile_qr_scan", "android": "https://dc.lft.to/lastmile_qr_scan"}, "name": "43e4dd8d01ec243200043ddf9c821917", "lon": -77.0272115}, {"lat": 38.9254555, "fusion_lat": 0.0, "is_disabled": 0, "fusion_lon": 0.0, "type": "electric_scooter", "bike_id": "87584d3e60a021d29fd328272448de01", "is_reserved": 0, "rental_uris": {"ios": "https://dc.lft.to/lastmile_qr_scan", "android": "https://dc.lft.to/lastmile_qr_scan"}, "name": "87584d3e60a021d29fd328272448de01", "lon": -77.0417475}, {"lat": 38.905499166666665, "fusion_lat": 0.0, "is_disabled": 0, "fusion_lon": 0.0, "type": "electric_scooter", "bike_id": "7b3bf7dab51b6949e1ddecd7fe8e68d5", "is_reserved": 0, "rental_uris": {"ios": "https://dc.lft.to/lastmile_qr_scan", "android": "https://dc.lft.to/lastmile_qr_scan"}, "name": "7b3bf7dab51b6949e1ddecd7fe8e68d5", "lon": -77.02809483333333}, {"lat": 38.923114166666664, "fusion_lat": 0.0, "is_disabled": 0, "fusion_lon": 0.0, "type": "electric_bike", "bike_id": "9407fffb9946aa3dcf277d27d57714b2", "is_reserved": 0, "rental_uris": {"ios": "https://dc.lft.to/lastmile_qr_scan", "android": "https://dc.lft.to/lastmile_qr_scan"}, "name": "9407fffb9946aa3dcf277d27d57714b2", "lon": -77.07516566666666}, {"lat": 38.900227666666666, "fusion_lat": 0.0, "is_disabled": 0, "fusion_lon": 0.0, "type": "electric_scooter", "bike_id": "abfa47f27872e849cab8567c2b20edbe", "is_reserved": 0, "rental_uris": {"ios": "https://dc.lft.to/lastmile_qr_scan", "android": "https://dc.lft.to/lastmile_qr_scan"}, "name": "abfa47f27872e849cab8567c2b20edbe", "lon": -76.998652}, {"lat": 38.8717115, "fusion_lat": 0.0, "is_disabled": 0, "fusion_lon": 0.0, "type": "electric_bike", "bike_id": "b9786fae7cc42d539da4dee989aa2383", "is_reserved": 0, "rental_uris": {"ios": "https://dc.lft.to/lastmile_qr_scan", "android": "https://dc.lft.to/lastmile_qr_scan"}, "name": "b9786fae7cc42d539da4dee989aa2383", "lon": -77.2339525}, {"lat": 39.010732, "fusion_lat": 0.0, "is_disabled": 0, "fusion_lon": 0.0, "type": "electric_bike", "bike_id": "8857775fdfea447745073ae981bcff6e", "is_reserved": 0, "rental_uris": {"ios": "https://dc.lft.to/lastmile_qr_scan", "android": "https://dc.lft.to/lastmile_qr_scan"}, "name": "8857775fdfea447745073ae981bcff6e", "lon": -76.910656}, {"lat": 38.872798333333336, "fusion_lat": 0.0, "is_disabled": 0, "fusion_lon": 0.0, "type": "electric_scooter", "bike_id": "cbe35a2bdd1085b7ca729f1cdecdfe52", "is_reserved": 0, "rental_uris": {"ios": "https://dc.lft.to/lastmile_qr_scan", "android": "https://dc.lft.to/lastmile_qr_scan"}, "name": "cbe35a2bdd1085b7ca729f1cdecdfe52", "lon": -77.01523516666667}, {"lat": 38.9126415, "fusion_lat": 0.0, "is_disabled": 0, "fusion_lon": 0.0, "type": "electric_scooter", "bike_id": "ebb432f1a472224d574f8ac7d3eb0dc0", "is_reserved": 0, "rental_uris": {"ios": "https://dc.lft.to/lastmile_qr_scan", "android": "https://dc.lft.to/lastmile_qr_scan"}, "name": "ebb432f1a472224d574f8ac7d3eb0dc0", "lon": -77.03871133333334}, {"lat": 38.9238615, "fusion_lat": 0.0, "is_disabled": 0, "fusion_lon": 0.0, "type": "electric_scooter", "bike_id": "c13e23adbbe0d62cc0054d6f27dd1a0a", "is_reserved": 0, "rental_uris": {"ios": "https://dc.lft.to/lastmile_qr_scan", "android": "https://dc.lft.to/lastmile_qr_scan"}, "name": "c13e23adbbe0d62cc0054d6f27dd1a0a", "lon": -77.05179333333334}, {"lat": 38.923891, "fusion_lat": 0.0, "is_disabled": 0, "fusion_lon": 0.0, "type": "electric_scooter", "bike_id": "f836feb431dd3b9f2027280dbcfeea0a", "is_reserved": 0, "rental_uris": {"ios": "https://dc.lft.to/lastmile_qr_scan", "android": "https://dc.lft.to/lastmile_qr_scan"}, "name": "f836feb431dd3b9f2027280dbcfeea0a", "lon": -77.02546183333334}, {"lat": 38.906396, "fusion_lat": 0.0, "is_disabled": 0, "fusion_lon": 0.0, "type": "electric_scooter", "bike_id": "b5998c63adab225ede259dacb0233ef9", "is_reserved": 0, "rental_uris": {"ios": "https://dc.lft.to/lastmile_qr_scan", "android": "https://dc.lft.to/lastmile_qr_scan"}, "name": "b5998c63adab225ede259dacb0233ef9", "lon": -77.05309166666666}, {"lat": 38.91109683333333, "fusion_lat": 0.0, "is_disabled": 0, "fusion_lon": 0.0, "type": "electric_scooter", "bike_id": "286e9db7a4735bbd01d574ef7b087b61", "is_reserved": 0, "rental_uris": {"ios": "https://dc.lft.to/lastmile_qr_scan", "android": "https://dc.lft.to/lastmile_qr_scan"}, "name": "286e9db7a4735bbd01d574ef7b087b61", "lon": -77.00605933333334}, {"lat": 38.87660233333333, "fusion_lat": 0.0, "is_disabled": 0, "fusion_lon": 0.0, "type": "electric_scooter", "bike_id": "66919aaaad80a5e90e4a889417b1f371", "is_reserved": 0, "rental_uris": {"ios": "https://dc.lft.to/lastmile_qr_scan", "android": "https://dc.lft.to/lastmile_qr_scan"}, "name": "66919aaaad80a5e90e4a889417b1f371", "lon": -77.0006385}, {"lat": 38.89545433333333, "fusion_lat": 0.0, "is_disabled": 0, "fusion_lon": 0.0, "type": "electric_scooter", "bike_id": "94b387ea0108c0d3848d8b9686a4ac29", "is_reserved": 0, "rental_uris": {"ios": "https://dc.lft.to/lastmile_qr_scan", "android": "https://dc.lft.to/lastmile_qr_scan"}, "name": "94b387ea0108c0d3848d8b9686a4ac29", "lon": -76.98339516666667}, {"lat": 38.807359, "fusion_lat": 0.0, "is_disabled": 0, "fusion_lon": 0.0, "type": "electric_bike", "bike_id": "d4ebb181300c4b1bdc77ac56d12cc579", "is_reserved": 0, "rental_uris": {"ios": "https://dc.lft.to/lastmile_qr_scan", "android": "https://dc.lft.to/lastmile_qr_scan"}, "name": "d4ebb181300c4b1bdc77ac56d12cc579", "lon": -77.09684883333334}, {"lat": 38.89852166666667, "fusion_lat": 0.0, "is_disabled": 0, "fusion_lon": 0.0, "type": "electric_scooter", "bike_id": "3f0104a27e411f942ad49fd6131f9bac", "is_reserved": 0, "rental_uris": {"ios": "https://dc.lft.to/lastmile_qr_scan", "android": "https://dc.lft.to/lastmile_qr_scan"}, "name": "3f0104a27e411f942ad49fd6131f9bac", "lon": -77.0217375}, {"lat": 38.923152, "fusion_lat": 0.0, "is_disabled": 0, "fusion_lon": 0.0, "type": "electric_scooter", "bike_id": "4fc47fa88b4c70ee6490db70ff71210d", "is_reserved": 0, "rental_uris": {"ios": "https://dc.lft.to/lastmile_qr_scan", "android": "https://dc.lft.to/lastmile_qr_scan"}, "name": "4fc47fa88b4c70ee6490db70ff71210d", "lon": -77.0380515}, {"lat": 38.895401166666666, "fusion_lat": 0.0, "is_disabled": 0, "fusion_lon": 0.0, "type": "electric_scooter", "bike_id": "7cd80305c1d4b61537c5072a6a63ce55", "is_reserved": 0, "rental_uris": {"ios": "https://dc.lft.to/lastmile_qr_scan", "android": "https://dc.lft.to/lastmile_qr_scan"}, "name": "7cd80305c1d4b61537c5072a6a63ce55", "lon": -76.98341016666667}, {"lat": 38.9111675, "fusion_lat": 0.0, "is_disabled": 0, "fusion_lon": 0.0, "type": "electric_scooter", "bike_id": "b5ccdd59aba3738427683f17a016a7c8", "is_reserved": 0, "rental_uris": {"ios": "https://dc.lft.to/lastmile_qr_scan", "android": "https://dc.lft.to/lastmile_qr_scan"}, "name": "b5ccdd59aba3738427683f17a016a7c8", "lon": -77.03263966666667}, {"lat": 38.8994395, "fusion_lat": 0.0, "is_disabled": 0, "fusion_lon": 0.0, "type": "electric_scooter", "bike_id": "ebb05aa2ab5c563e550619132ba95910", "is_reserved": 0, "rental_uris": {"ios": "https://dc.lft.to/lastmile_qr_scan", "android": "https://dc.lft.to/lastmile_qr_scan"}, "name": "ebb05aa2ab5c563e550619132ba95910", "lon": -77.03978533333333}, {"lat": 38.951844, "fusion_lat": 0.0, "is_disabled": 0, "fusion_lon": 0.0, "type": "electric_bike", "bike_id": "cdf483f4bb236b905c9ff448a328a914", "is_reserved": 0, "rental_uris": {"ios": "https://dc.lft.to/lastmile_qr_scan", "android": "https://dc.lft.to/lastmile_qr_scan"}, "name": "cdf483f4bb236b905c9ff448a328a914", "lon": -76.93534633333333}, {"lat": 38.928529833333336, "fusion_lat": 0.0, "is_disabled": 0, "fusion_lon": 0.0, "type": "electric_scooter", "bike_id": "e5f808d4e396278cef54136769c365e9", "is_reserved": 0, "rental_uris": {"ios": "https://dc.lft.to/lastmile_qr_scan", "android": "https://dc.lft.to/lastmile_qr_scan"}, "name": "e5f808d4e396278cef54136769c365e9", "lon": -77.01399133333334}, {"lat": 38.92367933333333, "fusion_lat": 0.0, "is_disabled": 0, "fusion_lon": 0.0, "type": "electric_scooter", "bike_id": "3e43382ff23562f7eaff3c3c9b61ece7", "is_reserved": 0, "rental_uris": {"ios": "https://dc.lft.to/lastmile_qr_scan", "android": "https://dc.lft.to/lastmile_qr_scan"}, "name": "3e43382ff23562f7eaff3c3c9b61ece7", "lon": -77.080637}, {"lat": 38.94751766666667, "fusion_lat": 0.0, "is_disabled": 0, "fusion_lon": 0.0, "type": "electric_scooter", "bike_id": "ee6c414bb2990a59b7f3558e73f06e0a", "is_reserved": 0, "rental_uris": {"ios": "https://dc.lft.to/lastmile_qr_scan", "android": "https://dc.lft.to/lastmile_qr_scan"}, "name": "ee6c414bb2990a59b7f3558e73f06e0a", "lon": -77.0328445}, {"lat": 38.888729166666664, "fusion_lat": 0.0, "is_disabled": 0, "fusion_lon": 0.0, "type": "electric_scooter", "bike_id": "5490d1f3306c7d8c16fd7759c74657e9", "is_reserved": 0, "rental_uris": {"ios": "https://dc.lft.to/lastmile_qr_scan", "android": "https://dc.lft.to/lastmile_qr_scan"}, "name": "5490d1f3306c7d8c16fd7759c74657e9", "lon": -77.0000115}, {"lat": 38.900126, "fusion_lat": 0.0, "is_disabled": 0, "fusion_lon": 0.0, "type": "electric_scooter", "bike_id": "7d40f9dad7a77e67fd99a4afd132ba30", "is_reserved": 0, "rental_uris": {"ios": "https://dc.lft.to/lastmile_qr_scan", "android": "https://dc.lft.to/lastmile_qr_scan"}, "name": "7d40f9dad7a77e67fd99a4afd132ba30", "lon": -77.0450345}, {"lat": 38.90251816666667, "fusion_lat": 0.0, "is_disabled": 0, "fusion_lon": 0.0, "type": "electric_scooter", "bike_id": "59c11912d8ff6a835c1d94c163cb40b9", "is_reserved": 0, "rental_uris": {"ios": "https://dc.lft.to/lastmile_qr_scan", "android": "https://dc.lft.to/lastmile_qr_scan"}, "name": "59c11912d8ff6a835c1d94c163cb40b9", "lon": -77.01763433333333}, {"lat": 38.92021316666667, "fusion_lat": 0.0, "is_disabled": 0, "fusion_lon": 0.0, "type": "electric_scooter", "bike_id": "a2d9d7be625e4afc908ee1640e209b37", "is_reserved": 0, "rental_uris": {"ios": "https://dc.lft.to/lastmile_qr_scan", "android": "https://dc.lft.to/lastmile_qr_scan"}, "name": "a2d9d7be625e4afc908ee1640e209b37", "lon": -77.07130983333333}, {"lat": 38.895033166666664, "fusion_lat": 0.0, "is_disabled": 0, "fusion_lon": 0.0, "type": "electric_scooter", "bike_id": "e65c659e051363eb34990f3dc0f57f49", "is_reserved": 0, "rental_uris": {"ios": "https://dc.lft.to/lastmile_qr_scan", "android": "https://dc.lft.to/lastmile_qr_scan"}, "name": "e65c659e051363eb34990f3dc0f57f49", "lon": -77.02211383333334}, {"lat": 38.89478416666667, "fusion_lat": 0.0, "is_disabled": 0, "fusion_lon": 0.0, "type": "electric_scooter", "bike_id": "9fb051cacd311a37642eb6edf084561e", "is_reserved": 0, "rental_uris": {"ios": "https://dc.lft.to/lastmile_qr_scan", "android": "https://dc.lft.to/lastmile_qr_scan"}, "name": "9fb051cacd311a37642eb6edf084561e", "lon": -77.02287633333333}, {"lat": 38.946564, "fusion_lat": 0.0, "is_disabled": 0, "fusion_lon": 0.0, "type": "electric_bike", "bike_id": "485b5ff58abba5106c51c181815b984d", "is_reserved": 0, "rental_uris": {"ios": "https://dc.lft.to/lastmile_qr_scan", "android": "https://dc.lft.to/lastmile_qr_scan"}, "name": "485b5ff58abba5106c51c181815b984d", "lon": -77.06464116666666}, {"lat": 38.961222166666666, "fusion_lat": 0.0, "is_disabled": 0, "fusion_lon": 0.0, "type": "electric_bike", "bike_id": "596e5d9ad2724af3477ba4ac9f30f51b", "is_reserved": 0, "rental_uris": {"ios": "https://dc.lft.to/lastmile_qr_scan", "android": "https://dc.lft.to/lastmile_qr_scan"}, "name": "596e5d9ad2724af3477ba4ac9f30f51b", "lon": -77.03272133333333}, {"lat": 38.924751666666666, "fusion_lat": 0.0, "is_disabled": 0, "fusion_lon": 0.0, "type": "electric_scooter", "bike_id": "3fc89bbec1585b236853437f49d702d9", "is_reserved": 0, "rental_uris": {"ios": "https://dc.lft.to/lastmile_qr_scan", "android": "https://dc.lft.to/lastmile_qr_scan"}, "name": "3fc89bbec1585b236853437f49d702d9", "lon": -77.03497716666666}, {"lat": 38.8987795, "fusion_lat": 0.0, "is_disabled": 0, "fusion_lon": 0.0, "type": "electric_scooter", "bike_id": "3accfda55f1598af1ea4a2d895839272", "is_reserved": 0, "rental_uris": {"ios": "https://dc.lft.to/lastmile_qr_scan", "android": "https://dc.lft.to/lastmile_qr_scan"}, "name": "3accfda55f1598af1ea4a2d895839272", "lon": -77.02611683333333}, {"lat": 38.928313333333335, "fusion_lat": 0.0, "is_disabled": 0, "fusion_lon": 0.0, "type": "electric_scooter", "bike_id": "556d554561d6d7697706338a3edd9de6", "is_reserved": 0, "rental_uris": {"ios": "https://dc.lft.to/lastmile_qr_scan", "android": "https://dc.lft.to/lastmile_qr_scan"}, "name": "556d554561d6d7697706338a3edd9de6", "lon": -77.02157616666666}, {"lat": 38.927222, "fusion_lat": 0.0, "is_disabled": 0, "fusion_lon": 0.0, "type": "electric_scooter", "bike_id": "3b7c69301a5db53c93670c202ac98eee", "is_reserved": 0, "rental_uris": {"ios": "https://dc.lft.to/lastmile_qr_scan", "android": "https://dc.lft.to/lastmile_qr_scan"}, "name": "3b7c69301a5db53c93670c202ac98eee", "lon": -77.02279133333333}, {"lat": 38.899528333333336, "fusion_lat": 0.0, "is_disabled": 0, "fusion_lon": 0.0, "type": "electric_scooter", "bike_id": "1d8363f682f74d1b6312cb70e2ccbfd9", "is_reserved": 0, "rental_uris": {"ios": "https://dc.lft.to/lastmile_qr_scan", "android": "https://dc.lft.to/lastmile_qr_scan"}, "name": "1d8363f682f74d1b6312cb70e2ccbfd9", "lon": -77.04523816666666}, {"lat": 38.9397055, "fusion_lat": 0.0, "is_disabled": 0, "fusion_lon": 0.0, "type": "electric_scooter", "bike_id": "925a457591563b525162df0e311c3b6c", "is_reserved": 0, "rental_uris": {"ios": "https://dc.lft.to/lastmile_qr_scan", "android": "https://dc.lft.to/lastmile_qr_scan"}, "name": "925a457591563b525162df0e311c3b6c", "lon": -77.029513}, {"lat": 38.904881, "fusion_lat": 0.0, "is_disabled": 0, "fusion_lon": 0.0, "type": "electric_scooter", "bike_id": "9ec9edb44a925f5e657d2f5f65e4938d", "is_reserved": 0, "rental_uris": {"ios": "https://dc.lft.to/lastmile_qr_scan", "android": "https://dc.lft.to/lastmile_qr_scan"}, "name": "9ec9edb44a925f5e657d2f5f65e4938d", "lon": -77.0600685}, {"lat": 38.917236, "fusion_lat": 0.0, "is_disabled": 0, "fusion_lon": 0.0, "type": "electric_scooter", "bike_id": "6af558d8f6db1c33edca6bab95872d76", "is_reserved": 0, "rental_uris": {"ios": "https://dc.lft.to/lastmile_qr_scan", "android": "https://dc.lft.to/lastmile_qr_scan"}, "name": "6af558d8f6db1c33edca6bab95872d76", "lon": -77.01915566666666}, {"lat": 38.911900333333335, "fusion_lat": 0.0, "is_disabled": 0, "fusion_lon": 0.0, "type": "electric_scooter", "bike_id": "ed50fe93f4a7f46eccb0836df2cfb886", "is_reserved": 0, "rental_uris": {"ios": "https://dc.lft.to/lastmile_qr_scan", "android": "https://dc.lft.to/lastmile_qr_scan"}, "name": "ed50fe93f4a7f46eccb0836df2cfb886", "lon": -77.00785}, {"lat": 38.92273216666667, "fusion_lat": 0.0, "is_disabled": 0, "fusion_lon": 0.0, "type": "electric_scooter", "bike_id": "d154956fdc23ce2d4d72c84870489d98", "is_reserved": 0, "rental_uris": {"ios": "https://dc.lft.to/lastmile_qr_scan", "android": "https://dc.lft.to/lastmile_qr_scan"}, "name": "d154956fdc23ce2d4d72c84870489d98", "lon": -77.02125016666666}, {"lat": 38.90182, "fusion_lat": 0.0, "is_disabled": 0, "fusion_lon": 0.0, "type": "electric_scooter", "bike_id": "6016116288bca09883df6d1402e91d86", "is_reserved": 0, "rental_uris": {"ios": "https://dc.lft.to/lastmile_qr_scan", "android": "https://dc.lft.to/lastmile_qr_scan"}, "name": "6016116288bca09883df6d1402e91d86", "lon": -76.97665483333333}, {"lat": 38.902433333333335, "fusion_lat": 0.0, "is_disabled": 0, "fusion_lon": 0.0, "type": "electric_scooter", "bike_id": "cdc1d02c64475852dd024edd78928089", "is_reserved": 0, "rental_uris": {"ios": "https://dc.lft.to/lastmile_qr_scan", "android": "https://dc.lft.to/lastmile_qr_scan"}, "name": "cdc1d02c64475852dd024edd78928089", "lon": -77.0175905}, {"lat": 38.924214166666665, "fusion_lat": 0.0, "is_disabled": 0, "fusion_lon": 0.0, "type": "electric_scooter", "bike_id": "16f21e94d88b7efa1adb4642c38eef48", "is_reserved": 0, "rental_uris": {"ios": "https://dc.lft.to/lastmile_qr_scan", "android": "https://dc.lft.to/lastmile_qr_scan"}, "name": "16f21e94d88b7efa1adb4642c38eef48", "lon": -77.0403515}, {"lat": 38.943312666666664, "fusion_lat": 0.0, "is_disabled": 0, "fusion_lon": 0.0, "type": "electric_scooter", "bike_id": "64c1f80561009d50431e5c4e51a710e0", "is_reserved": 0, "rental_uris": {"ios": "https://dc.lft.to/lastmile_qr_scan", "android": "https://dc.lft.to/lastmile_qr_scan"}, "name": "64c1f80561009d50431e5c4e51a710e0", "lon": -77.03260066666667}, {"lat": 38.887102166666665, "fusion_lat": 0.0, "is_disabled": 0, "fusion_lon": 0.0, "type": "electric_scooter", "bike_id": "206fdef8e8054a774c64e027f8eaf7e9", "is_reserved": 0, "rental_uris": {"ios": "https://dc.lft.to/lastmile_qr_scan", "android": "https://dc.lft.to/lastmile_qr_scan"}, "name": "206fdef8e8054a774c64e027f8eaf7e9", "lon": -76.98387283333334}, {"lat": 38.91992616666667, "fusion_lat": 0.0, "is_disabled": 0, "fusion_lon": 0.0, "type": "electric_scooter", "bike_id": "75d32219b4743919f090625456477025", "is_reserved": 0, "rental_uris": {"ios": "https://dc.lft.to/lastmile_qr_scan", "android": "https://dc.lft.to/lastmile_qr_scan"}, "name": "75d32219b4743919f090625456477025", "lon": -77.021315}, {"lat": 38.900422, "fusion_lat": 0.0, "is_disabled": 0, "fusion_lon": 0.0, "type": "electric_scooter", "bike_id": "040029e65a9f261b85b368fc26f0a131", "is_reserved": 0, "rental_uris": {"ios": "https://dc.lft.to/lastmile_qr_scan", "android": "https://dc.lft.to/lastmile_qr_scan"}, "name": "040029e65a9f261b85b368fc26f0a131", "lon": -76.99140833333334}, {"lat": 38.91710166666667, "fusion_lat": 0.0, "is_disabled": 0, "fusion_lon": 0.0, "type": "electric_scooter", "bike_id": "5cb615513c8256bba7a73e3b16ddfeac", "is_reserved": 0, "rental_uris": {"ios": "https://dc.lft.to/lastmile_qr_scan", "android": "https://dc.lft.to/lastmile_qr_scan"}, "name": "5cb615513c8256bba7a73e3b16ddfeac", "lon": -76.97975866666667}, {"lat": 38.9024955, "fusion_lat": 0.0, "is_disabled": 0, "fusion_lon": 0.0, "type": "electric_scooter", "bike_id": "45fa481207f6fa7f30823fd021d57b43", "is_reserved": 0, "rental_uris": {"ios": "https://dc.lft.to/lastmile_qr_scan", "android": "https://dc.lft.to/lastmile_qr_scan"}, "name": "45fa481207f6fa7f30823fd021d57b43", "lon": -77.05159866666666}, {"lat": 38.923379, "fusion_lat": 0.0, "is_disabled": 0, "fusion_lon": 0.0, "type": "electric_scooter", "bike_id": "937d958e6b2eeeeb1d233a50f3574093", "is_reserved": 0, "rental_uris": {"ios": "https://dc.lft.to/lastmile_qr_scan", "android": "https://dc.lft.to/lastmile_qr_scan"}, "name": "937d958e6b2eeeeb1d233a50f3574093", "lon": -77.00917683333333}, {"lat": 38.83906983333333, "fusion_lat": 0.0, "is_disabled": 0, "fusion_lon": 0.0, "type": "electric_bike", "bike_id": "2984222f4e77f421147521e2b9561973", "is_reserved": 0, "rental_uris": {"ios": "https://dc.lft.to/lastmile_qr_scan", "android": "https://dc.lft.to/lastmile_qr_scan"}, "name": "2984222f4e77f421147521e2b9561973", "lon": -76.998419}, {"lat": 38.884316, "fusion_lat": 0.0, "is_disabled": 0, "fusion_lon": 0.0, "type": "electric_scooter", "bike_id": "dc895cd538e99be7f7485b6eb31ea179", "is_reserved": 0, "rental_uris": {"ios": "https://dc.lft.to/lastmile_qr_scan", "android": "https://dc.lft.to/lastmile_qr_scan"}, "name": "dc895cd538e99be7f7485b6eb31ea179", "lon": -77.0304145}, {"lat": 38.940316, "fusion_lat": 0.0, "is_disabled": 0, "fusion_lon": 0.0, "type": "electric_scooter", "bike_id": "aa11a510b81cfe2cab76d13d2ae81aca", "is_reserved": 0, "rental_uris": {"ios": "https://dc.lft.to/lastmile_qr_scan", "android": "https://dc.lft.to/lastmile_qr_scan"}, "name": "aa11a510b81cfe2cab76d13d2ae81aca", "lon": -77.08390083333333}, {"lat": 38.90705233333333, "fusion_lat": 0.0, "is_disabled": 0, "fusion_lon": 0.0, "type": "electric_scooter", "bike_id": "1db1fb4d4fb59c03b49937ec05082150", "is_reserved": 0, "rental_uris": {"ios": "https://dc.lft.to/lastmile_qr_scan", "android": "https://dc.lft.to/lastmile_qr_scan"}, "name": "1db1fb4d4fb59c03b49937ec05082150", "lon": -77.03213233333334}, {"lat": 38.94368516666667, "fusion_lat": 0.0, "is_disabled": 0, "fusion_lon": 0.0, "type": "electric_scooter", "bike_id": "404992e4d59056e4686a75d5c65c2b30", "is_reserved": 0, "rental_uris": {"ios": "https://dc.lft.to/lastmile_qr_scan", "android": "https://dc.lft.to/lastmile_qr_scan"}, "name": "404992e4d59056e4686a75d5c65c2b30", "lon": -77.02586266666667}, {"lat": 38.906046333333336, "fusion_lat": 0.0, "is_disabled": 0, "fusion_lon": 0.0, "type": "electric_scooter", "bike_id": "743e6e8a7d0bd08251dd32aa45a0b34e", "is_reserved": 0, "rental_uris": {"ios": "https://dc.lft.to/lastmile_qr_scan", "android": "https://dc.lft.to/lastmile_qr_scan"}, "name": "743e6e8a7d0bd08251dd32aa45a0b34e", "lon": -77.03243266666666}, {"lat": 38.92791733333333, "fusion_lat": 0.0, "is_disabled": 0, "fusion_lon": 0.0, "type": "electric_scooter", "bike_id": "54654ce17e958bb546ccb0d2dd6a4d8a", "is_reserved": 0, "rental_uris": {"ios": "https://dc.lft.to/lastmile_qr_scan", "android": "https://dc.lft.to/lastmile_qr_scan"}, "name": "54654ce17e958bb546ccb0d2dd6a4d8a", "lon": -77.036133}, {"lat": 38.9180485, "fusion_lat": 0.0, "is_disabled": 0, "fusion_lon": 0.0, "type": "electric_scooter", "bike_id": "b78125326a8f4b84607641f636b9b960", "is_reserved": 0, "rental_uris": {"ios": "https://dc.lft.to/lastmile_qr_scan", "android": "https://dc.lft.to/lastmile_qr_scan"}, "name": "b78125326a8f4b84607641f636b9b960", "lon": -77.03434766666666}, {"lat": 38.89716966666667, "fusion_lat": 0.0, "is_disabled": 0, "fusion_lon": 0.0, "type": "electric_scooter", "bike_id": "8b276ae369ac228da7f3be8e9e54d4c7", "is_reserved": 0, "rental_uris": {"ios": "https://dc.lft.to/lastmile_qr_scan", "android": "https://dc.lft.to/lastmile_qr_scan"}, "name": "8b276ae369ac228da7f3be8e9e54d4c7", "lon": -77.0220545}, {"lat": 38.91991016666667, "fusion_lat": 0.0, "is_disabled": 0, "fusion_lon": 0.0, "type": "electric_scooter", "bike_id": "8a353dc16ed904448ad866a87d251b76", "is_reserved": 0, "rental_uris": {"ios": "https://dc.lft.to/lastmile_qr_scan", "android": "https://dc.lft.to/lastmile_qr_scan"}, "name": "8a353dc16ed904448ad866a87d251b76", "lon": -77.01787816666666}, {"lat": 38.908022833333334, "fusion_lat": 0.0, "is_disabled": 0, "fusion_lon": 0.0, "type": "electric_scooter", "bike_id": "4e28700640ec1a3c2097e6d1efde8436", "is_reserved": 0, "rental_uris": {"ios": "https://dc.lft.to/lastmile_qr_scan", "android": "https://dc.lft.to/lastmile_qr_scan"}, "name": "4e28700640ec1a3c2097e6d1efde8436", "lon": -77.06370633333333}, {"lat": 38.92718683333333, "fusion_lat": 0.0, "is_disabled": 0, "fusion_lon": 0.0, "type": "electric_scooter", "bike_id": "905ac0371438cca0f67074c28604a60a", "is_reserved": 0, "rental_uris": {"ios": "https://dc.lft.to/lastmile_qr_scan", "android": "https://dc.lft.to/lastmile_qr_scan"}, "name": "905ac0371438cca0f67074c28604a60a", "lon": -77.02086166666666}, {"lat": 38.89727216666667, "fusion_lat": 0.0, "is_disabled": 0, "fusion_lon": 0.0, "type": "electric_scooter", "bike_id": "adc45ddc3569f26373771895e1014022", "is_reserved": 0, "rental_uris": {"ios": "https://dc.lft.to/lastmile_qr_scan", "android": "https://dc.lft.to/lastmile_qr_scan"}, "name": "adc45ddc3569f26373771895e1014022", "lon": -77.0499305}, {"lat": 38.93109316666666, "fusion_lat": 0.0, "is_disabled": 0, "fusion_lon": 0.0, "type": "electric_scooter", "bike_id": "c1f799f17b2d7f0d63edbe063bffd1f8", "is_reserved": 0, "rental_uris": {"ios": "https://dc.lft.to/lastmile_qr_scan", "android": "https://dc.lft.to/lastmile_qr_scan"}, "name": "c1f799f17b2d7f0d63edbe063bffd1f8", "lon": -77.0301365}, {"lat": 38.89556116666667, "fusion_lat": 0.0, "is_disabled": 0, "fusion_lon": 0.0, "type": "electric_scooter", "bike_id": "f213b9eb4977c4da052d7f21cb4946b5", "is_reserved": 0, "rental_uris": {"ios": "https://dc.lft.to/lastmile_qr_scan", "android": "https://dc.lft.to/lastmile_qr_scan"}, "name": "f213b9eb4977c4da052d7f21cb4946b5", "lon": -77.02201}, {"lat": 38.92411933333333, "fusion_lat": 0.0, "is_disabled": 0, "fusion_lon": 0.0, "type": "electric_scooter", "bike_id": "43259d327809757f696974485cbf39b2", "is_reserved": 0, "rental_uris": {"ios": "https://dc.lft.to/lastmile_qr_scan", "android": "https://dc.lft.to/lastmile_qr_scan"}, "name": "43259d327809757f696974485cbf39b2", "lon": -77.02008616666667}, {"lat": 38.931607666666665, "fusion_lat": 0.0, "is_disabled": 0, "fusion_lon": 0.0, "type": "electric_scooter", "bike_id": "224c67355654e6b288e966ceafaa3af3", "is_reserved": 0, "rental_uris": {"ios": "https://dc.lft.to/lastmile_qr_scan", "android": "https://dc.lft.to/lastmile_qr_scan"}, "name": "224c67355654e6b288e966ceafaa3af3", "lon": -77.056101}, {"lat": 38.91262016666667, "fusion_lat": 0.0, "is_disabled": 0, "fusion_lon": 0.0, "type": "electric_scooter", "bike_id": "26ae6a1dc86b971b99c75edbe92dd08d", "is_reserved": 0, "rental_uris": {"ios": "https://dc.lft.to/lastmile_qr_scan", "android": "https://dc.lft.to/lastmile_qr_scan"}, "name": "26ae6a1dc86b971b99c75edbe92dd08d", "lon": -77.03862633333334}, {"lat": 39.08426933333333, "fusion_lat": 0.0, "is_disabled": 0, "fusion_lon": 0.0, "type": "electric_bike", "bike_id": "6fe84a963c6c88397f6965da64837c33", "is_reserved": 0, "rental_uris": {"ios": "https://dc.lft.to/lastmile_qr_scan", "android": "https://dc.lft.to/lastmile_qr_scan"}, "name": "6fe84a963c6c88397f6965da64837c33", "lon": -76.9513675}, {"lat": 38.90908733333333, "fusion_lat": 0.0, "is_disabled": 0, "fusion_lon": 0.0, "type": "electric_scooter", "bike_id": "396165659647d4e5b99dd9babc19014a", "is_reserved": 0, "rental_uris": {"ios": "https://dc.lft.to/lastmile_qr_scan", "android": "https://dc.lft.to/lastmile_qr_scan"}, "name": "396165659647d4e5b99dd9babc19014a", "lon": -77.03666383333334}, {"lat": 38.9035875, "fusion_lat": 0.0, "is_disabled": 0, "fusion_lon": 0.0, "type": "electric_scooter", "bike_id": "0cf39ba29f8ab952e5c01b62219bf52b", "is_reserved": 0, "rental_uris": {"ios": "https://dc.lft.to/lastmile_qr_scan", "android": "https://dc.lft.to/lastmile_qr_scan"}, "name": "0cf39ba29f8ab952e5c01b62219bf52b", "lon": -77.02206816666667}, {"lat": 38.913669666666664, "fusion_lat": 0.0, "is_disabled": 0, "fusion_lon": 0.0, "type": "electric_scooter", "bike_id": "bf4b2a2927a055800a3f91bb2f878635", "is_reserved": 0, "rental_uris": {"ios": "https://dc.lft.to/lastmile_qr_scan", "android": "https://dc.lft.to/lastmile_qr_scan"}, "name": "bf4b2a2927a055800a3f91bb2f878635", "lon": -77.067126}, {"lat": 38.9004915, "fusion_lat": 0.0, "is_disabled": 0, "fusion_lon": 0.0, "type": "electric_scooter", "bike_id": "5fb547800aaaf9fc7228c726294c0149", "is_reserved": 0, "rental_uris": {"ios": "https://dc.lft.to/lastmile_qr_scan", "android": "https://dc.lft.to/lastmile_qr_scan"}, "name": "5fb547800aaaf9fc7228c726294c0149", "lon": -77.04481233333334}, {"lat": 38.90597983333333, "fusion_lat": 0.0, "is_disabled": 0, "fusion_lon": 0.0, "type": "electric_scooter", "bike_id": "34bb7a8210519c748d98b2e4e2c382a5", "is_reserved": 0, "rental_uris": {"ios": "https://dc.lft.to/lastmile_qr_scan", "android": "https://dc.lft.to/lastmile_qr_scan"}, "name": "34bb7a8210519c748d98b2e4e2c382a5", "lon": -77.02602816666666}, {"lat": 38.890070333333334, "fusion_lat": 0.0, "is_disabled": 0, "fusion_lon": 0.0, "type": "electric_scooter", "bike_id": "f537a011f16f4b3413e0c8bbc3aa4069", "is_reserved": 0, "rental_uris": {"ios": "https://dc.lft.to/lastmile_qr_scan", "android": "https://dc.lft.to/lastmile_qr_scan"}, "name": "f537a011f16f4b3413e0c8bbc3aa4069", "lon": -76.93741433333334}, {"lat": 38.90942866666666, "fusion_lat": 0.0, "is_disabled": 0, "fusion_lon": 0.0, "type": "electric_scooter", "bike_id": "ebd2f79606785bd60daa1cd47e4d5950", "is_reserved": 0, "rental_uris": {"ios": "https://dc.lft.to/lastmile_qr_scan", "android": "https://dc.lft.to/lastmile_qr_scan"}, "name": "ebd2f79606785bd60daa1cd47e4d5950", "lon": -76.93590233333333}, {"lat": 38.9241545, "fusion_lat": 0.0, "is_disabled": 0, "fusion_lon": 0.0, "type": "electric_scooter", "bike_id": "16c8649f254322fbd903f5954a9e72ed", "is_reserved": 0, "rental_uris": {"ios": "https://dc.lft.to/lastmile_qr_scan", "android": "https://dc.lft.to/lastmile_qr_scan"}, "name": "16c8649f254322fbd903f5954a9e72ed", "lon": -77.01955083333333}, {"lat": 38.865503, "fusion_lat": 0.0, "is_disabled": 0, "fusion_lon": 0.0, "type": "electric_bike", "bike_id": "555a3ce6d46a8274ac36e304fb80e3da", "is_reserved": 0, "rental_uris": {"ios": "https://dc.lft.to/lastmile_qr_scan", "android": "https://dc.lft.to/lastmile_qr_scan"}, "name": "555a3ce6d46a8274ac36e304fb80e3da", "lon": -76.94159383333333}, {"lat": 38.9113385, "fusion_lat": 0.0, "is_disabled": 0, "fusion_lon": 0.0, "type": "electric_scooter", "bike_id": "d77ba4cd8f1094f064c4031ba8f1d0b3", "is_reserved": 0, "rental_uris": {"ios": "https://dc.lft.to/lastmile_qr_scan", "android": "https://dc.lft.to/lastmile_qr_scan"}, "name": "d77ba4cd8f1094f064c4031ba8f1d0b3", "lon": -77.0279965}, {"lat": 38.8988615, "fusion_lat": 0.0, "is_disabled": 0, "fusion_lon": 0.0, "type": "electric_scooter", "bike_id": "aa392f62a34e53ac276c29d8bd85cd9a", "is_reserved": 0, "rental_uris": {"ios": "https://dc.lft.to/lastmile_qr_scan", "android": "https://dc.lft.to/lastmile_qr_scan"}, "name": "aa392f62a34e53ac276c29d8bd85cd9a", "lon": -76.931759}, {"lat": 38.916731166666665, "fusion_lat": 0.0, "is_disabled": 0, "fusion_lon": 0.0, "type": "electric_scooter", "bike_id": "50431dda983ac80fbfec50df05dedeed", "is_reserved": 0, "rental_uris": {"ios": "https://dc.lft.to/lastmile_qr_scan", "android": "https://dc.lft.to/lastmile_qr_scan"}, "name": "50431dda983ac80fbfec50df05dedeed", "lon": -77.03463216666667}, {"lat": 38.910686166666665, "fusion_lat": 0.0, "is_disabled": 0, "fusion_lon": 0.0, "type": "electric_scooter", "bike_id": "0e75695fd775a24b4e8cd9aedc932b56", "is_reserved": 0, "rental_uris": {"ios": "https://dc.lft.to/lastmile_qr_scan", "android": "https://dc.lft.to/lastmile_qr_scan"}, "name": "0e75695fd775a24b4e8cd9aedc932b56", "lon": -77.016191}, {"lat": 38.9071565, "fusion_lat": 0.0, "is_disabled": 0, "fusion_lon": 0.0, "type": "electric_scooter", "bike_id": "4486eba52d957ee0c882fc2ed24b0db4", "is_reserved": 0, "rental_uris": {"ios": "https://dc.lft.to/lastmile_qr_scan", "android": "https://dc.lft.to/lastmile_qr_scan"}, "name": "4486eba52d957ee0c882fc2ed24b0db4", "lon": -77.04367233333333}, {"lat": 38.9068655, "fusion_lat": 0.0, "is_disabled": 0, "fusion_lon": 0.0, "type": "electric_bike", "bike_id": "14b6ca0eb553ac9ae7ab8bbf80dba1dd", "is_reserved": 0, "rental_uris": {"ios": "https://dc.lft.to/lastmile_qr_scan", "android": "https://dc.lft.to/lastmile_qr_scan"}, "name": "14b6ca0eb553ac9ae7ab8bbf80dba1dd", "lon": -76.95256666666667}, {"lat": 38.913469666666664, "fusion_lat": 0.0, "is_disabled": 0, "fusion_lon": 0.0, "type": "electric_scooter", "bike_id": "718317408782e6f8845db136bbc86fae", "is_reserved": 0, "rental_uris": {"ios": "https://dc.lft.to/lastmile_qr_scan", "android": "https://dc.lft.to/lastmile_qr_scan"}, "name": "718317408782e6f8845db136bbc86fae", "lon": -77.01222283333334}, {"lat": 38.918898166666665, "fusion_lat": 0.0, "is_disabled": 0, "fusion_lon": 0.0, "type": "electric_scooter", "bike_id": "c3d52a3e4e52e9a2fb1fcf93ddc66b6f", "is_reserved": 0, "rental_uris": {"ios": "https://dc.lft.to/lastmile_qr_scan", "android": "https://dc.lft.to/lastmile_qr_scan"}, "name": "c3d52a3e4e52e9a2fb1fcf93ddc66b6f", "lon": -77.041256}, {"lat": 38.8990615, "fusion_lat": 0.0, "is_disabled": 0, "fusion_lon": 0.0, "type": "electric_scooter", "bike_id": "cfef447c3bff4963ac8ba5f11982d5b4", "is_reserved": 0, "rental_uris": {"ios": "https://dc.lft.to/lastmile_qr_scan", "android": "https://dc.lft.to/lastmile_qr_scan"}, "name": "cfef447c3bff4963ac8ba5f11982d5b4", "lon": -77.02971183333334}, {"lat": 38.907347, "fusion_lat": 0.0, "is_disabled": 0, "fusion_lon": 0.0, "type": "electric_scooter", "bike_id": "a0e3e8fb86f2748b246e0395252ffb50", "is_reserved": 0, "rental_uris": {"ios": "https://dc.lft.to/lastmile_qr_scan", "android": "https://dc.lft.to/lastmile_qr_scan"}, "name": "a0e3e8fb86f2748b246e0395252ffb50", "lon": -77.03697616666666}, {"lat": 38.930591666666665, "fusion_lat": 0.0, "is_disabled": 0, "fusion_lon": 0.0, "type": "electric_scooter", "bike_id": "e50e34968a9250e07b51a73a580c6701", "is_reserved": 0, "rental_uris": {"ios": "https://dc.lft.to/lastmile_qr_scan", "android": "https://dc.lft.to/lastmile_qr_scan"}, "name": "e50e34968a9250e07b51a73a580c6701", "lon": -77.02978383333334}, {"lat": 38.926077, "fusion_lat": 0.0, "is_disabled": 0, "fusion_lon": 0.0, "type": "electric_scooter", "bike_id": "bc1ae1a971439c971d0a460a4e5b2425", "is_reserved": 0, "rental_uris": {"ios": "https://dc.lft.to/lastmile_qr_scan", "android": "https://dc.lft.to/lastmile_qr_scan"}, "name": "bc1ae1a971439c971d0a460a4e5b2425", "lon": -77.02158366666667}, {"lat": 38.92010716666667, "fusion_lat": 0.0, "is_disabled": 0, "fusion_lon": 0.0, "type": "electric_scooter", "bike_id": "ecac2604320cdf300fe548c32dc7785d", "is_reserved": 0, "rental_uris": {"ios": "https://dc.lft.to/lastmile_qr_scan", "android": "https://dc.lft.to/lastmile_qr_scan"}, "name": "ecac2604320cdf300fe548c32dc7785d", "lon": -77.07164766666666}, {"lat": 38.924059166666666, "fusion_lat": 0.0, "is_disabled": 0, "fusion_lon": 0.0, "type": "electric_scooter", "bike_id": "4363a7060bc9515d322b54eac6e2c4fb", "is_reserved": 0, "rental_uris": {"ios": "https://dc.lft.to/lastmile_qr_scan", "android": "https://dc.lft.to/lastmile_qr_scan"}, "name": "4363a7060bc9515d322b54eac6e2c4fb", "lon": -77.02261283333333}, {"lat": 38.87930633333333, "fusion_lat": 0.0, "is_disabled": 0, "fusion_lon": 0.0, "type": "electric_bike", "bike_id": "cae102f583d736db5fda629f0e0bf3de", "is_reserved": 0, "rental_uris": {"ios": "https://dc.lft.to/lastmile_qr_scan", "android": "https://dc.lft.to/lastmile_qr_scan"}, "name": "cae102f583d736db5fda629f0e0bf3de", "lon": -77.01379216666666}, {"lat": 38.88352033333334, "fusion_lat": 0.0, "is_disabled": 0, "fusion_lon": 0.0, "type": "electric_scooter", "bike_id": "6dcfccdf3df56e11320995b985a690df", "is_reserved": 0, "rental_uris": {"ios": "https://dc.lft.to/lastmile_qr_scan", "android": "https://dc.lft.to/lastmile_qr_scan"}, "name": "6dcfccdf3df56e11320995b985a690df", "lon": -76.9577155}, {"lat": 38.89913833333333, "fusion_lat": 0.0, "is_disabled": 0, "fusion_lon": 0.0, "type": "electric_scooter", "bike_id": "a4029fb4ea300c858f95d3a741ec5615", "is_reserved": 0, "rental_uris": {"ios": "https://dc.lft.to/lastmile_qr_scan", "android": "https://dc.lft.to/lastmile_qr_scan"}, "name": "a4029fb4ea300c858f95d3a741ec5615", "lon": -77.00351866666666}, {"lat": 38.874379833333336, "fusion_lat": 0.0, "is_disabled": 0, "fusion_lon": 0.0, "type": "electric_scooter", "bike_id": "e4d456b496c3eb9598f89600bad2f343", "is_reserved": 0, "rental_uris": {"ios": "https://dc.lft.to/lastmile_qr_scan", "android": "https://dc.lft.to/lastmile_qr_scan"}, "name": "e4d456b496c3eb9598f89600bad2f343", "lon": -77.00048183333334}, {"lat": 38.92405883333333, "fusion_lat": 0.0, "is_disabled": 0, "fusion_lon": 0.0, "type": "electric_scooter", "bike_id": "0df62865b171e2dbd12ff28a350eb42f", "is_reserved": 0, "rental_uris": {"ios": "https://dc.lft.to/lastmile_qr_scan", "android": "https://dc.lft.to/lastmile_qr_scan"}, "name": "0df62865b171e2dbd12ff28a350eb42f", "lon": -77.01951383333333}, {"lat": 38.897226, "fusion_lat": 0.0, "is_disabled": 0, "fusion_lon": 0.0, "type": "electric_scooter", "bike_id": "f64d07e615671f2423a85c78a74d428f", "is_reserved": 0, "rental_uris": {"ios": "https://dc.lft.to/lastmile_qr_scan", "android": "https://dc.lft.to/lastmile_qr_scan"}, "name": "f64d07e615671f2423a85c78a74d428f", "lon": -77.01913333333333}, {"lat": 38.907631, "fusion_lat": 0.0, "is_disabled": 0, "fusion_lon": 0.0, "type": "electric_scooter", "bike_id": "b307f16ab09d31070e03f6dd1f7fadcb", "is_reserved": 0, "rental_uris": {"ios": "https://dc.lft.to/lastmile_qr_scan", "android": "https://dc.lft.to/lastmile_qr_scan"}, "name": "b307f16ab09d31070e03f6dd1f7fadcb", "lon": -77.0350365}, {"lat": 38.93121416666666, "fusion_lat": 0.0, "is_disabled": 0, "fusion_lon": 0.0, "type": "electric_scooter", "bike_id": "79f2a900fda5fcc7313c8e594ecf42bc", "is_reserved": 0, "rental_uris": {"ios": "https://dc.lft.to/lastmile_qr_scan", "android": "https://dc.lft.to/lastmile_qr_scan"}, "name": "79f2a900fda5fcc7313c8e594ecf42bc", "lon": -77.02273183333334}, {"lat": 38.926069, "fusion_lat": 0.0, "is_disabled": 0, "fusion_lon": 0.0, "type": "electric_scooter", "bike_id": "dc5795c85c7b2102a016871d43aa7461", "is_reserved": 0, "rental_uris": {"ios": "https://dc.lft.to/lastmile_qr_scan", "android": "https://dc.lft.to/lastmile_qr_scan"}, "name": "dc5795c85c7b2102a016871d43aa7461", "lon": -77.02160133333334}, {"lat": 38.926388833333334, "fusion_lat": 0.0, "is_disabled": 0, "fusion_lon": 0.0, "type": "electric_scooter", "bike_id": "8b4895505fd8cde564d054d48722207f", "is_reserved": 0, "rental_uris": {"ios": "https://dc.lft.to/lastmile_qr_scan", "android": "https://dc.lft.to/lastmile_qr_scan"}, "name": "8b4895505fd8cde564d054d48722207f", "lon": -77.03304166666666}, {"lat": 38.89667433333334, "fusion_lat": 0.0, "is_disabled": 0, "fusion_lon": 0.0, "type": "electric_scooter", "bike_id": "acc1eb984652c93e41c180f278da1a68", "is_reserved": 0, "rental_uris": {"ios": "https://dc.lft.to/lastmile_qr_scan", "android": "https://dc.lft.to/lastmile_qr_scan"}, "name": "acc1eb984652c93e41c180f278da1a68", "lon": -76.9320795}, {"lat": 38.89824766666667, "fusion_lat": 0.0, "is_disabled": 0, "fusion_lon": 0.0, "type": "electric_scooter", "bike_id": "bdf562a3ac05012fead4c52a65e8fd2a", "is_reserved": 0, "rental_uris": {"ios": "https://dc.lft.to/lastmile_qr_scan", "android": "https://dc.lft.to/lastmile_qr_scan"}, "name": "bdf562a3ac05012fead4c52a65e8fd2a", "lon": -76.946521}, {"lat": 38.916925, "fusion_lat": 0.0, "is_disabled": 0, "fusion_lon": 0.0, "type": "electric_scooter", "bike_id": "fd5a7950bbca25f8e59d3b60f1b72b33", "is_reserved": 0, "rental_uris": {"ios": "https://dc.lft.to/lastmile_qr_scan", "android": "https://dc.lft.to/lastmile_qr_scan"}, "name": "fd5a7950bbca25f8e59d3b60f1b72b33", "lon": -77.02722816666666}, {"lat": 38.91689816666667, "fusion_lat": 0.0, "is_disabled": 0, "fusion_lon": 0.0, "type": "electric_scooter", "bike_id": "a6532093232fbce66441c937c1220251", "is_reserved": 0, "rental_uris": {"ios": "https://dc.lft.to/lastmile_qr_scan", "android": "https://dc.lft.to/lastmile_qr_scan"}, "name": "a6532093232fbce66441c937c1220251", "lon": -77.027227}, {"lat": 38.90270266666667, "fusion_lat": 0.0, "is_disabled": 0, "fusion_lon": 0.0, "type": "electric_scooter", "bike_id": "e91c91d73fa57134174d711007980be3", "is_reserved": 0, "rental_uris": {"ios": "https://dc.lft.to/lastmile_qr_scan", "android": "https://dc.lft.to/lastmile_qr_scan"}, "name": "e91c91d73fa57134174d711007980be3", "lon": -77.0303315}, {"lat": 38.893247833333334, "fusion_lat": 0.0, "is_disabled": 0, "fusion_lon": 0.0, "type": "electric_scooter", "bike_id": "abc23dd826044a28f35619937672c591", "is_reserved": 0, "rental_uris": {"ios": "https://dc.lft.to/lastmile_qr_scan", "android": "https://dc.lft.to/lastmile_qr_scan"}, "name": "abc23dd826044a28f35619937672c591", "lon": -77.03369166666667}, {"lat": 38.9216575, "fusion_lat": 0.0, "is_disabled": 0, "fusion_lon": 0.0, "type": "electric_scooter", "bike_id": "591ba7afb1785d8cbcd028e0e2daabfd", "is_reserved": 0, "rental_uris": {"ios": "https://dc.lft.to/lastmile_qr_scan", "android": "https://dc.lft.to/lastmile_qr_scan"}, "name": "591ba7afb1785d8cbcd028e0e2daabfd", "lon": -77.02113716666666}, {"lat": 38.88726533333333, "fusion_lat": 0.0, "is_disabled": 0, "fusion_lon": 0.0, "type": "electric_scooter", "bike_id": "be6591cacaaff44ac1f26e78d6aa5be9", "is_reserved": 0, "rental_uris": {"ios": "https://dc.lft.to/lastmile_qr_scan", "android": "https://dc.lft.to/lastmile_qr_scan"}, "name": "be6591cacaaff44ac1f26e78d6aa5be9", "lon": -76.98376716666667}, {"lat": 38.91980316666667, "fusion_lat": 0.0, "is_disabled": 0, "fusion_lon": 0.0, "type": "electric_scooter", "bike_id": "bd87b63618f25c9f6a877ad7e951d39f", "is_reserved": 0, "rental_uris": {"ios": "https://dc.lft.to/lastmile_qr_scan", "android": "https://dc.lft.to/lastmile_qr_scan"}, "name": "bd87b63618f25c9f6a877ad7e951d39f", "lon": -77.03237766666666}, {"lat": 38.92332183333333, "fusion_lat": 0.0, "is_disabled": 0, "fusion_lon": 0.0, "type": "electric_scooter", "bike_id": "80476c5f4e109ce31b9b7cba5ff11631", "is_reserved": 0, "rental_uris": {"ios": "https://dc.lft.to/lastmile_qr_scan", "android": "https://dc.lft.to/lastmile_qr_scan"}, "name": "80476c5f4e109ce31b9b7cba5ff11631", "lon": -77.00891283333333}, {"lat": 38.918714, "fusion_lat": 0.0, "is_disabled": 0, "fusion_lon": 0.0, "type": "electric_scooter", "bike_id": "725a3910711ad3f5b92bfc389846ba40", "is_reserved": 0, "rental_uris": {"ios": "https://dc.lft.to/lastmile_qr_scan", "android": "https://dc.lft.to/lastmile_qr_scan"}, "name": "725a3910711ad3f5b92bfc389846ba40", "lon": -77.04486483333334}, {"lat": 38.907825333333335, "fusion_lat": 0.0, "is_disabled": 0, "fusion_lon": 0.0, "type": "electric_scooter", "bike_id": "617bc162a09fd5f040f11ebe0a42699f", "is_reserved": 0, "rental_uris": {"ios": "https://dc.lft.to/lastmile_qr_scan", "android": "https://dc.lft.to/lastmile_qr_scan"}, "name": "617bc162a09fd5f040f11ebe0a42699f", "lon": -77.01080183333333}, {"lat": 38.8360675, "fusion_lat": 0.0, "is_disabled": 0, "fusion_lon": 0.0, "type": "electric_bike", "bike_id": "8372d4a2ad78075237bc87702601e0e6", "is_reserved": 0, "rental_uris": {"ios": "https://dc.lft.to/lastmile_qr_scan", "android": "https://dc.lft.to/lastmile_qr_scan"}, "name": "8372d4a2ad78075237bc87702601e0e6", "lon": -77.00375783333334}, {"lat": 38.96384066666667, "fusion_lat": 0.0, "is_disabled": 0, "fusion_lon": 0.0, "type": "electric_scooter", "bike_id": "ca482edbbfa174a53c24c3c57da9e2d3", "is_reserved": 0, "rental_uris": {"ios": "https://dc.lft.to/lastmile_qr_scan", "android": "https://dc.lft.to/lastmile_qr_scan"}, "name": "ca482edbbfa174a53c24c3c57da9e2d3", "lon": -77.0276725}, {"lat": 38.90025283333333, "fusion_lat": 0.0, "is_disabled": 0, "fusion_lon": 0.0, "type": "electric_scooter", "bike_id": "ff27b10dc97d5c95bc1ff26391d94280", "is_reserved": 0, "rental_uris": {"ios": "https://dc.lft.to/lastmile_qr_scan", "android": "https://dc.lft.to/lastmile_qr_scan"}, "name": "ff27b10dc97d5c95bc1ff26391d94280", "lon": -77.03712333333333}, {"lat": 38.911907166666666, "fusion_lat": 0.0, "is_disabled": 0, "fusion_lon": 0.0, "type": "electric_scooter", "bike_id": "58fc92d4c47aa2aab1044a805181d35d", "is_reserved": 0, "rental_uris": {"ios": "https://dc.lft.to/lastmile_qr_scan", "android": "https://dc.lft.to/lastmile_qr_scan"}, "name": "58fc92d4c47aa2aab1044a805181d35d", "lon": -77.01814}, {"lat": 38.956224666666664, "fusion_lat": 0.0, "is_disabled": 0, "fusion_lon": 0.0, "type": "electric_scooter", "bike_id": "6af95bc9edb55190df336d341807a8b0", "is_reserved": 0, "rental_uris": {"ios": "https://dc.lft.to/lastmile_qr_scan", "android": "https://dc.lft.to/lastmile_qr_scan"}, "name": "6af95bc9edb55190df336d341807a8b0", "lon": -77.024306}, {"lat": 38.833753, "fusion_lat": 0.0, "is_disabled": 0, "fusion_lon": 0.0, "type": "electric_scooter", "bike_id": "530ca0baac6bfd8a6e1295ff60b9d483", "is_reserved": 0, "rental_uris": {"ios": "https://dc.lft.to/lastmile_qr_scan", "android": "https://dc.lft.to/lastmile_qr_scan"}, "name": "530ca0baac6bfd8a6e1295ff60b9d483", "lon": -77.003096}, {"lat": 38.90971583333334, "fusion_lat": 0.0, "is_disabled": 0, "fusion_lon": 0.0, "type": "electric_scooter", "bike_id": "bff2c7fadf81b8a33842f60d4211c0b1", "is_reserved": 0, "rental_uris": {"ios": "https://dc.lft.to/lastmile_qr_scan", "android": "https://dc.lft.to/lastmile_qr_scan"}, "name": "bff2c7fadf81b8a33842f60d4211c0b1", "lon": -77.04807733333334}, {"lat": 38.91485733333333, "fusion_lat": 0.0, "is_disabled": 0, "fusion_lon": 0.0, "type": "electric_scooter", "bike_id": "4d1e23236b61dc30b99f7b5b429fe77d", "is_reserved": 0, "rental_uris": {"ios": "https://dc.lft.to/lastmile_qr_scan", "android": "https://dc.lft.to/lastmile_qr_scan"}, "name": "4d1e23236b61dc30b99f7b5b429fe77d", "lon": -77.0177875}, {"lat": 38.899632833333335, "fusion_lat": 0.0, "is_disabled": 0, "fusion_lon": 0.0, "type": "electric_scooter", "bike_id": "4063ae348c74e11701792a61da9da193", "is_reserved": 0, "rental_uris": {"ios": "https://dc.lft.to/lastmile_qr_scan", "android": "https://dc.lft.to/lastmile_qr_scan"}, "name": "4063ae348c74e11701792a61da9da193", "lon": -77.047155}, {"lat": 38.928685333333334, "fusion_lat": 0.0, "is_disabled": 0, "fusion_lon": 0.0, "type": "electric_scooter", "bike_id": "e576f6c82854afcc94c463a40590f402", "is_reserved": 0, "rental_uris": {"ios": "https://dc.lft.to/lastmile_qr_scan", "android": "https://dc.lft.to/lastmile_qr_scan"}, "name": "e576f6c82854afcc94c463a40590f402", "lon": -77.03222183333334}, {"lat": 38.91107266666667, "fusion_lat": 0.0, "is_disabled": 0, "fusion_lon": 0.0, "type": "electric_scooter", "bike_id": "077a32c707705ea245f23455ad11f295", "is_reserved": 0, "rental_uris": {"ios": "https://dc.lft.to/lastmile_qr_scan", "android": "https://dc.lft.to/lastmile_qr_scan"}, "name": "077a32c707705ea245f23455ad11f295", "lon": -77.03832633333333}, {"lat": 38.897323666666665, "fusion_lat": 0.0, "is_disabled": 0, "fusion_lon": 0.0, "type": "electric_scooter", "bike_id": "9f7e06db6a8790f134b9434ad452c8e7", "is_reserved": 0, "rental_uris": {"ios": "https://dc.lft.to/lastmile_qr_scan", "android": "https://dc.lft.to/lastmile_qr_scan"}, "name": "9f7e06db6a8790f134b9434ad452c8e7", "lon": -77.026985}, {"lat": 38.92064083333333, "fusion_lat": 0.0, "is_disabled": 0, "fusion_lon": 0.0, "type": "electric_scooter", "bike_id": "a4b0e03cffb549339b8c50f8151ec6d2", "is_reserved": 0, "rental_uris": {"ios": "https://dc.lft.to/lastmile_qr_scan", "android": "https://dc.lft.to/lastmile_qr_scan"}, "name": "a4b0e03cffb549339b8c50f8151ec6d2", "lon": -77.0388095}, {"lat": 38.9039765, "fusion_lat": 0.0, "is_disabled": 0, "fusion_lon": 0.0, "type": "electric_scooter", "bike_id": "a4133595baeadac8e55de353bb37c594", "is_reserved": 0, "rental_uris": {"ios": "https://dc.lft.to/lastmile_qr_scan", "android": "https://dc.lft.to/lastmile_qr_scan"}, "name": "a4133595baeadac8e55de353bb37c594", "lon": -77.020478}, {"lat": 38.8978715, "fusion_lat": 0.0, "is_disabled": 0, "fusion_lon": 0.0, "type": "electric_scooter", "bike_id": "3b34e81bb85cdf8d759e2b2070c240dd", "is_reserved": 0, "rental_uris": {"ios": "https://dc.lft.to/lastmile_qr_scan", "android": "https://dc.lft.to/lastmile_qr_scan"}, "name": "3b34e81bb85cdf8d759e2b2070c240dd", "lon": -77.0497235}, {"lat": 38.925324333333336, "fusion_lat": 0.0, "is_disabled": 0, "fusion_lon": 0.0, "type": "electric_bike", "bike_id": "03ac27b1524e5eda82b24c5a0d8d51f1", "is_reserved": 0, "rental_uris": {"ios": "https://dc.lft.to/lastmile_qr_scan", "android": "https://dc.lft.to/lastmile_qr_scan"}, "name": "03ac27b1524e5eda82b24c5a0d8d51f1", "lon": -77.07328633333333}, {"lat": 38.903574, "fusion_lat": 0.0, "is_disabled": 0, "fusion_lon": 0.0, "type": "electric_scooter", "bike_id": "6b91a2ce5371b56b2e23f1b310feb198", "is_reserved": 0, "rental_uris": {"ios": "https://dc.lft.to/lastmile_qr_scan", "android": "https://dc.lft.to/lastmile_qr_scan"}, "name": "6b91a2ce5371b56b2e23f1b310feb198", "lon": -77.02617033333334}, {"lat": 38.90044833333333, "fusion_lat": 0.0, "is_disabled": 0, "fusion_lon": 0.0, "type": "electric_scooter", "bike_id": "6f6c8a411d2b0e32a1fd6c35f11e36b3", "is_reserved": 0, "rental_uris": {"ios": "https://dc.lft.to/lastmile_qr_scan", "android": "https://dc.lft.to/lastmile_qr_scan"}, "name": "6f6c8a411d2b0e32a1fd6c35f11e36b3", "lon": -76.993388}, {"lat": 38.930949, "fusion_lat": 0.0, "is_disabled": 0, "fusion_lon": 0.0, "type": "electric_scooter", "bike_id": "19cc964d320797fcf2ae7bad46d99498", "is_reserved": 0, "rental_uris": {"ios": "https://dc.lft.to/lastmile_qr_scan", "android": "https://dc.lft.to/lastmile_qr_scan"}, "name": "19cc964d320797fcf2ae7bad46d99498", "lon": -77.02356516666667}, {"lat": 38.902663833333335, "fusion_lat": 0.0, "is_disabled": 0, "fusion_lon": 0.0, "type": "electric_scooter", "bike_id": "0c70ffa468a50c2157d9ba583d652445", "is_reserved": 0, "rental_uris": {"ios": "https://dc.lft.to/lastmile_qr_scan", "android": "https://dc.lft.to/lastmile_qr_scan"}, "name": "0c70ffa468a50c2157d9ba583d652445", "lon": -77.03416983333334}, {"lat": 38.9056045, "fusion_lat": 0.0, "is_disabled": 0, "fusion_lon": 0.0, "type": "electric_scooter", "bike_id": "d66f29b3cc7e34aed169930030e56634", "is_reserved": 0, "rental_uris": {"ios": "https://dc.lft.to/lastmile_qr_scan", "android": "https://dc.lft.to/lastmile_qr_scan"}, "name": "d66f29b3cc7e34aed169930030e56634", "lon": -77.03466516666667}, {"lat": 38.91483266666667, "fusion_lat": 0.0, "is_disabled": 0, "fusion_lon": 0.0, "type": "electric_scooter", "bike_id": "53049c9776e3bff9c4e53f3e2e12f14b", "is_reserved": 0, "rental_uris": {"ios": "https://dc.lft.to/lastmile_qr_scan", "android": "https://dc.lft.to/lastmile_qr_scan"}, "name": "53049c9776e3bff9c4e53f3e2e12f14b", "lon": -77.04516116666667}, {"lat": 38.886023333333334, "fusion_lat": 0.0, "is_disabled": 0, "fusion_lon": 0.0, "type": "electric_scooter", "bike_id": "1c80d8b1d59751e4df5e007f1a7e8d6c", "is_reserved": 0, "rental_uris": {"ios": "https://dc.lft.to/lastmile_qr_scan", "android": "https://dc.lft.to/lastmile_qr_scan"}, "name": "1c80d8b1d59751e4df5e007f1a7e8d6c", "lon": -76.92508966666666}, {"lat": 38.89391966666667, "fusion_lat": 0.0, "is_disabled": 0, "fusion_lon": 0.0, "type": "electric_scooter", "bike_id": "aa522604aa332cf8a5db6502b9b11144", "is_reserved": 0, "rental_uris": {"ios": "https://dc.lft.to/lastmile_qr_scan", "android": "https://dc.lft.to/lastmile_qr_scan"}, "name": "aa522604aa332cf8a5db6502b9b11144", "lon": -77.05475316666667}, {"lat": 38.893673, "fusion_lat": 0.0, "is_disabled": 0, "fusion_lon": 0.0, "type": "electric_scooter", "bike_id": "9e2d3ffd9d232296615b8493252bb2f5", "is_reserved": 0, "rental_uris": {"ios": "https://dc.lft.to/lastmile_qr_scan", "android": "https://dc.lft.to/lastmile_qr_scan"}, "name": "9e2d3ffd9d232296615b8493252bb2f5", "lon": -77.01554983333334}, {"lat": 38.91979283333333, "fusion_lat": 0.0, "is_disabled": 0, "fusion_lon": 0.0, "type": "electric_scooter", "bike_id": "e67241b0dcc7c706b03ea22febf165d0", "is_reserved": 0, "rental_uris": {"ios": "https://dc.lft.to/lastmile_qr_scan", "android": "https://dc.lft.to/lastmile_qr_scan"}, "name": "e67241b0dcc7c706b03ea22febf165d0", "lon": -77.04089733333333}, {"lat": 38.9672365, "fusion_lat": 0.0, "is_disabled": 0, "fusion_lon": 0.0, "type": "electric_scooter", "bike_id": "29508a34c5cae89e078ef5b7c8e8af2b", "is_reserved": 0, "rental_uris": {"ios": "https://dc.lft.to/lastmile_qr_scan", "android": "https://dc.lft.to/lastmile_qr_scan"}, "name": "29508a34c5cae89e078ef5b7c8e8af2b", "lon": -77.02593216666666}, {"lat": 38.84672716666667, "fusion_lat": 0.0, "is_disabled": 0, "fusion_lon": 0.0, "type": "electric_bike", "bike_id": "6c6a83d7633feb56f32b7582859a5e79", "is_reserved": 0, "rental_uris": {"ios": "https://dc.lft.to/lastmile_qr_scan", "android": "https://dc.lft.to/lastmile_qr_scan"}, "name": "6c6a83d7633feb56f32b7582859a5e79", "lon": -77.13935833333333}, {"lat": 38.890953333333336, "fusion_lat": 0.0, "is_disabled": 0, "fusion_lon": 0.0, "type": "electric_scooter", "bike_id": "c688f1e3d0740f70a4549c407f483bce", "is_reserved": 0, "rental_uris": {"ios": "https://dc.lft.to/lastmile_qr_scan", "android": "https://dc.lft.to/lastmile_qr_scan"}, "name": "c688f1e3d0740f70a4549c407f483bce", "lon": -76.98828483333334}, {"lat": 38.886283, "fusion_lat": 0.0, "is_disabled": 0, "fusion_lon": 0.0, "type": "electric_scooter", "bike_id": "7a0e60635a612962c3770cef648e170b", "is_reserved": 0, "rental_uris": {"ios": "https://dc.lft.to/lastmile_qr_scan", "android": "https://dc.lft.to/lastmile_qr_scan"}, "name": "7a0e60635a612962c3770cef648e170b", "lon": -76.98176616666667}, {"lat": 38.924172666666664, "fusion_lat": 0.0, "is_disabled": 0, "fusion_lon": 0.0, "type": "electric_scooter", "bike_id": "b5a0dc28607080d07d562419fb3c4c2b", "is_reserved": 0, "rental_uris": {"ios": "https://dc.lft.to/lastmile_qr_scan", "android": "https://dc.lft.to/lastmile_qr_scan"}, "name": "b5a0dc28607080d07d562419fb3c4c2b", "lon": -77.0213295}, {"lat": 38.8763065, "fusion_lat": 0.0, "is_disabled": 0, "fusion_lon": 0.0, "type": "electric_scooter", "bike_id": "49ec3633463026dc8e72b0608feaef8e", "is_reserved": 0, "rental_uris": {"ios": "https://dc.lft.to/lastmile_qr_scan", "android": "https://dc.lft.to/lastmile_qr_scan"}, "name": "49ec3633463026dc8e72b0608feaef8e", "lon": -77.0095235}, {"lat": 38.91814816666667, "fusion_lat": 0.0, "is_disabled": 0, "fusion_lon": 0.0, "type": "electric_scooter", "bike_id": "5bdbefb6de8fb77aef3183feabb53c90", "is_reserved": 0, "rental_uris": {"ios": "https://dc.lft.to/lastmile_qr_scan", "android": "https://dc.lft.to/lastmile_qr_scan"}, "name": "5bdbefb6de8fb77aef3183feabb53c90", "lon": -77.037333}, {"lat": 38.900419166666666, "fusion_lat": 0.0, "is_disabled": 0, "fusion_lon": 0.0, "type": "electric_scooter", "bike_id": "8a94c57e2e6db5b6d10e75d1d8df2ff3", "is_reserved": 0, "rental_uris": {"ios": "https://dc.lft.to/lastmile_qr_scan", "android": "https://dc.lft.to/lastmile_qr_scan"}, "name": "8a94c57e2e6db5b6d10e75d1d8df2ff3", "lon": -77.0021095}, {"lat": 38.916132833333336, "fusion_lat": 0.0, "is_disabled": 0, "fusion_lon": 0.0, "type": "electric_scooter", "bike_id": "2ede4e323b92bfdcd943c74ab65ea9d1", "is_reserved": 0, "rental_uris": {"ios": "https://dc.lft.to/lastmile_qr_scan", "android": "https://dc.lft.to/lastmile_qr_scan"}, "name": "2ede4e323b92bfdcd943c74ab65ea9d1", "lon": -77.0319585}, {"lat": 38.914136666666664, "fusion_lat": 0.0, "is_disabled": 0, "fusion_lon": 0.0, "type": "electric_scooter", "bike_id": "4246091bb3d902a06ad4ab6a00c5c6ba", "is_reserved": 0, "rental_uris": {"ios": "https://dc.lft.to/lastmile_qr_scan", "android": "https://dc.lft.to/lastmile_qr_scan"}, "name": "4246091bb3d902a06ad4ab6a00c5c6ba", "lon": -77.0129555}, {"lat": 38.8936875, "fusion_lat": 0.0, "is_disabled": 0, "fusion_lon": 0.0, "type": "electric_scooter", "bike_id": "115298de4ce32e325765e336e0ab0063", "is_reserved": 0, "rental_uris": {"ios": "https://dc.lft.to/lastmile_qr_scan", "android": "https://dc.lft.to/lastmile_qr_scan"}, "name": "115298de4ce32e325765e336e0ab0063", "lon": -77.03955933333333}, {"lat": 38.92048583333333, "fusion_lat": 0.0, "is_disabled": 0, "fusion_lon": 0.0, "type": "electric_scooter", "bike_id": "12aef425ae0670696a4b30f94d95f0de", "is_reserved": 0, "rental_uris": {"ios": "https://dc.lft.to/lastmile_qr_scan", "android": "https://dc.lft.to/lastmile_qr_scan"}, "name": "12aef425ae0670696a4b30f94d95f0de", "lon": -77.017109}, {"lat": 38.92326333333333, "fusion_lat": 0.0, "is_disabled": 0, "fusion_lon": 0.0, "type": "electric_scooter", "bike_id": "d2b153c16ba587d51f26571b8408e8e2", "is_reserved": 0, "rental_uris": {"ios": "https://dc.lft.to/lastmile_qr_scan", "android": "https://dc.lft.to/lastmile_qr_scan"}, "name": "d2b153c16ba587d51f26571b8408e8e2", "lon": -77.03665166666667}, {"lat": 38.924853166666665, "fusion_lat": 0.0, "is_disabled": 0, "fusion_lon": 0.0, "type": "electric_scooter", "bike_id": "4672c2c5fab34c0239decd2df193abfe", "is_reserved": 0, "rental_uris": {"ios": "https://dc.lft.to/lastmile_qr_scan", "android": "https://dc.lft.to/lastmile_qr_scan"}, "name": "4672c2c5fab34c0239decd2df193abfe", "lon": -77.05765533333333}, {"lat": 38.90035566666667, "fusion_lat": 0.0, "is_disabled": 0, "fusion_lon": 0.0, "type": "electric_scooter", "bike_id": "f2f203730fe5e0332894377b84395a14", "is_reserved": 0, "rental_uris": {"ios": "https://dc.lft.to/lastmile_qr_scan", "android": "https://dc.lft.to/lastmile_qr_scan"}, "name": "f2f203730fe5e0332894377b84395a14", "lon": -76.99855183333334}, {"lat": 38.91689, "fusion_lat": 0.0, "is_disabled": 0, "fusion_lon": 0.0, "type": "electric_scooter", "bike_id": "5f31b8c4f4ef5cae1cbeb00ea0d8615e", "is_reserved": 0, "rental_uris": {"ios": "https://dc.lft.to/lastmile_qr_scan", "android": "https://dc.lft.to/lastmile_qr_scan"}, "name": "5f31b8c4f4ef5cae1cbeb00ea0d8615e", "lon": -77.03767366666666}, {"lat": 38.90042, "fusion_lat": 0.0, "is_disabled": 0, "fusion_lon": 0.0, "type": "electric_scooter", "bike_id": "6990e48a889b9cbe32e5280d32c3b841", "is_reserved": 0, "rental_uris": {"ios": "https://dc.lft.to/lastmile_qr_scan", "android": "https://dc.lft.to/lastmile_qr_scan"}, "name": "6990e48a889b9cbe32e5280d32c3b841", "lon": -76.98832383333334}, {"lat": 38.905552666666665, "fusion_lat": 0.0, "is_disabled": 0, "fusion_lon": 0.0, "type": "electric_scooter", "bike_id": "49e50659069e2ece480ecf33775fb746", "is_reserved": 0, "rental_uris": {"ios": "https://dc.lft.to/lastmile_qr_scan", "android": "https://dc.lft.to/lastmile_qr_scan"}, "name": "49e50659069e2ece480ecf33775fb746", "lon": -76.99794716666666}, {"lat": 38.9281475, "fusion_lat": 0.0, "is_disabled": 0, "fusion_lon": 0.0, "type": "electric_scooter", "bike_id": "aba414a1fb4131cf0f320c6e587142ea", "is_reserved": 0, "rental_uris": {"ios": "https://dc.lft.to/lastmile_qr_scan", "android": "https://dc.lft.to/lastmile_qr_scan"}, "name": "aba414a1fb4131cf0f320c6e587142ea", "lon": -77.03636233333333}, {"lat": 38.907888, "fusion_lat": 0.0, "is_disabled": 0, "fusion_lon": 0.0, "type": "electric_scooter", "bike_id": "1ff6cf43bf2d805573c4277ddfd877d6", "is_reserved": 0, "rental_uris": {"ios": "https://dc.lft.to/lastmile_qr_scan", "android": "https://dc.lft.to/lastmile_qr_scan"}, "name": "1ff6cf43bf2d805573c4277ddfd877d6", "lon": -77.00970483333333}, {"lat": 38.919532333333336, "fusion_lat": 0.0, "is_disabled": 0, "fusion_lon": 0.0, "type": "electric_scooter", "bike_id": "6d4147a6668775fe7423121371182271", "is_reserved": 0, "rental_uris": {"ios": "https://dc.lft.to/lastmile_qr_scan", "android": "https://dc.lft.to/lastmile_qr_scan"}, "name": "6d4147a6668775fe7423121371182271", "lon": -77.01776083333333}, {"lat": 38.9224795, "fusion_lat": 0.0, "is_disabled": 0, "fusion_lon": 0.0, "type": "electric_scooter", "bike_id": "924804e78142765aa8d9266c74e68cd0", "is_reserved": 0, "rental_uris": {"ios": "https://dc.lft.to/lastmile_qr_scan", "android": "https://dc.lft.to/lastmile_qr_scan"}, "name": "924804e78142765aa8d9266c74e68cd0", "lon": -77.01951916666667}, {"lat": 38.9057715, "fusion_lat": 0.0, "is_disabled": 0, "fusion_lon": 0.0, "type": "electric_scooter", "bike_id": "1985542a12d40ef5ed90f1ce73bc2da9", "is_reserved": 0, "rental_uris": {"ios": "https://dc.lft.to/lastmile_qr_scan", "android": "https://dc.lft.to/lastmile_qr_scan"}, "name": "1985542a12d40ef5ed90f1ce73bc2da9", "lon": -77.03451633333333}, {"lat": 38.89952, "fusion_lat": 0.0, "is_disabled": 0, "fusion_lon": 0.0, "type": "electric_scooter", "bike_id": "7b97449dc1965c04c4d0a48009a9db47", "is_reserved": 0, "rental_uris": {"ios": "https://dc.lft.to/lastmile_qr_scan", "android": "https://dc.lft.to/lastmile_qr_scan"}, "name": "7b97449dc1965c04c4d0a48009a9db47", "lon": -77.03179566666667}, {"lat": 38.922214333333336, "fusion_lat": 0.0, "is_disabled": 0, "fusion_lon": 0.0, "type": "electric_scooter", "bike_id": "3ab27528c49bc1d0867c3f28ad907df4", "is_reserved": 0, "rental_uris": {"ios": "https://dc.lft.to/lastmile_qr_scan", "android": "https://dc.lft.to/lastmile_qr_scan"}, "name": "3ab27528c49bc1d0867c3f28ad907df4", "lon": -77.04307016666667}, {"lat": 38.91254583333333, "fusion_lat": 0.0, "is_disabled": 0, "fusion_lon": 0.0, "type": "electric_scooter", "bike_id": "d3f602116171097d81de9acdd8754e48", "is_reserved": 0, "rental_uris": {"ios": "https://dc.lft.to/lastmile_qr_scan", "android": "https://dc.lft.to/lastmile_qr_scan"}, "name": "d3f602116171097d81de9acdd8754e48", "lon": -77.01455583333333}, {"lat": 38.900522333333335, "fusion_lat": 0.0, "is_disabled": 0, "fusion_lon": 0.0, "type": "electric_scooter", "bike_id": "1f597619ae50d554ed5e0bfa804c1599", "is_reserved": 0, "rental_uris": {"ios": "https://dc.lft.to/lastmile_qr_scan", "android": "https://dc.lft.to/lastmile_qr_scan"}, "name": "1f597619ae50d554ed5e0bfa804c1599", "lon": -77.0397685}, {"lat": 38.951490666666665, "fusion_lat": 0.0, "is_disabled": 0, "fusion_lon": 0.0, "type": "electric_scooter", "bike_id": "3d0f8835f776f2221b275502a6492382", "is_reserved": 0, "rental_uris": {"ios": "https://dc.lft.to/lastmile_qr_scan", "android": "https://dc.lft.to/lastmile_qr_scan"}, "name": "3d0f8835f776f2221b275502a6492382", "lon": -77.01865133333334}, {"lat": 38.9260195, "fusion_lat": 0.0, "is_disabled": 0, "fusion_lon": 0.0, "type": "electric_scooter", "bike_id": "238e56675817ee0bb840472b81b33b23", "is_reserved": 0, "rental_uris": {"ios": "https://dc.lft.to/lastmile_qr_scan", "android": "https://dc.lft.to/lastmile_qr_scan"}, "name": "238e56675817ee0bb840472b81b33b23", "lon": -77.05703733333333}, {"lat": 38.902143333333335, "fusion_lat": 0.0, "is_disabled": 0, "fusion_lon": 0.0, "type": "electric_scooter", "bike_id": "f328472f64dd9938a53747719bdfb52c", "is_reserved": 0, "rental_uris": {"ios": "https://dc.lft.to/lastmile_qr_scan", "android": "https://dc.lft.to/lastmile_qr_scan"}, "name": "f328472f64dd9938a53747719bdfb52c", "lon": -77.05132133333333}, {"lat": 38.915648, "fusion_lat": 0.0, "is_disabled": 0, "fusion_lon": 0.0, "type": "electric_scooter", "bike_id": "f268019db1d3af5e44be8a86f25a2777", "is_reserved": 0, "rental_uris": {"ios": "https://dc.lft.to/lastmile_qr_scan", "android": "https://dc.lft.to/lastmile_qr_scan"}, "name": "f268019db1d3af5e44be8a86f25a2777", "lon": -77.03272766666667}, {"lat": 38.913667, "fusion_lat": 0.0, "is_disabled": 0, "fusion_lon": 0.0, "type": "electric_scooter", "bike_id": "59cbfd4d19a96b63d1b988b2fd3de2f6", "is_reserved": 0, "rental_uris": {"ios": "https://dc.lft.to/lastmile_qr_scan", "android": "https://dc.lft.to/lastmile_qr_scan"}, "name": "59cbfd4d19a96b63d1b988b2fd3de2f6", "lon": -77.04487783333333}, {"lat": 38.90357866666667, "fusion_lat": 0.0, "is_disabled": 0, "fusion_lon": 0.0, "type": "electric_scooter", "bike_id": "9e10514966637acea285871a3398a6ed", "is_reserved": 0, "rental_uris": {"ios": "https://dc.lft.to/lastmile_qr_scan", "android": "https://dc.lft.to/lastmile_qr_scan"}, "name": "9e10514966637acea285871a3398a6ed", "lon": -77.026201}, {"lat": 38.91802116666667, "fusion_lat": 0.0, "is_disabled": 0, "fusion_lon": 0.0, "type": "electric_scooter", "bike_id": "a412d402065e9db934e3bf5c4395ab8d", "is_reserved": 0, "rental_uris": {"ios": "https://dc.lft.to/lastmile_qr_scan", "android": "https://dc.lft.to/lastmile_qr_scan"}, "name": "a412d402065e9db934e3bf5c4395ab8d", "lon": -77.02492966666667}, {"lat": 38.94177666666667, "fusion_lat": 0.0, "is_disabled": 0, "fusion_lon": 0.0, "type": "electric_scooter", "bike_id": "ab47fe8e6f40451bd9d9687ddbf4a3d3", "is_reserved": 0, "rental_uris": {"ios": "https://dc.lft.to/lastmile_qr_scan", "android": "https://dc.lft.to/lastmile_qr_scan"}, "name": "ab47fe8e6f40451bd9d9687ddbf4a3d3", "lon": -77.03153166666667}, {"lat": 38.90060066666667, "fusion_lat": 0.0, "is_disabled": 0, "fusion_lon": 0.0, "type": "electric_scooter", "bike_id": "4334642c9991b8911b3e9f6b391e7ce7", "is_reserved": 0, "rental_uris": {"ios": "https://dc.lft.to/lastmile_qr_scan", "android": "https://dc.lft.to/lastmile_qr_scan"}, "name": "4334642c9991b8911b3e9f6b391e7ce7", "lon": -77.04550883333333}, {"lat": 38.9306095, "fusion_lat": 0.0, "is_disabled": 0, "fusion_lon": 0.0, "type": "electric_scooter", "bike_id": "7b093c0e064c806d0fcd2fcbe8b72b3b", "is_reserved": 0, "rental_uris": {"ios": "https://dc.lft.to/lastmile_qr_scan", "android": "https://dc.lft.to/lastmile_qr_scan"}, "name": "7b093c0e064c806d0fcd2fcbe8b72b3b", "lon": -77.02326466666666}, {"lat": 38.920548833333335, "fusion_lat": 0.0, "is_disabled": 0, "fusion_lon": 0.0, "type": "electric_scooter", "bike_id": "8cb809eb23c2830db5cbe4f58dd55c91", "is_reserved": 0, "rental_uris": {"ios": "https://dc.lft.to/lastmile_qr_scan", "android": "https://dc.lft.to/lastmile_qr_scan"}, "name": "8cb809eb23c2830db5cbe4f58dd55c91", "lon": -77.02300116666666}, {"lat": 38.907093833333334, "fusion_lat": 0.0, "is_disabled": 0, "fusion_lon": 0.0, "type": "electric_scooter", "bike_id": "7b9fda29e690e247f16f658b25dd43b2", "is_reserved": 0, "rental_uris": {"ios": "https://dc.lft.to/lastmile_qr_scan", "android": "https://dc.lft.to/lastmile_qr_scan"}, "name": "7b9fda29e690e247f16f658b25dd43b2", "lon": -77.02805583333334}, {"lat": 38.915540666666665, "fusion_lat": 0.0, "is_disabled": 0, "fusion_lon": 0.0, "type": "electric_scooter", "bike_id": "13fec662689630a38234139e715efbcc", "is_reserved": 0, "rental_uris": {"ios": "https://dc.lft.to/lastmile_qr_scan", "android": "https://dc.lft.to/lastmile_qr_scan"}, "name": "13fec662689630a38234139e715efbcc", "lon": -77.02428166666667}, {"lat": 38.922966833333334, "fusion_lat": 0.0, "is_disabled": 0, "fusion_lon": 0.0, "type": "electric_scooter", "bike_id": "afd33bf8a8e85b0f4f9424006115d717", "is_reserved": 0, "rental_uris": {"ios": "https://dc.lft.to/lastmile_qr_scan", "android": "https://dc.lft.to/lastmile_qr_scan"}, "name": "afd33bf8a8e85b0f4f9424006115d717", "lon": -77.04271766666666}, {"lat": 38.917902166666664, "fusion_lat": 0.0, "is_disabled": 0, "fusion_lon": 0.0, "type": "electric_scooter", "bike_id": "1cd03136face88d14b9a59212554dd73", "is_reserved": 0, "rental_uris": {"ios": "https://dc.lft.to/lastmile_qr_scan", "android": "https://dc.lft.to/lastmile_qr_scan"}, "name": "1cd03136face88d14b9a59212554dd73", "lon": -77.02321366666666}, {"lat": 38.9003605, "fusion_lat": 0.0, "is_disabled": 0, "fusion_lon": 0.0, "type": "electric_scooter", "bike_id": "e1af7fad656520b41acffd71ab3176f6", "is_reserved": 0, "rental_uris": {"ios": "https://dc.lft.to/lastmile_qr_scan", "android": "https://dc.lft.to/lastmile_qr_scan"}, "name": "e1af7fad656520b41acffd71ab3176f6", "lon": -77.00208766666667}, {"lat": 38.90690716666667, "fusion_lat": 0.0, "is_disabled": 0, "fusion_lon": 0.0, "type": "electric_scooter", "bike_id": "77ea3df089a3c4c0b65921ed2299071b", "is_reserved": 0, "rental_uris": {"ios": "https://dc.lft.to/lastmile_qr_scan", "android": "https://dc.lft.to/lastmile_qr_scan"}, "name": "77ea3df089a3c4c0b65921ed2299071b", "lon": -77.0271615}, {"lat": 38.86001866666667, "fusion_lat": 0.0, "is_disabled": 0, "fusion_lon": 0.0, "type": "electric_scooter", "bike_id": "d7ded1fa6ae0dfd1101fac49cd6e1e43", "is_reserved": 0, "rental_uris": {"ios": "https://dc.lft.to/lastmile_qr_scan", "android": "https://dc.lft.to/lastmile_qr_scan"}, "name": "d7ded1fa6ae0dfd1101fac49cd6e1e43", "lon": -76.98522716666666}, {"lat": 38.927195833333336, "fusion_lat": 0.0, "is_disabled": 0, "fusion_lon": 0.0, "type": "electric_scooter", "bike_id": "3949b4d6e1db07af70290d34fce21a81", "is_reserved": 0, "rental_uris": {"ios": "https://dc.lft.to/lastmile_qr_scan", "android": "https://dc.lft.to/lastmile_qr_scan"}, "name": "3949b4d6e1db07af70290d34fce21a81", "lon": -77.022844}, {"lat": 38.92343566666667, "fusion_lat": 0.0, "is_disabled": 0, "fusion_lon": 0.0, "type": "electric_scooter", "bike_id": "68b6d8911fbc23f04dfd496b417aa082", "is_reserved": 0, "rental_uris": {"ios": "https://dc.lft.to/lastmile_qr_scan", "android": "https://dc.lft.to/lastmile_qr_scan"}, "name": "68b6d8911fbc23f04dfd496b417aa082", "lon": -77.02445983333334}, {"lat": 38.918403166666664, "fusion_lat": 0.0, "is_disabled": 0, "fusion_lon": 0.0, "type": "electric_scooter", "bike_id": "e0de79280b39bb68582ac7eeb5ef6c41", "is_reserved": 0, "rental_uris": {"ios": "https://dc.lft.to/lastmile_qr_scan", "android": "https://dc.lft.to/lastmile_qr_scan"}, "name": "e0de79280b39bb68582ac7eeb5ef6c41", "lon": -77.03184}, {"lat": 38.87379133333334, "fusion_lat": 0.0, "is_disabled": 0, "fusion_lon": 0.0, "type": "electric_scooter", "bike_id": "1a019b5b29bb8ae5d571a09ef995c849", "is_reserved": 0, "rental_uris": {"ios": "https://dc.lft.to/lastmile_qr_scan", "android": "https://dc.lft.to/lastmile_qr_scan"}, "name": "1a019b5b29bb8ae5d571a09ef995c849", "lon": -77.0013345}, {"lat": 38.90241533333333, "fusion_lat": 0.0, "is_disabled": 0, "fusion_lon": 0.0, "type": "electric_scooter", "bike_id": "6c180b3b49ddb635fb5e8050f8da5b75", "is_reserved": 0, "rental_uris": {"ios": "https://dc.lft.to/lastmile_qr_scan", "android": "https://dc.lft.to/lastmile_qr_scan"}, "name": "6c180b3b49ddb635fb5e8050f8da5b75", "lon": -77.01445483333333}, {"lat": 38.898418166666666, "fusion_lat": 0.0, "is_disabled": 0, "fusion_lon": 0.0, "type": "electric_scooter", "bike_id": "ca9b803c473b06c62f130fecb0a120d1", "is_reserved": 0, "rental_uris": {"ios": "https://dc.lft.to/lastmile_qr_scan", "android": "https://dc.lft.to/lastmile_qr_scan"}, "name": "ca9b803c473b06c62f130fecb0a120d1", "lon": -77.02163766666666}, {"lat": 38.92481033333333, "fusion_lat": 0.0, "is_disabled": 0, "fusion_lon": 0.0, "type": "electric_scooter", "bike_id": "2b0bd47b8ca73ab019088af116e2ed6f", "is_reserved": 0, "rental_uris": {"ios": "https://dc.lft.to/lastmile_qr_scan", "android": "https://dc.lft.to/lastmile_qr_scan"}, "name": "2b0bd47b8ca73ab019088af116e2ed6f", "lon": -76.9958255}, {"lat": 38.91029983333333, "fusion_lat": 0.0, "is_disabled": 0, "fusion_lon": 0.0, "type": "electric_scooter", "bike_id": "74b3a18f4d1a770ffc935419696480ed", "is_reserved": 0, "rental_uris": {"ios": "https://dc.lft.to/lastmile_qr_scan", "android": "https://dc.lft.to/lastmile_qr_scan"}, "name": "74b3a18f4d1a770ffc935419696480ed", "lon": -77.03448116666667}, {"lat": 38.91564533333333, "fusion_lat": 0.0, "is_disabled": 0, "fusion_lon": 0.0, "type": "electric_scooter", "bike_id": "ceb8089f6c19ce35b72a9a346357181a", "is_reserved": 0, "rental_uris": {"ios": "https://dc.lft.to/lastmile_qr_scan", "android": "https://dc.lft.to/lastmile_qr_scan"}, "name": "ceb8089f6c19ce35b72a9a346357181a", "lon": -77.02175983333333}, {"lat": 38.922821666666664, "fusion_lat": 0.0, "is_disabled": 0, "fusion_lon": 0.0, "type": "electric_scooter", "bike_id": "cf1f20050ed0ea0deb17c7d4426ae610", "is_reserved": 0, "rental_uris": {"ios": "https://dc.lft.to/lastmile_qr_scan", "android": "https://dc.lft.to/lastmile_qr_scan"}, "name": "cf1f20050ed0ea0deb17c7d4426ae610", "lon": -77.03660266666667}, {"lat": 38.90442766666666, "fusion_lat": 0.0, "is_disabled": 0, "fusion_lon": 0.0, "type": "electric_scooter", "bike_id": "46adaaca607a8143a5dd402d9170a615", "is_reserved": 0, "rental_uris": {"ios": "https://dc.lft.to/lastmile_qr_scan", "android": "https://dc.lft.to/lastmile_qr_scan"}, "name": "46adaaca607a8143a5dd402d9170a615", "lon": -77.04826616666666}, {"lat": 38.949191166666665, "fusion_lat": 0.0, "is_disabled": 0, "fusion_lon": 0.0, "type": "electric_scooter", "bike_id": "100337cd41e2c41a53666473cf76fde4", "is_reserved": 0, "rental_uris": {"ios": "https://dc.lft.to/lastmile_qr_scan", "android": "https://dc.lft.to/lastmile_qr_scan"}, "name": "100337cd41e2c41a53666473cf76fde4", "lon": -77.01858366666667}, {"lat": 38.898235666666665, "fusion_lat": 0.0, "is_disabled": 0, "fusion_lon": 0.0, "type": "electric_scooter", "bike_id": "c76e3b066163ab79e17bd1a378e6b696", "is_reserved": 0, "rental_uris": {"ios": "https://dc.lft.to/lastmile_qr_scan", "android": "https://dc.lft.to/lastmile_qr_scan"}, "name": "c76e3b066163ab79e17bd1a378e6b696", "lon": -76.94645516666667}, {"lat": 38.90231033333333, "fusion_lat": 0.0, "is_disabled": 0, "fusion_lon": 0.0, "type": "electric_scooter", "bike_id": "d5ad678fc7f808d8d731830a31ef696e", "is_reserved": 0, "rental_uris": {"ios": "https://dc.lft.to/lastmile_qr_scan", "android": "https://dc.lft.to/lastmile_qr_scan"}, "name": "d5ad678fc7f808d8d731830a31ef696e", "lon": -77.05342316666666}, {"lat": 38.9155795, "fusion_lat": 0.0, "is_disabled": 0, "fusion_lon": 0.0, "type": "electric_scooter", "bike_id": "d5284a6933239b88e03e999f84abd73d", "is_reserved": 0, "rental_uris": {"ios": "https://dc.lft.to/lastmile_qr_scan", "android": "https://dc.lft.to/lastmile_qr_scan"}, "name": "d5284a6933239b88e03e999f84abd73d", "lon": -77.03668033333334}, {"lat": 38.89931133333333, "fusion_lat": 0.0, "is_disabled": 0, "fusion_lon": 0.0, "type": "electric_bike", "bike_id": "0f83f1fdf652bccaabd8c01d4f539da5", "is_reserved": 0, "rental_uris": {"ios": "https://dc.lft.to/lastmile_qr_scan", "android": "https://dc.lft.to/lastmile_qr_scan"}, "name": "0f83f1fdf652bccaabd8c01d4f539da5", "lon": -77.0015735}, {"lat": 38.90847083333333, "fusion_lat": 0.0, "is_disabled": 0, "fusion_lon": 0.0, "type": "electric_scooter", "bike_id": "6490dbda577450ed024629481fe83cbc", "is_reserved": 0, "rental_uris": {"ios": "https://dc.lft.to/lastmile_qr_scan", "android": "https://dc.lft.to/lastmile_qr_scan"}, "name": "6490dbda577450ed024629481fe83cbc", "lon": -77.02293383333334}, {"lat": 38.884848833333336, "fusion_lat": 0.0, "is_disabled": 0, "fusion_lon": 0.0, "type": "electric_scooter", "bike_id": "2c305502a94539a14f00c28ef17e542c", "is_reserved": 0, "rental_uris": {"ios": "https://dc.lft.to/lastmile_qr_scan", "android": "https://dc.lft.to/lastmile_qr_scan"}, "name": "2c305502a94539a14f00c28ef17e542c", "lon": -77.00711483333333}, {"lat": 38.9204685, "fusion_lat": 0.0, "is_disabled": 0, "fusion_lon": 0.0, "type": "electric_scooter", "bike_id": "38f6fd8a6c33fee397debfefbeebde14", "is_reserved": 0, "rental_uris": {"ios": "https://dc.lft.to/lastmile_qr_scan", "android": "https://dc.lft.to/lastmile_qr_scan"}, "name": "38f6fd8a6c33fee397debfefbeebde14", "lon": -77.0418745}, {"lat": 38.903423333333336, "fusion_lat": 0.0, "is_disabled": 0, "fusion_lon": 0.0, "type": "electric_scooter", "bike_id": "bfc0bfd170579f4f2cfbdc3f416add09", "is_reserved": 0, "rental_uris": {"ios": "https://dc.lft.to/lastmile_qr_scan", "android": "https://dc.lft.to/lastmile_qr_scan"}, "name": "bfc0bfd170579f4f2cfbdc3f416add09", "lon": -77.050058}, {"lat": 38.9159215, "fusion_lat": 0.0, "is_disabled": 0, "fusion_lon": 0.0, "type": "electric_scooter", "bike_id": "5cad8bb05b2a1ad9893cfd4a90f47738", "is_reserved": 0, "rental_uris": {"ios": "https://dc.lft.to/lastmile_qr_scan", "android": "https://dc.lft.to/lastmile_qr_scan"}, "name": "5cad8bb05b2a1ad9893cfd4a90f47738", "lon": -77.03186766666667}, {"lat": 38.88501266666667, "fusion_lat": 0.0, "is_disabled": 0, "fusion_lon": 0.0, "type": "electric_scooter", "bike_id": "b4c0cf27b01d06f5932caf7100af9d0b", "is_reserved": 0, "rental_uris": {"ios": "https://dc.lft.to/lastmile_qr_scan", "android": "https://dc.lft.to/lastmile_qr_scan"}, "name": "b4c0cf27b01d06f5932caf7100af9d0b", "lon": -77.0056995}, {"lat": 38.90225916666667, "fusion_lat": 0.0, "is_disabled": 0, "fusion_lon": 0.0, "type": "electric_scooter", "bike_id": "c5bd586688d50259c32fd9cf98ab59b2", "is_reserved": 0, "rental_uris": {"ios": "https://dc.lft.to/lastmile_qr_scan", "android": "https://dc.lft.to/lastmile_qr_scan"}, "name": "c5bd586688d50259c32fd9cf98ab59b2", "lon": -77.045426},