{"data": {"bikes": [{"type": "electric_scooter", "fusion_lon": 0.0, "name": "ffbce735611b83cd3d7106eff9b90d04", "lon": -77.0324995, "fusion_lat": 0.0, "is_disabled": 0, "is_reserved": 0, "rental_uris": {"ios": "https://dc.lft.to/lastmile_qr_scan", "android": "https://dc.lft.to/lastmile_qr_scan"}, "bike_id": "ffbce735611b83cd3d7106eff9b90d04", "lat": 38.919937}, {"type": "electric_bike", "fusion_lon": 0.0, "name": "66b05e238aaf4e7ceeb2b461212126ed", "lon": -77.03881733333333, "fusion_lat": 0.0, "is_disabled": 0, "is_reserved": 0, "rental_uris": {"ios": "https://dc.lft.to/lastmile_qr_scan", "android": "https://dc.lft.to/lastmile_qr_scan"}, "bike_id": "66b05e238aaf4e7ceeb2b461212126ed", "lat": 39.02625116666667}, {"type": "electric_scooter", "fusion_lon": 0.0, "name": "76026d453c7ed889414aa938fde6d2bf", "lon": -77.03271716666667, "fusion_lat": 0.0, "is_disabled": 0, "is_reserved": 0, "rental_uris": {"ios": "https://dc.lft.to/lastmile_qr_scan", "android": "https://dc.lft.to/lastmile_qr_scan"}, "bike_id": "76026d453c7ed889414aa938fde6d2bf", "lat": 38.92943116666667}, {"type": "electric_scooter", "fusion_lon": 0.0, "name": "7842285dfe4915a52e3a6034798f4343", "lon": -77.03895666666666, "fusion_lat": 0.0, "is_disabled": 0, "is_reserved": 0, "rental_uris": {"ios": "https://dc.lft.to/lastmile_qr_scan", "android": "https://dc.lft.to/lastmile_qr_scan"}, "bike_id": "7842285dfe4915a52e3a6034798f4343", "lat": 38.90359516666667}, {"type": "electric_scooter", "fusion_lon": 0.0, "name": "6038fc6da4deb856a4db374a9e4b4e99", "lon": -77.03772066666667, "fusion_lat": 0.0, "is_disabled": 0, "is_reserved": 0, "rental_uris": {"ios": "https://dc.lft.to/lastmile_qr_scan", "android": "https://dc.lft.to/lastmile_qr_scan"}, "bike_id": "6038fc6da4deb856a4db374a9e4b4e99", "lat": 38.916872833333336}, {"type": "electric_bike", "fusion_lon": 0.0, "name": "1abd9e844e304d3cecd3882007f64704", "lon": -76.935516, "fusion_lat": 0.0, "is_disabled": 0, "is_reserved": 0, "rental_uris": {"ios": "https://dc.lft.to/lastmile_qr_scan", "android": "https://dc.lft.to/lastmile_qr_scan"}, "bike_id": "1abd9e844e304d3cecd3882007f64704", "lat": 38.96306366666666}, {"type": "electric_scooter", "fusion_lon": 0.0, "name": "c178a87035366a228d207b09ef299dd4", "lon": -77.03930583333333, "fusion_lat": 0.0, "is_disabled": 0, "is_reserved": 0, "rental_uris": {"ios": "https://dc.lft.to/lastmile_qr_scan", "android": "https://dc.lft.to/lastmile_qr_scan"}, "bike_id": "c178a87035366a228d207b09ef299dd4", "lat": 38.901397}, {"type": "electric_scooter", "fusion_lon": 0.0, "name": "d9799e392d5c112be412222f807a3766", "lon": -77.06274166666667, "fusion_lat": 0.0, "is_disabled": 0, "is_reserved": 0, "rental_uris": {"ios": "https://dc.lft.to/lastmile_qr_scan", "android": "https://dc.lft.to/lastmile_qr_scan"}, "bike_id": "d9799e392d5c112be412222f807a3766", "lat": 38.90592483333333}, {"type": "electric_bike", "fusion_lon": 0.0, "name": "427102a6f3895d1654affa652398f20a", "lon": -76.98745433333333, "fusion_lat": 0.0, "is_disabled": 0, "is_reserved": 0, "rental_uris": {"ios": "https://dc.lft.to/lastmile_qr_scan", "android": "https://dc.lft.to/lastmile_qr_scan"}, "bike_id": "427102a6f3895d1654affa652398f20a", "lat": 38.858026333333335}, {"type": "electric_scooter", "fusion_lon": 0.0, "name": "f8d8b51e30877a0ea26cc3387605362a", "lon": -77.0602305, "fusion_lat": 0.0, "is_disabled": 0, "is_reserved": 0, "rental_uris": {"ios": "https://dc.lft.to/lastmile_qr_scan", "android": "https://dc.lft.to/lastmile_qr_scan"}, "bike_id": "f8d8b51e30877a0ea26cc3387605362a", "lat": 38.938755666666665}, {"type": "electric_scooter", "fusion_lon": 0.0, "name": "fa53309ef1a41082c0b3b514848ec893", "lon": -77.0320325, "fusion_lat": 0.0, "is_disabled": 0, "is_reserved": 0, "rental_uris": {"ios": "https://dc.lft.to/lastmile_qr_scan", "android": "https://dc.lft.to/lastmile_qr_scan"}, "bike_id": "fa53309ef1a41082c0b3b514848ec893", "lat": 38.917914}, {"type": "electric_scooter", "fusion_lon": 0.0, "name": "67a7d46ce61eadea51aa08a5e61d310c", "lon": -77.04327466666666, "fusion_lat": 0.0, "is_disabled": 0, "is_reserved": 0, "rental_uris": {"ios": "https://dc.lft.to/lastmile_qr_scan", "android": "https://dc.lft.to/lastmile_qr_scan"}, "bike_id": "67a7d46ce61eadea51aa08a5e61d310c", "lat": 38.930616666666666}, {"type": "electric_scooter", "fusion_lon": 0.0, "name": "5eac80a1ae3da9cde7c72f4d35160d00", "lon": -77.03430366666667, "fusion_lat": 0.0, "is_disabled": 0, "is_reserved": 0, "rental_uris": {"ios": "https://dc.lft.to/lastmile_qr_scan", "android": "https://dc.lft.to/lastmile_qr_scan"}, "bike_id": "5eac80a1ae3da9cde7c72f4d35160d00", "lat": 38.919205833333336}, {"type": "electric_scooter", "fusion_lon": 0.0, "name": "0da28804f4e61b52fc881a3bd4113726", "lon": -77.0278165, "fusion_lat": 0.0, "is_disabled": 0, "is_reserved": 0, "rental_uris": {"ios": "https://dc.lft.to/lastmile_qr_scan", "android": "https://dc.lft.to/lastmile_qr_scan"}, "bike_id": "0da28804f4e61b52fc881a3bd4113726", "lat": 38.92959033333333}, {"type": "electric_scooter", "fusion_lon": 0.0, "name": "13dc863c386dbd23bec26e224a087b09", "lon": -77.00507466666667, "fusion_lat": 0.0, "is_disabled": 0, "is_reserved": 0, "rental_uris": {"ios": "https://dc.lft.to/lastmile_qr_scan", "android": "https://dc.lft.to/lastmile_qr_scan"}, "bike_id": "13dc863c386dbd23bec26e224a087b09", "lat": 38.960502166666664}, {"type": "electric_scooter", "fusion_lon": 0.0, "name": "b59c40dc548202e9aa497c519a1bf2bd", "lon": -77.0527185, "fusion_lat": 0.0, "is_disabled": 0, "is_reserved": 0, "rental_uris": {"ios": "https://dc.lft.to/lastmile_qr_scan", "android": "https://dc.lft.to/lastmile_qr_scan"}, "bike_id": "b59c40dc548202e9aa497c519a1bf2bd", "lat": 38.92371}, {"type": "electric_scooter", "fusion_lon": 0.0, "name": "882031ad7c4631b18ad5f08f2f171ec2", "lon": -77.02099083333333, "fusion_lat": 0.0, "is_disabled": 0, "is_reserved": 0, "rental_uris": {"ios": "https://dc.lft.to/lastmile_qr_scan", "android": "https://dc.lft.to/lastmile_qr_scan"}, "bike_id": "882031ad7c4631b18ad5f08f2f171ec2", "lat": 38.895034333333335}, {"type": "electric_scooter", "fusion_lon": 0.0, "name": "68e7c76862066bfdca277876c14097cb", "lon": -77.025326, "fusion_lat": 0.0, "is_disabled": 0, "is_reserved": 0, "rental_uris": {"ios": "https://dc.lft.to/lastmile_qr_scan", "android": "https://dc.lft.to/lastmile_qr_scan"}, "bike_id": "68e7c76862066bfdca277876c14097cb", "lat": 38.918171666666666}, {"type": "electric_scooter", "fusion_lon": 0.0, "name": "b6ed72541357a9b144345d48d1d8eeb9", "lon": -76.9373885, "fusion_lat": 0.0, "is_disabled": 0, "is_reserved": 0, "rental_uris": {"ios": "https://dc.lft.to/lastmile_qr_scan", "android": "https://dc.lft.to/lastmile_qr_scan"}, "bike_id": "b6ed72541357a9b144345d48d1d8eeb9", "lat": 38.8905025}, {"type": "electric_scooter", "fusion_lon": 0.0, "name": "3c962c9931e77e61b5ac4b6ee117c711", "lon": -77.023733, "fusion_lat": 0.0, "is_disabled": 0, "is_reserved": 0, "rental_uris": {"ios": "https://dc.lft.to/lastmile_qr_scan", "android": "https://dc.lft.to/lastmile_qr_scan"}, "bike_id": "3c962c9931e77e61b5ac4b6ee117c711", "lat": 38.89842816666667}, {"type": "electric_scooter", "fusion_lon": 0.0, "name": "22f0525fd4bac00a8fd40c675488c8c4", "lon": -76.96083266666666, "fusion_lat": 0.0, "is_disabled": 0, "is_reserved": 0, "rental_uris": {"ios": "https://dc.lft.to/lastmile_qr_scan", "android": "https://dc.lft.to/lastmile_qr_scan"}, "bike_id": "22f0525fd4bac00a8fd40c675488c8c4", "lat": 38.92707516666667}, {"type": "electric_scooter", "fusion_lon": 0.0, "name": "a4ec2c780fcbf5aeea99f199b6768ff2", "lon": -77.01230283333334, "fusion_lat": 0.0, "is_disabled": 0, "is_reserved": 0, "rental_uris": {"ios": "https://dc.lft.to/lastmile_qr_scan", "android": "https://dc.lft.to/lastmile_qr_scan"}, "bike_id": "a4ec2c780fcbf5aeea99f199b6768ff2", "lat": 38.875257166666664}, {"type": "electric_scooter", "fusion_lon": 0.0, "name": "0e8f33cc4afb1e1f532a69cca1bf9b20", "lon": -77.01762133333334, "fusion_lat": 0.0, "is_disabled": 0, "is_reserved": 0, "rental_uris": {"ios": "https://dc.lft.to/lastmile_qr_scan", "android": "https://dc.lft.to/lastmile_qr_scan"}, "bike_id": "0e8f33cc4afb1e1f532a69cca1bf9b20", "lat": 38.877078}, {"type": "electric_scooter", "fusion_lon": 0.0, "name": "3f94b0056c0247ed042824d510af0f2f", "lon": -77.04266433333333, "fusion_lat": 0.0, "is_disabled": 0, "is_reserved": 0, "rental_uris": {"ios": "https://dc.lft.to/lastmile_qr_scan", "android": "https://dc.lft.to/lastmile_qr_scan"}, "bike_id": "3f94b0056c0247ed042824d510af0f2f", "lat": 38.9098915}, {"type": "electric_scooter", "fusion_lon": 0.0, "name": "68db7174722dee09b0b7d6f50c64c65d", "lon": -77.03797166666666, "fusion_lat": 0.0, "is_disabled": 0, "is_reserved": 0, "rental_uris": {"ios": "https://dc.lft.to/lastmile_qr_scan", "android": "https://dc.lft.to/lastmile_qr_scan"}, "bike_id": "68db7174722dee09b0b7d6f50c64c65d", "lat": 38.91696266666667}, {"type": "electric_scooter", "fusion_lon": 0.0, "name": "c269477cd644a2928c2840b1b5ca7775", "lon": -77.022895, "fusion_lat": 0.0, "is_disabled": 0, "is_reserved": 0, "rental_uris": {"ios": "https://dc.lft.to/lastmile_qr_scan", "android": "https://dc.lft.to/lastmile_qr_scan"}, "bike_id": "c269477cd644a2928c2840b1b5ca7775", "lat": 38.919492166666664}, {"type": "electric_scooter", "fusion_lon": 0.0, "name": "88ee17539f1495187e32f4250eb2f350", "lon": -77.020825, "fusion_lat": 0.0, "is_disabled": 0, "is_reserved": 0, "rental_uris": {"ios": "https://dc.lft.to/lastmile_qr_scan", "android": "https://dc.lft.to/lastmile_qr_scan"}, "bike_id": "88ee17539f1495187e32f4250eb2f350", "lat": 38.949149}, {"type": "electric_scooter", "fusion_lon": 0.0, "name": "9ed27e6dc39077a7197703d712c4029a", "lon": -77.02406166666667, "fusion_lat": 0.0, "is_disabled": 0, "is_reserved": 0, "rental_uris": {"ios": "https://dc.lft.to/lastmile_qr_scan", "android": "https://dc.lft.to/lastmile_qr_scan"}, "bike_id": "9ed27e6dc39077a7197703d712c4029a", "lat": 38.896787833333335}, {"type": "electric_scooter", "fusion_lon": 0.0, "name": "fa801e25b352d0185d12b3e03eb19535", "lon": -77.039954, "fusion_lat": 0.0, "is_disabled": 0, "is_reserved": 0, "rental_uris": {"ios": "https://dc.lft.to/lastmile_qr_scan", "android": "https://dc.lft.to/lastmile_qr_scan"}, "bike_id": "fa801e25b352d0185d12b3e03eb19535", "lat": 38.89637533333333}, {"type": "electric_bike", "fusion_lon": 0.0, "name": "85207f9c72f0556011e128f186b77bea", "lon": -76.9925675, "fusion_lat": 0.0, "is_disabled": 0, "is_reserved": 0, "rental_uris": {"ios": "https://dc.lft.to/lastmile_qr_scan", "android": "https://dc.lft.to/lastmile_qr_scan"}, "bike_id": "85207f9c72f0556011e128f186b77bea", "lat": 38.807355333333334}, {"type": "electric_scooter", "fusion_lon": 0.0, "name": "88cef3d3b462bcb3ceb4deb8d50c8de1", "lon": -77.029509, "fusion_lat": 0.0, "is_disabled": 0, "is_reserved": 0, "rental_uris": {"ios": "https://dc.lft.to/lastmile_qr_scan", "android": "https://dc.lft.to/lastmile_qr_scan"}, "bike_id": "88cef3d3b462bcb3ceb4deb8d50c8de1", "lat": 38.919265}, {"type": "electric_scooter", "fusion_lon": 0.0, "name": "13a132eccf41b83d2994285ba821028d", "lon": -77.00938133333334, "fusion_lat": 0.0, "is_disabled": 0, "is_reserved": 0, "rental_uris": {"ios": "https://dc.lft.to/lastmile_qr_scan", "android": "https://dc.lft.to/lastmile_qr_scan"}, "bike_id": "13a132eccf41b83d2994285ba821028d", "lat": 38.921309}, {"type": "electric_scooter", "fusion_lon": 0.0, "name": "a31b82a67cc40e7b367b5dbb5cfae807", "lon": -77.038416, "fusion_lat": 0.0, "is_disabled": 0, "is_reserved": 0, "rental_uris": {"ios": "https://dc.lft.to/lastmile_qr_scan", "android": "https://dc.lft.to/lastmile_qr_scan"}, "bike_id": "a31b82a67cc40e7b367b5dbb5cfae807", "lat": 38.9115435}, {"type": "electric_scooter", "fusion_lon": 0.0, "name": "fb1acdc3a992270cf3ff7f99ee779e3c", "lon": -76.98824766666667, "fusion_lat": 0.0, "is_disabled": 0, "is_reserved": 0, "rental_uris": {"ios": "https://dc.lft.to/lastmile_qr_scan", "android": "https://dc.lft.to/lastmile_qr_scan"}, "bike_id": "fb1acdc3a992270cf3ff7f99ee779e3c", "lat": 38.90053183333333}, {"type": "electric_bike", "fusion_lon": 0.0, "name": "f97b81cd5b88a9fc869a77c4bd59b332", "lon": -77.0244625, "fusion_lat": 0.0, "is_disabled": 0, "is_reserved": 0, "rental_uris": {"ios": "https://dc.lft.to/lastmile_qr_scan", "android": "https://dc.lft.to/lastmile_qr_scan"}, "bike_id": "f97b81cd5b88a9fc869a77c4bd59b332", "lat": 38.93745666666667}, {"type": "electric_scooter", "fusion_lon": 0.0, "name": "da9a3e7e3e348bc9e5c0d8b6d692d5c7", "lon": -77.023029, "fusion_lat": 0.0, "is_disabled": 0, "is_reserved": 0, "rental_uris": {"ios": "https://dc.lft.to/lastmile_qr_scan", "android": "https://dc.lft.to/lastmile_qr_scan"}, "bike_id": "da9a3e7e3e348bc9e5c0d8b6d692d5c7", "lat": 38.90079883333333}, {"type": "electric_scooter", "fusion_lon": 0.0, "name": "ca6925826b0608ccab06b2625ca59c1e", "lon": -77.01204766666666, "fusion_lat": 0.0, "is_disabled": 0, "is_reserved": 0, "rental_uris": {"ios": "https://dc.lft.to/lastmile_qr_scan", "android": "https://dc.lft.to/lastmile_qr_scan"}, "bike_id": "ca6925826b0608ccab06b2625ca59c1e", "lat": 38.89774083333333}, {"type": "electric_scooter", "fusion_lon": 0.0, "name": "752ce415c3db3fb68a1b7a2df1e93c6d", "lon": -77.036587, "fusion_lat": 0.0, "is_disabled": 0, "is_reserved": 0, "rental_uris": {"ios": "https://dc.lft.to/lastmile_qr_scan", "android": "https://dc.lft.to/lastmile_qr_scan"}, "bike_id": "752ce415c3db3fb68a1b7a2df1e93c6d", "lat": 38.9027775}, {"type": "electric_scooter", "fusion_lon": 0.0, "name": "c05afa0597b31667c768ec9677939b7a", "lon": -77.02720366666667, "fusion_lat": 0.0, "is_disabled": 0, "is_reserved": 0, "rental_uris": {"ios": "https://dc.lft.to/lastmile_qr_scan", "android": "https://dc.lft.to/lastmile_qr_scan"}, "bike_id": "c05afa0597b31667c768ec9677939b7a", "lat": 38.92476}, {"type": "electric_scooter", "fusion_lon": 0.0, "name": "36e073a6e1edfd50f451da439948883a", "lon": -77.02038166666667, "fusion_lat": 0.0, "is_disabled": 0, "is_reserved": 0, "rental_uris": {"ios": "https://dc.lft.to/lastmile_qr_scan", "android": "https://dc.lft.to/lastmile_qr_scan"}, "bike_id": "36e073a6e1edfd50f451da439948883a", "lat": 38.924545333333334}, {"type": "electric_scooter", "fusion_lon": 0.0, "name": "c624e656d8b1bb487431bd1b633ae3c3", "lon": -77.03947, "fusion_lat": 0.0, "is_disabled": 0, "is_reserved": 0, "rental_uris": {"ios": "https://dc.lft.to/lastmile_qr_scan", "android": "https://dc.lft.to/lastmile_qr_scan"}, "bike_id": "c624e656d8b1bb487431bd1b633ae3c3", "lat": 38.90841316666667}, {"type": "electric_scooter", "fusion_lon": 0.0, "name": "73c8b9a127d8a74e2abea9706cbefca4", "lon": -77.045348, "fusion_lat": 0.0, "is_disabled": 0, "is_reserved": 0, "rental_uris": {"ios": "https://dc.lft.to/lastmile_qr_scan", "android": "https://dc.lft.to/lastmile_qr_scan"}, "bike_id": "73c8b9a127d8a74e2abea9706cbefca4", "lat": 38.907766333333335}, {"type": "electric_scooter", "fusion_lon": 0.0, "name": "647bd4614f5beeb10825d6724087dc7f", "lon": -77.01884233333334, "fusion_lat": 0.0, "is_disabled": 0, "is_reserved": 0, "rental_uris": {"ios": "https://dc.lft.to/lastmile_qr_scan", "android": "https://dc.lft.to/lastmile_qr_scan"}, "bike_id": "647bd4614f5beeb10825d6724087dc7f", "lat": 38.923474}, {"type": "electric_scooter", "fusion_lon": 0.0, "name": "569d91b898ab03f8d7605c818718e3ac", "lon": -77.02732866666666, "fusion_lat": 0.0, "is_disabled": 0, "is_reserved": 0, "rental_uris": {"ios": "https://dc.lft.to/lastmile_qr_scan", "android": "https://dc.lft.to/lastmile_qr_scan"}, "bike_id": "569d91b898ab03f8d7605c818718e3ac", "lat": 38.896594666666665}, {"type": "electric_scooter", "fusion_lon": 0.0, "name": "e5378758ab46ad1bd6b2d382b7840099", "lon": -77.02034383333333, "fusion_lat": 0.0, "is_disabled": 0, "is_reserved": 0, "rental_uris": {"ios": "https://dc.lft.to/lastmile_qr_scan", "android": "https://dc.lft.to/lastmile_qr_scan"}, "bike_id": "e5378758ab46ad1bd6b2d382b7840099", "lat": 38.922079}, {"type": "electric_scooter", "fusion_lon": 0.0, "name": "a2170177f3bae698c83d5c10aedcfd77", "lon": -77.0505685, "fusion_lat": 0.0, "is_disabled": 0, "is_reserved": 0, "rental_uris": {"ios": "https://dc.lft.to/lastmile_qr_scan", "android": "https://dc.lft.to/lastmile_qr_scan"}, "bike_id": "a2170177f3bae698c83d5c10aedcfd77", "lat": 38.916251}, {"type": "electric_scooter", "fusion_lon": 0.0, "name": "458586f6cda8174ebf709569da2a56af", "lon": -77.0148995, "fusion_lat": 0.0, "is_disabled": 0, "is_reserved": 0, "rental_uris": {"ios": "https://dc.lft.to/lastmile_qr_scan", "android": "https://dc.lft.to/lastmile_qr_scan"}, "bike_id": "458586f6cda8174ebf709569da2a56af", "lat": 38.97480383333333}, {"type": "electric_scooter", "fusion_lon": 0.0, "name": "460f16411e6ace668f578eb43c4ff9f8", "lon": -77.038086, "fusion_lat": 0.0, "is_disabled": 0, "is_reserved": 0, "rental_uris": {"ios": "https://dc.lft.to/lastmile_qr_scan", "android": "https://dc.lft.to/lastmile_qr_scan"}, "bike_id": "460f16411e6ace668f578eb43c4ff9f8", "lat": 38.93034733333333}, {"type": "electric_scooter", "fusion_lon": 0.0, "name": "67443ef5c36abb4f4fca08c1f800e2fb", "lon": -76.97732516666667, "fusion_lat": 0.0, "is_disabled": 0, "is_reserved": 0, "rental_uris": {"ios": "https://dc.lft.to/lastmile_qr_scan", "android": "https://dc.lft.to/lastmile_qr_scan"}, "bike_id": "67443ef5c36abb4f4fca08c1f800e2fb", "lat": 38.895214833333334}, {"type": "electric_scooter", "fusion_lon": 0.0, "name": "2147c054d1551bb4e9b6cbf5f29f141b", "lon": -77.00504816666667, "fusion_lat": 0.0, "is_disabled": 0, "is_reserved": 0, "rental_uris": {"ios": "https://dc.lft.to/lastmile_qr_scan", "android": "https://dc.lft.to/lastmile_qr_scan"}, "bike_id": "2147c054d1551bb4e9b6cbf5f29f141b", "lat": 38.91274833333333}, {"type": "electric_scooter", "fusion_lon": 0.0, "name": "383ecf36686935f52082161e646c556f", "lon": -77.04152116666667, "fusion_lat": 0.0, "is_disabled": 0, "is_reserved": 0, "rental_uris": {"ios": "https://dc.lft.to/lastmile_qr_scan", "android": "https://dc.lft.to/lastmile_qr_scan"}, "bike_id": "383ecf36686935f52082161e646c556f", "lat": 38.9234775}, {"type": "electric_scooter", "fusion_lon": 0.0, "name": "0d3ad4251a8ed9e6707bbce58058b4ac", "lon": -77.04882766666667, "fusion_lat": 0.0, "is_disabled": 0, "is_reserved": 0, "rental_uris": {"ios": "https://dc.lft.to/lastmile_qr_scan", "android": "https://dc.lft.to/lastmile_qr_scan"}, "bike_id": "0d3ad4251a8ed9e6707bbce58058b4ac", "lat": 38.91405733333333}, {"type": "electric_scooter", "fusion_lon": 0.0, "name": "8a4de5fc8bc58c4004060e82d2b6ad5a", "lon": -77.04046666666666, "fusion_lat": 0.0, "is_disabled": 0, "is_reserved": 0, "rental_uris": {"ios": "https://dc.lft.to/lastmile_qr_scan", "android": "https://dc.lft.to/lastmile_qr_scan"}, "bike_id": "8a4de5fc8bc58c4004060e82d2b6ad5a", "lat": 38.9044815}, {"type": "electric_scooter", "fusion_lon": 0.0, "name": "c0d90ccc7460b32db22226ea65722bde", "lon": -77.02794783333333, "fusion_lat": 0.0, "is_disabled": 0, "is_reserved": 0, "rental_uris": {"ios": "https://dc.lft.to/lastmile_qr_scan", "android": "https://dc.lft.to/lastmile_qr_scan"}, "bike_id": "c0d90ccc7460b32db22226ea65722bde", "lat": 38.910107333333336}, {"type": "electric_scooter", "fusion_lon": 0.0, "name": "4b9f5918db2f4e640daed4931460e94f", "lon": -77.03349866666667, "fusion_lat": 0.0, "is_disabled": 0, "is_reserved": 0, "rental_uris": {"ios": "https://dc.lft.to/lastmile_qr_scan", "android": "https://dc.lft.to/lastmile_qr_scan"}, "bike_id": "4b9f5918db2f4e640daed4931460e94f", "lat": 38.9224005}, {"type": "electric_scooter", "fusion_lon": 0.0, "name": "8406e958eef25ad677bcda6c90e6a214", "lon": -77.0321045, "fusion_lat": 0.0, "is_disabled": 0, "is_reserved": 0, "rental_uris": {"ios": "https://dc.lft.to/lastmile_qr_scan", "android": "https://dc.lft.to/lastmile_qr_scan"}, "bike_id": "8406e958eef25ad677bcda6c90e6a214", "lat": 38.925833}, {"type": "electric_scooter", "fusion_lon": 0.0, "name": "196a57530d994fd9b1f432cd2ceb884d", "lon": -77.03289016666666, "fusion_lat": 0.0, "is_disabled": 0, "is_reserved": 0, "rental_uris": {"ios": "https://dc.lft.to/lastmile_qr_scan", "android": "https://dc.lft.to/lastmile_qr_scan"}, "bike_id": "196a57530d994fd9b1f432cd2ceb884d", "lat": 38.928847833333336}, {"type": "electric_bike", "fusion_lon": 0.0, "name": "54b4a831373d19a6139fa3d25f949be1", "lon": -76.9233835, "fusion_lat": 0.0, "is_disabled": 0, "is_reserved": 0, "rental_uris": {"ios": "https://dc.lft.to/lastmile_qr_scan", "android": "https://dc.lft.to/lastmile_qr_scan"}, "bike_id": "54b4a831373d19a6139fa3d25f949be1", "lat": 38.910496333333334}, {"type": "electric_scooter", "fusion_lon": 0.0, "name": "0204de82d447ad7a450c1a4b0005d4ae", "lon": -77.02402466666666, "fusion_lat": 0.0, "is_disabled": 0, "is_reserved": 0, "rental_uris": {"ios": "https://dc.lft.to/lastmile_qr_scan", "android": "https://dc.lft.to/lastmile_qr_scan"}, "bike_id": "0204de82d447ad7a450c1a4b0005d4ae", "lat": 38.89672183333333}, {"type": "electric_scooter", "fusion_lon": 0.0, "name": "fa20cb02cf219f21d1f5bda779435b1c", "lon": -77.0487265, "fusion_lat": 0.0, "is_disabled": 0, "is_reserved": 0, "rental_uris": {"ios": "https://dc.lft.to/lastmile_qr_scan", "android": "https://dc.lft.to/lastmile_qr_scan"}, "bike_id": "fa20cb02cf219f21d1f5bda779435b1c", "lat": 38.900890833333335}, {"type": "electric_scooter", "fusion_lon": 0.0, "name": "6bfb81edaacf96d0fb22ed877215df44", "lon": -77.0228, "fusion_lat": 0.0, "is_disabled": 0, "is_reserved": 0, "rental_uris": {"ios": "https://dc.lft.to/lastmile_qr_scan", "android": "https://dc.lft.to/lastmile_qr_scan"}, "bike_id": "6bfb81edaacf96d0fb22ed877215df44", "lat": 38.925155333333336}, {"type": "electric_scooter", "fusion_lon": 0.0, "name": "90e5b5ec335860eafd3e2f75ab4dcd36", "lon": -77.01962666666667, "fusion_lat": 0.0, "is_disabled": 0, "is_reserved": 0, "rental_uris": {"ios": "https://dc.lft.to/lastmile_qr_scan", "android": "https://dc.lft.to/lastmile_qr_scan"}, "bike_id": "90e5b5ec335860eafd3e2f75ab4dcd36", "lat": 38.8905435}, {"type": "electric_scooter", "fusion_lon": 0.0, "name": "e7d84f26a6eab1e7a39c44d77bd8eb57", "lon": -77.0789075, "fusion_lat": 0.0, "is_disabled": 0, "is_reserved": 0, "rental_uris": {"ios": "https://dc.lft.to/lastmile_qr_scan", "android": "https://dc.lft.to/lastmile_qr_scan"}, "bike_id": "e7d84f26a6eab1e7a39c44d77bd8eb57", "lat": 38.928649}, {"type": "electric_scooter", "fusion_lon": 0.0, "name": "c3c332e6eeb66b737415856cc0749146", "lon": -77.0295995, "fusion_lat": 0.0, "is_disabled": 0, "is_reserved": 0, "rental_uris": {"ios": "https://dc.lft.to/lastmile_qr_scan", "android": "https://dc.lft.to/lastmile_qr_scan"}, "bike_id": "c3c332e6eeb66b737415856cc0749146", "lat": 38.90162566666667}, {"type": "electric_scooter", "fusion_lon": 0.0, "name": "5a46381997cd593c88987c4f52a46a66", "lon": -77.01957616666667, "fusion_lat": 0.0, "is_disabled": 0, "is_reserved": 0, "rental_uris": {"ios": "https://dc.lft.to/lastmile_qr_scan", "android": "https://dc.lft.to/lastmile_qr_scan"}, "bike_id": "5a46381997cd593c88987c4f52a46a66", "lat": 38.923344}, {"type": "electric_scooter", "fusion_lon": 0.0, "name": "39c6d26693b753615ae652e349a8e6d4", "lon": -77.05680916666667, "fusion_lat": 0.0, "is_disabled": 0, "is_reserved": 0, "rental_uris": {"ios": "https://dc.lft.to/lastmile_qr_scan", "android": "https://dc.lft.to/lastmile_qr_scan"}, "bike_id": "39c6d26693b753615ae652e349a8e6d4", "lat": 38.923361166666666}, {"type": "electric_scooter", "fusion_lon": 0.0, "name": "8bae4a874c16e99aa66d085a23eef983", "lon": -77.02423983333334, "fusion_lat": 0.0, "is_disabled": 0, "is_reserved": 0, "rental_uris": {"ios": "https://dc.lft.to/lastmile_qr_scan", "android": "https://dc.lft.to/lastmile_qr_scan"}, "bike_id": "8bae4a874c16e99aa66d085a23eef983", "lat": 38.90127283333333}, {"type": "electric_scooter", "fusion_lon": 0.0, "name": "9bf21acc3bceaac08343bb8895919c26", "lon": -76.927916, "fusion_lat": 0.0, "is_disabled": 0, "is_reserved": 0, "rental_uris": {"ios": "https://dc.lft.to/lastmile_qr_scan", "android": "https://dc.lft.to/lastmile_qr_scan"}, "bike_id": "9bf21acc3bceaac08343bb8895919c26", "lat": 38.883625}, {"type": "electric_scooter", "fusion_lon": 0.0, "name": "b46f07d1f65cd2881fc05c560d51724e", "lon": -77.04361083333333, "fusion_lat": 0.0, "is_disabled": 0, "is_reserved": 0, "rental_uris": {"ios": "https://dc.lft.to/lastmile_qr_scan", "android": "https://dc.lft.to/lastmile_qr_scan"}, "bike_id": "b46f07d1f65cd2881fc05c560d51724e", "lat": 38.90724516666667}, {"type": "electric_scooter", "fusion_lon": 0.0, "name": "849e13c5bb437ea5351de93c9e2b3879", "lon": -77.039403, "fusion_lat": 0.0, "is_disabled": 0, "is_reserved": 0, "rental_uris": {"ios": "https://dc.lft.to/lastmile_qr_scan", "android": "https://dc.lft.to/lastmile_qr_scan"}, "bike_id": "849e13c5bb437ea5351de93c9e2b3879", "lat": 38.908212}, {"type": "electric_scooter", "fusion_lon": 0.0, "name": "48ce667b3648ca05dbef3212a5e5ad5f", "lon": -77.04390716666667, "fusion_lat": 0.0, "is_disabled": 0, "is_reserved": 0, "rental_uris": {"ios": "https://dc.lft.to/lastmile_qr_scan", "android": "https://dc.lft.to/lastmile_qr_scan"}, "bike_id": "48ce667b3648ca05dbef3212a5e5ad5f", "lat": 38.9014455}, {"type": "electric_scooter", "fusion_lon": 0.0, "name": "86e1c65f3225240cab396373c7914f06", "lon": -77.023966, "fusion_lat": 0.0, "is_disabled": 0, "is_reserved": 0, "rental_uris": {"ios": "https://dc.lft.to/lastmile_qr_scan", "android": "https://dc.lft.to/lastmile_qr_scan"}, "bike_id": "86e1c65f3225240cab396373c7914f06", "lat": 38.933741}, {"type": "electric_scooter", "fusion_lon": 0.0, "name": "6765b7b742586d69eaf0c60f86594e72", "lon": -77.04113566666666, "fusion_lat": 0.0, "is_disabled": 0, "is_reserved": 0, "rental_uris": {"ios": "https://dc.lft.to/lastmile_qr_scan", "android": "https://dc.lft.to/lastmile_qr_scan"}, "bike_id": "6765b7b742586d69eaf0c60f86594e72", "lat": 38.920907}, {"type": "electric_scooter", "fusion_lon": 0.0, "name": "f998f392935110a0735eae70d1e790bc", "lon": -77.04494766666667, "fusion_lat": 0.0, "is_disabled": 0, "is_reserved": 0, "rental_uris": {"ios": "https://dc.lft.to/lastmile_qr_scan", "android": "https://dc.lft.to/lastmile_qr_scan"}, "bike_id": "f998f392935110a0735eae70d1e790bc", "lat": 38.899537333333335}, {"type": "electric_scooter", "fusion_lon": 0.0, "name": "3442e48865c7c94c2facd5e46793579f", "lon": -76.98675216666666, "fusion_lat": 0.0, "is_disabled": 0, "is_reserved": 0, "rental_uris": {"ios": "https://dc.lft.to/lastmile_qr_scan", "android": "https://dc.lft.to/lastmile_qr_scan"}, "bike_id": "3442e48865c7c94c2facd5e46793579f", "lat": 38.85956516666667}, {"type": "electric_scooter", "fusion_lon": 0.0, "name": "0bd7e3e30b3315d67389cf1cc3bb4d92", "lon": -77.004191, "fusion_lat": 0.0, "is_disabled": 0, "is_reserved": 0, "rental_uris": {"ios": "https://dc.lft.to/lastmile_qr_scan", "android": "https://dc.lft.to/lastmile_qr_scan"}, "bike_id": "0bd7e3e30b3315d67389cf1cc3bb4d92", "lat": 38.874573166666664}, {"type": "electric_scooter", "fusion_lon": 0.0, "name": "5838c3faf22843ded2b1f2f01940d04f", "lon": -76.93908133333333, "fusion_lat": 0.0, "is_disabled": 0, "is_reserved": 0, "rental_uris": {"ios": "https://dc.lft.to/lastmile_qr_scan", "android": "https://dc.lft.to/lastmile_qr_scan"}, "bike_id": "5838c3faf22843ded2b1f2f01940d04f", "lat": 38.89687466666667}, {"type": "electric_scooter", "fusion_lon": 0.0, "name": "506c50e6f901d0266d9b0d0d2bb3a755", "lon": -77.0445575, "fusion_lat": 0.0, "is_disabled": 0, "is_reserved": 0, "rental_uris": {"ios": "https://dc.lft.to/lastmile_qr_scan", "android": "https://dc.lft.to/lastmile_qr_scan"}, "bike_id": "506c50e6f901d0266d9b0d0d2bb3a755", "lat": 38.91028166666667}, {"type": "electric_scooter", "fusion_lon": 0.0, "name": "db78ec9ae840fb683449b1ea417fb7fd", "lon": -77.072902, "fusion_lat": 0.0, "is_disabled": 0, "is_reserved": 0, "rental_uris": {"ios": "https://dc.lft.to/lastmile_qr_scan", "android": "https://dc.lft.to/lastmile_qr_scan"}, "bike_id": "db78ec9ae840fb683449b1ea417fb7fd", "lat": 38.93522566666667}, {"type": "electric_scooter", "fusion_lon": 0.0, "name": "84a318c9494ee5fc7bfad19741e49c0b", "lon": -77.05339216666667, "fusion_lat": 0.0, "is_disabled": 0, "is_reserved": 0, "rental_uris": {"ios": "https://dc.lft.to/lastmile_qr_scan", "android": "https://dc.lft.to/lastmile_qr_scan"}, "bike_id": "84a318c9494ee5fc7bfad19741e49c0b", "lat": 38.92792433333334}, {"type": "electric_bike", "fusion_lon": 0.0, "name": "58a4603a781dee878bc6580e6188bdb6", "lon": -76.9877225, "fusion_lat": 0.0, "is_disabled": 0, "is_reserved": 0, "rental_uris": {"ios": "https://dc.lft.to/lastmile_qr_scan", "android": "https://dc.lft.to/lastmile_qr_scan"}, "bike_id": "58a4603a781dee878bc6580e6188bdb6", "lat": 38.95455716666667}, {"type": "electric_scooter", "fusion_lon": 0.0, "name": "dbdd7a9da834937831f5b35b9f3c4222", "lon": -77.04674983333334, "fusion_lat": 0.0, "is_disabled": 0, "is_reserved": 0, "rental_uris": {"ios": "https://dc.lft.to/lastmile_qr_scan", "android": "https://dc.lft.to/lastmile_qr_scan"}, "bike_id": "dbdd7a9da834937831f5b35b9f3c4222", "lat": 38.8937365}, {"type": "electric_scooter", "fusion_lon": 0.0, "name": "6f03f2a05f6f80ec49717b690507a93e", "lon": -76.996239, "fusion_lat": 0.0, "is_disabled": 0, "is_reserved": 0, "rental_uris": {"ios": "https://dc.lft.to/lastmile_qr_scan", "android": "https://dc.lft.to/lastmile_qr_scan"}, "bike_id": "6f03f2a05f6f80ec49717b690507a93e", "lat": 38.88416483333334}, {"type": "electric_scooter", "fusion_lon": 0.0, "name": "b66da2f4e12c5366a6c50e694a199967", "lon": -77.03942483333333, "fusion_lat": 0.0, "is_disabled": 0, "is_reserved": 0, "rental_uris": {"ios": "https://dc.lft.to/lastmile_qr_scan", "android": "https://dc.lft.to/lastmile_qr_scan"}, "bike_id": "b66da2f4e12c5366a6c50e694a199967", "lat": 38.899086833333335}, {"type": "electric_bike", "fusion_lon": 0.0, "name": "7d604dc68ddce6c572f072b5481228cb", "lon": -77.03431683333334, "fusion_lat": 0.0, "is_disabled": 0, "is_reserved": 0, "rental_uris": {"ios": "https://dc.lft.to/lastmile_qr_scan", "android": "https://dc.lft.to/lastmile_qr_scan"}, "bike_id": "7d604dc68ddce6c572f072b5481228cb", "lat": 38.96623666666667}, {"type": "electric_scooter", "fusion_lon": 0.0, "name": "d3ad133b430eb7aa9e1d8f2121c69295", "lon": -77.043585, "fusion_lat": 0.0, "is_disabled": 0, "is_reserved": 0, "rental_uris": {"ios": "https://dc.lft.to/lastmile_qr_scan", "android": "https://dc.lft.to/lastmile_qr_scan"}, "bike_id": "d3ad133b430eb7aa9e1d8f2121c69295", "lat": 38.91121066666667}, {"type": "electric_scooter", "fusion_lon": 0.0, "name": "9045818c657d1e50e3037f15e267275b", "lon": -77.038405, "fusion_lat": 0.0, "is_disabled": 0, "is_reserved": 0, "rental_uris": {"ios": "https://dc.lft.to/lastmile_qr_scan", "android": "https://dc.lft.to/lastmile_qr_scan"}, "bike_id": "9045818c657d1e50e3037f15e267275b", "lat": 38.908709333333334}, {"type": "electric_scooter", "fusion_lon": 0.0, "name": "f9f75d1611cc5cbe26a7d91f532b5dde", "lon": -77.03286983333334, "fusion_lat": 0.0, "is_disabled": 0, "is_reserved": 0, "rental_uris": {"ios": "https://dc.lft.to/lastmile_qr_scan", "android": "https://dc.lft.to/lastmile_qr_scan"}, "bike_id": "f9f75d1611cc5cbe26a7d91f532b5dde", "lat": 38.930691833333334}, {"type": "electric_scooter", "fusion_lon": 0.0, "name": "939b88fe9e13ff5a276a33b25c15382a", "lon": -77.048461, "fusion_lat": 0.0, "is_disabled": 0, "is_reserved": 0, "rental_uris": {"ios": "https://dc.lft.to/lastmile_qr_scan", "android": "https://dc.lft.to/lastmile_qr_scan"}, "bike_id": "939b88fe9e13ff5a276a33b25c15382a", "lat": 38.900644166666666}, {"type": "electric_scooter", "fusion_lon": 0.0, "name": "899730266254ab7465f41e0f674f0318", "lon": -77.00226116666667, "fusion_lat": 0.0, "is_disabled": 0, "is_reserved": 0, "rental_uris": {"ios": "https://dc.lft.to/lastmile_qr_scan", "android": "https://dc.lft.to/lastmile_qr_scan"}, "bike_id": "899730266254ab7465f41e0f674f0318", "lat": 38.92510583333333}, {"type": "electric_scooter", "fusion_lon": 0.0, "name": "f7471347d451b4f7b900e16f03dfbc60", "lon": -77.03438016666666, "fusion_lat": 0.0, "is_disabled": 0, "is_reserved": 0, "rental_uris": {"ios": "https://dc.lft.to/lastmile_qr_scan", "android": "https://dc.lft.to/lastmile_qr_scan"}, "bike_id": "f7471347d451b4f7b900e16f03dfbc60", "lat": 38.921532}, {"type": "electric_bike", "fusion_lon": 0.0, "name": "0a30cdc71dad86de11ebc430e286c7c9", "lon": -77.09338516666666, "fusion_lat": 0.0, "is_disabled": 0, "is_reserved": 0, "rental_uris": {"ios": "https://dc.lft.to/lastmile_qr_scan", "android": "https://dc.lft.to/lastmile_qr_scan"}, "bike_id": "0a30cdc71dad86de11ebc430e286c7c9", "lat": 38.98241866666667}, {"type": "electric_scooter", "fusion_lon": 0.0, "name": "71593f35a338fcd3468a956536c40c39", "lon": -77.00634283333333, "fusion_lat": 0.0, "is_disabled": 0, "is_reserved": 0, "rental_uris": {"ios": "https://dc.lft.to/lastmile_qr_scan", "android": "https://dc.lft.to/lastmile_qr_scan"}, "bike_id": "71593f35a338fcd3468a956536c40c39", "lat": 38.871723833333334}, {"type": "electric_scooter", "fusion_lon": 0.0, "name": "9994ecea5195f4f8d1fe0315e9278cac", "lon": -77.06608283333334, "fusion_lat": 0.0, "is_disabled": 0, "is_reserved": 0, "rental_uris": {"ios": "https://dc.lft.to/lastmile_qr_scan", "android": "https://dc.lft.to/lastmile_qr_scan"}, "bike_id": "9994ecea5195f4f8d1fe0315e9278cac", "lat": 38.936608}, {"type": "electric_scooter", "fusion_lon": 0.0, "name": "e38b6e4af27552437e3e110c66bb721a", "lon": -77.0006905, "fusion_lat": 0.0, "is_disabled": 0, "is_reserved": 0, "rental_uris": {"ios": "https://dc.lft.to/lastmile_qr_scan", "android": "https://dc.lft.to/lastmile_qr_scan"}, "bike_id": "e38b6e4af27552437e3e110c66bb721a", "lat": 38.88266616666667}, {"type": "electric_scooter", "fusion_lon": 0.0, "name": "49d2a3568530580ea774f9095cabfea7", "lon": -77.03471983333333, "fusion_lat": 0.0, "is_disabled": 0, "is_reserved": 0, "rental_uris": {"ios": "https://dc.lft.to/lastmile_qr_scan", "android": "https://dc.lft.to/lastmile_qr_scan"}, "bike_id": "49d2a3568530580ea774f9095cabfea7", "lat": 38.92256866666666}, {"type": "electric_scooter", "fusion_lon": 0.0, "name": "e821c1b7cb28032c79e9d37644300197", "lon": -77.03797533333334, "fusion_lat": 0.0, "is_disabled": 0, "is_reserved": 0, "rental_uris": {"ios": "https://dc.lft.to/lastmile_qr_scan", "android": "https://dc.lft.to/lastmile_qr_scan"}, "bike_id": "e821c1b7cb28032c79e9d37644300197", "lat": 38.92380716666667}, {"type": "electric_scooter", "fusion_lon": 0.0, "name": "76410015b614076540baddaa1adae775", "lon": -77.01987883333334, "fusion_lat": 0.0, "is_disabled": 0, "is_reserved": 0, "rental_uris": {"ios": "https://dc.lft.to/lastmile_qr_scan", "android": "https://dc.lft.to/lastmile_qr_scan"}, "bike_id": "76410015b614076540baddaa1adae775", "lat": 38.88392316666667}, {"type": "electric_scooter", "fusion_lon": 0.0, "name": "dde51856105a376f37029863a9197785", "lon": -77.02166166666666, "fusion_lat": 0.0, "is_disabled": 0, "is_reserved": 0, "rental_uris": {"ios": "https://dc.lft.to/lastmile_qr_scan", "android": "https://dc.lft.to/lastmile_qr_scan"}, "bike_id": "dde51856105a376f37029863a9197785", "lat": 38.9143105}, {"type": "electric_scooter", "fusion_lon": 0.0, "name": "06b5e32c0204800e38ef090650164335", "lon": -77.04031083333334, "fusion_lat": 0.0, "is_disabled": 0, "is_reserved": 0, "rental_uris": {"ios": "https://dc.lft.to/lastmile_qr_scan", "android": "https://dc.lft.to/lastmile_qr_scan"}, "bike_id": "06b5e32c0204800e38ef090650164335", "lat": 38.9306665}, {"type": "electric_scooter", "fusion_lon": 0.0, "name": "718437a4b40d5d8f1e3b7d463145badd", "lon": -77.0280645, "fusion_lat": 0.0, "is_disabled": 0, "is_reserved": 0, "rental_uris": {"ios": "https://dc.lft.to/lastmile_qr_scan", "android": "https://dc.lft.to/lastmile_qr_scan"}, "bike_id": "718437a4b40d5d8f1e3b7d463145badd", "lat": 38.897061666666666}, {"type": "electric_bike", "fusion_lon": 0.0, "name": "0d6fbe68f4350f25877d349d918d3b33", "lon": -77.02709133333333, "fusion_lat": 0.0, "is_disabled": 0, "is_reserved": 0, "rental_uris": {"ios": "https://dc.lft.to/lastmile_qr_scan", "android": "https://dc.lft.to/lastmile_qr_scan"}, "bike_id": "0d6fbe68f4350f25877d349d918d3b33", "lat": 38.93123583333333}, {"type": "electric_scooter", "fusion_lon": 0.0, "name": "cf7eb3553b84caae319b73f295e5420d", "lon": -77.0399795, "fusion_lat": 0.0, "is_disabled": 0, "is_reserved": 0, "rental_uris": {"ios": "https://dc.lft.to/lastmile_qr_scan", "android": "https://dc.lft.to/lastmile_qr_scan"}, "bike_id": "cf7eb3553b84caae319b73f295e5420d", "lat": 38.934337666666664}, {"type": "electric_scooter", "fusion_lon": 0.0, "name": "ca8378c69d960870465dcd7b14a871ae", "lon": -77.0502315, "fusion_lat": 0.0, "is_disabled": 0, "is_reserved": 0, "rental_uris": {"ios": "https://dc.lft.to/lastmile_qr_scan", "android": "https://dc.lft.to/lastmile_qr_scan"}, "bike_id": "ca8378c69d960870465dcd7b14a871ae", "lat": 38.89656166666666}, {"type": "electric_scooter", "fusion_lon": 0.0, "name": "bfdb0d6118392d6860d46a3fed60b534", "lon": -77.02006916666667, "fusion_lat": 0.0, "is_disabled": 0, "is_reserved": 0, "rental_uris": {"ios": "https://dc.lft.to/lastmile_qr_scan", "android": "https://dc.lft.to/lastmile_qr_scan"}, "bike_id": "bfdb0d6118392d6860d46a3fed60b534", "lat": 38.9003285}, {"type": "electric_scooter", "fusion_lon": 0.0, "name": "2ed39f4a7e014a1a6eac6dc7018511d5", "lon": -77.012727, "fusion_lat": 0.0, "is_disabled": 0, "is_reserved": 0, "rental_uris": {"ios": "https://dc.lft.to/lastmile_qr_scan", "android": "https://dc.lft.to/lastmile_qr_scan"}, "bike_id": "2ed39f4a7e014a1a6eac6dc7018511d5", "lat": 38.897497666666666}, {"type": "electric_scooter", "fusion_lon": 0.0, "name": "18b439497df0e3b014c939b2c83d4399", "lon": -77.02399933333334, "fusion_lat": 0.0, "is_disabled": 0, "is_reserved": 0, "rental_uris": {"ios": "https://dc.lft.to/lastmile_qr_scan", "android": "https://dc.lft.to/lastmile_qr_scan"}, "bike_id": "18b439497df0e3b014c939b2c83d4399", "lat": 38.93705516666667}, {"type": "electric_scooter", "fusion_lon": 0.0, "name": "964362e340cf0508856b77736653967b", "lon": -77.0378855, "fusion_lat": 0.0, "is_disabled": 0, "is_reserved": 0, "rental_uris": {"ios": "https://dc.lft.to/lastmile_qr_scan", "android": "https://dc.lft.to/lastmile_qr_scan"}, "bike_id": "964362e340cf0508856b77736653967b", "lat": 38.928291}, {"type": "electric_scooter", "fusion_lon": 0.0, "name": "d194a8556009c0a15ea2199f7562dd2a", "lon": -77.03153783333333, "fusion_lat": 0.0, "is_disabled": 0, "is_reserved": 0, "rental_uris": {"ios": "https://dc.lft.to/lastmile_qr_scan", "android": "https://dc.lft.to/lastmile_qr_scan"}, "bike_id": "d194a8556009c0a15ea2199f7562dd2a", "lat": 38.892329833333335}, {"type": "electric_scooter", "fusion_lon": 0.0, "name": "4c90149bc35dd81ff03fcfc6f67adeb5", "lon": -77.02507566666667, "fusion_lat": 0.0, "is_disabled": 0, "is_reserved": 0, "rental_uris": {"ios": "https://dc.lft.to/lastmile_qr_scan", "android": "https://dc.lft.to/lastmile_qr_scan"}, "bike_id": "4c90149bc35dd81ff03fcfc6f67adeb5", "lat": 38.9196645}, {"type": "electric_scooter", "fusion_lon": 0.0, "name": "e5b53fa2c31e401a0077e1323a3306e0", "lon": -77.01612683333333, "fusion_lat": 0.0, "is_disabled": 0, "is_reserved": 0, "rental_uris": {"ios": "https://dc.lft.to/lastmile_qr_scan", "android": "https://dc.lft.to/lastmile_qr_scan"}, "bike_id": "e5b53fa2c31e401a0077e1323a3306e0", "lat": 38.89964966666667}, {"type": "electric_scooter", "fusion_lon": 0.0, "name": "0e3e23e0f86eb49317c4d2f19aca9a05", "lon": -77.04289733333333, "fusion_lat": 0.0, "is_disabled": 0, "is_reserved": 0, "rental_uris": {"ios": "https://dc.lft.to/lastmile_qr_scan", "android": "https://dc.lft.to/lastmile_qr_scan"}, "bike_id": "0e3e23e0f86eb49317c4d2f19aca9a05", "lat": 38.911969}, {"type": "electric_scooter", "fusion_lon": 0.0, "name": "858cd149d7e9ef22ffc485bb354ff2f7", "lon": -77.04249633333333, "fusion_lat": 0.0, "is_disabled": 0, "is_reserved": 0, "rental_uris": {"ios": "https://dc.lft.to/lastmile_qr_scan", "android": "https://dc.lft.to/lastmile_qr_scan"}, "bike_id": "858cd149d7e9ef22ffc485bb354ff2f7", "lat": 38.92241683333334}, {"type": "electric_scooter", "fusion_lon": 0.0, "name": "edf00cae1a2d73459446179def2c2310", "lon": -76.97974416666666, "fusion_lat": 0.0, "is_disabled": 0, "is_reserved": 0, "rental_uris": {"ios": "https://dc.lft.to/lastmile_qr_scan", "android": "https://dc.lft.to/lastmile_qr_scan"}, "bike_id": "edf00cae1a2d73459446179def2c2310", "lat": 38.870729}, {"type": "electric_scooter", "fusion_lon": 0.0, "name": "a5db9a921120a299b1660430752ce4cb", "lon": -76.9272325, "fusion_lat": 0.0, "is_disabled": 0, "is_reserved": 0, "rental_uris": {"ios": "https://dc.lft.to/lastmile_qr_scan", "android": "https://dc.lft.to/lastmile_qr_scan"}, "bike_id": "a5db9a921120a299b1660430752ce4cb", "lat": 38.8804535}, {"type": "electric_scooter", "fusion_lon": 0.0, "name": "2526d829371336fb7df995b870341692", "lon": -77.06307383333333, "fusion_lat": 0.0, "is_disabled": 0, "is_reserved": 0, "rental_uris": {"ios": "https://dc.lft.to/lastmile_qr_scan", "android": "https://dc.lft.to/lastmile_qr_scan"}, "bike_id": "2526d829371336fb7df995b870341692", "lat": 38.9069195}, {"type": "electric_scooter", "fusion_lon": 0.0, "name": "977e341828e39a757d0b92bee2c46895", "lon": -77.03863566666666, "fusion_lat": 0.0, "is_disabled": 0, "is_reserved": 0, "rental_uris": {"ios": "https://dc.lft.to/lastmile_qr_scan", "android": "https://dc.lft.to/lastmile_qr_scan"}, "bike_id": "977e341828e39a757d0b92bee2c46895", "lat": 38.91260233333333}, {"type": "electric_scooter", "fusion_lon": 0.0, "name": "c9c1086b75fea0f535ad50ee1519866e", "lon": -77.04499166666666, "fusion_lat": 0.0, "is_disabled": 0, "is_reserved": 0, "rental_uris": {"ios": "https://dc.lft.to/lastmile_qr_scan", "android": "https://dc.lft.to/lastmile_qr_scan"}, "bike_id": "c9c1086b75fea0f535ad50ee1519866e", "lat": 38.909589}, {"type": "electric_scooter", "fusion_lon": 0.0, "name": "ab2e49ebfe50d4b00d48df0640d2ce4f", "lon": -77.01241616666667, "fusion_lat": 0.0, "is_disabled": 0, "is_reserved": 0, "rental_uris": {"ios": "https://dc.lft.to/lastmile_qr_scan", "android": "https://dc.lft.to/lastmile_qr_scan"}, "bike_id": "ab2e49ebfe50d4b00d48df0640d2ce4f", "lat": 38.89857333333333}, {"type": "electric_scooter", "fusion_lon": 0.0, "name": "0cdf4076226668302ec780fa84d34dd8", "lon": -77.01106383333334, "fusion_lat": 0.0, "is_disabled": 0, "is_reserved": 0, "rental_uris": {"ios": "https://dc.lft.to/lastmile_qr_scan", "android": "https://dc.lft.to/lastmile_qr_scan"}, "bike_id": "0cdf4076226668302ec780fa84d34dd8", "lat": 38.895637666666666}, {"type": "electric_scooter", "fusion_lon": 0.0, "name": "1623776a318a6d1f0bd9dea5197a7f2c", "lon": -77.0365995, "fusion_lat": 0.0, "is_disabled": 0, "is_reserved": 0, "rental_uris": {"ios": "https://dc.lft.to/lastmile_qr_scan", "android": "https://dc.lft.to/lastmile_qr_scan"}, "bike_id": "1623776a318a6d1f0bd9dea5197a7f2c", "lat": 38.9183275}, {"type": "electric_bike", "fusion_lon": 0.0, "name": "84d8f4ac8f0725840053db44a5d156e4", "lon": -77.23411766666666, "fusion_lat": 0.0, "is_disabled": 0, "is_reserved": 0, "rental_uris": {"ios": "https://dc.lft.to/lastmile_qr_scan", "android": "https://dc.lft.to/lastmile_qr_scan"}, "bike_id": "84d8f4ac8f0725840053db44a5d156e4", "lat": 38.875807}, {"type": "electric_scooter", "fusion_lon": 0.0, "name": "e73d685fa9e5bf4c531b6d3096254bd6", "lon": -77.0289575, "fusion_lat": 0.0, "is_disabled": 0, "is_reserved": 0, "rental_uris": {"ios": "https://dc.lft.to/lastmile_qr_scan", "android": "https://dc.lft.to/lastmile_qr_scan"}, "bike_id": "e73d685fa9e5bf4c531b6d3096254bd6", "lat": 38.923241833333336}, {"type": "electric_scooter", "fusion_lon": 0.0, "name": "9ca62850431efedaa8cbd7b746454df7", "lon": -77.017868, "fusion_lat": 0.0, "is_disabled": 0, "is_reserved": 0, "rental_uris": {"ios": "https://dc.lft.to/lastmile_qr_scan", "android": "https://dc.lft.to/lastmile_qr_scan"}, "bike_id": "9ca62850431efedaa8cbd7b746454df7", "lat": 38.877481333333336}, {"type": "electric_bike", "fusion_lon": 0.0, "name": "d13afad15020bd23075e8d84c258d103", "lon": -76.98751633333333, "fusion_lat": 0.0, "is_disabled": 0, "is_reserved": 0, "rental_uris": {"ios": "https://dc.lft.to/lastmile_qr_scan", "android": "https://dc.lft.to/lastmile_qr_scan"}, "bike_id": "d13afad15020bd23075e8d84c258d103", "lat": 38.85790133333333}, {"type": "electric_scooter", "fusion_lon": 0.0, "name": "01aa61b096f412b747c4d11c752685fb", "lon": -77.0379345, "fusion_lat": 0.0, "is_disabled": 0, "is_reserved": 0, "rental_uris": {"ios": "https://dc.lft.to/lastmile_qr_scan", "android": "https://dc.lft.to/lastmile_qr_scan"}, "bike_id": "01aa61b096f412b747c4d11c752685fb", "lat": 38.92199}, {"type": "electric_scooter", "fusion_lon": 0.0, "name": "6a1294496d81b9912da3a8954f66f1c9", "lon": -77.03104566666667, "fusion_lat": 0.0, "is_disabled": 0, "is_reserved": 0, "rental_uris": {"ios": "https://dc.lft.to/lastmile_qr_scan", "android": "https://dc.lft.to/lastmile_qr_scan"}, "bike_id": "6a1294496d81b9912da3a8954f66f1c9", "lat": 38.919203}, {"type": "electric_scooter", "fusion_lon": 0.0, "name": "e5c837633319305295f918bf7a5c47ff", "lon": -77.02207166666666, "fusion_lat": 0.0, "is_disabled": 0, "is_reserved": 0, "rental_uris": {"ios": "https://dc.lft.to/lastmile_qr_scan", "android": "https://dc.lft.to/lastmile_qr_scan"}, "bike_id": "e5c837633319305295f918bf7a5c47ff", "lat": 38.88735466666667}, {"type": "electric_scooter", "fusion_lon": 0.0, "name": "c39b39e371cef021d987e77e52ac3e0b", "lon": -77.039754, "fusion_lat": 0.0, "is_disabled": 0, "is_reserved": 0, "rental_uris": {"ios": "https://dc.lft.to/lastmile_qr_scan", "android": "https://dc.lft.to/lastmile_qr_scan"}, "bike_id": "c39b39e371cef021d987e77e52ac3e0b", "lat": 38.90143783333333}, {"type": "electric_scooter", "fusion_lon": 0.0, "name": "935f1ddab43a86e59f4342ca84566a57", "lon": -77.04643316666667, "fusion_lat": 0.0, "is_disabled": 0, "is_reserved": 0, "rental_uris": {"ios": "https://dc.lft.to/lastmile_qr_scan", "android": "https://dc.lft.to/lastmile_qr_scan"}, "bike_id": "935f1ddab43a86e59f4342ca84566a57", "lat": 38.89350966666667}, {"type": "electric_scooter", "fusion_lon": 0.0, "name": "84eb17cc3e5c37a29dc0478de4250cd2", "lon": -77.03483266666667, "fusion_lat": 0.0, "is_disabled": 0, "is_reserved": 0, "rental_uris": {"ios": "https://dc.lft.to/lastmile_qr_scan", "android": "https://dc.lft.to/lastmile_qr_scan"}, "bike_id": "84eb17cc3e5c37a29dc0478de4250cd2", "lat": 38.92341966666667}, {"type": "electric_scooter", "fusion_lon": 0.0, "name": "da013f187160294a6708fafd683a6f4d", "lon": -77.0500865, "fusion_lat": 0.0, "is_disabled": 0, "is_reserved": 0, "rental_uris": {"ios": "https://dc.lft.to/lastmile_qr_scan", "android": "https://dc.lft.to/lastmile_qr_scan"}, "bike_id": "da013f187160294a6708fafd683a6f4d", "lat": 38.90212483333333}, {"type": "electric_scooter", "fusion_lon": 0.0, "name": "de00de591eff42456e373c8726a6f400", "lon": -77.02715416666666, "fusion_lat": 0.0, "is_disabled": 0, "is_reserved": 0, "rental_uris": {"ios": "https://dc.lft.to/lastmile_qr_scan", "android": "https://dc.lft.to/lastmile_qr_scan"}, "bike_id": "de00de591eff42456e373c8726a6f400", "lat": 38.92470516666667}, {"type": "electric_bike", "fusion_lon": 0.0, "name": "e73e451ab835ddebedaa194ad4374b47", "lon": -76.98151316666667, "fusion_lat": 0.0, "is_disabled": 0, "is_reserved": 0, "rental_uris": {"ios": "https://dc.lft.to/lastmile_qr_scan", "android": "https://dc.lft.to/lastmile_qr_scan"}, "bike_id": "e73e451ab835ddebedaa194ad4374b47", "lat": 39.00726266666667}, {"type": "electric_bike", "fusion_lon": 0.0, "name": "fed319a0c4068766cfe210bf10a85f75", "lon": -77.02672633333333, "fusion_lat": 0.0, "is_disabled": 0, "is_reserved": 0, "rental_uris": {"ios": "https://dc.lft.to/lastmile_qr_scan", "android": "https://dc.lft.to/lastmile_qr_scan"}, "bike_id": "fed319a0c4068766cfe210bf10a85f75", "lat": 38.92979033333334}, {"type": "electric_scooter", "fusion_lon": 0.0, "name": "9728eca36627be02a39c010cb3389865", "lon": -77.04054616666667, "fusion_lat": 0.0, "is_disabled": 0, "is_reserved": 0, "rental_uris": {"ios": "https://dc.lft.to/lastmile_qr_scan", "android": "https://dc.lft.to/lastmile_qr_scan"}, "bike_id": "9728eca36627be02a39c010cb3389865", "lat": 38.93066233333333}, {"type": "electric_scooter", "fusion_lon": 0.0, "name": "a1ba99f3ea78eac162108b5600ea7937", "lon": -77.0451975, "fusion_lat": 0.0, "is_disabled": 0, "is_reserved": 0, "rental_uris": {"ios": "https://dc.lft.to/lastmile_qr_scan", "android": "https://dc.lft.to/lastmile_qr_scan"}, "bike_id": "a1ba99f3ea78eac162108b5600ea7937", "lat": 38.90976283333333}, {"type": "electric_bike", "fusion_lon": 0.0, "name": "3921219ee757762af1097bed58febdda", "lon": -77.074582, "fusion_lat": 0.0, "is_disabled": 0, "is_reserved": 0, "rental_uris": {"ios": "https://dc.lft.to/lastmile_qr_scan", "android": "https://dc.lft.to/lastmile_qr_scan"}, "bike_id": "3921219ee757762af1097bed58febdda", "lat": 38.99536366666667}, {"type": "electric_scooter", "fusion_lon": 0.0, "name": "d22721a72e0e81996d3db94276a64541", "lon": -77.05267316666666, "fusion_lat": 0.0, "is_disabled": 0, "is_reserved": 0, "rental_uris": {"ios": "https://dc.lft.to/lastmile_qr_scan", "android": "https://dc.lft.to/lastmile_qr_scan"}, "bike_id": "d22721a72e0e81996d3db94276a64541", "lat": 38.9278845}, {"type": "electric_bike", "fusion_lon": 0.0, "name": "6af13ea3120ae0ccb7967142c01c4d82", "lon": -77.06625433333333, "fusion_lat": 0.0, "is_disabled": 0, "is_reserved": 0, "rental_uris": {"ios": "https://dc.lft.to/lastmile_qr_scan", "android": "https://dc.lft.to/lastmile_qr_scan"}, "bike_id": "6af13ea3120ae0ccb7967142c01c4d82", "lat": 38.8678445}, {"type": "electric_scooter", "fusion_lon": 0.0, "name": "341b4eaf991f5bb85e41cd7940f4fdab", "lon": -77.006952, "fusion_lat": 0.0, "is_disabled": 0, "is_reserved": 0, "rental_uris": {"ios": "https://dc.lft.to/lastmile_qr_scan", "android": "https://dc.lft.to/lastmile_qr_scan"}, "bike_id": "341b4eaf991f5bb85e41cd7940f4fdab", "lat": 38.876313833333334}, {"type": "electric_scooter", "fusion_lon": 0.0, "name": "6a521df9048c5a3f5f2e71e23ed64ef2", "lon": -77.05742816666667, "fusion_lat": 0.0, "is_disabled": 0, "is_reserved": 0, "rental_uris": {"ios": "https://dc.lft.to/lastmile_qr_scan", "android": "https://dc.lft.to/lastmile_qr_scan"}, "bike_id": "6a521df9048c5a3f5f2e71e23ed64ef2", "lat": 38.934}, {"type": "electric_scooter", "fusion_lon": 0.0, "name": "8264a2c7b629e6261167849f3ffa6a82", "lon": -77.02000666666666, "fusion_lat": 0.0, "is_disabled": 0, "is_reserved": 0, "rental_uris": {"ios": "https://dc.lft.to/lastmile_qr_scan", "android": "https://dc.lft.to/lastmile_qr_scan"}, "bike_id": "8264a2c7b629e6261167849f3ffa6a82", "lat": 38.899758}, {"type": "electric_scooter", "fusion_lon": 0.0, "name": "41fc52effcbeb862e3da26005b6e1077", "lon": -77.0303565, "fusion_lat": 0.0, "is_disabled": 0, "is_reserved": 0, "rental_uris": {"ios": "https://dc.lft.to/lastmile_qr_scan", "android": "https://dc.lft.to/lastmile_qr_scan"}, "bike_id": "41fc52effcbeb862e3da26005b6e1077", "lat": 38.92583116666667}, {"type": "electric_scooter", "fusion_lon": 0.0, "name": "021ef50966af4beccbc39139b809d0e0", "lon": -77.02157633333333, "fusion_lat": 0.0, "is_disabled": 0, "is_reserved": 0, "rental_uris": {"ios": "https://dc.lft.to/lastmile_qr_scan", "android": "https://dc.lft.to/lastmile_qr_scan"}, "bike_id": "021ef50966af4beccbc39139b809d0e0", "lat": 38.92015766666667}, {"type": "electric_scooter", "fusion_lon": 0.0, "name": "ec038e25493d803f1400e1b6e68dfae5", "lon": -77.039415, "fusion_lat": 0.0, "is_disabled": 0, "is_reserved": 0, "rental_uris": {"ios": "https://dc.lft.to/lastmile_qr_scan", "android": "https://dc.lft.to/lastmile_qr_scan"}, "bike_id": "ec038e25493d803f1400e1b6e68dfae5", "lat": 38.899043666666664}, {"type": "electric_scooter", "fusion_lon": 0.0, "name": "9952b94977a2b87cd56ce45c31692db8", "lon": -77.04141033333333, "fusion_lat": 0.0, "is_disabled": 0, "is_reserved": 0, "rental_uris": {"ios": "https://dc.lft.to/lastmile_qr_scan", "android": "https://dc.lft.to/lastmile_qr_scan"}, "bike_id": "9952b94977a2b87cd56ce45c31692db8", "lat": 38.934014}, {"type": "electric_scooter", "fusion_lon": 0.0, "name": "83ff91fb3235a1ca772e7a173d0e5c11", "lon": -77.0208205, "fusion_lat": 0.0, "is_disabled": 0, "is_reserved": 0, "rental_uris": {"ios": "https://dc.lft.to/lastmile_qr_scan", "android": "https://dc.lft.to/lastmile_qr_scan"}, "bike_id": "83ff91fb3235a1ca772e7a173d0e5c11", "lat": 38.87641216666667}, {"type": "electric_scooter", "fusion_lon": 0.0, "name": "63b5928c0ede4bf284f214d560e90a88", "lon": -76.99866116666666, "fusion_lat": 0.0, "is_disabled": 0, "is_reserved": 0, "rental_uris": {"ios": "https://dc.lft.to/lastmile_qr_scan", "android": "https://dc.lft.to/lastmile_qr_scan"}, "bike_id": "63b5928c0ede4bf284f214d560e90a88", "lat": 38.90035783333333}, {"type": "electric_scooter", "fusion_lon": 0.0, "name": "8bfcfd49856d830134b6d2e29a47bbce", "lon": -77.029469, "fusion_lat": 0.0, "is_disabled": 0, "is_reserved": 0, "rental_uris": {"ios": "https://dc.lft.to/lastmile_qr_scan", "android": "https://dc.lft.to/lastmile_qr_scan"}, "bike_id": "8bfcfd49856d830134b6d2e29a47bbce", "lat": 38.916929}, {"type": "electric_scooter", "fusion_lon": 0.0, "name": "9468a622d33a98b769b84722910372e2", "lon": -77.05319966666667, "fusion_lat": 0.0, "is_disabled": 0, "is_reserved": 0, "rental_uris": {"ios": "https://dc.lft.to/lastmile_qr_scan", "android": "https://dc.lft.to/lastmile_qr_scan"}, "bike_id": "9468a622d33a98b769b84722910372e2", "lat": 38.918318666666664}, {"type": "electric_scooter", "fusion_lon": 0.0, "name": "93370ccc8fb8311ff0f7c1f83c96bdf6", "lon": -77.0020975, "fusion_lat": 0.0, "is_disabled": 0, "is_reserved": 0, "rental_uris": {"ios": "https://dc.lft.to/lastmile_qr_scan", "android": "https://dc.lft.to/lastmile_qr_scan"}, "bike_id": "93370ccc8fb8311ff0f7c1f83c96bdf6", "lat": 38.87781916666667}, {"type": "electric_scooter", "fusion_lon": 0.0, "name": "46e452aa45787517db8821a34c347b0a", "lon": -77.0118325, "fusion_lat": 0.0, "is_disabled": 0, "is_reserved": 0, "rental_uris": {"ios": "https://dc.lft.to/lastmile_qr_scan", "android": "https://dc.lft.to/lastmile_qr_scan"}, "bike_id": "46e452aa45787517db8821a34c347b0a", "lat": 38.9004255}, {"type": "electric_bike", "fusion_lon": 0.0, "name": "697a785e830acf357e175da5d5c0981a", "lon": -76.92229333333333, "fusion_lat": 0.0, "is_disabled": 0, "is_reserved": 0, "rental_uris": {"ios": "https://dc.lft.to/lastmile_qr_scan", "android": "https://dc.lft.to/lastmile_qr_scan"}, "bike_id": "697a785e830acf357e175da5d5c0981a", "lat": 38.89293883333333}, {"type": "electric_bike", "fusion_lon": 0.0, "name": "dcb612d5dc1155b4514242a167a0b91c", "lon": -76.98839666666667, "fusion_lat": 0.0, "is_disabled": 0, "is_reserved": 0, "rental_uris": {"ios": "https://dc.lft.to/lastmile_qr_scan", "android": "https://dc.lft.to/lastmile_qr_scan"}, "bike_id": "dcb612d5dc1155b4514242a167a0b91c", "lat": 38.842808833333336}, {"type": "electric_scooter", "fusion_lon": 0.0, "name": "c32b8a86f7741113bdc9639b1a888351", "lon": -77.04342316666667, "fusion_lat": 0.0, "is_disabled": 0, "is_reserved": 0, "rental_uris": {"ios": "https://dc.lft.to/lastmile_qr_scan", "android": "https://dc.lft.to/lastmile_qr_scan"}, "bike_id": "c32b8a86f7741113bdc9639b1a888351", "lat": 38.90888833333333}, {"type": "electric_scooter", "fusion_lon": 0.0, "name": "46a20998c9121c46ca8951680bd31c0e", "lon": -76.9844835, "fusion_lat": 0.0, "is_disabled": 0, "is_reserved": 0, "rental_uris": {"ios": "https://dc.lft.to/lastmile_qr_scan", "android": "https://dc.lft.to/lastmile_qr_scan"}, "bike_id": "46a20998c9121c46ca8951680bd31c0e", "lat": 38.859377}, {"type": "electric_scooter", "fusion_lon": 0.0, "name": "d5f04cadf9299a0a78988d58c67544b1", "lon": -77.01903616666667, "fusion_lat": 0.0, "is_disabled": 0, "is_reserved": 0, "rental_uris": {"ios": "https://dc.lft.to/lastmile_qr_scan", "android": "https://dc.lft.to/lastmile_qr_scan"}, "bike_id": "d5f04cadf9299a0a78988d58c67544b1", "lat": 38.92136216666667}, {"type": "electric_scooter", "fusion_lon": 0.0, "name": "664ad8fff3070a48bebb8828906eb12d", "lon": -77.0466195, "fusion_lat": 0.0, "is_disabled": 0, "is_reserved": 0, "rental_uris": {"ios": "https://dc.lft.to/lastmile_qr_scan", "android": "https://dc.lft.to/lastmile_qr_scan"}, "bike_id": "664ad8fff3070a48bebb8828906eb12d", "lat": 38.90055383333333}, {"type": "electric_scooter", "fusion_lon": 0.0, "name": "70058ded136526e8ab1998a5c9795c41", "lon": -77.00667133333333, "fusion_lat": 0.0, "is_disabled": 0, "is_reserved": 0, "rental_uris": {"ios": "https://dc.lft.to/lastmile_qr_scan", "android": "https://dc.lft.to/lastmile_qr_scan"}, "bike_id": "70058ded136526e8ab1998a5c9795c41", "lat": 38.9119325}, {"type": "electric_scooter", "fusion_lon": 0.0, "name": "ee907576ec5c5978f481f8317176d85c", "lon": -77.0336995, "fusion_lat": 0.0, "is_disabled": 0, "is_reserved": 0, "rental_uris": {"ios": "https://dc.lft.to/lastmile_qr_scan", "android": "https://dc.lft.to/lastmile_qr_scan"}, "bike_id": "ee907576ec5c5978f481f8317176d85c", "lat": 38.923594666666666}, {"type": "electric_scooter", "fusion_lon": 0.0, "name": "7b1c527800ab11c846e4bc450ee58aea", "lon": -76.99451383333333, "fusion_lat": 0.0, "is_disabled": 0, "is_reserved": 0, "rental_uris": {"ios": "https://dc.lft.to/lastmile_qr_scan", "android": "https://dc.lft.to/lastmile_qr_scan"}, "bike_id": "7b1c527800ab11c846e4bc450ee58aea", "lat": 38.9083355}, {"type": "electric_scooter", "fusion_lon": 0.0, "name": "4f6cb0c14b1917c28bc603bacd5c3bde", "lon": -77.03429733333333, "fusion_lat": 0.0, "is_disabled": 0, "is_reserved": 0, "rental_uris": {"ios": "https://dc.lft.to/lastmile_qr_scan", "android": "https://dc.lft.to/lastmile_qr_scan"}, "bike_id": "4f6cb0c14b1917c28bc603bacd5c3bde", "lat": 38.919186333333336}, {"type": "electric_scooter", "fusion_lon": 0.0, "name": "3b2c5599df9969e4cc23eaa06640031f", "lon": -77.02932733333333, "fusion_lat": 0.0, "is_disabled": 0, "is_reserved": 0, "rental_uris": {"ios": "https://dc.lft.to/lastmile_qr_scan", "android": "https://dc.lft.to/lastmile_qr_scan"}, "bike_id": "3b2c5599df9969e4cc23eaa06640031f", "lat": 38.88457066666667}, {"type": "electric_scooter", "fusion_lon": 0.0, "name": "54b7a7fa8aa7df3effb73e2b51cb03df", "lon": -77.02198066666666, "fusion_lat": 0.0, "is_disabled": 0, "is_reserved": 0, "rental_uris": {"ios": "https://dc.lft.to/lastmile_qr_scan", "android": "https://dc.lft.to/lastmile_qr_scan"}, "bike_id": "54b7a7fa8aa7df3effb73e2b51cb03df", "lat": 38.89617666666667}, {"type": "electric_scooter", "fusion_lon": 0.0, "name": "48079e95d9730332191457e5ca5eb07c", "lon": -77.01356866666667, "fusion_lat": 0.0, "is_disabled": 0, "is_reserved": 0, "rental_uris": {"ios": "https://dc.lft.to/lastmile_qr_scan", "android": "https://dc.lft.to/lastmile_qr_scan"}, "bike_id": "48079e95d9730332191457e5ca5eb07c", "lat": 38.871688166666665}, {"type": "electric_scooter", "fusion_lon": 0.0, "name": "c578176ebadeda8b7c029a9e48b44c6f", "lon": -77.04498033333333, "fusion_lat": 0.0, "is_disabled": 0, "is_reserved": 0, "rental_uris": {"ios": "https://dc.lft.to/lastmile_qr_scan", "android": "https://dc.lft.to/lastmile_qr_scan"}, "bike_id": "c578176ebadeda8b7c029a9e48b44c6f", "lat": 38.919245}, {"type": "electric_scooter", "fusion_lon": 0.0, "name": "aaf8e9f3513e65c2e00f9a8a050926f1", "lon": -77.043776, "fusion_lat": 0.0, "is_disabled": 0, "is_reserved": 0, "rental_uris": {"ios": "https://dc.lft.to/lastmile_qr_scan", "android": "https://dc.lft.to/lastmile_qr_scan"}, "bike_id": "aaf8e9f3513e65c2e00f9a8a050926f1", "lat": 38.896109333333335}, {"type": "electric_scooter", "fusion_lon": 0.0, "name": "73537586fbcaaa2de066229afeb43a43", "lon": -77.04513283333333, "fusion_lat": 0.0, "is_disabled": 0, "is_reserved": 0, "rental_uris": {"ios": "https://dc.lft.to/lastmile_qr_scan", "android": "https://dc.lft.to/lastmile_qr_scan"}, "bike_id": "73537586fbcaaa2de066229afeb43a43", "lat": 38.912866}, {"type": "electric_scooter", "fusion_lon": 0.0, "name": "fc8bbe5d1d38beebfa50f7961593f5bd", "lon": -77.02133116666667, "fusion_lat": 0.0, "is_disabled": 0, "is_reserved": 0, "rental_uris": {"ios": "https://dc.lft.to/lastmile_qr_scan", "android": "https://dc.lft.to/lastmile_qr_scan"}, "bike_id": "fc8bbe5d1d38beebfa50f7961593f5bd", "lat": 38.9312165}, {"type": "electric_scooter", "fusion_lon": 0.0, "name": "32a6a16dba8d86b743e158207e77fa68", "lon": -77.0192705, "fusion_lat": 0.0, "is_disabled": 0, "is_reserved": 0, "rental_uris": {"ios": "https://dc.lft.to/lastmile_qr_scan", "android": "https://dc.lft.to/lastmile_qr_scan"}, "bike_id": "32a6a16dba8d86b743e158207e77fa68", "lat": 38.922572833333334}, {"type": "electric_scooter", "fusion_lon": 0.0, "name": "5ff789f2c316c51b2a1f97c78c6da26d", "lon": -77.00079833333334, "fusion_lat": 0.0, "is_disabled": 0, "is_reserved": 0, "rental_uris": {"ios": "https://dc.lft.to/lastmile_qr_scan", "android": "https://dc.lft.to/lastmile_qr_scan"}, "bike_id": "5ff789f2c316c51b2a1f97c78c6da26d", "lat": 38.8742825}, {"type": "electric_bike", "fusion_lon": 0.0, "name": "0cc0a71c2b9e4bbdae501b0329646e95", "lon": -76.97224333333334, "fusion_lat": 0.0, "is_disabled": 0, "is_reserved": 0, "rental_uris": {"ios": "https://dc.lft.to/lastmile_qr_scan", "android": "https://dc.lft.to/lastmile_qr_scan"}, "bike_id": "0cc0a71c2b9e4bbdae501b0329646e95", "lat": 38.900378833333335}, {"type": "electric_scooter", "fusion_lon": 0.0, "name": "3dab20ca0f26f412654fc5a4dbf88289", "lon": -77.00201266666667, "fusion_lat": 0.0, "is_disabled": 0, "is_reserved": 0, "rental_uris": {"ios": "https://dc.lft.to/lastmile_qr_scan", "android": "https://dc.lft.to/lastmile_qr_scan"}, "bike_id": "3dab20ca0f26f412654fc5a4dbf88289", "lat": 38.902439333333334}, {"type": "electric_scooter", "fusion_lon": 0.0, "name": "ae30a62e1ed7934b5e613d641ddc3fad", "lon": -76.99867516666667, "fusion_lat": 0.0, "is_disabled": 0, "is_reserved": 0, "rental_uris": {"ios": "https://dc.lft.to/lastmile_qr_scan", "android": "https://dc.lft.to/lastmile_qr_scan"}, "bike_id": "ae30a62e1ed7934b5e613d641ddc3fad", "lat": 38.923443166666665}, {"type": "electric_scooter", "fusion_lon": 0.0, "name": "163981aa7479984fcafed3ebbec07389", "lon": -77.03214933333334, "fusion_lat": 0.0, "is_disabled": 0, "is_reserved": 0, "rental_uris": {"ios": "https://dc.lft.to/lastmile_qr_scan", "android": "https://dc.lft.to/lastmile_qr_scan"}, "bike_id": "163981aa7479984fcafed3ebbec07389", "lat": 38.892408333333336}, {"type": "electric_scooter", "fusion_lon": 0.0, "name": "dd20f5aeb533f3f49b243df71364503d", "lon": -77.03670683333333, "fusion_lat": 0.0, "is_disabled": 0, "is_reserved": 0, "rental_uris": {"ios": "https://dc.lft.to/lastmile_qr_scan", "android": "https://dc.lft.to/lastmile_qr_scan"}, "bike_id": "dd20f5aeb533f3f49b243df71364503d", "lat": 38.922767}, {"type": "electric_scooter", "fusion_lon": 0.0, "name": "a2008d03185461007001bd17511b3f0c", "lon": -77.02827166666667, "fusion_lat": 0.0, "is_disabled": 0, "is_reserved": 0, "rental_uris": {"ios": "https://dc.lft.to/lastmile_qr_scan", "android": "https://dc.lft.to/lastmile_qr_scan"}, "bike_id": "a2008d03185461007001bd17511b3f0c", "lat": 38.908593833333335}, {"type": "electric_scooter", "fusion_lon": 0.0, "name": "19bcf0f9f2587e84a5decd3240f0ee06", "lon": -77.02406233333333, "fusion_lat": 0.0, "is_disabled": 0, "is_reserved": 0, "rental_uris": {"ios": "https://dc.lft.to/lastmile_qr_scan", "android": "https://dc.lft.to/lastmile_qr_scan"}, "bike_id": "19bcf0f9f2587e84a5decd3240f0ee06", "lat": 38.95736333333333}, {"type": "electric_scooter", "fusion_lon": 0.0, "name": "cac688b542e0a7268156b22271376756", "lon": -76.99484616666666, "fusion_lat": 0.0, "is_disabled": 0, "is_reserved": 0, "rental_uris": {"ios": "https://dc.lft.to/lastmile_qr_scan", "android": "https://dc.lft.to/lastmile_qr_scan"}, "bike_id": "cac688b542e0a7268156b22271376756", "lat": 38.86220316666667}, {"type": "electric_scooter", "fusion_lon": 0.0, "name": "87b4ea8b5be6bc87ddb869d4dfd9dc28", "lon": -77.00055283333333, "fusion_lat": 0.0, "is_disabled": 0, "is_reserved": 0, "rental_uris": {"ios": "https://dc.lft.to/lastmile_qr_scan", "android": "https://dc.lft.to/lastmile_qr_scan"}, "bike_id": "87b4ea8b5be6bc87ddb869d4dfd9dc28", "lat": 38.876927}, {"type": "electric_scooter", "fusion_lon": 0.0, "name": "9f7c3be656d03a4b6d0bd0d5a2251679", "lon": -77.02202233333334, "fusion_lat": 0.0, "is_disabled": 0, "is_reserved": 0, "rental_uris": {"ios": "https://dc.lft.to/lastmile_qr_scan", "android": "https://dc.lft.to/lastmile_qr_scan"}, "bike_id": "9f7c3be656d03a4b6d0bd0d5a2251679", "lat": 38.92471416666667}, {"type": "electric_scooter", "fusion_lon": 0.0, "name": "18b5648ca637d830ff48b827867fd8ed", "lon": -77.021927, "fusion_lat": 0.0, "is_disabled": 0, "is_reserved": 0, "rental_uris": {"ios": "https://dc.lft.to/lastmile_qr_scan", "android": "https://dc.lft.to/lastmile_qr_scan"}, "bike_id": "18b5648ca637d830ff48b827867fd8ed", "lat": 38.91054716666667}, {"type": "electric_scooter", "fusion_lon": 0.0, "name": "4f72029b53a3e6867ce2f49126294db4", "lon": -77.0006365, "fusion_lat": 0.0, "is_disabled": 0, "is_reserved": 0, "rental_uris": {"ios": "https://dc.lft.to/lastmile_qr_scan", "android": "https://dc.lft.to/lastmile_qr_scan"}, "bike_id": "4f72029b53a3e6867ce2f49126294db4", "lat": 38.9244495}, {"type": "electric_scooter", "fusion_lon": 0.0, "name": "0b810d81b8b1370cc40c175a9dd4f7ae", "lon": -77.0249265, "fusion_lat": 0.0, "is_disabled": 0, "is_reserved": 0, "rental_uris": {"ios": "https://dc.lft.to/lastmile_qr_scan", "android": "https://dc.lft.to/lastmile_qr_scan"}, "bike_id": "0b810d81b8b1370cc40c175a9dd4f7ae", "lat": 38.919858833333336}, {"type": "electric_scooter", "fusion_lon": 0.0, "name": "26a32de80785a8df306e04c26ef98dd0", "lon": -77.0223635, "fusion_lat": 0.0, "is_disabled": 0, "is_reserved": 0, "rental_uris": {"ios": "https://dc.lft.to/lastmile_qr_scan", "android": "https://dc.lft.to/lastmile_qr_scan"}, "bike_id": "26a32de80785a8df306e04c26ef98dd0", "lat": 38.95691383333333}, {"type": "electric_scooter", "fusion_lon": 0.0, "name": "77fa43460947ce77061d13bd848b7f2d", "lon": -77.03521, "fusion_lat": 0.0, "is_disabled": 0, "is_reserved": 0, "rental_uris": {"ios": "https://dc.lft.to/lastmile_qr_scan", "android": "https://dc.lft.to/lastmile_qr_scan"}, "bike_id": "77fa43460947ce77061d13bd848b7f2d", "lat": 38.92269366666667}, {"type": "electric_bike", "fusion_lon": 0.0, "name": "4d0c3c3f6599cf56cf9283b352fd8a41", "lon": -77.06015616666667, "fusion_lat": 0.0, "is_disabled": 0, "is_reserved": 0, "rental_uris": {"ios": "https://dc.lft.to/lastmile_qr_scan", "android": "https://dc.lft.to/lastmile_qr_scan"}, "bike_id": "4d0c3c3f6599cf56cf9283b352fd8a41", "lat": 38.82774466666667}, {"type": "electric_scooter", "fusion_lon": 0.0, "name": "f8402f1ae37f3b6a13f5d738cbbdbd8f", "lon": -77.04174816666666, "fusion_lat": 0.0, "is_disabled": 0, "is_reserved": 0, "rental_uris": {"ios": "https://dc.lft.to/lastmile_qr_scan", "android": "https://dc.lft.to/lastmile_qr_scan"}, "bike_id": "f8402f1ae37f3b6a13f5d738cbbdbd8f", "lat": 38.90538566666667}, {"type": "electric_scooter", "fusion_lon": 0.0, "name": "4baf4473edd55a21453d23e69be76fbe", "lon": -77.02799416666667, "fusion_lat": 0.0, "is_disabled": 0, "is_reserved": 0, "rental_uris": {"ios": "https://dc.lft.to/lastmile_qr_scan", "android": "https://dc.lft.to/lastmile_qr_scan"}, "bike_id": "4baf4473edd55a21453d23e69be76fbe", "lat": 38.892344}, {"type": "electric_scooter", "fusion_lon": 0.0, "name": "c78083224f3ccfdf48f02cc1b46314a5", "lon": -77.02684566666667, "fusion_lat": 0.0, "is_disabled": 0, "is_reserved": 0, "rental_uris": {"ios": "https://dc.lft.to/lastmile_qr_scan", "android": "https://dc.lft.to/lastmile_qr_scan"}, "bike_id": "c78083224f3ccfdf48f02cc1b46314a5", "lat": 38.92474983333334}, {"type": "electric_scooter", "fusion_lon": 0.0, "name": "23cb78588574593e1ac22586a017ec66", "lon": -77.06755516666666, "fusion_lat": 0.0, "is_disabled": 0, "is_reserved": 0, "rental_uris": {"ios": "https://dc.lft.to/lastmile_qr_scan", "android": "https://dc.lft.to/lastmile_qr_scan"}, "bike_id": "23cb78588574593e1ac22586a017ec66", "lat": 38.949686166666666}, {"type": "electric_scooter", "fusion_lon": 0.0, "name": "8d629512098bce12b3b9a40d028da7ce", "lon": -77.03936633333333, "fusion_lat": 0.0, "is_disabled": 0, "is_reserved": 0, "rental_uris": {"ios": "https://dc.lft.to/lastmile_qr_scan", "android": "https://dc.lft.to/lastmile_qr_scan"}, "bike_id": "8d629512098bce12b3b9a40d028da7ce", "lat": 38.93068983333333}, {"type": "electric_scooter", "fusion_lon": 0.0, "name": "e4ed98e254288892f6c38df650d635aa", "lon": -76.99154866666666, "fusion_lat": 0.0, "is_disabled": 0, "is_reserved": 0, "rental_uris": {"ios": "https://dc.lft.to/lastmile_qr_scan", "android": "https://dc.lft.to/lastmile_qr_scan"}, "bike_id": "e4ed98e254288892f6c38df650d635aa", "lat": 38.900507}, {"type": "electric_scooter", "fusion_lon": 0.0, "name": "e3800499a5a7c9f2a58990a790e229ab", "lon": -76.98533316666666, "fusion_lat": 0.0, "is_disabled": 0, "is_reserved": 0, "rental_uris": {"ios": "https://dc.lft.to/lastmile_qr_scan", "android": "https://dc.lft.to/lastmile_qr_scan"}, "bike_id": "e3800499a5a7c9f2a58990a790e229ab", "lat": 38.899495333333334}, {"type": "electric_scooter", "fusion_lon": 0.0, "name": "bef2f3bacb0ce5eaa1c67350c00926e2", "lon": -76.99511816666667, "fusion_lat": 0.0, "is_disabled": 0, "is_reserved": 0, "rental_uris": {"ios": "https://dc.lft.to/lastmile_qr_scan", "android": "https://dc.lft.to/lastmile_qr_scan"}, "bike_id": "bef2f3bacb0ce5eaa1c67350c00926e2", "lat": 38.88377033333333}, {"type": "electric_scooter", "fusion_lon": 0.0, "name": "b64b777900c5e65e3583ff998a6c0481", "lon": -77.0200875, "fusion_lat": 0.0, "is_disabled": 0, "is_reserved": 0, "rental_uris": {"ios": "https://dc.lft.to/lastmile_qr_scan", "android": "https://dc.lft.to/lastmile_qr_scan"}, "bike_id": "b64b777900c5e65e3583ff998a6c0481", "lat": 38.915805}, {"type": "electric_scooter", "fusion_lon": 0.0, "name": "5837226b121f12a75f36a3fc6f7b3703", "lon": -77.03885766666667, "fusion_lat": 0.0, "is_disabled": 0, "is_reserved": 0, "rental_uris": {"ios": "https://dc.lft.to/lastmile_qr_scan", "android": "https://dc.lft.to/lastmile_qr_scan"}, "bike_id": "5837226b121f12a75f36a3fc6f7b3703", "lat": 38.9025475}, {"type": "electric_scooter", "fusion_lon": 0.0, "name": "105191e7ac9c39bb5b739c911850d6a3", "lon": -76.9497265, "fusion_lat": 0.0, "is_disabled": 0, "is_reserved": 0, "rental_uris": {"ios": "https://dc.lft.to/lastmile_qr_scan", "android": "https://dc.lft.to/lastmile_qr_scan"}, "bike_id": "105191e7ac9c39bb5b739c911850d6a3", "lat": 38.90077316666667}, {"type": "electric_scooter", "fusion_lon": 0.0, "name": "cda61e3b38f3b29ab78e59359ee2b1c9", "lon": -77.01809483333334, "fusion_lat": 0.0, "is_disabled": 0, "is_reserved": 0, "rental_uris": {"ios": "https://dc.lft.to/lastmile_qr_scan", "android": "https://dc.lft.to/lastmile_qr_scan"}, "bike_id": "cda61e3b38f3b29ab78e59359ee2b1c9", "lat": 38.8962085}, {"type": "electric_scooter", "fusion_lon": 0.0, "name": "3ae2740729e4b47326b623067281574a", "lon": -77.023455, "fusion_lat": 0.0, "is_disabled": 0, "is_reserved": 0, "rental_uris": {"ios": "https://dc.lft.to/lastmile_qr_scan", "android": "https://dc.lft.to/lastmile_qr_scan"}, "bike_id": "3ae2740729e4b47326b623067281574a", "lat": 38.92971516666667}, {"type": "electric_scooter", "fusion_lon": 0.0, "name": "b7d15bbe9c214655d3f156e6077dba2b", "lon": -77.036633, "fusion_lat": 0.0, "is_disabled": 0, "is_reserved": 0, "rental_uris": {"ios": "https://dc.lft.to/lastmile_qr_scan", "android": "https://dc.lft.to/lastmile_qr_scan"}, "bike_id": "b7d15bbe9c214655d3f156e6077dba2b", "lat": 38.92120883333333}, {"type": "electric_scooter", "fusion_lon": 0.0, "name": "6d2f9b6579dc4194758f888ba7429231", "lon": -77.03601116666667, "fusion_lat": 0.0, "is_disabled": 0, "is_reserved": 0, "rental_uris": {"ios": "https://dc.lft.to/lastmile_qr_scan", "android": "https://dc.lft.to/lastmile_qr_scan"}, "bike_id": "6d2f9b6579dc4194758f888ba7429231", "lat": 38.9396}, {"type": "electric_scooter", "fusion_lon": 0.0, "name": "ba1b8f01761aec0ddd30a1c089ee9ef6", "lon": -77.066104, "fusion_lat": 0.0, "is_disabled": 0, "is_reserved": 0, "rental_uris": {"ios": "https://dc.lft.to/lastmile_qr_scan", "android": "https://dc.lft.to/lastmile_qr_scan"}, "bike_id": "ba1b8f01761aec0ddd30a1c089ee9ef6", "lat": 38.93663816666667}, {"type": "electric_scooter", "fusion_lon": 0.0, "name": "a7d3830b035531333cd371df9e9946c1", "lon": -76.997199, "fusion_lat": 0.0, "is_disabled": 0, "is_reserved": 0, "rental_uris": {"ios": "https://dc.lft.to/lastmile_qr_scan", "android": "https://dc.lft.to/lastmile_qr_scan"}, "bike_id": "a7d3830b035531333cd371df9e9946c1", "lat": 38.90784566666667}, {"type": "electric_scooter", "fusion_lon": 0.0, "name": "3c89774be57c8c653ba2a80970b5080d", "lon": -77.00086116666667, "fusion_lat": 0.0, "is_disabled": 0, "is_reserved": 0, "rental_uris": {"ios": "https://dc.lft.to/lastmile_qr_scan", "android": "https://dc.lft.to/lastmile_qr_scan"}, "bike_id": "3c89774be57c8c653ba2a80970b5080d", "lat": 38.91205633333333}, {"type": "electric_scooter", "fusion_lon": 0.0, "name": "12169f7ebd4819dd1ded22a57816e13d", "lon": -77.03207966666666, "fusion_lat": 0.0, "is_disabled": 0, "is_reserved": 0, "rental_uris": {"ios": "https://dc.lft.to/lastmile_qr_scan", "android": "https://dc.lft.to/lastmile_qr_scan"}, "bike_id": "12169f7ebd4819dd1ded22a57816e13d", "lat": 38.893973}, {"type": "electric_scooter", "fusion_lon": 0.0, "name": "65a92ef02b3743e9313f71706e8bb06f", "lon": -77.029388, "fusion_lat": 0.0, "is_disabled": 0, "is_reserved": 0, "rental_uris": {"ios": "https://dc.lft.to/lastmile_qr_scan", "android": "https://dc.lft.to/lastmile_qr_scan"}, "bike_id": "65a92ef02b3743e9313f71706e8bb06f", "lat": 38.8952795}, {"type": "electric_scooter", "fusion_lon": 0.0, "name": "f04bdec8509a28405a06e0f225d18fe4", "lon": -77.0338675, "fusion_lat": 0.0, "is_disabled": 0, "is_reserved": 0, "rental_uris": {"ios": "https://dc.lft.to/lastmile_qr_scan", "android": "https://dc.lft.to/lastmile_qr_scan"}, "bike_id": "f04bdec8509a28405a06e0f225d18fe4", "lat": 38.886643666666664}, {"type": "electric_scooter", "fusion_lon": 0.0, "name": "9d8a35cd6280be06d2724c9540c095cf", "lon": -77.0185365, "fusion_lat": 0.0, "is_disabled": 0, "is_reserved": 0, "rental_uris": {"ios": "https://dc.lft.to/lastmile_qr_scan", "android": "https://dc.lft.to/lastmile_qr_scan"}, "bike_id": "9d8a35cd6280be06d2724c9540c095cf", "lat": 38.91496766666667}, {"type": "electric_scooter", "fusion_lon": 0.0, "name": "1d5fede871bff1d5fbac791bef5849a0", "lon": -76.92723616666666, "fusion_lat": 0.0, "is_disabled": 0, "is_reserved": 0, "rental_uris": {"ios": "https://dc.lft.to/lastmile_qr_scan", "android": "https://dc.lft.to/lastmile_qr_scan"}, "bike_id": "1d5fede871bff1d5fbac791bef5849a0", "lat": 38.8804455}, {"type": "electric_scooter", "fusion_lon": 0.0, "name": "20d47e8d62cb7bf67afcea3b8a273e4c", "lon": -77.01987566666666, "fusion_lat": 0.0, "is_disabled": 0, "is_reserved": 0, "rental_uris": {"ios": "https://dc.lft.to/lastmile_qr_scan", "android": "https://dc.lft.to/lastmile_qr_scan"}, "bike_id": "20d47e8d62cb7bf67afcea3b8a273e4c", "lat": 38.915295}, {"type": "electric_scooter", "fusion_lon": 0.0, "name": "bc617eb033eb70d8e4a0f732f6af5f2e", "lon": -77.02942783333333, "fusion_lat": 0.0, "is_disabled": 0, "is_reserved": 0, "rental_uris": {"ios": "https://dc.lft.to/lastmile_qr_scan", "android": "https://dc.lft.to/lastmile_qr_scan"}, "bike_id": "bc617eb033eb70d8e4a0f732f6af5f2e", "lat": 38.9013515}, {"type": "electric_scooter", "fusion_lon": 0.0, "name": "6ca03f27620995666dfa2928aae8587a", "lon": -77.04093483333334, "fusion_lat": 0.0, "is_disabled": 0, "is_reserved": 0, "rental_uris": {"ios": "https://dc.lft.to/lastmile_qr_scan", "android": "https://dc.lft.to/lastmile_qr_scan"}, "bike_id": "6ca03f27620995666dfa2928aae8587a", "lat": 38.910714166666665}, {"type": "electric_scooter", "fusion_lon": 0.0, "name": "5ba2a2abde91d16cf73277a219b7abfd", "lon": -77.0316835, "fusion_lat": 0.0, "is_disabled": 0, "is_reserved": 0, "rental_uris": {"ios": "https://dc.lft.to/lastmile_qr_scan", "android": "https://dc.lft.to/lastmile_qr_scan"}, "bike_id": "5ba2a2abde91d16cf73277a219b7abfd", "lat": 38.892319}, {"type": "electric_scooter", "fusion_lon": 0.0, "name": "879d477b7741856322872d6e80ec0da9", "lon": -77.05002383333333, "fusion_lat": 0.0, "is_disabled": 0, "is_reserved": 0, "rental_uris": {"ios": "https://dc.lft.to/lastmile_qr_scan", "android": "https://dc.lft.to/lastmile_qr_scan"}, "bike_id": "879d477b7741856322872d6e80ec0da9", "lat": 38.89233566666667}, {"type": "electric_scooter", "fusion_lon": 0.0, "name": "64b5040a87bcc40b5c51a93917b61d97", "lon": -77.02000466666667, "fusion_lat": 0.0, "is_disabled": 0, "is_reserved": 0, "rental_uris": {"ios": "https://dc.lft.to/lastmile_qr_scan", "android": "https://dc.lft.to/lastmile_qr_scan"}, "bike_id": "64b5040a87bcc40b5c51a93917b61d97", "lat": 38.915793}, {"type": "electric_bike", "fusion_lon": 0.0, "name": "53b9a1c205c449e7d6bbc864ef219dcd", "lon": -76.96085483333333, "fusion_lat": 0.0, "is_disabled": 0, "is_reserved": 0, "rental_uris": {"ios": "https://dc.lft.to/lastmile_qr_scan", "android": "https://dc.lft.to/lastmile_qr_scan"}, "bike_id": "53b9a1c205c449e7d6bbc864ef219dcd", "lat": 38.918615333333335}, {"type": "electric_scooter", "fusion_lon": 0.0, "name": "b3abf98bb586ef7ea4f212339fa361af", "lon": -77.04315483333333, "fusion_lat": 0.0, "is_disabled": 0, "is_reserved": 0, "rental_uris": {"ios": "https://dc.lft.to/lastmile_qr_scan", "android": "https://dc.lft.to/lastmile_qr_scan"}, "bike_id": "b3abf98bb586ef7ea4f212339fa361af", "lat": 38.92367516666667}, {"type": "electric_scooter", "fusion_lon": 0.0, "name": "b19327ea2561c6374f6cb8cbbb547bb7", "lon": -77.019787, "fusion_lat": 0.0, "is_disabled": 0, "is_reserved": 0, "rental_uris": {"ios": "https://dc.lft.to/lastmile_qr_scan", "android": "https://dc.lft.to/lastmile_qr_scan"}, "bike_id": "b19327ea2561c6374f6cb8cbbb547bb7", "lat": 38.892346}, {"type": "electric_scooter", "fusion_lon": 0.0, "name": "7a06d648af175300d870977715d6a126", "lon": -76.93387983333334, "fusion_lat": 0.0, "is_disabled": 0, "is_reserved": 0, "rental_uris": {"ios": "https://dc.lft.to/lastmile_qr_scan", "android": "https://dc.lft.to/lastmile_qr_scan"}, "bike_id": "7a06d648af175300d870977715d6a126", "lat": 38.89914016666667}, {"type": "electric_scooter", "fusion_lon": 0.0, "name": "2163244f8fa081186003a1a316762c3d", "lon": -76.97428816666667, "fusion_lat": 0.0, "is_disabled": 0, "is_reserved": 0, "rental_uris": {"ios": "https://dc.lft.to/lastmile_qr_scan", "android": "https://dc.lft.to/lastmile_qr_scan"}, "bike_id": "2163244f8fa081186003a1a316762c3d", "lat": 38.901557}, {"type": "electric_bike", "fusion_lon": 0.0, "name": "fb457c8598cb07fda3aaaf4dc9f76f0f", "lon": -76.95708283333333, "fusion_lat": 0.0, "is_disabled": 0, "is_reserved": 0, "rental_uris": {"ios": "https://dc.lft.to/lastmile_qr_scan", "android": "https://dc.lft.to/lastmile_qr_scan"}, "bike_id": "fb457c8598cb07fda3aaaf4dc9f76f0f", "lat": 38.88874166666667}, {"type": "electric_scooter", "fusion_lon": 0.0, "name": "c9a4b2d6bab55eed82b946e9c1cdea16", "lon": -77.01766583333334, "fusion_lat": 0.0, "is_disabled": 0, "is_reserved": 0, "rental_uris": {"ios": "https://dc.lft.to/lastmile_qr_scan", "android": "https://dc.lft.to/lastmile_qr_scan"}, "bike_id": "c9a4b2d6bab55eed82b946e9c1cdea16", "lat": 38.940427166666666}, {"type": "electric_scooter", "fusion_lon": 0.0, "name": "8519b2eae7b8c55b83158db8d976779d", "lon": -77.045092, "fusion_lat": 0.0, "is_disabled": 0, "is_reserved": 0, "rental_uris": {"ios": "https://dc.lft.to/lastmile_qr_scan", "android": "https://dc.lft.to/lastmile_qr_scan"}, "bike_id": "8519b2eae7b8c55b83158db8d976779d", "lat": 38.89970233333333}, {"type": "electric_scooter", "fusion_lon": 0.0, "name": "996e901cb3ee4ae41878cdf7fca1e430", "lon": -77.0436575, "fusion_lat": 0.0, "is_disabled": 0, "is_reserved": 0, "rental_uris": {"ios": "https://dc.lft.to/lastmile_qr_scan", "android": "https://dc.lft.to/lastmile_qr_scan"}, "bike_id": "996e901cb3ee4ae41878cdf7fca1e430", "lat": 38.91126233333333}, {"type": "electric_scooter", "fusion_lon": 0.0, "name": "7d8274c6b151642b4530c5b143c62da7", "lon": -76.999446, "fusion_lat": 0.0, "is_disabled": 0, "is_reserved": 0, "rental_uris": {"ios": "https://dc.lft.to/lastmile_qr_scan", "android": "https://dc.lft.to/lastmile_qr_scan"}, "bike_id": "7d8274c6b151642b4530c5b143c62da7", "lat": 38.90021483333334}, {"type": "electric_scooter", "fusion_lon": 0.0, "name": "c34b1fe8d49b2494108c697207e7c9af", "lon": -77.028886, "fusion_lat": 0.0, "is_disabled": 0, "is_reserved": 0, "rental_uris": {"ios": "https://dc.lft.to/lastmile_qr_scan", "android": "https://dc.lft.to/lastmile_qr_scan"}, "bike_id": "c34b1fe8d49b2494108c697207e7c9af", "lat": 38.90724433333333}, {"type": "electric_scooter", "fusion_lon": 0.0, "name": "a43571e458b0650176f6f9e254c33df6", "lon": -77.005962, "fusion_lat": 0.0, "is_disabled": 0, "is_reserved": 0, "rental_uris": {"ios": "https://dc.lft.to/lastmile_qr_scan", "android": "https://dc.lft.to/lastmile_qr_scan"}, "bike_id": "a43571e458b0650176f6f9e254c33df6", "lat": 38.881921}, {"type": "electric_scooter", "fusion_lon": 0.0, "name": "11ef71d096663e94ccc99e3862dbb12d", "lon": -77.0235745, "fusion_lat": 0.0, "is_disabled": 0, "is_reserved": 0, "rental_uris": {"ios": "https://dc.lft.to/lastmile_qr_scan", "android": "https://dc.lft.to/lastmile_qr_scan"}, "bike_id": "11ef71d096663e94ccc99e3862dbb12d", "lat": 38.929046666666665}, {"type": "electric_scooter", "fusion_lon": 0.0, "name": "378c2559fac6fb8d0685eb24f326f367", "lon": -77.045755, "fusion_lat": 0.0, "is_disabled": 0, "is_reserved": 0, "rental_uris": {"ios": "https://dc.lft.to/lastmile_qr_scan", "android": "https://dc.lft.to/lastmile_qr_scan"}, "bike_id": "378c2559fac6fb8d0685eb24f326f367", "lat": 38.91260416666667}, {"type": "electric_scooter", "fusion_lon": 0.0, "name": "d107bc974d4c9747d811b868ee2c46d2", "lon": -77.01957833333333, "fusion_lat": 0.0, "is_disabled": 0, "is_reserved": 0, "rental_uris": {"ios": "https://dc.lft.to/lastmile_qr_scan", "android": "https://dc.lft.to/lastmile_qr_scan"}, "bike_id": "d107bc974d4c9747d811b868ee2c46d2", "lat": 38.923288}, {"type": "electric_bike", "fusion_lon": 0.0, "name": "6884263cdecbe9161a522ee951a5fda1", "lon": -77.07661, "fusion_lat": 0.0, "is_disabled": 0, "is_reserved": 0, "rental_uris": {"ios": "https://dc.lft.to/lastmile_qr_scan", "android": "https://dc.lft.to/lastmile_qr_scan"}, "bike_id": "6884263cdecbe9161a522ee951a5fda1", "lat": 38.80981966666667}, {"type": "electric_scooter", "fusion_lon": 0.0, "name": "1b9637f0e793d5cbd6f3b59d26763b9d", "lon": -77.03296283333333, "fusion_lat": 0.0, "is_disabled": 0, "is_reserved": 0, "rental_uris": {"ios": "https://dc.lft.to/lastmile_qr_scan", "android": "https://dc.lft.to/lastmile_qr_scan"}, "bike_id": "1b9637f0e793d5cbd6f3b59d26763b9d", "lat": 38.89901316666667}, {"type": "electric_scooter", "fusion_lon": 0.0, "name": "e2ec5d4da25570e823db8206f5942477", "lon": -77.0215635, "fusion_lat": 0.0, "is_disabled": 0, "is_reserved": 0, "rental_uris": {"ios": "https://dc.lft.to/lastmile_qr_scan", "android": "https://dc.lft.to/lastmile_qr_scan"}, "bike_id": "e2ec5d4da25570e823db8206f5942477", "lat": 38.899946166666666}, {"type": "electric_scooter", "fusion_lon": 0.0, "name": "116c4bc374bdf9675db1eeaf78da1e46", "lon": -77.03192183333333, "fusion_lat": 0.0, "is_disabled": 0, "is_reserved": 0, "rental_uris": {"ios": "https://dc.lft.to/lastmile_qr_scan", "android": "https://dc.lft.to/lastmile_qr_scan"}, "bike_id": "116c4bc374bdf9675db1eeaf78da1e46", "lat": 38.906994833333336}, {"type": "electric_scooter", "fusion_lon": 0.0, "name": "01212adf4568b605bfa45d06a391bccc", "lon": -77.00584216666667, "fusion_lat": 0.0, "is_disabled": 0, "is_reserved": 0, "rental_uris": {"ios": "https://dc.lft.to/lastmile_qr_scan", "android": "https://dc.lft.to/lastmile_qr_scan"}, "bike_id": "01212adf4568b605bfa45d06a391bccc", "lat": 38.90562933333333}, {"type": "electric_scooter", "fusion_lon": 0.0, "name": "c4d8c0e5cd7353444c6a90bae9a4d19a", "lon": -77.00583116666667, "fusion_lat": 0.0, "is_disabled": 0, "is_reserved": 0, "rental_uris": {"ios": "https://dc.lft.to/lastmile_qr_scan", "android": "https://dc.lft.to/lastmile_qr_scan"}, "bike_id": "c4d8c0e5cd7353444c6a90bae9a4d19a", "lat": 38.9056455}, {"type": "electric_scooter", "fusion_lon": 0.0, "name": "b2784a4d38fe6c748453607eadd5fe8a", "lon": -77.02246033333333, "fusion_lat": 0.0, "is_disabled": 0, "is_reserved": 0, "rental_uris": {"ios": "https://dc.lft.to/lastmile_qr_scan", "android": "https://dc.lft.to/lastmile_qr_scan"}, "bike_id": "b2784a4d38fe6c748453607eadd5fe8a", "lat": 38.92478583333333}, {"type": "electric_scooter", "fusion_lon": 0.0, "name": "bb7062d3daa5179388957a84e1804fe7", "lon": -77.04213816666666, "fusion_lat": 0.0, "is_disabled": 0, "is_reserved": 0, "rental_uris": {"ios": "https://dc.lft.to/lastmile_qr_scan", "android": "https://dc.lft.to/lastmile_qr_scan"}, "bike_id": "bb7062d3daa5179388957a84e1804fe7", "lat": 38.907639833333334}, {"type": "electric_scooter", "fusion_lon": 0.0, "name": "141d0ea3ca733068860556cccf06b4df", "lon": -77.02513683333333, "fusion_lat": 0.0, "is_disabled": 0, "is_reserved": 0, "rental_uris": {"ios": "https://dc.lft.to/lastmile_qr_scan", "android": "https://dc.lft.to/lastmile_qr_scan"}, "bike_id": "141d0ea3ca733068860556cccf06b4df", "lat": 38.892253333333336}, {"type": "electric_scooter", "fusion_lon": 0.0, "name": "32e0b4552ddab8dc0da3540732e9341d", "lon": -77.03126233333333, "fusion_lat": 0.0, "is_disabled": 0, "is_reserved": 0, "rental_uris": {"ios": "https://dc.lft.to/lastmile_qr_scan", "android": "https://dc.lft.to/lastmile_qr_scan"}, "bike_id": "32e0b4552ddab8dc0da3540732e9341d", "lat": 38.911196833333335}, {"type": "electric_scooter", "fusion_lon": 0.0, "name": "08793b0a51487f6a6c595a5764741b79", "lon": -77.07159716666666, "fusion_lat": 0.0, "is_disabled": 0, "is_reserved": 0, "rental_uris": {"ios": "https://dc.lft.to/lastmile_qr_scan", "android": "https://dc.lft.to/lastmile_qr_scan"}, "bike_id": "08793b0a51487f6a6c595a5764741b79", "lat": 38.92014833333333}, {"type": "electric_scooter", "fusion_lon": 0.0, "name": "4c9385df7c8790900df5883001c9d152", "lon": -77.04336416666666, "fusion_lat": 0.0, "is_disabled": 0, "is_reserved": 0, "rental_uris": {"ios": "https://dc.lft.to/lastmile_qr_scan", "android": "https://dc.lft.to/lastmile_qr_scan"}, "bike_id": "4c9385df7c8790900df5883001c9d152", "lat": 38.8922845}, {"type": "electric_scooter", "fusion_lon": 0.0, "name": "caf8ffc1e6894097e0703001e772e866", "lon": -76.92633116666667, "fusion_lat": 0.0, "is_disabled": 0, "is_reserved": 0, "rental_uris": {"ios": "https://dc.lft.to/lastmile_qr_scan", "android": "https://dc.lft.to/lastmile_qr_scan"}, "bike_id": "caf8ffc1e6894097e0703001e772e866", "lat": 38.886286}, {"type": "electric_scooter", "fusion_lon": 0.0, "name": "e0cda1bc578bad7435f7d5675bdd297f", "lon": -77.05212516666667, "fusion_lat": 0.0, "is_disabled": 0, "is_reserved": 0, "rental_uris": {"ios": "https://dc.lft.to/lastmile_qr_scan", "android": "https://dc.lft.to/lastmile_qr_scan"}, "bike_id": "e0cda1bc578bad7435f7d5675bdd297f", "lat": 38.914136666666664}, {"type": "electric_scooter", "fusion_lon": 0.0, "name": "e844d7d0069f1c2fe618f731d196e348", "lon": -77.02691466666667, "fusion_lat": 0.0, "is_disabled": 0, "is_reserved": 0, "rental_uris": {"ios": "https://dc.lft.to/lastmile_qr_scan", "android": "https://dc.lft.to/lastmile_qr_scan"}, "bike_id": "e844d7d0069f1c2fe618f731d196e348", "lat": 38.94332}, {"type": "electric_scooter", "fusion_lon": 0.0, "name": "97b919d4daaebfb1c239a25020720ae0", "lon": -77.0269775, "fusion_lat": 0.0, "is_disabled": 0, "is_reserved": 0, "rental_uris": {"ios": "https://dc.lft.to/lastmile_qr_scan", "android": "https://dc.lft.to/lastmile_qr_scan"}, "bike_id": "97b919d4daaebfb1c239a25020720ae0", "lat": 38.900490166666664}, {"type": "electric_scooter", "fusion_lon": 0.0, "name": "71363cd51f97a3e3368d265c7c87aca0", "lon": -77.06049483333334, "fusion_lat": 0.0, "is_disabled": 0, "is_reserved": 0, "rental_uris": {"ios": "https://dc.lft.to/lastmile_qr_scan", "android": "https://dc.lft.to/lastmile_qr_scan"}, "bike_id": "71363cd51f97a3e3368d265c7c87aca0", "lat": 38.905172}, {"type": "electric_scooter", "fusion_lon": 0.0, "name": "b0d1f5ae1912c1adc6f2f253aaee6ec4", "lon": -77.04054316666667, "fusion_lat": 0.0, "is_disabled": 0, "is_reserved": 0, "rental_uris": {"ios": "https://dc.lft.to/lastmile_qr_scan", "android": "https://dc.lft.to/lastmile_qr_scan"}, "bike_id": "b0d1f5ae1912c1adc6f2f253aaee6ec4", "lat": 38.930671}, {"type": "electric_bike", "fusion_lon": 0.0, "name": "468cee4f385562edba041a496848ea22", "lon": -77.03683366666667, "fusion_lat": 0.0, "is_disabled": 0, "is_reserved": 0, "rental_uris": {"ios": "https://dc.lft.to/lastmile_qr_scan", "android": "https://dc.lft.to/lastmile_qr_scan"}, "bike_id": "468cee4f385562edba041a496848ea22", "lat": 39.0265215}, {"type": "electric_scooter", "fusion_lon": 0.0, "name": "16b0641b47d352cc55e197cf3aec4459", "lon": -77.00921633333333, "fusion_lat": 0.0, "is_disabled": 0, "is_reserved": 0, "rental_uris": {"ios": "https://dc.lft.to/lastmile_qr_scan", "android": "https://dc.lft.to/lastmile_qr_scan"}, "bike_id": "16b0641b47d352cc55e197cf3aec4459", "lat": 38.9147655}, {"type": "electric_scooter", "fusion_lon": 0.0, "name": "484bfbeca8316617ecdd4faa23a447d1", "lon": -77.03621, "fusion_lat": 0.0, "is_disabled": 0, "is_reserved": 0, "rental_uris": {"ios": "https://dc.lft.to/lastmile_qr_scan", "android": "https://dc.lft.to/lastmile_qr_scan"}, "bike_id": "484bfbeca8316617ecdd4faa23a447d1", "lat": 38.900335166666665}, {"type": "electric_scooter", "fusion_lon": 0.0, "name": "f325132d13764b3612579db0bd39d943", "lon": -77.00118816666667, "fusion_lat": 0.0, "is_disabled": 0, "is_reserved": 0, "rental_uris": {"ios": "https://dc.lft.to/lastmile_qr_scan", "android": "https://dc.lft.to/lastmile_qr_scan"}, "bike_id": "f325132d13764b3612579db0bd39d943", "lat": 38.90768683333334}, {"type": "electric_scooter", "fusion_lon": 0.0, "name": "c98822e331d481ecfd94f5a1f0597ac7", "lon": -76.951998, "fusion_lat": 0.0, "is_disabled": 0, "is_reserved": 0, "rental_uris": {"ios": "https://dc.lft.to/lastmile_qr_scan", "android": "https://dc.lft.to/lastmile_qr_scan"}, "bike_id": "c98822e331d481ecfd94f5a1f0597ac7", "lat": 38.9051515}, {"type": "electric_scooter", "fusion_lon": 0.0, "name": "52eb0ea5840819643a7dd03bb8d4172c", "lon": -76.99571083333333, "fusion_lat": 0.0, "is_disabled": 0, "is_reserved": 0, "rental_uris": {"ios": "https://dc.lft.to/lastmile_qr_scan", "android": "https://dc.lft.to/lastmile_qr_scan"}, "bike_id": "52eb0ea5840819643a7dd03bb8d4172c", "lat": 38.9251215}, {"type": "electric_scooter", "fusion_lon": 0.0, "name": "7fb7ca9709bd7b304a1bb705033c9f90", "lon": -76.98321266666666, "fusion_lat": 0.0, "is_disabled": 0, "is_reserved": 0, "rental_uris": {"ios": "https://dc.lft.to/lastmile_qr_scan", "android": "https://dc.lft.to/lastmile_qr_scan"}, "bike_id": "7fb7ca9709bd7b304a1bb705033c9f90", "lat": 38.8959885}, {"type": "electric_scooter", "fusion_lon": 0.0, "name": "8385123638d7afc567be292c9a99d0e0", "lon": -77.03150583333333, "fusion_lat": 0.0, "is_disabled": 0, "is_reserved": 0, "rental_uris": {"ios": "https://dc.lft.to/lastmile_qr_scan", "android": "https://dc.lft.to/lastmile_qr_scan"}, "bike_id": "8385123638d7afc567be292c9a99d0e0", "lat": 38.916221}, {"type": "electric_scooter", "fusion_lon": 0.0, "name": "d069bf7cc34bc7f49465b4288d635565", "lon": -77.05041783333333, "fusion_lat": 0.0, "is_disabled": 0, "is_reserved": 0, "rental_uris": {"ios": "https://dc.lft.to/lastmile_qr_scan", "android": "https://dc.lft.to/lastmile_qr_scan"}, "bike_id": "d069bf7cc34bc7f49465b4288d635565", "lat": 38.915692666666665}, {"type": "electric_scooter", "fusion_lon": 0.0, "name": "c9dc75fcabfd093336d738f5969e7dcb", "lon": -77.00921183333334, "fusion_lat": 0.0, "is_disabled": 0, "is_reserved": 0, "rental_uris": {"ios": "https://dc.lft.to/lastmile_qr_scan", "android": "https://dc.lft.to/lastmile_qr_scan"}, "bike_id": "c9dc75fcabfd093336d738f5969e7dcb", "lat": 38.89551483333334}, {"type": "electric_scooter", "fusion_lon": 0.0, "name": "8460fbf85680900335ee4fd989d1be34", "lon": -77.02832783333334, "fusion_lat": 0.0, "is_disabled": 0, "is_reserved": 0, "rental_uris": {"ios": "https://dc.lft.to/lastmile_qr_scan", "android": "https://dc.lft.to/lastmile_qr_scan"}, "bike_id": "8460fbf85680900335ee4fd989d1be34", "lat": 38.886586333333334}, {"type": "electric_scooter", "fusion_lon": 0.0, "name": "5b45195226f3f3cddae2611da3e9959d", "lon": -76.9900105, "fusion_lat": 0.0, "is_disabled": 0, "is_reserved": 0, "rental_uris": {"ios": "https://dc.lft.to/lastmile_qr_scan", "android": "https://dc.lft.to/lastmile_qr_scan"}, "bike_id": "5b45195226f3f3cddae2611da3e9959d", "lat": 38.868914333333336}, {"type": "electric_scooter", "fusion_lon": 0.0, "name": "394733e980196d39b2bf11ac37cb0769", "lon": -77.00571433333333, "fusion_lat": 0.0, "is_disabled": 0, "is_reserved": 0, "rental_uris": {"ios": "https://dc.lft.to/lastmile_qr_scan", "android": "https://dc.lft.to/lastmile_qr_scan"}, "bike_id": "394733e980196d39b2bf11ac37cb0769", "lat": 38.8747225}, {"type": "electric_scooter", "fusion_lon": 0.0, "name": "a39680a8775ad2be3cc4b9a175a9c27e", "lon": -76.9654535, "fusion_lat": 0.0, "is_disabled": 0, "is_reserved": 0, "rental_uris": {"ios": "https://dc.lft.to/lastmile_qr_scan", "android": "https://dc.lft.to/lastmile_qr_scan"}, "bike_id": "a39680a8775ad2be3cc4b9a175a9c27e", "lat": 38.8788945}, {"type": "electric_scooter", "fusion_lon": 0.0, "name": "1f68ec02713d3f86ab41198f1a34247b", "lon": -77.0378765, "fusion_lat": 0.0, "is_disabled": 0, "is_reserved": 0, "rental_uris": {"ios": "https://dc.lft.to/lastmile_qr_scan", "android": "https://dc.lft.to/lastmile_qr_scan"}, "bike_id": "1f68ec02713d3f86ab41198f1a34247b", "lat": 38.92512116666666}, {"type": "electric_scooter", "fusion_lon": 0.0, "name": "1d4cba429a733f41b633d11a66b0acd9", "lon": -77.03969183333334, "fusion_lat": 0.0, "is_disabled": 0, "is_reserved": 0, "rental_uris": {"ios": "https://dc.lft.to/lastmile_qr_scan", "android": "https://dc.lft.to/lastmile_qr_scan"}, "bike_id": "1d4cba429a733f41b633d11a66b0acd9", "lat": 38.9025525}, {"type": "electric_scooter", "fusion_lon": 0.0, "name": "48e61dc4509415f329a12ed99b7806c8", "lon": -77.02238383333334, "fusion_lat": 0.0, "is_disabled": 0, "is_reserved": 0, "rental_uris": {"ios": "https://dc.lft.to/lastmile_qr_scan", "android": "https://dc.lft.to/lastmile_qr_scan"}, "bike_id": "48e61dc4509415f329a12ed99b7806c8", "lat": 38.95685133333333}, {"type": "electric_bike", "fusion_lon": 0.0, "name": "a5582455d6cb246de8a765a866341c4f", "lon": -77.0140295, "fusion_lat": 0.0, "is_disabled": 0, "is_reserved": 0, "rental_uris": {"ios": "https://dc.lft.to/lastmile_qr_scan", "android": "https://dc.lft.to/lastmile_qr_scan"}, "bike_id": "a5582455d6cb246de8a765a866341c4f", "lat": 38.95878916666667}, {"type": "electric_scooter", "fusion_lon": 0.0, "name": "2de7377575daf8f6c185586d642eb34a", "lon": -77.02198433333334, "fusion_lat": 0.0, "is_disabled": 0, "is_reserved": 0, "rental_uris": {"ios": "https://dc.lft.to/lastmile_qr_scan", "android": "https://dc.lft.to/lastmile_qr_scan"}, "bike_id": "2de7377575daf8f6c185586d642eb34a", "lat": 38.92108616666667}, {"type": "electric_scooter", "fusion_lon": 0.0, "name": "b4bb52b2a8764965ae4a96bec1b21cfb", "lon": -77.019218, "fusion_lat": 0.0, "is_disabled": 0, "is_reserved": 0, "rental_uris": {"ios": "https://dc.lft.to/lastmile_qr_scan", "android": "https://dc.lft.to/lastmile_qr_scan"}, "bike_id": "b4bb52b2a8764965ae4a96bec1b21cfb", "lat": 38.917814}, {"type": "electric_bike", "fusion_lon": 0.0, "name": "b90661e74a2cc94eb2bd9aa44e126152", "lon": -76.90744133333334, "fusion_lat": 0.0, "is_disabled": 0, "is_reserved": 0, "rental_uris": {"ios": "https://dc.lft.to/lastmile_qr_scan", "android": "https://dc.lft.to/lastmile_qr_scan"}, "bike_id": "b90661e74a2cc94eb2bd9aa44e126152", "lat": 38.896240166666665}, {"type": "electric_scooter", "fusion_lon": 0.0, "name": "751e4bbe7243951e7d6ab9f9aed7b32a", "lon": -77.04676283333333, "fusion_lat": 0.0, "is_disabled": 0, "is_reserved": 0, "rental_uris": {"ios": "https://dc.lft.to/lastmile_qr_scan", "android": "https://dc.lft.to/lastmile_qr_scan"}, "bike_id": "751e4bbe7243951e7d6ab9f9aed7b32a", "lat": 38.916689833333336}, {"type": "electric_scooter", "fusion_lon": 0.0, "name": "a1cbb6daa7c919f55b89efdce1fdde46", "lon": -77.03411616666666, "fusion_lat": 0.0, "is_disabled": 0, "is_reserved": 0, "rental_uris": {"ios": "https://dc.lft.to/lastmile_qr_scan", "android": "https://dc.lft.to/lastmile_qr_scan"}, "bike_id": "a1cbb6daa7c919f55b89efdce1fdde46", "lat": 38.922502333333334}, {"type": "electric_scooter", "fusion_lon": 0.0, "name": "85bfc2f0ff97e6561324fecae78ce84d", "lon": -77.030943, "fusion_lat": 0.0, "is_disabled": 0, "is_reserved": 0, "rental_uris": {"ios": "https://dc.lft.to/lastmile_qr_scan", "android": "https://dc.lft.to/lastmile_qr_scan"}, "bike_id": "85bfc2f0ff97e6561324fecae78ce84d", "lat": 38.910294}, {"type": "electric_scooter", "fusion_lon": 0.0, "name": "070a1a213302e109f06bca0ebc34886d", "lon": -77.02711466666666, "fusion_lat": 0.0, "is_disabled": 0, "is_reserved": 0, "rental_uris": {"ios": "https://dc.lft.to/lastmile_qr_scan", "android": "https://dc.lft.to/lastmile_qr_scan"}, "bike_id": "070a1a213302e109f06bca0ebc34886d", "lat": 38.918261333333334}, {"type": "electric_scooter", "fusion_lon": 0.0, "name": "861a6b98b7381bdc81496f5aad2fd76e", "lon": -77.04747716666667, "fusion_lat": 0.0, "is_disabled": 0, "is_reserved": 0, "rental_uris": {"ios": "https://dc.lft.to/lastmile_qr_scan", "android": "https://dc.lft.to/lastmile_qr_scan"}, "bike_id": "861a6b98b7381bdc81496f5aad2fd76e", "lat": 38.92000083333333}, {"type": "electric_scooter", "fusion_lon": 0.0, "name": "84bed8e19e6f78d2cb149e641d87f36d", "lon": -77.01172483333333, "fusion_lat": 0.0, "is_disabled": 0, "is_reserved": 0, "rental_uris": {"ios": "https://dc.lft.to/lastmile_qr_scan", "android": "https://dc.lft.to/lastmile_qr_scan"}, "bike_id": "84bed8e19e6f78d2cb149e641d87f36d", "lat": 38.908660833333336}, {"type": "electric_scooter", "fusion_lon": 0.0, "name": "ee06f1b7db9152a41080a0a4d1005f1c", "lon": -77.04683133333333, "fusion_lat": 0.0, "is_disabled": 0, "is_reserved": 0, "rental_uris": {"ios": "https://dc.lft.to/lastmile_qr_scan", "android": "https://dc.lft.to/lastmile_qr_scan"}, "bike_id": "ee06f1b7db9152a41080a0a4d1005f1c", "lat": 38.8973525}, {"type": "electric_scooter", "fusion_lon": 0.0, "name": "8c4c0dc1e92a9d410022bf615174bb75", "lon": -76.9373585, "fusion_lat": 0.0, "is_disabled": 0, "is_reserved": 0, "rental_uris": {"ios": "https://dc.lft.to/lastmile_qr_scan", "android": "https://dc.lft.to/lastmile_qr_scan"}, "bike_id": "8c4c0dc1e92a9d410022bf615174bb75", "lat": 38.890149}, {"type": "electric_scooter", "fusion_lon": 0.0, "name": "26f145d15eda0994f3c58c93b2859e47", "lon": -77.05003783333333, "fusion_lat": 0.0, "is_disabled": 0, "is_reserved": 0, "rental_uris": {"ios": "https://dc.lft.to/lastmile_qr_scan", "android": "https://dc.lft.to/lastmile_qr_scan"}, "bike_id": "26f145d15eda0994f3c58c93b2859e47", "lat": 38.89233683333333}, {"type": "electric_scooter", "fusion_lon": 0.0, "name": "8881674902a1556f653b65a22c0d015e", "lon": -77.0391285, "fusion_lat": 0.0, "is_disabled": 0, "is_reserved": 0, "rental_uris": {"ios": "https://dc.lft.to/lastmile_qr_scan", "android": "https://dc.lft.to/lastmile_qr_scan"}, "bike_id": "8881674902a1556f653b65a22c0d015e", "lat": 38.917583}, {"type": "electric_scooter", "fusion_lon": 0.0, "name": "d1f642344f16ccce7cee6065918a8115", "lon": -76.957707, "fusion_lat": 0.0, "is_disabled": 0, "is_reserved": 0, "rental_uris": {"ios": "https://dc.lft.to/lastmile_qr_scan", "android": "https://dc.lft.to/lastmile_qr_scan"}, "bike_id": "d1f642344f16ccce7cee6065918a8115", "lat": 38.883591333333335}, {"type": "electric_scooter", "fusion_lon": 0.0, "name": "81c5f6c5e77770a834da4f2b86f6fd5a", "lon": -77.02798066666666, "fusion_lat": 0.0, "is_disabled": 0, "is_reserved": 0, "rental_uris": {"ios": "https://dc.lft.to/lastmile_qr_scan", "android": "https://dc.lft.to/lastmile_qr_scan"},