{"data": {"bikes": [{"lon": -77.0386715, "name": "6edcd3dc6d8f7e3c59f26cf37c6466d1", "lat": 38.90366266666667, "fusion_lon": 0.0, "rental_uris": {"ios": "https://dc.lft.to/lastmile_qr_scan", "android": "https://dc.lft.to/lastmile_qr_scan"}, "bike_id": "6edcd3dc6d8f7e3c59f26cf37c6466d1", "type": "electric_scooter", "fusion_lat": 0.0, "is_disabled": 0, "is_reserved": 0}, {"lon": -77.02788366666667, "name": "ba813ceaa6fb9f375e155447e4607fab", "lat": 38.9428765, "fusion_lon": 0.0, "rental_uris": {"ios": "https://dc.lft.to/lastmile_qr_scan", "android": "https://dc.lft.to/lastmile_qr_scan"}, "bike_id": "ba813ceaa6fb9f375e155447e4607fab", "type": "electric_scooter", "fusion_lat": 0.0, "is_disabled": 0, "is_reserved": 0}, {"lon": -77.04043183333333, "name": "04f738792d82b0060819b9768fbba5b6", "lat": 38.90729833333333, "fusion_lon": 0.0, "rental_uris": {"ios": "https://dc.lft.to/lastmile_qr_scan", "android": "https://dc.lft.to/lastmile_qr_scan"}, "bike_id": "04f738792d82b0060819b9768fbba5b6", "type": "electric_scooter", "fusion_lat": 0.0, "is_disabled": 0, "is_reserved": 0}, {"lon": -77.00349566666667, "name": "c3396d974b98e6190d6dbea4d9a7f944", "lat": 38.893701, "fusion_lon": 0.0, "rental_uris": {"ios": "https://dc.lft.to/lastmile_qr_scan", "android": "https://dc.lft.to/lastmile_qr_scan"}, "bike_id": "c3396d974b98e6190d6dbea4d9a7f944", "type": "electric_scooter", "fusion_lat": 0.0, "is_disabled": 0, "is_reserved": 0}, {"lon": -77.033279, "name": "162b0cd6a950f22a9690af48da706e98", "lat": 38.921639166666665, "fusion_lon": 0.0, "rental_uris": {"ios": "https://dc.lft.to/lastmile_qr_scan", "android": "https://dc.lft.to/lastmile_qr_scan"}, "bike_id": "162b0cd6a950f22a9690af48da706e98", "type": "electric_scooter", "fusion_lat": 0.0, "is_disabled": 0, "is_reserved": 0}, {"lon": -77.041563, "name": "1180e448c54a797f5e7978f3471d7b8c", "lat": 38.90518016666667, "fusion_lon": 0.0, "rental_uris": {"ios": "https://dc.lft.to/lastmile_qr_scan", "android": "https://dc.lft.to/lastmile_qr_scan"}, "bike_id": "1180e448c54a797f5e7978f3471d7b8c", "type": "electric_scooter", "fusion_lat": 0.0, "is_disabled": 0, "is_reserved": 0}, {"lon": -77.03853733333334, "name": "5fdac49c82da8b63054fae99ec0c4730", "lat": 38.91259316666667, "fusion_lon": 0.0, "rental_uris": {"ios": "https://dc.lft.to/lastmile_qr_scan", "android": "https://dc.lft.to/lastmile_qr_scan"}, "bike_id": "5fdac49c82da8b63054fae99ec0c4730", "type": "electric_scooter", "fusion_lat": 0.0, "is_disabled": 0, "is_reserved": 0}, {"lon": -77.04752066666667, "name": "e41932734728fda2ece80713a9ea5c0d", "lat": 38.899534833333334, "fusion_lon": 0.0, "rental_uris": {"ios": "https://dc.lft.to/lastmile_qr_scan", "android": "https://dc.lft.to/lastmile_qr_scan"}, "bike_id": "e41932734728fda2ece80713a9ea5c0d", "type": "electric_scooter", "fusion_lat": 0.0, "is_disabled": 0, "is_reserved": 0}, {"lon": -76.98034816666667, "name": "4ab0909de893a3353d8001c4efd77154", "lat": 38.88966666666666, "fusion_lon": 0.0, "rental_uris": {"ios": "https://dc.lft.to/lastmile_qr_scan", "android": "https://dc.lft.to/lastmile_qr_scan"}, "bike_id": "4ab0909de893a3353d8001c4efd77154", "type": "electric_scooter", "fusion_lat": 0.0, "is_disabled": 0, "is_reserved": 0}, {"lon": -77.04306166666667, "name": "6200d75fd367c41b3ca0bc6bb00ceade", "lat": 38.9314165, "fusion_lon": 0.0, "rental_uris": {"ios": "https://dc.lft.to/lastmile_qr_scan", "android": "https://dc.lft.to/lastmile_qr_scan"}, "bike_id": "6200d75fd367c41b3ca0bc6bb00ceade", "type": "electric_scooter", "fusion_lat": 0.0, "is_disabled": 0, "is_reserved": 0}, {"lon": -77.13935383333333, "name": "991f3b134113c0fdbb86326f9d5c697b", "lat": 38.84672833333333, "fusion_lon": 0.0, "rental_uris": {"ios": "https://dc.lft.to/lastmile_qr_scan", "android": "https://dc.lft.to/lastmile_qr_scan"}, "bike_id": "991f3b134113c0fdbb86326f9d5c697b", "type": "electric_bike", "fusion_lat": 0.0, "is_disabled": 0, "is_reserved": 0}, {"lon": -77.050944, "name": "f9a6ae79173a95742e1a1c864c7dd9ff", "lat": 38.91552816666667, "fusion_lon": 0.0, "rental_uris": {"ios": "https://dc.lft.to/lastmile_qr_scan", "android": "https://dc.lft.to/lastmile_qr_scan"}, "bike_id": "f9a6ae79173a95742e1a1c864c7dd9ff", "type": "electric_scooter", "fusion_lat": 0.0, "is_disabled": 0, "is_reserved": 0}, {"lon": -77.0448515, "name": "5b75fc72d6608bff17c25e868756537a", "lat": 38.8951535, "fusion_lon": 0.0, "rental_uris": {"ios": "https://dc.lft.to/lastmile_qr_scan", "android": "https://dc.lft.to/lastmile_qr_scan"}, "bike_id": "5b75fc72d6608bff17c25e868756537a", "type": "electric_scooter", "fusion_lat": 0.0, "is_disabled": 0, "is_reserved": 0}, {"lon": -77.01220266666667, "name": "482eabab1f710fe7c77072922a1e5a91", "lat": 38.89798183333333, "fusion_lon": 0.0, "rental_uris": {"ios": "https://dc.lft.to/lastmile_qr_scan", "android": "https://dc.lft.to/lastmile_qr_scan"}, "bike_id": "482eabab1f710fe7c77072922a1e5a91", "type": "electric_scooter", "fusion_lat": 0.0, "is_disabled": 0, "is_reserved": 0}, {"lon": -77.032001, "name": "be2381d47a55686760bc128f0cd9d8a8", "lat": 38.91776266666667, "fusion_lon": 0.0, "rental_uris": {"ios": "https://dc.lft.to/lastmile_qr_scan", "android": "https://dc.lft.to/lastmile_qr_scan"}, "bike_id": "be2381d47a55686760bc128f0cd9d8a8", "type": "electric_scooter", "fusion_lat": 0.0, "is_disabled": 0, "is_reserved": 0}, {"lon": -77.069611, "name": "aee25f35d6229a1eb00d34ce5f73f3ef", "lat": 38.905829833333335, "fusion_lon": 0.0, "rental_uris": {"ios": "https://dc.lft.to/lastmile_qr_scan", "android": "https://dc.lft.to/lastmile_qr_scan"}, "bike_id": "aee25f35d6229a1eb00d34ce5f73f3ef", "type": "electric_scooter", "fusion_lat": 0.0, "is_disabled": 0, "is_reserved": 0}, {"lon": -77.02265966666667, "name": "eed773e469090a65ea3049d28755433a", "lat": 38.92483416666666, "fusion_lon": 0.0, "rental_uris": {"ios": "https://dc.lft.to/lastmile_qr_scan", "android": "https://dc.lft.to/lastmile_qr_scan"}, "bike_id": "eed773e469090a65ea3049d28755433a", "type": "electric_scooter", "fusion_lat": 0.0, "is_disabled": 0, "is_reserved": 0}, {"lon": -77.0178145, "name": "19bfa5a2dc488b908fdea7141aea23b3", "lat": 38.914899, "fusion_lon": 0.0, "rental_uris": {"ios": "https://dc.lft.to/lastmile_qr_scan", "android": "https://dc.lft.to/lastmile_qr_scan"}, "bike_id": "19bfa5a2dc488b908fdea7141aea23b3", "type": "electric_scooter", "fusion_lat": 0.0, "is_disabled": 0, "is_reserved": 0}, {"lon": -77.043514, "name": "ece496334cb6101ac125cc8d64fd993d", "lat": 38.903985166666665, "fusion_lon": 0.0, "rental_uris": {"ios": "https://dc.lft.to/lastmile_qr_scan", "android": "https://dc.lft.to/lastmile_qr_scan"}, "bike_id": "ece496334cb6101ac125cc8d64fd993d", "type": "electric_scooter", "fusion_lat": 0.0, "is_disabled": 0, "is_reserved": 0}, {"lon": -77.013683, "name": "104a171abbab116416463cc1cc6a16e1", "lat": 38.8789795, "fusion_lon": 0.0, "rental_uris": {"ios": "https://dc.lft.to/lastmile_qr_scan", "android": "https://dc.lft.to/lastmile_qr_scan"}, "bike_id": "104a171abbab116416463cc1cc6a16e1", "type": "electric_scooter", "fusion_lat": 0.0, "is_disabled": 0, "is_reserved": 0}, {"lon": -77.04485016666666, "name": "a344c2c943b563d63af8afcf2151ddbc", "lat": 38.91107616666667, "fusion_lon": 0.0, "rental_uris": {"ios": "https://dc.lft.to/lastmile_qr_scan", "android": "https://dc.lft.to/lastmile_qr_scan"}, "bike_id": "a344c2c943b563d63af8afcf2151ddbc", "type": "electric_scooter", "fusion_lat": 0.0, "is_disabled": 0, "is_reserved": 0}, {"lon": -77.0461835, "name": "856de80addd6046716870255cb75dddb", "lat": 38.904728666666664, "fusion_lon": 0.0, "rental_uris": {"ios": "https://dc.lft.to/lastmile_qr_scan", "android": "https://dc.lft.to/lastmile_qr_scan"}, "bike_id": "856de80addd6046716870255cb75dddb", "type": "electric_scooter", "fusion_lat": 0.0, "is_disabled": 0, "is_reserved": 0}, {"lon": -77.02405333333333, "name": "70950ec8d0cd4f2508399999e0c57036", "lat": 38.92705483333334, "fusion_lon": 0.0, "rental_uris": {"ios": "https://dc.lft.to/lastmile_qr_scan", "android": "https://dc.lft.to/lastmile_qr_scan"}, "bike_id": "70950ec8d0cd4f2508399999e0c57036", "type": "electric_scooter", "fusion_lat": 0.0, "is_disabled": 0, "is_reserved": 0}, {"lon": -77.014995, "name": "3dbdcdbe3d4e794c6e3a214cdb9148f1", "lat": 38.90141, "fusion_lon": 0.0, "rental_uris": {"ios": "https://dc.lft.to/lastmile_qr_scan", "android": "https://dc.lft.to/lastmile_qr_scan"}, "bike_id": "3dbdcdbe3d4e794c6e3a214cdb9148f1", "type": "electric_scooter", "fusion_lat": 0.0, "is_disabled": 0, "is_reserved": 0}, {"lon": -77.032079, "name": "f8395b99608382563c7d9a1a5668a85a", "lat": 38.913694, "fusion_lon": 0.0, "rental_uris": {"ios": "https://dc.lft.to/lastmile_qr_scan", "android": "https://dc.lft.to/lastmile_qr_scan"}, "bike_id": "f8395b99608382563c7d9a1a5668a85a", "type": "electric_scooter", "fusion_lat": 0.0, "is_disabled": 0, "is_reserved": 0}, {"lon": -77.05023533333333, "name": "6c8ff4526925236636b405866df5198c", "lat": 38.903599666666665, "fusion_lon": 0.0, "rental_uris": {"ios": "https://dc.lft.to/lastmile_qr_scan", "android": "https://dc.lft.to/lastmile_qr_scan"}, "bike_id": "6c8ff4526925236636b405866df5198c", "type": "electric_scooter", "fusion_lat": 0.0, "is_disabled": 0, "is_reserved": 0}, {"lon": -77.02167733333333, "name": "f1297fee9d0aa6f1099255e339e5b06d", "lat": 38.89405516666667, "fusion_lon": 0.0, "rental_uris": {"ios": "https://dc.lft.to/lastmile_qr_scan", "android": "https://dc.lft.to/lastmile_qr_scan"}, "bike_id": "f1297fee9d0aa6f1099255e339e5b06d", "type": "electric_scooter", "fusion_lat": 0.0, "is_disabled": 0, "is_reserved": 0}, {"lon": -77.00334483333333, "name": "04e14843da5c76947e0f7a5079c4eefd", "lat": 38.88987566666667, "fusion_lon": 0.0, "rental_uris": {"ios": "https://dc.lft.to/lastmile_qr_scan", "android": "https://dc.lft.to/lastmile_qr_scan"}, "bike_id": "04e14843da5c76947e0f7a5079c4eefd", "type": "electric_scooter", "fusion_lat": 0.0, "is_disabled": 0, "is_reserved": 0}, {"lon": -77.07307633333333, "name": "6f94dd8ba632263fdd10806de827bf91", "lat": 38.9083465, "fusion_lon": 0.0, "rental_uris": {"ios": "https://dc.lft.to/lastmile_qr_scan", "android": "https://dc.lft.to/lastmile_qr_scan"}, "bike_id": "6f94dd8ba632263fdd10806de827bf91", "type": "electric_scooter", "fusion_lat": 0.0, "is_disabled": 0, "is_reserved": 0}, {"lon": -77.043772, "name": "16add382f47e532857c0b312a7345349", "lat": 38.91051216666666, "fusion_lon": 0.0, "rental_uris": {"ios": "https://dc.lft.to/lastmile_qr_scan", "android": "https://dc.lft.to/lastmile_qr_scan"}, "bike_id": "16add382f47e532857c0b312a7345349", "type": "electric_scooter", "fusion_lat": 0.0, "is_disabled": 0, "is_reserved": 0}, {"lon": -76.98544583333333, "name": "33e05d537d6af862b8c30e0d8143c0b3", "lat": 38.87996233333333, "fusion_lon": 0.0, "rental_uris": {"ios": "https://dc.lft.to/lastmile_qr_scan", "android": "https://dc.lft.to/lastmile_qr_scan"}, "bike_id": "33e05d537d6af862b8c30e0d8143c0b3", "type": "electric_scooter", "fusion_lat": 0.0, "is_disabled": 0, "is_reserved": 0}, {"lon": -77.03133533333333, "name": "d81813cf87ac8d35f34b023f64f04a27", "lat": 38.8922405, "fusion_lon": 0.0, "rental_uris": {"ios": "https://dc.lft.to/lastmile_qr_scan", "android": "https://dc.lft.to/lastmile_qr_scan"}, "bike_id": "d81813cf87ac8d35f34b023f64f04a27", "type": "electric_scooter", "fusion_lat": 0.0, "is_disabled": 0, "is_reserved": 0}, {"lon": -76.93602183333333, "name": "29a714c7e702f398f7f126af1a2a3677", "lat": 38.8895725, "fusion_lon": 0.0, "rental_uris": {"ios": "https://dc.lft.to/lastmile_qr_scan", "android": "https://dc.lft.to/lastmile_qr_scan"}, "bike_id": "29a714c7e702f398f7f126af1a2a3677", "type": "electric_scooter", "fusion_lat": 0.0, "is_disabled": 0, "is_reserved": 0}, {"lon": -77.02384616666667, "name": "1443225b032abbe1b86384c978769f61", "lat": 38.896375166666665, "fusion_lon": 0.0, "rental_uris": {"ios": "https://dc.lft.to/lastmile_qr_scan", "android": "https://dc.lft.to/lastmile_qr_scan"}, "bike_id": "1443225b032abbe1b86384c978769f61", "type": "electric_scooter", "fusion_lat": 0.0, "is_disabled": 0, "is_reserved": 0}, {"lon": -77.00942283333333, "name": "ca103fade4078f5ab55178356a4f700e", "lat": 38.874606666666665, "fusion_lon": 0.0, "rental_uris": {"ios": "https://dc.lft.to/lastmile_qr_scan", "android": "https://dc.lft.to/lastmile_qr_scan"}, "bike_id": "ca103fade4078f5ab55178356a4f700e", "type": "electric_scooter", "fusion_lat": 0.0, "is_disabled": 0, "is_reserved": 0}, {"lon": -77.03166266666666, "name": "0094fc34947fdba50174b037b704e3ee", "lat": 38.90361166666667, "fusion_lon": 0.0, "rental_uris": {"ios": "https://dc.lft.to/lastmile_qr_scan", "android": "https://dc.lft.to/lastmile_qr_scan"}, "bike_id": "0094fc34947fdba50174b037b704e3ee", "type": "electric_scooter", "fusion_lat": 0.0, "is_disabled": 0, "is_reserved": 0}, {"lon": -76.9317505, "name": "f181592c81df1e00dca80033ada619ed", "lat": 38.89884166666667, "fusion_lon": 0.0, "rental_uris": {"ios": "https://dc.lft.to/lastmile_qr_scan", "android": "https://dc.lft.to/lastmile_qr_scan"}, "bike_id": "f181592c81df1e00dca80033ada619ed", "type": "electric_scooter", "fusion_lat": 0.0, "is_disabled": 0, "is_reserved": 0}, {"lon": -77.02361166666667, "name": "a81243262b87dd55e622db0276d6ce73", "lat": 38.944791, "fusion_lon": 0.0, "rental_uris": {"ios": "https://dc.lft.to/lastmile_qr_scan", "android": "https://dc.lft.to/lastmile_qr_scan"}, "bike_id": "a81243262b87dd55e622db0276d6ce73", "type": "electric_scooter", "fusion_lat": 0.0, "is_disabled": 0, "is_reserved": 0}, {"lon": -77.03283783333333, "name": "bd445e84b409c938e82de7021418f987", "lat": 38.938789, "fusion_lon": 0.0, "rental_uris": {"ios": "https://dc.lft.to/lastmile_qr_scan", "android": "https://dc.lft.to/lastmile_qr_scan"}, "bike_id": "bd445e84b409c938e82de7021418f987", "type": "electric_scooter", "fusion_lat": 0.0, "is_disabled": 0, "is_reserved": 0}, {"lon": -77.162333, "name": "554a9fdaa78d93a20c925e0ff8fe37dc", "lat": 38.8865655, "fusion_lon": 0.0, "rental_uris": {"ios": "https://dc.lft.to/lastmile_qr_scan", "android": "https://dc.lft.to/lastmile_qr_scan"}, "bike_id": "554a9fdaa78d93a20c925e0ff8fe37dc", "type": "electric_bike", "fusion_lat": 0.0, "is_disabled": 0, "is_reserved": 0}, {"lon": -77.03365616666666, "name": "1b5d6a322d0241059e95d0e4fe0281b6", "lat": 38.9650825, "fusion_lon": 0.0, "rental_uris": {"ios": "https://dc.lft.to/lastmile_qr_scan", "android": "https://dc.lft.to/lastmile_qr_scan"}, "bike_id": "1b5d6a322d0241059e95d0e4fe0281b6", "type": "electric_bike", "fusion_lat": 0.0, "is_disabled": 0, "is_reserved": 0}, {"lon": -77.03441666666667, "name": "591feea8d96ca110a0ac18dce654f842", "lat": 38.90406766666667, "fusion_lon": 0.0, "rental_uris": {"ios": "https://dc.lft.to/lastmile_qr_scan", "android": "https://dc.lft.to/lastmile_qr_scan"}, "bike_id": "591feea8d96ca110a0ac18dce654f842", "type": "electric_scooter", "fusion_lat": 0.0, "is_disabled": 0, "is_reserved": 0}, {"lon": -77.02161833333334, "name": "9bc826bbc3513c29a880726c18d89611", "lat": 38.8922025, "fusion_lon": 0.0, "rental_uris": {"ios": "https://dc.lft.to/lastmile_qr_scan", "android": "https://dc.lft.to/lastmile_qr_scan"}, "bike_id": "9bc826bbc3513c29a880726c18d89611", "type": "electric_scooter", "fusion_lat": 0.0, "is_disabled": 0, "is_reserved": 0}, {"lon": -77.02182866666666, "name": "40f6eecaba16c9c66289dc1b8509c389", "lat": 38.9157035, "fusion_lon": 0.0, "rental_uris": {"ios": "https://dc.lft.to/lastmile_qr_scan", "android": "https://dc.lft.to/lastmile_qr_scan"}, "bike_id": "40f6eecaba16c9c66289dc1b8509c389", "type": "electric_scooter", "fusion_lat": 0.0, "is_disabled": 0, "is_reserved": 0}, {"lon": -76.937534, "name": "4bbce3f06d257adc9a2b3317127ceeae", "lat": 38.8903145, "fusion_lon": 0.0, "rental_uris": {"ios": "https://dc.lft.to/lastmile_qr_scan", "android": "https://dc.lft.to/lastmile_qr_scan"}, "bike_id": "4bbce3f06d257adc9a2b3317127ceeae", "type": "electric_scooter", "fusion_lat": 0.0, "is_disabled": 0, "is_reserved": 0}, {"lon": -77.04168066666666, "name": "fdc5d003c3db45c830e494041f3b6c17", "lat": 38.895012666666666, "fusion_lon": 0.0, "rental_uris": {"ios": "https://dc.lft.to/lastmile_qr_scan", "android": "https://dc.lft.to/lastmile_qr_scan"}, "bike_id": "fdc5d003c3db45c830e494041f3b6c17", "type": "electric_scooter", "fusion_lat": 0.0, "is_disabled": 0, "is_reserved": 0}, {"lon": -77.04864883333333, "name": "83fbbcb96d19cb0e86ea42fdae44eeb1", "lat": 38.89221533333333, "fusion_lon": 0.0, "rental_uris": {"ios": "https://dc.lft.to/lastmile_qr_scan", "android": "https://dc.lft.to/lastmile_qr_scan"}, "bike_id": "83fbbcb96d19cb0e86ea42fdae44eeb1", "type": "electric_scooter", "fusion_lat": 0.0, "is_disabled": 0, "is_reserved": 0}, {"lon": -77.11686, "name": "185fa0eb96637b1e126950bfa97a9a18", "lat": 38.88544433333333, "fusion_lon": 0.0, "rental_uris": {"ios": "https://dc.lft.to/lastmile_qr_scan", "android": "https://dc.lft.to/lastmile_qr_scan"}, "bike_id": "185fa0eb96637b1e126950bfa97a9a18", "type": "electric_bike", "fusion_lat": 0.0, "is_disabled": 0, "is_reserved": 0}, {"lon": -77.021636, "name": "6fcf39cba22e4eb66b53f92312d89ce9", "lat": 38.89220983333333, "fusion_lon": 0.0, "rental_uris": {"ios": "https://dc.lft.to/lastmile_qr_scan", "android": "https://dc.lft.to/lastmile_qr_scan"}, "bike_id": "6fcf39cba22e4eb66b53f92312d89ce9", "type": "electric_scooter", "fusion_lat": 0.0, "is_disabled": 0, "is_reserved": 0}, {"lon": -77.055166, "name": "52b32ae0de7344a18034b4777ff2cd62", "lat": 38.904163833333335, "fusion_lon": 0.0, "rental_uris": {"ios": "https://dc.lft.to/lastmile_qr_scan", "android": "https://dc.lft.to/lastmile_qr_scan"}, "bike_id": "52b32ae0de7344a18034b4777ff2cd62", "type": "electric_bike", "fusion_lat": 0.0, "is_disabled": 0, "is_reserved": 0}, {"lon": -77.039664, "name": "ab3086c5525e3a9e419708d172519145", "lat": 38.899038833333336, "fusion_lon": 0.0, "rental_uris": {"ios": "https://dc.lft.to/lastmile_qr_scan", "android": "https://dc.lft.to/lastmile_qr_scan"}, "bike_id": "ab3086c5525e3a9e419708d172519145", "type": "electric_scooter", "fusion_lat": 0.0, "is_disabled": 0, "is_reserved": 0}, {"lon": -77.0335375, "name": "20867cf99c21fd0bcc4a4054f76160bf", "lat": 38.90193416666666, "fusion_lon": 0.0, "rental_uris": {"ios": "https://dc.lft.to/lastmile_qr_scan", "android": "https://dc.lft.to/lastmile_qr_scan"}, "bike_id": "20867cf99c21fd0bcc4a4054f76160bf", "type": "electric_scooter", "fusion_lat": 0.0, "is_disabled": 0, "is_reserved": 0}, {"lon": -77.03454183333334, "name": "cc68baa83a93f5ed939ea1c8180b9621", "lat": 38.9055705, "fusion_lon": 0.0, "rental_uris": {"ios": "https://dc.lft.to/lastmile_qr_scan", "android": "https://dc.lft.to/lastmile_qr_scan"}, "bike_id": "cc68baa83a93f5ed939ea1c8180b9621", "type": "electric_scooter", "fusion_lat": 0.0, "is_disabled": 0, "is_reserved": 0}, {"lon": -77.045013, "name": "74b9d2958c0fb13018d860e7700f2e85", "lat": 38.89222633333333, "fusion_lon": 0.0, "rental_uris": {"ios": "https://dc.lft.to/lastmile_qr_scan", "android": "https://dc.lft.to/lastmile_qr_scan"}, "bike_id": "74b9d2958c0fb13018d860e7700f2e85", "type": "electric_scooter", "fusion_lat": 0.0, "is_disabled": 0, "is_reserved": 0}, {"lon": -77.02441066666667, "name": "a223dc7c9bbdc701eae8f1d6067fd773", "lat": 38.956293333333335, "fusion_lon": 0.0, "rental_uris": {"ios": "https://dc.lft.to/lastmile_qr_scan", "android": "https://dc.lft.to/lastmile_qr_scan"}, "bike_id": "a223dc7c9bbdc701eae8f1d6067fd773", "type": "electric_scooter", "fusion_lat": 0.0, "is_disabled": 0, "is_reserved": 0}, {"lon": -76.99513966666666, "name": "82815536ff2c4c709cffa89f50db6c60", "lat": 38.89726433333333, "fusion_lon": 0.0, "rental_uris": {"ios": "https://dc.lft.to/lastmile_qr_scan", "android": "https://dc.lft.to/lastmile_qr_scan"}, "bike_id": "82815536ff2c4c709cffa89f50db6c60", "type": "electric_scooter", "fusion_lat": 0.0, "is_disabled": 0, "is_reserved": 0}, {"lon": -77.04221716666666, "name": "b37d8a02ef4364170cb05c4c479a1014", "lat": 38.92314733333333, "fusion_lon": 0.0, "rental_uris": {"ios": "https://dc.lft.to/lastmile_qr_scan", "android": "https://dc.lft.to/lastmile_qr_scan"}, "bike_id": "b37d8a02ef4364170cb05c4c479a1014", "type": "electric_scooter", "fusion_lat": 0.0, "is_disabled": 0, "is_reserved": 0}, {"lon": -77.0151645, "name": "7529ccbee2650de5b4896ba8f434441b", "lat": 38.926872333333336, "fusion_lon": 0.0, "rental_uris": {"ios": "https://dc.lft.to/lastmile_qr_scan", "android": "https://dc.lft.to/lastmile_qr_scan"}, "bike_id": "7529ccbee2650de5b4896ba8f434441b", "type": "electric_scooter", "fusion_lat": 0.0, "is_disabled": 0, "is_reserved": 0}, {"lon": -77.03747716666666, "name": "803abc4e7e2015d08b122c2a5984340e", "lat": 38.903616166666666, "fusion_lon": 0.0, "rental_uris": {"ios": "https://dc.lft.to/lastmile_qr_scan", "android": "https://dc.lft.to/lastmile_qr_scan"}, "bike_id": "803abc4e7e2015d08b122c2a5984340e", "type": "electric_scooter", "fusion_lat": 0.0, "is_disabled": 0, "is_reserved": 0}, {"lon": -77.006697, "name": "667d7770a441ddfdd8bccf78e9d6e550", "lat": 38.9293115, "fusion_lon": 0.0, "rental_uris": {"ios": "https://dc.lft.to/lastmile_qr_scan", "android": "https://dc.lft.to/lastmile_qr_scan"}, "bike_id": "667d7770a441ddfdd8bccf78e9d6e550", "type": "electric_scooter", "fusion_lat": 0.0, "is_disabled": 0, "is_reserved": 0}, {"lon": -77.02412583333333, "name": "d6ea26020fc49a209824f29c57aaf040", "lat": 38.89224333333333, "fusion_lon": 0.0, "rental_uris": {"ios": "https://dc.lft.to/lastmile_qr_scan", "android": "https://dc.lft.to/lastmile_qr_scan"}, "bike_id": "d6ea26020fc49a209824f29c57aaf040", "type": "electric_scooter", "fusion_lat": 0.0, "is_disabled": 0, "is_reserved": 0}, {"lon": -77.02878583333333, "name": "15dd244d625be68baef501560ccbf1ef", "lat": 38.972967, "fusion_lon": 0.0, "rental_uris": {"ios": "https://dc.lft.to/lastmile_qr_scan", "android": "https://dc.lft.to/lastmile_qr_scan"}, "bike_id": "15dd244d625be68baef501560ccbf1ef", "type": "electric_bike", "fusion_lat": 0.0, "is_disabled": 0, "is_reserved": 0}, {"lon": -77.03107033333333, "name": "b37c140c4f544fbae03a49c9ba02e8fd", "lat": 38.923107333333334, "fusion_lon": 0.0, "rental_uris": {"ios": "https://dc.lft.to/lastmile_qr_scan", "android": "https://dc.lft.to/lastmile_qr_scan"}, "bike_id": "b37c140c4f544fbae03a49c9ba02e8fd", "type": "electric_scooter", "fusion_lat": 0.0, "is_disabled": 0, "is_reserved": 0}, {"lon": -77.04241316666666, "name": "62e4e1f3a386b24658baa0652d09b39b", "lat": 38.922232, "fusion_lon": 0.0, "rental_uris": {"ios": "https://dc.lft.to/lastmile_qr_scan", "android": "https://dc.lft.to/lastmile_qr_scan"}, "bike_id": "62e4e1f3a386b24658baa0652d09b39b", "type": "electric_scooter", "fusion_lat": 0.0, "is_disabled": 0, "is_reserved": 0}, {"lon": -77.03358416666667, "name": "6b00e7f0218116c6f201bbfc4dab71c4", "lat": 38.924371, "fusion_lon": 0.0, "rental_uris": {"ios": "https://dc.lft.to/lastmile_qr_scan", "android": "https://dc.lft.to/lastmile_qr_scan"}, "bike_id": "6b00e7f0218116c6f201bbfc4dab71c4", "type": "electric_scooter", "fusion_lat": 0.0, "is_disabled": 0, "is_reserved": 0}, {"lon": -77.04500483333334, "name": "65d751aedf2f7f9b7423c3daa7df72b2", "lat": 38.892236833333335, "fusion_lon": 0.0, "rental_uris": {"ios": "https://dc.lft.to/lastmile_qr_scan", "android": "https://dc.lft.to/lastmile_qr_scan"}, "bike_id": "65d751aedf2f7f9b7423c3daa7df72b2", "type": "electric_scooter", "fusion_lat": 0.0, "is_disabled": 0, "is_reserved": 0}, {"lon": -77.00330883333334, "name": "e37ed8cfe0c46465073a0aab8eeb893f", "lat": 38.89355166666667, "fusion_lon": 0.0, "rental_uris": {"ios": "https://dc.lft.to/lastmile_qr_scan", "android": "https://dc.lft.to/lastmile_qr_scan"}, "bike_id": "e37ed8cfe0c46465073a0aab8eeb893f", "type": "electric_scooter", "fusion_lat": 0.0, "is_disabled": 0, "is_reserved": 0}, {"lon": -77.015958, "name": "600103354ab1cfa6bad11d1b293ef272", "lat": 38.88787383333333, "fusion_lon": 0.0, "rental_uris": {"ios": "https://dc.lft.to/lastmile_qr_scan", "android": "https://dc.lft.to/lastmile_qr_scan"}, "bike_id": "600103354ab1cfa6bad11d1b293ef272", "type": "electric_scooter", "fusion_lat": 0.0, "is_disabled": 0, "is_reserved": 0}, {"lon": -77.033699, "name": "a0b144f64a81b607145b119bc5dd4083", "lat": 38.90103333333333, "fusion_lon": 0.0, "rental_uris": {"ios": "https://dc.lft.to/lastmile_qr_scan", "android": "https://dc.lft.to/lastmile_qr_scan"}, "bike_id": "a0b144f64a81b607145b119bc5dd4083", "type": "electric_scooter", "fusion_lat": 0.0, "is_disabled": 0, "is_reserved": 0}, {"lon": -76.931882, "name": "5131c8d8c2b061e324d115795c033bbd", "lat": 38.8985105, "fusion_lon": 0.0, "rental_uris": {"ios": "https://dc.lft.to/lastmile_qr_scan", "android": "https://dc.lft.to/lastmile_qr_scan"}, "bike_id": "5131c8d8c2b061e324d115795c033bbd", "type": "electric_bike", "fusion_lat": 0.0, "is_disabled": 0, "is_reserved": 0}, {"lon": -77.02271183333333, "name": "a0895562783c40e36dd3380fb870d80e", "lat": 38.881442, "fusion_lon": 0.0, "rental_uris": {"ios": "https://dc.lft.to/lastmile_qr_scan", "android": "https://dc.lft.to/lastmile_qr_scan"}, "bike_id": "a0895562783c40e36dd3380fb870d80e", "type": "electric_scooter", "fusion_lat": 0.0, "is_disabled": 0, "is_reserved": 0}, {"lon": -77.03071033333333, "name": "dccdc7a8b619faba89267b6b9a9a4528", "lat": 38.93303066666667, "fusion_lon": 0.0, "rental_uris": {"ios": "https://dc.lft.to/lastmile_qr_scan", "android": "https://dc.lft.to/lastmile_qr_scan"}, "bike_id": "dccdc7a8b619faba89267b6b9a9a4528", "type": "electric_scooter", "fusion_lat": 0.0, "is_disabled": 0, "is_reserved": 0}, {"lon": -76.9569535, "name": "37ae1376a577bd3a22e6ad65b0a60ece", "lat": 38.8920615, "fusion_lon": 0.0, "rental_uris": {"ios": "https://dc.lft.to/lastmile_qr_scan", "android": "https://dc.lft.to/lastmile_qr_scan"}, "bike_id": "37ae1376a577bd3a22e6ad65b0a60ece", "type": "electric_scooter", "fusion_lat": 0.0, "is_disabled": 0, "is_reserved": 0}, {"lon": -77.01089183333333, "name": "0ff479b6554d56ace1659c3d8655f9ac", "lat": 38.91330683333333, "fusion_lon": 0.0, "rental_uris": {"ios": "https://dc.lft.to/lastmile_qr_scan", "android": "https://dc.lft.to/lastmile_qr_scan"}, "bike_id": "0ff479b6554d56ace1659c3d8655f9ac", "type": "electric_scooter", "fusion_lat": 0.0, "is_disabled": 0, "is_reserved": 0}, {"lon": -77.07322633333334, "name": "58fc34cf5b7a6bb139e0e975cb0a3904", "lat": 38.9262885, "fusion_lon": 0.0, "rental_uris": {"ios": "https://dc.lft.to/lastmile_qr_scan", "android": "https://dc.lft.to/lastmile_qr_scan"}, "bike_id": "58fc34cf5b7a6bb139e0e975cb0a3904", "type": "electric_scooter", "fusion_lat": 0.0, "is_disabled": 0, "is_reserved": 0}, {"lon": -77.06606916666667, "name": "ceb9bd06ffa591e79a6f0c61fd5720d0", "lat": 38.936598333333336, "fusion_lon": 0.0, "rental_uris": {"ios": "https://dc.lft.to/lastmile_qr_scan", "android": "https://dc.lft.to/lastmile_qr_scan"}, "bike_id": "ceb9bd06ffa591e79a6f0c61fd5720d0", "type": "electric_scooter", "fusion_lat": 0.0, "is_disabled": 0, "is_reserved": 0}, {"lon": -77.04864983333333, "name": "9ebd2bf0caba66337d3e7429f5ed17d1", "lat": 38.90047466666667, "fusion_lon": 0.0, "rental_uris": {"ios": "https://dc.lft.to/lastmile_qr_scan", "android": "https://dc.lft.to/lastmile_qr_scan"}, "bike_id": "9ebd2bf0caba66337d3e7429f5ed17d1", "type": "electric_scooter", "fusion_lat": 0.0, "is_disabled": 0, "is_reserved": 0}, {"lon": -77.03507116666667, "name": "361f85e7b38badd551c6ea85b58ff578", "lat": 38.92151333333333, "fusion_lon": 0.0, "rental_uris": {"ios": "https://dc.lft.to/lastmile_qr_scan", "android": "https://dc.lft.to/lastmile_qr_scan"}, "bike_id": "361f85e7b38badd551c6ea85b58ff578", "type": "electric_scooter", "fusion_lat": 0.0, "is_disabled": 0, "is_reserved": 0}, {"lon": -77.02709266666666, "name": "42e61605cbadd2ff4404cdc7d3968307", "lat": 38.89703433333333, "fusion_lon": 0.0, "rental_uris": {"ios": "https://dc.lft.to/lastmile_qr_scan", "android": "https://dc.lft.to/lastmile_qr_scan"}, "bike_id": "42e61605cbadd2ff4404cdc7d3968307", "type": "electric_scooter", "fusion_lat": 0.0, "is_disabled": 0, "is_reserved": 0}, {"lon": -77.028232, "name": "62be2f9cf71ee61f18adbeb69b615c4c", "lat": 38.887164, "fusion_lon": 0.0, "rental_uris": {"ios": "https://dc.lft.to/lastmile_qr_scan", "android": "https://dc.lft.to/lastmile_qr_scan"}, "bike_id": "62be2f9cf71ee61f18adbeb69b615c4c", "type": "electric_scooter", "fusion_lat": 0.0, "is_disabled": 0, "is_reserved": 0}, {"lon": -77.0022705, "name": "60054e269cf8628fa7fc2a71d0716fb8", "lat": 38.925064166666665, "fusion_lon": 0.0, "rental_uris": {"ios": "https://dc.lft.to/lastmile_qr_scan", "android": "https://dc.lft.to/lastmile_qr_scan"}, "bike_id": "60054e269cf8628fa7fc2a71d0716fb8", "type": "electric_scooter", "fusion_lat": 0.0, "is_disabled": 0, "is_reserved": 0}, {"lon": -77.02088333333333, "name": "dba29cadd30a1e3a289d1cd058e42b14", "lat": 38.92163866666667, "fusion_lon": 0.0, "rental_uris": {"ios": "https://dc.lft.to/lastmile_qr_scan", "android": "https://dc.lft.to/lastmile_qr_scan"}, "bike_id": "dba29cadd30a1e3a289d1cd058e42b14", "type": "electric_scooter", "fusion_lat": 0.0, "is_disabled": 0, "is_reserved": 0}, {"lon": -77.04397716666666, "name": "966463c62467bf05c785c88076c9ea9e", "lat": 38.910445833333334, "fusion_lon": 0.0, "rental_uris": {"ios": "https://dc.lft.to/lastmile_qr_scan", "android": "https://dc.lft.to/lastmile_qr_scan"}, "bike_id": "966463c62467bf05c785c88076c9ea9e", "type": "electric_scooter", "fusion_lat": 0.0, "is_disabled": 0, "is_reserved": 0}, {"lon": -77.00097933333333, "name": "320c5f1f74c281e21708036b0bbff972", "lat": 38.87371783333333, "fusion_lon": 0.0, "rental_uris": {"ios": "https://dc.lft.to/lastmile_qr_scan", "android": "https://dc.lft.to/lastmile_qr_scan"}, "bike_id": "320c5f1f74c281e21708036b0bbff972", "type": "electric_scooter", "fusion_lat": 0.0, "is_disabled": 0, "is_reserved": 0}, {"lon": -77.00206983333334, "name": "fe6b5fbb42cc6c09c74513b68fd47b51", "lat": 38.886520833333336, "fusion_lon": 0.0, "rental_uris": {"ios": "https://dc.lft.to/lastmile_qr_scan", "android": "https://dc.lft.to/lastmile_qr_scan"}, "bike_id": "fe6b5fbb42cc6c09c74513b68fd47b51", "type": "electric_scooter", "fusion_lat": 0.0, "is_disabled": 0, "is_reserved": 0}, {"lon": -77.02840283333333, "name": "21c3f16d12b501b04d17440b1309ce3e", "lat": 38.89330483333333, "fusion_lon": 0.0, "rental_uris": {"ios": "https://dc.lft.to/lastmile_qr_scan", "android": "https://dc.lft.to/lastmile_qr_scan"}, "bike_id": "21c3f16d12b501b04d17440b1309ce3e", "type": "electric_scooter", "fusion_lat": 0.0, "is_disabled": 0, "is_reserved": 0}, {"lon": -77.03347116666667, "name": "bf20a87dea698e91006ef1bda41b9c73", "lat": 38.928836, "fusion_lon": 0.0, "rental_uris": {"ios": "https://dc.lft.to/lastmile_qr_scan", "android": "https://dc.lft.to/lastmile_qr_scan"}, "bike_id": "bf20a87dea698e91006ef1bda41b9c73", "type": "electric_scooter", "fusion_lat": 0.0, "is_disabled": 0, "is_reserved": 0}, {"lon": -77.02965483333334, "name": "fa9c3fe31ac6074bd7a33643aa56c6a1", "lat": 38.94222583333333, "fusion_lon": 0.0, "rental_uris": {"ios": "https://dc.lft.to/lastmile_qr_scan", "android": "https://dc.lft.to/lastmile_qr_scan"}, "bike_id": "fa9c3fe31ac6074bd7a33643aa56c6a1", "type": "electric_scooter", "fusion_lat": 0.0, "is_disabled": 0, "is_reserved": 0}, {"lon": -77.03413716666667, "name": "8265aaf8c90ddd1e504f9843fe1d27f9", "lat": 38.9230165, "fusion_lon": 0.0, "rental_uris": {"ios": "https://dc.lft.to/lastmile_qr_scan", "android": "https://dc.lft.to/lastmile_qr_scan"}, "bike_id": "8265aaf8c90ddd1e504f9843fe1d27f9", "type": "electric_scooter", "fusion_lat": 0.0, "is_disabled": 0, "is_reserved": 0}, {"lon": -77.02472783333333, "name": "e133e3ba65197853b208054127dfb50d", "lat": 38.918119, "fusion_lon": 0.0, "rental_uris": {"ios": "https://dc.lft.to/lastmile_qr_scan", "android": "https://dc.lft.to/lastmile_qr_scan"}, "bike_id": "e133e3ba65197853b208054127dfb50d", "type": "electric_scooter", "fusion_lat": 0.0, "is_disabled": 0, "is_reserved": 0}, {"lon": -77.026887, "name": "a626bf9132fb5974882b2f4f08d3f136", "lat": 38.89439266666667, "fusion_lon": 0.0, "rental_uris": {"ios": "https://dc.lft.to/lastmile_qr_scan", "android": "https://dc.lft.to/lastmile_qr_scan"}, "bike_id": "a626bf9132fb5974882b2f4f08d3f136", "type": "electric_scooter", "fusion_lat": 0.0, "is_disabled": 0, "is_reserved": 0}, {"lon": -77.0958665, "name": "0b4d927afe6ba6c99125383441066fb8", "lat": 38.974399166666664, "fusion_lon": 0.0, "rental_uris": {"ios": "https://dc.lft.to/lastmile_qr_scan", "android": "https://dc.lft.to/lastmile_qr_scan"}, "bike_id": "0b4d927afe6ba6c99125383441066fb8", "type": "electric_bike", "fusion_lat": 0.0, "is_disabled": 0, "is_reserved": 0}, {"lon": -77.04125033333334, "name": "a0fad7f2ab40a2c345a59b5b04d55167", "lat": 38.929625, "fusion_lon": 0.0, "rental_uris": {"ios": "https://dc.lft.to/lastmile_qr_scan", "android": "https://dc.lft.to/lastmile_qr_scan"}, "bike_id": "a0fad7f2ab40a2c345a59b5b04d55167", "type": "electric_scooter", "fusion_lat": 0.0, "is_disabled": 0, "is_reserved": 0}, {"lon": -77.01943933333334, "name": "0c662a4c00247b08d236d6bd5a40cc47", "lat": 38.9225205, "fusion_lon": 0.0, "rental_uris": {"ios": "https://dc.lft.to/lastmile_qr_scan", "android": "https://dc.lft.to/lastmile_qr_scan"}, "bike_id": "0c662a4c00247b08d236d6bd5a40cc47", "type": "electric_scooter", "fusion_lat": 0.0, "is_disabled": 0, "is_reserved": 0}, {"lon": -76.93208716666666, "name": "f449a15b033524956cdd5f5a6c43cb67", "lat": 38.8966715, "fusion_lon": 0.0, "rental_uris": {"ios": "https://dc.lft.to/lastmile_qr_scan", "android": "https://dc.lft.to/lastmile_qr_scan"}, "bike_id": "f449a15b033524956cdd5f5a6c43cb67", "type": "electric_bike", "fusion_lat": 0.0, "is_disabled": 0, "is_reserved": 0}, {"lon": -77.05994416666667, "name": "0cb300641b5a52dc1e0f73e785571fda", "lat": 38.92712133333333, "fusion_lon": 0.0, "rental_uris": {"ios": "https://dc.lft.to/lastmile_qr_scan", "android": "https://dc.lft.to/lastmile_qr_scan"}, "bike_id": "0cb300641b5a52dc1e0f73e785571fda", "type": "electric_scooter", "fusion_lat": 0.0, "is_disabled": 0, "is_reserved": 0}, {"lon": -77.01951566666666, "name": "acb7094833177d25c745d243e67a3e09", "lat": 38.92363833333334, "fusion_lon": 0.0, "rental_uris": {"ios": "https://dc.lft.to/lastmile_qr_scan", "android": "https://dc.lft.to/lastmile_qr_scan"}, "bike_id": "acb7094833177d25c745d243e67a3e09", "type": "electric_scooter", "fusion_lat": 0.0, "is_disabled": 0, "is_reserved": 0}, {"lon": -77.03181383333333, "name": "e61283a6192f1723ffddd3022058ee1b", "lat": 38.899963166666666, "fusion_lon": 0.0, "rental_uris": {"ios": "https://dc.lft.to/lastmile_qr_scan", "android": "https://dc.lft.to/lastmile_qr_scan"}, "bike_id": "e61283a6192f1723ffddd3022058ee1b", "type": "electric_scooter", "fusion_lat": 0.0, "is_disabled": 0, "is_reserved": 0}, {"lon": -76.93494766666667, "name": "1818e814f125f7b2a35e7e38f8b1aa06", "lat": 38.88298266666666, "fusion_lon": 0.0, "rental_uris": {"ios": "https://dc.lft.to/lastmile_qr_scan", "android": "https://dc.lft.to/lastmile_qr_scan"}, "bike_id": "1818e814f125f7b2a35e7e38f8b1aa06", "type": "electric_scooter", "fusion_lat": 0.0, "is_disabled": 0, "is_reserved": 0}, {"lon": -77.1175885, "name": "4adf251b877f5b0ddb6a57cbf049e447", "lat": 38.881861666666666, "fusion_lon": 0.0, "rental_uris": {"ios": "https://dc.lft.to/lastmile_qr_scan", "android": "https://dc.lft.to/lastmile_qr_scan"}, "bike_id": "4adf251b877f5b0ddb6a57cbf049e447", "type": "electric_bike", "fusion_lat": 0.0, "is_disabled": 0, "is_reserved": 0}, {"lon": -77.04696916666667, "name": "a2ad355dfcf2a629eea464b3433607e1", "lat": 38.905704666666665, "fusion_lon": 0.0, "rental_uris": {"ios": "https://dc.lft.to/lastmile_qr_scan", "android": "https://dc.lft.to/lastmile_qr_scan"}, "bike_id": "a2ad355dfcf2a629eea464b3433607e1", "type": "electric_scooter", "fusion_lat": 0.0, "is_disabled": 0, "is_reserved": 0}, {"lon": -77.03137733333334, "name": "e9c64ec9b1bd7e9e0e5810512852f1bd", "lat": 38.892186333333335, "fusion_lon": 0.0, "rental_uris": {"ios": "https://dc.lft.to/lastmile_qr_scan", "android": "https://dc.lft.to/lastmile_qr_scan"}, "bike_id": "e9c64ec9b1bd7e9e0e5810512852f1bd", "type": "electric_scooter", "fusion_lat": 0.0, "is_disabled": 0, "is_reserved": 0}, {"lon": -77.0568615, "name": "c127ab673ffcc74f35a74e7ce73dea28", "lat": 38.923240166666666, "fusion_lon": 0.0, "rental_uris": {"ios": "https://dc.lft.to/lastmile_qr_scan", "android": "https://dc.lft.to/lastmile_qr_scan"}, "bike_id": "c127ab673ffcc74f35a74e7ce73dea28", "type": "electric_scooter", "fusion_lat": 0.0, "is_disabled": 0, "is_reserved": 0}, {"lon": -77.04184766666667, "name": "47f378a9a5b5b6e5700700315ede51c5", "lat": 38.892856333333334, "fusion_lon": 0.0, "rental_uris": {"ios": "https://dc.lft.to/lastmile_qr_scan", "android": "https://dc.lft.to/lastmile_qr_scan"}, "bike_id": "47f378a9a5b5b6e5700700315ede51c5", "type": "electric_scooter", "fusion_lat": 0.0, "is_disabled": 0, "is_reserved": 0}, {"lon": -76.937287, "name": "46c2f2c9da301c54eb2d297a6d32d36d", "lat": 38.89020416666666, "fusion_lon": 0.0, "rental_uris": {"ios": "https://dc.lft.to/lastmile_qr_scan", "android": "https://dc.lft.to/lastmile_qr_scan"}, "bike_id": "46c2f2c9da301c54eb2d297a6d32d36d", "type": "electric_scooter", "fusion_lat": 0.0, "is_disabled": 0, "is_reserved": 0}, {"lon": -77.06392066666666, "name": "7581a128a26122a23aba4169cf91de25", "lat": 38.944775166666666, "fusion_lon": 0.0, "rental_uris": {"ios": "https://dc.lft.to/lastmile_qr_scan", "android": "https://dc.lft.to/lastmile_qr_scan"}, "bike_id": "7581a128a26122a23aba4169cf91de25", "type": "electric_scooter", "fusion_lat": 0.0, "is_disabled": 0, "is_reserved": 0}, {"lon": -77.06462766666667, "name": "1b1f78bfd28db3ea1dd9d8103efab10d", "lat": 38.90885133333333, "fusion_lon": 0.0, "rental_uris": {"ios": "https://dc.lft.to/lastmile_qr_scan", "android": "https://dc.lft.to/lastmile_qr_scan"}, "bike_id": "1b1f78bfd28db3ea1dd9d8103efab10d", "type": "electric_scooter", "fusion_lat": 0.0, "is_disabled": 0, "is_reserved": 0}, {"lon": -77.0340745, "name": "5ba8f7e8f63c527a91203c0d92b34c13", "lat": 38.920532666666666, "fusion_lon": 0.0, "rental_uris": {"ios": "https://dc.lft.to/lastmile_qr_scan", "android": "https://dc.lft.to/lastmile_qr_scan"}, "bike_id": "5ba8f7e8f63c527a91203c0d92b34c13", "type": "electric_scooter", "fusion_lat": 0.0, "is_disabled": 0, "is_reserved": 0}, {"lon": -77.04523216666666, "name": "69234846d1fc7e1b2076385f8eb83750", "lat": 38.907568166666664, "fusion_lon": 0.0, "rental_uris": {"ios": "https://dc.lft.to/lastmile_qr_scan", "android": "https://dc.lft.to/lastmile_qr_scan"}, "bike_id": "69234846d1fc7e1b2076385f8eb83750", "type": "electric_scooter", "fusion_lat": 0.0, "is_disabled": 0, "is_reserved": 0}, {"lon": -77.038857, "name": "46125ff29355eb8c8e7e7fea90319c13", "lat": 38.93238083333333, "fusion_lon": 0.0, "rental_uris": {"ios": "https://dc.lft.to/lastmile_qr_scan", "android": "https://dc.lft.to/lastmile_qr_scan"}, "bike_id": "46125ff29355eb8c8e7e7fea90319c13", "type": "electric_scooter", "fusion_lat": 0.0, "is_disabled": 0, "is_reserved": 0}, {"lon": -77.00710133333334, "name": "3280a564c2bd3a65dd21011eec7463f7", "lat": 38.88483816666667, "fusion_lon": 0.0, "rental_uris": {"ios": "https://dc.lft.to/lastmile_qr_scan", "android": "https://dc.lft.to/lastmile_qr_scan"}, "bike_id": "3280a564c2bd3a65dd21011eec7463f7", "type": "electric_scooter", "fusion_lat": 0.0, "is_disabled": 0, "is_reserved": 0}, {"lon": -77.02416583333333, "name": "a8b935cc46fb7e40460008542b8a0f2e", "lat": 38.9367135, "fusion_lon": 0.0, "rental_uris": {"ios": "https://dc.lft.to/lastmile_qr_scan", "android": "https://dc.lft.to/lastmile_qr_scan"}, "bike_id": "a8b935cc46fb7e40460008542b8a0f2e", "type": "electric_bike", "fusion_lat": 0.0, "is_disabled": 0, "is_reserved": 0}, {"lon": -77.0436455, "name": "938483b42cc6b452b3fd9971c9f1f893", "lat": 38.905854, "fusion_lon": 0.0, "rental_uris": {"ios": "https://dc.lft.to/lastmile_qr_scan", "android": "https://dc.lft.to/lastmile_qr_scan"}, "bike_id": "938483b42cc6b452b3fd9971c9f1f893", "type": "electric_scooter", "fusion_lat": 0.0, "is_disabled": 0, "is_reserved": 0}, {"lon": -76.99689283333333, "name": "550cb23415d9a4c3cc5b967efbd55052", "lat": 38.93235983333334, "fusion_lon": 0.0, "rental_uris": {"ios": "https://dc.lft.to/lastmile_qr_scan", "android": "https://dc.lft.to/lastmile_qr_scan"}, "bike_id": "550cb23415d9a4c3cc5b967efbd55052", "type": "electric_scooter", "fusion_lat": 0.0, "is_disabled": 0, "is_reserved": 0}, {"lon": -76.94633716666667, "name": "fa775bfa03d431ced44b9878bba4be82", "lat": 38.8983045, "fusion_lon": 0.0, "rental_uris": {"ios": "https://dc.lft.to/lastmile_qr_scan", "android": "https://dc.lft.to/lastmile_qr_scan"}, "bike_id": "fa775bfa03d431ced44b9878bba4be82", "type": "electric_scooter", "fusion_lat": 0.0, "is_disabled": 0, "is_reserved": 0}, {"lon": -77.045211, "name": "8e21071ceaa5003acbf777df1ee43197", "lat": 38.90237666666667, "fusion_lon": 0.0, "rental_uris": {"ios": "https://dc.lft.to/lastmile_qr_scan", "android": "https://dc.lft.to/lastmile_qr_scan"}, "bike_id": "8e21071ceaa5003acbf777df1ee43197", "type": "electric_scooter", "fusion_lat": 0.0, "is_disabled": 0, "is_reserved": 0}, {"lon": -76.937489, "name": "9bc1b9de2df1adf747bf33ec41b35d25", "lat": 38.89006466666667, "fusion_lon": 0.0, "rental_uris": {"ios": "https://dc.lft.to/lastmile_qr_scan", "android": "https://dc.lft.to/lastmile_qr_scan"}, "bike_id": "9bc1b9de2df1adf747bf33ec41b35d25", "type": "electric_scooter", "fusion_lat": 0.0, "is_disabled": 0, "is_reserved": 0}, {"lon": -77.02384283333333, "name": "da6156d2817cbc8d147570724d2feebe", "lat": 38.91025283333333, "fusion_lon": 0.0, "rental_uris": {"ios": "https://dc.lft.to/lastmile_qr_scan", "android": "https://dc.lft.to/lastmile_qr_scan"}, "bike_id": "da6156d2817cbc8d147570724d2feebe", "type": "electric_scooter", "fusion_lat": 0.0, "is_disabled": 0, "is_reserved": 0}, {"lon": -77.003003, "name": "1079f464856487f1038e30f457f6f4fc", "lat": 38.89189283333333, "fusion_lon": 0.0, "rental_uris": {"ios": "https://dc.lft.to/lastmile_qr_scan", "android": "https://dc.lft.to/lastmile_qr_scan"}, "bike_id": "1079f464856487f1038e30f457f6f4fc", "type": "electric_scooter", "fusion_lat": 0.0, "is_disabled": 0, "is_reserved": 0}, {"lon": -77.0201265, "name": "115c93778f7f43c711c091d31dc4e0f9", "lat": 38.899287666666666, "fusion_lon": 0.0, "rental_uris": {"ios": "https://dc.lft.to/lastmile_qr_scan", "android": "https://dc.lft.to/lastmile_qr_scan"}, "bike_id": "115c93778f7f43c711c091d31dc4e0f9", "type": "electric_scooter", "fusion_lat": 0.0, "is_disabled": 0, "is_reserved": 0}, {"lon": -77.02780416666667, "name": "63f6808faee514c68b6bcd16415244e2", "lat": 38.95630716666667, "fusion_lon": 0.0, "rental_uris": {"ios": "https://dc.lft.to/lastmile_qr_scan", "android": "https://dc.lft.to/lastmile_qr_scan"}, "bike_id": "63f6808faee514c68b6bcd16415244e2", "type": "electric_scooter", "fusion_lat": 0.0, "is_disabled": 0, "is_reserved": 0}, {"lon": -76.98830816666667, "name": "64019509ad0be95290ab37547a1d646a", "lat": 38.90034816666667, "fusion_lon": 0.0, "rental_uris": {"ios": "https://dc.lft.to/lastmile_qr_scan", "android": "https://dc.lft.to/lastmile_qr_scan"}, "bike_id": "64019509ad0be95290ab37547a1d646a", "type": "electric_scooter", "fusion_lat": 0.0, "is_disabled": 0, "is_reserved": 0}, {"lon": -77.02382516666667, "name": "787aa4faf96a2b135bfbe0dbf2ab71b9", "lat": 38.901655166666664, "fusion_lon": 0.0, "rental_uris": {"ios": "https://dc.lft.to/lastmile_qr_scan", "android": "https://dc.lft.to/lastmile_qr_scan"}, "bike_id": "787aa4faf96a2b135bfbe0dbf2ab71b9", "type": "electric_scooter", "fusion_lat": 0.0, "is_disabled": 0, "is_reserved": 0}, {"lon": -77.0297205, "name": "59acea8e1589d9c90385b381e8ca5310", "lat": 38.89833383333333, "fusion_lon": 0.0, "rental_uris": {"ios": "https://dc.lft.to/lastmile_qr_scan", "android": "https://dc.lft.to/lastmile_qr_scan"}, "bike_id": "59acea8e1589d9c90385b381e8ca5310", "type": "electric_scooter", "fusion_lat": 0.0, "is_disabled": 0, "is_reserved": 0}, {"lon": -77.02491483333333, "name": "6797c1f617546c21fc904a2b09e658e0", "lat": 38.941838, "fusion_lon": 0.0, "rental_uris": {"ios": "https://dc.lft.to/lastmile_qr_scan", "android": "https://dc.lft.to/lastmile_qr_scan"}, "bike_id": "6797c1f617546c21fc904a2b09e658e0", "type": "electric_scooter", "fusion_lat": 0.0, "is_disabled": 0, "is_reserved": 0}, {"lon": -77.034591, "name": "a097ea87ffe3c6ad9742d33da6d02fb5", "lat": 38.90559833333333, "fusion_lon": 0.0, "rental_uris": {"ios": "https://dc.lft.to/lastmile_qr_scan", "android": "https://dc.lft.to/lastmile_qr_scan"}, "bike_id": "a097ea87ffe3c6ad9742d33da6d02fb5", "type": "electric_scooter", "fusion_lat": 0.0, "is_disabled": 0, "is_reserved": 0}, {"lon": -77.03498566666667, "name": "397597ee3128b48363eabbc1dbd4d5dc", "lat": 38.92334133333333, "fusion_lon": 0.0, "rental_uris": {"ios": "https://dc.lft.to/lastmile_qr_scan", "android": "https://dc.lft.to/lastmile_qr_scan"}, "bike_id": "397597ee3128b48363eabbc1dbd4d5dc", "type": "electric_scooter", "fusion_lat": 0.0, "is_disabled": 0, "is_reserved": 0}, {"lon": -77.0007205, "name": "fc90730b8191e629a9fe901c0b7c2a29", "lat": 38.8763385, "fusion_lon": 0.0, "rental_uris": {"ios": "https://dc.lft.to/lastmile_qr_scan", "android": "https://dc.lft.to/lastmile_qr_scan"}, "bike_id": "fc90730b8191e629a9fe901c0b7c2a29", "type": "electric_scooter", "fusion_lat": 0.0, "is_disabled": 0, "is_reserved": 0}, {"lon": -77.04147966666666, "name": "9161bd188b315985dd1dfe3becc84a13", "lat": 38.904467, "fusion_lon": 0.0, "rental_uris": {"ios": "https://dc.lft.to/lastmile_qr_scan", "android": "https://dc.lft.to/lastmile_qr_scan"}, "bike_id": "9161bd188b315985dd1dfe3becc84a13", "type": "electric_scooter", "fusion_lat": 0.0, "is_disabled": 0, "is_reserved": 0}, {"lon": -77.03664766666667, "name": "2c89656158b6a8ef84f9babf5d4ab6be", "lat": 38.904467, "fusion_lon": 0.0, "rental_uris": {"ios": "https://dc.lft.to/lastmile_qr_scan", "android": "https://dc.lft.to/lastmile_qr_scan"}, "bike_id": "2c89656158b6a8ef84f9babf5d4ab6be", "type": "electric_scooter", "fusion_lat": 0.0, "is_disabled": 0, "is_reserved": 0}, {"lon": -77.03853283333333, "name": "ab729802012811c60584d6b0a47cbb2c", "lat": 38.903692, "fusion_lon": 0.0, "rental_uris": {"ios": "https://dc.lft.to/lastmile_qr_scan", "android": "https://dc.lft.to/lastmile_qr_scan"}, "bike_id": "ab729802012811c60584d6b0a47cbb2c", "type": "electric_scooter", "fusion_lat": 0.0, "is_disabled": 0, "is_reserved": 0}, {"lon": -77.0384965, "name": "63dbde3f6ebbab346ddea06793cb599c", "lat": 38.93131016666667, "fusion_lon": 0.0, "rental_uris": {"ios": "https://dc.lft.to/lastmile_qr_scan", "android": "https://dc.lft.to/lastmile_qr_scan"}, "bike_id": "63dbde3f6ebbab346ddea06793cb599c", "type": "electric_scooter", "fusion_lat": 0.0, "is_disabled": 0, "is_reserved": 0}, {"lon": -77.22904716666666, "name": "34cf0ff06db8cead2478741d3261109f", "lat": 38.870359, "fusion_lon": 0.0, "rental_uris": {"ios": "https://dc.lft.to/lastmile_qr_scan", "android": "https://dc.lft.to/lastmile_qr_scan"}, "bike_id": "34cf0ff06db8cead2478741d3261109f", "type": "electric_bike", "fusion_lat": 0.0, "is_disabled": 0, "is_reserved": 0}, {"lon": -77.02208733333333, "name": "1f6be15e9585d9a95b25862031cc540f", "lat": 38.896042, "fusion_lon": 0.0, "rental_uris": {"ios": "https://dc.lft.to/lastmile_qr_scan", "android": "https://dc.lft.to/lastmile_qr_scan"}, "bike_id": "1f6be15e9585d9a95b25862031cc540f", "type": "electric_scooter", "fusion_lat": 0.0, "is_disabled": 0, "is_reserved": 0}, {"lon": -76.91066666666667, "name": "97177a254acfb6faa52eeed5629d1d87", "lat": 39.01075933333333, "fusion_lon": 0.0, "rental_uris": {"ios": "https://dc.lft.to/lastmile_qr_scan", "android": "https://dc.lft.to/lastmile_qr_scan"}, "bike_id": "97177a254acfb6faa52eeed5629d1d87", "type": "electric_bike", "fusion_lat": 0.0, "is_disabled": 0, "is_reserved": 0}, {"lon": -76.9948415, "name": "bf504a19d0ceae6e4e479da6d7a83875", "lat": 38.8940435, "fusion_lon": 0.0, "rental_uris": {"ios": "https://dc.lft.to/lastmile_qr_scan", "android": "https://dc.lft.to/lastmile_qr_scan"}, "bike_id": "bf504a19d0ceae6e4e479da6d7a83875", "type": "electric_scooter", "fusion_lat": 0.0, "is_disabled": 0, "is_reserved": 0}, {"lon": -77.004351, "name": "7f936389ce84950ac5e7b1f978cfd212", "lat": 38.904000333333336, "fusion_lon": 0.0, "rental_uris": {"ios": "https://dc.lft.to/lastmile_qr_scan", "android": "https://dc.lft.to/lastmile_qr_scan"}, "bike_id": "7f936389ce84950ac5e7b1f978cfd212", "type": "electric_scooter", "fusion_lat": 0.0, "is_disabled": 0, "is_reserved": 0}, {"lon": -77.00711916666667, "name": "be1dc2fba940768def40846e87a0b256", "lat": 38.95228783333334, "fusion_lon": 0.0, "rental_uris": {"ios": "https://dc.lft.to/lastmile_qr_scan", "android": "https://dc.lft.to/lastmile_qr_scan"}, "bike_id": "be1dc2fba940768def40846e87a0b256", "type": "electric_bike", "fusion_lat": 0.0, "is_disabled": 0, "is_reserved": 0}, {"lon": -77.030479, "name": "91c229f18796180947a98ba5dbc40ff5", "lat": 38.938593833333336, "fusion_lon": 0.0, "rental_uris": {"ios": "https://dc.lft.to/lastmile_qr_scan", "android": "https://dc.lft.to/lastmile_qr_scan"}, "bike_id": "91c229f18796180947a98ba5dbc40ff5", "type": "electric_scooter", "fusion_lat": 0.0, "is_disabled": 0, "is_reserved": 0}, {"lon": -77.06503483333333, "name": "496bea6bde1a7364b6828878c499dbcf", "lat": 38.905202333333335, "fusion_lon": 0.0, "rental_uris": {"ios": "https://dc.lft.to/lastmile_qr_scan", "android": "https://dc.lft.to/lastmile_qr_scan"}, "bike_id": "496bea6bde1a7364b6828878c499dbcf", "type": "electric_scooter", "fusion_lat": 0.0, "is_disabled": 0, "is_reserved": 0}, {"lon": -77.0446375, "name": "d26f89f7f65d8325b4910a42b1095973", "lat": 38.8961905, "fusion_lon": 0.0, "rental_uris": {"ios": "https://dc.lft.to/lastmile_qr_scan", "android": "https://dc.lft.to/lastmile_qr_scan"}, "bike_id": "d26f89f7f65d8325b4910a42b1095973", "type": "electric_scooter", "fusion_lat": 0.0, "is_disabled": 0, "is_reserved": 0}, {"lon": -77.03322733333333, "name": "72334df425ed20a10ee1696dc49db8ea", "lat": 38.897303, "fusion_lon": 0.0, "rental_uris": {"ios": "https://dc.lft.to/lastmile_qr_scan", "android": "https://dc.lft.to/lastmile_qr_scan"}, "bike_id": "72334df425ed20a10ee1696dc49db8ea", "type": "electric_scooter", "fusion_lat": 0.0, "is_disabled": 0, "is_reserved": 0}, {"lon": -77.0019545, "name": "2eb10ad1842ab9e410f8f67c0b2cec47", "lat": 38.902349666666666, "fusion_lon": 0.0, "rental_uris": {"ios": "https://dc.lft.to/lastmile_qr_scan", "android": "https://dc.lft.to/lastmile_qr_scan"}, "bike_id": "2eb10ad1842ab9e410f8f67c0b2cec47", "type": "electric_scooter", "fusion_lat": 0.0, "is_disabled": 0, "is_reserved": 0}, {"lon": -77.02541933333333, "name": "b21413892cf71f8f66bceabf5feec8a7", "lat": 38.94818, "fusion_lon": 0.0, "rental_uris": {"ios": "https://dc.lft.to/lastmile_qr_scan", "android": "https://dc.lft.to/lastmile_qr_scan"}, "bike_id": "b21413892cf71f8f66bceabf5feec8a7", "type": "electric_scooter", "fusion_lat": 0.0, "is_disabled": 0, "is_reserved": 0}, {"lon": -77.05023533333333, "name": "f1e3b1de14f659dbe9cf9f0f780d5c85", "lat": 38.90081583333333, "fusion_lon": 0.0, "rental_uris": {"ios": "https://dc.lft.to/lastmile_qr_scan", "android": "https://dc.lft.to/lastmile_qr_scan"}, "bike_id": "f1e3b1de14f659dbe9cf9f0f780d5c85", "type": "electric_scooter", "fusion_lat": 0.0, "is_disabled": 0, "is_reserved": 0}, {"lon": -76.99368316666667, "name": "071449b93ed877722049e464ae841bf7", "lat": 38.8520455, "fusion_lon": 0.0, "rental_uris": {"ios": "https://dc.lft.to/lastmile_qr_scan", "android": "https://dc.lft.to/lastmile_qr_scan"}, "bike_id": "071449b93ed877722049e464ae841bf7", "type": "electric_bike", "fusion_lat": 0.0, "is_disabled": 0, "is_reserved": 0}, {"lon": -76.93233716666667, "name": "cd0f709c23bba683650ec48a10094231", "lat": 38.8828, "fusion_lon": 0.0, "rental_uris": {"ios": "https://dc.lft.to/lastmile_qr_scan", "android": "https://dc.lft.to/lastmile_qr_scan"}, "bike_id": "cd0f709c23bba683650ec48a10094231", "type": "electric_bike", "fusion_lat": 0.0, "is_disabled": 0, "is_reserved": 0}, {"lon": -76.96434966666666, "name": "8f438441235e2ebfab60e024b00bd180", "lat": 38.918771, "fusion_lon": 0.0, "rental_uris": {"ios": "https://dc.lft.to/lastmile_qr_scan", "android": "https://dc.lft.to/lastmile_qr_scan"}, "bike_id": "8f438441235e2ebfab60e024b00bd180", "type": "electric_bike", "fusion_lat": 0.0, "is_disabled": 0, "is_reserved": 0}, {"lon": -77.053287, "name": "8085ca5d2523642ebc46acade0161084", "lat": 38.90688033333333, "fusion_lon": 0.0, "rental_uris": {"ios": "https://dc.lft.to/lastmile_qr_scan", "android": "https://dc.lft.to/lastmile_qr_scan"}, "bike_id": "8085ca5d2523642ebc46acade0161084", "type": "electric_scooter", "fusion_lat": 0.0, "is_disabled": 0, "is_reserved": 0}, {"lon": -77.03287683333333, "name": "866dd0ba3041e082ce59511279f08111", "lat": 38.92457433333333, "fusion_lon": 0.0, "rental_uris": {"ios": "https://dc.lft.to/lastmile_qr_scan", "android": "https://dc.lft.to/lastmile_qr_scan"}, "bike_id": "866dd0ba3041e082ce59511279f08111", "type": "electric_scooter", "fusion_lat": 0.0, "is_disabled": 0, "is_reserved": 0}, {"lon": -77.03171033333334, "name": "4520dd2c6bbfcedd76d8bda1196e5758", "lat": 38.91937016666667, "fusion_lon": 0.0, "rental_uris": {"ios": "https://dc.lft.to/lastmile_qr_scan", "android": "https://dc.lft.to/lastmile_qr_scan"}, "bike_id": "4520dd2c6bbfcedd76d8bda1196e5758", "type": "electric_scooter", "fusion_lat": 0.0, "is_disabled": 0, "is_reserved": 0}, {"lon": -77.04241083333334, "name": "0994a83bb90433ded883f2a3ca1c5322", "lat": 38.92211, "fusion_lon": 0.0, "rental_uris": {"ios": "https://dc.lft.to/lastmile_qr_scan", "android": "https://dc.lft.to/lastmile_qr_scan"}, "bike_id": "0994a83bb90433ded883f2a3ca1c5322", "type": "electric_scooter", "fusion_lat": 0.0, "is_disabled": 0, "is_reserved": 0}, {"lon": -77.05102, "name": "129e3b7b3858ba215dc3741911ffda0e", "lat": 38.901670333333335, "fusion_lon": 0.0, "rental_uris": {"ios": "https://dc.lft.to/lastmile_qr_scan", "android": "https://dc.lft.to/lastmile_qr_scan"}, "bike_id": "129e3b7b3858ba215dc3741911ffda0e", "type": "electric_scooter", "fusion_lat": 0.0, "is_disabled": 0, "is_reserved": 0}, {"lon": -77.03138, "name": "1e3ed42cd6aae3231336a1a3c84d7a2a", "lat": 38.8922255, "fusion_lon": 0.0, "rental_uris": {"ios": "https://dc.lft.to/lastmile_qr_scan", "android": "https://dc.lft.to/lastmile_qr_scan"}, "bike_id": "1e3ed42cd6aae3231336a1a3c84d7a2a", "type": "electric_scooter", "fusion_lat": 0.0, "is_disabled": 0, "is_reserved": 0}, {"lon": -77.05396683333333, "name": "29ea217fb3752b76d7428a1800edab99", "lat": 38.91054, "fusion_lon": 0.0, "rental_uris": {"ios": "https://dc.lft.to/lastmile_qr_scan", "android": "https://dc.lft.to/lastmile_qr_scan"}, "bike_id": "29ea217fb3752b76d7428a1800edab99", "type": "electric_scooter", "fusion_lat": 0.0, "is_disabled": 0, "is_reserved": 0}, {"lon": -77.011485, "name": "c807d31a9060d30bf4ff3f39a9b877ab", "lat": 38.929610333333336, "fusion_lon": 0.0, "rental_uris": {"ios": "https://dc.lft.to/lastmile_qr_scan", "android": "https://dc.lft.to/lastmile_qr_scan"}, "bike_id": "c807d31a9060d30bf4ff3f39a9b877ab", "type": "electric_scooter", "fusion_lat": 0.0, "is_disabled": 0, "is_reserved": 0}, {"lon": -77.0328395, "name": "1bf86068b1b5ca5e23ef8a953b8f74be", "lat": 38.936065666666664, "fusion_lon": 0.0, "rental_uris": {"ios": "https://dc.lft.to/lastmile_qr_scan", "android": "https://dc.lft.to/lastmile_qr_scan"}, "bike_id": "1bf86068b1b5ca5e23ef8a953b8f74be", "type": "electric_scooter", "fusion_lat": 0.0, "is_disabled": 0, "is_reserved": 0}, {"lon": -77.0292285, "name": "28d6aae5f30cc3df53d79c3ef8a9d0f9", "lat": 38.934634, "fusion_lon": 0.0, "rental_uris": {"ios": "https://dc.lft.to/lastmile_qr_scan", "android": "https://dc.lft.to/lastmile_qr_scan"}, "bike_id": "28d6aae5f30cc3df53d79c3ef8a9d0f9", "type": "electric_scooter", "fusion_lat": 0.0, "is_disabled": 0, "is_reserved": 0}, {"lon": -77.02116166666667, "name": "efef3c4bd78ca7c6f9ce2d72762b26ec", "lat": 38.914160833333334, "fusion_lon": 0.0, "rental_uris": {"ios": "https://dc.lft.to/lastmile_qr_scan", "android": "https://dc.lft.to/lastmile_qr_scan"}, "bike_id": "efef3c4bd78ca7c6f9ce2d72762b26ec", "type": "electric_scooter", "fusion_lat": 0.0, "is_disabled": 0, "is_reserved": 0}, {"lon": -77.03444933333333, "name": "bcd21b0f02a6ae84523a6469c6deba4b", "lat": 38.91017766666667, "fusion_lon": 0.0, "rental_uris": {"ios": "https://dc.lft.to/lastmile_qr_scan", "android": "https://dc.lft.to/lastmile_qr_scan"}, "bike_id": "bcd21b0f02a6ae84523a6469c6deba4b", "type": "electric_scooter", "fusion_lat": 0.0, "is_disabled": 0, "is_reserved": 0}, {"lon": -77.022785, "name": "ad307c22af90069de45f23ee8acbed9e", "lat": 38.9254835, "fusion_lon": 0.0, "rental_uris": {"ios": "https://dc.lft.to/lastmile_qr_scan", "android": "https://dc.lft.to/lastmile_qr_scan"}, "bike_id": "ad307c22af90069de45f23ee8acbed9e", "type": "electric_scooter", "fusion_lat": 0.0, "is_disabled": 0, "is_reserved": 0}, {"lon": -77.04007616666667, "name": "22845d3500086d2c25ed5da25fb9d787", "lat": 38.917085166666666, "fusion_lon": 0.0, "rental_uris": {"ios": "https://dc.lft.to/lastmile_qr_scan", "android": "https://dc.lft.to/lastmile_qr_scan"}, "bike_id": "22845d3500086d2c25ed5da25fb9d787", "type": "electric_scooter", "fusion_lat": 0.0, "is_disabled": 0, "is_reserved": 0}, {"lon": -77.0433955, "name": "ef3841744dfecf3237eab22f5ad3e625", "lat": 38.90053183333333, "fusion_lon": 0.0, "rental_uris": {"ios": "https://dc.lft.to/lastmile_qr_scan", "android": "https://dc.lft.to/lastmile_qr_scan"}, "bike_id": "ef3841744dfecf3237eab22f5ad3e625", "type": "electric_scooter", "fusion_lat": 0.0, "is_disabled": 0, "is_reserved": 0}, {"lon": -77.00768033333334, "name": "833dcb31e7ae675fa692a672cb9ba8cf", "lat": 38.915425666666664, "fusion_lon": 0.0, "rental_uris": {"ios": "https://dc.lft.to/lastmile_qr_scan", "android": "https://dc.lft.to/lastmile_qr_scan"}, "bike_id": "833dcb31e7ae675fa692a672cb9ba8cf", "type": "electric_scooter", "fusion_lat": 0.0, "is_disabled": 0, "is_reserved": 0}, {"lon": -77.04625916666667, "name": "d741b1f38631b700d2d04fdd95c9515d", "lat": 38.89221216666667, "fusion_lon": 0.0, "rental_uris": {"ios": "https://dc.lft.to/lastmile_qr_scan", "android": "https://dc.lft.to/lastmile_qr_scan"}, "bike_id": "d741b1f38631b700d2d04fdd95c9515d", "type": "electric_scooter", "fusion_lat": 0.0, "is_disabled": 0, "is_reserved": 0}, {"lon": -77.01579433333333, "name": "7eabc452d985dd52b48f14bb63f80418", "lat": 38.9510395, "fusion_lon": 0.0, "rental_uris": {"ios": "https://dc.lft.to/lastmile_qr_scan", "android": "https://dc.lft.to/lastmile_qr_scan"}, "bike_id": "7eabc452d985dd52b48f14bb63f80418", "type": "electric_scooter", "fusion_lat": 0.0, "is_disabled": 0, "is_reserved": 0}, {"lon": -77.034041, "name": "1800dd3d71e02a08a92b034c85b7c651", "lat": 38.92438966666667, "fusion_lon": 0.0, "rental_uris": {"ios": "https://dc.lft.to/lastmile_qr_scan", "android": "https://dc.lft.to/lastmile_qr_scan"}, "bike_id": "1800dd3d71e02a08a92b034c85b7c651", "type": "electric_scooter", "fusion_lat": 0.0, "is_disabled": 0, "is_reserved": 0}, {"lon": -77.00206733333333, "name": "ac44b3b85fd9daa2910cea7a110c5567", "lat": 38.9084495, "fusion_lon": 0.0, "rental_uris": {"ios": "https://dc.lft.to/lastmile_qr_scan", "android": "https://dc.lft.to/lastmile_qr_scan"}, "bike_id": "ac44b3b85fd9daa2910cea7a110c5567", "type": "electric_scooter", "fusion_lat": 0.0, "is_disabled": 0, "is_reserved": 0}, {"lon": -77.0344555, "name": "562c53f0c1f6d5a9b43b35ef4f52d38a", "lat": 38.90563866666667, "fusion_lon": 0.0, "rental_uris": {"ios": "https://dc.lft.to/lastmile_qr_scan", "android": "https://dc.lft.to/lastmile_qr_scan"}, "bike_id": "562c53f0c1f6d5a9b43b35ef4f52d38a", "type": "electric_scooter", "fusion_lat": 0.0, "is_disabled": 0, "is_reserved": 0}, {"lon": -77.01437233333333, "name": "b74a3d4dde66b88a1592057659386d2b", "lat": 38.886086166666665, "fusion_lon": 0.0, "rental_uris": {"ios": "https://dc.lft.to/lastmile_qr_scan", "android": "https://dc.lft.to/lastmile_qr_scan"}, "bike_id": "b74a3d4dde66b88a1592057659386d2b", "type": "electric_scooter", "fusion_lat": 0.0, "is_disabled": 0, "is_reserved": 0}, {"lon": -77.02701283333333, "name": "bda13041959f0b53d59834eb2c6b65df", "lat": 38.89609016666667, "fusion_lon": 0.0, "rental_uris": {"ios": "https://dc.lft.to/lastmile_qr_scan", "android": "https://dc.lft.to/lastmile_qr_scan"}, "bike_id": "bda13041959f0b53d59834eb2c6b65df", "type": "electric_scooter", "fusion_lat": 0.0, "is_disabled": 0, "is_reserved": 0}, {"lon": -76.99506866666667, "name": "1e23a2758047a73e5db282bc10401200", "lat": 38.88388533333333, "fusion_lon": 0.0, "rental_uris": {"ios": "https://dc.lft.to/lastmile_qr_scan", "android": "https://dc.lft.to/lastmile_qr_scan"}, "bike_id": "1e23a2758047a73e5db282bc10401200", "type": "electric_scooter", "fusion_lat": 0.0, "is_disabled": 0, "is_reserved": 0}, {"lon": -77.0386575, "name": "53894dd66bce253d9314af8746045b88", "lat": 38.902791666666666, "fusion_lon": 0.0, "rental_uris": {"ios": "https://dc.lft.to/lastmile_qr_scan", "android": "https://dc.lft.to/lastmile_qr_scan"}, "bike_id": "53894dd66bce253d9314af8746045b88", "type": "electric_scooter", "fusion_lat": 0.0, "is_disabled": 0, "is_reserved": 0}, {"lon": -77.00953016666666, "name": "18c2c2da1ecaa7b31c61b600886d65fd", "lat": 38.91468733333333, "fusion_lon": 0.0, "rental_uris": {"ios": "https://dc.lft.to/lastmile_qr_scan", "android": "https://dc.lft.to/lastmile_qr_scan"}, "bike_id": "18c2c2da1ecaa7b31c61b600886d65fd", "type": "electric_scooter", "fusion_lat": 0.0, "is_disabled": 0, "is_reserved": 0}, {"lon": -77.00089766666666, "name": "c4cc243f125e946facc7a5c494153599", "lat": 38.875866, "fusion_lon": 0.0, "rental_uris": {"ios": "https://dc.lft.to/lastmile_qr_scan", "android": "https://dc.lft.to/lastmile_qr_scan"}, "bike_id": "c4cc243f125e946facc7a5c494153599", "type": "electric_scooter", "fusion_lat": 0.0, "is_disabled": 0, "is_reserved": 0}, {"lon": -77.04880633333333, "name": "911d2c7fc291dd7825ea05ec355aa05b", "lat": 38.90167916666667, "fusion_lon": 0.0, "rental_uris": {"ios": "https://dc.lft.to/lastmile_qr_scan", "android": "https://dc.lft.to/lastmile_qr_scan"}, "bike_id": "911d2c7fc291dd7825ea05ec355aa05b", "type": "electric_scooter", "fusion_lat": 0.0, "is_disabled": 0, "is_reserved": 0}, {"lon": -76.97753483333334, "name": "51c041d6e6adb8ca82e7bdaef11da610", "lat": 38.86480783333333, "fusion_lon": 0.0, "rental_uris": {"ios": "https://dc.lft.to/lastmile_qr_scan", "android": "https://dc.lft.to/lastmile_qr_scan"}, "bike_id": "51c041d6e6adb8ca82e7bdaef11da610", "type": "electric_bike", "fusion_lat": 0.0, "is_disabled": 0, "is_reserved": 0}, {"lon": -77.03928766666667, "name": "74fb49d05f277ab1ffd4c6baa14714f4", "lat": 38.9080925, "fusion_lon": 0.0, "rental_uris": {"ios": "https://dc.lft.to/lastmile_qr_scan", "android": "https://dc.lft.to/lastmile_qr_scan"}, "bike_id": "74fb49d05f277ab1ffd4c6baa14714f4", "type": "electric_scooter", "fusion_lat": 0.0, "is_disabled": 0, "is_reserved": 0}, {"lon": -77.03191283333334, "name": "6068b4e8b7614eb13b04ef6d8f5f9f23", "lat": 38.913296, "fusion_lon": 0.0, "rental_uris": {"ios": "https://dc.lft.to/lastmile_qr_scan", "android": "https://dc.lft.to/lastmile_qr_scan"}, "bike_id": "6068b4e8b7614eb13b04ef6d8f5f9f23", "type": "electric_scooter", "fusion_lat": 0.0, "is_disabled": 0, "is_reserved": 0}, {"lon": -77.02809283333333, "name": "3784cb7955ed87ddb2a165b95dca95ed", "lat": 38.9559045, "fusion_lon": 0.0, "rental_uris": {"ios": "https://dc.lft.to/lastmile_qr_scan", "android": "https://dc.lft.to/lastmile_qr_scan"}, "bike_id": "3784cb7955ed87ddb2a165b95dca95ed", "type": "electric_scooter", "fusion_lat": 0.0, "is_disabled": 0, "is_reserved": 0}, {"lon": -77.02951333333333, "name": "59a145fbf44ea7484b69a4851d1bcd96", "lat": 38.898411833333334, "fusion_lon": 0.0, "rental_uris": {"ios": "https://dc.lft.to/lastmile_qr_scan", "android": "https://dc.lft.to/lastmile_qr_scan"}, "bike_id": "59a145fbf44ea7484b69a4851d1bcd96", "type": "electric_scooter", "fusion_lat": 0.0, "is_disabled": 0, "is_reserved": 0}, {"lon": -77.02563283333333, "name": "eeba34c2a1b6198a479f2b90a41eb5e9", "lat": 38.9237705, "fusion_lon": 0.0, "rental_uris": {"ios": "https://dc.lft.to/lastmile_qr_scan", "android": "https://dc.lft.to/lastmile_qr_scan"}, "bike_id": "eeba34c2a1b6198a479f2b90a41eb5e9", "type": "electric_scooter", "fusion_lat": 0.0, "is_disabled": 0, "is_reserved": 0}, {"lon": -76.982268, "name": "d7293b666cb6c7981ab4f02af00890bf", "lat": 38.901570166666666, "fusion_lon": 0.0, "rental_uris": {"ios": "https://dc.lft.to/lastmile_qr_scan", "android": "https://dc.lft.to/lastmile_qr_scan"}, "bike_id": "d7293b666cb6c7981ab4f02af00890bf", "type": "electric_scooter", "fusion_lat": 0.0, "is_disabled": 0, "is_reserved": 0}, {"lon": -77.099598, "name": "a7a9b2ab63183bf645c0d5acafff1888", "lat": 38.8578585, "fusion_lon": 0.0, "rental_uris": {"ios": "https://dc.lft.to/lastmile_qr_scan", "android": "https://dc.lft.to/lastmile_qr_scan"}, "bike_id": "a7a9b2ab63183bf645c0d5acafff1888", "type": "electric_bike", "fusion_lat": 0.0, "is_disabled": 0, "is_reserved": 0}, {"lon": -77.0122015, "name": "b7fb26c6dbd71766d70bf2912a803a3f", "lat": 38.91516766666667, "fusion_lon": 0.0, "rental_uris": {"ios": "https://dc.lft.to/lastmile_qr_scan", "android": "https://dc.lft.to/lastmile_qr_scan"}, "bike_id": "b7fb26c6dbd71766d70bf2912a803a3f", "type": "electric_scooter", "fusion_lat": 0.0, "is_disabled": 0, "is_reserved": 0}, {"lon": -77.0331615, "name": "1b55276de35826688372cada7969ab4c", "lat": 38.8987515, "fusion_lon": 0.0, "rental_uris": {"ios": "https://dc.lft.to/lastmile_qr_scan", "android": "https://dc.lft.to/lastmile_qr_scan"}, "bike_id": "1b55276de35826688372cada7969ab4c", "type": "electric_scooter", "fusion_lat": 0.0, "is_disabled": 0, "is_reserved": 0}, {"lon": -77.03130716666666, "name": "065c2754ee5fe0c1437afe5a50a32dca", "lat": 38.89225916666667, "fusion_lon": 0.0, "rental_uris": {"ios": "https://dc.lft.to/lastmile_qr_scan", "android": "https://dc.lft.to/lastmile_qr_scan"}, "bike_id": "065c2754ee5fe0c1437afe5a50a32dca", "type": "electric_scooter", "fusion_lat": 0.0, "is_disabled": 0, "is_reserved": 0}, {"lon": -77.06546983333334, "name": "6779dbce265ad74f8f71deb53120b0a0", "lat": 38.9472925, "fusion_lon": 0.0, "rental_uris": {"ios": "https://dc.lft.to/lastmile_qr_scan", "android": "https://dc.lft.to/lastmile_qr_scan"}, "bike_id": "6779dbce265ad74f8f71deb53120b0a0", "type": "electric_scooter", "fusion_lat": 0.0, "is_disabled": 0, "is_reserved": 0}, {"lon": -77.00561116666667, "name": "ab9b500c7039539da32a1f7713597dee", "lat": 38.88512516666667, "fusion_lon": 0.0, "rental_uris": {"ios": "https://dc.lft.to/lastmile_qr_scan", "android": "https://dc.lft.to/lastmile_qr_scan"}, "bike_id": "ab9b500c7039539da32a1f7713597dee", "type": "electric_scooter", "fusion_lat": 0.0, "is_disabled": 0, "is_reserved": 0}, {"lon": -77.03166833333333, "name": "916b4c498f0ba6f39ea4fe51d47b7d44", "lat": 38.903683666666666, "fusion_lon": 0.0, "rental_uris": {"ios": "https://dc.lft.to/lastmile_qr_scan", "android": "https://dc.lft.to/lastmile_qr_scan"}, "bike_id": "916b4c498f0ba6f39ea4fe51d47b7d44", "type": "electric_scooter", "fusion_lat": 0.0, "is_disabled": 0, "is_reserved": 0}, {"lon": -77.02983916666666, "name": "ce439b72e824e1cae9dadce8e2640388", "lat": 38.940923, "fusion_lon": 0.0, "rental_uris": {"ios": "https://dc.lft.to/lastmile_qr_scan", "android": "https://dc.lft.to/lastmile_qr_scan"}, "bike_id": "ce439b72e824e1cae9dadce8e2640388", "type": "electric_scooter", "fusion_lat": 0.0, "is_disabled": 0, "is_reserved": 0}, {"lon": -77.04588516666666, "name": "dad5dbde1837ad830f9bfe92ed634ef9", "lat": 38.90257366666667, "fusion_lon": 0.0, "rental_uris": {"ios": "https://dc.lft.to/lastmile_qr_scan", "android": "https://dc.lft.to/lastmile_qr_scan"}, "bike_id": "dad5dbde1837ad830f9bfe92ed634ef9", "type": "electric_scooter", "fusion_lat": 0.0, "is_disabled": 0, "is_reserved": 0}, {"lon": -77.0499, "name": "7629664299fd97c8b9dfd46ed576c1fd", "lat": 38.9046245, "fusion_lon": 0.0, "rental_uris": {"ios": "https://dc.lft.to/lastmile_qr_scan", "android": "https://dc.lft.to/lastmile_qr_scan"}, "bike_id": "7629664299fd97c8b9dfd46ed576c1fd", "type": "electric_scooter", "fusion_lat": 0.0, "is_disabled": 0, "is_reserved": 0}, {"lon": -77.0202615, "name": "c7aea23c755ca7859f49f02bc8535826", "lat": 38.924296, "fusion_lon": 0.0, "rental_uris": {"ios": "https://dc.lft.to/lastmile_qr_scan", "android": "https://dc.lft.to/lastmile_qr_scan"}, "bike_id": "c7aea23c755ca7859f49f02bc8535826", "type": "electric_scooter", "fusion_lat": 0.0, "is_disabled": 0, "is_reserved": 0}, {"lon": -77.026259, "name": "dc8d5aae3248fa03b790d535d6c5ec6e", "lat": 38.8921955, "fusion_lon": 0.0, "rental_uris": {"ios": "https://dc.lft.to/lastmile_qr_scan", "android": "https://dc.lft.to/lastmile_qr_scan"}, "bike_id": "dc8d5aae3248fa03b790d535d6c5ec6e", "type": "electric_scooter", "fusion_lat": 0.0, "is_disabled": 0, "is_reserved": 0}, {"lon": -77.01187383333334, "name": "ce00b2309438e75c50c7d914aff68d98", "lat": 38.90027116666667, "fusion_lon": 0.0, "rental_uris": {"ios": "https://dc.lft.to/lastmile_qr_scan", "android": "https://dc.lft.to/lastmile_qr_scan"}, "bike_id": "ce00b2309438e75c50c7d914aff68d98", "type": "electric_scooter", "fusion_lat": 0.0, "is_disabled": 0, "is_reserved": 0}, {"lon": -77.0321065, "name": "10d96dfdccb7779747e8b1745e3bcfbe", "lat": 38.91682433333333, "fusion_lon": 0.0, "rental_uris": {"ios": "https://dc.lft.to/lastmile_qr_scan", "android": "https://dc.lft.to/lastmile_qr_scan"}, "bike_id": "10d96dfdccb7779747e8b1745e3bcfbe", "type": "electric_scooter", "fusion_lat": 0.0, "is_disabled": 0, "is_reserved": 0}, {"lon": -77.06441816666667, "name": "fadd440a824f467a63b90cacd5073f67", "lat": 38.9079845, "fusion_lon": 0.0, "rental_uris": {"ios": "https://dc.lft.to/lastmile_qr_scan", "android": "https://dc.lft.to/lastmile_qr_scan"}, "bike_id": "fadd440a824f467a63b90cacd5073f67", "type": "electric_scooter", "fusion_lat": 0.0, "is_disabled": 0, "is_reserved": 0}, {"lon": -77.03801616666667, "name": "28bccca69712fe6b9613fd718aaa3774", "lat": 38.90665766666667, "fusion_lon": 0.0, "rental_uris": {"ios": "https://dc.lft.to/lastmile_qr_scan", "android": "https://dc.lft.to/lastmile_qr_scan"}, "bike_id": "28bccca69712fe6b9613fd718aaa3774", "type": "electric_scooter", "fusion_lat": 0.0, "is_disabled": 0, "is_reserved": 0}, {"lon": -77.02587566666666, "name": "26080cb48d3f54dfd69542a2107a799e", "lat": 38.9015375, "fusion_lon": 0.0, "rental_uris": {"ios": "https://dc.lft.to/lastmile_qr_scan", "android": "https://dc.lft.to/lastmile_qr_scan"}, "bike_id": "26080cb48d3f54dfd69542a2107a799e", "type": "electric_scooter", "fusion_lat": 0.0, "is_disabled": 0, "is_reserved": 0}, {"lon": -77.04316383333334, "name": "b37e0f17cf57e4d2e9ca8c3e1fe28ee4", "lat": 38.89839883333333, "fusion_lon": 0.0, "rental_uris": {"ios": "https://dc.lft.to/lastmile_qr_scan", "android": "https://dc.lft.to/lastmile_qr_scan"}, "bike_id": "b37e0f17cf57e4d2e9ca8c3e1fe28ee4", "type": "electric_bike", "fusion_lat": 0.0, "is_disabled": 0, "is_reserved": 0}, {"lon": -77.044331, "name": "8ad2660a687303645d3ec6e32aa09abe", "lat": 38.897467666666664, "fusion_lon": 0.0, "rental_uris": {"ios": "https://dc.lft.to/lastmile_qr_scan", "android": "https://dc.lft.to/lastmile_qr_scan"}, "bike_id": "8ad2660a687303645d3ec6e32aa09abe", "type": "electric_scooter", "fusion_lat": 0.0, "is_disabled": 0, "is_reserved": 0}, {"lon": -77.03381333333333, "name": "755c383857c3104c248ebc6b96e0f860", "lat": 38.899059333333334, "fusion_lon": 0.0, "rental_uris": {"ios": "https://dc.lft.to/lastmile_qr_scan", "android": "https://dc.lft.to/lastmile_qr_scan"}, "bike_id": "755c383857c3104c248ebc6b96e0f860", "type": "electric_scooter", "fusion_lat": 0.0, "is_disabled": 0, "is_reserved": 0}, {"lon": -77.02052833333333, "name": "d9ccebbb0ecd554d1704b4adf22da11d", "lat": 38.913456, "fusion_lon": 0.0, "rental_uris": {"ios": "https://dc.lft.to/lastmile_qr_scan", "android": "https://dc.lft.to/lastmile_qr_scan"}, "bike_id": "d9ccebbb0ecd554d1704b4adf22da11d", "type": "electric_scooter", "fusion_lat": 0.0, "is_disabled": 0, "is_reserved": 0}, {"lon": -77.0221975, "name": "68afd770dfec9ffee9083b0126959d19", "lat": 38.924792, "fusion_lon": 0.0, "rental_uris": {"ios": "https://dc.lft.to/lastmile_qr_scan", "android": "https://dc.lft.to/lastmile_qr_scan"}, "bike_id": "68afd770dfec9ffee9083b0126959d19", "type": "electric_scooter", "fusion_lat": 0.0, "is_disabled": 0, "is_reserved": 0}, {"lon": -77.0018585, "name": "163b1bd10a4b82cb5a8849c0c3b58005", "lat": 38.88653716666666, "fusion_lon": 0.0, "rental_uris": {"ios": "https://dc.lft.to/lastmile_qr_scan", "android": "https://dc.lft.to/lastmile_qr_scan"}, "bike_id": "163b1bd10a4b82cb5a8849c0c3b58005", "type": "electric_scooter", "fusion_lat": 0.0, "is_disabled": 0, "is_reserved": 0}, {"lon": -77.019602, "name": "e122bec398713387f1c4d7864006547e", "lat": 38.90256766666667, "fusion_lon": 0.0, "rental_uris": {"ios": "https://dc.lft.to/lastmile_qr_scan", "android": "https://dc.lft.to/lastmile_qr_scan"}, "bike_id": "e122bec398713387f1c4d7864006547e", "type": "electric_scooter", "fusion_lat": 0.0, "is_disabled": 0, "is_reserved": 0}, {"lon": -76.98043, "name": "151e780ace06d74313292b37b2f312b4", "lat": 38.870362166666666, "fusion_lon": 0.0, "rental_uris": {"ios": "https://dc.lft.to/lastmile_qr_scan", "android": "https://dc.lft.to/lastmile_qr_scan"}, "bike_id": "151e780ace06d74313292b37b2f312b4", "type": "electric_scooter", "fusion_lat": 0.0, "is_disabled": 0, "is_reserved": 0}, {"lon": -77.000698, "name": "c713b4b2689c171e3f48c03cc5c75ef4", "lat": 38.92389516666667, "fusion_lon": 0.0, "rental_uris": {"ios": "https://dc.lft.to/lastmile_qr_scan", "android": "https://dc.lft.to/lastmile_qr_scan"}, "bike_id": "c713b4b2689c171e3f48c03cc5c75ef4", "type": "electric_scooter", "fusion_lat": 0.0, "is_disabled": 0, "is_reserved": 0}, {"lon": -77.02169283333333, "name": "554f47d66024772a812f7cd55b446271", "lat": 38.9306765, "fusion_lon": 0.0, "rental_uris": {"ios": "https://dc.lft.to/lastmile_qr_scan", "android": "https://dc.lft.to/lastmile_qr_scan"}, "bike_id": "554f47d66024772a812f7cd55b446271", "type": "electric_scooter", "fusion_lat": 0.0, "is_disabled": 0, "is_reserved": 0}, {"lon": -77.0671465, "name": "1c81d6eb13ff3e7e76c5b665fce1b08a", "lat": 38.9051755, "fusion_lon": 0.0, "rental_uris": {"ios": "https://dc.lft.to/lastmile_qr_scan", "android": "https://dc.lft.to/lastmile_qr_scan"}, "bike_id": "1c81d6eb13ff3e7e76c5b665fce1b08a", "type": "electric_scooter", "fusion_lat": 0.0, "is_disabled": 0, "is_reserved": 0}, {"lon": -77.04187916666666, "name": "85d5252b3269d705e2881e5242bdb3f2", "lat": 38.89223833333333, "fusion_lon": 0.0, "rental_uris": {"ios": "https://dc.lft.to/lastmile_qr_scan", "android": "https://dc.lft.to/lastmile_qr_scan"}, "bike_id": "85d5252b3269d705e2881e5242bdb3f2", "type": "electric_scooter", "fusion_lat": 0.0, "is_disabled": 0, "is_reserved": 0}, {"lon": -76.99795866666666, "name": "d402e5b51b68d4c017fa6e3e5d7a870b", "lat": 38.95086416666667, "fusion_lon": 0.0, "rental_uris": {"ios": "https://dc.lft.to/lastmile_qr_scan", "android": "https://dc.lft.to/lastmile_qr_scan"}, "bike_id": "d402e5b51b68d4c017fa6e3e5d7a870b", "type": "electric_bike", "fusion_lat": 0.0, "is_disabled": 0, "is_reserved": 0}, {"lon": -76.9973345, "name": "893d53f17185a8cd88286db4e6752b74", "lat": 39.042341, "fusion_lon": 0.0, "rental_uris": {"ios": "https://dc.lft.to/lastmile_qr_scan", "android": "https://dc.lft.to/lastmile_qr_scan"}, "bike_id": "893d53f17185a8cd88286db4e6752b74", "type": "electric_bike", "fusion_lat": 0.0, "is_disabled": 0, "is_reserved": 0}, {"lon": -76.9945995, "name": "62a8e5306618dca99a740f14df82655e", "lat": 38.9045175, "fusion_lon": 0.0, "rental_uris": {"ios": "https://dc.lft.to/lastmile_qr_scan", "android": "https://dc.lft.to/lastmile_qr_scan"}, "bike_id": "62a8e5306618dca99a740f14df82655e", "type": "electric_scooter", "fusion_lat": 0.0, "is_disabled": 0, "is_reserved": 0}, {"lon": -77.02462616666666, "name": "bd0df57a1008cab7865349354181e651", "lat": 38.937717166666665, "fusion_lon": 0.0, "rental_uris": {"ios": "https://dc.lft.to/lastmile_qr_scan", "android": "https://dc.lft.to/lastmile_qr_scan"}, "bike_id": "bd0df57a1008cab7865349354181e651", "type": "electric_scooter", "fusion_lat": 0.0, "is_disabled": 0, "is_reserved": 0}, {"lon": -77.0320685, "name": "2612ff113ca82fb817d6dd58cef82e80", "lat": 38.89230283333333, "fusion_lon": 0.0, "rental_uris": {"ios": "https://dc.lft.to/lastmile_qr_scan", "android": "https://dc.lft.to/lastmile_qr_scan"}, "bike_id": "2612ff113ca82fb817d6dd58cef82e80", "type": "electric_scooter", "fusion_lat": 0.0, "is_disabled": 0, "is_reserved": 0}, {"lon": -77.04498466666666, "name": "74162c35f7a59e748adab7c4c8b96437", "lat": 38.90012316666667, "fusion_lon": 0.0, "rental_uris": {"ios": "https://dc.lft.to/lastmile_qr_scan", "android": "https://dc.lft.to/lastmile_qr_scan"}, "bike_id": "74162c35f7a59e748adab7c4c8b96437", "type": "electric_scooter", "fusion_lat": 0.0, "is_disabled": 0, "is_reserved": 0}, {"lon": -77.077501, "name": "278f0f0d7b07f3f2da4d77d704bac034", "lat": 38.91228233333333, "fusion_lon": 0.0, "rental_uris": {"ios": "https://dc.lft.to/lastmile_qr_scan", "android": "https://dc.lft.to/lastmile_qr_scan"}, "bike_id": "278f0f0d7b07f3f2da4d77d704bac034", "type": "electric_scooter", "fusion_lat": 0.0, "is_disabled": 0, "is_reserved": 0}, {"lon": -77.057898, "name": "da8ddc5b9adf9ea8f746efccf7bc3f6c", "lat": 38.900975833333334, "fusion_lon": 0.0, "rental_uris": {"ios": "https://dc.lft.to/lastmile_qr_scan", "android": "https://dc.lft.to/lastmile_qr_scan"}, "bike_id": "da8ddc5b9adf9ea8f746efccf7bc3f6c", "type": "electric_scooter", "fusion_lat": 0.0, "is_disabled": 0, "is_reserved": 0}, {"lon": -77.0439415, "name": "c1c8a5381169f2523184ae544acf43ad", "lat": 38.924462, "fusion_lon": 0.0, "rental_uris": {"ios": "https://dc.lft.to/lastmile_qr_scan", "android": "https://dc.lft.to/lastmile_qr_scan"}, "bike_id": "c1c8a5381169f2523184ae544acf43ad", "type": "electric_scooter", "fusion_lat": 0.0, "is_disabled": 0, "is_reserved": 0}, {"lon": -77.02852516666667, "name": "2607d2d125297b3e6eb3e00e795269f9", "lat": 38.922434333333335, "fusion_lon": 0.0, "rental_uris": {"ios": "https://dc.lft.to/lastmile_qr_scan", "android": "https://dc.lft.to/lastmile_qr_scan"}, "bike_id": "2607d2d125297b3e6eb3e00e795269f9", "type": "electric_scooter", "fusion_lat": 0.0, "is_disabled": 0, "is_reserved": 0}, {"lon": -77.039386, "name": "d951aedc4d8f71c8a147d7a0d0173c8f", "lat": 38.9210185, "fusion_lon": 0.0, "rental_uris": {"ios": "https://dc.lft.to/lastmile_qr_scan", "android": "https://dc.lft.to/lastmile_qr_scan"}, "bike_id": "d951aedc4d8f71c8a147d7a0d0173c8f", "type": "electric_scooter", "fusion_lat": 0.0, "is_disabled": 0, "is_reserved": 0}, {"lon": -77.04196366666666, "name": "c813cfaf02983481c616603f2f97a8ab", "lat": 38.9296605, "fusion_lon": 0.0, "rental_uris": {"ios": "https://dc.lft.to/lastmile_qr_scan", "android": "https://dc.lft.to/lastmile_qr_scan"}, "bike_id": "c813cfaf02983481c616603f2f97a8ab", "type": "electric_scooter", "fusion_lat": 0.0, "is_disabled": 0, "is_reserved": 0}, {"lon": -77.02238016666666, "name": "5b655d58d3565bf6dadf6b324759b515", "lat": 38.924483, "fusion_lon": 0.0, "rental_uris": {"ios": "https://dc.lft.to/lastmile_qr_scan", "android": "https://dc.lft.to/lastmile_qr_scan"}, "bike_id": "5b655d58d3565bf6dadf6b324759b515", "type": "electric_scooter", "fusion_lat": 0.0, "is_disabled": 0, "is_reserved": 0}, {"lon": -77.02154533333334, "name": "356863001b1c21b914a0079b288382cd", "lat": 38.925976166666665, "fusion_lon": 0.0, "rental_uris": {"ios": "https://dc.lft.to/lastmile_qr_scan", "android": "https://dc.lft.to/lastmile_qr_scan"}, "bike_id": "356863001b1c21b914a0079b288382cd", "type": "electric_scooter", "fusion_lat": 0.0, "is_disabled": 0, "is_reserved": 0}, {"lon": -77.02548816666666, "name": "6cbb0d6b6ea5f94bdcdc8d4b552cc681", "lat": 38.935074666666665, "fusion_lon": 0.0, "rental_uris": {"ios": "https://dc.lft.to/lastmile_qr_scan", "android": "https://dc.lft.to/lastmile_qr_scan"}, "bike_id": "6cbb0d6b6ea5f94bdcdc8d4b552cc681", "type": "electric_scooter", "fusion_lat": 0.0, "is_disabled": 0, "is_reserved": 0}, {"lon": -77.0753405, "name": "18664154004933f4ddb70ede0c08713a", "lat": 38.90884616666666, "fusion_lon": 0.0, "rental_uris": {"ios": "https://dc.lft.to/lastmile_qr_scan", "android": "https://dc.lft.to/lastmile_qr_scan"}, "bike_id": "18664154004933f4ddb70ede0c08713a", "type": "electric_scooter", "fusion_lat": 0.0, "is_disabled": 0, "is_reserved": 0}, {"lon": -77.0465465, "name": "cb32a02d17ac422456a28f69b68334a9", "lat": 38.90430816666667, "fusion_lon": 0.0, "rental_uris": {"ios": "https://dc.lft.to/lastmile_qr_scan", "android": "https://dc.lft.to/lastmile_qr_scan"}, "bike_id": "cb32a02d17ac422456a28f69b68334a9", "type": "electric_scooter", "fusion_lat": 0.0, "is_disabled": 0, "is_reserved": 0}, {"lon": -77.08078866666666, "name": "15e9c4b62ed9648e9a68af5072c5ce5c", "lat": 38.90857833333333, "fusion_lon": 0.0, "rental_uris": {"ios": "https://dc.lft.to/lastmile_qr_scan", "android": "https://dc.lft.to/lastmile_qr_scan"}, "bike_id": "15e9c4b62ed9648e9a68af5072c5ce5c", "type": "electric_bike", "fusion_lat": 0.0, "is_disabled": 0, "is_reserved": 0}, {"lon": -76.94515416666667, "name": "3d604ce487c9a065f145ab037d185390", "lat": 38.86284166666667, "fusion_lon": 0.0, "rental_uris": {"ios": "https://dc.lft.to/lastmile_qr_scan", "android": "https://dc.lft.to/lastmile_qr_scan"}, "bike_id": "3d604ce487c9a065f145ab037d185390", "type": "electric_bike", "fusion_lat": 0.0, "is_disabled": 0, "is_reserved": 0}, {"lon": -77.0326085, "name": "420c9a4ea673b59fa26ebe1381196103", "lat": 38.904042833333335, "fusion_lon": 0.0, "rental_uris": {"ios": "https://dc.lft.to/lastmile_qr_scan", "android": "https://dc.lft.to/lastmile_qr_scan"}, "bike_id": "420c9a4ea673b59fa26ebe1381196103", "type": "electric_scooter", "fusion_lat": 0.0, "is_disabled": 0, "is_reserved": 0}, {"lon": -77.053369, "name": "894cc26cf9007ab1c4b8c075bf76f5f2", "lat": 38.85573866666667, "fusion_lon": 0.0, "rental_uris": {"ios": "https://dc.lft.to/lastmile_qr_scan", "android": "https://dc.lft.to/lastmile_qr_scan"}, "bike_id": "894cc26cf9007ab1c4b8c075bf76f5f2", "type": "electric_bike", "fusion_lat": 0.0, "is_disabled": 0, "is_reserved": 0}, {"lon": -77.07297133333333, "name": "8fc0e9def5734f8df13f1c6d0bc8e1cd", "lat": 38.93543183333333, "fusion_lon": 0.0, "rental_uris": {"ios": "https://dc.lft.to/lastmile_qr_scan", "android": "https://dc.lft.to/lastmile_qr_scan"}, "bike_id": "8fc0e9def5734f8df13f1c6d0bc8e1cd", "type": "electric_scooter", "fusion_lat": 0.0, "is_disabled": 0, "is_reserved": 0}, {"lon": -77.04618333333333, "name": "ea2ebaf33e008797809053c540ffb3c1", "lat": 38.9219235, "fusion_lon": 0.0, "rental_uris": {"ios": "https://dc.lft.to/lastmile_qr_scan", "android": "https://dc.lft.to/lastmile_qr_scan"}, "bike_id": "ea2ebaf33e008797809053c540ffb3c1", "type": "electric_scooter", "fusion_lat": 0.0, "is_disabled": 0, "is_reserved": 0}, {"lon": -77.0006765, "name": "4b4daa020a79a7e3fd6b44c2cf7220eb", "lat": 38.87666683333333, "fusion_lon": 0.0, "rental_uris": {"ios": "https://dc.lft.to/lastmile_qr_scan", "android": "https://dc.lft.to/lastmile_qr_scan"}, "bike_id": "4b4daa020a79a7e3fd6b44c2cf7220eb", "type": "electric_scooter", "fusion_lat": 0.0, "is_disabled": 0, "is_reserved": 0}, {"lon": -76.97938866666667, "name": "3bf8482b87b27bd8479bb7adc92eb828", "lat": 38.906519833333334, "fusion_lon": 0.0, "rental_uris": {"ios": "https://dc.lft.to/lastmile_qr_scan", "android": "https://dc.lft.to/lastmile_qr_scan"}, "bike_id": "3bf8482b87b27bd8479bb7adc92eb828", "type": "electric_scooter", "fusion_lat": 0.0, "is_disabled": 0, "is_reserved": 0}, {"lon": -77.02661416666666, "name": "2728d0ee5b37a792ca182c8624c6d521", "lat": 38.97546033333333, "fusion_lon": 0.0, "rental_uris": {"ios": "https://dc.lft.to/lastmile_qr_scan", "android": "https://dc.lft.to/lastmile_qr_scan"}, "bike_id": "2728d0ee5b37a792ca182c8624c6d521", "type": "electric_scooter", "fusion_lat": 0.0, "is_disabled": 0, "is_reserved": 0}, {"lon": -77.02086333333334, "name": "809126def673f4fe22bfa9b85cf41cb1", "lat": 38.923468666666665, "fusion_lon": 0.0, "rental_uris": {"ios": "https://dc.lft.to/lastmile_qr_scan", "android": "https://dc.lft.to/lastmile_qr_scan"}, "bike_id": "809126def673f4fe22bfa9b85cf41cb1", "type": "electric_scooter", "fusion_lat": 0.0, "is_disabled": 0, "is_reserved": 0}, {"lon": -77.04448683333334, "name": "9f852a5ffebeba094a333b3743db6a3c", "lat": 38.911094, "fusion_lon": 0.0, "rental_uris": {"ios": "https://dc.lft.to/lastmile_qr_scan", "android": "https://dc.lft.to/lastmile_qr_scan"}, "bike_id": "9f852a5ffebeba094a333b3743db6a3c", "type": "electric_scooter", "fusion_lat": 0.0, "is_disabled": 0, "is_reserved": 0}, {"lon": -77.11332933333334, "name": "26b0f03f39bcc0269eba153ffa4fc508", "lat": 38.80396833333333, "fusion_lon": 0.0, "rental_uris": {"ios": "https://dc.lft.to/lastmile_qr_scan", "android": "https://dc.lft.to/lastmile_qr_scan"}, "bike_id": "26b0f03f39bcc0269eba153ffa4fc508", "type": "electric_bike", "fusion_lat": 0.0, "is_disabled": 0, "is_reserved": 0}, {"lon": -76.99014633333333, "name": "56371236b6e809102a625c9561252bc7", "lat": 38.899022, "fusion_lon": 0.0, "rental_uris": {"ios": "https://dc.lft.to/lastmile_qr_scan", "android": "https://dc.lft.to/lastmile_qr_scan"}, "bike_id": "56371236b6e809102a625c9561252bc7", "type": "electric_scooter", "fusion_lat": 0.0, "is_disabled": 0, "is_reserved": 0}, {"lon": -77.07546233333333, "name": "cc12b8efdcd28b5588a8795cdce040ca", "lat": 38.912578333333336, "fusion_lon": 0.0, "rental_uris": {"ios": "https://dc.lft.to/lastmile_qr_scan", "android": "https://dc.lft.to/lastmile_qr_scan"}, "bike_id": "cc12b8efdcd28b5588a8795cdce040ca", "type": "electric_scooter", "fusion_lat": 0.0, "is_disabled": 0, "is_reserved": 0}, {"lon": -77.02247833333334, "name": "2662640cb41da826e0b71565e6b947a1", "lat": 38.924723, "fusion_lon": 0.0, "rental_uris": {"ios": "https://dc.lft.to/lastmile_qr_scan", "android": "https://dc.lft.to/lastmile_qr_scan"}, "bike_id": "2662640cb41da826e0b71565e6b947a1", "type": "electric_scooter", "fusion_lat": 0.0, "is_disabled": 0, "is_reserved": 0}, {"lon": -76.98706433333334, "name": "344d2a3f826b053ca41bcb02f4a4645c", "lat": 38.900501, "fusion_lon": 0.0, "rental_uris": {"ios": "https://dc.lft.to/lastmile_qr_scan", "android": "https://dc.lft.to/lastmile_qr_scan"}, "bike_id": "344d2a3f826b053ca41bcb02f4a4645c", "type": "electric_scooter", "fusion_lat": 0.0, "is_disabled": 0, "is_reserved": 0}, {"lon": -77.042324, "name": "768e469a514c5aa3ea9161b27a1f07df", "lat": 38.921986833333335, "fusion_lon": 0.0, "rental_uris": {"ios": "https://dc.lft.to/lastmile_qr_scan", "android": "https://dc.lft.to/lastmile_qr_scan"}, "bike_id": "768e469a514c5aa3ea9161b27a1f07df", "type": "electric_scooter", "fusion_lat": 0.0, "is_disabled": 0, "is_reserved": 0}, {"lon": -77.03175766666666, "name": "7b16a51f0f2770b66de15756d7f9b656", "lat": 38.90062316666667, "fusion_lon": 0.0, "rental_uris": {"ios": "https://dc.lft.to/lastmile_qr_scan", "android": "https://dc.lft.to/lastmile_qr_scan"}, "bike_id": "7b16a51f0f2770b66de15756d7f9b656", "type": "electric_scooter", "fusion_lat": 0.0, "is_disabled": 0, "is_reserved": 0}, {"lon": -77.01611966666667, "name": "64873b538823022023986d8c10ba08f7", "lat": 38.87228233333333, "fusion_lon": 0.0, "rental_uris": {"ios": "https://dc.lft.to/lastmile_qr_scan", "android": "https://dc.lft.to/lastmile_qr_scan"}, "bike_id": "64873b538823022023986d8c10ba08f7", "type": "electric_scooter", "fusion_lat": 0.0, "is_disabled": 0, "is_reserved": 0}, {"lon": -77.04095733333334, "name": "f71354ef757fe54f2ae3b8366b41b1e6", "lat": 38.91076116666667, "fusion_lon": 0.0, "rental_uris": {"ios": "https://dc.lft.to/lastmile_qr_scan", "android": "https://dc.lft.to/lastmile_qr_scan"}, "bike_id": "f71354ef757fe54f2ae3b8366b41b1e6", "type": "electric_scooter", "fusion_lat": 0.0, "is_disabled": 0, "is_reserved": 0}, {"lon": -77.052067, "name": "2ead3a39b2a607d6c5e10c21aaabc6d1", "lat": 38.914161666666665, "fusion_lon": 0.0, "rental_uris": {"ios": "https://dc.lft.to/lastmile_qr_scan", "android": "https://dc.lft.to/lastmile_qr_scan"}, "bike_id": "2ead3a39b2a607d6c5e10c21aaabc6d1", "type": "electric_scooter", "fusion_lat": 0.0, "is_disabled": 0, "is_reserved": 0}, {"lon": -77.02337383333334, "name": "75fdc33ccb43ab58985ab9783f088369", "lat": 38.930717666666666, "fusion_lon": 0.0, "rental_uris": {"ios": "https://dc.lft.to/lastmile_qr_scan", "android": "https://dc.lft.to/lastmile_qr_scan"}, "bike_id": "75fdc33ccb43ab58985ab9783f088369", "type": "electric_scooter", "fusion_lat": 0.0, "is_disabled": 0, "is_reserved": 0}, {"lon": -77.03069616666667, "name": "16db36ba0a15201343b2d3c4ed449816", "lat": 38.918698, "fusion_lon": 0.0, "rental_uris": {"ios": "https://dc.lft.to/lastmile_qr_scan", "android": "https://dc.lft.to/lastmile_qr_scan"}, "bike_id": "16db36ba0a15201343b2d3c4ed449816", "type": "electric_scooter", "fusion_lat": 0.0, "is_disabled": 0, "is_reserved": 0}, {"lon": -77.0604575, "name": "40581ef77eb0605e81fd8bf20034a7a9", "lat": 38.90506966666667, "fusion_lon": 0.0, "rental_uris": {"ios": "https://dc.lft.to/lastmile_qr_scan", "android": "https://dc.lft.to/lastmile_qr_scan"}, "bike_id": "40581ef77eb0605e81fd8bf20034a7a9", "type": "electric_scooter", "fusion_lat": 0.0, "is_disabled": 0, "is_reserved": 0}, {"lon": -77.00203133333333, "name": "e58662c238d04e91dd979bbede9f4c9d", "lat": 38.8764775, "fusion_lon": 0.0, "rental_uris": {"ios": "https://dc.lft.to/lastmile_qr_scan", "android": "https://dc.lft.to/lastmile_qr_scan"}, "bike_id": "e58662c238d04e91dd979bbede9f4c9d", "type": "electric_scooter", "fusion_lat": 0.0, "is_disabled": 0, "is_reserved": 0}, {"lon": -77.028481, "name": "561e1f8a116bc5da01c63877df4e8d05", "lat": 38.899882166666664, "fusion_lon": 0.0, "rental_uris": {"ios": "https://dc.lft.to/lastmile_qr_scan", "android": "https://dc.lft.to/lastmile_qr_scan"}, "bike_id": "561e1f8a116bc5da01c63877df4e8d05", "type": "electric_scooter", "fusion_lat": 0.0, "is_disabled": 0, "is_reserved": 0}, {"lon": -77.01753616666667, "name": "01f42a887e8de5e6cfef444784ef2b85", "lat": 38.90760783333333, "fusion_lon": 0.0, "rental_uris": {"ios": "https://dc.lft.to/lastmile_qr_scan", "android": "https://dc.lft.to/lastmile_qr_scan"}, "bike_id": "01f42a887e8de5e6cfef444784ef2b85", "type": "electric_bike", "fusion_lat": 0.0, "is_disabled": 0, "is_reserved": 0}, {"lon": -77.002283, "name": "579aff42e39b39e4644f15e28d81dbf0", "lat": 38.908709333333334, "fusion_lon": 0.0, "rental_uris": {"ios": "https://dc.lft.to/lastmile_qr_scan", "android": "https://dc.lft.to/lastmile_qr_scan"}, "bike_id": "579aff42e39b39e4644f15e28d81dbf0", "type": "electric_scooter", "fusion_lat": 0.0, "is_disabled": 0, "is_reserved": 0}, {"lon": -77.03686766666667, "name": "a66f680eb4e1aee2b74ff61ee086c833", "lat": 39.02646, "fusion_lon": 0.0, "rental_uris": {"ios": "https://dc.lft.to/lastmile_qr_scan", "android": "https://dc.lft.to/lastmile_qr_scan"}, "bike_id": "a66f680eb4e1aee2b74ff61ee086c833", "type": "electric_bike", "fusion_lat": 0.0, "is_disabled": 0, "is_reserved": 0}, {"lon": -77.0345105, "name": "a43166f811558525dfeb75789e7789af", "lat": 38.905663833333335, "fusion_lon": 0.0, "rental_uris": {"ios": "https://dc.lft.to/lastmile_qr_scan", "android": "https://dc.lft.to/lastmile_qr_scan"}, "bike_id": "a43166f811558525dfeb75789e7789af", "type": "electric_scooter", "fusion_lat": 0.0, "is_disabled": 0, "is_reserved": 0}, {"lon": -77.04609633333334, "name": "e4f85b977940ce2c7c5d3efb1bcdb386", "lat": 38.89825616666667, "fusion_lon": 0.0, "rental_uris": {"ios": "https://dc.lft.to/lastmile_qr_scan", "android": "https://dc.lft.to/lastmile_qr_scan"}, "bike_id": "e4f85b977940ce2c7c5d3efb1bcdb386", "type": "electric_scooter", "fusion_lat": 0.0, "is_disabled": 0, "is_reserved": 0}, {"lon": -76.9834045, "name": "636fd1d31c42b68dc9777fa19a79833d", "lat": 38.88711766666667, "fusion_lon": 0.0, "rental_uris": {"ios": "https://dc.lft.to/lastmile_qr_scan", "android": "https://dc.lft.to/lastmile_qr_scan"}, "bike_id": "636fd1d31c42b68dc9777fa19a79833d", "type": "electric_scooter", "fusion_lat": 0.0, "is_disabled": 0, "is_reserved": 0}, {"lon": -77.04332766666667, "name": "aefdf4bc756813ed439d8141a18a069d", "lat": 38.89223583333333, "fusion_lon": 0.0, "rental_uris": {"ios": "https://dc.lft.to/lastmile_qr_scan", "android": "https://dc.lft.to/lastmile_qr_scan"}, "bike_id": "aefdf4bc756813ed439d8141a18a069d", "type": "electric_scooter", "fusion_lat": 0.0, "is_disabled": 0, "is_reserved": 0}, {"lon": -77.04668966666667, "name": "5052caf2c0525c96a3a30907535368e0", "lat": 38.896341166666666, "fusion_lon": 0.0, "rental_uris": {"ios": "https://dc.lft.to/lastmile_qr_scan", "android": "https://dc.lft.to/lastmile_qr_scan"}, "bike_id": "5052caf2c0525c96a3a30907535368e0", "type": "electric_scooter", "fusion_lat": 0.0, "is_disabled": 0, "is_reserved": 0}, {"lon": -77.03621666666666, "name": "7eef6d7d899b0fee8026791d69da8d27", "lat": 38.90031333333334, "fusion_lon": 0.0, "rental_uris": {"ios": "https://dc.lft.to/lastmile_qr_scan", "android": "https://dc.lft.to/lastmile_qr_scan"}, "bike_id": "7eef6d7d899b0fee8026791d69da8d27", "type": "electric_scooter", "fusion_lat": 0.0, "is_disabled": 0, "is_reserved": 0}, {"lon": -77.013568, "name": "178168d59d61c250454faf79d30e6533", "lat": 38.89579666666667, "fusion_lon": 0.0, "rental_uris": {"ios": "https://dc.lft.to/lastmile_qr_scan", "android": "https://dc.lft.to/lastmile_qr_scan"}, "bike_id": "178168d59d61c250454faf79d30e6533", "type": "electric_scooter", "fusion_lat": 0.0, "is_disabled": 0, "is_reserved": 0}, {"lon": -77.01988, "name": "665cd0508e53a03111e3febdf151c800", "lat": 38.8951945, "fusion_lon": 0.0, "rental_uris": {"ios": "https://dc.lft.to/lastmile_qr_scan", "android": "https://dc.lft.to/lastmile_qr_scan"}, "bike_id": "665cd0508e53a03111e3febdf151c800", "type": "electric_scooter", "fusion_lat": 0.0, "is_disabled": 0, "is_reserved": 0}, {"lon": -77.038503, "name": "e62761e2ceba9b51f7f9821960e362e3", "lat": 38.915360666666665, "fusion_lon": 0.0, "rental_uris": {"ios": "https://dc.lft.to/lastmile_qr_scan", "android": "https://dc.lft.to/lastmile_qr_scan"}, "bike_id": "e62761e2ceba9b51f7f9821960e362e3", "type": "electric_scooter", "fusion_lat": 0.0, "is_disabled": 0, "is_reserved": 0}, {"lon": -76.970722, "name": "f348504bb05d44ce0fb44d48ffdc99f4", "lat": 38.9205765, "fusion_lon": 0.0, "rental_uris": {"ios": "https://dc.lft.to/lastmile_qr_scan", "android": "https://dc.lft.to/lastmile_qr_scan"}, "bike_id": "f348504bb05d44ce0fb44d48ffdc99f4", "type": "electric_bike", "fusion_lat": 0.0, "is_disabled": 0, "is_reserved": 0}, {"lon": -77.12880933333334, "name": "58ea2aac89e95254c7b3f8ed44952e9f", "lat": 38.906004833333334, "fusion_lon": 0.0, "rental_uris": {"ios": "https://dc.lft.to/lastmile_qr_scan", "android": "https://dc.lft.to/lastmile_qr_scan"}, "bike_id": "58ea2aac89e95254c7b3f8ed44952e9f", "type": "electric_bike", "fusion_lat": 0.0, "is_disabled": 0, "is_reserved": 0}, {"lon": -77.03340266666666, "name": "ca923d2acb77e5d150006a5289713dd1", "lat": 38.898712333333336, "fusion_lon": 0.0, "rental_uris": {"ios": "https://dc.lft.to/lastmile_qr_scan", "android": "https://dc.lft.to/lastmile_qr_scan"}, "bike_id": "ca923d2acb77e5d150006a5289713dd1", "type": "electric_scooter", "fusion_lat": 0.0, "is_disabled": 0, "is_reserved": 0}, {"lon": -76.99030683333334, "name": "3b24bc63513f97cd055a8770ba25f7f5", "lat": 38.88872583333333, "fusion_lon": 0.0, "rental_uris": {"ios": "https://dc.lft.to/lastmile_qr_scan", "android": "https://dc.lft.to/lastmile_qr_scan"}, "bike_id": "3b24bc63513f97cd055a8770ba25f7f5", "type": "electric_scooter", "fusion_lat": 0.0, "is_disabled": 0, "is_reserved": 0}, {"lon": -76.995153, "name": "b7e7391368a83ad502f747ef9348fe14", "lat": 38.89480016666667, "fusion_lon": 0.0, "rental_uris": {"ios": "https://dc.lft.to/lastmile_qr_scan", "android": "https://dc.lft.to/lastmile_qr_scan"}, "bike_id": "b7e7391368a83ad502f747ef9348fe14", "type": "electric_scooter", "fusion_lat": 0.0, "is_disabled": 0, "is_reserved": 0}, {"lon": -77.003374, "name": "a62cde2e21468c314a79d05040929805", "lat": 38.895040333333334, "fusion_lon": 0.0, "rental_uris": {"ios": "https://dc.lft.to/lastmile_qr_scan", "android": "https://dc.lft.to/lastmile_qr_scan"}, "bike_id": "a62cde2e21468c314a79d05040929805", "type": "electric_scooter", "fusion_lat": 0.0, "is_disabled": 0, "is_reserved": 0}, {"lon": -77.02985733333334, "name": "dfbf254abc08d0920c25373a3135d36a", "lat": 38.934416, "fusion_lon": 0.0, "rental_uris": {"ios": "https://dc.lft.to/lastmile_qr_scan", "android": "https://dc.lft.to/lastmile_qr_scan"}, "bike_id": "dfbf254abc08d0920c25373a3135d36a", "type": "electric_scooter", "fusion_lat": 0.0, "is_disabled": 0, "is_reserved": 0}, {"lon": -77.02418716666666, "name": "e520f992349bacd32fb5bf71eef2be42", "lat": 38.89222816666667, "fusion_lon": 0.0, "rental_uris": {"ios": "https://dc.lft.to/lastmile_qr_scan", "android": "https://dc.lft.to/lastmile_qr_scan"}, "bike_id": "e520f992349bacd32fb5bf71eef2be42", "type": "electric_scooter", "fusion_lat": 0.0, "is_disabled": 0, "is_reserved": 0}, {"lon": -77.0629255, "name": "04b81d7998c9caed46560cd8af5739bc", "lat": 38.903934, "fusion_lon": 0.0, "rental_uris": {"ios": "https://dc.lft.to/lastmile_qr_scan", "android": "https://dc.lft.to/lastmile_qr_scan"}, "bike_id": "04b81d7998c9caed46560cd8af5739bc", "type": "electric_scooter", "fusion_lat": 0.0, "is_disabled": 0, "is_reserved": 0}, {"lon": -77.04267983333334, "name": "99f0fc908dbc6307316371134a0468ad", "lat": 38.922392333333335, "fusion_lon": 0.0, "rental_uris": {"ios": "https://dc.lft.to/lastmile_qr_scan", "android": "https://dc.lft.to/lastmile_qr_scan"}, "bike_id": "99f0fc908dbc6307316371134a0468ad", "type": "electric_scooter", "fusion_lat": 0.0, "is_disabled": 0, "is_reserved": 0}, {"lon": -77.03239766666667, "name": "324da4d834973bd1ca8aee171a80a9c7", "lat": 38.897427, "fusion_lon": 0.0, "rental_uris": {"ios": "https://dc.lft.to/lastmile_qr_scan", "android": "https://dc.lft.to/lastmile_qr_scan"}, "bike_id": "324da4d834973bd1ca8aee171a80a9c7", "type": "electric_scooter", "fusion_lat": 0.0, "is_disabled": 0, "is_reserved": 0}, {"lon": -77.020261, "name": "9e87f9284b1f074293881abbc6bf70d8", "lat": 38.92414766666667, "fusion_lon": 0.0, "rental_uris": {"ios": "https://dc.lft.to/lastmile_qr_scan", "android": "https://dc.lft.to/lastmile_qr_scan"}, "bike_id": "9e87f9284b1f074293881abbc6bf70d8", "type": "electric_scooter", "fusion_lat": 0.0, "is_disabled": 0, "is_reserved": 0}, {"lon": -77.04001083333333, "name": "706f29cad9936f9b2eda59e29c585f50", "lat": 38.91815866666666, "fusion_lon": 0.0, "rental_uris": {"ios": "https://dc.lft.to/lastmile_qr_scan", "android": "https://dc.lft.to/lastmile_qr_scan"}, "bike_id": "706f29cad9936f9b2eda59e29c585f50", "type": "electric_scooter", "fusion_lat": 0.0, "is_disabled": 0, "is_reserved": 0}, {"lon": -77.04436266666667, "name": "63892c6c973c6388cdf0338a0b071427", "lat": 38.901392333333334, "fusion_lon": 0.0, "rental_uris": {"ios": "https://dc.lft.to/lastmile_qr_scan", "android": "https://dc.lft.to/lastmile_qr_scan"}, "bike_id": "63892c6c973c6388cdf0338a0b071427", "type": "electric_scooter", "fusion_lat": 0.0, "is_disabled": 0, "is_reserved": 0}, {"lon": -77.027473, "name": "6add23680b4b7710fa5311d6bbbc838e", "lat": 38.89221033333333, "fusion_lon": 0.0, "rental_uris": {"ios": "https://dc.lft.to/lastmile_qr_scan", "android": "https://dc.lft.to/lastmile_qr_scan"}, "bike_id": "6add23680b4b7710fa5311d6bbbc838e", "type": "electric_scooter", "fusion_lat": 0.0, "is_disabled": 0, "is_reserved": 0}, {"lon": -77.05068183333333, "name": "ba57c4629526eeebaf4d34239241774c", "lat": 38.92355766666667, "fusion_lon": 0.0, "rental_uris": {"ios": "https://dc.lft.to/lastmile_qr_scan", "android": "https://dc.lft.to/lastmile_qr_scan"},