{"data": {"bikes": [{"rental_uris": {"ios": "https://dc.lft.to/lastmile_qr_scan", "android": "https://dc.lft.to/lastmile_qr_scan"}, "fusion_lon": 0.0, "type": "electric_scooter", "bike_id": "6a8616bd6f913c7be35bb58932574310", "name": "6a8616bd6f913c7be35bb58932574310", "lat": 38.89977783333333, "is_disabled": 0, "lon": -77.041885, "fusion_lat": 0.0, "is_reserved": 0}, {"rental_uris": {"ios": "https://dc.lft.to/lastmile_qr_scan", "android": "https://dc.lft.to/lastmile_qr_scan"}, "fusion_lon": 0.0, "type": "electric_scooter", "bike_id": "54577dd5e758820c473335c014d9b42b", "name": "54577dd5e758820c473335c014d9b42b", "lat": 38.890157, "is_disabled": 0, "lon": -76.93738133333333, "fusion_lat": 0.0, "is_reserved": 0}, {"rental_uris": {"ios": "https://dc.lft.to/lastmile_qr_scan", "android": "https://dc.lft.to/lastmile_qr_scan"}, "fusion_lon": 0.0, "type": "electric_scooter", "bike_id": "95f6d0bef074e9a9b8649b2c1599e6c4", "name": "95f6d0bef074e9a9b8649b2c1599e6c4", "lat": 38.92735233333333, "is_disabled": 0, "lon": -77.02245733333334, "fusion_lat": 0.0, "is_reserved": 0}, {"rental_uris": {"ios": "https://dc.lft.to/lastmile_qr_scan", "android": "https://dc.lft.to/lastmile_qr_scan"}, "fusion_lon": 0.0, "type": "electric_scooter", "bike_id": "e2d73a0d7366a1d775254fd9ef11bcfd", "name": "e2d73a0d7366a1d775254fd9ef11bcfd", "lat": 38.894028666666664, "is_disabled": 0, "lon": -77.03197016666667, "fusion_lat": 0.0, "is_reserved": 0}, {"rental_uris": {"ios": "https://dc.lft.to/lastmile_qr_scan", "android": "https://dc.lft.to/lastmile_qr_scan"}, "fusion_lon": 0.0, "type": "electric_scooter", "bike_id": "1f0cce10fce7199af2fb5e3f314433f2", "name": "1f0cce10fce7199af2fb5e3f314433f2", "lat": 38.893903333333334, "is_disabled": 0, "lon": -76.949965, "fusion_lat": 0.0, "is_reserved": 0}, {"rental_uris": {"ios": "https://dc.lft.to/lastmile_qr_scan", "android": "https://dc.lft.to/lastmile_qr_scan"}, "fusion_lon": 0.0, "type": "electric_scooter", "bike_id": "53b27010667d2b96308528745c8fe6a2", "name": "53b27010667d2b96308528745c8fe6a2", "lat": 38.928151666666665, "is_disabled": 0, "lon": -77.01390066666667, "fusion_lat": 0.0, "is_reserved": 0}, {"rental_uris": {"ios": "https://dc.lft.to/lastmile_qr_scan", "android": "https://dc.lft.to/lastmile_qr_scan"}, "fusion_lon": 0.0, "type": "electric_scooter", "bike_id": "17d9c0e2011d7fa8bf0705e3ad8ea997", "name": "17d9c0e2011d7fa8bf0705e3ad8ea997", "lat": 38.918406, "is_disabled": 0, "lon": -77.02529666666666, "fusion_lat": 0.0, "is_reserved": 0}, {"rental_uris": {"ios": "https://dc.lft.to/lastmile_qr_scan", "android": "https://dc.lft.to/lastmile_qr_scan"}, "fusion_lon": 0.0, "type": "electric_bike", "bike_id": "2a2457c63477b87aaeb2b3a64cfeab5e", "name": "2a2457c63477b87aaeb2b3a64cfeab5e", "lat": 38.854439666666664, "is_disabled": 0, "lon": -76.90970816666666, "fusion_lat": 0.0, "is_reserved": 0}, {"rental_uris": {"ios": "https://dc.lft.to/lastmile_qr_scan", "android": "https://dc.lft.to/lastmile_qr_scan"}, "fusion_lon": 0.0, "type": "electric_scooter", "bike_id": "71153da9d76a27fbfaa54883d3f66e13", "name": "71153da9d76a27fbfaa54883d3f66e13", "lat": 38.861569833333334, "is_disabled": 0, "lon": -76.98578283333333, "fusion_lat": 0.0, "is_reserved": 0}, {"rental_uris": {"ios": "https://dc.lft.to/lastmile_qr_scan", "android": "https://dc.lft.to/lastmile_qr_scan"}, "fusion_lon": 0.0, "type": "electric_scooter", "bike_id": "b60e7757e9e6ddff082b467ced21d1b9", "name": "b60e7757e9e6ddff082b467ced21d1b9", "lat": 38.90088216666667, "is_disabled": 0, "lon": -77.05024316666666, "fusion_lat": 0.0, "is_reserved": 0}, {"rental_uris": {"ios": "https://dc.lft.to/lastmile_qr_scan", "android": "https://dc.lft.to/lastmile_qr_scan"}, "fusion_lon": 0.0, "type": "electric_scooter", "bike_id": "1b2053f0adbba61ee03d6c4fc0f495ea", "name": "1b2053f0adbba61ee03d6c4fc0f495ea", "lat": 38.930198, "is_disabled": 0, "lon": -77.03795383333333, "fusion_lat": 0.0, "is_reserved": 0}, {"rental_uris": {"ios": "https://dc.lft.to/lastmile_qr_scan", "android": "https://dc.lft.to/lastmile_qr_scan"}, "fusion_lon": 0.0, "type": "electric_scooter", "bike_id": "56640ba8faa971793c571e3395646253", "name": "56640ba8faa971793c571e3395646253", "lat": 38.90955133333333, "is_disabled": 0, "lon": -77.02386066666666, "fusion_lat": 0.0, "is_reserved": 0}, {"rental_uris": {"ios": "https://dc.lft.to/lastmile_qr_scan", "android": "https://dc.lft.to/lastmile_qr_scan"}, "fusion_lon": 0.0, "type": "electric_scooter", "bike_id": "e4598551aebd9b3c54c7d5fa158377ea", "name": "e4598551aebd9b3c54c7d5fa158377ea", "lat": 38.92232166666667, "is_disabled": 0, "lon": -76.97533016666667, "fusion_lat": 0.0, "is_reserved": 0}, {"rental_uris": {"ios": "https://dc.lft.to/lastmile_qr_scan", "android": "https://dc.lft.to/lastmile_qr_scan"}, "fusion_lon": 0.0, "type": "electric_scooter", "bike_id": "19c3d92bc949829f6ab24373c92d3155", "name": "19c3d92bc949829f6ab24373c92d3155", "lat": 38.90145616666667, "is_disabled": 0, "lon": -77.0324535, "fusion_lat": 0.0, "is_reserved": 0}, {"rental_uris": {"ios": "https://dc.lft.to/lastmile_qr_scan", "android": "https://dc.lft.to/lastmile_qr_scan"}, "fusion_lon": 0.0, "type": "electric_scooter", "bike_id": "21053ae82b85a37ec42727ec0a31c704", "name": "21053ae82b85a37ec42727ec0a31c704", "lat": 38.9118235, "is_disabled": 0, "lon": -77.039683, "fusion_lat": 0.0, "is_reserved": 0}, {"rental_uris": {"ios": "https://dc.lft.to/lastmile_qr_scan", "android": "https://dc.lft.to/lastmile_qr_scan"}, "fusion_lon": 0.0, "type": "electric_scooter", "bike_id": "f60565cb9c99bb631ed953956cf2053f", "name": "f60565cb9c99bb631ed953956cf2053f", "lat": 38.89738033333333, "is_disabled": 0, "lon": -77.0130845, "fusion_lat": 0.0, "is_reserved": 0}, {"rental_uris": {"ios": "https://dc.lft.to/lastmile_qr_scan", "android": "https://dc.lft.to/lastmile_qr_scan"}, "fusion_lon": 0.0, "type": "electric_scooter", "bike_id": "bf45f6748f7fc816afcd33eaf4b16dc0", "name": "bf45f6748f7fc816afcd33eaf4b16dc0", "lat": 38.9168085, "is_disabled": 0, "lon": -77.031663, "fusion_lat": 0.0, "is_reserved": 0}, {"rental_uris": {"ios": "https://dc.lft.to/lastmile_qr_scan", "android": "https://dc.lft.to/lastmile_qr_scan"}, "fusion_lon": 0.0, "type": "electric_scooter", "bike_id": "a4516d540544ab5b7dee9077dd03367a", "name": "a4516d540544ab5b7dee9077dd03367a", "lat": 38.91420316666667, "is_disabled": 0, "lon": -77.039027, "fusion_lat": 0.0, "is_reserved": 0}, {"rental_uris": {"ios": "https://dc.lft.to/lastmile_qr_scan", "android": "https://dc.lft.to/lastmile_qr_scan"}, "fusion_lon": 0.0, "type": "electric_scooter", "bike_id": "0dec69bebf5d156612c25eef737fc68e", "name": "0dec69bebf5d156612c25eef737fc68e", "lat": 38.9190845, "is_disabled": 0, "lon": -77.04162966666667, "fusion_lat": 0.0, "is_reserved": 0}, {"rental_uris": {"ios": "https://dc.lft.to/lastmile_qr_scan", "android": "https://dc.lft.to/lastmile_qr_scan"}, "fusion_lon": 0.0, "type": "electric_scooter", "bike_id": "8900a2f3617d24fb071367f5d7273f4e", "name": "8900a2f3617d24fb071367f5d7273f4e", "lat": 38.91820283333333, "is_disabled": 0, "lon": -77.03457983333334, "fusion_lat": 0.0, "is_reserved": 0}, {"rental_uris": {"ios": "https://dc.lft.to/lastmile_qr_scan", "android": "https://dc.lft.to/lastmile_qr_scan"}, "fusion_lon": 0.0, "type": "electric_scooter", "bike_id": "45245954678a30273970af5cc8690e6c", "name": "45245954678a30273970af5cc8690e6c", "lat": 38.89746133333333, "is_disabled": 0, "lon": -77.03348933333334, "fusion_lat": 0.0, "is_reserved": 0}, {"rental_uris": {"ios": "https://dc.lft.to/lastmile_qr_scan", "android": "https://dc.lft.to/lastmile_qr_scan"}, "fusion_lon": 0.0, "type": "electric_scooter", "bike_id": "9637b68a746c12ea1a145f4049b80010", "name": "9637b68a746c12ea1a145f4049b80010", "lat": 38.898733166666666, "is_disabled": 0, "lon": -77.03337083333334, "fusion_lat": 0.0, "is_reserved": 0}, {"rental_uris": {"ios": "https://dc.lft.to/lastmile_qr_scan", "android": "https://dc.lft.to/lastmile_qr_scan"}, "fusion_lon": 0.0, "type": "electric_bike", "bike_id": "f8591b5fa0e0d89864c499ccfd761a69", "name": "f8591b5fa0e0d89864c499ccfd761a69", "lat": 38.914466166666664, "is_disabled": 0, "lon": -77.00464466666666, "fusion_lat": 0.0, "is_reserved": 0}, {"rental_uris": {"ios": "https://dc.lft.to/lastmile_qr_scan", "android": "https://dc.lft.to/lastmile_qr_scan"}, "fusion_lon": 0.0, "type": "electric_scooter", "bike_id": "dbe6f2cafce0cee9f7a2cd9a1c69b238", "name": "dbe6f2cafce0cee9f7a2cd9a1c69b238", "lat": 38.905752666666665, "is_disabled": 0, "lon": -77.0385875, "fusion_lat": 0.0, "is_reserved": 0}, {"rental_uris": {"ios": "https://dc.lft.to/lastmile_qr_scan", "android": "https://dc.lft.to/lastmile_qr_scan"}, "fusion_lon": 0.0, "type": "electric_scooter", "bike_id": "f34dc0fc17cbfd6da0bd89ceb391d94a", "name": "f34dc0fc17cbfd6da0bd89ceb391d94a", "lat": 38.884901666666664, "is_disabled": 0, "lon": -77.01524633333334, "fusion_lat": 0.0, "is_reserved": 0}, {"rental_uris": {"ios": "https://dc.lft.to/lastmile_qr_scan", "android": "https://dc.lft.to/lastmile_qr_scan"}, "fusion_lon": 0.0, "type": "electric_scooter", "bike_id": "a25976559ad5bb4df9e6ef5d2844f673", "name": "a25976559ad5bb4df9e6ef5d2844f673", "lat": 38.93192116666667, "is_disabled": 0, "lon": -77.02832416666666, "fusion_lat": 0.0, "is_reserved": 0}, {"rental_uris": {"ios": "https://dc.lft.to/lastmile_qr_scan", "android": "https://dc.lft.to/lastmile_qr_scan"}, "fusion_lon": 0.0, "type": "electric_scooter", "bike_id": "856c582acc0dac247eb1b2dd4a42c215", "name": "856c582acc0dac247eb1b2dd4a42c215", "lat": 38.92963983333333, "is_disabled": 0, "lon": -77.04199833333334, "fusion_lat": 0.0, "is_reserved": 0}, {"rental_uris": {"ios": "https://dc.lft.to/lastmile_qr_scan", "android": "https://dc.lft.to/lastmile_qr_scan"}, "fusion_lon": 0.0, "type": "electric_scooter", "bike_id": "f747f4fcd486f70f2740468ada08a72b", "name": "f747f4fcd486f70f2740468ada08a72b", "lat": 38.94618066666666, "is_disabled": 0, "lon": -77.03624833333333, "fusion_lat": 0.0, "is_reserved": 0}, {"rental_uris": {"ios": "https://dc.lft.to/lastmile_qr_scan", "android": "https://dc.lft.to/lastmile_qr_scan"}, "fusion_lon": 0.0, "type": "electric_scooter", "bike_id": "d33def76b2dcb9416005ef02326b5b2f", "name": "d33def76b2dcb9416005ef02326b5b2f", "lat": 38.8669835, "is_disabled": 0, "lon": -76.98710616666666, "fusion_lat": 0.0, "is_reserved": 0}, {"rental_uris": {"ios": "https://dc.lft.to/lastmile_qr_scan", "android": "https://dc.lft.to/lastmile_qr_scan"}, "fusion_lon": 0.0, "type": "electric_scooter", "bike_id": "45b6162a9922d8206473d44a8ba36421", "name": "45b6162a9922d8206473d44a8ba36421", "lat": 38.90389416666667, "is_disabled": 0, "lon": -77.03013, "fusion_lat": 0.0, "is_reserved": 0}, {"rental_uris": {"ios": "https://dc.lft.to/lastmile_qr_scan", "android": "https://dc.lft.to/lastmile_qr_scan"}, "fusion_lon": 0.0, "type": "electric_scooter", "bike_id": "d69f711382657eca931941b4e7b379a3", "name": "d69f711382657eca931941b4e7b379a3", "lat": 38.92010616666666, "is_disabled": 0, "lon": -77.03132966666666, "fusion_lat": 0.0, "is_reserved": 0}, {"rental_uris": {"ios": "https://dc.lft.to/lastmile_qr_scan", "android": "https://dc.lft.to/lastmile_qr_scan"}, "fusion_lon": 0.0, "type": "electric_scooter", "bike_id": "b467947392faec2144bdbc2a309bd2a1", "name": "b467947392faec2144bdbc2a309bd2a1", "lat": 38.869099, "is_disabled": 0, "lon": -77.01371033333334, "fusion_lat": 0.0, "is_reserved": 0}, {"rental_uris": {"ios": "https://dc.lft.to/lastmile_qr_scan", "android": "https://dc.lft.to/lastmile_qr_scan"}, "fusion_lon": 0.0, "type": "electric_scooter", "bike_id": "ae5d0ca22efbf26d7f568671b97e08d3", "name": "ae5d0ca22efbf26d7f568671b97e08d3", "lat": 38.92182916666667, "is_disabled": 0, "lon": -76.9970125, "fusion_lat": 0.0, "is_reserved": 0}, {"rental_uris": {"ios": "https://dc.lft.to/lastmile_qr_scan", "android": "https://dc.lft.to/lastmile_qr_scan"}, "fusion_lon": 0.0, "type": "electric_scooter", "bike_id": "477b8ee1ff3adca5136684e70eca6a5f", "name": "477b8ee1ff3adca5136684e70eca6a5f", "lat": 38.94198133333333, "is_disabled": 0, "lon": -77.02577716666667, "fusion_lat": 0.0, "is_reserved": 0}, {"rental_uris": {"ios": "https://dc.lft.to/lastmile_qr_scan", "android": "https://dc.lft.to/lastmile_qr_scan"}, "fusion_lon": 0.0, "type": "electric_scooter", "bike_id": "ce5da28a6ca957eb2eef7770fa87384b", "name": "ce5da28a6ca957eb2eef7770fa87384b", "lat": 38.91112566666666, "is_disabled": 0, "lon": -77.02233933333333, "fusion_lat": 0.0, "is_reserved": 0}, {"rental_uris": {"ios": "https://dc.lft.to/lastmile_qr_scan", "android": "https://dc.lft.to/lastmile_qr_scan"}, "fusion_lon": 0.0, "type": "electric_scooter", "bike_id": "9da8c7ac99de1e5c3d08b683e0a4c4f1", "name": "9da8c7ac99de1e5c3d08b683e0a4c4f1", "lat": 38.930841, "is_disabled": 0, "lon": -77.02793116666666, "fusion_lat": 0.0, "is_reserved": 0}, {"rental_uris": {"ios": "https://dc.lft.to/lastmile_qr_scan", "android": "https://dc.lft.to/lastmile_qr_scan"}, "fusion_lon": 0.0, "type": "electric_scooter", "bike_id": "b8abc204d452b19a07a0a45e97800c1d", "name": "b8abc204d452b19a07a0a45e97800c1d", "lat": 38.91467933333333, "is_disabled": 0, "lon": -77.00339383333333, "fusion_lat": 0.0, "is_reserved": 0}, {"rental_uris": {"ios": "https://dc.lft.to/lastmile_qr_scan", "android": "https://dc.lft.to/lastmile_qr_scan"}, "fusion_lon": 0.0, "type": "electric_scooter", "bike_id": "0945205b0bb8ff3ac2a99ecb04e5a9a6", "name": "0945205b0bb8ff3ac2a99ecb04e5a9a6", "lat": 38.90482033333333, "is_disabled": 0, "lon": -77.04869783333334, "fusion_lat": 0.0, "is_reserved": 0}, {"rental_uris": {"ios": "https://dc.lft.to/lastmile_qr_scan", "android": "https://dc.lft.to/lastmile_qr_scan"}, "fusion_lon": 0.0, "type": "electric_bike", "bike_id": "99d729a85623784976971f92e5bfc25f", "name": "99d729a85623784976971f92e5bfc25f", "lat": 39.010393666666666, "is_disabled": 0, "lon": -76.911177, "fusion_lat": 0.0, "is_reserved": 0}, {"rental_uris": {"ios": "https://dc.lft.to/lastmile_qr_scan", "android": "https://dc.lft.to/lastmile_qr_scan"}, "fusion_lon": 0.0, "type": "electric_scooter", "bike_id": "9bd357a73c75b3e7b8069c310accd85c", "name": "9bd357a73c75b3e7b8069c310accd85c", "lat": 38.875764, "is_disabled": 0, "lon": -77.00600033333333, "fusion_lat": 0.0, "is_reserved": 0}, {"rental_uris": {"ios": "https://dc.lft.to/lastmile_qr_scan", "android": "https://dc.lft.to/lastmile_qr_scan"}, "fusion_lon": 0.0, "type": "electric_scooter", "bike_id": "a4323821d0faff6d2c51880c7bfe2b4c", "name": "a4323821d0faff6d2c51880c7bfe2b4c", "lat": 38.9310905, "is_disabled": 0, "lon": -77.02400266666666, "fusion_lat": 0.0, "is_reserved": 0}, {"rental_uris": {"ios": "https://dc.lft.to/lastmile_qr_scan", "android": "https://dc.lft.to/lastmile_qr_scan"}, "fusion_lon": 0.0, "type": "electric_bike", "bike_id": "f806b79f00035498bed2e79ef0452945", "name": "f806b79f00035498bed2e79ef0452945", "lat": 38.904174166666664, "is_disabled": 0, "lon": -77.05333483333334, "fusion_lat": 0.0, "is_reserved": 0}, {"rental_uris": {"ios": "https://dc.lft.to/lastmile_qr_scan", "android": "https://dc.lft.to/lastmile_qr_scan"}, "fusion_lon": 0.0, "type": "electric_scooter", "bike_id": "5852bcf07d75b3a495fb7772051d9830", "name": "5852bcf07d75b3a495fb7772051d9830", "lat": 38.90417383333333, "is_disabled": 0, "lon": -76.990636, "fusion_lat": 0.0, "is_reserved": 0}, {"rental_uris": {"ios": "https://dc.lft.to/lastmile_qr_scan", "android": "https://dc.lft.to/lastmile_qr_scan"}, "fusion_lon": 0.0, "type": "electric_scooter", "bike_id": "b4ed35a844926e9372afb06634b6246d", "name": "b4ed35a844926e9372afb06634b6246d", "lat": 38.886401, "is_disabled": 0, "lon": -77.02256533333333, "fusion_lat": 0.0, "is_reserved": 0}, {"rental_uris": {"ios": "https://dc.lft.to/lastmile_qr_scan", "android": "https://dc.lft.to/lastmile_qr_scan"}, "fusion_lon": 0.0, "type": "electric_scooter", "bike_id": "d02771fda9b087b9e2eecd2e929f0c20", "name": "d02771fda9b087b9e2eecd2e929f0c20", "lat": 38.89257833333333, "is_disabled": 0, "lon": -76.941569, "fusion_lat": 0.0, "is_reserved": 0}, {"rental_uris": {"ios": "https://dc.lft.to/lastmile_qr_scan", "android": "https://dc.lft.to/lastmile_qr_scan"}, "fusion_lon": 0.0, "type": "electric_scooter", "bike_id": "d9594439caa60cab7d8af0731b2028f1", "name": "d9594439caa60cab7d8af0731b2028f1", "lat": 38.917432833333336, "is_disabled": 0, "lon": -77.03654616666667, "fusion_lat": 0.0, "is_reserved": 0}, {"rental_uris": {"ios": "https://dc.lft.to/lastmile_qr_scan", "android": "https://dc.lft.to/lastmile_qr_scan"}, "fusion_lon": 0.0, "type": "electric_scooter", "bike_id": "b8052b6587559a756f9981a9fa90152b", "name": "b8052b6587559a756f9981a9fa90152b", "lat": 38.90918033333333, "is_disabled": 0, "lon": -77.01526366666667, "fusion_lat": 0.0, "is_reserved": 0}, {"rental_uris": {"ios": "https://dc.lft.to/lastmile_qr_scan", "android": "https://dc.lft.to/lastmile_qr_scan"}, "fusion_lon": 0.0, "type": "electric_scooter", "bike_id": "bbc75846b97b65ddf9cf121d9c41761f", "name": "bbc75846b97b65ddf9cf121d9c41761f", "lat": 38.918729, "is_disabled": 0, "lon": -77.0418355, "fusion_lat": 0.0, "is_reserved": 0}, {"rental_uris": {"ios": "https://dc.lft.to/lastmile_qr_scan", "android": "https://dc.lft.to/lastmile_qr_scan"}, "fusion_lon": 0.0, "type": "electric_scooter", "bike_id": "3da6bcb9bffea0d15b902ddc86df811e", "name": "3da6bcb9bffea0d15b902ddc86df811e", "lat": 38.8991705, "is_disabled": 0, "lon": -76.93368483333333, "fusion_lat": 0.0, "is_reserved": 0}, {"rental_uris": {"ios": "https://dc.lft.to/lastmile_qr_scan", "android": "https://dc.lft.to/lastmile_qr_scan"}, "fusion_lon": 0.0, "type": "electric_scooter", "bike_id": "4c44c0f927b070edcd1dd5b4bb2df5c7", "name": "4c44c0f927b070edcd1dd5b4bb2df5c7", "lat": 38.9216235, "is_disabled": 0, "lon": -77.032546, "fusion_lat": 0.0, "is_reserved": 0}, {"rental_uris": {"ios": "https://dc.lft.to/lastmile_qr_scan", "android": "https://dc.lft.to/lastmile_qr_scan"}, "fusion_lon": 0.0, "type": "electric_scooter", "bike_id": "f23c101a97f5a5005005917e30e7e404", "name": "f23c101a97f5a5005005917e30e7e404", "lat": 38.86503316666666, "is_disabled": 0, "lon": -76.99002116666666, "fusion_lat": 0.0, "is_reserved": 0}, {"rental_uris": {"ios": "https://dc.lft.to/lastmile_qr_scan", "android": "https://dc.lft.to/lastmile_qr_scan"}, "fusion_lon": 0.0, "type": "electric_bike", "bike_id": "92d4f543869199cbb47c8fb0e1bddfd7", "name": "92d4f543869199cbb47c8fb0e1bddfd7", "lat": 38.90685933333334, "is_disabled": 0, "lon": -76.95193666666667, "fusion_lat": 0.0, "is_reserved": 0}, {"rental_uris": {"ios": "https://dc.lft.to/lastmile_qr_scan", "android": "https://dc.lft.to/lastmile_qr_scan"}, "fusion_lon": 0.0, "type": "electric_scooter", "bike_id": "5de316977fa7554cae349d75a8af992a", "name": "5de316977fa7554cae349d75a8af992a", "lat": 38.9110125, "is_disabled": 0, "lon": -77.031801, "fusion_lat": 0.0, "is_reserved": 0}, {"rental_uris": {"ios": "https://dc.lft.to/lastmile_qr_scan", "android": "https://dc.lft.to/lastmile_qr_scan"}, "fusion_lon": 0.0, "type": "electric_scooter", "bike_id": "41bb7af9bc8bff20d459463d4bac98ef", "name": "41bb7af9bc8bff20d459463d4bac98ef", "lat": 38.9141125, "is_disabled": 0, "lon": -77.04178583333334, "fusion_lat": 0.0, "is_reserved": 0}, {"rental_uris": {"ios": "https://dc.lft.to/lastmile_qr_scan", "android": "https://dc.lft.to/lastmile_qr_scan"}, "fusion_lon": 0.0, "type": "electric_scooter", "bike_id": "ae4f3c37f9d7f634d5a2841df49e3c90", "name": "ae4f3c37f9d7f634d5a2841df49e3c90", "lat": 38.910080666666666, "is_disabled": 0, "lon": -76.99398533333333, "fusion_lat": 0.0, "is_reserved": 0}, {"rental_uris": {"ios": "https://dc.lft.to/lastmile_qr_scan", "android": "https://dc.lft.to/lastmile_qr_scan"}, "fusion_lon": 0.0, "type": "electric_scooter", "bike_id": "30429ce3d546b0910db816fd40e4681d", "name": "30429ce3d546b0910db816fd40e4681d", "lat": 38.92111633333333, "is_disabled": 0, "lon": -77.0421815, "fusion_lat": 0.0, "is_reserved": 0}, {"rental_uris": {"ios": "https://dc.lft.to/lastmile_qr_scan", "android": "https://dc.lft.to/lastmile_qr_scan"}, "fusion_lon": 0.0, "type": "electric_bike", "bike_id": "21741c3b3754eb35e554ce8488fc787b", "name": "21741c3b3754eb35e554ce8488fc787b", "lat": 38.87482516666667, "is_disabled": 0, "lon": -76.96527333333333, "fusion_lat": 0.0, "is_reserved": 0}, {"rental_uris": {"ios": "https://dc.lft.to/lastmile_qr_scan", "android": "https://dc.lft.to/lastmile_qr_scan"}, "fusion_lon": 0.0, "type": "electric_scooter", "bike_id": "b07d261d5687aa1396a0c6829074fad3", "name": "b07d261d5687aa1396a0c6829074fad3", "lat": 38.910137666666664, "is_disabled": 0, "lon": -76.99387483333334, "fusion_lat": 0.0, "is_reserved": 0}, {"rental_uris": {"ios": "https://dc.lft.to/lastmile_qr_scan", "android": "https://dc.lft.to/lastmile_qr_scan"}, "fusion_lon": 0.0, "type": "electric_scooter", "bike_id": "74917c8d0a74dfc3516d92b40664e7bd", "name": "74917c8d0a74dfc3516d92b40664e7bd", "lat": 38.927393333333335, "is_disabled": 0, "lon": -77.01201283333333, "fusion_lat": 0.0, "is_reserved": 0}, {"rental_uris": {"ios": "https://dc.lft.to/lastmile_qr_scan", "android": "https://dc.lft.to/lastmile_qr_scan"}, "fusion_lon": 0.0, "type": "electric_scooter", "bike_id": "02dff454ff2c35f04064f283d3fe564b", "name": "02dff454ff2c35f04064f283d3fe564b", "lat": 38.93754166666667, "is_disabled": 0, "lon": -77.02495033333334, "fusion_lat": 0.0, "is_reserved": 0}, {"rental_uris": {"ios": "https://dc.lft.to/lastmile_qr_scan", "android": "https://dc.lft.to/lastmile_qr_scan"}, "fusion_lon": 0.0, "type": "electric_scooter", "bike_id": "b49c0ea9c48acf6f55be244fc18db784", "name": "b49c0ea9c48acf6f55be244fc18db784", "lat": 38.908643833333336, "is_disabled": 0, "lon": -77.02689566666666, "fusion_lat": 0.0, "is_reserved": 0}, {"rental_uris": {"ios": "https://dc.lft.to/lastmile_qr_scan", "android": "https://dc.lft.to/lastmile_qr_scan"}, "fusion_lon": 0.0, "type": "electric_scooter", "bike_id": "936c456b4e99624d7a7cf717c7fdbb01", "name": "936c456b4e99624d7a7cf717c7fdbb01", "lat": 38.84431266666667, "is_disabled": 0, "lon": -76.99778216666667, "fusion_lat": 0.0, "is_reserved": 0}, {"rental_uris": {"ios": "https://dc.lft.to/lastmile_qr_scan", "android": "https://dc.lft.to/lastmile_qr_scan"}, "fusion_lon": 0.0, "type": "electric_scooter", "bike_id": "93f19af66c8b9fdd5b90d224c8632630", "name": "93f19af66c8b9fdd5b90d224c8632630", "lat": 38.9325, "is_disabled": 0, "lon": -77.03276466666667, "fusion_lat": 0.0, "is_reserved": 0}, {"rental_uris": {"ios": "https://dc.lft.to/lastmile_qr_scan", "android": "https://dc.lft.to/lastmile_qr_scan"}, "fusion_lon": 0.0, "type": "electric_scooter", "bike_id": "15c5a2ec9a8b0eed8163c537b0c3453d", "name": "15c5a2ec9a8b0eed8163c537b0c3453d", "lat": 38.9053885, "is_disabled": 0, "lon": -77.05708816666667, "fusion_lat": 0.0, "is_reserved": 0}, {"rental_uris": {"ios": "https://dc.lft.to/lastmile_qr_scan", "android": "https://dc.lft.to/lastmile_qr_scan"}, "fusion_lon": 0.0, "type": "electric_scooter", "bike_id": "4697418a6562cb113620124185d5eb11", "name": "4697418a6562cb113620124185d5eb11", "lat": 38.885818666666665, "is_disabled": 0, "lon": -77.01542166666667, "fusion_lat": 0.0, "is_reserved": 0}, {"rental_uris": {"ios": "https://dc.lft.to/lastmile_qr_scan", "android": "https://dc.lft.to/lastmile_qr_scan"}, "fusion_lon": 0.0, "type": "electric_scooter", "bike_id": "9172c8845a86dad9ada76e68a6315191", "name": "9172c8845a86dad9ada76e68a6315191", "lat": 38.924670166666665, "is_disabled": 0, "lon": -77.0306145, "fusion_lat": 0.0, "is_reserved": 0}, {"rental_uris": {"ios": "https://dc.lft.to/lastmile_qr_scan", "android": "https://dc.lft.to/lastmile_qr_scan"}, "fusion_lon": 0.0, "type": "electric_scooter", "bike_id": "9a93cd282638b9413caa4e063c1d3ef6", "name": "9a93cd282638b9413caa4e063c1d3ef6", "lat": 38.8919635, "is_disabled": 0, "lon": -77.03173833333334, "fusion_lat": 0.0, "is_reserved": 0}, {"rental_uris": {"ios": "https://dc.lft.to/lastmile_qr_scan", "android": "https://dc.lft.to/lastmile_qr_scan"}, "fusion_lon": 0.0, "type": "electric_bike", "bike_id": "674f653a3091620f535517170a698729", "name": "674f653a3091620f535517170a698729", "lat": 38.95779016666667, "is_disabled": 0, "lon": -76.94091133333333, "fusion_lat": 0.0, "is_reserved": 0}, {"rental_uris": {"ios": "https://dc.lft.to/lastmile_qr_scan", "android": "https://dc.lft.to/lastmile_qr_scan"}, "fusion_lon": 0.0, "type": "electric_scooter", "bike_id": "8b3a2eae6097fdc7f13d08d563e16a31", "name": "8b3a2eae6097fdc7f13d08d563e16a31", "lat": 38.925823666666666, "is_disabled": 0, "lon": -77.0321165, "fusion_lat": 0.0, "is_reserved": 0}, {"rental_uris": {"ios": "https://dc.lft.to/lastmile_qr_scan", "android": "https://dc.lft.to/lastmile_qr_scan"}, "fusion_lon": 0.0, "type": "electric_scooter", "bike_id": "887b8e3db30a56e93eb1834572fa1c1c", "name": "887b8e3db30a56e93eb1834572fa1c1c", "lat": 38.9151415, "is_disabled": 0, "lon": -77.04612766666666, "fusion_lat": 0.0, "is_reserved": 0}, {"rental_uris": {"ios": "https://dc.lft.to/lastmile_qr_scan", "android": "https://dc.lft.to/lastmile_qr_scan"}, "fusion_lon": 0.0, "type": "electric_scooter", "bike_id": "b42d6522cfda9002bec9a8cb8b0acdf2", "name": "b42d6522cfda9002bec9a8cb8b0acdf2", "lat": 38.8936055, "is_disabled": 0, "lon": -76.94025633333334, "fusion_lat": 0.0, "is_reserved": 0}, {"rental_uris": {"ios": "https://dc.lft.to/lastmile_qr_scan", "android": "https://dc.lft.to/lastmile_qr_scan"}, "fusion_lon": 0.0, "type": "electric_scooter", "bike_id": "36155e92049ff0d52dc1257acddaca1c", "name": "36155e92049ff0d52dc1257acddaca1c", "lat": 38.91939966666666, "is_disabled": 0, "lon": -77.018051, "fusion_lat": 0.0, "is_reserved": 0}, {"rental_uris": {"ios": "https://dc.lft.to/lastmile_qr_scan", "android": "https://dc.lft.to/lastmile_qr_scan"}, "fusion_lon": 0.0, "type": "electric_scooter", "bike_id": "bbd3f9e2978ed110202b399f1833c041", "name": "bbd3f9e2978ed110202b399f1833c041", "lat": 38.8919935, "is_disabled": 0, "lon": -77.031738, "fusion_lat": 0.0, "is_reserved": 0}, {"rental_uris": {"ios": "https://dc.lft.to/lastmile_qr_scan", "android": "https://dc.lft.to/lastmile_qr_scan"}, "fusion_lon": 0.0, "type": "electric_scooter", "bike_id": "65b2483c528eb0be204b6e67b08375ba", "name": "65b2483c528eb0be204b6e67b08375ba", "lat": 38.8635585, "is_disabled": 0, "lon": -76.9905985, "fusion_lat": 0.0, "is_reserved": 0}, {"rental_uris": {"ios": "https://dc.lft.to/lastmile_qr_scan", "android": "https://dc.lft.to/lastmile_qr_scan"}, "fusion_lon": 0.0, "type": "electric_scooter", "bike_id": "0cf97928a332e174f29bca9206573ff4", "name": "0cf97928a332e174f29bca9206573ff4", "lat": 38.90488666666667, "is_disabled": 0, "lon": -77.02944116666667, "fusion_lat": 0.0, "is_reserved": 0}, {"rental_uris": {"ios": "https://dc.lft.to/lastmile_qr_scan", "android": "https://dc.lft.to/lastmile_qr_scan"}, "fusion_lon": 0.0, "type": "electric_scooter", "bike_id": "eb69b0515a9f909647f219d2d77e004c", "name": "eb69b0515a9f909647f219d2d77e004c", "lat": 38.918376333333335, "is_disabled": 0, "lon": -77.022904, "fusion_lat": 0.0, "is_reserved": 0}, {"rental_uris": {"ios": "https://dc.lft.to/lastmile_qr_scan", "android": "https://dc.lft.to/lastmile_qr_scan"}, "fusion_lon": 0.0, "type": "electric_scooter", "bike_id": "37753bd97f6987a01aa8bc4f5df95e10", "name": "37753bd97f6987a01aa8bc4f5df95e10", "lat": 38.911856, "is_disabled": 0, "lon": -77.00722683333333, "fusion_lat": 0.0, "is_reserved": 0}, {"rental_uris": {"ios": "https://dc.lft.to/lastmile_qr_scan", "android": "https://dc.lft.to/lastmile_qr_scan"}, "fusion_lon": 0.0, "type": "electric_bike", "bike_id": "03835410fdd8bce40e3f6fe68bc2e03a", "name": "03835410fdd8bce40e3f6fe68bc2e03a", "lat": 38.865536166666665, "is_disabled": 0, "lon": -76.97354266666666, "fusion_lat": 0.0, "is_reserved": 0}, {"rental_uris": {"ios": "https://dc.lft.to/lastmile_qr_scan", "android": "https://dc.lft.to/lastmile_qr_scan"}, "fusion_lon": 0.0, "type": "electric_scooter", "bike_id": "2974f84a1210e0bad8bb8f81bf795456", "name": "2974f84a1210e0bad8bb8f81bf795456", "lat": 38.92030166666667, "is_disabled": 0, "lon": -77.01143366666666, "fusion_lat": 0.0, "is_reserved": 0}, {"rental_uris": {"ios": "https://dc.lft.to/lastmile_qr_scan", "android": "https://dc.lft.to/lastmile_qr_scan"}, "fusion_lon": 0.0, "type": "electric_scooter", "bike_id": "74fdc70acaf9202bf9c4eac84067d70a", "name": "74fdc70acaf9202bf9c4eac84067d70a", "lat": 38.90722383333333, "is_disabled": 0, "lon": -77.02978483333334, "fusion_lat": 0.0, "is_reserved": 0}, {"rental_uris": {"ios": "https://dc.lft.to/lastmile_qr_scan", "android": "https://dc.lft.to/lastmile_qr_scan"}, "fusion_lon": 0.0, "type": "electric_scooter", "bike_id": "fbbb61b9c56e598814c11992534f0b47", "name": "fbbb61b9c56e598814c11992534f0b47", "lat": 38.93004066666666, "is_disabled": 0, "lon": -77.07840883333333, "fusion_lat": 0.0, "is_reserved": 0}, {"rental_uris": {"ios": "https://dc.lft.to/lastmile_qr_scan", "android": "https://dc.lft.to/lastmile_qr_scan"}, "fusion_lon": 0.0, "type": "electric_scooter", "bike_id": "50434cbcdacf00e08c807ac7223d1dce", "name": "50434cbcdacf00e08c807ac7223d1dce", "lat": 38.903187833333334, "is_disabled": 0, "lon": -77.02456583333333, "fusion_lat": 0.0, "is_reserved": 0}, {"rental_uris": {"ios": "https://dc.lft.to/lastmile_qr_scan", "android": "https://dc.lft.to/lastmile_qr_scan"}, "fusion_lon": 0.0, "type": "electric_scooter", "bike_id": "bc9308768dabecb010475779bf397ed8", "name": "bc9308768dabecb010475779bf397ed8", "lat": 38.93715366666667, "is_disabled": 0, "lon": -77.032626, "fusion_lat": 0.0, "is_reserved": 0}, {"rental_uris": {"ios": "https://dc.lft.to/lastmile_qr_scan", "android": "https://dc.lft.to/lastmile_qr_scan"}, "fusion_lon": 0.0, "type": "electric_scooter", "bike_id": "a50de8a750ea0666c50dfd3ddb9eb1e1", "name": "a50de8a750ea0666c50dfd3ddb9eb1e1", "lat": 38.918415833333334, "is_disabled": 0, "lon": -77.03213333333333, "fusion_lat": 0.0, "is_reserved": 0}, {"rental_uris": {"ios": "https://dc.lft.to/lastmile_qr_scan", "android": "https://dc.lft.to/lastmile_qr_scan"}, "fusion_lon": 0.0, "type": "electric_scooter", "bike_id": "f30e250d7aca4e5932c2a321644f20e9", "name": "f30e250d7aca4e5932c2a321644f20e9", "lat": 38.927788, "is_disabled": 0, "lon": -77.0141435, "fusion_lat": 0.0, "is_reserved": 0}, {"rental_uris": {"ios": "https://dc.lft.to/lastmile_qr_scan", "android": "https://dc.lft.to/lastmile_qr_scan"}, "fusion_lon": 0.0, "type": "electric_scooter", "bike_id": "815718bb39468d83a111d61359066781", "name": "815718bb39468d83a111d61359066781", "lat": 38.904594833333334, "is_disabled": 0, "lon": -77.01715266666666, "fusion_lat": 0.0, "is_reserved": 0}, {"rental_uris": {"ios": "https://dc.lft.to/lastmile_qr_scan", "android": "https://dc.lft.to/lastmile_qr_scan"}, "fusion_lon": 0.0, "type": "electric_scooter", "bike_id": "8137da33aad3dcb5bb3a54d587628856", "name": "8137da33aad3dcb5bb3a54d587628856", "lat": 38.86354216666667, "is_disabled": 0, "lon": -76.9907575, "fusion_lat": 0.0, "is_reserved": 0}, {"rental_uris": {"ios": "https://dc.lft.to/lastmile_qr_scan", "android": "https://dc.lft.to/lastmile_qr_scan"}, "fusion_lon": 0.0, "type": "electric_bike", "bike_id": "4bd586d5ca7da60626cd96cd1387030c", "name": "4bd586d5ca7da60626cd96cd1387030c", "lat": 38.99060566666667, "is_disabled": 0, "lon": -77.100276, "fusion_lat": 0.0, "is_reserved": 0}, {"rental_uris": {"ios": "https://dc.lft.to/lastmile_qr_scan", "android": "https://dc.lft.to/lastmile_qr_scan"}, "fusion_lon": 0.0, "type": "electric_scooter", "bike_id": "b5ed73377f55340f574b055af7e24929", "name": "b5ed73377f55340f574b055af7e24929", "lat": 38.912347833333335, "is_disabled": 0, "lon": -77.04858033333333, "fusion_lat": 0.0, "is_reserved": 0}, {"rental_uris": {"ios": "https://dc.lft.to/lastmile_qr_scan", "android": "https://dc.lft.to/lastmile_qr_scan"}, "fusion_lon": 0.0, "type": "electric_scooter", "bike_id": "608e5091b7508e262b0a76824e800793", "name": "608e5091b7508e262b0a76824e800793", "lat": 38.917122666666664, "is_disabled": 0, "lon": -77.02577933333333, "fusion_lat": 0.0, "is_reserved": 0}, {"rental_uris": {"ios": "https://dc.lft.to/lastmile_qr_scan", "android": "https://dc.lft.to/lastmile_qr_scan"}, "fusion_lon": 0.0, "type": "electric_scooter", "bike_id": "4f2d581e2077de9a667962f082b6acd9", "name": "4f2d581e2077de9a667962f082b6acd9", "lat": 38.90845633333333, "is_disabled": 0, "lon": -77.03456883333334, "fusion_lat": 0.0, "is_reserved": 0}, {"rental_uris": {"ios": "https://dc.lft.to/lastmile_qr_scan", "android": "https://dc.lft.to/lastmile_qr_scan"}, "fusion_lon": 0.0, "type": "electric_scooter", "bike_id": "61afe05ddcb7fdfc70cc29223bec0561", "name": "61afe05ddcb7fdfc70cc29223bec0561", "lat": 38.90460016666667, "is_disabled": 0, "lon": -77.02811016666666, "fusion_lat": 0.0, "is_reserved": 0}, {"rental_uris": {"ios": "https://dc.lft.to/lastmile_qr_scan", "android": "https://dc.lft.to/lastmile_qr_scan"}, "fusion_lon": 0.0, "type": "electric_bike", "bike_id": "fe274756ca3b9225ad7fc90b2fd9d064", "name": "fe274756ca3b9225ad7fc90b2fd9d064", "lat": 38.990907, "is_disabled": 0, "lon": -76.87494633333333, "fusion_lat": 0.0, "is_reserved": 0}, {"rental_uris": {"ios": "https://dc.lft.to/lastmile_qr_scan", "android": "https://dc.lft.to/lastmile_qr_scan"}, "fusion_lon": 0.0, "type": "electric_scooter", "bike_id": "6ec858d4366246f865a22a072d285113", "name": "6ec858d4366246f865a22a072d285113", "lat": 38.885126666666665, "is_disabled": 0, "lon": -77.00565066666667, "fusion_lat": 0.0, "is_reserved": 0}, {"rental_uris": {"ios": "https://dc.lft.to/lastmile_qr_scan", "android": "https://dc.lft.to/lastmile_qr_scan"}, "fusion_lon": 0.0, "type": "electric_scooter", "bike_id": "fe1016980edcef47f4e2861514685906", "name": "fe1016980edcef47f4e2861514685906", "lat": 38.9041375, "is_disabled": 0, "lon": -77.02576883333333, "fusion_lat": 0.0, "is_reserved": 0}, {"rental_uris": {"ios": "https://dc.lft.to/lastmile_qr_scan", "android": "https://dc.lft.to/lastmile_qr_scan"}, "fusion_lon": 0.0, "type": "electric_scooter", "bike_id": "b3f354b4cd65f0099137fd2778b89b6a", "name": "b3f354b4cd65f0099137fd2778b89b6a", "lat": 38.956015, "is_disabled": 0, "lon": -77.0098, "fusion_lat": 0.0, "is_reserved": 0}, {"rental_uris": {"ios": "https://dc.lft.to/lastmile_qr_scan", "android": "https://dc.lft.to/lastmile_qr_scan"}, "fusion_lon": 0.0, "type": "electric_scooter", "bike_id": "7cfd58053b60b10d6db56dac7f15cdb5", "name": "7cfd58053b60b10d6db56dac7f15cdb5", "lat": 38.87699216666667, "is_disabled": 0, "lon": -77.0173355, "fusion_lat": 0.0, "is_reserved": 0}, {"rental_uris": {"ios": "https://dc.lft.to/lastmile_qr_scan", "android": "https://dc.lft.to/lastmile_qr_scan"}, "fusion_lon": 0.0, "type": "electric_bike", "bike_id": "32d88cbde07e39016356082820776bb5", "name": "32d88cbde07e39016356082820776bb5", "lat": 38.87494516666667, "is_disabled": 0, "lon": -77.04899233333333, "fusion_lat": 0.0, "is_reserved": 0}, {"rental_uris": {"ios": "https://dc.lft.to/lastmile_qr_scan", "android": "https://dc.lft.to/lastmile_qr_scan"}, "fusion_lon": 0.0, "type": "electric_scooter", "bike_id": "e585f22b0789b332b173e68b0100a404", "name": "e585f22b0789b332b173e68b0100a404", "lat": 38.89867316666667, "is_disabled": 0, "lon": -77.033572, "fusion_lat": 0.0, "is_reserved": 0}, {"rental_uris": {"ios": "https://dc.lft.to/lastmile_qr_scan", "android": "https://dc.lft.to/lastmile_qr_scan"}, "fusion_lon": 0.0, "type": "electric_scooter", "bike_id": "72c51f08cb25c63132f36fd0bca9dfe8", "name": "72c51f08cb25c63132f36fd0bca9dfe8", "lat": 38.912238, "is_disabled": 0, "lon": -77.0319965, "fusion_lat": 0.0, "is_reserved": 0}, {"rental_uris": {"ios": "https://dc.lft.to/lastmile_qr_scan", "android": "https://dc.lft.to/lastmile_qr_scan"}, "fusion_lon": 0.0, "type": "electric_scooter", "bike_id": "e83197b1195341d456825628f7466019", "name": "e83197b1195341d456825628f7466019", "lat": 38.96212633333333, "is_disabled": 0, "lon": -77.027989, "fusion_lat": 0.0, "is_reserved": 0}, {"rental_uris": {"ios": "https://dc.lft.to/lastmile_qr_scan", "android": "https://dc.lft.to/lastmile_qr_scan"}, "fusion_lon": 0.0, "type": "electric_scooter", "bike_id": "240d890f78fc4216f842839b97895030", "name": "240d890f78fc4216f842839b97895030", "lat": 38.902541666666664, "is_disabled": 0, "lon": -77.06263616666666, "fusion_lat": 0.0, "is_reserved": 0}, {"rental_uris": {"ios": "https://dc.lft.to/lastmile_qr_scan", "android": "https://dc.lft.to/lastmile_qr_scan"}, "fusion_lon": 0.0, "type": "electric_scooter", "bike_id": "0175dd5f32e55f309eec3c7586a2efec", "name": "0175dd5f32e55f309eec3c7586a2efec", "lat": 38.91545333333333, "is_disabled": 0, "lon": -77.0386695, "fusion_lat": 0.0, "is_reserved": 0}, {"rental_uris": {"ios": "https://dc.lft.to/lastmile_qr_scan", "android": "https://dc.lft.to/lastmile_qr_scan"}, "fusion_lon": 0.0, "type": "electric_scooter", "bike_id": "34500fe6b92234d8815c42bb2c725ee8", "name": "34500fe6b92234d8815c42bb2c725ee8", "lat": 38.926031, "is_disabled": 0, "lon": -77.02154016666667, "fusion_lat": 0.0, "is_reserved": 0}, {"rental_uris": {"ios": "https://dc.lft.to/lastmile_qr_scan", "android": "https://dc.lft.to/lastmile_qr_scan"}, "fusion_lon": 0.0, "type": "electric_scooter", "bike_id": "a7b42660e68b981d29702c092576c460", "name": "a7b42660e68b981d29702c092576c460", "lat": 38.92980716666667, "is_disabled": 0, "lon": -77.05504633333334, "fusion_lat": 0.0, "is_reserved": 0}, {"rental_uris": {"ios": "https://dc.lft.to/lastmile_qr_scan", "android": "https://dc.lft.to/lastmile_qr_scan"}, "fusion_lon": 0.0, "type": "electric_scooter", "bike_id": "9f56b22c1531e8cd113a143fa92b9db5", "name": "9f56b22c1531e8cd113a143fa92b9db5", "lat": 38.90251833333333, "is_disabled": 0, "lon": -76.94624966666666, "fusion_lat": 0.0, "is_reserved": 0}, {"rental_uris": {"ios": "https://dc.lft.to/lastmile_qr_scan", "android": "https://dc.lft.to/lastmile_qr_scan"}, "fusion_lon": 0.0, "type": "electric_scooter", "bike_id": "715618185a7e425c38cfdbb86c601ef4", "name": "715618185a7e425c38cfdbb86c601ef4", "lat": 38.90024316666667, "is_disabled": 0, "lon": -77.04391033333333, "fusion_lat": 0.0, "is_reserved": 0}, {"rental_uris": {"ios": "https://dc.lft.to/lastmile_qr_scan", "android": "https://dc.lft.to/lastmile_qr_scan"}, "fusion_lon": 0.0, "type": "electric_scooter", "bike_id": "261cf110a6dc9fdb4e6b13fd6a59a18b", "name": "261cf110a6dc9fdb4e6b13fd6a59a18b", "lat": 38.904938, "is_disabled": 0, "lon": -77.06121233333333, "fusion_lat": 0.0, "is_reserved": 0}, {"rental_uris": {"ios": "https://dc.lft.to/lastmile_qr_scan", "android": "https://dc.lft.to/lastmile_qr_scan"}, "fusion_lon": 0.0, "type": "electric_scooter", "bike_id": "9c49564cfac27738a29266100786e896", "name": "9c49564cfac27738a29266100786e896", "lat": 38.928141833333335, "is_disabled": 0, "lon": -77.023492, "fusion_lat": 0.0, "is_reserved": 0}, {"rental_uris": {"ios": "https://dc.lft.to/lastmile_qr_scan", "android": "https://dc.lft.to/lastmile_qr_scan"}, "fusion_lon": 0.0, "type": "electric_scooter", "bike_id": "462c687147f29a1d505c092d5ffdfbda", "name": "462c687147f29a1d505c092d5ffdfbda", "lat": 38.906258333333334, "is_disabled": 0, "lon": -77.034439, "fusion_lat": 0.0, "is_reserved": 0}, {"rental_uris": {"ios": "https://dc.lft.to/lastmile_qr_scan", "android": "https://dc.lft.to/lastmile_qr_scan"}, "fusion_lon": 0.0, "type": "electric_bike", "bike_id": "4bba2e2f20964d1803bd53562e9a6b51", "name": "4bba2e2f20964d1803bd53562e9a6b51", "lat": 38.944743, "is_disabled": 0, "lon": -77.00644366666667, "fusion_lat": 0.0, "is_reserved": 0}, {"rental_uris": {"ios": "https://dc.lft.to/lastmile_qr_scan", "android": "https://dc.lft.to/lastmile_qr_scan"}, "fusion_lon": 0.0, "type": "electric_scooter", "bike_id": "ac853e3aabd9a67cf96f1d4270d519e5", "name": "ac853e3aabd9a67cf96f1d4270d519e5", "lat": 38.92163333333333, "is_disabled": 0, "lon": -76.99401083333333, "fusion_lat": 0.0, "is_reserved": 0}, {"rental_uris": {"ios": "https://dc.lft.to/lastmile_qr_scan", "android": "https://dc.lft.to/lastmile_qr_scan"}, "fusion_lon": 0.0, "type": "electric_scooter", "bike_id": "7e9efe29547ce0f8dd17c441c3d573f1", "name": "7e9efe29547ce0f8dd17c441c3d573f1", "lat": 38.934254333333335, "is_disabled": 0, "lon": -77.0583465, "fusion_lat": 0.0, "is_reserved": 0}, {"rental_uris": {"ios": "https://dc.lft.to/lastmile_qr_scan", "android": "https://dc.lft.to/lastmile_qr_scan"}, "fusion_lon": 0.0, "type": "electric_scooter", "bike_id": "00a5fd1a8b3da05e3092067434b2ee4a", "name": "00a5fd1a8b3da05e3092067434b2ee4a", "lat": 38.90549766666667, "is_disabled": 0, "lon": -77.0443755, "fusion_lat": 0.0, "is_reserved": 0}, {"rental_uris": {"ios": "https://dc.lft.to/lastmile_qr_scan", "android": "https://dc.lft.to/lastmile_qr_scan"}, "fusion_lon": 0.0, "type": "electric_bike", "bike_id": "6c01105c0d8acd2b4bde380cc775511a", "name": "6c01105c0d8acd2b4bde380cc775511a", "lat": 38.9455015, "is_disabled": 0, "lon": -77.05108216666666, "fusion_lat": 0.0, "is_reserved": 0}, {"rental_uris": {"ios": "https://dc.lft.to/lastmile_qr_scan", "android": "https://dc.lft.to/lastmile_qr_scan"}, "fusion_lon": 0.0, "type": "electric_scooter", "bike_id": "1edba71dd4eb2fcc3b4781ba6704bba7", "name": "1edba71dd4eb2fcc3b4781ba6704bba7", "lat": 38.90968733333333, "is_disabled": 0, "lon": -77.02173333333333, "fusion_lat": 0.0, "is_reserved": 0}, {"rental_uris": {"ios": "https://dc.lft.to/lastmile_qr_scan", "android": "https://dc.lft.to/lastmile_qr_scan"}, "fusion_lon": 0.0, "type": "electric_bike", "bike_id": "d75952203ee8c0940ae7d7e66f9389f3", "name": "d75952203ee8c0940ae7d7e66f9389f3", "lat": 38.8685905, "is_disabled": 0, "lon": -76.91656533333334, "fusion_lat": 0.0, "is_reserved": 0}, {"rental_uris": {"ios": "https://dc.lft.to/lastmile_qr_scan", "android": "https://dc.lft.to/lastmile_qr_scan"}, "fusion_lon": 0.0, "type": "electric_scooter", "bike_id": "bf8f3ed42d6b7a2df9207be2b672ba06", "name": "bf8f3ed42d6b7a2df9207be2b672ba06", "lat": 38.9141815, "is_disabled": 0, "lon": -77.03904916666667, "fusion_lat": 0.0, "is_reserved": 0}, {"rental_uris": {"ios": "https://dc.lft.to/lastmile_qr_scan", "android": "https://dc.lft.to/lastmile_qr_scan"}, "fusion_lon": 0.0, "type": "electric_scooter", "bike_id": "6c3b01816e92d76718605bf75b163761", "name": "6c3b01816e92d76718605bf75b163761", "lat": 38.884972166666664, "is_disabled": 0, "lon": -77.00562916666667, "fusion_lat": 0.0, "is_reserved": 0}, {"rental_uris": {"ios": "https://dc.lft.to/lastmile_qr_scan", "android": "https://dc.lft.to/lastmile_qr_scan"}, "fusion_lon": 0.0, "type": "electric_bike", "bike_id": "c6eed098bbb883726d64ebb00e6e0d86", "name": "c6eed098bbb883726d64ebb00e6e0d86", "lat": 38.9318745, "is_disabled": 0, "lon": -77.2294095, "fusion_lat": 0.0, "is_reserved": 0}, {"rental_uris": {"ios": "https://dc.lft.to/lastmile_qr_scan", "android": "https://dc.lft.to/lastmile_qr_scan"}, "fusion_lon": 0.0, "type": "electric_scooter", "bike_id": "06a08a7f68cbcd4de740d2375d3d85f7", "name": "06a08a7f68cbcd4de740d2375d3d85f7", "lat": 38.917486, "is_disabled": 0, "lon": -77.02491633333334, "fusion_lat": 0.0, "is_reserved": 0}, {"rental_uris": {"ios": "https://dc.lft.to/lastmile_qr_scan", "android": "https://dc.lft.to/lastmile_qr_scan"}, "fusion_lon": 0.0, "type": "electric_scooter", "bike_id": "fc4b72ec93d9827d33e48dfa15a958f3", "name": "fc4b72ec93d9827d33e48dfa15a958f3", "lat": 38.900862833333335, "is_disabled": 0, "lon": -77.03197633333333, "fusion_lat": 0.0, "is_reserved": 0}, {"rental_uris": {"ios": "https://dc.lft.to/lastmile_qr_scan", "android": "https://dc.lft.to/lastmile_qr_scan"}, "fusion_lon": 0.0, "type": "electric_bike", "bike_id": "c0b84eb5ee1c7b6c04b7603d3cd6a310", "name": "c0b84eb5ee1c7b6c04b7603d3cd6a310", "lat": 38.9925155, "is_disabled": 0, "lon": -77.04995716666667, "fusion_lat": 0.0, "is_reserved": 0}, {"rental_uris": {"ios": "https://dc.lft.to/lastmile_qr_scan", "android": "https://dc.lft.to/lastmile_qr_scan"}, "fusion_lon": 0.0, "type": "electric_scooter", "bike_id": "c2f40efeedec2d71f06527d016a1807a", "name": "c2f40efeedec2d71f06527d016a1807a", "lat": 38.925734166666665, "is_disabled": 0, "lon": -76.99493, "fusion_lat": 0.0, "is_reserved": 0}, {"rental_uris": {"ios": "https://dc.lft.to/lastmile_qr_scan", "android": "https://dc.lft.to/lastmile_qr_scan"}, "fusion_lon": 0.0, "type": "electric_scooter", "bike_id": "aa10ce5183143aa32bdc8d9abdf6e69d", "name": "aa10ce5183143aa32bdc8d9abdf6e69d", "lat": 38.91968116666666, "is_disabled": 0, "lon": -77.046352, "fusion_lat": 0.0, "is_reserved": 0}, {"rental_uris": {"ios": "https://dc.lft.to/lastmile_qr_scan", "android": "https://dc.lft.to/lastmile_qr_scan"}, "fusion_lon": 0.0, "type": "electric_scooter", "bike_id": "5fa435df22f725e1f8b1028700936af3", "name": "5fa435df22f725e1f8b1028700936af3", "lat": 38.90647366666666, "is_disabled": 0, "lon": -77.005878, "fusion_lat": 0.0, "is_reserved": 0}, {"rental_uris": {"ios": "https://dc.lft.to/lastmile_qr_scan", "android": "https://dc.lft.to/lastmile_qr_scan"}, "fusion_lon": 0.0, "type": "electric_scooter", "bike_id": "65fdbb64dd41e05054ca4684e95e84af", "name": "65fdbb64dd41e05054ca4684e95e84af", "lat": 38.89997483333333, "is_disabled": 0, "lon": -76.92231833333334, "fusion_lat": 0.0, "is_reserved": 0}, {"rental_uris": {"ios": "https://dc.lft.to/lastmile_qr_scan", "android": "https://dc.lft.to/lastmile_qr_scan"}, "fusion_lon": 0.0, "type": "electric_scooter", "bike_id": "cb32dc6d7fef54ed3109c08e7a8c7ea8", "name": "cb32dc6d7fef54ed3109c08e7a8c7ea8", "lat": 38.899338666666665, "is_disabled": 0, "lon": -77.0402675, "fusion_lat": 0.0, "is_reserved": 0}, {"rental_uris": {"ios": "https://dc.lft.to/lastmile_qr_scan", "android": "https://dc.lft.to/lastmile_qr_scan"}, "fusion_lon": 0.0, "type": "electric_scooter", "bike_id": "a2e73feaf2ceb216175b495e33bdb5ef", "name": "a2e73feaf2ceb216175b495e33bdb5ef", "lat": 38.8830245, "is_disabled": 0, "lon": -76.94284783333333, "fusion_lat": 0.0, "is_reserved": 0}, {"rental_uris": {"ios": "https://dc.lft.to/lastmile_qr_scan", "android": "https://dc.lft.to/lastmile_qr_scan"}, "fusion_lon": 0.0, "type": "electric_scooter", "bike_id": "e324efb5c1f37210827a5bf8bac41e5a", "name": "e324efb5c1f37210827a5bf8bac41e5a", "lat": 38.898849166666665, "is_disabled": 0, "lon": -77.03278616666667, "fusion_lat": 0.0, "is_reserved": 0}, {"rental_uris": {"ios": "https://dc.lft.to/lastmile_qr_scan", "android": "https://dc.lft.to/lastmile_qr_scan"}, "fusion_lon": 0.0, "type": "electric_scooter", "bike_id": "4e3aaab11e345f8f5cea062e1301b4c8", "name": "4e3aaab11e345f8f5cea062e1301b4c8", "lat": 38.921568666666666, "is_disabled": 0, "lon": -77.0338155, "fusion_lat": 0.0, "is_reserved": 0}, {"rental_uris": {"ios": "https://dc.lft.to/lastmile_qr_scan", "android": "https://dc.lft.to/lastmile_qr_scan"}, "fusion_lon": 0.0, "type": "electric_scooter", "bike_id": "cbbe754adbbf082c3f7231d5cbe2cc75", "name": "cbbe754adbbf082c3f7231d5cbe2cc75", "lat": 38.918073666666665, "is_disabled": 0, "lon": -77.02688183333333, "fusion_lat": 0.0, "is_reserved": 0}, {"rental_uris": {"ios": "https://dc.lft.to/lastmile_qr_scan", "android": "https://dc.lft.to/lastmile_qr_scan"}, "fusion_lon": 0.0, "type": "electric_scooter", "bike_id": "6690520e1dd6db5e5480775bea542031", "name": "6690520e1dd6db5e5480775bea542031", "lat": 38.922375, "is_disabled": 0, "lon": -77.02874833333334, "fusion_lat": 0.0, "is_reserved": 0}, {"rental_uris": {"ios": "https://dc.lft.to/lastmile_qr_scan", "android": "https://dc.lft.to/lastmile_qr_scan"}, "fusion_lon": 0.0, "type": "electric_scooter", "bike_id": "c7853186cca99136e8aff3f26c2ec703", "name": "c7853186cca99136e8aff3f26c2ec703", "lat": 38.94179716666667, "is_disabled": 0, "lon": -77.03653733333333, "fusion_lat": 0.0, "is_reserved": 0}, {"rental_uris": {"ios": "https://dc.lft.to/lastmile_qr_scan", "android": "https://dc.lft.to/lastmile_qr_scan"}, "fusion_lon": 0.0, "type": "electric_scooter", "bike_id": "a164ab16ac17614f25ad6c1dcce4070d", "name": "a164ab16ac17614f25ad6c1dcce4070d", "lat": 38.9234815, "is_disabled": 0, "lon": -77.03513933333333, "fusion_lat": 0.0, "is_reserved": 0}, {"rental_uris": {"ios": "https://dc.lft.to/lastmile_qr_scan", "android": "https://dc.lft.to/lastmile_qr_scan"}, "fusion_lon": 0.0, "type": "electric_scooter", "bike_id": "a45432606095111a2948a5bfa8a8fb1c", "name": "a45432606095111a2948a5bfa8a8fb1c", "lat": 38.8983315, "is_disabled": 0, "lon": -77.00749316666666, "fusion_lat": 0.0, "is_reserved": 0}, {"rental_uris": {"ios": "https://dc.lft.to/lastmile_qr_scan", "android": "https://dc.lft.to/lastmile_qr_scan"}, "fusion_lon": 0.0, "type": "electric_scooter", "bike_id": "8f3277993977b5cdef3fe39f051bcfa9", "name": "8f3277993977b5cdef3fe39f051bcfa9", "lat": 38.918166166666666, "is_disabled": 0, "lon": -77.04003683333333, "fusion_lat": 0.0, "is_reserved": 0}, {"rental_uris": {"ios": "https://dc.lft.to/lastmile_qr_scan", "android": "https://dc.lft.to/lastmile_qr_scan"}, "fusion_lon": 0.0, "type": "electric_scooter", "bike_id": "30ea190e9d8c0784813d00e806993a9b", "name": "30ea190e9d8c0784813d00e806993a9b", "lat": 38.923405833333334, "is_disabled": 0, "lon": -77.0351205, "fusion_lat": 0.0, "is_reserved": 0}, {"rental_uris": {"ios": "https://dc.lft.to/lastmile_qr_scan", "android": "https://dc.lft.to/lastmile_qr_scan"}, "fusion_lon": 0.0, "type": "electric_scooter", "bike_id": "402523cc467077fc6eaf36859f7ac5b1", "name": "402523cc467077fc6eaf36859f7ac5b1", "lat": 38.89605516666666, "is_disabled": 0, "lon": -77.029407, "fusion_lat": 0.0, "is_reserved": 0}, {"rental_uris": {"ios": "https://dc.lft.to/lastmile_qr_scan", "android": "https://dc.lft.to/lastmile_qr_scan"}, "fusion_lon": 0.0, "type": "electric_scooter", "bike_id": "92d68fe216c85f30d197eb2b3471c3da", "name": "92d68fe216c85f30d197eb2b3471c3da", "lat": 38.9564745, "is_disabled": 0, "lon": -77.014965, "fusion_lat": 0.0, "is_reserved": 0}, {"rental_uris": {"ios": "https://dc.lft.to/lastmile_qr_scan", "android": "https://dc.lft.to/lastmile_qr_scan"}, "fusion_lon": 0.0, "type": "electric_scooter", "bike_id": "160b3a7ab140ec1a8262ca29fa28855d", "name": "160b3a7ab140ec1a8262ca29fa28855d", "lat": 38.897722333333334, "is_disabled": 0, "lon": -77.02491816666667, "fusion_lat": 0.0, "is_reserved": 0}, {"rental_uris": {"ios": "https://dc.lft.to/lastmile_qr_scan", "android": "https://dc.lft.to/lastmile_qr_scan"}, "fusion_lon": 0.0, "type": "electric_scooter", "bike_id": "536961ec940d5d23cd46263c82cf7ad1", "name": "536961ec940d5d23cd46263c82cf7ad1", "lat": 38.90192566666666, "is_disabled": 0, "lon": -77.0478605, "fusion_lat": 0.0, "is_reserved": 0}, {"rental_uris": {"ios": "https://dc.lft.to/lastmile_qr_scan", "android": "https://dc.lft.to/lastmile_qr_scan"}, "fusion_lon": 0.0, "type": "electric_scooter", "bike_id": "e7dd84b4fe8b62814e08411f53e2b0bb", "name": "e7dd84b4fe8b62814e08411f53e2b0bb", "lat": 38.89486816666667, "is_disabled": 0, "lon": -77.00213016666666, "fusion_lat": 0.0, "is_reserved": 0}, {"rental_uris": {"ios": "https://dc.lft.to/lastmile_qr_scan", "android": "https://dc.lft.to/lastmile_qr_scan"}, "fusion_lon": 0.0, "type": "electric_scooter", "bike_id": "05a7e044cba0014191c3fe5616dd3eda", "name": "05a7e044cba0014191c3fe5616dd3eda", "lat": 38.916895833333335, "is_disabled": 0, "lon": -77.0376115, "fusion_lat": 0.0, "is_reserved": 0}, {"rental_uris": {"ios": "https://dc.lft.to/lastmile_qr_scan", "android": "https://dc.lft.to/lastmile_qr_scan"}, "fusion_lon": 0.0, "type": "electric_scooter", "bike_id": "0176c898e9fd2d38f37e2109528a4e58", "name": "0176c898e9fd2d38f37e2109528a4e58", "lat": 38.907281833333336, "is_disabled": 0, "lon": -77.04009533333333, "fusion_lat": 0.0, "is_reserved": 0}, {"rental_uris": {"ios": "https://dc.lft.to/lastmile_qr_scan", "android": "https://dc.lft.to/lastmile_qr_scan"}, "fusion_lon": 0.0, "type": "electric_scooter", "bike_id": "457f8b102e378095f86a3c2cbbee4bb4", "name": "457f8b102e378095f86a3c2cbbee4bb4", "lat": 38.89220983333333, "is_disabled": 0, "lon": -77.02263866666667, "fusion_lat": 0.0, "is_reserved": 0}, {"rental_uris": {"ios": "https://dc.lft.to/lastmile_qr_scan", "android": "https://dc.lft.to/lastmile_qr_scan"}, "fusion_lon": 0.0, "type": "electric_scooter", "bike_id": "bcd35af5fee04e9c32a27675dc989cac", "name": "bcd35af5fee04e9c32a27675dc989cac", "lat": 38.918984333333334, "is_disabled": 0, "lon": -77.003108, "fusion_lat": 0.0, "is_reserved": 0}, {"rental_uris": {"ios": "https://dc.lft.to/lastmile_qr_scan", "android": "https://dc.lft.to/lastmile_qr_scan"}, "fusion_lon": 0.0, "type": "electric_scooter", "bike_id": "b49ca8c2a6596629b555999f19727746", "name": "b49ca8c2a6596629b555999f19727746", "lat": 38.9227505, "is_disabled": 0, "lon": -77.044618, "fusion_lat": 0.0, "is_reserved": 0}, {"rental_uris": {"ios": "https://dc.lft.to/lastmile_qr_scan", "android": "https://dc.lft.to/lastmile_qr_scan"}, "fusion_lon": 0.0, "type": "electric_scooter", "bike_id": "4534b03b9e5f90403572868228b0fbb7", "name": "4534b03b9e5f90403572868228b0fbb7", "lat": 38.93598133333333, "is_disabled": 0, "lon": -77.037607, "fusion_lat": 0.0, "is_reserved": 0}, {"rental_uris": {"ios": "https://dc.lft.to/lastmile_qr_scan", "android": "https://dc.lft.to/lastmile_qr_scan"}, "fusion_lon": 0.0, "type": "electric_bike", "bike_id": "a31adf7d1df9bcc56df05317a731a55b", "name": "a31adf7d1df9bcc56df05317a731a55b", "lat": 38.8653555, "is_disabled": 0, "lon": -77.12819316666666, "fusion_lat": 0.0, "is_reserved": 0}, {"rental_uris": {"ios": "https://dc.lft.to/lastmile_qr_scan", "android": "https://dc.lft.to/lastmile_qr_scan"}, "fusion_lon": 0.0, "type": "electric_scooter", "bike_id": "7e5d36c46a2d3cb2d312313397d8b4c2", "name": "7e5d36c46a2d3cb2d312313397d8b4c2", "lat": 38.9226335, "is_disabled": 0, "lon": -77.04221516666667, "fusion_lat": 0.0, "is_reserved": 0}, {"rental_uris": {"ios": "https://dc.lft.to/lastmile_qr_scan", "android": "https://dc.lft.to/lastmile_qr_scan"}, "fusion_lon": 0.0, "type": "electric_scooter", "bike_id": "e0b1ae217fcb09aa9122a51d4ac3ae3b", "name": "e0b1ae217fcb09aa9122a51d4ac3ae3b", "lat": 38.863601, "is_disabled": 0, "lon": -76.9906115, "fusion_lat": 0.0, "is_reserved": 0}, {"rental_uris": {"ios": "https://dc.lft.to/lastmile_qr_scan", "android": "https://dc.lft.to/lastmile_qr_scan"}, "fusion_lon": 0.0, "type": "electric_bike", "bike_id": "41fd4f8d4b59c97b3adcc0311e17a170", "name": "41fd4f8d4b59c97b3adcc0311e17a170", "lat": 38.82446483333333, "is_disabled": 0, "lon": -77.07041733333334, "fusion_lat": 0.0, "is_reserved": 0}, {"rental_uris": {"ios": "https://dc.lft.to/lastmile_qr_scan", "android": "https://dc.lft.to/lastmile_qr_scan"}, "fusion_lon": 0.0, "type": "electric_scooter", "bike_id": "96a5fc4b2e0fce62da565e06809feab5", "name": "96a5fc4b2e0fce62da565e06809feab5", "lat": 38.892199166666664, "is_disabled": 0, "lon": -77.02264016666666, "fusion_lat": 0.0, "is_reserved": 0}, {"rental_uris": {"ios": "https://dc.lft.to/lastmile_qr_scan", "android": "https://dc.lft.to/lastmile_qr_scan"}, "fusion_lon": 0.0, "type": "electric_scooter", "bike_id": "58c35bcbc743c347d734dde2dd35b261", "name": "58c35bcbc743c347d734dde2dd35b261", "lat": 38.927382333333334, "is_disabled": 0, "lon": -77.03477816666667, "fusion_lat": 0.0, "is_reserved": 0}, {"rental_uris": {"ios": "https://dc.lft.to/lastmile_qr_scan", "android": "https://dc.lft.to/lastmile_qr_scan"}, "fusion_lon": 0.0, "type": "electric_scooter", "bike_id": "79337eabd0ecf2eca6f087968d00d74e", "name": "79337eabd0ecf2eca6f087968d00d74e", "lat": 38.90773433333333, "is_disabled": 0, "lon": -77.0269445, "fusion_lat": 0.0, "is_reserved": 0}, {"rental_uris": {"ios": "https://dc.lft.to/lastmile_qr_scan", "android": "https://dc.lft.to/lastmile_qr_scan"}, "fusion_lon": 0.0, "type": "electric_scooter", "bike_id": "713765d7fcc81d2c5c177e47b9d8e382", "name": "713765d7fcc81d2c5c177e47b9d8e382", "lat": 38.878954, "is_disabled": 0, "lon": -76.93522683333333, "fusion_lat": 0.0, "is_reserved": 0}, {"rental_uris": {"ios": "https://dc.lft.to/lastmile_qr_scan", "android": "https://dc.lft.to/lastmile_qr_scan"}, "fusion_lon": 0.0, "type": "electric_scooter", "bike_id": "28f072e081adb5f5e666df59883b3cb0", "name": "28f072e081adb5f5e666df59883b3cb0", "lat": 38.8981205, "is_disabled": 0, "lon": -77.05219283333334, "fusion_lat": 0.0, "is_reserved": 0}, {"rental_uris": {"ios": "https://dc.lft.to/lastmile_qr_scan", "android": "https://dc.lft.to/lastmile_qr_scan"}, "fusion_lon": 0.0, "type": "electric_scooter", "bike_id": "73de2685d24f3dee59e8bd56a08956a7", "name": "73de2685d24f3dee59e8bd56a08956a7", "lat": 38.8974165, "is_disabled": 0, "lon": -77.000335, "fusion_lat": 0.0, "is_reserved": 0}, {"rental_uris": {"ios": "https://dc.lft.to/lastmile_qr_scan", "android": "https://dc.lft.to/lastmile_qr_scan"}, "fusion_lon": 0.0, "type": "electric_scooter", "bike_id": "611229f1f6a5eda61e94fc81b462f5e7", "name": "611229f1f6a5eda61e94fc81b462f5e7", "lat": 38.91138216666667, "is_disabled": 0, "lon": -77.0218915, "fusion_lat": 0.0, "is_reserved": 0}, {"rental_uris": {"ios": "https://dc.lft.to/lastmile_qr_scan", "android": "https://dc.lft.to/lastmile_qr_scan"}, "fusion_lon": 0.0, "type": "electric_scooter", "bike_id": "e5fab10b01f39cad3196b111348b4ab1", "name": "e5fab10b01f39cad3196b111348b4ab1", "lat": 38.90061933333333, "is_disabled": 0, "lon": -76.933848, "fusion_lat": 0.0, "is_reserved": 0}, {"rental_uris": {"ios": "https://dc.lft.to/lastmile_qr_scan", "android": "https://dc.lft.to/lastmile_qr_scan"}, "fusion_lon": 0.0, "type": "electric_scooter", "bike_id": "145477360df7424a7466ae375b6c8e93", "name": "145477360df7424a7466ae375b6c8e93", "lat": 38.91011833333334, "is_disabled": 0, "lon": -77.03184133333333, "fusion_lat": 0.0, "is_reserved": 0}, {"rental_uris": {"ios": "https://dc.lft.to/lastmile_qr_scan", "android": "https://dc.lft.to/lastmile_qr_scan"}, "fusion_lon": 0.0, "type": "electric_bike", "bike_id": "372552e9b9a9e017ecc3a92fb6f45aac", "name": "372552e9b9a9e017ecc3a92fb6f45aac", "lat": 38.974016666666664, "is_disabled": 0, "lon": -77.02495683333333, "fusion_lat": 0.0, "is_reserved": 0}, {"rental_uris": {"ios": "https://dc.lft.to/lastmile_qr_scan", "android": "https://dc.lft.to/lastmile_qr_scan"}, "fusion_lon": 0.0, "type": "electric_scooter", "bike_id": "0cfdddd0f0aee1181df7dde3381b4326", "name": "0cfdddd0f0aee1181df7dde3381b4326", "lat": 38.893639666666665, "is_disabled": 0, "lon": -77.03970083333333, "fusion_lat": 0.0, "is_reserved": 0}, {"rental_uris": {"ios": "https://dc.lft.to/lastmile_qr_scan", "android": "https://dc.lft.to/lastmile_qr_scan"}, "fusion_lon": 0.0, "type": "electric_scooter", "bike_id": "8b8e14896671df307690d770cd6cabbe", "name": "8b8e14896671df307690d770cd6cabbe", "lat": 38.905813, "is_disabled": 0, "lon": -77.04360316666667, "fusion_lat": 0.0, "is_reserved": 0}, {"rental_uris": {"ios": "https://dc.lft.to/lastmile_qr_scan", "android": "https://dc.lft.to/lastmile_qr_scan"}, "fusion_lon": 0.0, "type": "electric_scooter", "bike_id": "4100e5ccc11c1b2ecac406d29201392f", "name": "4100e5ccc11c1b2ecac406d29201392f", "lat": 38.90560383333333, "is_disabled": 0, "lon": -77.00555233333333, "fusion_lat": 0.0, "is_reserved": 0}, {"rental_uris": {"ios": "https://dc.lft.to/lastmile_qr_scan", "android": "https://dc.lft.to/lastmile_qr_scan"}, "fusion_lon": 0.0, "type": "electric_scooter", "bike_id": "951aa9ca1847cce76de257be98a4ccb9", "name": "951aa9ca1847cce76de257be98a4ccb9", "lat": 38.900118, "is_disabled": 0, "lon": -76.99597016666667, "fusion_lat": 0.0, "is_reserved": 0}, {"rental_uris": {"ios": "https://dc.lft.to/lastmile_qr_scan", "android": "https://dc.lft.to/lastmile_qr_scan"}, "fusion_lon": 0.0, "type": "electric_scooter", "bike_id": "960e104ac2f4c443d115e72e7c3c92db", "name": "960e104ac2f4c443d115e72e7c3c92db", "lat": 38.9155005, "is_disabled": 0, "lon": -77.012322, "fusion_lat": 0.0, "is_reserved": 0}, {"rental_uris": {"ios": "https://dc.lft.to/lastmile_qr_scan", "android": "https://dc.lft.to/lastmile_qr_scan"}, "fusion_lon": 0.0, "type": "electric_bike", "bike_id": "e8ffac424806f6cdbb8a7db154fbc5a9", "name": "e8ffac424806f6cdbb8a7db154fbc5a9", "lat": 39.09590466666667, "is_disabled": 0, "lon": -77.14778516666667, "fusion_lat": 0.0, "is_reserved": 0}, {"rental_uris": {"ios": "https://dc.lft.to/lastmile_qr_scan", "android": "https://dc.lft.to/lastmile_qr_scan"}, "fusion_lon": 0.0, "type": "electric_scooter", "bike_id": "71321e41af947154a9d82d3f96e16f86", "name": "71321e41af947154a9d82d3f96e16f86", "lat": 38.898311166666666, "is_disabled": 0, "lon": -77.01947733333333, "fusion_lat": 0.0, "is_reserved": 0}, {"rental_uris": {"ios": "https://dc.lft.to/lastmile_qr_scan", "android": "https://dc.lft.to/lastmile_qr_scan"}, "fusion_lon": 0.0, "type": "electric_scooter", "bike_id": "0ca12cc95417007330b755f478cdee1b", "name": "0ca12cc95417007330b755f478cdee1b", "lat": 38.8950965, "is_disabled": 0, "lon": -76.94887016666667, "fusion_lat": 0.0, "is_reserved": 0}, {"rental_uris": {"ios": "https://dc.lft.to/lastmile_qr_scan", "android": "https://dc.lft.to/lastmile_qr_scan"}, "fusion_lon": 0.0, "type": "electric_scooter", "bike_id": "4c3b9b3788663fd5a4a587f86cd26aa0", "name": "4c3b9b3788663fd5a4a587f86cd26aa0", "lat": 38.892233833333336, "is_disabled": 0, "lon": -77.0226455, "fusion_lat": 0.0, "is_reserved": 0}, {"rental_uris": {"ios": "https://dc.lft.to/lastmile_qr_scan", "android": "https://dc.lft.to/lastmile_qr_scan"}, "fusion_lon": 0.0, "type": "electric_bike", "bike_id": "294c9b12bd0855f96d0f6ad25eef7fac", "name": "294c9b12bd0855f96d0f6ad25eef7fac", "lat": 38.999342, "is_disabled": 0, "lon": -77.00121333333334, "fusion_lat": 0.0, "is_reserved": 0}, {"rental_uris": {"ios": "https://dc.lft.to/lastmile_qr_scan", "android": "https://dc.lft.to/lastmile_qr_scan"}, "fusion_lon": 0.0, "type": "electric_bike", "bike_id": "36fd254f38937e7e889be45e2158618f", "name": "36fd254f38937e7e889be45e2158618f", "lat": 38.855352, "is_disabled": 0, "lon": -77.10722966666667, "fusion_lat": 0.0, "is_reserved": 0}, {"rental_uris": {"ios": "https://dc.lft.to/lastmile_qr_scan", "android": "https://dc.lft.to/lastmile_qr_scan"}, "fusion_lon": 0.0, "type": "electric_scooter", "bike_id": "a7f7cd63f963b89cb2db84f0e5a3fa15", "name": "a7f7cd63f963b89cb2db84f0e5a3fa15", "lat": 38.860341166666664, "is_disabled": 0, "lon": -76.9968125, "fusion_lat": 0.0, "is_reserved": 0}, {"rental_uris": {"ios": "https://dc.lft.to/lastmile_qr_scan", "android": "https://dc.lft.to/lastmile_qr_scan"}, "fusion_lon": 0.0, "type": "electric_bike", "bike_id": "df1129feb589c67a686c0617ffbc6eeb", "name": "df1129feb589c67a686c0617ffbc6eeb", "lat": 38.84193166666667, "is_disabled": 0, "lon": -77.07749716666666, "fusion_lat": 0.0, "is_reserved": 0}, {"rental_uris": {"ios": "https://dc.lft.to/lastmile_qr_scan", "android": "https://dc.lft.to/lastmile_qr_scan"}, "fusion_lon": 0.0, "type": "electric_scooter", "bike_id": "de244d08964e98f5bdca14de06a5b391", "name": "de244d08964e98f5bdca14de06a5b391", "lat": 38.897274, "is_disabled": 0, "lon": -76.9470015, "fusion_lat": 0.0, "is_reserved": 0}, {"rental_uris": {"ios": "https://dc.lft.to/lastmile_qr_scan", "android": "https://dc.lft.to/lastmile_qr_scan"}, "fusion_lon": 0.0, "type": "electric_bike", "bike_id": "ad027be410fd23575e8a8fa7a5d494df", "name": "ad027be410fd23575e8a8fa7a5d494df", "lat": 39.105649166666666, "is_disabled": 0, "lon": -77.15266066666666, "fusion_lat": 0.0, "is_reserved": 0}, {"rental_uris": {"ios": "https://dc.lft.to/lastmile_qr_scan", "android": "https://dc.lft.to/lastmile_qr_scan"}, "fusion_lon": 0.0, "type": "electric_scooter", "bike_id": "7bbd93725393bece12f2e66d9182e01d", "name": "7bbd93725393bece12f2e66d9182e01d", "lat": 38.8960755, "is_disabled": 0, "lon": -77.02372016666666, "fusion_lat": 0.0, "is_reserved": 0}, {"rental_uris": {"ios": "https://dc.lft.to/lastmile_qr_scan", "android": "https://dc.lft.to/lastmile_qr_scan"}, "fusion_lon": 0.0, "type": "electric_scooter", "bike_id": "1aef4e762856d8ab090dcd9df24d1b3b", "name": "1aef4e762856d8ab090dcd9df24d1b3b", "lat": 38.904224666666664, "is_disabled": 0, "lon": -77.02581166666667, "fusion_lat": 0.0, "is_reserved": 0}, {"rental_uris": {"ios": "https://dc.lft.to/lastmile_qr_scan", "android": "https://dc.lft.to/lastmile_qr_scan"}, "fusion_lon": 0.0, "type": "electric_bike", "bike_id": "d11f399eb0b7fcd5e6babefa0e9b078c", "name": "d11f399eb0b7fcd5e6babefa0e9b078c", "lat": 38.8876075, "is_disabled": 0, "lon": -76.9007625, "fusion_lat": 0.0, "is_reserved": 0}, {"rental_uris": {"ios": "https://dc.lft.to/lastmile_qr_scan", "android": "https://dc.lft.to/lastmile_qr_scan"}, "fusion_lon": 0.0, "type": "electric_bike", "bike_id": "de0b1566e367188d63d1b0d65939c60f", "name": "de0b1566e367188d63d1b0d65939c60f", "lat": 38.880407, "is_disabled": 0, "lon": -77.0251885, "fusion_lat": 0.0, "is_reserved": 0}, {"rental_uris": {"ios": "https://dc.lft.to/lastmile_qr_scan", "android": "https://dc.lft.to/lastmile_qr_scan"}, "fusion_lon": 0.0, "type": "electric_bike", "bike_id": "b03988ecf42669ed5d55a5c4dcb537a9", "name": "b03988ecf42669ed5d55a5c4dcb537a9", "lat": 38.92446866666667, "is_disabled": 0, "lon": -76.96833933333333, "fusion_lat": 0.0, "is_reserved": 0}, {"rental_uris": {"ios": "https://dc.lft.to/lastmile_qr_scan", "android": "https://dc.lft.to/lastmile_qr_scan"}, "fusion_lon": 0.0, "type": "electric_scooter", "bike_id": "64bad7854d9fe7f206532a424611dd8e", "name": "64bad7854d9fe7f206532a424611dd8e", "lat": 38.87463266666666, "is_disabled": 0, "lon": -77.009597, "fusion_lat": 0.0, "is_reserved": 0}, {"rental_uris": {"ios": "https://dc.lft.to/lastmile_qr_scan", "android": "https://dc.lft.to/lastmile_qr_scan"}, "fusion_lon": 0.0, "type": "electric_scooter", "bike_id": "7adc2e5f3cec1cb3318b2bf9811d1d66", "name": "7adc2e5f3cec1cb3318b2bf9811d1d66", "lat": 38.925539, "is_disabled": 0, "lon": -77.032985, "fusion_lat": 0.0, "is_reserved": 0}, {"rental_uris": {"ios": "https://dc.lft.to/lastmile_qr_scan", "android": "https://dc.lft.to/lastmile_qr_scan"}, "fusion_lon": 0.0, "type": "electric_scooter", "bike_id": "43451e186a7b4d7570b3c9215c8d983d", "name": "43451e186a7b4d7570b3c9215c8d983d", "lat": 38.93635283333333, "is_disabled": 0, "lon": -77.03263716666666, "fusion_lat": 0.0, "is_reserved": 0}, {"rental_uris": {"ios": "https://dc.lft.to/lastmile_qr_scan", "android": "https://dc.lft.to/lastmile_qr_scan"}, "fusion_lon": 0.0, "type": "electric_bike", "bike_id": "91bdb24c738a9677c52079b20c8496ef", "name": "91bdb24c738a9677c52079b20c8496ef", "lat": 38.967585166666666, "is_disabled": 0, "lon": -77.09159583333333, "fusion_lat": 0.0, "is_reserved": 0}, {"rental_uris": {"ios": "https://dc.lft.to/lastmile_qr_scan", "android": "https://dc.lft.to/lastmile_qr_scan"}, "fusion_lon": 0.0, "type": "electric_scooter", "bike_id": "ea20ee800743893338d702f08d175ea1", "name": "ea20ee800743893338d702f08d175ea1", "lat": 38.888882333333335, "is_disabled": 0, "lon": -77.0154875, "fusion_lat": 0.0, "is_reserved": 0}, {"rental_uris": {"ios": "https://dc.lft.to/lastmile_qr_scan", "android": "https://dc.lft.to/lastmile_qr_scan"}, "fusion_lon": 0.0, "type": "electric_scooter", "bike_id": "5f447ff2631040a5f4b7b35c84076b5e", "name": "5f447ff2631040a5f4b7b35c84076b5e", "lat": 38.892218, "is_disabled": 0, "lon": -77.046582, "fusion_lat": 0.0, "is_reserved": 0}, {"rental_uris": {"ios": "https://dc.lft.to/lastmile_qr_scan", "android": "https://dc.lft.to/lastmile_qr_scan"}, "fusion_lon": 0.0, "type": "electric_scooter", "bike_id": "9d3db0b3d335677d00932f4ef653b74c", "name": "9d3db0b3d335677d00932f4ef653b74c", "lat": 38.922047, "is_disabled": 0, "lon": -77.04256783333334, "fusion_lat": 0.0, "is_reserved": 0}, {"rental_uris": {"ios": "https://dc.lft.to/lastmile_qr_scan", "android": "https://dc.lft.to/lastmile_qr_scan"}, "fusion_lon": 0.0, "type": "electric_scooter", "bike_id": "565221d8ccbff4215aa49485203da503", "name": "565221d8ccbff4215aa49485203da503", "lat": 38.901425, "is_disabled": 0, "lon": -77.04150366666667, "fusion_lat": 0.0, "is_reserved": 0}, {"rental_uris": {"ios": "https://dc.lft.to/lastmile_qr_scan", "android": "https://dc.lft.to/lastmile_qr_scan"}, "fusion_lon": 0.0, "type": "electric_bike", "bike_id": "80a2eada6ad6ad2cf426e3b6a5d0e9f1", "name": "80a2eada6ad6ad2cf426e3b6a5d0e9f1", "lat": 38.9986505, "is_disabled": 0, "lon": -77.0286375, "fusion_lat": 0.0, "is_reserved": 0}, {"rental_uris": {"ios": "https://dc.lft.to/lastmile_qr_scan", "android": "https://dc.lft.to/lastmile_qr_scan"}, "fusion_lon": 0.0, "type": "electric_scooter", "bike_id": "7bc72eb00e382326feb1d6d90ec1a146", "name": "7bc72eb00e382326feb1d6d90ec1a146", "lat": 38.85807066666667, "is_disabled": 0, "lon": -76.98652633333333, "fusion_lat": 0.0, "is_reserved": 0}, {"rental_uris": {"ios": "https://dc.lft.to/lastmile_qr_scan", "android": "https://dc.lft.to/lastmile_qr_scan"}, "fusion_lon": 0.0, "type": "electric_scooter", "bike_id": "7a26bbdc30d14b1cd820c7fc39de10ef", "name": "7a26bbdc30d14b1cd820c7fc39de10ef", "lat": 38.922482, "is_disabled": 0, "lon": -77.04255416666666, "fusion_lat": 0.0, "is_reserved": 0}, {"rental_uris": {"ios": "https://dc.lft.to/lastmile_qr_scan", "android": "https://dc.lft.to/lastmile_qr_scan"}, "fusion_lon": 0.0, "type": "electric_scooter", "bike_id": "6c0b584e625c27bfc9544a70e5c5d1d6", "name": "6c0b584e625c27bfc9544a70e5c5d1d6", "lat": 38.895223, "is_disabled": 0, "lon": -77.02939383333333, "fusion_lat": 0.0, "is_reserved": 0}, {"rental_uris": {"ios": "https://dc.lft.to/lastmile_qr_scan", "android": "https://dc.lft.to/lastmile_qr_scan"}, "fusion_lon": 0.0, "type": "electric_scooter", "bike_id": "fe6b127b578e5aff9cf26b03ef1d6f42", "name": "fe6b127b578e5aff9cf26b03ef1d6f42", "lat": 38.901317666666664, "is_disabled": 0, "lon": -77.01195933333334, "fusion_lat": 0.0, "is_reserved": 0}, {"rental_uris": {"ios": "https://dc.lft.to/lastmile_qr_scan", "android": "https://dc.lft.to/lastmile_qr_scan"}, "fusion_lon": 0.0, "type": "electric_scooter", "bike_id": "5784389491c0a6742cf9a0fb6d0758fc", "name": "5784389491c0a6742cf9a0fb6d0758fc", "lat": 38.91262866666667, "is_disabled": 0, "lon": -77.016924, "fusion_lat": 0.0, "is_reserved": 0}, {"rental_uris": {"ios": "https://dc.lft.to/lastmile_qr_scan", "android": "https://dc.lft.to/lastmile_qr_scan"}, "fusion_lon": 0.0, "type": "electric_scooter", "bike_id": "0d95b271ec1ec69cfdee41ea89b0a3e1", "name": "0d95b271ec1ec69cfdee41ea89b0a3e1", "lat": 38.94085333333334, "is_disabled": 0, "lon": -77.02726033333333, "fusion_lat": 0.0, "is_reserved": 0}, {"rental_uris": {"ios": "https://dc.lft.to/lastmile_qr_scan", "android": "https://dc.lft.to/lastmile_qr_scan"}, "fusion_lon": 0.0, "type": "electric_scooter", "bike_id": "65178fb78f5c9b3b23169f0d01d2a1fd", "name": "65178fb78f5c9b3b23169f0d01d2a1fd", "lat": 38.93017, "is_disabled": 0, "lon": -77.05554966666666, "fusion_lat": 0.0, "is_reserved": 0}, {"rental_uris": {"ios": "https://dc.lft.to/lastmile_qr_scan", "android": "https://dc.lft.to/lastmile_qr_scan"}, "fusion_lon": 0.0, "type": "electric_scooter", "bike_id": "f14a78a047625c1dcfd907221fc68e8f", "name": "f14a78a047625c1dcfd907221fc68e8f", "lat": 38.91049433333333, "is_disabled": 0, "lon": -77.04343233333333, "fusion_lat": 0.0, "is_reserved": 0}, {"rental_uris": {"ios": "https://dc.lft.to/lastmile_qr_scan", "android": "https://dc.lft.to/lastmile_qr_scan"}, "fusion_lon": 0.0, "type": "electric_scooter", "bike_id": "c1464c940eca1a4cb259d54c4bc0392b", "name": "c1464c940eca1a4cb259d54c4bc0392b", "lat": 38.899817, "is_disabled": 0, "lon": -77.04192116666667, "fusion_lat": 0.0, "is_reserved": 0}, {"rental_uris": {"ios": "https://dc.lft.to/lastmile_qr_scan", "android": "https://dc.lft.to/lastmile_qr_scan"}, "fusion_lon": 0.0, "type": "electric_scooter", "bike_id": "fe21b793e90ac401eb63e5aae5bbf289", "name": "fe21b793e90ac401eb63e5aae5bbf289", "lat": 38.91797716666667, "is_disabled": 0, "lon": -77.03209483333333, "fusion_lat": 0.0, "is_reserved": 0}, {"rental_uris": {"ios": "https://dc.lft.to/lastmile_qr_scan", "android": "https://dc.lft.to/lastmile_qr_scan"}, "fusion_lon": 0.0, "type": "electric_bike", "bike_id": "c8297ef4fd15bf8ccc25ad6a114882c1", "name": "c8297ef4fd15bf8ccc25ad6a114882c1", "lat": 38.907746, "is_disabled": 0, "lon": -77.07160183333333, "fusion_lat": 0.0, "is_reserved": 0}, {"rental_uris": {"ios": "https://dc.lft.to/lastmile_qr_scan", "android": "https://dc.lft.to/lastmile_qr_scan"}, "fusion_lon": 0.0, "type": "electric_scooter", "bike_id": "059ca0006d1e4a9a40cf11fea921e928", "name": "059ca0006d1e4a9a40cf11fea921e928", "lat": 38.930832833333334, "is_disabled": 0, "lon": -77.02794716666666, "fusion_lat": 0.0, "is_reserved": 0}, {"rental_uris": {"ios": "https://dc.lft.to/lastmile_qr_scan", "android": "https://dc.lft.to/lastmile_qr_scan"}, "fusion_lon": 0.0, "type": "electric_scooter", "bike_id": "00199facc7d176793419334fcf9032ca", "name": "00199facc7d176793419334fcf9032ca", "lat": 38.9053355, "is_disabled": 0, "lon": -77.00689333333334, "fusion_lat": 0.0, "is_reserved": 0}, {"rental_uris": {"ios": "https://dc.lft.to/lastmile_qr_scan", "android": "https://dc.lft.to/lastmile_qr_scan"}, "fusion_lon": 0.0, "type": "electric_scooter", "bike_id": "a1e8d16fb0f78e8ea12a487ca880fd82", "name": "a1e8d16fb0f78e8ea12a487ca880fd82", "lat": 38.8671075, "is_disabled": 0, "lon": -76.9872825, "fusion_lat": 0.0, "is_reserved": 0}, {"rental_uris": {"ios": "https://dc.lft.to/lastmile_qr_scan", "android": "https://dc.lft.to/lastmile_qr_scan"}, "fusion_lon": 0.0, "type": "electric_scooter", "bike_id": "d36836d3b91510a8a2df64d9d1e3c231", "name": "d36836d3b91510a8a2df64d9d1e3c231", "lat": 38.915146, "is_disabled": 0, "lon": -77.01203383333333, "fusion_lat": 0.0, "is_reserved": 0}, {"rental_uris": {"ios": "https://dc.lft.to/lastmile_qr_scan", "android": "https://dc.lft.to/lastmile_qr_scan"}, "fusion_lon": 0.0, "type": "electric_bike", "bike_id": "b2037d84991b4ccc15602fafb2148209", "name": "b2037d84991b4ccc15602fafb2148209", "lat": 38.990754, "is_disabled": 0, "lon": -77.0238195, "fusion_lat": 0.0, "is_reserved": 0}, {"rental_uris": {"ios": "https://dc.lft.to/lastmile_qr_scan", "android": "https://dc.lft.to/lastmile_qr_scan"}, "fusion_lon": 0.0, "type": "electric_scooter", "bike_id": "6788373a04dfacd970ab00035994193f", "name": "6788373a04dfacd970ab00035994193f", "lat": 38.9204175, "is_disabled": 0, "lon": -77.04817233333333, "fusion_lat": 0.0, "is_reserved": 0}, {"rental_uris": {"ios": "https://dc.lft.to/lastmile_qr_scan", "android": "https://dc.lft.to/lastmile_qr_scan"}, "fusion_lon": 0.0, "type": "electric_bike", "bike_id": "0c86d14cab2a8869935a7244a7756ecb", "name": "0c86d14cab2a8869935a7244a7756ecb", "lat": 38.909763, "is_disabled": 0, "lon": -77.08826466666666, "fusion_lat": 0.0, "is_reserved": 0}, {"rental_uris": {"ios": "https://dc.lft.to/lastmile_qr_scan", "android": "https://dc.lft.to/lastmile_qr_scan"}, "fusion_lon": 0.0, "type": "electric_scooter", "bike_id": "1f112e12f5e1a1635c3c3467cfbb07e3", "name": "1f112e12f5e1a1635c3c3467cfbb07e3", "lat": 38.8812025, "is_disabled": 0, "lon": -77.02073566666667, "fusion_lat": 0.0, "is_reserved": 0}, {"rental_uris": {"ios": "https://dc.lft.to/lastmile_qr_scan", "android": "https://dc.lft.to/lastmile_qr_scan"}, "fusion_lon": 0.0, "type": "electric_scooter", "bike_id": "982da0f859acd3b0acc9efdb6f7f0df1", "name": "982da0f859acd3b0acc9efdb6f7f0df1", "lat": 38.89218966666667, "is_disabled": 0, "lon": -77.02218533333334, "fusion_lat": 0.0, "is_reserved": 0}, {"rental_uris": {"ios": "https://dc.lft.to/lastmile_qr_scan", "android": "https://dc.lft.to/lastmile_qr_scan"}, "fusion_lon": 0.0, "type": "electric_bike", "bike_id": "d15bc563e047962bb898df9bdf8022ac", "name": "d15bc563e047962bb898df9bdf8022ac", "lat": 38.9234825, "is_disabled": 0, "lon": -76.99246033333333, "fusion_lat": 0.0, "is_reserved": 0}, {"rental_uris": {"ios": "https://dc.lft.to/lastmile_qr_scan", "android": "https://dc.lft.to/lastmile_qr_scan"}, "fusion_lon": 0.0, "type": "electric_scooter", "bike_id": "5c4da88592c26fa8bf983b1109d4de59", "name": "5c4da88592c26fa8bf983b1109d4de59", "lat": 38.917799333333335, "is_disabled": 0, "lon": -77.04356816666666, "fusion_lat": 0.0, "is_reserved": 0}, {"rental_uris": {"ios": "https://dc.lft.to/lastmile_qr_scan", "android": "https://dc.lft.to/lastmile_qr_scan"}, "fusion_lon": 0.0, "type": "electric_scooter", "bike_id": "94fd0471b0e4baaed97623579d8ecac1", "name": "94fd0471b0e4baaed97623579d8ecac1", "lat": 38.906267666666665, "is_disabled": 0, "lon": -77.06889866666667, "fusion_lat": 0.0, "is_reserved": 0}, {"rental_uris": {"ios": "https://dc.lft.to/lastmile_qr_scan", "android": "https://dc.lft.to/lastmile_qr_scan"}, "fusion_lon": 0.0, "type": "electric_bike", "bike_id": "f24175aaa563f9b71e306f19a86a6c8f", "name": "f24175aaa563f9b71e306f19a86a6c8f", "lat": 38.86792666666667, "is_disabled": 0, "lon": -77.014538, "fusion_lat": 0.0, "is_reserved": 0}, {"rental_uris": {"ios": "https://dc.lft.to/lastmile_qr_scan", "android": "https://dc.lft.to/lastmile_qr_scan"}, "fusion_lon": 0.0, "type": "electric_scooter", "bike_id": "74ced9ff3ab03c3bc7fd0035a8633cfd", "name": "74ced9ff3ab03c3bc7fd0035a8633cfd", "lat": 38.907285333333334, "is_disabled": 0, "lon": -77.029832, "fusion_lat": 0.0, "is_reserved": 0}, {"rental_uris": {"ios": "https://dc.lft.to/lastmile_qr_scan", "android": "https://dc.lft.to/lastmile_qr_scan"}, "fusion_lon": 0.0, "type": "electric_scooter", "bike_id": "f0e00fe794c30adb49637fa2811c4b88", "name": "f0e00fe794c30adb49637fa2811c4b88", "lat": 38.88412966666667, "is_disabled": 0, "lon": -77.03301633333334, "fusion_lat": 0.0, "is_reserved": 0}, {"rental_uris": {"ios": "https://dc.lft.to/lastmile_qr_scan", "android": "https://dc.lft.to/lastmile_qr_scan"}, "fusion_lon": 0.0, "type": "electric_scooter", "bike_id": "329a76fb9bf2f739d40a7605bc8fa936", "name": "329a76fb9bf2f739d40a7605bc8fa936", "lat": 38.89353116666667, "is_disabled": 0, "lon": -77.00335433333333, "fusion_lat": 0.0, "is_reserved": 0}, {"rental_uris": {"ios": "https://dc.lft.to/lastmile_qr_scan", "android": "https://dc.lft.to/lastmile_qr_scan"}, "fusion_lon": 0.0, "type": "electric_scooter", "bike_id": "d1a210febd33d8841039f71f68e05a1e", "name": "d1a210febd33d8841039f71f68e05a1e", "lat": 38.92652433333333, "is_disabled": 0, "lon": -77.03715033333333, "fusion_lat": 0.0, "is_reserved": 0}, {"rental_uris": {"ios": "https://dc.lft.to/lastmile_qr_scan", "android": "https://dc.lft.to/lastmile_qr_scan"}, "fusion_lon": 0.0, "type": "electric_scooter", "bike_id": "1603cab671a1aefbaa3e1356d5664c7f", "name": "1603cab671a1aefbaa3e1356d5664c7f", "lat": 38.86357866666667, "is_disabled": 0, "lon": -76.99054916666667, "fusion_lat": 0.0, "is_reserved": 0}, {"rental_uris": {"ios": "https://dc.lft.to/lastmile_qr_scan", "android": "https://dc.lft.to/lastmile_qr_scan"}, "fusion_lon": 0.0, "type": "electric_scooter", "bike_id": "e42c3f6317e3ff49702272bb7e6dce30", "name": "e42c3f6317e3ff49702272bb7e6dce30", "lat": 38.90429183333333, "is_disabled": 0, "lon": -77.04355183333334, "fusion_lat": 0.0, "is_reserved": 0}, {"rental_uris": {"ios": "https://dc.lft.to/lastmile_qr_scan", "android": "https://dc.lft.to/lastmile_qr_scan"}, "fusion_lon": 0.0, "type": "electric_scooter", "bike_id": "15e05441cfae33f144805cf59a923c83", "name": "15e05441cfae33f144805cf59a923c83", "lat": 38.902346333333334, "is_disabled": 0, "lon": -77.02683333333333, "fusion_lat": 0.0, "is_reserved": 0}, {"rental_uris": {"ios": "https://dc.lft.to/lastmile_qr_scan", "android": "https://dc.lft.to/lastmile_qr_scan"}, "fusion_lon": 0.0, "type": "electric_scooter", "bike_id": "7a1b573405d237c9c2604db0b55fdff4", "name": "7a1b573405d237c9c2604db0b55fdff4", "lat": 38.90170466666667, "is_disabled": 0, "lon": -77.01864683333334, "fusion_lat": 0.0, "is_reserved": 0}, {"rental_uris": {"ios": "https://dc.lft.to/lastmile_qr_scan", "android": "https://dc.lft.to/lastmile_qr_scan"}, "fusion_lon": 0.0, "type": "electric_scooter", "bike_id": "2c79b3547f45caa796b442617c2552a4", "name": "2c79b3547f45caa796b442617c2552a4", "lat": 38.921508333333335, "is_disabled": 0, "lon": -77.03861933333333, "fusion_lat": 0.0, "is_reserved": 0}, {"rental_uris": {"ios": "https://dc.lft.to/lastmile_qr_scan", "android": "https://dc.lft.to/lastmile_qr_scan"}, "fusion_lon": 0.0, "type": "electric_scooter", "bike_id": "695fa1a6196eb6d6f97be575541e0493", "name": "695fa1a6196eb6d6f97be575541e0493", "lat": 38.898171, "is_disabled": 0, "lon": -77.03161216666666, "fusion_lat": 0.0, "is_reserved": 0}, {"rental_uris": {"ios": "https://dc.lft.to/lastmile_qr_scan", "android": "https://dc.lft.to/lastmile_qr_scan"}, "fusion_lon": 0.0, "type": "electric_scooter", "bike_id": "0a53b6c9c358e56e42d8014ef06222a8", "name": "0a53b6c9c358e56e42d8014ef06222a8", "lat": 38.9311095, "is_disabled": 0, "lon": -77.01243183333334, "fusion_lat": 0.0, "is_reserved": 0}, {"rental_uris": {"ios": "https://dc.lft.to/lastmile_qr_scan", "android": "https://dc.lft.to/lastmile_qr_scan"}, "fusion_lon": 0.0, "type": "electric_scooter", "bike_id": "7fdcaea7c85261b7527bdd167708150f", "name": "7fdcaea7c85261b7527bdd167708150f", "lat": 38.9475365, "is_disabled": 0, "lon": -77.02978516666667, "fusion_lat": 0.0, "is_reserved": 0}, {"rental_uris": {"ios": "https://dc.lft.to/lastmile_qr_scan", "android": "https://dc.lft.to/lastmile_qr_scan"}, "fusion_lon": 0.0, "type": "electric_scooter", "bike_id": "18c147d941211277c4be69d4b738a506", "name": "18c147d941211277c4be69d4b738a506", "lat": 38.909915, "is_disabled": 0, "lon": -77.0319695, "fusion_lat": 0.0, "is_reserved": 0}, {"rental_uris": {"ios": "https://dc.lft.to/lastmile_qr_scan", "android": "https://dc.lft.to/lastmile_qr_scan"}, "fusion_lon": 0.0, "type": "electric_scooter", "bike_id": "70f002322328839cb7854e83202ecd4e", "name": "70f002322328839cb7854e83202ecd4e", "lat": 38.89440966666667, "is_disabled": 0, "lon": -77.02636616666666, "fusion_lat": 0.0, "is_reserved": 0}, {"rental_uris": {"ios": "https://dc.lft.to/lastmile_qr_scan", "android": "https://dc.lft.to/lastmile_qr_scan"}, "fusion_lon": 0.0, "type": "electric_scooter", "bike_id": "7812daca6766c51db91d82b58f98cbc7", "name": "7812daca6766c51db91d82b58f98cbc7", "lat": 38.916186, "is_disabled": 0, "lon": -77.03307816666667, "fusion_lat": 0.0, "is_reserved": 0}, {"rental_uris": {"ios": "https://dc.lft.to/lastmile_qr_scan", "android": "https://dc.lft.to/lastmile_qr_scan"}, "fusion_lon": 0.0, "type": "electric_bike", "bike_id": "1be09f9fa807bbc408bd057c8c6353d7", "name": "1be09f9fa807bbc408bd057c8c6353d7", "lat": 38.869729, "is_disabled": 0, "lon": -77.1322965, "fusion_lat": 0.0, "is_reserved": 0}, {"rental_uris": {"ios": "https://dc.lft.to/lastmile_qr_scan", "android": "https://dc.lft.to/lastmile_qr_scan"}, "fusion_lon": 0.0, "type": "electric_scooter", "bike_id": "fae393305e58498346e7d04816292234", "name": "fae393305e58498346e7d04816292234", "lat": 38.930734666666666, "is_disabled": 0, "lon": -77.03275783333333, "fusion_lat": 0.0, "is_reserved": 0}, {"rental_uris": {"ios": "https://dc.lft.to/lastmile_qr_scan", "android": "https://dc.lft.to/lastmile_qr_scan"}, "fusion_lon": 0.0, "type": "electric_scooter", "bike_id": "687a92f8aa97824a4278da9ddc1b38de", "name": "687a92f8aa97824a4278da9ddc1b38de", "lat": 38.91918716666667, "is_disabled": 0, "lon": -77.0318735, "fusion_lat": 0.0, "is_reserved": 0}, {"rental_uris": {"ios": "https://dc.lft.to/lastmile_qr_scan", "android": "https://dc.lft.to/lastmile_qr_scan"}, "fusion_lon": 0.0, "type": "electric_scooter", "bike_id": "7eea8afdf5101cc1e88f588cec51f9f2", "name": "7eea8afdf5101cc1e88f588cec51f9f2", "lat": 38.932292, "is_disabled": 0, "lon": -76.99932633333333, "fusion_lat": 0.0, "is_reserved": 0}, {"rental_uris": {"ios": "https://dc.lft.to/lastmile_qr_scan", "android": "https://dc.lft.to/lastmile_qr_scan"}, "fusion_lon": 0.0, "type": "electric_scooter", "bike_id": "01897334e113a2bcb89f87edc08c5d89", "name": "01897334e113a2bcb89f87edc08c5d89", "lat": 38.92079283333333, "is_disabled": 0, "lon": -77.00062733333333, "fusion_lat": 0.0, "is_reserved": 0}, {"rental_uris": {"ios": "https://dc.lft.to/lastmile_qr_scan", "android": "https://dc.lft.to/lastmile_qr_scan"}, "fusion_lon": 0.0, "type": "electric_scooter", "bike_id": "819b71d504c393bd001d4a3db6d14acc", "name": "819b71d504c393bd001d4a3db6d14acc", "lat": 38.897441, "is_disabled": 0, "lon": -77.00345866666666, "fusion_lat": 0.0, "is_reserved": 0}, {"rental_uris": {"ios": "https://dc.lft.to/lastmile_qr_scan", "android": "https://dc.lft.to/lastmile_qr_scan"}, "fusion_lon": 0.0, "type": "electric_scooter", "bike_id": "ba1d910ee91a1f3298a5ed7555fab9b0", "name": "ba1d910ee91a1f3298a5ed7555fab9b0", "lat": 38.884991, "is_disabled": 0, "lon": -77.02477133333333, "fusion_lat": 0.0, "is_reserved": 0}, {"rental_uris": {"ios": "https://dc.lft.to/lastmile_qr_scan", "android": "https://dc.lft.to/lastmile_qr_scan"}, "fusion_lon": 0.0, "type": "electric_scooter", "bike_id": "806e62587ba7a76efe718126897fd10f", "name": "806e62587ba7a76efe718126897fd10f", "lat": 38.89617783333333, "is_disabled": 0, "lon": -77.01221383333333, "fusion_lat": 0.0, "is_reserved": 0}, {"rental_uris": {"ios": "https://dc.lft.to/lastmile_qr_scan", "android": "https://dc.lft.to/lastmile_qr_scan"}, "fusion_lon": 0.0, "type": "electric_scooter", "bike_id": "ea1866596d539eb93e9703a2c91aee09", "name": "ea1866596d539eb93e9703a2c91aee09", "lat": 38.9169375, "is_disabled": 0, "lon": -77.02986816666666, "fusion_lat": 0.0, "is_reserved": 0}, {"rental_uris": {"ios": "https://dc.lft.to/lastmile_qr_scan", "android": "https://dc.lft.to/lastmile_qr_scan"}, "fusion_lon": 0.0, "type": "electric_scooter", "bike_id": "8055c9f421ebe7d907d7262a1665ef9e", "name": "8055c9f421ebe7d907d7262a1665ef9e", "lat": 38.92904166666667, "is_disabled": 0, "lon": -77.03254233333334, "fusion_lat": 0.0, "is_reserved": 0}, {"rental_uris": {"ios": "https://dc.lft.to/lastmile_qr_scan", "android": "https://dc.lft.to/lastmile_qr_scan"}, "fusion_lon": 0.0, "type": "electric_scooter", "bike_id": "a1d58b266ff7ae622883130981f09ce7", "name": "a1d58b266ff7ae622883130981f09ce7", "lat": 38.9215515, "is_disabled": 0, "lon": -77.0345865, "fusion_lat": 0.0, "is_reserved": 0}, {"rental_uris": {"ios": "https://dc.lft.to/lastmile_qr_scan", "android": "https://dc.lft.to/lastmile_qr_scan"}, "fusion_lon": 0.0, "type": "electric_scooter", "bike_id": "4f64cdf77607ea7dba51f30b8cb26751", "name": "4f64cdf77607ea7dba51f30b8cb26751", "lat": 38.90474916666667, "is_disabled": 0, "lon": -77.04868983333333, "fusion_lat": 0.0, "is_reserved": 0}, {"rental_uris": {"ios": "https://dc.lft.to/lastmile_qr_scan", "android": "https://dc.lft.to/lastmile_qr_scan"}, "fusion_lon": 0.0, "type": "electric_scooter", "bike_id": "d621ca2b5f7737a19d9ea5025586fad3", "name": "d621ca2b5f7737a19d9ea5025586fad3", "lat": 38.88744583333333, "is_disabled": 0, "lon": -76.99623816666667, "fusion_lat": 0.0, "is_reserved": 0}, {"rental_uris": {"ios": "https://dc.lft.to/lastmile_qr_scan", "android": "https://dc.lft.to/lastmile_qr_scan"}, "fusion_lon": 0.0, "type": "electric_scooter", "bike_id": "6cfcc38a1996a02d3e2c6df03a8aef92", "name": "6cfcc38a1996a02d3e2c6df03a8aef92", "lat": 38.90356366666666, "is_disabled": 0, "lon": -77.02502383333334, "fusion_lat": 0.0, "is_reserved": 0}, {"rental_uris": {"ios": "https://dc.lft.to/lastmile_qr_scan", "android": "https://dc.lft.to/lastmile_qr_scan"}, "fusion_lon": 0.0, "type": "electric_scooter", "bike_id": "68445f881555a835c8e39a6a0d780694", "name": "68445f881555a835c8e39a6a0d780694", "lat": 38.89701733333333, "is_disabled": 0, "lon": -76.94716883333334, "fusion_lat": 0.0, "is_reserved": 0}, {"rental_uris": {"ios": "https://dc.lft.to/lastmile_qr_scan", "android": "https://dc.lft.to/lastmile_qr_scan"}, "fusion_lon": 0.0, "type": "electric_scooter", "bike_id": "ca69d92eae1385e1d9c08c088e6826a4", "name": "ca69d92eae1385e1d9c08c088e6826a4", "lat": 38.87658166666667, "is_disabled": 0, "lon": -77.01737716666666, "fusion_lat": 0.0, "is_reserved": 0}, {"rental_uris": {"ios": "https://dc.lft.to/lastmile_qr_scan", "android": "https://dc.lft.to/lastmile_qr_scan"}, "fusion_lon": 0.0, "type": "electric_scooter", "bike_id": "31de4732e1215ba4dd7d2a0b173f5627", "name": "31de4732e1215ba4dd7d2a0b173f5627", "lat": 38.9316855, "is_disabled": 0, "lon": -77.0366735, "fusion_lat": 0.0, "is_reserved": 0}, {"rental_uris": {"ios": "https://dc.lft.to/lastmile_qr_scan", "android": "https://dc.lft.to/lastmile_qr_scan"}, "fusion_lon": 0.0, "type": "electric_scooter", "bike_id": "e4a32a97755ff38c86c6e2261e95e893", "name": "e4a32a97755ff38c86c6e2261e95e893", "lat": 38.8958455, "is_disabled": 0, "lon": -77.02305433333333, "fusion_lat": 0.0, "is_reserved": 0}, {"rental_uris": {"ios": "https://dc.lft.to/lastmile_qr_scan", "android": "https://dc.lft.to/lastmile_qr_scan"}, "fusion_lon": 0.0, "type": "electric_scooter", "bike_id": "9233768b36907ab3b31d4fddb726da10", "name": "9233768b36907ab3b31d4fddb726da10", "lat": 38.90245083333333, "is_disabled": 0, "lon": -76.9986255, "fusion_lat": 0.0, "is_reserved": 0}, {"rental_uris": {"ios": "https://dc.lft.to/lastmile_qr_scan", "android": "https://dc.lft.to/lastmile_qr_scan"}, "fusion_lon": 0.0, "type": "electric_scooter", "bike_id": "9904a990f8d918e7e7b32d1177ddb510", "name": "9904a990f8d918e7e7b32d1177ddb510", "lat": 38.8850165, "is_disabled": 0, "lon": -77.00564683333333, "fusion_lat": 0.0, "is_reserved": 0}, {"rental_uris": {"ios": "https://dc.lft.to/lastmile_qr_scan", "android": "https://dc.lft.to/lastmile_qr_scan"}, "fusion_lon": 0.0, "type": "electric_scooter", "bike_id": "21c8ab0ae9d4876edf8b63fd4b91f47f", "name": "21c8ab0ae9d4876edf8b63fd4b91f47f", "lat": 38.932539, "is_disabled": 0, "lon": -77.02974633333334, "fusion_lat": 0.0, "is_reserved": 0}, {"rental_uris": {"ios": "https://dc.lft.to/lastmile_qr_scan", "android": "https://dc.lft.to/lastmile_qr_scan"}, "fusion_lon": 0.0, "type": "electric_scooter", "bike_id": "c8d80c144f14b89ce1704945ba422494", "name": "c8d80c144f14b89ce1704945ba422494", "lat": 38.915761, "is_disabled": 0, "lon": -77.01997166666666, "fusion_lat": 0.0, "is_reserved": 0}, {"rental_uris": {"ios": "https://dc.lft.to/lastmile_qr_scan", "android": "https://dc.lft.to/lastmile_qr_scan"}, "fusion_lon": 0.0, "type": "electric_scooter", "bike_id": "e4229da516dd84059bc82f2b840179c1", "name": "e4229da516dd84059bc82f2b840179c1", "lat": 38.910468333333334, "is_disabled": 0, "lon": -77.0361145, "fusion_lat": 0.0, "is_reserved": 0}, {"rental_uris": {"ios": "https://dc.lft.to/lastmile_qr_scan", "android": "https://dc.lft.to/lastmile_qr_scan"}, "fusion_lon": 0.0, "type": "electric_scooter", "bike_id": "c42e1632f435b6b457e485a8fcbbf42b", "name": "c42e1632f435b6b457e485a8fcbbf42b", "lat": 38.88582916666667, "is_disabled": 0, "lon": -77.0122525, "fusion_lat": 0.0, "is_reserved": 0}, {"rental_uris": {"ios": "https://dc.lft.to/lastmile_qr_scan", "android": "https://dc.lft.to/lastmile_qr_scan"}, "fusion_lon": 0.0, "type": "electric_bike", "bike_id": "5f523d17b28faca78633a83da405681f", "name": "5f523d17b28faca78633a83da405681f", "lat": 38.90330933333333, "is_disabled": 0, "lon": -76.97527033333333, "fusion_lat": 0.0, "is_reserved": 0}, {"rental_uris": {"ios": "https://dc.lft.to/lastmile_qr_scan", "android": "https://dc.lft.to/lastmile_qr_scan"}, "fusion_lon": 0.0, "type": "electric_scooter", "bike_id": "f5ae7c7ff5476e4c2616553e020258de", "name": "f5ae7c7ff5476e4c2616553e020258de", "lat": 38.90064816666667, "is_disabled": 0, "lon": -77.04878816666667, "fusion_lat": 0.0, "is_reserved": 0}, {"rental_uris": {"ios": "https://dc.lft.to/lastmile_qr_scan", "android": "https://dc.lft.to/lastmile_qr_scan"}, "fusion_lon": 0.0, "type": "electric_scooter", "bike_id": "3f219276ea3f0a7ac18a58957db3a220", "name": "3f219276ea3f0a7ac18a58957db3a220", "lat": 38.91595383333333, "is_disabled": 0, "lon": -77.0235125, "fusion_lat": 0.0, "is_reserved": 0}, {"rental_uris": {"ios": "https://dc.lft.to/lastmile_qr_scan", "android": "https://dc.lft.to/lastmile_qr_scan"}, "fusion_lon": 0.0, "type": "electric_scooter", "bike_id": "3bb5ae82d9a9c4001b997de767ac5743", "name": "3bb5ae82d9a9c4001b997de767ac5743", "lat": 38.920548333333336, "is_disabled": 0, "lon": -76.99884116666667, "fusion_lat": 0.0, "is_reserved": 0}, {"rental_uris": {"ios": "https://dc.lft.to/lastmile_qr_scan", "android": "https://dc.lft.to/lastmile_qr_scan"}, "fusion_lon": 0.0, "type": "electric_scooter", "bike_id": "c1f24ce3604249e3025c0751ffbe8f2a", "name": "c1f24ce3604249e3025c0751ffbe8f2a", "lat": 38.93498533333333, "is_disabled": 0, "lon": -77.027137, "fusion_lat": 0.0, "is_reserved": 0}, {"rental_uris": {"ios": "https://dc.lft.to/lastmile_qr_scan", "android": "https://dc.lft.to/lastmile_qr_scan"}, "fusion_lon": 0.0, "type": "electric_scooter", "bike_id": "b9224d736d77e91ed904753dc202f4ed", "name": "b9224d736d77e91ed904753dc202f4ed", "lat": 38.8952455, "is_disabled": 0, "lon": -76.9489005, "fusion_lat": 0.0, "is_reserved": 0}, {"rental_uris": {"ios": "https://dc.lft.to/lastmile_qr_scan", "android": "https://dc.lft.to/lastmile_qr_scan"}, "fusion_lon": 0.0, "type": "electric_scooter", "bike_id": "c301d3d94f7bc4e63890a45862238eb0", "name": "c301d3d94f7bc4e63890a45862238eb0", "lat": 38.9318955, "is_disabled": 0, "lon": -77.0283085, "fusion_lat": 0.0, "is_reserved": 0}, {"rental_uris": {"ios": "https://dc.lft.to/lastmile_qr_scan", "android": "https://dc.lft.to/lastmile_qr_scan"}, "fusion_lon": 0.0, "type": "electric_scooter", "bike_id": "a8f90e2114d706ccc7b947cddedb4278", "name": "a8f90e2114d706ccc7b947cddedb4278", "lat": 38.909262166666664, "is_disabled": 0, "lon": -76.992167, "fusion_lat": 0.0, "is_reserved": 0}, {"rental_uris": {"ios": "https://dc.lft.to/lastmile_qr_scan", "android": "https://dc.lft.to/lastmile_qr_scan"}, "fusion_lon": 0.0, "type": "electric_scooter", "bike_id": "10e2f0f8d2ef7c5607283db21dbf9845", "name": "10e2f0f8d2ef7c5607283db21dbf9845", "lat": 38.897848, "is_disabled": 0, "lon": -76.97100716666667, "fusion_lat": 0.0, "is_reserved": 0}, {"rental_uris": {"ios": "https://dc.lft.to/lastmile_qr_scan", "android": "https://dc.lft.to/lastmile_qr_scan"}, "fusion_lon": 0.0, "type": "electric_scooter", "bike_id": "32685b9231b69e7893a092cb5cfbd3a3", "name": "32685b9231b69e7893a092cb5cfbd3a3", "lat": 38.9444465, "is_disabled": 0, "lon": -77.06045966666667, "fusion_lat": 0.0, "is_reserved": 0}, {"rental_uris": {"ios": "https://dc.lft.to/lastmile_qr_scan", "android": "https://dc.lft.to/lastmile_qr_scan"}, "fusion_lon": 0.0, "type": "electric_scooter", "bike_id": "1c9e4a1fe0b1f8fb5a46a7a7e46b5109", "name": "1c9e4a1fe0b1f8fb5a46a7a7e46b5109", "lat": 38.90078533333333, "is_disabled": 0, "lon": -77.03924183333334, "fusion_lat": 0.0, "is_reserved": 0}, {"rental_uris": {"ios": "https://dc.lft.to/lastmile_qr_scan", "android": "https://dc.lft.to/lastmile_qr_scan"}, "fusion_lon": 0.0, "type": "electric_scooter", "bike_id": "cbe8e4198d117a7d049a4dd22de564c4", "name": "cbe8e4198d117a7d049a4dd22de564c4", "lat": 38.910612, "is_disabled": 0, "lon": -77.02183083333334, "fusion_lat": 0.0, "is_reserved": 0}, {"rental_uris": {"ios": "https://dc.lft.to/lastmile_qr_scan", "android": "https://dc.lft.to/lastmile_qr_scan"}, "fusion_lon": 0.0, "type": "electric_scooter", "bike_id": "c7c18b3f8b2aa54f52a0b4fb3e66703f", "name": "c7c18b3f8b2aa54f52a0b4fb3e66703f", "lat": 38.90709733333333, "is_disabled": 0, "lon": -77.02387733333333, "fusion_lat": 0.0, "is_reserved": 0}, {"rental_uris": {"ios": "https://dc.lft.to/lastmile_qr_scan", "android": "https://dc.lft.to/lastmile_qr_scan"}, "fusion_lon": 0.0, "type": "electric_scooter", "bike_id": "eed48f45c822f54c3484fd4797bfb5c4", "name": "eed48f45c822f54c3484fd4797bfb5c4", "lat": 38.90533, "is_disabled": 0, "lon": -77.04749433333333, "fusion_lat": 0.0, "is_reserved": 0}, {"rental_uris": {"ios": "https://dc.lft.to/lastmile_qr_scan", "android": "https://dc.lft.to/lastmile_qr_scan"}, "fusion_lon": 0.0, "type": "electric_scooter", "bike_id": "8d4be9b5faedbde8dd88121c8a6ba011", "name": "8d4be9b5faedbde8dd88121c8a6ba011", "lat": 38.92505716666667, "is_disabled": 0, "lon": -77.03536016666666, "fusion_lat": 0.0, "is_reserved": 0}, {"rental_uris": {"ios": "https://dc.lft.to/lastmile_qr_scan", "android": "https://dc.lft.to/lastmile_qr_scan"}, "fusion_lon": 0.0, "type": "electric_scooter", "bike_id": "265ac21de4e5ca801a1a128852b50008", "name": "265ac21de4e5ca801a1a128852b50008", "lat": 38.91636966666667, "is_disabled": 0, "lon": -77.05056933333333, "fusion_lat": 0.0, "is_reserved": 0}, {"rental_uris": {"ios": "https://dc.lft.to/lastmile_qr_scan", "android": "https://dc.lft.to/lastmile_qr_scan"}, "fusion_lon": 0.0, "type": "electric_scooter", "bike_id": "447cd4d2487f9f0b9cbe729ad0d1fad9", "name": "447cd4d2487f9f0b9cbe729ad0d1fad9", "lat": 38.89744566666667, "is_disabled": 0, "lon": -77.0159685, "fusion_lat": 0.0, "is_reserved": 0}, {"rental_uris": {"ios": "https://dc.lft.to/lastmile_qr_scan", "android": "https://dc.lft.to/lastmile_qr_scan"}, "fusion_lon": 0.0, "type": "electric_scooter", "bike_id": "dfb59a2eb2bdd9c1eaee53d316e52b64", "name": "dfb59a2eb2bdd9c1eaee53d316e52b64", "lat": 38.91586316666667, "is_disabled": 0, "lon": -77.04676816666667, "fusion_lat": 0.0, "is_reserved": 0}, {"rental_uris": {"ios": "https://dc.lft.to/lastmile_qr_scan", "android": "https://dc.lft.to/lastmile_qr_scan"}, "fusion_lon": 0.0, "type": "electric_scooter", "bike_id": "1cc126ddbd546470d1bfd052ba61a4af", "name": "1cc126ddbd546470d1bfd052ba61a4af", "lat": 38.898594333333335, "is_disabled": 0, "lon": -77.01621516666667, "fusion_lat": 0.0, "is_reserved": 0}, {"rental_uris": {"ios": "https://dc.lft.to/lastmile_qr_scan", "android": "https://dc.lft.to/lastmile_qr_scan"}, "fusion_lon": 0.0, "type": "electric_bike", "bike_id": "788b163b723074bb58aa3add1e91805d", "name": "788b163b723074bb58aa3add1e91805d", "lat": 38.9499805, "is_disabled": 0, "lon": -77.35309316666667, "fusion_lat": 0.0, "is_reserved": 0}, {"rental_uris": {"ios": "https://dc.lft.to/lastmile_qr_scan", "android": "https://dc.lft.to/lastmile_qr_scan"}, "fusion_lon": 0.0, "type": "electric_scooter", "bike_id": "578343f4a15461c7d237abb57bbeaceb", "name": "578343f4a15461c7d237abb57bbeaceb", "lat": 38.897565166666666, "is_disabled": 0, "lon": -77.0480925, "fusion_lat": 0.0, "is_reserved": 0}, {"rental_uris": {"ios": "https://dc.lft.to/lastmile_qr_scan", "android": "https://dc.lft.to/lastmile_qr_scan"}, "fusion_lon": 0.0, "type": "electric_scooter", "bike_id": "52eb2633bf5f9ad4e725936254889377", "name": "52eb2633bf5f9ad4e725936254889377", "lat": 38.90812316666667, "is_disabled": 0, "lon": -77.03855066666667, "fusion_lat": 0.0, "is_reserved": 0}, {"rental_uris": {"ios": "https://dc.lft.to/lastmile_qr_scan", "android": "https://dc.lft.to/lastmile_qr_scan"}, "fusion_lon": 0.0, "type": "electric_scooter", "bike_id": "d8789563f0be4cf68a4230bc4696dccb", "name": "d8789563f0be4cf68a4230bc4696dccb", "lat": 38.8462045, "is_disabled": 0, "lon": -76.99630183333333, "fusion_lat": 0.0, "is_reserved": 0}, {"rental_uris": {"ios": "https://dc.lft.to/lastmile_qr_scan", "android": "https://dc.lft.to/lastmile_qr_scan"}, "fusion_lon": 0.0, "type": "electric_scooter", "bike_id": "7f5d5a7cd024a3f463716aab59cfb045", "name": "7f5d5a7cd024a3f463716aab59cfb045", "lat": 38.900639166666664, "is_disabled": 0, "lon": -77.01623466666666, "fusion_lat": 0.0, "is_reserved": 0}, {"rental_uris": {"ios": "https://dc.lft.to/lastmile_qr_scan", "android": "https://dc.lft.to/lastmile_qr_scan"}, "fusion_lon": 0.0, "type": "electric_scooter", "bike_id": "d2093b8a14bf641f601c12746b9eccfd", "name": "d2093b8a14bf641f601c12746b9eccfd", "lat": 38.905360333333334, "is_disabled": 0, "lon": -77.04170866666666, "fusion_lat": 0.0, "is_reserved": 0}, {"rental_uris": {"ios": "https://dc.lft.to/lastmile_qr_scan", "android": "https://dc.lft.to/lastmile_qr_scan"}, "fusion_lon": 0.0, "type": "electric_scooter", "bike_id": "cfb800ce1c49292fa0c84b34fb4c8f4a", "name": "cfb800ce1c49292fa0c84b34fb4c8f4a", "lat": 38.9451675, "is_disabled": 0, "lon": -77.02977866666667, "fusion_lat": 0.0, "is_reserved": 0}, {"rental_uris": {"ios": "https://dc.lft.to/lastmile_qr_scan", "android": "https://dc.lft.to/lastmile_qr_scan"}, "fusion_lon": 0.0, "type": "electric_scooter", "bike_id": "cd2e6a9dcde3b59396a990632b19cfdb", "name": "cd2e6a9dcde3b59396a990632b19cfdb", "lat": 38.898480166666666, "is_disabled": 0, "lon": -77.03113483333334, "fusion_lat": 0.0, "is_reserved": 0}, {"rental_uris": {"ios": "https://dc.lft.to/lastmile_qr_scan", "android": "https://dc.lft.to/lastmile_qr_scan"},