{"data": {"bikes": [{"lat": 38.845873, "is_disabled": 0, "type": "electric_bike", "lon": -77.07675933333333, "bike_id": "ca60c8ac42a9b0d5d7ab12f2c70670b8", "fusion_lat": 0.0, "name": "ca60c8ac42a9b0d5d7ab12f2c70670b8", "is_reserved": 0, "rental_uris": {"android": "https://dc.lft.to/lastmile_qr_scan", "ios": "https://dc.lft.to/lastmile_qr_scan"}, "fusion_lon": 0.0}, {"lat": 38.9083915, "is_disabled": 0, "type": "electric_scooter", "lon": -77.02955033333333, "bike_id": "8cc9bcdd0e362daa996677a00f5c54e9", "fusion_lat": 0.0, "name": "8cc9bcdd0e362daa996677a00f5c54e9", "is_reserved": 0, "rental_uris": {"android": "https://dc.lft.to/lastmile_qr_scan", "ios": "https://dc.lft.to/lastmile_qr_scan"}, "fusion_lon": 0.0}, {"lat": 38.90632683333333, "is_disabled": 0, "type": "electric_scooter", "lon": -77.01365966666667, "bike_id": "fa6df2678ff1c7a2466e3de894b0e655", "fusion_lat": 0.0, "name": "fa6df2678ff1c7a2466e3de894b0e655", "is_reserved": 0, "rental_uris": {"android": "https://dc.lft.to/lastmile_qr_scan", "ios": "https://dc.lft.to/lastmile_qr_scan"}, "fusion_lon": 0.0}, {"lat": 38.94041166666667, "is_disabled": 0, "type": "electric_scooter", "lon": -77.028997, "bike_id": "c207dcd1e354690767878236e7860762", "fusion_lat": 0.0, "name": "c207dcd1e354690767878236e7860762", "is_reserved": 0, "rental_uris": {"android": "https://dc.lft.to/lastmile_qr_scan", "ios": "https://dc.lft.to/lastmile_qr_scan"}, "fusion_lon": 0.0}, {"lat": 38.93200433333333, "is_disabled": 0, "type": "electric_bike", "lon": -77.038755, "bike_id": "f8e8b6ec5642c02197bc6aba891bb574", "fusion_lat": 0.0, "name": "f8e8b6ec5642c02197bc6aba891bb574", "is_reserved": 0, "rental_uris": {"android": "https://dc.lft.to/lastmile_qr_scan", "ios": "https://dc.lft.to/lastmile_qr_scan"}, "fusion_lon": 0.0}, {"lat": 38.81220783333333, "is_disabled": 0, "type": "electric_bike", "lon": -77.10983083333333, "bike_id": "a2c9d2738d3a87a318c838dafd00bfbc", "fusion_lat": 0.0, "name": "a2c9d2738d3a87a318c838dafd00bfbc", "is_reserved": 0, "rental_uris": {"android": "https://dc.lft.to/lastmile_qr_scan", "ios": "https://dc.lft.to/lastmile_qr_scan"}, "fusion_lon": 0.0}, {"lat": 38.907433833333336, "is_disabled": 0, "type": "electric_scooter", "lon": -77.00092966666666, "bike_id": "8f01c05e943681869a1aa13fde3b53d6", "fusion_lat": 0.0, "name": "8f01c05e943681869a1aa13fde3b53d6", "is_reserved": 0, "rental_uris": {"android": "https://dc.lft.to/lastmile_qr_scan", "ios": "https://dc.lft.to/lastmile_qr_scan"}, "fusion_lon": 0.0}, {"lat": 38.87659016666667, "is_disabled": 0, "type": "electric_scooter", "lon": -77.0042445, "bike_id": "7a876548a240474926970e8f915f473d", "fusion_lat": 0.0, "name": "7a876548a240474926970e8f915f473d", "is_reserved": 0, "rental_uris": {"android": "https://dc.lft.to/lastmile_qr_scan", "ios": "https://dc.lft.to/lastmile_qr_scan"}, "fusion_lon": 0.0}, {"lat": 38.86620533333333, "is_disabled": 0, "type": "electric_scooter", "lon": -76.98663716666667, "bike_id": "da718a8150b8bdb2e6b37fc26577cb18", "fusion_lat": 0.0, "name": "da718a8150b8bdb2e6b37fc26577cb18", "is_reserved": 0, "rental_uris": {"android": "https://dc.lft.to/lastmile_qr_scan", "ios": "https://dc.lft.to/lastmile_qr_scan"}, "fusion_lon": 0.0}, {"lat": 38.8800065, "is_disabled": 0, "type": "electric_scooter", "lon": -77.00523516666667, "bike_id": "27d0d428976b00e2acee35a86227673c", "fusion_lat": 0.0, "name": "27d0d428976b00e2acee35a86227673c", "is_reserved": 0, "rental_uris": {"android": "https://dc.lft.to/lastmile_qr_scan", "ios": "https://dc.lft.to/lastmile_qr_scan"}, "fusion_lon": 0.0}, {"lat": 38.9315735, "is_disabled": 0, "type": "electric_scooter", "lon": -77.04572433333334, "bike_id": "e03cd18cf865f1cf72d2e46470aecbd9", "fusion_lat": 0.0, "name": "e03cd18cf865f1cf72d2e46470aecbd9", "is_reserved": 0, "rental_uris": {"android": "https://dc.lft.to/lastmile_qr_scan", "ios": "https://dc.lft.to/lastmile_qr_scan"}, "fusion_lon": 0.0}, {"lat": 38.902517833333334, "is_disabled": 0, "type": "electric_scooter", "lon": -77.01751883333333, "bike_id": "e59efc60d9dd115ca71ff78d7a277153", "fusion_lat": 0.0, "name": "e59efc60d9dd115ca71ff78d7a277153", "is_reserved": 0, "rental_uris": {"android": "https://dc.lft.to/lastmile_qr_scan", "ios": "https://dc.lft.to/lastmile_qr_scan"}, "fusion_lon": 0.0}, {"lat": 38.91697283333333, "is_disabled": 0, "type": "electric_scooter", "lon": -77.0313365, "bike_id": "b36ae60be9c114b29a98d5fb803c83a1", "fusion_lat": 0.0, "name": "b36ae60be9c114b29a98d5fb803c83a1", "is_reserved": 0, "rental_uris": {"android": "https://dc.lft.to/lastmile_qr_scan", "ios": "https://dc.lft.to/lastmile_qr_scan"}, "fusion_lon": 0.0}, {"lat": 38.94432966666667, "is_disabled": 0, "type": "electric_scooter", "lon": -76.99203866666667, "bike_id": "a2b108f1e3054aced0774b4385b20afc", "fusion_lat": 0.0, "name": "a2b108f1e3054aced0774b4385b20afc", "is_reserved": 0, "rental_uris": {"android": "https://dc.lft.to/lastmile_qr_scan", "ios": "https://dc.lft.to/lastmile_qr_scan"}, "fusion_lon": 0.0}, {"lat": 38.88612716666667, "is_disabled": 0, "type": "electric_scooter", "lon": -77.0216685, "bike_id": "c2107ec980ae154aaa5e4aca54617c4c", "fusion_lat": 0.0, "name": "c2107ec980ae154aaa5e4aca54617c4c", "is_reserved": 0, "rental_uris": {"android": "https://dc.lft.to/lastmile_qr_scan", "ios": "https://dc.lft.to/lastmile_qr_scan"}, "fusion_lon": 0.0}, {"lat": 38.905088, "is_disabled": 0, "type": "electric_scooter", "lon": -77.02583983333334, "bike_id": "1353b3a83c700c026aab1ce0254c6719", "fusion_lat": 0.0, "name": "1353b3a83c700c026aab1ce0254c6719", "is_reserved": 0, "rental_uris": {"android": "https://dc.lft.to/lastmile_qr_scan", "ios": "https://dc.lft.to/lastmile_qr_scan"}, "fusion_lon": 0.0}, {"lat": 38.90575616666667, "is_disabled": 0, "type": "electric_scooter", "lon": -77.03431766666667, "bike_id": "b3d865a940f6a8021007f01826e58cfa", "fusion_lat": 0.0, "name": "b3d865a940f6a8021007f01826e58cfa", "is_reserved": 0, "rental_uris": {"android": "https://dc.lft.to/lastmile_qr_scan", "ios": "https://dc.lft.to/lastmile_qr_scan"}, "fusion_lon": 0.0}, {"lat": 38.92426966666667, "is_disabled": 0, "type": "electric_scooter", "lon": -77.05177316666666, "bike_id": "a50339ae34f5037f829ba7ed2bf3f581", "fusion_lat": 0.0, "name": "a50339ae34f5037f829ba7ed2bf3f581", "is_reserved": 0, "rental_uris": {"android": "https://dc.lft.to/lastmile_qr_scan", "ios": "https://dc.lft.to/lastmile_qr_scan"}, "fusion_lon": 0.0}, {"lat": 38.893441, "is_disabled": 0, "type": "electric_scooter", "lon": -76.94930483333333, "bike_id": "1a09b14186ec147180447c7d6d31648c", "fusion_lat": 0.0, "name": "1a09b14186ec147180447c7d6d31648c", "is_reserved": 0, "rental_uris": {"android": "https://dc.lft.to/lastmile_qr_scan", "ios": "https://dc.lft.to/lastmile_qr_scan"}, "fusion_lon": 0.0}, {"lat": 38.91821983333333, "is_disabled": 0, "type": "electric_scooter", "lon": -77.0344425, "bike_id": "a217fbcbf6ca45d9a496004bcfb2d250", "fusion_lat": 0.0, "name": "a217fbcbf6ca45d9a496004bcfb2d250", "is_reserved": 0, "rental_uris": {"android": "https://dc.lft.to/lastmile_qr_scan", "ios": "https://dc.lft.to/lastmile_qr_scan"}, "fusion_lon": 0.0}, {"lat": 38.8737225, "is_disabled": 0, "type": "electric_bike", "lon": -77.11796533333333, "bike_id": "e109edad84f5802edc87e1ded9c39e28", "fusion_lat": 0.0, "name": "e109edad84f5802edc87e1ded9c39e28", "is_reserved": 0, "rental_uris": {"android": "https://dc.lft.to/lastmile_qr_scan", "ios": "https://dc.lft.to/lastmile_qr_scan"}, "fusion_lon": 0.0}, {"lat": 38.907468333333334, "is_disabled": 0, "type": "electric_scooter", "lon": -77.02987516666667, "bike_id": "a65bc051dd0da6ad09f85304a63cfaf2", "fusion_lat": 0.0, "name": "a65bc051dd0da6ad09f85304a63cfaf2", "is_reserved": 0, "rental_uris": {"android": "https://dc.lft.to/lastmile_qr_scan", "ios": "https://dc.lft.to/lastmile_qr_scan"}, "fusion_lon": 0.0}, {"lat": 38.92876166666667, "is_disabled": 0, "type": "electric_scooter", "lon": -77.02699283333334, "bike_id": "e0b432ae9595720831b4bc676a80d1dd", "fusion_lat": 0.0, "name": "e0b432ae9595720831b4bc676a80d1dd", "is_reserved": 0, "rental_uris": {"android": "https://dc.lft.to/lastmile_qr_scan", "ios": "https://dc.lft.to/lastmile_qr_scan"}, "fusion_lon": 0.0}, {"lat": 38.92484133333333, "is_disabled": 0, "type": "electric_scooter", "lon": -77.02723083333333, "bike_id": "306cf010c5d1c3fdc792ad66cdefb4fa", "fusion_lat": 0.0, "name": "306cf010c5d1c3fdc792ad66cdefb4fa", "is_reserved": 0, "rental_uris": {"android": "https://dc.lft.to/lastmile_qr_scan", "ios": "https://dc.lft.to/lastmile_qr_scan"}, "fusion_lon": 0.0}, {"lat": 38.921553333333335, "is_disabled": 0, "type": "electric_scooter", "lon": -77.042304, "bike_id": "b326ca2b3f4741c039cedaed92a9dac3", "fusion_lat": 0.0, "name": "b326ca2b3f4741c039cedaed92a9dac3", "is_reserved": 0, "rental_uris": {"android": "https://dc.lft.to/lastmile_qr_scan", "ios": "https://dc.lft.to/lastmile_qr_scan"}, "fusion_lon": 0.0}, {"lat": 38.91726716666667, "is_disabled": 0, "type": "electric_scooter", "lon": -77.04095, "bike_id": "157be6818cceb4196088fe026995008b", "fusion_lat": 0.0, "name": "157be6818cceb4196088fe026995008b", "is_reserved": 0, "rental_uris": {"android": "https://dc.lft.to/lastmile_qr_scan", "ios": "https://dc.lft.to/lastmile_qr_scan"}, "fusion_lon": 0.0}, {"lat": 38.8961765, "is_disabled": 0, "type": "electric_scooter", "lon": -77.02182266666667, "bike_id": "2c8b5fc165e25903047d3444bec6df99", "fusion_lat": 0.0, "name": "2c8b5fc165e25903047d3444bec6df99", "is_reserved": 0, "rental_uris": {"android": "https://dc.lft.to/lastmile_qr_scan", "ios": "https://dc.lft.to/lastmile_qr_scan"}, "fusion_lon": 0.0}, {"lat": 38.86654166666667, "is_disabled": 0, "type": "electric_scooter", "lon": -76.99009416666667, "bike_id": "19937c00f57bc98eb8654ca7c2891bef", "fusion_lat": 0.0, "name": "19937c00f57bc98eb8654ca7c2891bef", "is_reserved": 0, "rental_uris": {"android": "https://dc.lft.to/lastmile_qr_scan", "ios": "https://dc.lft.to/lastmile_qr_scan"}, "fusion_lon": 0.0}, {"lat": 38.908232166666664, "is_disabled": 0, "type": "electric_scooter", "lon": -76.94146166666667, "bike_id": "00d1f6326b8b59f57429b3f9008f9b29", "fusion_lat": 0.0, "name": "00d1f6326b8b59f57429b3f9008f9b29", "is_reserved": 0, "rental_uris": {"android": "https://dc.lft.to/lastmile_qr_scan", "ios": "https://dc.lft.to/lastmile_qr_scan"}, "fusion_lon": 0.0}, {"lat": 38.88731933333333, "is_disabled": 0, "type": "electric_scooter", "lon": -77.03189683333333, "bike_id": "8e103bce439977cd1f53d0c2023115ec", "fusion_lat": 0.0, "name": "8e103bce439977cd1f53d0c2023115ec", "is_reserved": 0, "rental_uris": {"android": "https://dc.lft.to/lastmile_qr_scan", "ios": "https://dc.lft.to/lastmile_qr_scan"}, "fusion_lon": 0.0}, {"lat": 38.90500766666667, "is_disabled": 0, "type": "electric_scooter", "lon": -77.00925383333333, "bike_id": "170b4cca3401e4c2efbd775471e98f63", "fusion_lat": 0.0, "name": "170b4cca3401e4c2efbd775471e98f63", "is_reserved": 0, "rental_uris": {"android": "https://dc.lft.to/lastmile_qr_scan", "ios": "https://dc.lft.to/lastmile_qr_scan"}, "fusion_lon": 0.0}, {"lat": 38.84426366666667, "is_disabled": 0, "type": "electric_scooter", "lon": -76.997742, "bike_id": "3dbded266b8bc4aa211e1549905dde43", "fusion_lat": 0.0, "name": "3dbded266b8bc4aa211e1549905dde43", "is_reserved": 0, "rental_uris": {"android": "https://dc.lft.to/lastmile_qr_scan", "ios": "https://dc.lft.to/lastmile_qr_scan"}, "fusion_lon": 0.0}, {"lat": 39.03430633333333, "is_disabled": 0, "type": "electric_bike", "lon": -77.04298433333334, "bike_id": "c35e1424ad836af9dea4b11b5b6b44af", "fusion_lat": 0.0, "name": "c35e1424ad836af9dea4b11b5b6b44af", "is_reserved": 0, "rental_uris": {"android": "https://dc.lft.to/lastmile_qr_scan", "ios": "https://dc.lft.to/lastmile_qr_scan"}, "fusion_lon": 0.0}, {"lat": 38.9348385, "is_disabled": 0, "type": "electric_scooter", "lon": -77.03607116666667, "bike_id": "781e3309ac8162793a77fa1d924b252e", "fusion_lat": 0.0, "name": "781e3309ac8162793a77fa1d924b252e", "is_reserved": 0, "rental_uris": {"android": "https://dc.lft.to/lastmile_qr_scan", "ios": "https://dc.lft.to/lastmile_qr_scan"}, "fusion_lon": 0.0}, {"lat": 38.903931166666666, "is_disabled": 0, "type": "electric_scooter", "lon": -77.04862033333333, "bike_id": "5fe0bd59a520958487bf6ad11f7ceb24", "fusion_lat": 0.0, "name": "5fe0bd59a520958487bf6ad11f7ceb24", "is_reserved": 0, "rental_uris": {"android": "https://dc.lft.to/lastmile_qr_scan", "ios": "https://dc.lft.to/lastmile_qr_scan"}, "fusion_lon": 0.0}, {"lat": 38.880922166666664, "is_disabled": 0, "type": "electric_scooter", "lon": -76.9925415, "bike_id": "630a284a204da305cbecc5760e61907d", "fusion_lat": 0.0, "name": "630a284a204da305cbecc5760e61907d", "is_reserved": 0, "rental_uris": {"android": "https://dc.lft.to/lastmile_qr_scan", "ios": "https://dc.lft.to/lastmile_qr_scan"}, "fusion_lon": 0.0}, {"lat": 38.88746166666667, "is_disabled": 0, "type": "electric_scooter", "lon": -77.02833583333333, "bike_id": "a7d82e9045a197101ece61e0c647dcc7", "fusion_lat": 0.0, "name": "a7d82e9045a197101ece61e0c647dcc7", "is_reserved": 0, "rental_uris": {"android": "https://dc.lft.to/lastmile_qr_scan", "ios": "https://dc.lft.to/lastmile_qr_scan"}, "fusion_lon": 0.0}, {"lat": 38.97327283333333, "is_disabled": 0, "type": "electric_bike", "lon": -77.02147283333333, "bike_id": "bcf7aec635ba9000cf27023c2fa38142", "fusion_lat": 0.0, "name": "bcf7aec635ba9000cf27023c2fa38142", "is_reserved": 0, "rental_uris": {"android": "https://dc.lft.to/lastmile_qr_scan", "ios": "https://dc.lft.to/lastmile_qr_scan"}, "fusion_lon": 0.0}, {"lat": 38.93655316666667, "is_disabled": 0, "type": "electric_bike", "lon": -76.95215916666666, "bike_id": "5f4eb95082e776397321cd55ca6352c4", "fusion_lat": 0.0, "name": "5f4eb95082e776397321cd55ca6352c4", "is_reserved": 0, "rental_uris": {"android": "https://dc.lft.to/lastmile_qr_scan", "ios": "https://dc.lft.to/lastmile_qr_scan"}, "fusion_lon": 0.0}, {"lat": 38.91429516666667, "is_disabled": 0, "type": "electric_scooter", "lon": -77.01704216666667, "bike_id": "f12d2166b7519f27d054990b9eb178c9", "fusion_lat": 0.0, "name": "f12d2166b7519f27d054990b9eb178c9", "is_reserved": 0, "rental_uris": {"android": "https://dc.lft.to/lastmile_qr_scan", "ios": "https://dc.lft.to/lastmile_qr_scan"}, "fusion_lon": 0.0}, {"lat": 38.90645116666666, "is_disabled": 0, "type": "electric_scooter", "lon": -77.03454383333333, "bike_id": "94e258261c27fc55f0cf6ba01e37a0cd", "fusion_lat": 0.0, "name": "94e258261c27fc55f0cf6ba01e37a0cd", "is_reserved": 0, "rental_uris": {"android": "https://dc.lft.to/lastmile_qr_scan", "ios": "https://dc.lft.to/lastmile_qr_scan"}, "fusion_lon": 0.0}, {"lat": 38.88121016666667, "is_disabled": 0, "type": "electric_scooter", "lon": -77.0009945, "bike_id": "542111e919a656e87d125aa423e11feb", "fusion_lat": 0.0, "name": "542111e919a656e87d125aa423e11feb", "is_reserved": 0, "rental_uris": {"android": "https://dc.lft.to/lastmile_qr_scan", "ios": "https://dc.lft.to/lastmile_qr_scan"}, "fusion_lon": 0.0}, {"lat": 38.9279175, "is_disabled": 0, "type": "electric_scooter", "lon": -77.025996, "bike_id": "7d03feeea9c2fd503489a58bf1bf1290", "fusion_lat": 0.0, "name": "7d03feeea9c2fd503489a58bf1bf1290", "is_reserved": 0, "rental_uris": {"android": "https://dc.lft.to/lastmile_qr_scan", "ios": "https://dc.lft.to/lastmile_qr_scan"}, "fusion_lon": 0.0}, {"lat": 38.92440633333333, "is_disabled": 0, "type": "electric_scooter", "lon": -77.033989, "bike_id": "178766c99cff88f366a9365509611672", "fusion_lat": 0.0, "name": "178766c99cff88f366a9365509611672", "is_reserved": 0, "rental_uris": {"android": "https://dc.lft.to/lastmile_qr_scan", "ios": "https://dc.lft.to/lastmile_qr_scan"}, "fusion_lon": 0.0}, {"lat": 38.906935, "is_disabled": 0, "type": "electric_scooter", "lon": -76.99950916666667, "bike_id": "07e07f4fafbe1e3d3c546a54fa55a615", "fusion_lat": 0.0, "name": "07e07f4fafbe1e3d3c546a54fa55a615", "is_reserved": 0, "rental_uris": {"android": "https://dc.lft.to/lastmile_qr_scan", "ios": "https://dc.lft.to/lastmile_qr_scan"}, "fusion_lon": 0.0}, {"lat": 38.9027565, "is_disabled": 0, "type": "electric_scooter", "lon": -77.0337715, "bike_id": "d4dc61deb6e9764a8591f6da619c21db", "fusion_lat": 0.0, "name": "d4dc61deb6e9764a8591f6da619c21db", "is_reserved": 0, "rental_uris": {"android": "https://dc.lft.to/lastmile_qr_scan", "ios": "https://dc.lft.to/lastmile_qr_scan"}, "fusion_lon": 0.0}, {"lat": 38.91325233333333, "is_disabled": 0, "type": "electric_scooter", "lon": -77.03987033333334, "bike_id": "0cd4b1fac0e81fc0531f397b4d6f8eb2", "fusion_lat": 0.0, "name": "0cd4b1fac0e81fc0531f397b4d6f8eb2", "is_reserved": 0, "rental_uris": {"android": "https://dc.lft.to/lastmile_qr_scan", "ios": "https://dc.lft.to/lastmile_qr_scan"}, "fusion_lon": 0.0}, {"lat": 38.911838833333334, "is_disabled": 0, "type": "electric_scooter", "lon": -77.038317, "bike_id": "caa9bd8b2070174aea98ddcb4292ef63", "fusion_lat": 0.0, "name": "caa9bd8b2070174aea98ddcb4292ef63", "is_reserved": 0, "rental_uris": {"android": "https://dc.lft.to/lastmile_qr_scan", "ios": "https://dc.lft.to/lastmile_qr_scan"}, "fusion_lon": 0.0}, {"lat": 38.897706166666666, "is_disabled": 0, "type": "electric_scooter", "lon": -77.03207466666667, "bike_id": "1ef5e1c6980ff661e86de50d39936bba", "fusion_lat": 0.0, "name": "1ef5e1c6980ff661e86de50d39936bba", "is_reserved": 0, "rental_uris": {"android": "https://dc.lft.to/lastmile_qr_scan", "ios": "https://dc.lft.to/lastmile_qr_scan"}, "fusion_lon": 0.0}, {"lat": 38.868900833333335, "is_disabled": 0, "type": "electric_scooter", "lon": -76.98308966666667, "bike_id": "394de65ecac9f4555d5255599652214b", "fusion_lat": 0.0, "name": "394de65ecac9f4555d5255599652214b", "is_reserved": 0, "rental_uris": {"android": "https://dc.lft.to/lastmile_qr_scan", "ios": "https://dc.lft.to/lastmile_qr_scan"}, "fusion_lon": 0.0}, {"lat": 38.8734025, "is_disabled": 0, "type": "electric_scooter", "lon": -76.99163966666667, "bike_id": "6e7c53ee15487065ceecae7e2fa09d80", "fusion_lat": 0.0, "name": "6e7c53ee15487065ceecae7e2fa09d80", "is_reserved": 0, "rental_uris": {"android": "https://dc.lft.to/lastmile_qr_scan", "ios": "https://dc.lft.to/lastmile_qr_scan"}, "fusion_lon": 0.0}, {"lat": 38.90497083333333, "is_disabled": 0, "type": "electric_scooter", "lon": -77.0683085, "bike_id": "887ad0f30db5b6e76a2a4caa2b69b6ca", "fusion_lat": 0.0, "name": "887ad0f30db5b6e76a2a4caa2b69b6ca", "is_reserved": 0, "rental_uris": {"android": "https://dc.lft.to/lastmile_qr_scan", "ios": "https://dc.lft.to/lastmile_qr_scan"}, "fusion_lon": 0.0}, {"lat": 38.938940833333334, "is_disabled": 0, "type": "electric_scooter", "lon": -77.02822316666666, "bike_id": "bfa3830a6052e738e7104d589ab5161d", "fusion_lat": 0.0, "name": "bfa3830a6052e738e7104d589ab5161d", "is_reserved": 0, "rental_uris": {"android": "https://dc.lft.to/lastmile_qr_scan", "ios": "https://dc.lft.to/lastmile_qr_scan"}, "fusion_lon": 0.0}, {"lat": 38.91550183333333, "is_disabled": 0, "type": "electric_scooter", "lon": -77.041543, "bike_id": "e9ba1ff1906b8b9cfbe05fd58408e06e", "fusion_lat": 0.0, "name": "e9ba1ff1906b8b9cfbe05fd58408e06e", "is_reserved": 0, "rental_uris": {"android": "https://dc.lft.to/lastmile_qr_scan", "ios": "https://dc.lft.to/lastmile_qr_scan"}, "fusion_lon": 0.0}, {"lat": 38.94435583333333, "is_disabled": 0, "type": "electric_scooter", "lon": -77.0635275, "bike_id": "1b676f6525ab37a3920e57304be45ce5", "fusion_lat": 0.0, "name": "1b676f6525ab37a3920e57304be45ce5", "is_reserved": 0, "rental_uris": {"android": "https://dc.lft.to/lastmile_qr_scan", "ios": "https://dc.lft.to/lastmile_qr_scan"}, "fusion_lon": 0.0}, {"lat": 38.90490066666667, "is_disabled": 0, "type": "electric_scooter", "lon": -77.02006083333333, "bike_id": "70806abc7b2ba823ddb46b821f2dfa28", "fusion_lat": 0.0, "name": "70806abc7b2ba823ddb46b821f2dfa28", "is_reserved": 0, "rental_uris": {"android": "https://dc.lft.to/lastmile_qr_scan", "ios": "https://dc.lft.to/lastmile_qr_scan"}, "fusion_lon": 0.0}, {"lat": 38.9049435, "is_disabled": 0, "type": "electric_scooter", "lon": -76.9871435, "bike_id": "4d284ed1dc157409feb510fc8a79c07d", "fusion_lat": 0.0, "name": "4d284ed1dc157409feb510fc8a79c07d", "is_reserved": 0, "rental_uris": {"android": "https://dc.lft.to/lastmile_qr_scan", "ios": "https://dc.lft.to/lastmile_qr_scan"}, "fusion_lon": 0.0}, {"lat": 38.924752166666664, "is_disabled": 0, "type": "electric_scooter", "lon": -77.026471, "bike_id": "bd665e764940e6acbfb8956b47ee0541", "fusion_lat": 0.0, "name": "bd665e764940e6acbfb8956b47ee0541", "is_reserved": 0, "rental_uris": {"android": "https://dc.lft.to/lastmile_qr_scan", "ios": "https://dc.lft.to/lastmile_qr_scan"}, "fusion_lon": 0.0}, {"lat": 38.8839255, "is_disabled": 0, "type": "electric_scooter", "lon": -77.01885566666667, "bike_id": "8d9354fa10ce6ef6b6f8e3ae0d5d4f32", "fusion_lat": 0.0, "name": "8d9354fa10ce6ef6b6f8e3ae0d5d4f32", "is_reserved": 0, "rental_uris": {"android": "https://dc.lft.to/lastmile_qr_scan", "ios": "https://dc.lft.to/lastmile_qr_scan"}, "fusion_lon": 0.0}, {"lat": 38.91230566666667, "is_disabled": 0, "type": "electric_scooter", "lon": -77.00216666666667, "bike_id": "db794d9db70db6bc8433a5ad17e045ee", "fusion_lat": 0.0, "name": "db794d9db70db6bc8433a5ad17e045ee", "is_reserved": 0, "rental_uris": {"android": "https://dc.lft.to/lastmile_qr_scan", "ios": "https://dc.lft.to/lastmile_qr_scan"}, "fusion_lon": 0.0}, {"lat": 38.90916583333333, "is_disabled": 0, "type": "electric_scooter", "lon": -77.03642716666667, "bike_id": "b7051d42698d7253fc6eae95075cc5c9", "fusion_lat": 0.0, "name": "b7051d42698d7253fc6eae95075cc5c9", "is_reserved": 0, "rental_uris": {"android": "https://dc.lft.to/lastmile_qr_scan", "ios": "https://dc.lft.to/lastmile_qr_scan"}, "fusion_lon": 0.0}, {"lat": 38.903830166666665, "is_disabled": 0, "type": "electric_scooter", "lon": -77.02171533333333, "bike_id": "2ceca7ce53da04bcaff8fba39eb7f748", "fusion_lat": 0.0, "name": "2ceca7ce53da04bcaff8fba39eb7f748", "is_reserved": 0, "rental_uris": {"android": "https://dc.lft.to/lastmile_qr_scan", "ios": "https://dc.lft.to/lastmile_qr_scan"}, "fusion_lon": 0.0}, {"lat": 38.87131016666667, "is_disabled": 0, "type": "electric_scooter", "lon": -77.00780033333334, "bike_id": "8b1f9076d6c8d9510be50413a753bd44", "fusion_lat": 0.0, "name": "8b1f9076d6c8d9510be50413a753bd44", "is_reserved": 0, "rental_uris": {"android": "https://dc.lft.to/lastmile_qr_scan", "ios": "https://dc.lft.to/lastmile_qr_scan"}, "fusion_lon": 0.0}, {"lat": 39.000062666666665, "is_disabled": 0, "type": "electric_bike", "lon": -76.9107495, "bike_id": "27ac414378c0b9f7386faa0744d943c1", "fusion_lat": 0.0, "name": "27ac414378c0b9f7386faa0744d943c1", "is_reserved": 0, "rental_uris": {"android": "https://dc.lft.to/lastmile_qr_scan", "ios": "https://dc.lft.to/lastmile_qr_scan"}, "fusion_lon": 0.0}, {"lat": 38.909783166666664, "is_disabled": 0, "type": "electric_scooter", "lon": -76.99727516666667, "bike_id": "c9e8211263b1bd56675a2920ebbba71c", "fusion_lat": 0.0, "name": "c9e8211263b1bd56675a2920ebbba71c", "is_reserved": 0, "rental_uris": {"android": "https://dc.lft.to/lastmile_qr_scan", "ios": "https://dc.lft.to/lastmile_qr_scan"}, "fusion_lon": 0.0}, {"lat": 38.956084833333335, "is_disabled": 0, "type": "electric_scooter", "lon": -77.02782666666667, "bike_id": "f88b4c24f55b418e9f8d771983987b3c", "fusion_lat": 0.0, "name": "f88b4c24f55b418e9f8d771983987b3c", "is_reserved": 0, "rental_uris": {"android": "https://dc.lft.to/lastmile_qr_scan", "ios": "https://dc.lft.to/lastmile_qr_scan"}, "fusion_lon": 0.0}, {"lat": 38.82869183333333, "is_disabled": 0, "type": "electric_bike", "lon": -77.11216333333333, "bike_id": "0d37b664d0c7961e988c20cbd56d861e", "fusion_lat": 0.0, "name": "0d37b664d0c7961e988c20cbd56d861e", "is_reserved": 0, "rental_uris": {"android": "https://dc.lft.to/lastmile_qr_scan", "ios": "https://dc.lft.to/lastmile_qr_scan"}, "fusion_lon": 0.0}, {"lat": 38.901846166666665, "is_disabled": 0, "type": "electric_scooter", "lon": -77.02406533333334, "bike_id": "9e149ec5b4dfe551dcec79e305dba948", "fusion_lat": 0.0, "name": "9e149ec5b4dfe551dcec79e305dba948", "is_reserved": 0, "rental_uris": {"android": "https://dc.lft.to/lastmile_qr_scan", "ios": "https://dc.lft.to/lastmile_qr_scan"}, "fusion_lon": 0.0}, {"lat": 38.91922183333333, "is_disabled": 0, "type": "electric_scooter", "lon": -77.03179683333333, "bike_id": "ea55b99ce56ee927182658946a6040db", "fusion_lat": 0.0, "name": "ea55b99ce56ee927182658946a6040db", "is_reserved": 0, "rental_uris": {"android": "https://dc.lft.to/lastmile_qr_scan", "ios": "https://dc.lft.to/lastmile_qr_scan"}, "fusion_lon": 0.0}, {"lat": 38.91554083333333, "is_disabled": 0, "type": "electric_scooter", "lon": -77.03864283333333, "bike_id": "63a3d0b2c13a358c10adeedd23aa3038", "fusion_lat": 0.0, "name": "63a3d0b2c13a358c10adeedd23aa3038", "is_reserved": 0, "rental_uris": {"android": "https://dc.lft.to/lastmile_qr_scan", "ios": "https://dc.lft.to/lastmile_qr_scan"}, "fusion_lon": 0.0}, {"lat": 38.90363716666667, "is_disabled": 0, "type": "electric_scooter", "lon": -77.0384815, "bike_id": "e7f7425b7d80f2692e7efd65017d4d2c", "fusion_lat": 0.0, "name": "e7f7425b7d80f2692e7efd65017d4d2c", "is_reserved": 0, "rental_uris": {"android": "https://dc.lft.to/lastmile_qr_scan", "ios": "https://dc.lft.to/lastmile_qr_scan"}, "fusion_lon": 0.0}, {"lat": 38.905595, "is_disabled": 0, "type": "electric_scooter", "lon": -77.00600866666667, "bike_id": "35ae480aafa9a730d4c7422d8b3ce909", "fusion_lat": 0.0, "name": "35ae480aafa9a730d4c7422d8b3ce909", "is_reserved": 0, "rental_uris": {"android": "https://dc.lft.to/lastmile_qr_scan", "ios": "https://dc.lft.to/lastmile_qr_scan"}, "fusion_lon": 0.0}, {"lat": 38.866459666666664, "is_disabled": 0, "type": "electric_scooter", "lon": -76.98882716666667, "bike_id": "a2a60ee4f31463112a1c52407b260aa7", "fusion_lat": 0.0, "name": "a2a60ee4f31463112a1c52407b260aa7", "is_reserved": 0, "rental_uris": {"android": "https://dc.lft.to/lastmile_qr_scan", "ios": "https://dc.lft.to/lastmile_qr_scan"}, "fusion_lon": 0.0}, {"lat": 38.8998985, "is_disabled": 0, "type": "electric_scooter", "lon": -77.02287266666667, "bike_id": "b4b46ea1ca7062a9f1963c050586c26b", "fusion_lat": 0.0, "name": "b4b46ea1ca7062a9f1963c050586c26b", "is_reserved": 0, "rental_uris": {"android": "https://dc.lft.to/lastmile_qr_scan", "ios": "https://dc.lft.to/lastmile_qr_scan"}, "fusion_lon": 0.0}, {"lat": 38.954050333333335, "is_disabled": 0, "type": "electric_scooter", "lon": -77.02749633333333, "bike_id": "56f40ec9f15ae6eb44b52765e1a9b15d", "fusion_lat": 0.0, "name": "56f40ec9f15ae6eb44b52765e1a9b15d", "is_reserved": 0, "rental_uris": {"android": "https://dc.lft.to/lastmile_qr_scan", "ios": "https://dc.lft.to/lastmile_qr_scan"}, "fusion_lon": 0.0}, {"lat": 38.87655016666667, "is_disabled": 0, "type": "electric_scooter", "lon": -77.00423466666666, "bike_id": "d9662c085573349e33b5f5582b10615f", "fusion_lat": 0.0, "name": "d9662c085573349e33b5f5582b10615f", "is_reserved": 0, "rental_uris": {"android": "https://dc.lft.to/lastmile_qr_scan", "ios": "https://dc.lft.to/lastmile_qr_scan"}, "fusion_lon": 0.0}, {"lat": 38.95922133333333, "is_disabled": 0, "type": "electric_bike", "lon": -77.0311965, "bike_id": "ef8651b4e0069d43e91685ab6959c91a", "fusion_lat": 0.0, "name": "ef8651b4e0069d43e91685ab6959c91a", "is_reserved": 0, "rental_uris": {"android": "https://dc.lft.to/lastmile_qr_scan", "ios": "https://dc.lft.to/lastmile_qr_scan"}, "fusion_lon": 0.0}, {"lat": 38.90861133333333, "is_disabled": 0, "type": "electric_bike", "lon": -77.08074333333333, "bike_id": "e2cb5139269ba7c692c066feacfa5c33", "fusion_lat": 0.0, "name": "e2cb5139269ba7c692c066feacfa5c33", "is_reserved": 0, "rental_uris": {"android": "https://dc.lft.to/lastmile_qr_scan", "ios": "https://dc.lft.to/lastmile_qr_scan"}, "fusion_lon": 0.0}, {"lat": 38.91723, "is_disabled": 0, "type": "electric_scooter", "lon": -77.04103583333334, "bike_id": "cabb60bf18948c0b18d7286498c3dc4c", "fusion_lat": 0.0, "name": "cabb60bf18948c0b18d7286498c3dc4c", "is_reserved": 0, "rental_uris": {"android": "https://dc.lft.to/lastmile_qr_scan", "ios": "https://dc.lft.to/lastmile_qr_scan"}, "fusion_lon": 0.0}, {"lat": 38.92345566666667, "is_disabled": 0, "type": "electric_scooter", "lon": -77.03362833333334, "bike_id": "acb161f4b2a3c6328044a484993a3c03", "fusion_lat": 0.0, "name": "acb161f4b2a3c6328044a484993a3c03", "is_reserved": 0, "rental_uris": {"android": "https://dc.lft.to/lastmile_qr_scan", "ios": "https://dc.lft.to/lastmile_qr_scan"}, "fusion_lon": 0.0}, {"lat": 38.91976366666667, "is_disabled": 0, "type": "electric_scooter", "lon": -76.97303483333333, "bike_id": "5341cdc3e6b96b69fd7f80c9a621134d", "fusion_lat": 0.0, "name": "5341cdc3e6b96b69fd7f80c9a621134d", "is_reserved": 0, "rental_uris": {"android": "https://dc.lft.to/lastmile_qr_scan", "ios": "https://dc.lft.to/lastmile_qr_scan"}, "fusion_lon": 0.0}, {"lat": 38.88467583333333, "is_disabled": 0, "type": "electric_scooter", "lon": -76.9926005, "bike_id": "b6f81adfcd9e2b82c52aff58c58d537b", "fusion_lat": 0.0, "name": "b6f81adfcd9e2b82c52aff58c58d537b", "is_reserved": 0, "rental_uris": {"android": "https://dc.lft.to/lastmile_qr_scan", "ios": "https://dc.lft.to/lastmile_qr_scan"}, "fusion_lon": 0.0}, {"lat": 38.8807705, "is_disabled": 0, "type": "electric_scooter", "lon": -76.98529416666666, "bike_id": "eac47597209b2fbbe7f083f758b3fbad", "fusion_lat": 0.0, "name": "eac47597209b2fbbe7f083f758b3fbad", "is_reserved": 0, "rental_uris": {"android": "https://dc.lft.to/lastmile_qr_scan", "ios": "https://dc.lft.to/lastmile_qr_scan"}, "fusion_lon": 0.0}, {"lat": 38.960180666666666, "is_disabled": 0, "type": "electric_bike", "lon": -77.01726366666666, "bike_id": "882451839b3fb6aa2df3c9fc0f614628", "fusion_lat": 0.0, "name": "882451839b3fb6aa2df3c9fc0f614628", "is_reserved": 0, "rental_uris": {"android": "https://dc.lft.to/lastmile_qr_scan", "ios": "https://dc.lft.to/lastmile_qr_scan"}, "fusion_lon": 0.0}, {"lat": 38.95069733333333, "is_disabled": 0, "type": "electric_scooter", "lon": -77.00874933333333, "bike_id": "dbcc399a429b41be87bb7d4d5eaa5459", "fusion_lat": 0.0, "name": "dbcc399a429b41be87bb7d4d5eaa5459", "is_reserved": 0, "rental_uris": {"android": "https://dc.lft.to/lastmile_qr_scan", "ios": "https://dc.lft.to/lastmile_qr_scan"}, "fusion_lon": 0.0}, {"lat": 38.875843, "is_disabled": 0, "type": "electric_scooter", "lon": -77.01267466666667, "bike_id": "29d1194a95c8134e2c4e09080ea614bd", "fusion_lat": 0.0, "name": "29d1194a95c8134e2c4e09080ea614bd", "is_reserved": 0, "rental_uris": {"android": "https://dc.lft.to/lastmile_qr_scan", "ios": "https://dc.lft.to/lastmile_qr_scan"}, "fusion_lon": 0.0}, {"lat": 39.02932066666666, "is_disabled": 0, "type": "electric_bike", "lon": -77.04925383333334, "bike_id": "7b5d5027553427fa6c54ab343d75b2dc", "fusion_lat": 0.0, "name": "7b5d5027553427fa6c54ab343d75b2dc", "is_reserved": 0, "rental_uris": {"android": "https://dc.lft.to/lastmile_qr_scan", "ios": "https://dc.lft.to/lastmile_qr_scan"}, "fusion_lon": 0.0}, {"lat": 38.88307283333333, "is_disabled": 0, "type": "electric_bike", "lon": -77.03150916666667, "bike_id": "966910ebd88822a8ff6491efff3de276", "fusion_lat": 0.0, "name": "966910ebd88822a8ff6491efff3de276", "is_reserved": 0, "rental_uris": {"android": "https://dc.lft.to/lastmile_qr_scan", "ios": "https://dc.lft.to/lastmile_qr_scan"}, "fusion_lon": 0.0}, {"lat": 38.926102666666665, "is_disabled": 0, "type": "electric_scooter", "lon": -77.0377595, "bike_id": "9a4c7f881c56ddb2933c0627dc933b4e", "fusion_lat": 0.0, "name": "9a4c7f881c56ddb2933c0627dc933b4e", "is_reserved": 0, "rental_uris": {"android": "https://dc.lft.to/lastmile_qr_scan", "ios": "https://dc.lft.to/lastmile_qr_scan"}, "fusion_lon": 0.0}, {"lat": 38.883644833333335, "is_disabled": 0, "type": "electric_scooter", "lon": -76.94155316666667, "bike_id": "acdb3343b4dcebecf5b15ff7f5a456f1", "fusion_lat": 0.0, "name": "acdb3343b4dcebecf5b15ff7f5a456f1", "is_reserved": 0, "rental_uris": {"android": "https://dc.lft.to/lastmile_qr_scan", "ios": "https://dc.lft.to/lastmile_qr_scan"}, "fusion_lon": 0.0}, {"lat": 38.923266, "is_disabled": 0, "type": "electric_scooter", "lon": -77.036643, "bike_id": "5dd7527a7cf6486bb21cba936783f442", "fusion_lat": 0.0, "name": "5dd7527a7cf6486bb21cba936783f442", "is_reserved": 0, "rental_uris": {"android": "https://dc.lft.to/lastmile_qr_scan", "ios": "https://dc.lft.to/lastmile_qr_scan"}, "fusion_lon": 0.0}, {"lat": 38.9234315, "is_disabled": 0, "type": "electric_scooter", "lon": -77.051122, "bike_id": "576be511aa598e4ae97c3a3753ab6ffc", "fusion_lat": 0.0, "name": "576be511aa598e4ae97c3a3753ab6ffc", "is_reserved": 0, "rental_uris": {"android": "https://dc.lft.to/lastmile_qr_scan", "ios": "https://dc.lft.to/lastmile_qr_scan"}, "fusion_lon": 0.0}, {"lat": 38.95886733333333, "is_disabled": 0, "type": "electric_bike", "lon": -76.92491866666667, "bike_id": "5c3957aecd32602f1b47578cc096f235", "fusion_lat": 0.0, "name": "5c3957aecd32602f1b47578cc096f235", "is_reserved": 0, "rental_uris": {"android": "https://dc.lft.to/lastmile_qr_scan", "ios": "https://dc.lft.to/lastmile_qr_scan"}, "fusion_lon": 0.0}, {"lat": 38.95748066666667, "is_disabled": 0, "type": "electric_scooter", "lon": -77.0207145, "bike_id": "3b8eed34e6803176e2b6462e52d0b86c", "fusion_lat": 0.0, "name": "3b8eed34e6803176e2b6462e52d0b86c", "is_reserved": 0, "rental_uris": {"android": "https://dc.lft.to/lastmile_qr_scan", "ios": "https://dc.lft.to/lastmile_qr_scan"}, "fusion_lon": 0.0}, {"lat": 38.916843, "is_disabled": 0, "type": "electric_scooter", "lon": -77.00199683333334, "bike_id": "2ce84f8f1016bfe6f8cfa797bad51bee", "fusion_lat": 0.0, "name": "2ce84f8f1016bfe6f8cfa797bad51bee", "is_reserved": 0, "rental_uris": {"android": "https://dc.lft.to/lastmile_qr_scan", "ios": "https://dc.lft.to/lastmile_qr_scan"}, "fusion_lon": 0.0}, {"lat": 38.92197383333333, "is_disabled": 0, "type": "electric_scooter", "lon": -76.98368016666667, "bike_id": "c242bf31af7f4fc418226ab82021ddf3", "fusion_lat": 0.0, "name": "c242bf31af7f4fc418226ab82021ddf3", "is_reserved": 0, "rental_uris": {"android": "https://dc.lft.to/lastmile_qr_scan", "ios": "https://dc.lft.to/lastmile_qr_scan"}, "fusion_lon": 0.0}, {"lat": 38.9732355, "is_disabled": 0, "type": "electric_bike", "lon": -77.02144616666666, "bike_id": "129d0e9a6055a647845815097779ab72", "fusion_lat": 0.0, "name": "129d0e9a6055a647845815097779ab72", "is_reserved": 0, "rental_uris": {"android": "https://dc.lft.to/lastmile_qr_scan", "ios": "https://dc.lft.to/lastmile_qr_scan"}, "fusion_lon": 0.0}, {"lat": 38.927413666666666, "is_disabled": 0, "type": "electric_scooter", "lon": -77.04286116666667, "bike_id": "2a0faddb3ad74fa2d492176b48d78d13", "fusion_lat": 0.0, "name": "2a0faddb3ad74fa2d492176b48d78d13", "is_reserved": 0, "rental_uris": {"android": "https://dc.lft.to/lastmile_qr_scan", "ios": "https://dc.lft.to/lastmile_qr_scan"}, "fusion_lon": 0.0}, {"lat": 38.89405683333333, "is_disabled": 0, "type": "electric_scooter", "lon": -76.9565945, "bike_id": "380e28a5dbe8902641de834221f44e3d", "fusion_lat": 0.0, "name": "380e28a5dbe8902641de834221f44e3d", "is_reserved": 0, "rental_uris": {"android": "https://dc.lft.to/lastmile_qr_scan", "ios": "https://dc.lft.to/lastmile_qr_scan"}, "fusion_lon": 0.0}, {"lat": 38.913326, "is_disabled": 0, "type": "electric_scooter", "lon": -77.04819516666667, "bike_id": "7e4c4edfa0daeb02b5f49ef953893511", "fusion_lat": 0.0, "name": "7e4c4edfa0daeb02b5f49ef953893511", "is_reserved": 0, "rental_uris": {"android": "https://dc.lft.to/lastmile_qr_scan", "ios": "https://dc.lft.to/lastmile_qr_scan"}, "fusion_lon": 0.0}, {"lat": 38.864157166666665, "is_disabled": 0, "type": "electric_bike", "lon": -76.9742615, "bike_id": "fe6896393f1150cb8319ad685b2ba08c", "fusion_lat": 0.0, "name": "fe6896393f1150cb8319ad685b2ba08c", "is_reserved": 0, "rental_uris": {"android": "https://dc.lft.to/lastmile_qr_scan", "ios": "https://dc.lft.to/lastmile_qr_scan"}, "fusion_lon": 0.0}, {"lat": 38.908356, "is_disabled": 0, "type": "electric_scooter", "lon": -76.9997395, "bike_id": "c54a58d9e8f7bc9c30a4c39edcddbfa4", "fusion_lat": 0.0, "name": "c54a58d9e8f7bc9c30a4c39edcddbfa4", "is_reserved": 0, "rental_uris": {"android": "https://dc.lft.to/lastmile_qr_scan", "ios": "https://dc.lft.to/lastmile_qr_scan"}, "fusion_lon": 0.0}, {"lat": 38.906696833333335, "is_disabled": 0, "type": "electric_scooter", "lon": -77.03864, "bike_id": "885f855c037952d47e16e23e67bea971", "fusion_lat": 0.0, "name": "885f855c037952d47e16e23e67bea971", "is_reserved": 0, "rental_uris": {"android": "https://dc.lft.to/lastmile_qr_scan", "ios": "https://dc.lft.to/lastmile_qr_scan"}, "fusion_lon": 0.0}, {"lat": 38.902791, "is_disabled": 0, "type": "electric_scooter", "lon": -77.046116, "bike_id": "7f5e2b7abc7833e5912ec4de4e378c8a", "fusion_lat": 0.0, "name": "7f5e2b7abc7833e5912ec4de4e378c8a", "is_reserved": 0, "rental_uris": {"android": "https://dc.lft.to/lastmile_qr_scan", "ios": "https://dc.lft.to/lastmile_qr_scan"}, "fusion_lon": 0.0}, {"lat": 38.90972383333333, "is_disabled": 0, "type": "electric_scooter", "lon": -77.04522483333334, "bike_id": "0afc44850d97237e7ae45c75cd9ae55b", "fusion_lat": 0.0, "name": "0afc44850d97237e7ae45c75cd9ae55b", "is_reserved": 0, "rental_uris": {"android": "https://dc.lft.to/lastmile_qr_scan", "ios": "https://dc.lft.to/lastmile_qr_scan"}, "fusion_lon": 0.0}, {"lat": 38.996077166666666, "is_disabled": 0, "type": "electric_scooter", "lon": -77.03203616666667, "bike_id": "5af3140a1959918a55dc6af3bf4df912", "fusion_lat": 0.0, "name": "5af3140a1959918a55dc6af3bf4df912", "is_reserved": 0, "rental_uris": {"android": "https://dc.lft.to/lastmile_qr_scan", "ios": "https://dc.lft.to/lastmile_qr_scan"}, "fusion_lon": 0.0}, {"lat": 38.90726883333333, "is_disabled": 0, "type": "electric_scooter", "lon": -76.9981495, "bike_id": "0ad7d45431c823c5927128dbe2b87e33", "fusion_lat": 0.0, "name": "0ad7d45431c823c5927128dbe2b87e33", "is_reserved": 0, "rental_uris": {"android": "https://dc.lft.to/lastmile_qr_scan", "ios": "https://dc.lft.to/lastmile_qr_scan"}, "fusion_lon": 0.0}, {"lat": 38.9330175, "is_disabled": 0, "type": "electric_scooter", "lon": -77.03440383333333, "bike_id": "e7fb1472a33a510db65e086c20cf0214", "fusion_lat": 0.0, "name": "e7fb1472a33a510db65e086c20cf0214", "is_reserved": 0, "rental_uris": {"android": "https://dc.lft.to/lastmile_qr_scan", "ios": "https://dc.lft.to/lastmile_qr_scan"}, "fusion_lon": 0.0}, {"lat": 38.901616, "is_disabled": 0, "type": "electric_scooter", "lon": -76.98075833333333, "bike_id": "155aba9af946e2c1ca40ccbd0b9891c0", "fusion_lat": 0.0, "name": "155aba9af946e2c1ca40ccbd0b9891c0", "is_reserved": 0, "rental_uris": {"android": "https://dc.lft.to/lastmile_qr_scan", "ios": "https://dc.lft.to/lastmile_qr_scan"}, "fusion_lon": 0.0}, {"lat": 38.93093916666667, "is_disabled": 0, "type": "electric_scooter", "lon": -77.02513083333334, "bike_id": "cbe8ded7efaf12889d64773c7c7a3963", "fusion_lat": 0.0, "name": "cbe8ded7efaf12889d64773c7c7a3963", "is_reserved": 0, "rental_uris": {"android": "https://dc.lft.to/lastmile_qr_scan", "ios": "https://dc.lft.to/lastmile_qr_scan"}, "fusion_lon": 0.0}, {"lat": 38.871553666666664, "is_disabled": 0, "type": "electric_scooter", "lon": -77.01322666666667, "bike_id": "a4d09d073935bd6ff6281b9bb0abe7b5", "fusion_lat": 0.0, "name": "a4d09d073935bd6ff6281b9bb0abe7b5", "is_reserved": 0, "rental_uris": {"android": "https://dc.lft.to/lastmile_qr_scan", "ios": "https://dc.lft.to/lastmile_qr_scan"}, "fusion_lon": 0.0}, {"lat": 38.845718833333336, "is_disabled": 0, "type": "electric_bike", "lon": -77.09621116666666, "bike_id": "56727b5fbb7f3d003f90b8fad29285b3", "fusion_lat": 0.0, "name": "56727b5fbb7f3d003f90b8fad29285b3", "is_reserved": 0, "rental_uris": {"android": "https://dc.lft.to/lastmile_qr_scan", "ios": "https://dc.lft.to/lastmile_qr_scan"}, "fusion_lon": 0.0}, {"lat": 38.836817333333336, "is_disabled": 0, "type": "electric_scooter", "lon": -77.10301933333334, "bike_id": "71b3946ff618f255a7ed5083711f7b3f", "fusion_lat": 0.0, "name": "71b3946ff618f255a7ed5083711f7b3f", "is_reserved": 0, "rental_uris": {"android": "https://dc.lft.to/lastmile_qr_scan", "ios": "https://dc.lft.to/lastmile_qr_scan"}, "fusion_lon": 0.0}, {"lat": 38.92072616666667, "is_disabled": 0, "type": "electric_scooter", "lon": -77.02426883333334, "bike_id": "759bc4bb3b706657ea3ab9f5b51ba243", "fusion_lat": 0.0, "name": "759bc4bb3b706657ea3ab9f5b51ba243", "is_reserved": 0, "rental_uris": {"android": "https://dc.lft.to/lastmile_qr_scan", "ios": "https://dc.lft.to/lastmile_qr_scan"}, "fusion_lon": 0.0}, {"lat": 38.902277833333336, "is_disabled": 0, "type": "electric_scooter", "lon": -77.05336533333333, "bike_id": "3aa440fa3ea2b85043d85fc75173bd0e", "fusion_lat": 0.0, "name": "3aa440fa3ea2b85043d85fc75173bd0e", "is_reserved": 0, "rental_uris": {"android": "https://dc.lft.to/lastmile_qr_scan", "ios": "https://dc.lft.to/lastmile_qr_scan"}, "fusion_lon": 0.0}, {"lat": 38.86710383333333, "is_disabled": 0, "type": "electric_scooter", "lon": -76.987221, "bike_id": "54497c8cab3a8138cf42447d30670b5b", "fusion_lat": 0.0, "name": "54497c8cab3a8138cf42447d30670b5b", "is_reserved": 0, "rental_uris": {"android": "https://dc.lft.to/lastmile_qr_scan", "ios": "https://dc.lft.to/lastmile_qr_scan"}, "fusion_lon": 0.0}, {"lat": 38.911694, "is_disabled": 0, "type": "electric_bike", "lon": -77.002855, "bike_id": "4cd29d2c3ba57de5c4da0c268f6ed244", "fusion_lat": 0.0, "name": "4cd29d2c3ba57de5c4da0c268f6ed244", "is_reserved": 0, "rental_uris": {"android": "https://dc.lft.to/lastmile_qr_scan", "ios": "https://dc.lft.to/lastmile_qr_scan"}, "fusion_lon": 0.0}, {"lat": 38.90480783333334, "is_disabled": 0, "type": "electric_scooter", "lon": -77.0073585, "bike_id": "331bf8670dfe210644af207d9e212d8f", "fusion_lat": 0.0, "name": "331bf8670dfe210644af207d9e212d8f", "is_reserved": 0, "rental_uris": {"android": "https://dc.lft.to/lastmile_qr_scan", "ios": "https://dc.lft.to/lastmile_qr_scan"}, "fusion_lon": 0.0}, {"lat": 38.90011716666667, "is_disabled": 0, "type": "electric_scooter", "lon": -76.988164, "bike_id": "76caa7493bec8fb9b3e45060f93dc1c0", "fusion_lat": 0.0, "name": "76caa7493bec8fb9b3e45060f93dc1c0", "is_reserved": 0, "rental_uris": {"android": "https://dc.lft.to/lastmile_qr_scan", "ios": "https://dc.lft.to/lastmile_qr_scan"}, "fusion_lon": 0.0}, {"lat": 38.87144466666667, "is_disabled": 0, "type": "electric_bike", "lon": -76.93706833333333, "bike_id": "07db4f121efd7dd9c39eefb8775cce57", "fusion_lat": 0.0, "name": "07db4f121efd7dd9c39eefb8775cce57", "is_reserved": 0, "rental_uris": {"android": "https://dc.lft.to/lastmile_qr_scan", "ios": "https://dc.lft.to/lastmile_qr_scan"}, "fusion_lon": 0.0}, {"lat": 38.884317333333335, "is_disabled": 0, "type": "electric_bike", "lon": -76.95753566666667, "bike_id": "2c201f2425fd42018ee5c9cbb59544c6", "fusion_lat": 0.0, "name": "2c201f2425fd42018ee5c9cbb59544c6", "is_reserved": 0, "rental_uris": {"android": "https://dc.lft.to/lastmile_qr_scan", "ios": "https://dc.lft.to/lastmile_qr_scan"}, "fusion_lon": 0.0}, {"lat": 38.916129833333336, "is_disabled": 0, "type": "electric_scooter", "lon": -77.0327515, "bike_id": "906b87af664e8db14903d811f6dc3d2c", "fusion_lat": 0.0, "name": "906b87af664e8db14903d811f6dc3d2c", "is_reserved": 0, "rental_uris": {"android": "https://dc.lft.to/lastmile_qr_scan", "ios": "https://dc.lft.to/lastmile_qr_scan"}, "fusion_lon": 0.0}, {"lat": 38.93095533333333, "is_disabled": 0, "type": "electric_scooter", "lon": -77.03475533333334, "bike_id": "ca6ba05cb1ca2a547079afadddb17400", "fusion_lat": 0.0, "name": "ca6ba05cb1ca2a547079afadddb17400", "is_reserved": 0, "rental_uris": {"android": "https://dc.lft.to/lastmile_qr_scan", "ios": "https://dc.lft.to/lastmile_qr_scan"}, "fusion_lon": 0.0}, {"lat": 38.924585666666665, "is_disabled": 0, "type": "electric_bike", "lon": -76.97559, "bike_id": "ecf8c1476a93782f34f4bdcac72b0505", "fusion_lat": 0.0, "name": "ecf8c1476a93782f34f4bdcac72b0505", "is_reserved": 0, "rental_uris": {"android": "https://dc.lft.to/lastmile_qr_scan", "ios": "https://dc.lft.to/lastmile_qr_scan"}, "fusion_lon": 0.0}, {"lat": 38.8723585, "is_disabled": 0, "type": "electric_bike", "lon": -77.01180816666667, "bike_id": "5c5fa12c8c30cfc011ad58090fa6a764", "fusion_lat": 0.0, "name": "5c5fa12c8c30cfc011ad58090fa6a764", "is_reserved": 0, "rental_uris": {"android": "https://dc.lft.to/lastmile_qr_scan", "ios": "https://dc.lft.to/lastmile_qr_scan"}, "fusion_lon": 0.0}, {"lat": 38.89692016666667, "is_disabled": 0, "type": "electric_scooter", "lon": -77.02412216666667, "bike_id": "34854ca9b3c555fe6f7fdc7b815ee8bd", "fusion_lat": 0.0, "name": "34854ca9b3c555fe6f7fdc7b815ee8bd", "is_reserved": 0, "rental_uris": {"android": "https://dc.lft.to/lastmile_qr_scan", "ios": "https://dc.lft.to/lastmile_qr_scan"}, "fusion_lon": 0.0}, {"lat": 38.89629866666667, "is_disabled": 0, "type": "electric_scooter", "lon": -77.04490566666666, "bike_id": "67b8e3559f8b68b8e3569988cecfc1b8", "fusion_lat": 0.0, "name": "67b8e3559f8b68b8e3569988cecfc1b8", "is_reserved": 0, "rental_uris": {"android": "https://dc.lft.to/lastmile_qr_scan", "ios": "https://dc.lft.to/lastmile_qr_scan"}, "fusion_lon": 0.0}, {"lat": 38.861681833333336, "is_disabled": 0, "type": "electric_bike", "lon": -77.13142533333334, "bike_id": "14c7001cea8a6bf44627b089c7a56bd4", "fusion_lat": 0.0, "name": "14c7001cea8a6bf44627b089c7a56bd4", "is_reserved": 0, "rental_uris": {"android": "https://dc.lft.to/lastmile_qr_scan", "ios": "https://dc.lft.to/lastmile_qr_scan"}, "fusion_lon": 0.0}, {"lat": 38.92154716666667, "is_disabled": 0, "type": "electric_scooter", "lon": -77.03385966666667, "bike_id": "6e2c3f73c4907d8204b5742123f7fcdd", "fusion_lat": 0.0, "name": "6e2c3f73c4907d8204b5742123f7fcdd", "is_reserved": 0, "rental_uris": {"android": "https://dc.lft.to/lastmile_qr_scan", "ios": "https://dc.lft.to/lastmile_qr_scan"}, "fusion_lon": 0.0}, {"lat": 38.95098133333333, "is_disabled": 0, "type": "electric_scooter", "lon": -77.02339766666667, "bike_id": "813b450f4873e1a0c45802deeffda468", "fusion_lat": 0.0, "name": "813b450f4873e1a0c45802deeffda468", "is_reserved": 0, "rental_uris": {"android": "https://dc.lft.to/lastmile_qr_scan", "ios": "https://dc.lft.to/lastmile_qr_scan"}, "fusion_lon": 0.0}, {"lat": 38.90086, "is_disabled": 0, "type": "electric_scooter", "lon": -77.00327933333334, "bike_id": "2602e06b98ea7b01bb8aa34dacc13f74", "fusion_lat": 0.0, "name": "2602e06b98ea7b01bb8aa34dacc13f74", "is_reserved": 0, "rental_uris": {"android": "https://dc.lft.to/lastmile_qr_scan", "ios": "https://dc.lft.to/lastmile_qr_scan"}, "fusion_lon": 0.0}, {"lat": 38.90312016666667, "is_disabled": 0, "type": "electric_scooter", "lon": -76.9779395, "bike_id": "5a59b48cb5f5210f453d4a7e9947697b", "fusion_lat": 0.0, "name": "5a59b48cb5f5210f453d4a7e9947697b", "is_reserved": 0, "rental_uris": {"android": "https://dc.lft.to/lastmile_qr_scan", "ios": "https://dc.lft.to/lastmile_qr_scan"}, "fusion_lon": 0.0}, {"lat": 38.899974666666665, "is_disabled": 0, "type": "electric_scooter", "lon": -77.02935983333333, "bike_id": "a5934123617378467b98f743c84d27db", "fusion_lat": 0.0, "name": "a5934123617378467b98f743c84d27db", "is_reserved": 0, "rental_uris": {"android": "https://dc.lft.to/lastmile_qr_scan", "ios": "https://dc.lft.to/lastmile_qr_scan"}, "fusion_lon": 0.0}, {"lat": 38.91008183333334, "is_disabled": 0, "type": "electric_scooter", "lon": -77.0889415, "bike_id": "099c46c4e391ef8a382b6b3f9c15595e", "fusion_lat": 0.0, "name": "099c46c4e391ef8a382b6b3f9c15595e", "is_reserved": 0, "rental_uris": {"android": "https://dc.lft.to/lastmile_qr_scan", "ios": "https://dc.lft.to/lastmile_qr_scan"}, "fusion_lon": 0.0}, {"lat": 38.8994775, "is_disabled": 0, "type": "electric_scooter", "lon": -77.02130416666667, "bike_id": "fcc745af93680541ea31690e7f68a69c", "fusion_lat": 0.0, "name": "fcc745af93680541ea31690e7f68a69c", "is_reserved": 0, "rental_uris": {"android": "https://dc.lft.to/lastmile_qr_scan", "ios": "https://dc.lft.to/lastmile_qr_scan"}, "fusion_lon": 0.0}, {"lat": 38.8653105, "is_disabled": 0, "type": "electric_scooter", "lon": -76.99032583333333, "bike_id": "6c49ae8ab14f25773a008eea53681a24", "fusion_lat": 0.0, "name": "6c49ae8ab14f25773a008eea53681a24", "is_reserved": 0, "rental_uris": {"android": "https://dc.lft.to/lastmile_qr_scan", "ios": "https://dc.lft.to/lastmile_qr_scan"}, "fusion_lon": 0.0}, {"lat": 38.914007166666664, "is_disabled": 0, "type": "electric_scooter", "lon": -77.0180205, "bike_id": "d7b99fd87e44c98c6a4be07add5508d1", "fusion_lat": 0.0, "name": "d7b99fd87e44c98c6a4be07add5508d1", "is_reserved": 0, "rental_uris": {"android": "https://dc.lft.to/lastmile_qr_scan", "ios": "https://dc.lft.to/lastmile_qr_scan"}, "fusion_lon": 0.0}, {"lat": 38.898178, "is_disabled": 0, "type": "electric_scooter", "lon": -77.00578766666666, "bike_id": "0a3db8f12fe3db3a07046da7f94919c5", "fusion_lat": 0.0, "name": "0a3db8f12fe3db3a07046da7f94919c5", "is_reserved": 0, "rental_uris": {"android": "https://dc.lft.to/lastmile_qr_scan", "ios": "https://dc.lft.to/lastmile_qr_scan"}, "fusion_lon": 0.0}, {"lat": 38.9096145, "is_disabled": 0, "type": "electric_scooter", "lon": -77.04802133333334, "bike_id": "33b5c57296a83a356e0d9fc7b2b654b7", "fusion_lat": 0.0, "name": "33b5c57296a83a356e0d9fc7b2b654b7", "is_reserved": 0, "rental_uris": {"android": "https://dc.lft.to/lastmile_qr_scan", "ios": "https://dc.lft.to/lastmile_qr_scan"}, "fusion_lon": 0.0}, {"lat": 38.87680916666667, "is_disabled": 0, "type": "electric_scooter", "lon": -77.01783583333334, "bike_id": "bec8159309bdef31ffb5e730289e260f", "fusion_lat": 0.0, "name": "bec8159309bdef31ffb5e730289e260f", "is_reserved": 0, "rental_uris": {"android": "https://dc.lft.to/lastmile_qr_scan", "ios": "https://dc.lft.to/lastmile_qr_scan"}, "fusion_lon": 0.0}, {"lat": 38.863791666666664, "is_disabled": 0, "type": "electric_scooter", "lon": -76.99065333333333, "bike_id": "be11155c275ba68904a6a9b0e9dd59ec", "fusion_lat": 0.0, "name": "be11155c275ba68904a6a9b0e9dd59ec", "is_reserved": 0, "rental_uris": {"android": "https://dc.lft.to/lastmile_qr_scan", "ios": "https://dc.lft.to/lastmile_qr_scan"}, "fusion_lon": 0.0}, {"lat": 38.9121165, "is_disabled": 0, "type": "electric_scooter", "lon": -77.03847733333333, "bike_id": "27531815f4380a8bff09ac12ba98385e", "fusion_lat": 0.0, "name": "27531815f4380a8bff09ac12ba98385e", "is_reserved": 0, "rental_uris": {"android": "https://dc.lft.to/lastmile_qr_scan", "ios": "https://dc.lft.to/lastmile_qr_scan"}, "fusion_lon": 0.0}, {"lat": 38.919114666666665, "is_disabled": 0, "type": "electric_scooter", "lon": -77.04628433333333, "bike_id": "9eb478dbba79c3f5f9ee3224ba476804", "fusion_lat": 0.0, "name": "9eb478dbba79c3f5f9ee3224ba476804", "is_reserved": 0, "rental_uris": {"android": "https://dc.lft.to/lastmile_qr_scan", "ios": "https://dc.lft.to/lastmile_qr_scan"}, "fusion_lon": 0.0}, {"lat": 38.90386733333333, "is_disabled": 0, "type": "electric_scooter", "lon": -77.04322616666667, "bike_id": "dd4391722a4d33ea5994062eb149f74c", "fusion_lat": 0.0, "name": "dd4391722a4d33ea5994062eb149f74c", "is_reserved": 0, "rental_uris": {"android": "https://dc.lft.to/lastmile_qr_scan", "ios": "https://dc.lft.to/lastmile_qr_scan"}, "fusion_lon": 0.0}, {"lat": 38.85318733333333, "is_disabled": 0, "type": "electric_bike", "lon": -76.9801635, "bike_id": "3f31b98dff6eea6985c2fc4a3de6d440", "fusion_lat": 0.0, "name": "3f31b98dff6eea6985c2fc4a3de6d440", "is_reserved": 0, "rental_uris": {"android": "https://dc.lft.to/lastmile_qr_scan", "ios": "https://dc.lft.to/lastmile_qr_scan"}, "fusion_lon": 0.0}, {"lat": 38.91591366666667, "is_disabled": 0, "type": "electric_scooter", "lon": -77.03195683333334, "bike_id": "4a45717fb7e1af66c295880566b5f91b", "fusion_lat": 0.0, "name": "4a45717fb7e1af66c295880566b5f91b", "is_reserved": 0, "rental_uris": {"android": "https://dc.lft.to/lastmile_qr_scan", "ios": "https://dc.lft.to/lastmile_qr_scan"}, "fusion_lon": 0.0}, {"lat": 38.88716616666667, "is_disabled": 0, "type": "electric_scooter", "lon": -76.95478733333333, "bike_id": "5eaf025982d45dc3958267d9a2a8aa95", "fusion_lat": 0.0, "name": "5eaf025982d45dc3958267d9a2a8aa95", "is_reserved": 0, "rental_uris": {"android": "https://dc.lft.to/lastmile_qr_scan", "ios": "https://dc.lft.to/lastmile_qr_scan"}, "fusion_lon": 0.0}, {"lat": 38.9257805, "is_disabled": 0, "type": "electric_scooter", "lon": -77.027548, "bike_id": "24a28b2216782a00a1ffeae6717479c6", "fusion_lat": 0.0, "name": "24a28b2216782a00a1ffeae6717479c6", "is_reserved": 0, "rental_uris": {"android": "https://dc.lft.to/lastmile_qr_scan", "ios": "https://dc.lft.to/lastmile_qr_scan"}, "fusion_lon": 0.0}, {"lat": 38.90720616666667, "is_disabled": 0, "type": "electric_scooter", "lon": -77.02541983333333, "bike_id": "e970821f7d8547c0482a9f01c95378de", "fusion_lat": 0.0, "name": "e970821f7d8547c0482a9f01c95378de", "is_reserved": 0, "rental_uris": {"android": "https://dc.lft.to/lastmile_qr_scan", "ios": "https://dc.lft.to/lastmile_qr_scan"}, "fusion_lon": 0.0}, {"lat": 38.9182, "is_disabled": 0, "type": "electric_scooter", "lon": -77.03445416666666, "bike_id": "1d5c498806b202c0b13d45c53391f11f", "fusion_lat": 0.0, "name": "1d5c498806b202c0b13d45c53391f11f", "is_reserved": 0, "rental_uris": {"android": "https://dc.lft.to/lastmile_qr_scan", "ios": "https://dc.lft.to/lastmile_qr_scan"}, "fusion_lon": 0.0}, {"lat": 38.912702, "is_disabled": 0, "type": "electric_scooter", "lon": -77.0387425, "bike_id": "3afda58f6604b3f8258c1a27aeff88ab", "fusion_lat": 0.0, "name": "3afda58f6604b3f8258c1a27aeff88ab", "is_reserved": 0, "rental_uris": {"android": "https://dc.lft.to/lastmile_qr_scan", "ios": "https://dc.lft.to/lastmile_qr_scan"}, "fusion_lon": 0.0}, {"lat": 38.894920666666664, "is_disabled": 0, "type": "electric_scooter", "lon": -77.02292116666666, "bike_id": "67fb8ce9575807de412a2169e7156fee", "fusion_lat": 0.0, "name": "67fb8ce9575807de412a2169e7156fee", "is_reserved": 0, "rental_uris": {"android": "https://dc.lft.to/lastmile_qr_scan", "ios": "https://dc.lft.to/lastmile_qr_scan"}, "fusion_lon": 0.0}, {"lat": 38.90705416666667, "is_disabled": 0, "type": "electric_bike", "lon": -77.00093516666666, "bike_id": "cedb5d88437ec0f53c683bc51cbe6111", "fusion_lat": 0.0, "name": "cedb5d88437ec0f53c683bc51cbe6111", "is_reserved": 0, "rental_uris": {"android": "https://dc.lft.to/lastmile_qr_scan", "ios": "https://dc.lft.to/lastmile_qr_scan"}, "fusion_lon": 0.0}, {"lat": 38.9307625, "is_disabled": 0, "type": "electric_scooter", "lon": -77.01662583333334, "bike_id": "4f29042d245781c69eab1c125bbed4f7", "fusion_lat": 0.0, "name": "4f29042d245781c69eab1c125bbed4f7", "is_reserved": 0, "rental_uris": {"android": "https://dc.lft.to/lastmile_qr_scan", "ios": "https://dc.lft.to/lastmile_qr_scan"}, "fusion_lon": 0.0}, {"lat": 38.896829333333336, "is_disabled": 0, "type": "electric_scooter", "lon": -76.93609766666667, "bike_id": "c6b1dbdab9a0def2ffc4467b6d26b82e", "fusion_lat": 0.0, "name": "c6b1dbdab9a0def2ffc4467b6d26b82e", "is_reserved": 0, "rental_uris": {"android": "https://dc.lft.to/lastmile_qr_scan", "ios": "https://dc.lft.to/lastmile_qr_scan"}, "fusion_lon": 0.0}, {"lat": 38.865612666666664, "is_disabled": 0, "type": "electric_scooter", "lon": -76.98953183333333, "bike_id": "f4098bf899524a25ffbffb7d204743d1", "fusion_lat": 0.0, "name": "f4098bf899524a25ffbffb7d204743d1", "is_reserved": 0, "rental_uris": {"android": "https://dc.lft.to/lastmile_qr_scan", "ios": "https://dc.lft.to/lastmile_qr_scan"}, "fusion_lon": 0.0}, {"lat": 38.887326333333334, "is_disabled": 0, "type": "electric_scooter", "lon": -77.0321075, "bike_id": "817bf5e911a445e0ee0a4ce7148a069d", "fusion_lat": 0.0, "name": "817bf5e911a445e0ee0a4ce7148a069d", "is_reserved": 0, "rental_uris": {"android": "https://dc.lft.to/lastmile_qr_scan", "ios": "https://dc.lft.to/lastmile_qr_scan"}, "fusion_lon": 0.0}, {"lat": 38.955602666666664, "is_disabled": 0, "type": "electric_scooter", "lon": -77.02235616666667, "bike_id": "2e81c079705f1a998b1b2262f4df019b", "fusion_lat": 0.0, "name": "2e81c079705f1a998b1b2262f4df019b", "is_reserved": 0, "rental_uris": {"android": "https://dc.lft.to/lastmile_qr_scan", "ios": "https://dc.lft.to/lastmile_qr_scan"}, "fusion_lon": 0.0}, {"lat": 38.909168, "is_disabled": 0, "type": "electric_scooter", "lon": -77.036448, "bike_id": "dc0e83c537585c3d4946cf57ccb5526e", "fusion_lat": 0.0, "name": "dc0e83c537585c3d4946cf57ccb5526e", "is_reserved": 0, "rental_uris": {"android": "https://dc.lft.to/lastmile_qr_scan", "ios": "https://dc.lft.to/lastmile_qr_scan"}, "fusion_lon": 0.0}, {"lat": 38.93872433333333, "is_disabled": 0, "type": "electric_scooter", "lon": -77.02446266666666, "bike_id": "35af2bf4e1b324e611de2bba1c535915", "fusion_lat": 0.0, "name": "35af2bf4e1b324e611de2bba1c535915", "is_reserved": 0, "rental_uris": {"android": "https://dc.lft.to/lastmile_qr_scan", "ios": "https://dc.lft.to/lastmile_qr_scan"}, "fusion_lon": 0.0}, {"lat": 38.89046116666667, "is_disabled": 0, "type": "electric_scooter", "lon": -76.98994466666667, "bike_id": "cef5edfaf0a28d5175de5fa6bf70de70", "fusion_lat": 0.0, "name": "cef5edfaf0a28d5175de5fa6bf70de70", "is_reserved": 0, "rental_uris": {"android": "https://dc.lft.to/lastmile_qr_scan", "ios": "https://dc.lft.to/lastmile_qr_scan"}, "fusion_lon": 0.0}, {"lat": 38.9290075, "is_disabled": 0, "type": "electric_scooter", "lon": -77.02218983333333, "bike_id": "f5964e5732e5a9c4f47f4b351e60ed3c", "fusion_lat": 0.0, "name": "f5964e5732e5a9c4f47f4b351e60ed3c", "is_reserved": 0, "rental_uris": {"android": "https://dc.lft.to/lastmile_qr_scan", "ios": "https://dc.lft.to/lastmile_qr_scan"}, "fusion_lon": 0.0}, {"lat": 38.886387666666664, "is_disabled": 0, "type": "electric_bike", "lon": -76.954723, "bike_id": "1fbb4ef4a22006abf28005f028c6242c", "fusion_lat": 0.0, "name": "1fbb4ef4a22006abf28005f028c6242c", "is_reserved": 0, "rental_uris": {"android": "https://dc.lft.to/lastmile_qr_scan", "ios": "https://dc.lft.to/lastmile_qr_scan"}, "fusion_lon": 0.0}, {"lat": 38.927339333333336, "is_disabled": 0, "type": "electric_scooter", "lon": -77.034486, "bike_id": "2090d901727b0444ac3a6d5dcf6bd224", "fusion_lat": 0.0, "name": "2090d901727b0444ac3a6d5dcf6bd224", "is_reserved": 0, "rental_uris": {"android": "https://dc.lft.to/lastmile_qr_scan", "ios": "https://dc.lft.to/lastmile_qr_scan"}, "fusion_lon": 0.0}, {"lat": 38.8982185, "is_disabled": 0, "type": "electric_scooter", "lon": -76.996976, "bike_id": "283da77cedf8248f379f28146fac4c27", "fusion_lat": 0.0, "name": "283da77cedf8248f379f28146fac4c27", "is_reserved": 0, "rental_uris": {"android": "https://dc.lft.to/lastmile_qr_scan", "ios": "https://dc.lft.to/lastmile_qr_scan"}, "fusion_lon": 0.0}, {"lat": 38.90183966666667, "is_disabled": 0, "type": "electric_scooter", "lon": -77.02400333333334, "bike_id": "e9c0be862c6f0387e887784f00847e05", "fusion_lat": 0.0, "name": "e9c0be862c6f0387e887784f00847e05", "is_reserved": 0, "rental_uris": {"android": "https://dc.lft.to/lastmile_qr_scan", "ios": "https://dc.lft.to/lastmile_qr_scan"}, "fusion_lon": 0.0}, {"lat": 39.05633666666667, "is_disabled": 0, "type": "electric_bike", "lon": -77.12526733333333, "bike_id": "ff13aaba2db4d0a0bed49c0383cfe814", "fusion_lat": 0.0, "name": "ff13aaba2db4d0a0bed49c0383cfe814", "is_reserved": 0, "rental_uris": {"android": "https://dc.lft.to/lastmile_qr_scan", "ios": "https://dc.lft.to/lastmile_qr_scan"}, "fusion_lon": 0.0}, {"lat": 38.927537666666666, "is_disabled": 0, "type": "electric_scooter", "lon": -77.03214066666666, "bike_id": "e2cdfb0afc1953d9ec360323dab7761d", "fusion_lat": 0.0, "name": "e2cdfb0afc1953d9ec360323dab7761d", "is_reserved": 0, "rental_uris": {"android": "https://dc.lft.to/lastmile_qr_scan", "ios": "https://dc.lft.to/lastmile_qr_scan"}, "fusion_lon": 0.0}, {"lat": 38.911149333333334, "is_disabled": 0, "type": "electric_scooter", "lon": -77.037658, "bike_id": "f36683cc8da2db259820caf2553ba671", "fusion_lat": 0.0, "name": "f36683cc8da2db259820caf2553ba671", "is_reserved": 0, "rental_uris": {"android": "https://dc.lft.to/lastmile_qr_scan", "ios": "https://dc.lft.to/lastmile_qr_scan"}, "fusion_lon": 0.0}, {"lat": 38.885776666666665, "is_disabled": 0, "type": "electric_scooter", "lon": -76.91910166666666, "bike_id": "9347cf7291f29b977f18bd018a699efb", "fusion_lat": 0.0, "name": "9347cf7291f29b977f18bd018a699efb", "is_reserved": 0, "rental_uris": {"android": "https://dc.lft.to/lastmile_qr_scan", "ios": "https://dc.lft.to/lastmile_qr_scan"}, "fusion_lon": 0.0}, {"lat": 38.92487766666667, "is_disabled": 0, "type": "electric_scooter", "lon": -77.028462, "bike_id": "7dded4f38260f7e3f705191118d0daf8", "fusion_lat": 0.0, "name": "7dded4f38260f7e3f705191118d0daf8", "is_reserved": 0, "rental_uris": {"android": "https://dc.lft.to/lastmile_qr_scan", "ios": "https://dc.lft.to/lastmile_qr_scan"}, "fusion_lon": 0.0}, {"lat": 38.95610283333333, "is_disabled": 0, "type": "electric_scooter", "lon": -77.02758983333334, "bike_id": "033019404c34df4a7c77187782dffc04", "fusion_lat": 0.0, "name": "033019404c34df4a7c77187782dffc04", "is_reserved": 0, "rental_uris": {"android": "https://dc.lft.to/lastmile_qr_scan", "ios": "https://dc.lft.to/lastmile_qr_scan"}, "fusion_lon": 0.0}, {"lat": 38.9117405, "is_disabled": 0, "type": "electric_scooter", "lon": -77.06083633333333, "bike_id": "edcca49e9e4673982348bbb4fd3d4573", "fusion_lat": 0.0, "name": "edcca49e9e4673982348bbb4fd3d4573", "is_reserved": 0, "rental_uris": {"android": "https://dc.lft.to/lastmile_qr_scan", "ios": "https://dc.lft.to/lastmile_qr_scan"}, "fusion_lon": 0.0}, {"lat": 38.92343233333333, "is_disabled": 0, "type": "electric_scooter", "lon": -77.035692, "bike_id": "e1208734ed3d6bb0dbc00b3f37013189", "fusion_lat": 0.0, "name": "e1208734ed3d6bb0dbc00b3f37013189", "is_reserved": 0, "rental_uris": {"android": "https://dc.lft.to/lastmile_qr_scan", "ios": "https://dc.lft.to/lastmile_qr_scan"}, "fusion_lon": 0.0}, {"lat": 38.90585383333333, "is_disabled": 0, "type": "electric_scooter", "lon": -77.06517416666667, "bike_id": "cb2448bed41a1b9294f064e14a051acf", "fusion_lat": 0.0, "name": "cb2448bed41a1b9294f064e14a051acf", "is_reserved": 0, "rental_uris": {"android": "https://dc.lft.to/lastmile_qr_scan", "ios": "https://dc.lft.to/lastmile_qr_scan"}, "fusion_lon": 0.0}, {"lat": 38.88420983333334, "is_disabled": 0, "type": "electric_scooter", "lon": -77.000256, "bike_id": "95177a18b80a6855eb2ddfaf24b9d867", "fusion_lat": 0.0, "name": "95177a18b80a6855eb2ddfaf24b9d867", "is_reserved": 0, "rental_uris": {"android": "https://dc.lft.to/lastmile_qr_scan", "ios": "https://dc.lft.to/lastmile_qr_scan"}, "fusion_lon": 0.0}, {"lat": 38.869276166666666, "is_disabled": 0, "type": "electric_scooter", "lon": -76.98312316666667, "bike_id": "7cb8ffcb500891bd8cbb90da434f823a", "fusion_lat": 0.0, "name": "7cb8ffcb500891bd8cbb90da434f823a", "is_reserved": 0, "rental_uris": {"android": "https://dc.lft.to/lastmile_qr_scan", "ios": "https://dc.lft.to/lastmile_qr_scan"}, "fusion_lon": 0.0}, {"lat": 38.98647283333333, "is_disabled": 0, "type": "electric_bike", "lon": -77.056439, "bike_id": "4e899bacc02d499519f8e0f256ad2aff", "fusion_lat": 0.0, "name": "4e899bacc02d499519f8e0f256ad2aff", "is_reserved": 0, "rental_uris": {"android": "https://dc.lft.to/lastmile_qr_scan", "ios": "https://dc.lft.to/lastmile_qr_scan"}, "fusion_lon": 0.0}, {"lat": 38.87804366666667, "is_disabled": 0, "type": "electric_bike", "lon": -76.96070566666667, "bike_id": "d98e9e641f4fe1aa1fe95b1c445c739c", "fusion_lat": 0.0, "name": "d98e9e641f4fe1aa1fe95b1c445c739c", "is_reserved": 0, "rental_uris": {"android": "https://dc.lft.to/lastmile_qr_scan", "ios": "https://dc.lft.to/lastmile_qr_scan"}, "fusion_lon": 0.0}, {"lat": 38.928830833333336, "is_disabled": 0, "type": "electric_scooter", "lon": -77.03341783333333, "bike_id": "bcc0bed0ab2213fd277c4a9810903a17", "fusion_lat": 0.0, "name": "bcc0bed0ab2213fd277c4a9810903a17", "is_reserved": 0, "rental_uris": {"android": "https://dc.lft.to/lastmile_qr_scan", "ios": "https://dc.lft.to/lastmile_qr_scan"}, "fusion_lon": 0.0}, {"lat": 38.91328033333333, "is_disabled": 0, "type": "electric_scooter", "lon": -77.03125616666667, "bike_id": "65d320e7d5c10ea98108153bcd1d08db", "fusion_lat": 0.0, "name": "65d320e7d5c10ea98108153bcd1d08db", "is_reserved": 0, "rental_uris": {"android": "https://dc.lft.to/lastmile_qr_scan", "ios": "https://dc.lft.to/lastmile_qr_scan"}, "fusion_lon": 0.0}, {"lat": 38.84425366666667, "is_disabled": 0, "type": "electric_scooter", "lon": -76.99777233333333, "bike_id": "04585bb4570c1a89478553d501746656", "fusion_lat": 0.0, "name": "04585bb4570c1a89478553d501746656", "is_reserved": 0, "rental_uris": {"android": "https://dc.lft.to/lastmile_qr_scan", "ios": "https://dc.lft.to/lastmile_qr_scan"}, "fusion_lon": 0.0}, {"lat": 38.90644666666667, "is_disabled": 0, "type": "electric_scooter", "lon": -77.0293395, "bike_id": "c6c0c19434f38d93cbe0f397ad1a5956", "fusion_lat": 0.0, "name": "c6c0c19434f38d93cbe0f397ad1a5956", "is_reserved": 0, "rental_uris": {"android": "https://dc.lft.to/lastmile_qr_scan", "ios": "https://dc.lft.to/lastmile_qr_scan"}, "fusion_lon": 0.0}, {"lat": 38.90616683333333, "is_disabled": 0, "type": "electric_scooter", "lon": -77.0651335, "bike_id": "fd3c5c5c32721d6e5a1894ae0da2992a", "fusion_lat": 0.0, "name": "fd3c5c5c32721d6e5a1894ae0da2992a", "is_reserved": 0, "rental_uris": {"android": "https://dc.lft.to/lastmile_qr_scan", "ios": "https://dc.lft.to/lastmile_qr_scan"}, "fusion_lon": 0.0}, {"lat": 38.89630366666667, "is_disabled": 0, "type": "electric_scooter", "lon": -77.04489233333334, "bike_id": "2b66a4f476eeb67353b97ee1e0a17aa3", "fusion_lat": 0.0, "name": "2b66a4f476eeb67353b97ee1e0a17aa3", "is_reserved": 0, "rental_uris": {"android": "https://dc.lft.to/lastmile_qr_scan", "ios": "https://dc.lft.to/lastmile_qr_scan"}, "fusion_lon": 0.0}, {"lat": 38.92503333333333, "is_disabled": 0, "type": "electric_scooter", "lon": -77.03780466666667, "bike_id": "e3cbef02d17180cfa39ef9785caba347", "fusion_lat": 0.0, "name": "e3cbef02d17180cfa39ef9785caba347", "is_reserved": 0, "rental_uris": {"android": "https://dc.lft.to/lastmile_qr_scan", "ios": "https://dc.lft.to/lastmile_qr_scan"}, "fusion_lon": 0.0}, {"lat": 38.88457666666667, "is_disabled": 0, "type": "electric_scooter", "lon": -76.92621066666666, "bike_id": "9b81499e0db0b572e7725ad80c0efbbd", "fusion_lat": 0.0, "name": "9b81499e0db0b572e7725ad80c0efbbd", "is_reserved": 0, "rental_uris": {"android": "https://dc.lft.to/lastmile_qr_scan", "ios": "https://dc.lft.to/lastmile_qr_scan"}, "fusion_lon": 0.0}, {"lat": 38.909557166666666, "is_disabled": 0, "type": "electric_scooter", "lon": -77.03668633333334, "bike_id": "ae52c91f1e9d5f93e4dff4cf28bf09bf", "fusion_lat": 0.0, "name": "ae52c91f1e9d5f93e4dff4cf28bf09bf", "is_reserved": 0, "rental_uris": {"android": "https://dc.lft.to/lastmile_qr_scan", "ios": "https://dc.lft.to/lastmile_qr_scan"}, "fusion_lon": 0.0}, {"lat": 38.900419, "is_disabled": 0, "type": "electric_scooter", "lon": -76.998214, "bike_id": "80b508d648aa20b26eabbff860194ddb", "fusion_lat": 0.0, "name": "80b508d648aa20b26eabbff860194ddb", "is_reserved": 0, "rental_uris": {"android": "https://dc.lft.to/lastmile_qr_scan", "ios": "https://dc.lft.to/lastmile_qr_scan"}, "fusion_lon": 0.0}, {"lat": 38.93765766666667, "is_disabled": 0, "type": "electric_scooter", "lon": -77.03147016666667, "bike_id": "fe39805d346f2779889195a720deb54b", "fusion_lat": 0.0, "name": "fe39805d346f2779889195a720deb54b", "is_reserved": 0, "rental_uris": {"android": "https://dc.lft.to/lastmile_qr_scan", "ios": "https://dc.lft.to/lastmile_qr_scan"}, "fusion_lon": 0.0}, {"lat": 38.922469, "is_disabled": 0, "type": "electric_scooter", "lon": -77.07794383333334, "bike_id": "3efef49ef8d277bc94a0367caac431be", "fusion_lat": 0.0, "name": "3efef49ef8d277bc94a0367caac431be", "is_reserved": 0, "rental_uris": {"android": "https://dc.lft.to/lastmile_qr_scan", "ios": "https://dc.lft.to/lastmile_qr_scan"}, "fusion_lon": 0.0}, {"lat": 38.938760333333335, "is_disabled": 0, "type": "electric_scooter", "lon": -77.02444916666667, "bike_id": "9eeebb58afbef7062ac049bc8ecef019", "fusion_lat": 0.0, "name": "9eeebb58afbef7062ac049bc8ecef019", "is_reserved": 0, "rental_uris": {"android": "https://dc.lft.to/lastmile_qr_scan", "ios": "https://dc.lft.to/lastmile_qr_scan"}, "fusion_lon": 0.0}, {"lat": 38.91017683333333, "is_disabled": 0, "type": "electric_scooter", "lon": -77.03860816666666, "bike_id": "d4065144e189ea5fbf9bc72e5cb61c1b", "fusion_lat": 0.0, "name": "d4065144e189ea5fbf9bc72e5cb61c1b", "is_reserved": 0, "rental_uris": {"android": "https://dc.lft.to/lastmile_qr_scan", "ios": "https://dc.lft.to/lastmile_qr_scan"}, "fusion_lon": 0.0}, {"lat": 38.90879866666667, "is_disabled": 0, "type": "electric_scooter", "lon": -77.06441316666667, "bike_id": "86e1080d820ab14c255fdd41948cd4f0", "fusion_lat": 0.0, "name": "86e1080d820ab14c255fdd41948cd4f0", "is_reserved": 0, "rental_uris": {"android": "https://dc.lft.to/lastmile_qr_scan", "ios": "https://dc.lft.to/lastmile_qr_scan"}, "fusion_lon": 0.0}, {"lat": 38.807434666666666, "is_disabled": 0, "type": "electric_bike", "lon": -77.09428916666667, "bike_id": "7f9565eafbc016cf0b063b4f5bd9f80b", "fusion_lat": 0.0, "name": "7f9565eafbc016cf0b063b4f5bd9f80b", "is_reserved": 0, "rental_uris": {"android": "https://dc.lft.to/lastmile_qr_scan", "ios": "https://dc.lft.to/lastmile_qr_scan"}, "fusion_lon": 0.0}, {"lat": 38.928531666666665, "is_disabled": 0, "type": "electric_bike", "lon": -77.1067715, "bike_id": "8a7a7a659673d65db3ee3d9e0ea355de", "fusion_lat": 0.0, "name": "8a7a7a659673d65db3ee3d9e0ea355de", "is_reserved": 0, "rental_uris": {"android": "https://dc.lft.to/lastmile_qr_scan", "ios": "https://dc.lft.to/lastmile_qr_scan"}, "fusion_lon": 0.0}, {"lat": 38.91384466666667, "is_disabled": 0, "type": "electric_scooter", "lon": -77.0365825, "bike_id": "bd94321d20273642076925d4f615bd91", "fusion_lat": 0.0, "name": "bd94321d20273642076925d4f615bd91", "is_reserved": 0, "rental_uris": {"android": "https://dc.lft.to/lastmile_qr_scan", "ios": "https://dc.lft.to/lastmile_qr_scan"}, "fusion_lon": 0.0}, {"lat": 38.93181883333333, "is_disabled": 0, "type": "electric_scooter", "lon": -77.03154666666667, "bike_id": "7a6ee0aa7be0113f814e590dd0d3d2a2", "fusion_lat": 0.0, "name": "7a6ee0aa7be0113f814e590dd0d3d2a2", "is_reserved": 0, "rental_uris": {"android": "https://dc.lft.to/lastmile_qr_scan", "ios": "https://dc.lft.to/lastmile_qr_scan"}, "fusion_lon": 0.0}, {"lat": 38.908456666666666, "is_disabled": 0, "type": "electric_scooter", "lon": -77.01887683333334, "bike_id": "58151774964ce38a2408325b629d27f4", "fusion_lat": 0.0, "name": "58151774964ce38a2408325b629d27f4", "is_reserved": 0, "rental_uris": {"android": "https://dc.lft.to/lastmile_qr_scan", "ios": "https://dc.lft.to/lastmile_qr_scan"}, "fusion_lon": 0.0}, {"lat": 38.932646, "is_disabled": 0, "type": "electric_scooter", "lon": -77.03281233333334, "bike_id": "cd4839f55d6f10cbee778182479c3fc9", "fusion_lat": 0.0, "name": "cd4839f55d6f10cbee778182479c3fc9", "is_reserved": 0, "rental_uris": {"android": "https://dc.lft.to/lastmile_qr_scan", "ios": "https://dc.lft.to/lastmile_qr_scan"}, "fusion_lon": 0.0}, {"lat": 38.906767, "is_disabled": 0, "type": "electric_scooter", "lon": -77.062656, "bike_id": "22c44e4b198e09039da1c11178fa7bf2", "fusion_lat": 0.0, "name": "22c44e4b198e09039da1c11178fa7bf2", "is_reserved": 0, "rental_uris": {"android": "https://dc.lft.to/lastmile_qr_scan", "ios": "https://dc.lft.to/lastmile_qr_scan"}, "fusion_lon": 0.0}, {"lat": 38.9229865, "is_disabled": 0, "type": "electric_scooter", "lon": -77.0414365, "bike_id": "42ad5fef6f71f0499c55edf4bbb9ae0e", "fusion_lat": 0.0, "name": "42ad5fef6f71f0499c55edf4bbb9ae0e", "is_reserved": 0, "rental_uris": {"android": "https://dc.lft.to/lastmile_qr_scan", "ios": "https://dc.lft.to/lastmile_qr_scan"}, "fusion_lon": 0.0}, {"lat": 38.921794, "is_disabled": 0, "type": "electric_scooter", "lon": -77.04709666666666, "bike_id": "cc97b6e91ab59df81c53e88a5afa5b65", "fusion_lat": 0.0, "name": "cc97b6e91ab59df81c53e88a5afa5b65", "is_reserved": 0, "rental_uris": {"android": "https://dc.lft.to/lastmile_qr_scan", "ios": "https://dc.lft.to/lastmile_qr_scan"}, "fusion_lon": 0.0}, {"lat": 38.866468166666664, "is_disabled": 0, "type": "electric_scooter", "lon": -76.98885883333334, "bike_id": "9207414470ed5222b3b02b9e4c515d35", "fusion_lat": 0.0, "name": "9207414470ed5222b3b02b9e4c515d35", "is_reserved": 0, "rental_uris": {"android": "https://dc.lft.to/lastmile_qr_scan", "ios": "https://dc.lft.to/lastmile_qr_scan"}, "fusion_lon": 0.0}, {"lat": 38.9648565, "is_disabled": 0, "type": "electric_scooter", "lon": -77.02783066666667, "bike_id": "fe6b41f4f1eabbcd25a5f49cd63922b7", "fusion_lat": 0.0, "name": "fe6b41f4f1eabbcd25a5f49cd63922b7", "is_reserved": 0, "rental_uris": {"android": "https://dc.lft.to/lastmile_qr_scan", "ios": "https://dc.lft.to/lastmile_qr_scan"}, "fusion_lon": 0.0}, {"lat": 38.920215666666664, "is_disabled": 0, "type": "electric_scooter", "lon": -77.03848533333333, "bike_id": "d0a0574b64ac53ace45b7b694c0ac430", "fusion_lat": 0.0, "name": "d0a0574b64ac53ace45b7b694c0ac430", "is_reserved": 0, "rental_uris": {"android": "https://dc.lft.to/lastmile_qr_scan", "ios": "https://dc.lft.to/lastmile_qr_scan"}, "fusion_lon": 0.0}, {"lat": 38.9323935, "is_disabled": 0, "type": "electric_scooter", "lon": -77.03263916666667, "bike_id": "d8ac34b6b788030b647556dde9351dbe", "fusion_lat": 0.0, "name": "d8ac34b6b788030b647556dde9351dbe", "is_reserved": 0, "rental_uris": {"android": "https://dc.lft.to/lastmile_qr_scan", "ios": "https://dc.lft.to/lastmile_qr_scan"}, "fusion_lon": 0.0}, {"lat": 38.919167, "is_disabled": 0, "type": "electric_scooter", "lon": -77.03393883333334, "bike_id": "4b1615e36852278add83db4b33c23345", "fusion_lat": 0.0, "name": "4b1615e36852278add83db4b33c23345", "is_reserved": 0, "rental_uris": {"android": "https://dc.lft.to/lastmile_qr_scan", "ios": "https://dc.lft.to/lastmile_qr_scan"}, "fusion_lon": 0.0}, {"lat": 38.905229166666665, "is_disabled": 0, "type": "electric_scooter", "lon": -76.98620433333333, "bike_id": "0f5a0021e482105b44974e43181d872b", "fusion_lat": 0.0, "name": "0f5a0021e482105b44974e43181d872b", "is_reserved": 0, "rental_uris": {"android": "https://dc.lft.to/lastmile_qr_scan", "ios": "https://dc.lft.to/lastmile_qr_scan"}, "fusion_lon": 0.0}, {"lat": 38.903786333333336, "is_disabled": 0, "type": "electric_scooter", "lon": -77.0026955, "bike_id": "107559fd41ce6e0e1375c4beba279763", "fusion_lat": 0.0, "name": "107559fd41ce6e0e1375c4beba279763", "is_reserved": 0, "rental_uris": {"android": "https://dc.lft.to/lastmile_qr_scan", "ios": "https://dc.lft.to/lastmile_qr_scan"}, "fusion_lon": 0.0}, {"lat": 38.8679255, "is_disabled": 0, "type": "electric_scooter", "lon": -76.965648, "bike_id": "f91f6959165acf5b6a494c10d54dcb2f", "fusion_lat": 0.0, "name": "f91f6959165acf5b6a494c10d54dcb2f", "is_reserved": 0, "rental_uris": {"android": "https://dc.lft.to/lastmile_qr_scan", "ios": "https://dc.lft.to/lastmile_qr_scan"}, "fusion_lon": 0.0}, {"lat": 38.900332, "is_disabled": 0, "type": "electric_scooter", "lon": -77.00183666666666, "bike_id": "9b163ea28a4280a49c71f2fefff607bc", "fusion_lat": 0.0, "name": "9b163ea28a4280a49c71f2fefff607bc", "is_reserved": 0, "rental_uris": {"android": "https://dc.lft.to/lastmile_qr_scan", "ios": "https://dc.lft.to/lastmile_qr_scan"}, "fusion_lon": 0.0}, {"lat": 38.8975045, "is_disabled": 0, "type": "electric_scooter", "lon": -77.01857816666667, "bike_id": "fa73228cf1f59986d62d01c7a5aa8100", "fusion_lat": 0.0, "name": "fa73228cf1f59986d62d01c7a5aa8100", "is_reserved": 0, "rental_uris": {"android": "https://dc.lft.to/lastmile_qr_scan", "ios": "https://dc.lft.to/lastmile_qr_scan"}, "fusion_lon": 0.0}, {"lat": 38.89849183333333, "is_disabled": 0, "type": "electric_scooter", "lon": -77.0243545, "bike_id": "59414c5f122ef2b206c769bfb3855550", "fusion_lat": 0.0, "name": "59414c5f122ef2b206c769bfb3855550", "is_reserved": 0, "rental_uris": {"android": "https://dc.lft.to/lastmile_qr_scan", "ios": "https://dc.lft.to/lastmile_qr_scan"}, "fusion_lon": 0.0}, {"lat": 38.8963005, "is_disabled": 0, "type": "electric_scooter", "lon": -77.04471683333334, "bike_id": "ac84c420bf5b05667481b70065769f0e", "fusion_lat": 0.0, "name": "ac84c420bf5b05667481b70065769f0e", "is_reserved": 0, "rental_uris": {"android": "https://dc.lft.to/lastmile_qr_scan", "ios": "https://dc.lft.to/lastmile_qr_scan"}, "fusion_lon": 0.0}, {"lat": 38.84293533333334, "is_disabled": 0, "type": "electric_scooter", "lon": -76.9994745, "bike_id": "8c3c18a979e90c45a46976c0e662c924", "fusion_lat": 0.0, "name": "8c3c18a979e90c45a46976c0e662c924", "is_reserved": 0, "rental_uris": {"android": "https://dc.lft.to/lastmile_qr_scan", "ios": "https://dc.lft.to/lastmile_qr_scan"}, "fusion_lon": 0.0}, {"lat": 38.912184833333335, "is_disabled": 0, "type": "electric_scooter", "lon": -77.03445683333334, "bike_id": "3c9ea5f5c5250d09608a9dfcc0c6b670", "fusion_lat": 0.0, "name": "3c9ea5f5c5250d09608a9dfcc0c6b670", "is_reserved": 0, "rental_uris": {"android": "https://dc.lft.to/lastmile_qr_scan", "ios": "https://dc.lft.to/lastmile_qr_scan"}, "fusion_lon": 0.0}, {"lat": 38.85999016666667, "is_disabled": 0, "type": "electric_scooter", "lon": -76.98552066666667, "bike_id": "afb16c5ec21f0a1f0eeb5a4a3207e670", "fusion_lat": 0.0, "name": "afb16c5ec21f0a1f0eeb5a4a3207e670", "is_reserved": 0, "rental_uris": {"android": "https://dc.lft.to/lastmile_qr_scan", "ios": "https://dc.lft.to/lastmile_qr_scan"}, "fusion_lon": 0.0}, {"lat": 38.90030866666667, "is_disabled": 0, "type": "electric_scooter", "lon": -77.00190233333333, "bike_id": "187a0498659743c1b53169661759306f", "fusion_lat": 0.0, "name": "187a0498659743c1b53169661759306f", "is_reserved": 0, "rental_uris": {"android": "https://dc.lft.to/lastmile_qr_scan", "ios": "https://dc.lft.to/lastmile_qr_scan"}, "fusion_lon": 0.0}, {"lat": 38.95065683333333, "is_disabled": 0, "type": "electric_scooter", "lon": -77.06655566666667, "bike_id": "5681b53130cc9794fd25632dd1b14f0e", "fusion_lat": 0.0, "name": "5681b53130cc9794fd25632dd1b14f0e", "is_reserved": 0, "rental_uris": {"android": "https://dc.lft.to/lastmile_qr_scan", "ios": "https://dc.lft.to/lastmile_qr_scan"}, "fusion_lon": 0.0}, {"lat": 38.901338833333334, "is_disabled": 0, "type": "electric_scooter", "lon": -77.01811183333334, "bike_id": "c11bc2d27e775de7b2c10e25f031a20f", "fusion_lat": 0.0, "name": "c11bc2d27e775de7b2c10e25f031a20f", "is_reserved": 0, "rental_uris": {"android": "https://dc.lft.to/lastmile_qr_scan", "ios": "https://dc.lft.to/lastmile_qr_scan"}, "fusion_lon": 0.0}, {"lat": 38.94095766666667, "is_disabled": 0, "type": "electric_scooter", "lon": -77.03278916666666, "bike_id": "3ea06578f0c24fb6e0f32f2d7aaf732b", "fusion_lat": 0.0, "name": "3ea06578f0c24fb6e0f32f2d7aaf732b", "is_reserved": 0, "rental_uris": {"android": "https://dc.lft.to/lastmile_qr_scan", "ios": "https://dc.lft.to/lastmile_qr_scan"}, "fusion_lon": 0.0}, {"lat": 38.90573883333333, "is_disabled": 0, "type": "electric_scooter", "lon": -77.02209133333334, "bike_id": "5db3a44dc33996ab812c3928e89a1080", "fusion_lat": 0.0, "name": "5db3a44dc33996ab812c3928e89a1080", "is_reserved": 0, "rental_uris": {"android": "https://dc.lft.to/lastmile_qr_scan", "ios": "https://dc.lft.to/lastmile_qr_scan"}, "fusion_lon": 0.0}, {"lat": 38.876312166666665, "is_disabled": 0, "type": "electric_scooter", "lon": -76.96526883333334, "bike_id": "c5bdb1a006e31b6cf5ffa597a161b05e", "fusion_lat": 0.0, "name": "c5bdb1a006e31b6cf5ffa597a161b05e", "is_reserved": 0, "rental_uris": {"android": "https://dc.lft.to/lastmile_qr_scan", "ios": "https://dc.lft.to/lastmile_qr_scan"}, "fusion_lon": 0.0}, {"lat": 38.93773316666667, "is_disabled": 0, "type": "electric_scooter", "lon": -77.02377316666667, "bike_id": "3a37d736788989d125e85518b5e6fb45", "fusion_lat": 0.0, "name": "3a37d736788989d125e85518b5e6fb45", "is_reserved": 0, "rental_uris": {"android": "https://dc.lft.to/lastmile_qr_scan", "ios": "https://dc.lft.to/lastmile_qr_scan"}, "fusion_lon": 0.0}, {"lat": 38.907313333333335, "is_disabled": 0, "type": "electric_scooter", "lon": -77.04785566666666, "bike_id": "b28af31f70467ab632fda50747e9881c", "fusion_lat": 0.0, "name": "b28af31f70467ab632fda50747e9881c", "is_reserved": 0, "rental_uris": {"android": "https://dc.lft.to/lastmile_qr_scan", "ios": "https://dc.lft.to/lastmile_qr_scan"}, "fusion_lon": 0.0}, {"lat": 38.907988333333336, "is_disabled": 0, "type": "electric_scooter", "lon": -77.03480316666666, "bike_id": "162fbae796f8495b85d41d429bdde8c8", "fusion_lat": 0.0, "name": "162fbae796f8495b85d41d429bdde8c8", "is_reserved": 0, "rental_uris": {"android": "https://dc.lft.to/lastmile_qr_scan", "ios": "https://dc.lft.to/lastmile_qr_scan"}, "fusion_lon": 0.0}, {"lat": 38.92587866666667, "is_disabled": 0, "type": "electric_scooter", "lon": -77.03433933333334, "bike_id": "e46d160489d7f95dc613099e0487b31c", "fusion_lat": 0.0, "name": "e46d160489d7f95dc613099e0487b31c", "is_reserved": 0, "rental_uris": {"android": "https://dc.lft.to/lastmile_qr_scan", "ios": "https://dc.lft.to/lastmile_qr_scan"}, "fusion_lon": 0.0}, {"lat": 38.902066166666664, "is_disabled": 0, "type": "electric_scooter", "lon": -77.021804, "bike_id": "672dafbb4af635f977f7a7f9db3091db", "fusion_lat": 0.0, "name": "672dafbb4af635f977f7a7f9db3091db", "is_reserved": 0, "rental_uris": {"android": "https://dc.lft.to/lastmile_qr_scan", "ios": "https://dc.lft.to/lastmile_qr_scan"}, "fusion_lon": 0.0}, {"lat": 38.8948765, "is_disabled": 0, "type": "electric_scooter", "lon": -77.021304, "bike_id": "3d76b89c06f89fb67e828bb975db5e02", "fusion_lat": 0.0, "name": "3d76b89c06f89fb67e828bb975db5e02", "is_reserved": 0, "rental_uris": {"android": "https://dc.lft.to/lastmile_qr_scan", "ios": "https://dc.lft.to/lastmile_qr_scan"}, "fusion_lon": 0.0}, {"lat": 38.90553833333333, "is_disabled": 0, "type": "electric_scooter", "lon": -77.0341065, "bike_id": "770b3353ced31d1d2c6b93b3aca7ee1e", "fusion_lat": 0.0, "name": "770b3353ced31d1d2c6b93b3aca7ee1e", "is_reserved": 0, "rental_uris": {"android": "https://dc.lft.to/lastmile_qr_scan", "ios": "https://dc.lft.to/lastmile_qr_scan"}, "fusion_lon": 0.0}, {"lat": 38.86907133333333, "is_disabled": 0, "type": "electric_bike", "lon": -77.131804, "bike_id": "33ae753ce8950439cd992d05eb67eab4", "fusion_lat": 0.0, "name": "33ae753ce8950439cd992d05eb67eab4", "is_reserved": 0, "rental_uris": {"android": "https://dc.lft.to/lastmile_qr_scan", "ios": "https://dc.lft.to/lastmile_qr_scan"}, "fusion_lon": 0.0}, {"lat": 38.9104845, "is_disabled": 0, "type": "electric_scooter", "lon": -77.01505016666667, "bike_id": "9391b6279f31e844aff0e0e6dc7f043f", "fusion_lat": 0.0, "name": "9391b6279f31e844aff0e0e6dc7f043f", "is_reserved": 0, "rental_uris": {"android": "https://dc.lft.to/lastmile_qr_scan", "ios": "https://dc.lft.to/lastmile_qr_scan"}, "fusion_lon": 0.0}, {"lat": 38.846563333333336, "is_disabled": 0, "type": "electric_bike", "lon": -76.97926383333333, "bike_id": "bca1f0db80427d32804eb7601b3c81ff", "fusion_lat": 0.0, "name": "bca1f0db80427d32804eb7601b3c81ff", "is_reserved": 0, "rental_uris": {"android": "https://dc.lft.to/lastmile_qr_scan", "ios": "https://dc.lft.to/lastmile_qr_scan"}, "fusion_lon": 0.0}, {"lat": 38.93285783333333, "is_disabled": 0, "type": "electric_scooter", "lon": -77.03973483333333, "bike_id": "864b42ce5f8f383058b0dee886fc0548", "fusion_lat": 0.0, "name": "864b42ce5f8f383058b0dee886fc0548", "is_reserved": 0, "rental_uris": {"android": "https://dc.lft.to/lastmile_qr_scan", "ios": "https://dc.lft.to/lastmile_qr_scan"}, "fusion_lon": 0.0}, {"lat": 38.91994866666667, "is_disabled": 0, "type": "electric_scooter", "lon": -77.03228033333333, "bike_id": "0dc384a9ccbfb71c99938ff2f06db482", "fusion_lat": 0.0, "name": "0dc384a9ccbfb71c99938ff2f06db482", "is_reserved": 0, "rental_uris": {"android": "https://dc.lft.to/lastmile_qr_scan", "ios": "https://dc.lft.to/lastmile_qr_scan"}, "fusion_lon": 0.0}, {"lat": 38.9327515, "is_disabled": 0, "type": "electric_scooter", "lon": -77.0363575, "bike_id": "3731742a32545f4dbce4f03340593ad4", "fusion_lat": 0.0, "name": "3731742a32545f4dbce4f03340593ad4", "is_reserved": 0, "rental_uris": {"android": "https://dc.lft.to/lastmile_qr_scan", "ios": "https://dc.lft.to/lastmile_qr_scan"}, "fusion_lon": 0.0}, {"lat": 38.90718616666667, "is_disabled": 0, "type": "electric_scooter", "lon": -77.02380566666666, "bike_id": "f24e6ba115b5898b76a5897f05e0d259", "fusion_lat": 0.0, "name": "f24e6ba115b5898b76a5897f05e0d259", "is_reserved": 0, "rental_uris": {"android": "https://dc.lft.to/lastmile_qr_scan", "ios": "https://dc.lft.to/lastmile_qr_scan"}, "fusion_lon": 0.0}, {"lat": 38.924811166666665, "is_disabled": 0, "type": "electric_scooter", "lon": -77.05208533333334, "bike_id": "9112ddf3666c7c358fe8b25d6bb55b23", "fusion_lat": 0.0, "name": "9112ddf3666c7c358fe8b25d6bb55b23", "is_reserved": 0, "rental_uris": {"android": "https://dc.lft.to/lastmile_qr_scan", "ios": "https://dc.lft.to/lastmile_qr_scan"}, "fusion_lon": 0.0}, {"lat": 38.93172466666667, "is_disabled": 0, "type": "electric_scooter", "lon": -77.02815583333333, "bike_id": "fbf1646c6ab7bf6d0613b42394fce855", "fusion_lat": 0.0, "name": "fbf1646c6ab7bf6d0613b42394fce855", "is_reserved": 0, "rental_uris": {"android": "https://dc.lft.to/lastmile_qr_scan", "ios": "https://dc.lft.to/lastmile_qr_scan"}, "fusion_lon": 0.0}, {"lat": 38.890396333333335, "is_disabled": 0, "type": "electric_scooter", "lon": -76.951391, "bike_id": "32d857777c9a8d3ac973e193cb7a0ada", "fusion_lat": 0.0, "name": "32d857777c9a8d3ac973e193cb7a0ada", "is_reserved": 0, "rental_uris": {"android": "https://dc.lft.to/lastmile_qr_scan", "ios": "https://dc.lft.to/lastmile_qr_scan"}, "fusion_lon": 0.0}, {"lat": 38.894929166666664, "is_disabled": 0, "type": "electric_scooter", "lon": -77.022876, "bike_id": "61868c4822e8f53cd939fc6f4a094947", "fusion_lat": 0.0, "name": "61868c4822e8f53cd939fc6f4a094947", "is_reserved": 0, "rental_uris": {"android": "https://dc.lft.to/lastmile_qr_scan", "ios": "https://dc.lft.to/lastmile_qr_scan"}, "fusion_lon": 0.0}, {"lat": 38.90559916666667, "is_disabled": 0, "type": "electric_scooter", "lon": -77.034182, "bike_id": "93924d057a648d2f3d9048c3e4aaebc5", "fusion_lat": 0.0, "name": "93924d057a648d2f3d9048c3e4aaebc5", "is_reserved": 0, "rental_uris": {"android": "https://dc.lft.to/lastmile_qr_scan", "ios": "https://dc.lft.to/lastmile_qr_scan"}, "fusion_lon": 0.0}, {"lat": 38.902873, "is_disabled": 0, "type": "electric_scooter", "lon": -77.025955, "bike_id": "6da3bca89fbc3502d499a57aacfd1786", "fusion_lat": 0.0, "name": "6da3bca89fbc3502d499a57aacfd1786", "is_reserved": 0, "rental_uris": {"android": "https://dc.lft.to/lastmile_qr_scan", "ios": "https://dc.lft.to/lastmile_qr_scan"}, "fusion_lon": 0.0}, {"lat": 38.941725166666664, "is_disabled": 0, "type": "electric_scooter", "lon": -77.02350183333333, "bike_id": "754ee927953e3771b0e1c6dd2a326fc0", "fusion_lat": 0.0, "name": "754ee927953e3771b0e1c6dd2a326fc0", "is_reserved": 0, "rental_uris": {"android": "https://dc.lft.to/lastmile_qr_scan", "ios": "https://dc.lft.to/lastmile_qr_scan"}, "fusion_lon": 0.0}, {"lat": 38.900893333333336, "is_disabled": 0, "type": "electric_scooter", "lon": -77.049943, "bike_id": "9e8feb45b9493e7cd5f424448aa4a3b7", "fusion_lat": 0.0, "name": "9e8feb45b9493e7cd5f424448aa4a3b7", "is_reserved": 0, "rental_uris": {"android": "https://dc.lft.to/lastmile_qr_scan", "ios": "https://dc.lft.to/lastmile_qr_scan"}, "fusion_lon": 0.0}, {"lat": 38.91264966666667, "is_disabled": 0, "type": "electric_scooter", "lon": -77.00280916666667, "bike_id": "4caf026bce229edae1eb4caa33ce0daf", "fusion_lat": 0.0, "name": "4caf026bce229edae1eb4caa33ce0daf", "is_reserved": 0, "rental_uris": {"android": "https://dc.lft.to/lastmile_qr_scan", "ios": "https://dc.lft.to/lastmile_qr_scan"}, "fusion_lon": 0.0}, {"lat": 38.913412, "is_disabled": 0, "type": "electric_scooter", "lon": -77.00223183333334, "bike_id": "c817abf24a53f54ef4888a1a778a4f4c", "fusion_lat": 0.0, "name": "c817abf24a53f54ef4888a1a778a4f4c", "is_reserved": 0, "rental_uris": {"android": "https://dc.lft.to/lastmile_qr_scan", "ios": "https://dc.lft.to/lastmile_qr_scan"}, "fusion_lon": 0.0}, {"lat": 38.883372333333334, "is_disabled": 0, "type": "electric_scooter", "lon": -77.03150633333334, "bike_id": "fc2fe79214700aebeee05682ffb2cefa", "fusion_lat": 0.0, "name": "fc2fe79214700aebeee05682ffb2cefa", "is_reserved": 0, "rental_uris": {"android": "https://dc.lft.to/lastmile_qr_scan", "ios": "https://dc.lft.to/lastmile_qr_scan"}, "fusion_lon": 0.0}, {"lat": 38.923384666666664, "is_disabled": 0, "type": "electric_scooter", "lon": -77.0190125, "bike_id": "058b1ab2111f7e9046c78714e3f1e747", "fusion_lat": 0.0, "name": "058b1ab2111f7e9046c78714e3f1e747", "is_reserved": 0, "rental_uris": {"android": "https://dc.lft.to/lastmile_qr_scan", "ios": "https://dc.lft.to/lastmile_qr_scan"}, "fusion_lon": 0.0}, {"lat": 38.900315, "is_disabled": 0, "type": "electric_scooter", "lon": -76.98738816666666, "bike_id": "fc276c43cfe5764f6371ee5800b1d3c6", "fusion_lat": 0.0, "name": "fc276c43cfe5764f6371ee5800b1d3c6", "is_reserved": 0, "rental_uris": {"android": "https://dc.lft.to/lastmile_qr_scan", "ios": "https://dc.lft.to/lastmile_qr_scan"}, "fusion_lon": 0.0}, {"lat": 38.91115116666667, "is_disabled": 0, "type": "electric_scooter", "lon": -77.0024395, "bike_id": "40c9ddc49c9e17e4f43573b050d3e839", "fusion_lat": 0.0, "name": "40c9ddc49c9e17e4f43573b050d3e839", "is_reserved": 0, "rental_uris": {"android": "https://dc.lft.to/lastmile_qr_scan", "ios": "https://dc.lft.to/lastmile_qr_scan"}, "fusion_lon": 0.0}, {"lat": 38.8610535, "is_disabled": 0, "type": "electric_scooter", "lon": -76.9836115, "bike_id": "1f460a8ef9354974d9bffadd4fd89f61", "fusion_lat": 0.0, "name": "1f460a8ef9354974d9bffadd4fd89f61", "is_reserved": 0, "rental_uris": {"android": "https://dc.lft.to/lastmile_qr_scan", "ios": "https://dc.lft.to/lastmile_qr_scan"}, "fusion_lon": 0.0}, {"lat": 38.8973105, "is_disabled": 0, "type": "electric_scooter", "lon": -77.0552375, "bike_id": "8ff112487ab6f04c35b5b4299c4dcbc7", "fusion_lat": 0.0, "name": "8ff112487ab6f04c35b5b4299c4dcbc7", "is_reserved": 0, "rental_uris": {"android": "https://dc.lft.to/lastmile_qr_scan", "ios": "https://dc.lft.to/lastmile_qr_scan"}, "fusion_lon": 0.0}, {"lat": 38.91013683333333, "is_disabled": 0, "type": "electric_scooter", "lon": -76.9938915, "bike_id": "ed496d68c03522460ef29126986774ef", "fusion_lat": 0.0, "name": "ed496d68c03522460ef29126986774ef", "is_reserved": 0, "rental_uris": {"android": "https://dc.lft.to/lastmile_qr_scan", "ios": "https://dc.lft.to/lastmile_qr_scan"}, "fusion_lon": 0.0}, {"lat": 38.929642666666666, "is_disabled": 0, "type": "electric_scooter", "lon": -77.031789, "bike_id": "e90f9281a69261ed262a93615ba54379", "fusion_lat": 0.0, "name": "e90f9281a69261ed262a93615ba54379", "is_reserved": 0, "rental_uris": {"android": "https://dc.lft.to/lastmile_qr_scan", "ios": "https://dc.lft.to/lastmile_qr_scan"}, "fusion_lon": 0.0}, {"lat": 38.921308333333336, "is_disabled": 0, "type": "electric_scooter", "lon": -77.036598, "bike_id": "12e93444e83f3f7c9accca28609f91f2", "fusion_lat": 0.0, "name": "12e93444e83f3f7c9accca28609f91f2", "is_reserved": 0, "rental_uris": {"android": "https://dc.lft.to/lastmile_qr_scan", "ios": "https://dc.lft.to/lastmile_qr_scan"}, "fusion_lon": 0.0}, {"lat": 38.89635416666667, "is_disabled": 0, "type": "electric_scooter", "lon": -77.04671833333333, "bike_id": "bacaf9d73df76a9c33ea96697525bc45", "fusion_lat": 0.0, "name": "bacaf9d73df76a9c33ea96697525bc45", "is_reserved": 0, "rental_uris": {"android": "https://dc.lft.to/lastmile_qr_scan", "ios": "https://dc.lft.to/lastmile_qr_scan"}, "fusion_lon": 0.0}, {"lat": 38.9101105, "is_disabled": 0, "type": "electric_scooter", "lon": -77.0301365, "bike_id": "f0cc35e47209707b6700f1f08cc4046a", "fusion_lat": 0.0, "name": "f0cc35e47209707b6700f1f08cc4046a", "is_reserved": 0, "rental_uris": {"android": "https://dc.lft.to/lastmile_qr_scan", "ios": "https://dc.lft.to/lastmile_qr_scan"}, "fusion_lon": 0.0}, {"lat": 38.928340666666664, "is_disabled": 0, "type": "electric_scooter", "lon": -77.05423233333333, "bike_id": "6aa6b2bb464e11b29456654178cb7b15", "fusion_lat": 0.0, "name": "6aa6b2bb464e11b29456654178cb7b15", "is_reserved": 0, "rental_uris": {"android": "https://dc.lft.to/lastmile_qr_scan", "ios": "https://dc.lft.to/lastmile_qr_scan"}, "fusion_lon": 0.0}, {"lat": 38.9384635, "is_disabled": 0, "type": "electric_scooter", "lon": -77.0339055, "bike_id": "b68603eb00a1d7b6b7d08aa5b0a6a9fe", "fusion_lat": 0.0, "name": "b68603eb00a1d7b6b7d08aa5b0a6a9fe", "is_reserved": 0, "rental_uris": {"android": "https://dc.lft.to/lastmile_qr_scan", "ios": "https://dc.lft.to/lastmile_qr_scan"}, "fusion_lon": 0.0}, {"lat": 38.932502666666664, "is_disabled": 0, "type": "electric_scooter", "lon": -77.0400605, "bike_id": "68b891cd5d6025c7be81eb4d0e2f1940", "fusion_lat": 0.0, "name": "68b891cd5d6025c7be81eb4d0e2f1940", "is_reserved": 0, "rental_uris": {"android": "https://dc.lft.to/lastmile_qr_scan", "ios": "https://dc.lft.to/lastmile_qr_scan"}, "fusion_lon": 0.0}, {"lat": 38.90641683333333, "is_disabled": 0, "type": "electric_scooter", "lon": -77.0082345, "bike_id": "8eeb7f245e714b9581b1cab5d309b252", "fusion_lat": 0.0, "name": "8eeb7f245e714b9581b1cab5d309b252", "is_reserved": 0, "rental_uris": {"android": "https://dc.lft.to/lastmile_qr_scan", "ios": "https://dc.lft.to/lastmile_qr_scan"}, "fusion_lon": 0.0}, {"lat": 38.91709516666667, "is_disabled": 0, "type": "electric_scooter", "lon": -77.0303635, "bike_id": "c3e37398e8762b346f6e1f43ea4a308d", "fusion_lat": 0.0, "name": "c3e37398e8762b346f6e1f43ea4a308d", "is_reserved": 0, "rental_uris": {"android": "https://dc.lft.to/lastmile_qr_scan", "ios": "https://dc.lft.to/lastmile_qr_scan"}, "fusion_lon": 0.0}, {"lat": 38.897399166666666, "is_disabled": 0, "type": "electric_scooter", "lon": -77.000055, "bike_id": "c4b61be4fbc28907653cb07e8aa6cf3c", "fusion_lat": 0.0, "name": "c4b61be4fbc28907653cb07e8aa6cf3c", "is_reserved": 0, "rental_uris": {"android": "https://dc.lft.to/lastmile_qr_scan", "ios": "https://dc.lft.to/lastmile_qr_scan"}, "fusion_lon": 0.0}, {"lat": 38.90965683333334, "is_disabled": 0, "type": "electric_scooter", "lon": -77.05264666666666, "bike_id": "5fc74fd28b188931aea22bb860b2af2e", "fusion_lat": 0.0, "name": "5fc74fd28b188931aea22bb860b2af2e", "is_reserved": 0, "rental_uris": {"android": "https://dc.lft.to/lastmile_qr_scan", "ios": "https://dc.lft.to/lastmile_qr_scan"}, "fusion_lon": 0.0}, {"lat": 38.866617, "is_disabled": 0, "type": "electric_scooter", "lon": -76.98910066666667, "bike_id": "8d05fe778e9130aef73c1110aea60160", "fusion_lat": 0.0, "name": "8d05fe778e9130aef73c1110aea60160", "is_reserved": 0, "rental_uris": {"android": "https://dc.lft.to/lastmile_qr_scan", "ios": "https://dc.lft.to/lastmile_qr_scan"}, "fusion_lon": 0.0}, {"lat": 38.88579983333333, "is_disabled": 0, "type": "electric_scooter", "lon": -77.01218833333333, "bike_id": "2bea81d6e899ce02fecb500c1e2af249", "fusion_lat": 0.0, "name": "2bea81d6e899ce02fecb500c1e2af249", "is_reserved": 0, "rental_uris": {"android": "https://dc.lft.to/lastmile_qr_scan", "ios": "https://dc.lft.to/lastmile_qr_scan"}, "fusion_lon": 0.0}, {"lat": 38.910491666666665, "is_disabled": 0, "type": "electric_scooter", "lon": -77.040993, "bike_id": "d5de86b3161ea8edd298976944fc6380", "fusion_lat": 0.0, "name": "d5de86b3161ea8edd298976944fc6380", "is_reserved": 0, "rental_uris": {"android": "https://dc.lft.to/lastmile_qr_scan", "ios": "https://dc.lft.to/lastmile_qr_scan"}, "fusion_lon": 0.0}, {"lat": 38.930876, "is_disabled": 0, "type": "electric_scooter", "lon": -76.96722616666666, "bike_id": "1b02fa6831a0df20ae4999b9d429ded7", "fusion_lat": 0.0, "name": "1b02fa6831a0df20ae4999b9d429ded7", "is_reserved": 0, "rental_uris": {"android": "https://dc.lft.to/lastmile_qr_scan", "ios": "https://dc.lft.to/lastmile_qr_scan"}, "fusion_lon": 0.0}, {"lat": 38.936117, "is_disabled": 0, "type": "electric_scooter", "lon": -77.03212266666667, "bike_id": "4a17c0159bc091ea602dfcce20dae2db", "fusion_lat": 0.0, "name": "4a17c0159bc091ea602dfcce20dae2db", "is_reserved": 0, "rental_uris": {"android": "https://dc.lft.to/lastmile_qr_scan", "ios": "https://dc.lft.to/lastmile_qr_scan"}, "fusion_lon": 0.0}, {"lat": 39.024261833333334, "is_disabled": 0, "type": "electric_bike", "lon": -77.130897, "bike_id": "c8a0411ff67c40e6c1ede51b9a9814d3", "fusion_lat": 0.0, "name": "c8a0411ff67c40e6c1ede51b9a9814d3", "is_reserved": 0, "rental_uris": {"android": "https://dc.lft.to/lastmile_qr_scan", "ios": "https://dc.lft.to/lastmile_qr_scan"}, "fusion_lon": 0.0}, {"lat": 38.998122333333335, "is_disabled": 0, "type": "electric_bike", "lon": -76.883697, "bike_id": "50c79759cc9b8640554d5f13d992a8f6", "fusion_lat": 0.0, "name": "50c79759cc9b8640554d5f13d992a8f6", "is_reserved": 0, "rental_uris": {"android": "https://dc.lft.to/lastmile_qr_scan", "ios": "https://dc.lft.to/lastmile_qr_scan"}, "fusion_lon": 0.0}, {"lat": 39.030474166666664, "is_disabled": 0, "type": "electric_bike", "lon": -77.09484066666667, "bike_id": "e6313dcb96f9a7c416ba8b79c325870f", "fusion_lat": 0.0, "name": "e6313dcb96f9a7c416ba8b79c325870f", "is_reserved": 0, "rental_uris": {"android": "https://dc.lft.to/lastmile_qr_scan", "ios": "https://dc.lft.to/lastmile_qr_scan"}, "fusion_lon": 0.0}, {"lat": 38.87213716666667, "is_disabled": 0, "type": "electric_scooter", "lon": -77.0176695, "bike_id": "18ba2f1cefbbed2de52da88ce772148b", "fusion_lat": 0.0, "name": "18ba2f1cefbbed2de52da88ce772148b", "is_reserved": 0, "rental_uris": {"android": "https://dc.lft.to/lastmile_qr_scan", "ios": "https://dc.lft.to/lastmile_qr_scan"}, "fusion_lon": 0.0}, {"lat": 38.928378333333335, "is_disabled": 0, "type": "electric_scooter", "lon": -77.054217, "bike_id": "c20af766baa6e6dbed43192789f0360f", "fusion_lat": 0.0, "name": "c20af766baa6e6dbed43192789f0360f", "is_reserved": 0, "rental_uris": {"android": "https://dc.lft.to/lastmile_qr_scan", "ios": "https://dc.lft.to/lastmile_qr_scan"}, "fusion_lon": 0.0}, {"lat": 38.916822333333336, "is_disabled": 0, "type": "electric_scooter", "lon": -77.029483, "bike_id": "85edf0a5b7ce5f6201cdcbb9c07f58ae", "fusion_lat": 0.0, "name": "85edf0a5b7ce5f6201cdcbb9c07f58ae", "is_reserved": 0, "rental_uris": {"android": "https://dc.lft.to/lastmile_qr_scan", "ios": "https://dc.lft.to/lastmile_qr_scan"}, "fusion_lon": 0.0}, {"lat": 38.899589166666665, "is_disabled": 0, "type": "electric_scooter", "lon": -77.033455, "bike_id": "1868522199c608f313d5485a81712d13", "fusion_lat": 0.0, "name": "1868522199c608f313d5485a81712d13", "is_reserved": 0, "rental_uris": {"android": "https://dc.lft.to/lastmile_qr_scan", "ios": "https://dc.lft.to/lastmile_qr_scan"}, "fusion_lon": 0.0}, {"lat": 38.920466833333336, "is_disabled": 0, "type": "electric_scooter", "lon": -77.02372816666667, "bike_id": "bd2a5a7e7113dc04c9583144e8e3a453", "fusion_lat": 0.0, "name": "bd2a5a7e7113dc04c9583144e8e3a453", "is_reserved": 0, "rental_uris": {"android": "https://dc.lft.to/lastmile_qr_scan", "ios": "https://dc.lft.to/lastmile_qr_scan"}, "fusion_lon": 0.0}, {"lat": 38.909774166666665, "is_disabled": 0, "type": "electric_scooter", "lon": -77.04057083333333, "bike_id": "cccccb71036712d4e522a3124eb94537", "fusion_lat": 0.0, "name": "cccccb71036712d4e522a3124eb94537", "is_reserved": 0, "rental_uris": {"android": "https://dc.lft.to/lastmile_qr_scan", "ios": "https://dc.lft.to/lastmile_qr_scan"}, "fusion_lon": 0.0}, {"lat": 38.891423833333334, "is_disabled": 0, "type": "electric_bike", "lon": -77.11300716666666, "bike_id": "0149395cca75293454062d970cdf7586", "fusion_lat": 0.0, "name": "0149395cca75293454062d970cdf7586", "is_reserved": 0, "rental_uris": {"android": "https://dc.lft.to/lastmile_qr_scan", "ios": "https://dc.lft.to/lastmile_qr_scan"}, "fusion_lon": 0.0}, {"lat": 38.924822666666664, "is_disabled": 0, "type": "electric_scooter", "lon": -77.0254315, "bike_id": "21900568e1771f073a3e125a3ae7d809", "fusion_lat": 0.0, "name": "21900568e1771f073a3e125a3ae7d809", "is_reserved": 0, "rental_uris": {"android": "https://dc.lft.to/lastmile_qr_scan", "ios": "https://dc.lft.to/lastmile_qr_scan"}, "fusion_lon": 0.0},