{"data": {"bikes": [{"lon": -77.0366265, "bike_id": "5739930a633a51fa2aaccc2f76f13f3b", "lat": 38.912913833333334, "fusion_lon": 0.0, "fusion_lat": 0.0, "type": "electric_scooter", "name": "5739930a633a51fa2aaccc2f76f13f3b", "is_disabled": 0, "rental_uris": {"ios": "https://dc.lft.to/lastmile_qr_scan", "android": "https://dc.lft.to/lastmile_qr_scan"}, "is_reserved": 0}, {"lon": -77.0216165, "bike_id": "4d981bc055a945b5f01ee4735f490a89", "lat": 38.897142, "fusion_lon": 0.0, "fusion_lat": 0.0, "type": "electric_scooter", "name": "4d981bc055a945b5f01ee4735f490a89", "is_disabled": 0, "rental_uris": {"ios": "https://dc.lft.to/lastmile_qr_scan", "android": "https://dc.lft.to/lastmile_qr_scan"}, "is_reserved": 0}, {"lon": -77.02961316666666, "bike_id": "db17661c1589ff5b7022641cfbd7abd4", "lat": 38.927671333333336, "fusion_lon": 0.0, "fusion_lat": 0.0, "type": "electric_scooter", "name": "db17661c1589ff5b7022641cfbd7abd4", "is_disabled": 0, "rental_uris": {"ios": "https://dc.lft.to/lastmile_qr_scan", "android": "https://dc.lft.to/lastmile_qr_scan"}, "is_reserved": 0}, {"lon": -77.05883833333333, "bike_id": "ff3b532b77a9670790c2b386cca1bf1a", "lat": 38.935524666666666, "fusion_lon": 0.0, "fusion_lat": 0.0, "type": "electric_scooter", "name": "ff3b532b77a9670790c2b386cca1bf1a", "is_disabled": 0, "rental_uris": {"ios": "https://dc.lft.to/lastmile_qr_scan", "android": "https://dc.lft.to/lastmile_qr_scan"}, "is_reserved": 0}, {"lon": -77.03125166666666, "bike_id": "0bd6462c5b6e77aaf5cb6233d276a78f", "lat": 38.9882775, "fusion_lon": 0.0, "fusion_lat": 0.0, "type": "electric_scooter", "name": "0bd6462c5b6e77aaf5cb6233d276a78f", "is_disabled": 0, "rental_uris": {"ios": "https://dc.lft.to/lastmile_qr_scan", "android": "https://dc.lft.to/lastmile_qr_scan"}, "is_reserved": 0}, {"lon": -77.041813, "bike_id": "fc023c1518c69dbe418900935a14c91f", "lat": 38.906570333333335, "fusion_lon": 0.0, "fusion_lat": 0.0, "type": "electric_scooter", "name": "fc023c1518c69dbe418900935a14c91f", "is_disabled": 0, "rental_uris": {"ios": "https://dc.lft.to/lastmile_qr_scan", "android": "https://dc.lft.to/lastmile_qr_scan"}, "is_reserved": 0}, {"lon": -77.02027883333334, "bike_id": "023e1a0017dce4f536fdc93b827d8a1f", "lat": 38.915556, "fusion_lon": 0.0, "fusion_lat": 0.0, "type": "electric_scooter", "name": "023e1a0017dce4f536fdc93b827d8a1f", "is_disabled": 0, "rental_uris": {"ios": "https://dc.lft.to/lastmile_qr_scan", "android": "https://dc.lft.to/lastmile_qr_scan"}, "is_reserved": 0}, {"lon": -77.0441475, "bike_id": "a512a1fb2c92454c70f3425b4fb51db7", "lat": 38.91113133333333, "fusion_lon": 0.0, "fusion_lat": 0.0, "type": "electric_scooter", "name": "a512a1fb2c92454c70f3425b4fb51db7", "is_disabled": 0, "rental_uris": {"ios": "https://dc.lft.to/lastmile_qr_scan", "android": "https://dc.lft.to/lastmile_qr_scan"}, "is_reserved": 0}, {"lon": -77.227985, "bike_id": "c6f3a903bc2adbc114440ce703d39333", "lat": 38.91014466666667, "fusion_lon": 0.0, "fusion_lat": 0.0, "type": "electric_bike", "name": "c6f3a903bc2adbc114440ce703d39333", "is_disabled": 0, "rental_uris": {"ios": "https://dc.lft.to/lastmile_qr_scan", "android": "https://dc.lft.to/lastmile_qr_scan"}, "is_reserved": 0}, {"lon": -76.9638725, "bike_id": "86c933e625a784511055bfb2905a3f4c", "lat": 38.9517005, "fusion_lon": 0.0, "fusion_lat": 0.0, "type": "electric_bike", "name": "86c933e625a784511055bfb2905a3f4c", "is_disabled": 0, "rental_uris": {"ios": "https://dc.lft.to/lastmile_qr_scan", "android": "https://dc.lft.to/lastmile_qr_scan"}, "is_reserved": 0}, {"lon": -77.00358883333334, "bike_id": "bb9d252f5a3d27fea38ec93bf00ee3c5", "lat": 38.89929216666667, "fusion_lon": 0.0, "fusion_lat": 0.0, "type": "electric_scooter", "name": "bb9d252f5a3d27fea38ec93bf00ee3c5", "is_disabled": 0, "rental_uris": {"ios": "https://dc.lft.to/lastmile_qr_scan", "android": "https://dc.lft.to/lastmile_qr_scan"}, "is_reserved": 0}, {"lon": -77.04097933333334, "bike_id": "93b68e3ca691c89f6e53f0a1cbcd7fe5", "lat": 38.923957333333334, "fusion_lon": 0.0, "fusion_lat": 0.0, "type": "electric_scooter", "name": "93b68e3ca691c89f6e53f0a1cbcd7fe5", "is_disabled": 0, "rental_uris": {"ios": "https://dc.lft.to/lastmile_qr_scan", "android": "https://dc.lft.to/lastmile_qr_scan"}, "is_reserved": 0}, {"lon": -77.04349183333333, "bike_id": "cb6b880b7ae196a55482c1a1a9cdddcd", "lat": 38.910461, "fusion_lon": 0.0, "fusion_lat": 0.0, "type": "electric_scooter", "name": "cb6b880b7ae196a55482c1a1a9cdddcd", "is_disabled": 0, "rental_uris": {"ios": "https://dc.lft.to/lastmile_qr_scan", "android": "https://dc.lft.to/lastmile_qr_scan"}, "is_reserved": 0}, {"lon": -77.02799133333333, "bike_id": "1c69b371bec804c8e6193482aa0dc163", "lat": 38.953936, "fusion_lon": 0.0, "fusion_lat": 0.0, "type": "electric_scooter", "name": "1c69b371bec804c8e6193482aa0dc163", "is_disabled": 0, "rental_uris": {"ios": "https://dc.lft.to/lastmile_qr_scan", "android": "https://dc.lft.to/lastmile_qr_scan"}, "is_reserved": 0}, {"lon": -77.02097083333334, "bike_id": "0b584f5e4bf831eebc1c0d65e0239911", "lat": 38.92917116666667, "fusion_lon": 0.0, "fusion_lat": 0.0, "type": "electric_scooter", "name": "0b584f5e4bf831eebc1c0d65e0239911", "is_disabled": 0, "rental_uris": {"ios": "https://dc.lft.to/lastmile_qr_scan", "android": "https://dc.lft.to/lastmile_qr_scan"}, "is_reserved": 0}, {"lon": -77.0074575, "bike_id": "33fc1079c4155a4cb2f5fae8de8da028", "lat": 38.925319, "fusion_lon": 0.0, "fusion_lat": 0.0, "type": "electric_scooter", "name": "33fc1079c4155a4cb2f5fae8de8da028", "is_disabled": 0, "rental_uris": {"ios": "https://dc.lft.to/lastmile_qr_scan", "android": "https://dc.lft.to/lastmile_qr_scan"}, "is_reserved": 0}, {"lon": -77.08459016666667, "bike_id": "b04e84c5ab2eedde3f895fe04ff223ab", "lat": 38.848161833333336, "fusion_lon": 0.0, "fusion_lat": 0.0, "type": "electric_bike", "name": "b04e84c5ab2eedde3f895fe04ff223ab", "is_disabled": 0, "rental_uris": {"ios": "https://dc.lft.to/lastmile_qr_scan", "android": "https://dc.lft.to/lastmile_qr_scan"}, "is_reserved": 0}, {"lon": -77.03905716666667, "bike_id": "101c53185cbf4cfcec2087065f7eed02", "lat": 38.92356933333333, "fusion_lon": 0.0, "fusion_lat": 0.0, "type": "electric_scooter", "name": "101c53185cbf4cfcec2087065f7eed02", "is_disabled": 0, "rental_uris": {"ios": "https://dc.lft.to/lastmile_qr_scan", "android": "https://dc.lft.to/lastmile_qr_scan"}, "is_reserved": 0}, {"lon": -77.0338555, "bike_id": "a5ae6206b0dfb960e889ac226034567f", "lat": 38.9097235, "fusion_lon": 0.0, "fusion_lat": 0.0, "type": "electric_scooter", "name": "a5ae6206b0dfb960e889ac226034567f", "is_disabled": 0, "rental_uris": {"ios": "https://dc.lft.to/lastmile_qr_scan", "android": "https://dc.lft.to/lastmile_qr_scan"}, "is_reserved": 0}, {"lon": -77.03403616666667, "bike_id": "43fdff28a79c5fb11fc3112e1b85a35a", "lat": 38.909653, "fusion_lon": 0.0, "fusion_lat": 0.0, "type": "electric_scooter", "name": "43fdff28a79c5fb11fc3112e1b85a35a", "is_disabled": 0, "rental_uris": {"ios": "https://dc.lft.to/lastmile_qr_scan", "android": "https://dc.lft.to/lastmile_qr_scan"}, "is_reserved": 0}, {"lon": -76.97548833333333, "bike_id": "62bb7cd13b8259982ac79e16dfcaf2ea", "lat": 38.90323183333334, "fusion_lon": 0.0, "fusion_lat": 0.0, "type": "electric_scooter", "name": "62bb7cd13b8259982ac79e16dfcaf2ea", "is_disabled": 0, "rental_uris": {"ios": "https://dc.lft.to/lastmile_qr_scan", "android": "https://dc.lft.to/lastmile_qr_scan"}, "is_reserved": 0}, {"lon": -76.94637516666667, "bike_id": "bb5de0c4f2eb045b91c1da4c2ecd706d", "lat": 38.8983305, "fusion_lon": 0.0, "fusion_lat": 0.0, "type": "electric_scooter", "name": "bb5de0c4f2eb045b91c1da4c2ecd706d", "is_disabled": 0, "rental_uris": {"ios": "https://dc.lft.to/lastmile_qr_scan", "android": "https://dc.lft.to/lastmile_qr_scan"}, "is_reserved": 0}, {"lon": -77.03428566666666, "bike_id": "d2fd21360957d79dfe426945129c0985", "lat": 38.922427166666665, "fusion_lon": 0.0, "fusion_lat": 0.0, "type": "electric_scooter", "name": "d2fd21360957d79dfe426945129c0985", "is_disabled": 0, "rental_uris": {"ios": "https://dc.lft.to/lastmile_qr_scan", "android": "https://dc.lft.to/lastmile_qr_scan"}, "is_reserved": 0}, {"lon": -77.06349133333333, "bike_id": "feab51d459afd608be60052455984542", "lat": 38.906828833333336, "fusion_lon": 0.0, "fusion_lat": 0.0, "type": "electric_scooter", "name": "feab51d459afd608be60052455984542", "is_disabled": 0, "rental_uris": {"ios": "https://dc.lft.to/lastmile_qr_scan", "android": "https://dc.lft.to/lastmile_qr_scan"}, "is_reserved": 0}, {"lon": -77.02297766666666, "bike_id": "08658de2e5e833d598475f52c55ace78", "lat": 38.91663833333333, "fusion_lon": 0.0, "fusion_lat": 0.0, "type": "electric_scooter", "name": "08658de2e5e833d598475f52c55ace78", "is_disabled": 0, "rental_uris": {"ios": "https://dc.lft.to/lastmile_qr_scan", "android": "https://dc.lft.to/lastmile_qr_scan"}, "is_reserved": 0}, {"lon": -77.05536666666667, "bike_id": "1c14eb3cddd0d0afde623205dce07ec4", "lat": 38.9343175, "fusion_lon": 0.0, "fusion_lat": 0.0, "type": "electric_scooter", "name": "1c14eb3cddd0d0afde623205dce07ec4", "is_disabled": 0, "rental_uris": {"ios": "https://dc.lft.to/lastmile_qr_scan", "android": "https://dc.lft.to/lastmile_qr_scan"}, "is_reserved": 0}, {"lon": -77.03184583333334, "bike_id": "6697c545a854d9f89ee2ecd1a307f5a5", "lat": 38.9165045, "fusion_lon": 0.0, "fusion_lat": 0.0, "type": "electric_scooter", "name": "6697c545a854d9f89ee2ecd1a307f5a5", "is_disabled": 0, "rental_uris": {"ios": "https://dc.lft.to/lastmile_qr_scan", "android": "https://dc.lft.to/lastmile_qr_scan"}, "is_reserved": 0}, {"lon": -77.026813, "bike_id": "d0d964e5bb0f2dfc0c0041b1fc4dced6", "lat": 38.89692983333333, "fusion_lon": 0.0, "fusion_lat": 0.0, "type": "electric_scooter", "name": "d0d964e5bb0f2dfc0c0041b1fc4dced6", "is_disabled": 0, "rental_uris": {"ios": "https://dc.lft.to/lastmile_qr_scan", "android": "https://dc.lft.to/lastmile_qr_scan"}, "is_reserved": 0}, {"lon": -76.97395533333334, "bike_id": "77566b53a337d0e148d12a8dfe704735", "lat": 38.90557, "fusion_lon": 0.0, "fusion_lat": 0.0, "type": "electric_scooter", "name": "77566b53a337d0e148d12a8dfe704735", "is_disabled": 0, "rental_uris": {"ios": "https://dc.lft.to/lastmile_qr_scan", "android": "https://dc.lft.to/lastmile_qr_scan"}, "is_reserved": 0}, {"lon": -77.03499816666667, "bike_id": "9d43e59948a906ac639ddfeee05a25fc", "lat": 38.93751183333333, "fusion_lon": 0.0, "fusion_lat": 0.0, "type": "electric_scooter", "name": "9d43e59948a906ac639ddfeee05a25fc", "is_disabled": 0, "rental_uris": {"ios": "https://dc.lft.to/lastmile_qr_scan", "android": "https://dc.lft.to/lastmile_qr_scan"}, "is_reserved": 0}, {"lon": -77.05635466666666, "bike_id": "76914f1daa47d8723135219c6350383e", "lat": 38.92351266666667, "fusion_lon": 0.0, "fusion_lat": 0.0, "type": "electric_scooter", "name": "76914f1daa47d8723135219c6350383e", "is_disabled": 0, "rental_uris": {"ios": "https://dc.lft.to/lastmile_qr_scan", "android": "https://dc.lft.to/lastmile_qr_scan"}, "is_reserved": 0}, {"lon": -77.00976616666667, "bike_id": "70f4cfa0c2883611e6962a10a39e3788", "lat": 38.87069566666667, "fusion_lon": 0.0, "fusion_lat": 0.0, "type": "electric_scooter", "name": "70f4cfa0c2883611e6962a10a39e3788", "is_disabled": 0, "rental_uris": {"ios": "https://dc.lft.to/lastmile_qr_scan", "android": "https://dc.lft.to/lastmile_qr_scan"}, "is_reserved": 0}, {"lon": -77.00884716666667, "bike_id": "2d4a648872af7b1156eafc3c8424c9c9", "lat": 38.825344, "fusion_lon": 0.0, "fusion_lat": 0.0, "type": "electric_scooter", "name": "2d4a648872af7b1156eafc3c8424c9c9", "is_disabled": 0, "rental_uris": {"ios": "https://dc.lft.to/lastmile_qr_scan", "android": "https://dc.lft.to/lastmile_qr_scan"}, "is_reserved": 0}, {"lon": -76.99507116666666, "bike_id": "d5aa2561f46c4b4fa0a991d84933384d", "lat": 38.86246916666666, "fusion_lon": 0.0, "fusion_lat": 0.0, "type": "electric_scooter", "name": "d5aa2561f46c4b4fa0a991d84933384d", "is_disabled": 0, "rental_uris": {"ios": "https://dc.lft.to/lastmile_qr_scan", "android": "https://dc.lft.to/lastmile_qr_scan"}, "is_reserved": 0}, {"lon": -76.97208816666667, "bike_id": "ff655815529fecc346f355fec704fe33", "lat": 38.89284816666667, "fusion_lon": 0.0, "fusion_lat": 0.0, "type": "electric_bike", "name": "ff655815529fecc346f355fec704fe33", "is_disabled": 0, "rental_uris": {"ios": "https://dc.lft.to/lastmile_qr_scan", "android": "https://dc.lft.to/lastmile_qr_scan"}, "is_reserved": 0}, {"lon": -76.98837033333334, "bike_id": "7af92f31d365728a5a4144d52f66eddf", "lat": 38.896662, "fusion_lon": 0.0, "fusion_lat": 0.0, "type": "electric_scooter", "name": "7af92f31d365728a5a4144d52f66eddf", "is_disabled": 0, "rental_uris": {"ios": "https://dc.lft.to/lastmile_qr_scan", "android": "https://dc.lft.to/lastmile_qr_scan"}, "is_reserved": 0}, {"lon": -77.07758816666667, "bike_id": "b0b650d0d59191f097d9ce7a7ee4ae77", "lat": 38.95769083333333, "fusion_lon": 0.0, "fusion_lat": 0.0, "type": "electric_scooter", "name": "b0b650d0d59191f097d9ce7a7ee4ae77", "is_disabled": 0, "rental_uris": {"ios": "https://dc.lft.to/lastmile_qr_scan", "android": "https://dc.lft.to/lastmile_qr_scan"}, "is_reserved": 0}, {"lon": -77.0486155, "bike_id": "9bceef1bc98d50035557d6f57bc44c80", "lat": 38.90956366666666, "fusion_lon": 0.0, "fusion_lat": 0.0, "type": "electric_scooter", "name": "9bceef1bc98d50035557d6f57bc44c80", "is_disabled": 0, "rental_uris": {"ios": "https://dc.lft.to/lastmile_qr_scan", "android": "https://dc.lft.to/lastmile_qr_scan"}, "is_reserved": 0}, {"lon": -77.13930166666667, "bike_id": "3c7b61285759542fe6a849765e4e4c86", "lat": 38.8729625, "fusion_lon": 0.0, "fusion_lat": 0.0, "type": "electric_bike", "name": "3c7b61285759542fe6a849765e4e4c86", "is_disabled": 0, "rental_uris": {"ios": "https://dc.lft.to/lastmile_qr_scan", "android": "https://dc.lft.to/lastmile_qr_scan"}, "is_reserved": 0}, {"lon": -77.02211533333333, "bike_id": "b88609aab4af87567c0eb5a73b8437f9", "lat": 38.89354183333333, "fusion_lon": 0.0, "fusion_lat": 0.0, "type": "electric_scooter", "name": "b88609aab4af87567c0eb5a73b8437f9", "is_disabled": 0, "rental_uris": {"ios": "https://dc.lft.to/lastmile_qr_scan", "android": "https://dc.lft.to/lastmile_qr_scan"}, "is_reserved": 0}, {"lon": -76.92101483333333, "bike_id": "c10b01165861e57833c4d02660176fe2", "lat": 38.891061666666666, "fusion_lon": 0.0, "fusion_lat": 0.0, "type": "electric_scooter", "name": "c10b01165861e57833c4d02660176fe2", "is_disabled": 0, "rental_uris": {"ios": "https://dc.lft.to/lastmile_qr_scan", "android": "https://dc.lft.to/lastmile_qr_scan"}, "is_reserved": 0}, {"lon": -77.05570933333334, "bike_id": "6e72e024f42147d13329b276fb775a88", "lat": 38.930567, "fusion_lon": 0.0, "fusion_lat": 0.0, "type": "electric_scooter", "name": "6e72e024f42147d13329b276fb775a88", "is_disabled": 0, "rental_uris": {"ios": "https://dc.lft.to/lastmile_qr_scan", "android": "https://dc.lft.to/lastmile_qr_scan"}, "is_reserved": 0}, {"lon": -77.021757, "bike_id": "11ac2654cced09eec6b819af594e98a9", "lat": 38.915648166666664, "fusion_lon": 0.0, "fusion_lat": 0.0, "type": "electric_scooter", "name": "11ac2654cced09eec6b819af594e98a9", "is_disabled": 0, "rental_uris": {"ios": "https://dc.lft.to/lastmile_qr_scan", "android": "https://dc.lft.to/lastmile_qr_scan"}, "is_reserved": 0}, {"lon": -76.99271666666667, "bike_id": "d8821946aefc5a8a063726f627f70be4", "lat": 38.89765333333333, "fusion_lon": 0.0, "fusion_lat": 0.0, "type": "electric_scooter", "name": "d8821946aefc5a8a063726f627f70be4", "is_disabled": 0, "rental_uris": {"ios": "https://dc.lft.to/lastmile_qr_scan", "android": "https://dc.lft.to/lastmile_qr_scan"}, "is_reserved": 0}, {"lon": -77.01716983333333, "bike_id": "ea9b817a25884c22a9f173355b14caf9", "lat": 38.90969316666666, "fusion_lon": 0.0, "fusion_lat": 0.0, "type": "electric_scooter", "name": "ea9b817a25884c22a9f173355b14caf9", "is_disabled": 0, "rental_uris": {"ios": "https://dc.lft.to/lastmile_qr_scan", "android": "https://dc.lft.to/lastmile_qr_scan"}, "is_reserved": 0}, {"lon": -77.08825966666667, "bike_id": "47b03d73ac32efbc41d22b20572c0052", "lat": 38.909741333333336, "fusion_lon": 0.0, "fusion_lat": 0.0, "type": "electric_scooter", "name": "47b03d73ac32efbc41d22b20572c0052", "is_disabled": 0, "rental_uris": {"ios": "https://dc.lft.to/lastmile_qr_scan", "android": "https://dc.lft.to/lastmile_qr_scan"}, "is_reserved": 0}, {"lon": -76.93734116666667, "bike_id": "6890c478653b97628a3b274cc8e578f8", "lat": 38.89012316666667, "fusion_lon": 0.0, "fusion_lat": 0.0, "type": "electric_scooter", "name": "6890c478653b97628a3b274cc8e578f8", "is_disabled": 0, "rental_uris": {"ios": "https://dc.lft.to/lastmile_qr_scan", "android": "https://dc.lft.to/lastmile_qr_scan"}, "is_reserved": 0}, {"lon": -77.00138033333333, "bike_id": "fbc113afe4fbb0de5594f79db5cce260", "lat": 38.89469583333333, "fusion_lon": 0.0, "fusion_lat": 0.0, "type": "electric_scooter", "name": "fbc113afe4fbb0de5594f79db5cce260", "is_disabled": 0, "rental_uris": {"ios": "https://dc.lft.to/lastmile_qr_scan", "android": "https://dc.lft.to/lastmile_qr_scan"}, "is_reserved": 0}, {"lon": -77.0021155, "bike_id": "ab74811c7113f93e7f93d7a3f0dd5d91", "lat": 38.900396, "fusion_lon": 0.0, "fusion_lat": 0.0, "type": "electric_scooter", "name": "ab74811c7113f93e7f93d7a3f0dd5d91", "is_disabled": 0, "rental_uris": {"ios": "https://dc.lft.to/lastmile_qr_scan", "android": "https://dc.lft.to/lastmile_qr_scan"}, "is_reserved": 0}, {"lon": -77.03465833333334, "bike_id": "74d000db79cb66c47efd632029cd921c", "lat": 38.92063383333333, "fusion_lon": 0.0, "fusion_lat": 0.0, "type": "electric_scooter", "name": "74d000db79cb66c47efd632029cd921c", "is_disabled": 0, "rental_uris": {"ios": "https://dc.lft.to/lastmile_qr_scan", "android": "https://dc.lft.to/lastmile_qr_scan"}, "is_reserved": 0}, {"lon": -76.937569, "bike_id": "4ad2358ba11229cc50c53defb729d685", "lat": 38.890460166666664, "fusion_lon": 0.0, "fusion_lat": 0.0, "type": "electric_scooter", "name": "4ad2358ba11229cc50c53defb729d685", "is_disabled": 0, "rental_uris": {"ios": "https://dc.lft.to/lastmile_qr_scan", "android": "https://dc.lft.to/lastmile_qr_scan"}, "is_reserved": 0}, {"lon": -76.97330666666667, "bike_id": "24a9529c681852e823cedad28d0abd0b", "lat": 38.9047815, "fusion_lon": 0.0, "fusion_lat": 0.0, "type": "electric_bike", "name": "24a9529c681852e823cedad28d0abd0b", "is_disabled": 0, "rental_uris": {"ios": "https://dc.lft.to/lastmile_qr_scan", "android": "https://dc.lft.to/lastmile_qr_scan"}, "is_reserved": 0}, {"lon": -77.04226266666667, "bike_id": "af805bad66774c349ab9bf25a0354af9", "lat": 38.91104266666667, "fusion_lon": 0.0, "fusion_lat": 0.0, "type": "electric_scooter", "name": "af805bad66774c349ab9bf25a0354af9", "is_disabled": 0, "rental_uris": {"ios": "https://dc.lft.to/lastmile_qr_scan", "android": "https://dc.lft.to/lastmile_qr_scan"}, "is_reserved": 0}, {"lon": -77.042489, "bike_id": "e823debb77b3b77f161e67b306975cfe", "lat": 38.924336333333336, "fusion_lon": 0.0, "fusion_lat": 0.0, "type": "electric_scooter", "name": "e823debb77b3b77f161e67b306975cfe", "is_disabled": 0, "rental_uris": {"ios": "https://dc.lft.to/lastmile_qr_scan", "android": "https://dc.lft.to/lastmile_qr_scan"}, "is_reserved": 0}, {"lon": -76.99515216666667, "bike_id": "ae8b4dffb92a2f0db22fbb69a26b5c67", "lat": 38.88305616666667, "fusion_lon": 0.0, "fusion_lat": 0.0, "type": "electric_scooter", "name": "ae8b4dffb92a2f0db22fbb69a26b5c67", "is_disabled": 0, "rental_uris": {"ios": "https://dc.lft.to/lastmile_qr_scan", "android": "https://dc.lft.to/lastmile_qr_scan"}, "is_reserved": 0}, {"lon": -76.91599933333333, "bike_id": "13ca3ba6ca44b39cfadffdb290d6486f", "lat": 38.87984133333333, "fusion_lon": 0.0, "fusion_lat": 0.0, "type": "electric_bike", "name": "13ca3ba6ca44b39cfadffdb290d6486f", "is_disabled": 0, "rental_uris": {"ios": "https://dc.lft.to/lastmile_qr_scan", "android": "https://dc.lft.to/lastmile_qr_scan"}, "is_reserved": 0}, {"lon": -76.9904745, "bike_id": "42ecc23be9eee630de87576cc206669d", "lat": 38.8841655, "fusion_lon": 0.0, "fusion_lat": 0.0, "type": "electric_scooter", "name": "42ecc23be9eee630de87576cc206669d", "is_disabled": 0, "rental_uris": {"ios": "https://dc.lft.to/lastmile_qr_scan", "android": "https://dc.lft.to/lastmile_qr_scan"}, "is_reserved": 0}, {"lon": -77.01842866666667, "bike_id": "be42abbf748a4b875394850977e8fe8e", "lat": 38.9038325, "fusion_lon": 0.0, "fusion_lat": 0.0, "type": "electric_scooter", "name": "be42abbf748a4b875394850977e8fe8e", "is_disabled": 0, "rental_uris": {"ios": "https://dc.lft.to/lastmile_qr_scan", "android": "https://dc.lft.to/lastmile_qr_scan"}, "is_reserved": 0}, {"lon": -76.94886366666667, "bike_id": "1ebcd8871a28f392cef2ab66cc334c36", "lat": 38.895095166666664, "fusion_lon": 0.0, "fusion_lat": 0.0, "type": "electric_scooter", "name": "1ebcd8871a28f392cef2ab66cc334c36", "is_disabled": 0, "rental_uris": {"ios": "https://dc.lft.to/lastmile_qr_scan", "android": "https://dc.lft.to/lastmile_qr_scan"}, "is_reserved": 0}, {"lon": -77.0431675, "bike_id": "242d66f5d1a7a7a0bdff1b0d94ca8a2a", "lat": 38.89199683333333, "fusion_lon": 0.0, "fusion_lat": 0.0, "type": "electric_scooter", "name": "242d66f5d1a7a7a0bdff1b0d94ca8a2a", "is_disabled": 0, "rental_uris": {"ios": "https://dc.lft.to/lastmile_qr_scan", "android": "https://dc.lft.to/lastmile_qr_scan"}, "is_reserved": 0}, {"lon": -77.0267895, "bike_id": "0ef77533631351ba43fbc65888667b69", "lat": 38.9004995, "fusion_lon": 0.0, "fusion_lat": 0.0, "type": "electric_scooter", "name": "0ef77533631351ba43fbc65888667b69", "is_disabled": 0, "rental_uris": {"ios": "https://dc.lft.to/lastmile_qr_scan", "android": "https://dc.lft.to/lastmile_qr_scan"}, "is_reserved": 0}, {"lon": -77.021656, "bike_id": "1b5ce1cff144ea481dc8abbc06841d37", "lat": 38.89724616666667, "fusion_lon": 0.0, "fusion_lat": 0.0, "type": "electric_scooter", "name": "1b5ce1cff144ea481dc8abbc06841d37", "is_disabled": 0, "rental_uris": {"ios": "https://dc.lft.to/lastmile_qr_scan", "android": "https://dc.lft.to/lastmile_qr_scan"}, "is_reserved": 0}, {"lon": -77.05866383333333, "bike_id": "908c32ea99a431e980fe58f6f10228c1", "lat": 38.936079666666664, "fusion_lon": 0.0, "fusion_lat": 0.0, "type": "electric_scooter", "name": "908c32ea99a431e980fe58f6f10228c1", "is_disabled": 0, "rental_uris": {"ios": "https://dc.lft.to/lastmile_qr_scan", "android": "https://dc.lft.to/lastmile_qr_scan"}, "is_reserved": 0}, {"lon": -77.081966, "bike_id": "fb4b9f5752a37bf0e4e5c484af89cc33", "lat": 38.935153166666666, "fusion_lon": 0.0, "fusion_lat": 0.0, "type": "electric_scooter", "name": "fb4b9f5752a37bf0e4e5c484af89cc33", "is_disabled": 0, "rental_uris": {"ios": "https://dc.lft.to/lastmile_qr_scan", "android": "https://dc.lft.to/lastmile_qr_scan"}, "is_reserved": 0}, {"lon": -77.03871766666667, "bike_id": "4e3c6d9e95dfef45f90cc7afe38f2f37", "lat": 38.915478666666665, "fusion_lon": 0.0, "fusion_lat": 0.0, "type": "electric_scooter", "name": "4e3c6d9e95dfef45f90cc7afe38f2f37", "is_disabled": 0, "rental_uris": {"ios": "https://dc.lft.to/lastmile_qr_scan", "android": "https://dc.lft.to/lastmile_qr_scan"}, "is_reserved": 0}, {"lon": -77.07165566666667, "bike_id": "35166f54e7443c18fe2112ab36f1deb1", "lat": 38.907924333333334, "fusion_lon": 0.0, "fusion_lat": 0.0, "type": "electric_bike", "name": "35166f54e7443c18fe2112ab36f1deb1", "is_disabled": 0, "rental_uris": {"ios": "https://dc.lft.to/lastmile_qr_scan", "android": "https://dc.lft.to/lastmile_qr_scan"}, "is_reserved": 0}, {"lon": -76.8749695, "bike_id": "11ce672c583679091bc9f24628e74a9b", "lat": 38.990884666666666, "fusion_lon": 0.0, "fusion_lat": 0.0, "type": "electric_bike", "name": "11ce672c583679091bc9f24628e74a9b", "is_disabled": 0, "rental_uris": {"ios": "https://dc.lft.to/lastmile_qr_scan", "android": "https://dc.lft.to/lastmile_qr_scan"}, "is_reserved": 0}, {"lon": -77.0342575, "bike_id": "5d90acace256cdb7e4549f6ef206360f", "lat": 38.933548, "fusion_lon": 0.0, "fusion_lat": 0.0, "type": "electric_scooter", "name": "5d90acace256cdb7e4549f6ef206360f", "is_disabled": 0, "rental_uris": {"ios": "https://dc.lft.to/lastmile_qr_scan", "android": "https://dc.lft.to/lastmile_qr_scan"}, "is_reserved": 0}, {"lon": -77.03866683333334, "bike_id": "6084679d9761bda5ce116f1b24181b56", "lat": 38.912485333333336, "fusion_lon": 0.0, "fusion_lat": 0.0, "type": "electric_scooter", "name": "6084679d9761bda5ce116f1b24181b56", "is_disabled": 0, "rental_uris": {"ios": "https://dc.lft.to/lastmile_qr_scan", "android": "https://dc.lft.to/lastmile_qr_scan"}, "is_reserved": 0}, {"lon": -77.00655866666666, "bike_id": "300e2ce3b2d5f8d676e29a0dc520c579", "lat": 38.83890266666667, "fusion_lon": 0.0, "fusion_lat": 0.0, "type": "electric_scooter", "name": "300e2ce3b2d5f8d676e29a0dc520c579", "is_disabled": 0, "rental_uris": {"ios": "https://dc.lft.to/lastmile_qr_scan", "android": "https://dc.lft.to/lastmile_qr_scan"}, "is_reserved": 0}, {"lon": -76.930198, "bike_id": "7c2dc1dbd4f793d7239931167bdc8b3a", "lat": 38.89644233333333, "fusion_lon": 0.0, "fusion_lat": 0.0, "type": "electric_bike", "name": "7c2dc1dbd4f793d7239931167bdc8b3a", "is_disabled": 0, "rental_uris": {"ios": "https://dc.lft.to/lastmile_qr_scan", "android": "https://dc.lft.to/lastmile_qr_scan"}, "is_reserved": 0}, {"lon": -76.931741, "bike_id": "1ae8c1a898d228152e4b058f2d2599c3", "lat": 38.89883366666667, "fusion_lon": 0.0, "fusion_lat": 0.0, "type": "electric_scooter", "name": "1ae8c1a898d228152e4b058f2d2599c3", "is_disabled": 0, "rental_uris": {"ios": "https://dc.lft.to/lastmile_qr_scan", "android": "https://dc.lft.to/lastmile_qr_scan"}, "is_reserved": 0}, {"lon": -76.936417, "bike_id": "38942ef235eb85e7fb575789da5eadb4", "lat": 38.900586, "fusion_lon": 0.0, "fusion_lat": 0.0, "type": "electric_scooter", "name": "38942ef235eb85e7fb575789da5eadb4", "is_disabled": 0, "rental_uris": {"ios": "https://dc.lft.to/lastmile_qr_scan", "android": "https://dc.lft.to/lastmile_qr_scan"}, "is_reserved": 0}, {"lon": -76.957551, "bike_id": "b2ca4fdcea9ddef35a34d988c22b0c92", "lat": 38.88427516666667, "fusion_lon": 0.0, "fusion_lat": 0.0, "type": "electric_scooter", "name": "b2ca4fdcea9ddef35a34d988c22b0c92", "is_disabled": 0, "rental_uris": {"ios": "https://dc.lft.to/lastmile_qr_scan", "android": "https://dc.lft.to/lastmile_qr_scan"}, "is_reserved": 0}, {"lon": -77.03292083333334, "bike_id": "ebda1e47578e42ed877affec4c05bd49", "lat": 38.95646766666667, "fusion_lon": 0.0, "fusion_lat": 0.0, "type": "electric_scooter", "name": "ebda1e47578e42ed877affec4c05bd49", "is_disabled": 0, "rental_uris": {"ios": "https://dc.lft.to/lastmile_qr_scan", "android": "https://dc.lft.to/lastmile_qr_scan"}, "is_reserved": 0}, {"lon": -77.0374535, "bike_id": "7fab6efe13010be45ce1d126908674ba", "lat": 38.918056666666665, "fusion_lon": 0.0, "fusion_lat": 0.0, "type": "electric_scooter", "name": "7fab6efe13010be45ce1d126908674ba", "is_disabled": 0, "rental_uris": {"ios": "https://dc.lft.to/lastmile_qr_scan", "android": "https://dc.lft.to/lastmile_qr_scan"}, "is_reserved": 0}, {"lon": -77.05472716666667, "bike_id": "87960929750efc90a4df0971063ac64f", "lat": 38.89725416666667, "fusion_lon": 0.0, "fusion_lat": 0.0, "type": "electric_scooter", "name": "87960929750efc90a4df0971063ac64f", "is_disabled": 0, "rental_uris": {"ios": "https://dc.lft.to/lastmile_qr_scan", "android": "https://dc.lft.to/lastmile_qr_scan"}, "is_reserved": 0}, {"lon": -77.04186316666667, "bike_id": "c453e97dec9d586c62eaa819156af61a", "lat": 38.91984566666667, "fusion_lon": 0.0, "fusion_lat": 0.0, "type": "electric_scooter", "name": "c453e97dec9d586c62eaa819156af61a", "is_disabled": 0, "rental_uris": {"ios": "https://dc.lft.to/lastmile_qr_scan", "android": "https://dc.lft.to/lastmile_qr_scan"}, "is_reserved": 0}, {"lon": -77.02722933333334, "bike_id": "dbacb81d68312b856513dc31e4629c22", "lat": 38.91336733333333, "fusion_lon": 0.0, "fusion_lat": 0.0, "type": "electric_scooter", "name": "dbacb81d68312b856513dc31e4629c22", "is_disabled": 0, "rental_uris": {"ios": "https://dc.lft.to/lastmile_qr_scan", "android": "https://dc.lft.to/lastmile_qr_scan"}, "is_reserved": 0}, {"lon": -76.979261, "bike_id": "298745d722166c25f478e5f32ff7bde1", "lat": 38.90504883333333, "fusion_lon": 0.0, "fusion_lat": 0.0, "type": "electric_scooter", "name": "298745d722166c25f478e5f32ff7bde1", "is_disabled": 0, "rental_uris": {"ios": "https://dc.lft.to/lastmile_qr_scan", "android": "https://dc.lft.to/lastmile_qr_scan"}, "is_reserved": 0}, {"lon": -77.0318755, "bike_id": "28c2f42e7c900514a5e9a05d1d028cf5", "lat": 38.89571433333333, "fusion_lon": 0.0, "fusion_lat": 0.0, "type": "electric_scooter", "name": "28c2f42e7c900514a5e9a05d1d028cf5", "is_disabled": 0, "rental_uris": {"ios": "https://dc.lft.to/lastmile_qr_scan", "android": "https://dc.lft.to/lastmile_qr_scan"}, "is_reserved": 0}, {"lon": -77.08183883333334, "bike_id": "108276e32b8a5c842977245629a77fd4", "lat": 38.94957616666667, "fusion_lon": 0.0, "fusion_lat": 0.0, "type": "electric_scooter", "name": "108276e32b8a5c842977245629a77fd4", "is_disabled": 0, "rental_uris": {"ios": "https://dc.lft.to/lastmile_qr_scan", "android": "https://dc.lft.to/lastmile_qr_scan"}, "is_reserved": 0}, {"lon": -76.99036433333333, "bike_id": "f61babe00c336849b26d6cb88aaa30e8", "lat": 38.8985485, "fusion_lon": 0.0, "fusion_lat": 0.0, "type": "electric_scooter", "name": "f61babe00c336849b26d6cb88aaa30e8", "is_disabled": 0, "rental_uris": {"ios": "https://dc.lft.to/lastmile_qr_scan", "android": "https://dc.lft.to/lastmile_qr_scan"}, "is_reserved": 0}, {"lon": -76.99373383333334, "bike_id": "df075b79b86c37c9d99baf8510b6a570", "lat": 38.8797295, "fusion_lon": 0.0, "fusion_lat": 0.0, "type": "electric_scooter", "name": "df075b79b86c37c9d99baf8510b6a570", "is_disabled": 0, "rental_uris": {"ios": "https://dc.lft.to/lastmile_qr_scan", "android": "https://dc.lft.to/lastmile_qr_scan"}, "is_reserved": 0}, {"lon": -77.02776866666666, "bike_id": "a5c20769b340223bbd64a8ed36cbbf84", "lat": 38.892280666666665, "fusion_lon": 0.0, "fusion_lat": 0.0, "type": "electric_scooter", "name": "a5c20769b340223bbd64a8ed36cbbf84", "is_disabled": 0, "rental_uris": {"ios": "https://dc.lft.to/lastmile_qr_scan", "android": "https://dc.lft.to/lastmile_qr_scan"}, "is_reserved": 0}, {"lon": -76.9945855, "bike_id": "a85899702a11d1e27b75fd79851f6839", "lat": 38.966196, "fusion_lon": 0.0, "fusion_lat": 0.0, "type": "electric_bike", "name": "a85899702a11d1e27b75fd79851f6839", "is_disabled": 0, "rental_uris": {"ios": "https://dc.lft.to/lastmile_qr_scan", "android": "https://dc.lft.to/lastmile_qr_scan"}, "is_reserved": 0}, {"lon": -76.99005116666666, "bike_id": "1b4b89a92b24d85bd5d90cdc4b597319", "lat": 38.865110333333334, "fusion_lon": 0.0, "fusion_lat": 0.0, "type": "electric_scooter", "name": "1b4b89a92b24d85bd5d90cdc4b597319", "is_disabled": 0, "rental_uris": {"ios": "https://dc.lft.to/lastmile_qr_scan", "android": "https://dc.lft.to/lastmile_qr_scan"}, "is_reserved": 0}, {"lon": -77.02715816666667, "bike_id": "3256c06fce8a8b5c181da0be18c250a4", "lat": 38.897214166666664, "fusion_lon": 0.0, "fusion_lat": 0.0, "type": "electric_scooter", "name": "3256c06fce8a8b5c181da0be18c250a4", "is_disabled": 0, "rental_uris": {"ios": "https://dc.lft.to/lastmile_qr_scan", "android": "https://dc.lft.to/lastmile_qr_scan"}, "is_reserved": 0}, {"lon": -77.032662, "bike_id": "a0503d81f5247630976e32b68d8125c6", "lat": 38.9253765, "fusion_lon": 0.0, "fusion_lat": 0.0, "type": "electric_scooter", "name": "a0503d81f5247630976e32b68d8125c6", "is_disabled": 0, "rental_uris": {"ios": "https://dc.lft.to/lastmile_qr_scan", "android": "https://dc.lft.to/lastmile_qr_scan"}, "is_reserved": 0}, {"lon": -77.01931216666667, "bike_id": "af22ea8968b5c249b1f2330aa7d13b3b", "lat": 38.92221766666667, "fusion_lon": 0.0, "fusion_lat": 0.0, "type": "electric_scooter", "name": "af22ea8968b5c249b1f2330aa7d13b3b", "is_disabled": 0, "rental_uris": {"ios": "https://dc.lft.to/lastmile_qr_scan", "android": "https://dc.lft.to/lastmile_qr_scan"}, "is_reserved": 0}, {"lon": -77.06385333333333, "bike_id": "16011180ca4b78bfe0eb66ac6a26cc89", "lat": 38.9082995, "fusion_lon": 0.0, "fusion_lat": 0.0, "type": "electric_scooter", "name": "16011180ca4b78bfe0eb66ac6a26cc89", "is_disabled": 0, "rental_uris": {"ios": "https://dc.lft.to/lastmile_qr_scan", "android": "https://dc.lft.to/lastmile_qr_scan"}, "is_reserved": 0}, {"lon": -77.0506615, "bike_id": "1d34d49fd51343eed5dfec9c290e7b5d", "lat": 38.900895, "fusion_lon": 0.0, "fusion_lat": 0.0, "type": "electric_scooter", "name": "1d34d49fd51343eed5dfec9c290e7b5d", "is_disabled": 0, "rental_uris": {"ios": "https://dc.lft.to/lastmile_qr_scan", "android": "https://dc.lft.to/lastmile_qr_scan"}, "is_reserved": 0}, {"lon": -76.98380816666666, "bike_id": "d0ecefd1b274ad57f81e3bc6bc694f26", "lat": 38.899707, "fusion_lon": 0.0, "fusion_lat": 0.0, "type": "electric_scooter", "name": "d0ecefd1b274ad57f81e3bc6bc694f26", "is_disabled": 0, "rental_uris": {"ios": "https://dc.lft.to/lastmile_qr_scan", "android": "https://dc.lft.to/lastmile_qr_scan"}, "is_reserved": 0}, {"lon": -77.00372666666667, "bike_id": "a6ab1f2595bad41e8f44a1b29c495c5a", "lat": 38.89731066666667, "fusion_lon": 0.0, "fusion_lat": 0.0, "type": "electric_scooter", "name": "a6ab1f2595bad41e8f44a1b29c495c5a", "is_disabled": 0, "rental_uris": {"ios": "https://dc.lft.to/lastmile_qr_scan", "android": "https://dc.lft.to/lastmile_qr_scan"}, "is_reserved": 0}, {"lon": -77.02211216666667, "bike_id": "8e35631f6c6d04a64b10435fa9251bed", "lat": 38.89830633333333, "fusion_lon": 0.0, "fusion_lat": 0.0, "type": "electric_scooter", "name": "8e35631f6c6d04a64b10435fa9251bed", "is_disabled": 0, "rental_uris": {"ios": "https://dc.lft.to/lastmile_qr_scan", "android": "https://dc.lft.to/lastmile_qr_scan"}, "is_reserved": 0}, {"lon": -77.0285495, "bike_id": "68486b75e02a51876b229e24aacfdb26", "lat": 38.93277366666667, "fusion_lon": 0.0, "fusion_lat": 0.0, "type": "electric_scooter", "name": "68486b75e02a51876b229e24aacfdb26", "is_disabled": 0, "rental_uris": {"ios": "https://dc.lft.to/lastmile_qr_scan", "android": "https://dc.lft.to/lastmile_qr_scan"}, "is_reserved": 0}, {"lon": -77.02428383333333, "bike_id": "7f215793c8239617f5b42c4539bac8f0", "lat": 38.92655933333333, "fusion_lon": 0.0, "fusion_lat": 0.0, "type": "electric_scooter", "name": "7f215793c8239617f5b42c4539bac8f0", "is_disabled": 0, "rental_uris": {"ios": "https://dc.lft.to/lastmile_qr_scan", "android": "https://dc.lft.to/lastmile_qr_scan"}, "is_reserved": 0}, {"lon": -77.02181083333333, "bike_id": "73ab019f3579593f9da13ff9bb69026e", "lat": 38.899591666666666, "fusion_lon": 0.0, "fusion_lat": 0.0, "type": "electric_scooter", "name": "73ab019f3579593f9da13ff9bb69026e", "is_disabled": 0, "rental_uris": {"ios": "https://dc.lft.to/lastmile_qr_scan", "android": "https://dc.lft.to/lastmile_qr_scan"}, "is_reserved": 0}, {"lon": -77.13105083333333, "bike_id": "32bd6ebf54b0bfd0a7f4698dd6e560bc", "lat": 39.024347166666665, "fusion_lon": 0.0, "fusion_lat": 0.0, "type": "electric_bike", "name": "32bd6ebf54b0bfd0a7f4698dd6e560bc", "is_disabled": 0, "rental_uris": {"ios": "https://dc.lft.to/lastmile_qr_scan", "android": "https://dc.lft.to/lastmile_qr_scan"}, "is_reserved": 0}, {"lon": -76.988842, "bike_id": "b841040a7de0b00eb7bdd62ef5ded5e1", "lat": 38.866571, "fusion_lon": 0.0, "fusion_lat": 0.0, "type": "electric_scooter", "name": "b841040a7de0b00eb7bdd62ef5ded5e1", "is_disabled": 0, "rental_uris": {"ios": "https://dc.lft.to/lastmile_qr_scan", "android": "https://dc.lft.to/lastmile_qr_scan"}, "is_reserved": 0}, {"lon": -77.05032266666667, "bike_id": "7b1f84ba2ecc689a9a7b576f8c774915", "lat": 38.905362, "fusion_lon": 0.0, "fusion_lat": 0.0, "type": "electric_scooter", "name": "7b1f84ba2ecc689a9a7b576f8c774915", "is_disabled": 0, "rental_uris": {"ios": "https://dc.lft.to/lastmile_qr_scan", "android": "https://dc.lft.to/lastmile_qr_scan"}, "is_reserved": 0}, {"lon": -77.03210533333333, "bike_id": "4f88a5d40a6f6701c918e58b994b0b5b", "lat": 38.89235033333333, "fusion_lon": 0.0, "fusion_lat": 0.0, "type": "electric_scooter", "name": "4f88a5d40a6f6701c918e58b994b0b5b", "is_disabled": 0, "rental_uris": {"ios": "https://dc.lft.to/lastmile_qr_scan", "android": "https://dc.lft.to/lastmile_qr_scan"}, "is_reserved": 0}, {"lon": -77.03281866666667, "bike_id": "e9e1affad99cbf39f144212428c0d914", "lat": 38.90148833333333, "fusion_lon": 0.0, "fusion_lat": 0.0, "type": "electric_scooter", "name": "e9e1affad99cbf39f144212428c0d914", "is_disabled": 0, "rental_uris": {"ios": "https://dc.lft.to/lastmile_qr_scan", "android": "https://dc.lft.to/lastmile_qr_scan"}, "is_reserved": 0}, {"lon": -77.03096433333333, "bike_id": "e710d52c900c13a7588d833dacae7423", "lat": 38.897292666666665, "fusion_lon": 0.0, "fusion_lat": 0.0, "type": "electric_scooter", "name": "e710d52c900c13a7588d833dacae7423", "is_disabled": 0, "rental_uris": {"ios": "https://dc.lft.to/lastmile_qr_scan", "android": "https://dc.lft.to/lastmile_qr_scan"}, "is_reserved": 0}, {"lon": -77.02600716666667, "bike_id": "217d00885bffbcb192d54f69938e9c9c", "lat": 38.88371933333333, "fusion_lon": 0.0, "fusion_lat": 0.0, "type": "electric_scooter", "name": "217d00885bffbcb192d54f69938e9c9c", "is_disabled": 0, "rental_uris": {"ios": "https://dc.lft.to/lastmile_qr_scan", "android": "https://dc.lft.to/lastmile_qr_scan"}, "is_reserved": 0}, {"lon": -77.02573966666667, "bike_id": "ea762ac69b39bcd4acc50c7cd5e7db0c", "lat": 38.8922505, "fusion_lon": 0.0, "fusion_lat": 0.0, "type": "electric_scooter", "name": "ea762ac69b39bcd4acc50c7cd5e7db0c", "is_disabled": 0, "rental_uris": {"ios": "https://dc.lft.to/lastmile_qr_scan", "android": "https://dc.lft.to/lastmile_qr_scan"}, "is_reserved": 0}, {"lon": -77.00521816666667, "bike_id": "d64474201a5022642141c924c3746637", "lat": 38.9147975, "fusion_lon": 0.0, "fusion_lat": 0.0, "type": "electric_bike", "name": "d64474201a5022642141c924c3746637", "is_disabled": 0, "rental_uris": {"ios": "https://dc.lft.to/lastmile_qr_scan", "android": "https://dc.lft.to/lastmile_qr_scan"}, "is_reserved": 0}, {"lon": -77.030784, "bike_id": "3ddccaec95c0cf99c4f443c80e0b8392", "lat": 38.880365833333336, "fusion_lon": 0.0, "fusion_lat": 0.0, "type": "electric_scooter", "name": "3ddccaec95c0cf99c4f443c80e0b8392", "is_disabled": 0, "rental_uris": {"ios": "https://dc.lft.to/lastmile_qr_scan", "android": "https://dc.lft.to/lastmile_qr_scan"}, "is_reserved": 0}, {"lon": -77.03262533333333, "bike_id": "e78f8938d1227e0558bc72b67239d621", "lat": 38.939188, "fusion_lon": 0.0, "fusion_lat": 0.0, "type": "electric_scooter", "name": "e78f8938d1227e0558bc72b67239d621", "is_disabled": 0, "rental_uris": {"ios": "https://dc.lft.to/lastmile_qr_scan", "android": "https://dc.lft.to/lastmile_qr_scan"}, "is_reserved": 0}, {"lon": -77.04281016666667, "bike_id": "703a1c5163ae5cd524a6ce4f9d7212ac", "lat": 38.9341485, "fusion_lon": 0.0, "fusion_lat": 0.0, "type": "electric_scooter", "name": "703a1c5163ae5cd524a6ce4f9d7212ac", "is_disabled": 0, "rental_uris": {"ios": "https://dc.lft.to/lastmile_qr_scan", "android": "https://dc.lft.to/lastmile_qr_scan"}, "is_reserved": 0}, {"lon": -77.00064033333334, "bike_id": "cb30b553db07d3e7be1385f2b365def4", "lat": 38.908105166666665, "fusion_lon": 0.0, "fusion_lat": 0.0, "type": "electric_scooter", "name": "cb30b553db07d3e7be1385f2b365def4", "is_disabled": 0, "rental_uris": {"ios": "https://dc.lft.to/lastmile_qr_scan", "android": "https://dc.lft.to/lastmile_qr_scan"}, "is_reserved": 0}, {"lon": -77.03143816666666, "bike_id": "e95dca6d1d9850e2fc67c5acf0cc1852", "lat": 38.929642666666666, "fusion_lon": 0.0, "fusion_lat": 0.0, "type": "electric_scooter", "name": "e95dca6d1d9850e2fc67c5acf0cc1852", "is_disabled": 0, "rental_uris": {"ios": "https://dc.lft.to/lastmile_qr_scan", "android": "https://dc.lft.to/lastmile_qr_scan"}, "is_reserved": 0}, {"lon": -77.02728083333334, "bike_id": "a5d3a56f2dbcdfdd8b127f7f282f3560", "lat": 38.89784483333333, "fusion_lon": 0.0, "fusion_lat": 0.0, "type": "electric_scooter", "name": "a5d3a56f2dbcdfdd8b127f7f282f3560", "is_disabled": 0, "rental_uris": {"ios": "https://dc.lft.to/lastmile_qr_scan", "android": "https://dc.lft.to/lastmile_qr_scan"}, "is_reserved": 0}, {"lon": -77.01752433333333, "bike_id": "e974b133910a7d36319f62d57b640a62", "lat": 38.902615833333336, "fusion_lon": 0.0, "fusion_lat": 0.0, "type": "electric_scooter", "name": "e974b133910a7d36319f62d57b640a62", "is_disabled": 0, "rental_uris": {"ios": "https://dc.lft.to/lastmile_qr_scan", "android": "https://dc.lft.to/lastmile_qr_scan"}, "is_reserved": 0}, {"lon": -76.97535283333333, "bike_id": "cdd38faebb0c1c913575c85b032db705", "lat": 38.90329583333333, "fusion_lon": 0.0, "fusion_lat": 0.0, "type": "electric_bike", "name": "cdd38faebb0c1c913575c85b032db705", "is_disabled": 0, "rental_uris": {"ios": "https://dc.lft.to/lastmile_qr_scan", "android": "https://dc.lft.to/lastmile_qr_scan"}, "is_reserved": 0}, {"lon": -77.02115183333333, "bike_id": "44b735225d7b61f6d3261ea8fa899960", "lat": 38.909701, "fusion_lon": 0.0, "fusion_lat": 0.0, "type": "electric_scooter", "name": "44b735225d7b61f6d3261ea8fa899960", "is_disabled": 0, "rental_uris": {"ios": "https://dc.lft.to/lastmile_qr_scan", "android": "https://dc.lft.to/lastmile_qr_scan"}, "is_reserved": 0}, {"lon": -77.0214395, "bike_id": "5068758246fde10b70e8122e98f92528", "lat": 38.900878, "fusion_lon": 0.0, "fusion_lat": 0.0, "type": "electric_scooter", "name": "5068758246fde10b70e8122e98f92528", "is_disabled": 0, "rental_uris": {"ios": "https://dc.lft.to/lastmile_qr_scan", "android": "https://dc.lft.to/lastmile_qr_scan"}, "is_reserved": 0}, {"lon": -77.0382555, "bike_id": "f93346db94c1f6d7442e1aa442230939", "lat": 38.906811, "fusion_lon": 0.0, "fusion_lat": 0.0, "type": "electric_scooter", "name": "f93346db94c1f6d7442e1aa442230939", "is_disabled": 0, "rental_uris": {"ios": "https://dc.lft.to/lastmile_qr_scan", "android": "https://dc.lft.to/lastmile_qr_scan"}, "is_reserved": 0}, {"lon": -77.05872216666667, "bike_id": "d69b94c0a580cfbe07cc12ef61dcf717", "lat": 38.936116, "fusion_lon": 0.0, "fusion_lat": 0.0, "type": "electric_scooter", "name": "d69b94c0a580cfbe07cc12ef61dcf717", "is_disabled": 0, "rental_uris": {"ios": "https://dc.lft.to/lastmile_qr_scan", "android": "https://dc.lft.to/lastmile_qr_scan"}, "is_reserved": 0}, {"lon": -77.02764883333333, "bike_id": "8ee939061e73e68ccc7056f05cee94f1", "lat": 38.9439945, "fusion_lon": 0.0, "fusion_lat": 0.0, "type": "electric_scooter", "name": "8ee939061e73e68ccc7056f05cee94f1", "is_disabled": 0, "rental_uris": {"ios": "https://dc.lft.to/lastmile_qr_scan", "android": "https://dc.lft.to/lastmile_qr_scan"}, "is_reserved": 0}, {"lon": -77.02479183333334, "bike_id": "3d76b74bd3212844465e81c0e9477b60", "lat": 38.900846, "fusion_lon": 0.0, "fusion_lat": 0.0, "type": "electric_scooter", "name": "3d76b74bd3212844465e81c0e9477b60", "is_disabled": 0, "rental_uris": {"ios": "https://dc.lft.to/lastmile_qr_scan", "android": "https://dc.lft.to/lastmile_qr_scan"}, "is_reserved": 0}, {"lon": -77.030775, "bike_id": "eddc08d304082ef62021176762731d26", "lat": 38.902718166666666, "fusion_lon": 0.0, "fusion_lat": 0.0, "type": "electric_scooter", "name": "eddc08d304082ef62021176762731d26", "is_disabled": 0, "rental_uris": {"ios": "https://dc.lft.to/lastmile_qr_scan", "android": "https://dc.lft.to/lastmile_qr_scan"}, "is_reserved": 0}, {"lon": -77.03252366666666, "bike_id": "c06f67781058d52d9c9987fc5ffd6c2d", "lat": 38.91536716666667, "fusion_lon": 0.0, "fusion_lat": 0.0, "type": "electric_scooter", "name": "c06f67781058d52d9c9987fc5ffd6c2d", "is_disabled": 0, "rental_uris": {"ios": "https://dc.lft.to/lastmile_qr_scan", "android": "https://dc.lft.to/lastmile_qr_scan"}, "is_reserved": 0}, {"lon": -77.0392885, "bike_id": "ac0c2a07377aa49c95f8ae44658d3e08", "lat": 38.89874983333333, "fusion_lon": 0.0, "fusion_lat": 0.0, "type": "electric_scooter", "name": "ac0c2a07377aa49c95f8ae44658d3e08", "is_disabled": 0, "rental_uris": {"ios": "https://dc.lft.to/lastmile_qr_scan", "android": "https://dc.lft.to/lastmile_qr_scan"}, "is_reserved": 0}, {"lon": -77.03411216666667, "bike_id": "cb49e848dbe26e61899ed00d13687849", "lat": 38.923163333333335, "fusion_lon": 0.0, "fusion_lat": 0.0, "type": "electric_scooter", "name": "cb49e848dbe26e61899ed00d13687849", "is_disabled": 0, "rental_uris": {"ios": "https://dc.lft.to/lastmile_qr_scan", "android": "https://dc.lft.to/lastmile_qr_scan"}, "is_reserved": 0}, {"lon": -77.0240305, "bike_id": "1c0a3a5d284e024a140cc3725b00a72f", "lat": 38.9197895, "fusion_lon": 0.0, "fusion_lat": 0.0, "type": "electric_scooter", "name": "1c0a3a5d284e024a140cc3725b00a72f", "is_disabled": 0, "rental_uris": {"ios": "https://dc.lft.to/lastmile_qr_scan", "android": "https://dc.lft.to/lastmile_qr_scan"}, "is_reserved": 0}, {"lon": -77.02193716666666, "bike_id": "e748c3ec2145b084475ab5a961d4a684", "lat": 38.91990933333334, "fusion_lon": 0.0, "fusion_lat": 0.0, "type": "electric_scooter", "name": "e748c3ec2145b084475ab5a961d4a684", "is_disabled": 0, "rental_uris": {"ios": "https://dc.lft.to/lastmile_qr_scan", "android": "https://dc.lft.to/lastmile_qr_scan"}, "is_reserved": 0}, {"lon": -77.05264416666667, "bike_id": "d9b76613684584e891741834e5522878", "lat": 38.9277315, "fusion_lon": 0.0, "fusion_lat": 0.0, "type": "electric_scooter", "name": "d9b76613684584e891741834e5522878", "is_disabled": 0, "rental_uris": {"ios": "https://dc.lft.to/lastmile_qr_scan", "android": "https://dc.lft.to/lastmile_qr_scan"}, "is_reserved": 0}, {"lon": -77.03202333333333, "bike_id": "fde255dd97cd84bd90593e6c67aabdcb", "lat": 38.93043466666666, "fusion_lon": 0.0, "fusion_lat": 0.0, "type": "electric_scooter", "name": "fde255dd97cd84bd90593e6c67aabdcb", "is_disabled": 0, "rental_uris": {"ios": "https://dc.lft.to/lastmile_qr_scan", "android": "https://dc.lft.to/lastmile_qr_scan"}, "is_reserved": 0}, {"lon": -77.02402966666666, "bike_id": "8528ceacd5ded2eb971a347bd1c23699", "lat": 38.92155366666667, "fusion_lon": 0.0, "fusion_lat": 0.0, "type": "electric_scooter", "name": "8528ceacd5ded2eb971a347bd1c23699", "is_disabled": 0, "rental_uris": {"ios": "https://dc.lft.to/lastmile_qr_scan", "android": "https://dc.lft.to/lastmile_qr_scan"}, "is_reserved": 0}, {"lon": -77.006137, "bike_id": "ac3ed83e2d3134bde82505f3e1390ed7", "lat": 38.871794666666666, "fusion_lon": 0.0, "fusion_lat": 0.0, "type": "electric_scooter", "name": "ac3ed83e2d3134bde82505f3e1390ed7", "is_disabled": 0, "rental_uris": {"ios": "https://dc.lft.to/lastmile_qr_scan", "android": "https://dc.lft.to/lastmile_qr_scan"}, "is_reserved": 0}, {"lon": -77.04499266666667, "bike_id": "5b759cc882b22138640a8b0942e66d40", "lat": 38.919302, "fusion_lon": 0.0, "fusion_lat": 0.0, "type": "electric_scooter", "name": "5b759cc882b22138640a8b0942e66d40", "is_disabled": 0, "rental_uris": {"ios": "https://dc.lft.to/lastmile_qr_scan", "android": "https://dc.lft.to/lastmile_qr_scan"}, "is_reserved": 0}, {"lon": -77.04878816666667, "bike_id": "62f320abdb403fdafafac1f3f90acee8", "lat": 38.892313333333334, "fusion_lon": 0.0, "fusion_lat": 0.0, "type": "electric_scooter", "name": "62f320abdb403fdafafac1f3f90acee8", "is_disabled": 0, "rental_uris": {"ios": "https://dc.lft.to/lastmile_qr_scan", "android": "https://dc.lft.to/lastmile_qr_scan"}, "is_reserved": 0}, {"lon": -77.01632433333333, "bike_id": "b1e6ef7c85d7c0d8940b05d4d6100b68", "lat": 38.9060865, "fusion_lon": 0.0, "fusion_lat": 0.0, "type": "electric_scooter", "name": "b1e6ef7c85d7c0d8940b05d4d6100b68", "is_disabled": 0, "rental_uris": {"ios": "https://dc.lft.to/lastmile_qr_scan", "android": "https://dc.lft.to/lastmile_qr_scan"}, "is_reserved": 0}, {"lon": -77.09497, "bike_id": "7d6d33686a7a9f1a1fbf53877b2d6e9f", "lat": 38.80764033333333, "fusion_lon": 0.0, "fusion_lat": 0.0, "type": "electric_bike", "name": "7d6d33686a7a9f1a1fbf53877b2d6e9f", "is_disabled": 0, "rental_uris": {"ios": "https://dc.lft.to/lastmile_qr_scan", "android": "https://dc.lft.to/lastmile_qr_scan"}, "is_reserved": 0}, {"lon": -77.0364945, "bike_id": "013bea582e945683d8cfe4431a37d54e", "lat": 38.903584333333335, "fusion_lon": 0.0, "fusion_lat": 0.0, "type": "electric_scooter", "name": "013bea582e945683d8cfe4431a37d54e", "is_disabled": 0, "rental_uris": {"ios": "https://dc.lft.to/lastmile_qr_scan", "android": "https://dc.lft.to/lastmile_qr_scan"}, "is_reserved": 0}, {"lon": -77.02785616666667, "bike_id": "9d843c9fdb7ebb55e741251ca526ec5f", "lat": 38.927778, "fusion_lon": 0.0, "fusion_lat": 0.0, "type": "electric_scooter", "name": "9d843c9fdb7ebb55e741251ca526ec5f", "is_disabled": 0, "rental_uris": {"ios": "https://dc.lft.to/lastmile_qr_scan", "android": "https://dc.lft.to/lastmile_qr_scan"}, "is_reserved": 0}, {"lon": -76.98659216666667, "bike_id": "15e7da8c750f0f6ac75b7ad66a01dd29", "lat": 38.912455333333334, "fusion_lon": 0.0, "fusion_lat": 0.0, "type": "electric_scooter", "name": "15e7da8c750f0f6ac75b7ad66a01dd29", "is_disabled": 0, "rental_uris": {"ios": "https://dc.lft.to/lastmile_qr_scan", "android": "https://dc.lft.to/lastmile_qr_scan"}, "is_reserved": 0}, {"lon": -76.988339, "bike_id": "3a55372cc126373f40a2e9c92f7069f9", "lat": 38.90127183333333, "fusion_lon": 0.0, "fusion_lat": 0.0, "type": "electric_scooter", "name": "3a55372cc126373f40a2e9c92f7069f9", "is_disabled": 0, "rental_uris": {"ios": "https://dc.lft.to/lastmile_qr_scan", "android": "https://dc.lft.to/lastmile_qr_scan"}, "is_reserved": 0}, {"lon": -77.04156433333333, "bike_id": "563b55fcb99558020d72f09787433565", "lat": 38.9180045, "fusion_lon": 0.0, "fusion_lat": 0.0, "type": "electric_scooter", "name": "563b55fcb99558020d72f09787433565", "is_disabled": 0, "rental_uris": {"ios": "https://dc.lft.to/lastmile_qr_scan", "android": "https://dc.lft.to/lastmile_qr_scan"}, "is_reserved": 0}, {"lon": -77.02385883333334, "bike_id": "6f76a1790cbf9694744ee92899c41c9f", "lat": 38.907829666666665, "fusion_lon": 0.0, "fusion_lat": 0.0, "type": "electric_scooter", "name": "6f76a1790cbf9694744ee92899c41c9f", "is_disabled": 0, "rental_uris": {"ios": "https://dc.lft.to/lastmile_qr_scan", "android": "https://dc.lft.to/lastmile_qr_scan"}, "is_reserved": 0}, {"lon": -77.03111283333334, "bike_id": "46231216c3d122f572c02c7df4cf1eb9", "lat": 38.91262183333333, "fusion_lon": 0.0, "fusion_lat": 0.0, "type": "electric_scooter", "name": "46231216c3d122f572c02c7df4cf1eb9", "is_disabled": 0, "rental_uris": {"ios": "https://dc.lft.to/lastmile_qr_scan", "android": "https://dc.lft.to/lastmile_qr_scan"}, "is_reserved": 0}, {"lon": -76.96912883333333, "bike_id": "fd70be5a698d661089bdbf1987004c76", "lat": 38.8460765, "fusion_lon": 0.0, "fusion_lat": 0.0, "type": "electric_bike", "name": "fd70be5a698d661089bdbf1987004c76", "is_disabled": 0, "rental_uris": {"ios": "https://dc.lft.to/lastmile_qr_scan", "android": "https://dc.lft.to/lastmile_qr_scan"}, "is_reserved": 0}, {"lon": -76.99068266666667, "bike_id": "2b1f539af1221f80fa05891b2358a992", "lat": 38.927444333333334, "fusion_lon": 0.0, "fusion_lat": 0.0, "type": "electric_scooter", "name": "2b1f539af1221f80fa05891b2358a992", "is_disabled": 0, "rental_uris": {"ios": "https://dc.lft.to/lastmile_qr_scan", "android": "https://dc.lft.to/lastmile_qr_scan"}, "is_reserved": 0}, {"lon": -77.06298766666667, "bike_id": "ac7f70df3f9935b4ff51b67bd1f15d69", "lat": 38.90606366666667, "fusion_lon": 0.0, "fusion_lat": 0.0, "type": "electric_scooter", "name": "ac7f70df3f9935b4ff51b67bd1f15d69", "is_disabled": 0, "rental_uris": {"ios": "https://dc.lft.to/lastmile_qr_scan", "android": "https://dc.lft.to/lastmile_qr_scan"}, "is_reserved": 0}, {"lon": -77.03200683333333, "bike_id": "2fd76c2798c380fce106a57754738564", "lat": 38.91307483333333, "fusion_lon": 0.0, "fusion_lat": 0.0, "type": "electric_scooter", "name": "2fd76c2798c380fce106a57754738564", "is_disabled": 0, "rental_uris": {"ios": "https://dc.lft.to/lastmile_qr_scan", "android": "https://dc.lft.to/lastmile_qr_scan"}, "is_reserved": 0}, {"lon": -77.036728, "bike_id": "9f20c8a86c1ce041ddcce2637004aba2", "lat": 38.90282083333334, "fusion_lon": 0.0, "fusion_lat": 0.0, "type": "electric_scooter", "name": "9f20c8a86c1ce041ddcce2637004aba2", "is_disabled": 0, "rental_uris": {"ios": "https://dc.lft.to/lastmile_qr_scan", "android": "https://dc.lft.to/lastmile_qr_scan"}, "is_reserved": 0}, {"lon": -77.11592533333334, "bike_id": "ee5f6af2636fed83df80bf79700c0e5b", "lat": 39.07493083333333, "fusion_lon": 0.0, "fusion_lat": 0.0, "type": "electric_bike", "name": "ee5f6af2636fed83df80bf79700c0e5b", "is_disabled": 0, "rental_uris": {"ios": "https://dc.lft.to/lastmile_qr_scan", "android": "https://dc.lft.to/lastmile_qr_scan"}, "is_reserved": 0}, {"lon": -77.026643, "bike_id": "404bfb3677bee2b71e265243d1fc074f", "lat": 38.92590716666667, "fusion_lon": 0.0, "fusion_lat": 0.0, "type": "electric_scooter", "name": "404bfb3677bee2b71e265243d1fc074f", "is_disabled": 0, "rental_uris": {"ios": "https://dc.lft.to/lastmile_qr_scan", "android": "https://dc.lft.to/lastmile_qr_scan"}, "is_reserved": 0}, {"lon": -77.02976166666667, "bike_id": "08850cfe63ee34a2d8bdac44a29b2911", "lat": 38.91623466666667, "fusion_lon": 0.0, "fusion_lat": 0.0, "type": "electric_scooter", "name": "08850cfe63ee34a2d8bdac44a29b2911", "is_disabled": 0, "rental_uris": {"ios": "https://dc.lft.to/lastmile_qr_scan", "android": "https://dc.lft.to/lastmile_qr_scan"}, "is_reserved": 0}, {"lon": -77.038074, "bike_id": "d54091cd306a262f1c12ad9644d4ca49", "lat": 38.91178716666667, "fusion_lon": 0.0, "fusion_lat": 0.0, "type": "electric_scooter", "name": "d54091cd306a262f1c12ad9644d4ca49", "is_disabled": 0, "rental_uris": {"ios": "https://dc.lft.to/lastmile_qr_scan", "android": "https://dc.lft.to/lastmile_qr_scan"}, "is_reserved": 0}, {"lon": -76.990491, "bike_id": "f4ad42c0851d8ed05b66da523a137eec", "lat": 38.86374683333333, "fusion_lon": 0.0, "fusion_lat": 0.0, "type": "electric_scooter", "name": "f4ad42c0851d8ed05b66da523a137eec", "is_disabled": 0, "rental_uris": {"ios": "https://dc.lft.to/lastmile_qr_scan", "android": "https://dc.lft.to/lastmile_qr_scan"}, "is_reserved": 0}, {"lon": -76.999319, "bike_id": "3425a25cc41f2640e1cb5b5ad3df8e4b", "lat": 38.843150333333334, "fusion_lon": 0.0, "fusion_lat": 0.0, "type": "electric_scooter", "name": "3425a25cc41f2640e1cb5b5ad3df8e4b", "is_disabled": 0, "rental_uris": {"ios": "https://dc.lft.to/lastmile_qr_scan", "android": "https://dc.lft.to/lastmile_qr_scan"}, "is_reserved": 0}, {"lon": -77.03210583333333, "bike_id": "fed1431467c4bacaa3cb5784f14a5b5c", "lat": 38.8924045, "fusion_lon": 0.0, "fusion_lat": 0.0, "type": "electric_scooter", "name": "fed1431467c4bacaa3cb5784f14a5b5c", "is_disabled": 0, "rental_uris": {"ios": "https://dc.lft.to/lastmile_qr_scan", "android": "https://dc.lft.to/lastmile_qr_scan"}, "is_reserved": 0}, {"lon": -77.02842566666666, "bike_id": "82146797a5983c9448351c1f9c576b5b", "lat": 38.9257715, "fusion_lon": 0.0, "fusion_lat": 0.0, "type": "electric_scooter", "name": "82146797a5983c9448351c1f9c576b5b", "is_disabled": 0, "rental_uris": {"ios": "https://dc.lft.to/lastmile_qr_scan", "android": "https://dc.lft.to/lastmile_qr_scan"}, "is_reserved": 0}, {"lon": -76.95757233333333, "bike_id": "29dc5717a84f19a2ac7f7964e24619d8", "lat": 38.884296166666665, "fusion_lon": 0.0, "fusion_lat": 0.0, "type": "electric_scooter", "name": "29dc5717a84f19a2ac7f7964e24619d8", "is_disabled": 0, "rental_uris": {"ios": "https://dc.lft.to/lastmile_qr_scan", "android": "https://dc.lft.to/lastmile_qr_scan"}, "is_reserved": 0}, {"lon": -77.01513516666667, "bike_id": "c7d45f0f51b3782981e988483066c0d8", "lat": 38.92670916666667, "fusion_lon": 0.0, "fusion_lat": 0.0, "type": "electric_bike", "name": "c7d45f0f51b3782981e988483066c0d8", "is_disabled": 0, "rental_uris": {"ios": "https://dc.lft.to/lastmile_qr_scan", "android": "https://dc.lft.to/lastmile_qr_scan"}, "is_reserved": 0}, {"lon": -76.990868, "bike_id": "f9c3d900543f27fa2a7c6178e843b9e3", "lat": 38.9002155, "fusion_lon": 0.0, "fusion_lat": 0.0, "type": "electric_scooter", "name": "f9c3d900543f27fa2a7c6178e843b9e3", "is_disabled": 0, "rental_uris": {"ios": "https://dc.lft.to/lastmile_qr_scan", "android": "https://dc.lft.to/lastmile_qr_scan"}, "is_reserved": 0}, {"lon": -77.0276365, "bike_id": "a95510e188e41c4359a6944d01ceca12", "lat": 38.93466566666667, "fusion_lon": 0.0, "fusion_lat": 0.0, "type": "electric_scooter", "name": "a95510e188e41c4359a6944d01ceca12", "is_disabled": 0, "rental_uris": {"ios": "https://dc.lft.to/lastmile_qr_scan", "android": "https://dc.lft.to/lastmile_qr_scan"}, "is_reserved": 0}, {"lon": -77.0313215, "bike_id": "186522cf3395ee0da3f48de51ae43e80", "lat": 38.9149055, "fusion_lon": 0.0, "fusion_lat": 0.0, "type": "electric_scooter", "name": "186522cf3395ee0da3f48de51ae43e80", "is_disabled": 0, "rental_uris": {"ios": "https://dc.lft.to/lastmile_qr_scan", "android": "https://dc.lft.to/lastmile_qr_scan"}, "is_reserved": 0}, {"lon": -77.025764, "bike_id": "d621a5e3f39150677f92ebb0484056aa", "lat": 38.890406, "fusion_lon": 0.0, "fusion_lat": 0.0, "type": "electric_scooter", "name": "d621a5e3f39150677f92ebb0484056aa", "is_disabled": 0, "rental_uris": {"ios": "https://dc.lft.to/lastmile_qr_scan", "android": "https://dc.lft.to/lastmile_qr_scan"}, "is_reserved": 0}, {"lon": -77.03931016666667, "bike_id": "f090abedb529758af7dc30acf9ed5a11", "lat": 38.924926, "fusion_lon": 0.0, "fusion_lat": 0.0, "type": "electric_scooter", "name": "f090abedb529758af7dc30acf9ed5a11", "is_disabled": 0, "rental_uris": {"ios": "https://dc.lft.to/lastmile_qr_scan", "android": "https://dc.lft.to/lastmile_qr_scan"}, "is_reserved": 0}, {"lon": -77.04863416666667, "bike_id": "29591b0f9a64ffbdcd7bca456e3c2ab6", "lat": 38.9095445, "fusion_lon": 0.0, "fusion_lat": 0.0, "type": "electric_scooter", "name": "29591b0f9a64ffbdcd7bca456e3c2ab6", "is_disabled": 0, "rental_uris": {"ios": "https://dc.lft.to/lastmile_qr_scan", "android": "https://dc.lft.to/lastmile_qr_scan"}, "is_reserved": 0}, {"lon": -77.0868245, "bike_id": "b20bf7aa026bb8187dabb27a5986e7c4", "lat": 38.87395133333333, "fusion_lon": 0.0, "fusion_lat": 0.0, "type": "electric_bike", "name": "b20bf7aa026bb8187dabb27a5986e7c4", "is_disabled": 0, "rental_uris": {"ios": "https://dc.lft.to/lastmile_qr_scan", "android": "https://dc.lft.to/lastmile_qr_scan"}, "is_reserved": 0}, {"lon": -77.02490383333334, "bike_id": "6ea950f14beab31430570a226cf197b6", "lat": 38.91947716666667, "fusion_lon": 0.0, "fusion_lat": 0.0, "type": "electric_scooter", "name": "6ea950f14beab31430570a226cf197b6", "is_disabled": 0, "rental_uris": {"ios": "https://dc.lft.to/lastmile_qr_scan", "android": "https://dc.lft.to/lastmile_qr_scan"}, "is_reserved": 0}, {"lon": -77.05241466666666, "bike_id": "5356f15615b82d742af2197c9e67ab8d", "lat": 38.9246015, "fusion_lon": 0.0, "fusion_lat": 0.0, "type": "electric_scooter", "name": "5356f15615b82d742af2197c9e67ab8d", "is_disabled": 0, "rental_uris": {"ios": "https://dc.lft.to/lastmile_qr_scan", "android": "https://dc.lft.to/lastmile_qr_scan"}, "is_reserved": 0}, {"lon": -77.0388445, "bike_id": "730da584b3b3844a115989fe1ec5e65e", "lat": 38.948730833333336, "fusion_lon": 0.0, "fusion_lat": 0.0, "type": "electric_scooter", "name": "730da584b3b3844a115989fe1ec5e65e", "is_disabled": 0, "rental_uris": {"ios": "https://dc.lft.to/lastmile_qr_scan", "android": "https://dc.lft.to/lastmile_qr_scan"}, "is_reserved": 0}, {"lon": -77.0604125, "bike_id": "71bdf017bd30d08aba6752d836030372", "lat": 38.933535666666664, "fusion_lon": 0.0, "fusion_lat": 0.0, "type": "electric_scooter", "name": "71bdf017bd30d08aba6752d836030372", "is_disabled": 0, "rental_uris": {"ios": "https://dc.lft.to/lastmile_qr_scan", "android": "https://dc.lft.to/lastmile_qr_scan"}, "is_reserved": 0}, {"lon": -77.02762616666666, "bike_id": "ad961ea8e1458584195b9f8eeebbefba", "lat": 38.9656825, "fusion_lon": 0.0, "fusion_lat": 0.0, "type": "electric_bike", "name": "ad961ea8e1458584195b9f8eeebbefba", "is_disabled": 0, "rental_uris": {"ios": "https://dc.lft.to/lastmile_qr_scan", "android": "https://dc.lft.to/lastmile_qr_scan"}, "is_reserved": 0}, {"lon": -77.04648933333333, "bike_id": "925fa3a58a70d57ac9e9ec811dc3dc28", "lat": 39.0548935, "fusion_lon": 0.0, "fusion_lat": 0.0, "type": "electric_bike", "name": "925fa3a58a70d57ac9e9ec811dc3dc28", "is_disabled": 0, "rental_uris": {"ios": "https://dc.lft.to/lastmile_qr_scan", "android": "https://dc.lft.to/lastmile_qr_scan"}, "is_reserved": 0}, {"lon": -77.04337083333333, "bike_id": "97ab1a7955f1ab0e926d4f7a92fde9bd", "lat": 38.922196, "fusion_lon": 0.0, "fusion_lat": 0.0, "type": "electric_scooter", "name": "97ab1a7955f1ab0e926d4f7a92fde9bd", "is_disabled": 0, "rental_uris": {"ios": "https://dc.lft.to/lastmile_qr_scan", "android": "https://dc.lft.to/lastmile_qr_scan"}, "is_reserved": 0}, {"lon": -77.01768816666667, "bike_id": "79595d5890e73438e08a317ccd576de5", "lat": 38.88739566666667, "fusion_lon": 0.0, "fusion_lat": 0.0, "type": "electric_scooter", "name": "79595d5890e73438e08a317ccd576de5", "is_disabled": 0, "rental_uris": {"ios": "https://dc.lft.to/lastmile_qr_scan", "android": "https://dc.lft.to/lastmile_qr_scan"}, "is_reserved": 0}, {"lon": -77.04178033333334, "bike_id": "f35d316a66ff05612f9485afe056799f", "lat": 38.91737833333333, "fusion_lon": 0.0, "fusion_lat": 0.0, "type": "electric_scooter", "name": "f35d316a66ff05612f9485afe056799f", "is_disabled": 0, "rental_uris": {"ios": "https://dc.lft.to/lastmile_qr_scan", "android": "https://dc.lft.to/lastmile_qr_scan"}, "is_reserved": 0}, {"lon": -76.884024, "bike_id": "649082e5261732e72fd67d8c4d14c15e", "lat": 38.931658166666665, "fusion_lon": 0.0, "fusion_lat": 0.0, "type": "electric_bike", "name": "649082e5261732e72fd67d8c4d14c15e", "is_disabled": 0, "rental_uris": {"ios": "https://dc.lft.to/lastmile_qr_scan", "android": "https://dc.lft.to/lastmile_qr_scan"}, "is_reserved": 0}, {"lon": -76.95658433333334, "bike_id": "69c594f6ac71a3066b91382d469fa6ab", "lat": 38.896227333333336, "fusion_lon": 0.0, "fusion_lat": 0.0, "type": "electric_scooter", "name": "69c594f6ac71a3066b91382d469fa6ab", "is_disabled": 0, "rental_uris": {"ios": "https://dc.lft.to/lastmile_qr_scan", "android": "https://dc.lft.to/lastmile_qr_scan"}, "is_reserved": 0}, {"lon": -77.0559715, "bike_id": "e62208f1d9d3b7919c7da672747db909", "lat": 38.933490166666665, "fusion_lon": 0.0, "fusion_lat": 0.0, "type": "electric_scooter", "name": "e62208f1d9d3b7919c7da672747db909", "is_disabled": 0, "rental_uris": {"ios": "https://dc.lft.to/lastmile_qr_scan", "android": "https://dc.lft.to/lastmile_qr_scan"}, "is_reserved": 0}, {"lon": -77.01811933333333, "bike_id": "0abf83d0dce4ae1c868e2c5b27d00e4c", "lat": 38.96482816666666, "fusion_lon": 0.0, "fusion_lat": 0.0, "type": "electric_scooter", "name": "0abf83d0dce4ae1c868e2c5b27d00e4c", "is_disabled": 0, "rental_uris": {"ios": "https://dc.lft.to/lastmile_qr_scan", "android": "https://dc.lft.to/lastmile_qr_scan"}, "is_reserved": 0}, {"lon": -77.03204116666667, "bike_id": "7f48383fcee3dcfedb52b4b275f1f96f", "lat": 38.9386005, "fusion_lon": 0.0, "fusion_lat": 0.0, "type": "electric_scooter", "name": "7f48383fcee3dcfedb52b4b275f1f96f", "is_disabled": 0, "rental_uris": {"ios": "https://dc.lft.to/lastmile_qr_scan", "android": "https://dc.lft.to/lastmile_qr_scan"}, "is_reserved": 0}, {"lon": -77.01411083333333, "bike_id": "855a02e823afed158bc534bb9a3da580", "lat": 38.92834766666667, "fusion_lon": 0.0, "fusion_lat": 0.0, "type": "electric_scooter", "name": "855a02e823afed158bc534bb9a3da580", "is_disabled": 0, "rental_uris": {"ios": "https://dc.lft.to/lastmile_qr_scan", "android": "https://dc.lft.to/lastmile_qr_scan"}, "is_reserved": 0}, {"lon": -76.98718966666667, "bike_id": "a4ddc718d0a1f6a3d6c4a45e508033e5", "lat": 38.8670125, "fusion_lon": 0.0, "fusion_lat": 0.0, "type": "electric_scooter", "name": "a4ddc718d0a1f6a3d6c4a45e508033e5", "is_disabled": 0, "rental_uris": {"ios": "https://dc.lft.to/lastmile_qr_scan", "android": "https://dc.lft.to/lastmile_qr_scan"}, "is_reserved": 0}, {"lon": -77.03080316666667, "bike_id": "1999bf21935276b069b3059c6f2cfbc4", "lat": 38.935219000000004, "fusion_lon": 0.0, "fusion_lat": 0.0, "type": "electric_scooter", "name": "1999bf21935276b069b3059c6f2cfbc4", "is_disabled": 0, "rental_uris": {"ios": "https://dc.lft.to/lastmile_qr_scan", "android": "https://dc.lft.to/lastmile_qr_scan"}, "is_reserved": 0}, {"lon": -77.03186683333334, "bike_id": "e3badf3ad788548f8de69a31edfe07c5", "lat": 38.887363666666666, "fusion_lon": 0.0, "fusion_lat": 0.0, "type": "electric_scooter", "name": "e3badf3ad788548f8de69a31edfe07c5", "is_disabled": 0, "rental_uris": {"ios": "https://dc.lft.to/lastmile_qr_scan", "android": "https://dc.lft.to/lastmile_qr_scan"}, "is_reserved": 0}, {"lon": -77.01976933333333, "bike_id": "9684dbeca74f79da22ee9df2d81928a5", "lat": 38.921246, "fusion_lon": 0.0, "fusion_lat": 0.0, "type": "electric_scooter", "name": "9684dbeca74f79da22ee9df2d81928a5", "is_disabled": 0, "rental_uris": {"ios": "https://dc.lft.to/lastmile_qr_scan", "android": "https://dc.lft.to/lastmile_qr_scan"}, "is_reserved": 0}, {"lon": -77.06029666666667, "bike_id": "e1f503b4d7e8d67ef3392ea7a0f81b85", "lat": 38.90498616666667, "fusion_lon": 0.0, "fusion_lat": 0.0, "type": "electric_scooter", "name": "e1f503b4d7e8d67ef3392ea7a0f81b85", "is_disabled": 0, "rental_uris": {"ios": "https://dc.lft.to/lastmile_qr_scan", "android": "https://dc.lft.to/lastmile_qr_scan"}, "is_reserved": 0}, {"lon": -77.001569, "bike_id": "ad1e2188f505d951d476d4380f484455", "lat": 38.8427845, "fusion_lon": 0.0, "fusion_lat": 0.0, "type": "electric_scooter", "name": "ad1e2188f505d951d476d4380f484455", "is_disabled": 0, "rental_uris": {"ios": "https://dc.lft.to/lastmile_qr_scan", "android": "https://dc.lft.to/lastmile_qr_scan"}, "is_reserved": 0}, {"lon": -77.0549605, "bike_id": "c6e36721be229205bcf8e06809754dbe", "lat": 38.935353666666664, "fusion_lon": 0.0, "fusion_lat": 0.0, "type": "electric_scooter", "name": "c6e36721be229205bcf8e06809754dbe", "is_disabled": 0, "rental_uris": {"ios": "https://dc.lft.to/lastmile_qr_scan", "android": "https://dc.lft.to/lastmile_qr_scan"}, "is_reserved": 0}, {"lon": -77.03178866666667, "bike_id": "8c991c2b9de35b13fa3cd9c6d112c223", "lat": 38.88414916666667, "fusion_lon": 0.0, "fusion_lat": 0.0, "type": "electric_scooter", "name": "8c991c2b9de35b13fa3cd9c6d112c223", "is_disabled": 0, "rental_uris": {"ios": "https://dc.lft.to/lastmile_qr_scan", "android": "https://dc.lft.to/lastmile_qr_scan"}, "is_reserved": 0}, {"lon": -77.02153416666667, "bike_id": "e08d7638211ae16243b2dd205f8e7d6c", "lat": 38.8947755, "fusion_lon": 0.0, "fusion_lat": 0.0, "type": "electric_scooter", "name": "e08d7638211ae16243b2dd205f8e7d6c", "is_disabled": 0, "rental_uris": {"ios": "https://dc.lft.to/lastmile_qr_scan", "android": "https://dc.lft.to/lastmile_qr_scan"}, "is_reserved": 0}, {"lon": -77.02210016666666, "bike_id": "10bfd5289e29ff70b9a7cc1d7ede1246", "lat": 38.898316, "fusion_lon": 0.0, "fusion_lat": 0.0, "type": "electric_scooter", "name": "10bfd5289e29ff70b9a7cc1d7ede1246", "is_disabled": 0, "rental_uris": {"ios": "https://dc.lft.to/lastmile_qr_scan", "android": "https://dc.lft.to/lastmile_qr_scan"}, "is_reserved": 0}, {"lon": -77.0269525, "bike_id": "8a00b55c198f33ec85c9c6a5b667b691", "lat": 38.908393333333336, "fusion_lon": 0.0, "fusion_lat": 0.0, "type": "electric_scooter", "name": "8a00b55c198f33ec85c9c6a5b667b691", "is_disabled": 0, "rental_uris": {"ios": "https://dc.lft.to/lastmile_qr_scan", "android": "https://dc.lft.to/lastmile_qr_scan"}, "is_reserved": 0}, {"lon": -76.991876, "bike_id": "64387f18d1b07c954e894bf3ee93e4e0", "lat": 38.90831633333333, "fusion_lon": 0.0, "fusion_lat": 0.0, "type": "electric_scooter", "name": "64387f18d1b07c954e894bf3ee93e4e0", "is_disabled": 0, "rental_uris": {"ios": "https://dc.lft.to/lastmile_qr_scan", "android": "https://dc.lft.to/lastmile_qr_scan"}, "is_reserved": 0}, {"lon": -77.01984566666667, "bike_id": "7f860345f87d670dcd501f37777c1ade", "lat": 38.960302166666665, "fusion_lon": 0.0, "fusion_lat": 0.0, "type": "electric_scooter", "name": "7f860345f87d670dcd501f37777c1ade", "is_disabled": 0, "rental_uris": {"ios": "https://dc.lft.to/lastmile_qr_scan", "android": "https://dc.lft.to/lastmile_qr_scan"}, "is_reserved": 0}, {"lon": -76.9871255, "bike_id": "fbe1920c192d8cc005425c48d548b433", "lat": 38.8669575, "fusion_lon": 0.0, "fusion_lat": 0.0, "type": "electric_scooter", "name": "fbe1920c192d8cc005425c48d548b433", "is_disabled": 0, "rental_uris": {"ios": "https://dc.lft.to/lastmile_qr_scan", "android": "https://dc.lft.to/lastmile_qr_scan"}, "is_reserved": 0}, {"lon": -77.00895183333333, "bike_id": "4e7ed4e57fa27f2a56116e2085832cc1", "lat": 38.9178975, "fusion_lon": 0.0, "fusion_lat": 0.0, "type": "electric_scooter", "name": "4e7ed4e57fa27f2a56116e2085832cc1", "is_disabled": 0, "rental_uris": {"ios": "https://dc.lft.to/lastmile_qr_scan", "android": "https://dc.lft.to/lastmile_qr_scan"}, "is_reserved": 0}, {"lon": -76.9318015, "bike_id": "81a7fc60488c3fd94062bad5610cd260", "lat": 38.89882516666667, "fusion_lon": 0.0, "fusion_lat": 0.0, "type": "electric_scooter", "name": "81a7fc60488c3fd94062bad5610cd260", "is_disabled": 0, "rental_uris": {"ios": "https://dc.lft.to/lastmile_qr_scan", "android": "https://dc.lft.to/lastmile_qr_scan"}, "is_reserved": 0}, {"lon": -77.03286583333333, "bike_id": "f5697c730db3407d27e24745d8ab87f7", "lat": 38.95644716666666, "fusion_lon": 0.0, "fusion_lat": 0.0, "type": "electric_scooter", "name": "f5697c730db3407d27e24745d8ab87f7", "is_disabled": 0, "rental_uris": {"ios": "https://dc.lft.to/lastmile_qr_scan", "android": "https://dc.lft.to/lastmile_qr_scan"}, "is_reserved": 0}, {"lon": -77.01466316666667, "bike_id": "93ab9d2b34978bd701e2aa315f82cedf", "lat": 38.914770833333336, "fusion_lon": 0.0, "fusion_lat": 0.0, "type": "electric_scooter", "name": "93ab9d2b34978bd701e2aa315f82cedf", "is_disabled": 0, "rental_uris": {"ios": "https://dc.lft.to/lastmile_qr_scan", "android": "https://dc.lft.to/lastmile_qr_scan"}, "is_reserved": 0}, {"lon": -77.04186483333334, "bike_id": "0c6538334112628a292adc87f85c8da6", "lat": 38.9197985, "fusion_lon": 0.0, "fusion_lat": 0.0, "type": "electric_scooter", "name": "0c6538334112628a292adc87f85c8da6", "is_disabled": 0, "rental_uris": {"ios": "https://dc.lft.to/lastmile_qr_scan", "android": "https://dc.lft.to/lastmile_qr_scan"}, "is_reserved": 0}, {"lon": -77.11783, "bike_id": "01a8f5d8db1825735303eabb09c2e566", "lat": 39.054938, "fusion_lon": 0.0, "fusion_lat": 0.0, "type": "electric_bike", "name": "01a8f5d8db1825735303eabb09c2e566", "is_disabled": 0, "rental_uris": {"ios": "https://dc.lft.to/lastmile_qr_scan", "android": "https://dc.lft.to/lastmile_qr_scan"}, "is_reserved": 0}, {"lon": -77.06337333333333, "bike_id": "a91ac995236d740772ab2e7a31f50bf0", "lat": 38.906827, "fusion_lon": 0.0, "fusion_lat": 0.0, "type": "electric_bike", "name": "a91ac995236d740772ab2e7a31f50bf0", "is_disabled": 0, "rental_uris": {"ios": "https://dc.lft.to/lastmile_qr_scan", "android": "https://dc.lft.to/lastmile_qr_scan"}, "is_reserved": 0}, {"lon": -77.0229315, "bike_id": "7ddece23b014396256167ebb095538e1", "lat": 38.916824, "fusion_lon": 0.0, "fusion_lat": 0.0, "type": "electric_scooter", "name": "7ddece23b014396256167ebb095538e1", "is_disabled": 0, "rental_uris": {"ios": "https://dc.lft.to/lastmile_qr_scan", "android": "https://dc.lft.to/lastmile_qr_scan"}, "is_reserved": 0}, {"lon": -77.0329435, "bike_id": "ca69b25297793cfa04c8ff7414ca6e9d", "lat": 38.929398, "fusion_lon": 0.0, "fusion_lat": 0.0, "type": "electric_scooter", "name": "ca69b25297793cfa04c8ff7414ca6e9d", "is_disabled": 0, "rental_uris": {"ios": "https://dc.lft.to/lastmile_qr_scan", "android": "https://dc.lft.to/lastmile_qr_scan"}, "is_reserved": 0}, {"lon": -77.02372733333333, "bike_id": "b8b56ddc868a901bd29e75547c44db70", "lat": 38.91787433333333, "fusion_lon": 0.0, "fusion_lat": 0.0, "type": "electric_scooter", "name": "b8b56ddc868a901bd29e75547c44db70", "is_disabled": 0, "rental_uris": {"ios": "https://dc.lft.to/lastmile_qr_scan", "android": "https://dc.lft.to/lastmile_qr_scan"}, "is_reserved": 0}, {"lon": -77.02800166666667, "bike_id": "c232f1c324da27f061ce0dddb1118904", "lat": 38.92024883333333, "fusion_lon": 0.0, "fusion_lat": 0.0, "type": "electric_scooter", "name": "c232f1c324da27f061ce0dddb1118904", "is_disabled": 0, "rental_uris": {"ios": "https://dc.lft.to/lastmile_qr_scan", "android": "https://dc.lft.to/lastmile_qr_scan"}, "is_reserved": 0}, {"lon": -77.041762, "bike_id": "6a70e4381f67d781b9ee3269f1232970", "lat": 38.9173215, "fusion_lon": 0.0, "fusion_lat": 0.0, "type": "electric_scooter", "name": "6a70e4381f67d781b9ee3269f1232970", "is_disabled": 0, "rental_uris": {"ios": "https://dc.lft.to/lastmile_qr_scan", "android": "https://dc.lft.to/lastmile_qr_scan"}, "is_reserved": 0}, {"lon": -77.02796533333333, "bike_id": "3d618c74b02f425c27e2a29795cf6efd", "lat": 38.956800666666666, "fusion_lon": 0.0, "fusion_lat": 0.0, "type": "electric_scooter", "name": "3d618c74b02f425c27e2a29795cf6efd", "is_disabled": 0, "rental_uris": {"ios": "https://dc.lft.to/lastmile_qr_scan", "android": "https://dc.lft.to/lastmile_qr_scan"}, "is_reserved": 0}, {"lon": -77.0333495, "bike_id": "2b42c88c173f2717f308ef0d483e0115", "lat": 38.909735, "fusion_lon": 0.0, "fusion_lat": 0.0, "type": "electric_scooter", "name": "2b42c88c173f2717f308ef0d483e0115", "is_disabled": 0, "rental_uris": {"ios": "https://dc.lft.to/lastmile_qr_scan", "android": "https://dc.lft.to/lastmile_qr_scan"}, "is_reserved": 0}, {"lon": -77.01095133333334, "bike_id": "dc424a85defd732120db4f2bbc924f00", "lat": 38.915662, "fusion_lon": 0.0, "fusion_lat": 0.0, "type": "electric_scooter", "name": "dc424a85defd732120db4f2bbc924f00", "is_disabled": 0, "rental_uris": {"ios": "https://dc.lft.to/lastmile_qr_scan", "android": "https://dc.lft.to/lastmile_qr_scan"}, "is_reserved": 0}, {"lon": -77.02730266666667, "bike_id": "cea9ef6c62b46ef9fcddb623a6c027ed", "lat": 38.9320685, "fusion_lon": 0.0, "fusion_lat": 0.0, "type": "electric_scooter", "name": "cea9ef6c62b46ef9fcddb623a6c027ed", "is_disabled": 0, "rental_uris": {"ios": "https://dc.lft.to/lastmile_qr_scan", "android": "https://dc.lft.to/lastmile_qr_scan"}, "is_reserved": 0}, {"lon": -77.06297733333334, "bike_id": "3861b29d69dee97910328f0df7f31c56", "lat": 38.905997, "fusion_lon": 0.0, "fusion_lat": 0.0, "type": "electric_scooter", "name": "3861b29d69dee97910328f0df7f31c56", "is_disabled": 0, "rental_uris": {"ios": "https://dc.lft.to/lastmile_qr_scan", "android": "https://dc.lft.to/lastmile_qr_scan"}, "is_reserved": 0}, {"lon": -77.00464083333334, "bike_id": "219a17d267e1468a35fe692c1fe1c384", "lat": 38.87667316666667, "fusion_lon": 0.0, "fusion_lat": 0.0, "type": "electric_bike", "name": "219a17d267e1468a35fe692c1fe1c384", "is_disabled": 0, "rental_uris": {"ios": "https://dc.lft.to/lastmile_qr_scan", "android": "https://dc.lft.to/lastmile_qr_scan"}, "is_reserved": 0}, {"lon": -77.045418, "bike_id": "7ea5193dbea9b59ab22b0de1e6c1a48d", "lat": 38.9204155, "fusion_lon": 0.0, "fusion_lat": 0.0, "type": "electric_scooter", "name": "7ea5193dbea9b59ab22b0de1e6c1a48d", "is_disabled": 0, "rental_uris": {"ios": "https://dc.lft.to/lastmile_qr_scan", "android": "https://dc.lft.to/lastmile_qr_scan"}, "is_reserved": 0}, {"lon": -77.037727, "bike_id": "78eb729a9a1ae5e7e945e7c741aaba56", "lat": 38.916907333333334, "fusion_lon": 0.0, "fusion_lat": 0.0, "type": "electric_scooter", "name": "78eb729a9a1ae5e7e945e7c741aaba56", "is_disabled": 0, "rental_uris": {"ios": "https://dc.lft.to/lastmile_qr_scan", "android": "https://dc.lft.to/lastmile_qr_scan"}, "is_reserved": 0}, {"lon": -77.03423983333333, "bike_id": "5a0c99671cf7a965f72d95895b1ff190", "lat": 38.9180655, "fusion_lon": 0.0, "fusion_lat": 0.0, "type": "electric_scooter", "name": "5a0c99671cf7a965f72d95895b1ff190", "is_disabled": 0, "rental_uris": {"ios": "https://dc.lft.to/lastmile_qr_scan", "android": "https://dc.lft.to/lastmile_qr_scan"}, "is_reserved": 0}, {"lon": -77.02154033333333, "bike_id": "318843b0911b57ea4681f33cd7b42295", "lat": 38.92601283333333, "fusion_lon": 0.0, "fusion_lat": 0.0, "type": "electric_scooter", "name": "318843b0911b57ea4681f33cd7b42295", "is_disabled": 0, "rental_uris": {"ios": "https://dc.lft.to/lastmile_qr_scan", "android": "https://dc.lft.to/lastmile_qr_scan"}, "is_reserved": 0}, {"lon": -76.98380233333333, "bike_id": "a9fa3bb4bf3f693849d6811566a57e5f", "lat": 38.891429333333335, "fusion_lon": 0.0, "fusion_lat": 0.0, "type": "electric_scooter", "name": "a9fa3bb4bf3f693849d6811566a57e5f", "is_disabled": 0, "rental_uris": {"ios": "https://dc.lft.to/lastmile_qr_scan", "android": "https://dc.lft.to/lastmile_qr_scan"}, "is_reserved": 0}, {"lon": -77.03194883333333, "bike_id": "6d3e03c1ec8fd181532523b61e1b737f", "lat": 38.886938666666666, "fusion_lon": 0.0, "fusion_lat": 0.0, "type": "electric_scooter", "name": "6d3e03c1ec8fd181532523b61e1b737f", "is_disabled": 0, "rental_uris": {"ios": "https://dc.lft.to/lastmile_qr_scan", "android": "https://dc.lft.to/lastmile_qr_scan"}, "is_reserved": 0}, {"lon": -77.05614566666667, "bike_id": "11365fad980b88be4c97c7dc999b71cd", "lat": 38.931621, "fusion_lon": 0.0, "fusion_lat": 0.0, "type": "electric_scooter", "name": "11365fad980b88be4c97c7dc999b71cd", "is_disabled": 0, "rental_uris": {"ios": "https://dc.lft.to/lastmile_qr_scan", "android": "https://dc.lft.to/lastmile_qr_scan"}, "is_reserved": 0}, {"lon": -76.98841033333333, "bike_id": "672ace467a92f9a827c22d279666150a", "lat": 38.90070933333333, "fusion_lon": 0.0, "fusion_lat": 0.0, "type": "electric_scooter", "name": "672ace467a92f9a827c22d279666150a", "is_disabled": 0, "rental_uris": {"ios": "https://dc.lft.to/lastmile_qr_scan", "android": "https://dc.lft.to/lastmile_qr_scan"}, "is_reserved": 0}, {"lon": -76.994821, "bike_id": "d0875f68bef108073fe371c13e98a190", "lat": 38.862178166666666, "fusion_lon": 0.0, "fusion_lat": 0.0, "type": "electric_scooter", "name": "d0875f68bef108073fe371c13e98a190", "is_disabled": 0, "rental_uris": {"ios": "https://dc.lft.to/lastmile_qr_scan", "android": "https://dc.lft.to/lastmile_qr_scan"}, "is_reserved": 0}, {"lon": -77.00375533333333, "bike_id": "d4b445b3ac83f96129dc666a01f515e9", "lat": 38.895229666666665, "fusion_lon": 0.0, "fusion_lat": 0.0, "type": "electric_scooter", "name": "d4b445b3ac83f96129dc666a01f515e9", "is_disabled": 0, "rental_uris": {"ios": "https://dc.lft.to/lastmile_qr_scan", "android": "https://dc.lft.to/lastmile_qr_scan"}, "is_reserved": 0}, {"lon": -77.02487816666667, "bike_id": "5e1f57aeff3ae37fc6f30ef920338fa6", "lat": 38.9166675, "fusion_lon": 0.0, "fusion_lat": 0.0, "type": "electric_scooter", "name": "5e1f57aeff3ae37fc6f30ef920338fa6", "is_disabled": 0, "rental_uris": {"ios": "https://dc.lft.to/lastmile_qr_scan", "android": "https://dc.lft.to/lastmile_qr_scan"}, "is_reserved": 0}, {"lon": -77.061117, "bike_id": "534182fda341361dd24c2b2b5660418e", "lat": 38.943712, "fusion_lon": 0.0, "fusion_lat": 0.0, "type": "electric_scooter", "name": "534182fda341361dd24c2b2b5660418e", "is_disabled": 0, "rental_uris": {"ios": "https://dc.lft.to/lastmile_qr_scan", "android": "https://dc.lft.to/lastmile_qr_scan"}, "is_reserved": 0}, {"lon": -77.03342216666667, "bike_id": "740d2a3de7abaa977f0e899abefc79e6", "lat": 38.919096, "fusion_lon": 0.0, "fusion_lat": 0.0, "type": "electric_scooter", "name": "740d2a3de7abaa977f0e899abefc79e6", "is_disabled": 0, "rental_uris": {"ios": "https://dc.lft.to/lastmile_qr_scan", "android": "https://dc.lft.to/lastmile_qr_scan"}, "is_reserved": 0}, {"lon": -77.0319505, "bike_id": "d0666f1d74b7373a2fb85e0f84d8e017", "lat": 38.93595066666666, "fusion_lon": 0.0, "fusion_lat": 0.0, "type": "electric_scooter", "name": "d0666f1d74b7373a2fb85e0f84d8e017", "is_disabled": 0, "rental_uris": {"ios": "https://dc.lft.to/lastmile_qr_scan", "android": "https://dc.lft.to/lastmile_qr_scan"}, "is_reserved": 0}, {"lon": -77.00348983333333, "bike_id": "251dbc8dfe64086346f8606163d6058c", "lat": 38.908409666666664, "fusion_lon": 0.0, "fusion_lat": 0.0, "type": "electric_scooter", "name": "251dbc8dfe64086346f8606163d6058c", "is_disabled": 0, "rental_uris": {"ios": "https://dc.lft.to/lastmile_qr_scan", "android": "https://dc.lft.to/lastmile_qr_scan"}, "is_reserved": 0}, {"lon": -77.042366, "bike_id": "438197b9fb752615de997346c86cf060", "lat": 38.916409333333334, "fusion_lon": 0.0, "fusion_lat": 0.0, "type": "electric_scooter", "name": "438197b9fb752615de997346c86cf060", "is_disabled": 0, "rental_uris": {"ios": "https://dc.lft.to/lastmile_qr_scan", "android": "https://dc.lft.to/lastmile_qr_scan"}, "is_reserved": 0}, {"lon": -77.04680283333333, "bike_id": "925600f6945fbd41984b19065fe20b0f", "lat": 38.89741216666667, "fusion_lon": 0.0, "fusion_lat": 0.0, "type": "electric_scooter", "name": "925600f6945fbd41984b19065fe20b0f", "is_disabled": 0, "rental_uris": {"ios": "https://dc.lft.to/lastmile_qr_scan", "android": "https://dc.lft.to/lastmile_qr_scan"}, "is_reserved": 0}, {"lon": -77.039865, "bike_id": "381becdc0d0c53a271cbb6404bcf8f21", "lat": 38.9332955, "fusion_lon": 0.0, "fusion_lat": 0.0, "type": "electric_bike", "name": "381becdc0d0c53a271cbb6404bcf8f21", "is_disabled": 0, "rental_uris": {"ios": "https://dc.lft.to/lastmile_qr_scan", "android": "https://dc.lft.to/lastmile_qr_scan"}, "is_reserved": 0}, {"lon": -77.05239366666666, "bike_id": "39eff06d364f97bfd7cd4dc2dfc698a3", "lat": 38.924602, "fusion_lon": 0.0, "fusion_lat": 0.0, "type": "electric_scooter", "name": "39eff06d364f97bfd7cd4dc2dfc698a3", "is_disabled": 0, "rental_uris": {"ios": "https://dc.lft.to/lastmile_qr_scan", "android": "https://dc.lft.to/lastmile_qr_scan"}, "is_reserved": 0}, {"lon": -77.03304616666667, "bike_id": "20f467185e8d739ab9eeca5c8f88d7db", "lat": 38.93035616666667, "fusion_lon": 0.0, "fusion_lat": 0.0, "type": "electric_scooter", "name": "20f467185e8d739ab9eeca5c8f88d7db", "is_disabled": 0, "rental_uris": {"ios": "https://dc.lft.to/lastmile_qr_scan", "android": "https://dc.lft.to/lastmile_qr_scan"}, "is_reserved": 0}, {"lon": -77.02598883333333, "bike_id": "9b305b5181a5db15d924b37ad0d00762", "lat": 38.90499366666667, "fusion_lon": 0.0, "fusion_lat": 0.0, "type": "electric_scooter", "name": "9b305b5181a5db15d924b37ad0d00762", "is_disabled": 0, "rental_uris": {"ios": "https://dc.lft.to/lastmile_qr_scan", "android": "https://dc.lft.to/lastmile_qr_scan"}, "is_reserved": 0}, {"lon": -76.99487366666666, "bike_id": "5a62fabce836b8a15b24fe97892b46a8", "lat": 38.897398333333335, "fusion_lon": 0.0, "fusion_lat": 0.0, "type": "electric_scooter", "name": "5a62fabce836b8a15b24fe97892b46a8", "is_disabled": 0, "rental_uris": {"ios": "https://dc.lft.to/lastmile_qr_scan", "android": "https://dc.lft.to/lastmile_qr_scan"}, "is_reserved": 0}, {"lon": -77.0216145, "bike_id": "468a6090b72a882cbf9aa993801053a1", "lat": 38.897200833333336, "fusion_lon": 0.0, "fusion_lat": 0.0, "type": "electric_scooter", "name": "468a6090b72a882cbf9aa993801053a1", "is_disabled": 0, "rental_uris": {"ios": "https://dc.lft.to/lastmile_qr_scan", "android": "https://dc.lft.to/lastmile_qr_scan"}, "is_reserved": 0}, {"lon": -77.01784466666666, "bike_id": "d1936daae7cf3aab83665819fa6425c9", "lat": 38.887381166666664, "fusion_lon": 0.0, "fusion_lat": 0.0, "type": "electric_scooter", "name": "d1936daae7cf3aab83665819fa6425c9", "is_disabled": 0, "rental_uris": {"ios": "https://dc.lft.to/lastmile_qr_scan", "android": "https://dc.lft.to/lastmile_qr_scan"}, "is_reserved": 0}, {"lon": -77.04541466666667, "bike_id": "780d5e5a08d4115e93089d6e4f3eb966", "lat": 38.91329183333333, "fusion_lon": 0.0, "fusion_lat": 0.0, "type": "electric_scooter", "name": "780d5e5a08d4115e93089d6e4f3eb966", "is_disabled": 0, "rental_uris": {"ios": "https://dc.lft.to/lastmile_qr_scan", "android": "https://dc.lft.to/lastmile_qr_scan"}, "is_reserved": 0}, {"lon": -77.029051, "bike_id": "25b6e53a6a458ed42c7d76c9f43243bb", "lat": 38.92818316666666, "fusion_lon": 0.0, "fusion_lat": 0.0, "type": "electric_scooter", "name": "25b6e53a6a458ed42c7d76c9f43243bb", "is_disabled": 0, "rental_uris": {"ios": "https://dc.lft.to/lastmile_qr_scan", "android": "https://dc.lft.to/lastmile_qr_scan"}, "is_reserved": 0}, {"lon": -77.06007983333333, "bike_id": "fd75d9a1f67735499d4700aae77da0b5", "lat": 38.901169, "fusion_lon": 0.0, "fusion_lat": 0.0, "type": "electric_scooter", "name": "fd75d9a1f67735499d4700aae77da0b5", "is_disabled": 0, "rental_uris": {"ios": "https://dc.lft.to/lastmile_qr_scan", "android": "https://dc.lft.to/lastmile_qr_scan"}, "is_reserved": 0}, {"lon": -76.965239, "bike_id": "49a20542ba7b03e990132d84f51e9fb5", "lat": 38.8762975, "fusion_lon": 0.0, "fusion_lat": 0.0, "type": "electric_scooter", "name": "49a20542ba7b03e990132d84f51e9fb5", "is_disabled": 0, "rental_uris": {"ios": "https://dc.lft.to/lastmile_qr_scan", "android": "https://dc.lft.to/lastmile_qr_scan"}, "is_reserved": 0}, {"lon": -77.032607, "bike_id": "309989c24b9568a07766097411d590cc", "lat": 38.937763333333336, "fusion_lon": 0.0, "fusion_lat": 0.0, "type": "electric_scooter", "name": "309989c24b9568a07766097411d590cc", "is_disabled": 0, "rental_uris": {"ios": "https://dc.lft.to/lastmile_qr_scan", "android": "https://dc.lft.to/lastmile_qr_scan"}, "is_reserved": 0}, {"lon": -77.057131, "bike_id": "d50b57240492c83c7d875a27e6c680d9", "lat": 38.905443166666664, "fusion_lon": 0.0, "fusion_lat": 0.0, "type": "electric_scooter", "name": "d50b57240492c83c7d875a27e6c680d9", "is_disabled": 0, "rental_uris": {"ios": "https://dc.lft.to/lastmile_qr_scan", "android": "https://dc.lft.to/lastmile_qr_scan"}, "is_reserved": 0}, {"lon": -77.0253815, "bike_id": "fe42dafb485dbc69320c34de285c5718", "lat": 38.92093116666667, "fusion_lon": 0.0, "fusion_lat": 0.0, "type": "electric_scooter", "name": "fe42dafb485dbc69320c34de285c5718", "is_disabled": 0, "rental_uris": {"ios": "https://dc.lft.to/lastmile_qr_scan", "android": "https://dc.lft.to/lastmile_qr_scan"}, "is_reserved": 0}, {"lon": -77.04497616666667, "bike_id": "7837634784cbb86962d00df6e5016343", "lat": 38.91359033333333, "fusion_lon": 0.0, "fusion_lat": 0.0, "type": "electric_scooter", "name": "7837634784cbb86962d00df6e5016343", "is_disabled": 0, "rental_uris": {"ios": "https://dc.lft.to/lastmile_qr_scan", "android": "https://dc.lft.to/lastmile_qr_scan"}, "is_reserved": 0}, {"lon": -77.06030733333333, "bike_id": "ce216793a430d31fd2ba59b10d897cf9", "lat": 38.90498916666667, "fusion_lon": 0.0, "fusion_lat": 0.0, "type": "electric_scooter", "name": "ce216793a430d31fd2ba59b10d897cf9", "is_disabled": 0, "rental_uris": {"ios": "https://dc.lft.to/lastmile_qr_scan", "android": "https://dc.lft.to/lastmile_qr_scan"}, "is_reserved": 0}, {"lon": -77.03836866666667, "bike_id": "c8d5503e0c3e944a34bc11879a4a2e8f", "lat": 38.91186533333333, "fusion_lon": 0.0, "fusion_lat": 0.0, "type": "electric_scooter", "name": "c8d5503e0c3e944a34bc11879a4a2e8f", "is_disabled": 0, "rental_uris": {"ios": "https://dc.lft.to/lastmile_qr_scan", "android": "https://dc.lft.to/lastmile_qr_scan"}, "is_reserved": 0}, {"lon": -76.98500516666667, "bike_id": "e3bde59162f0bbeaad332c77d3905925", "lat": 38.878404333333336, "fusion_lon": 0.0, "fusion_lat": 0.0, "type": "electric_scooter", "name": "e3bde59162f0bbeaad332c77d3905925", "is_disabled": 0, "rental_uris": {"ios": "https://dc.lft.to/lastmile_qr_scan", "android": "https://dc.lft.to/lastmile_qr_scan"}, "is_reserved": 0}, {"lon": -77.05018733333333, "bike_id": "d98ea7dfb80f3ff51ad1950af9576640", "lat": 38.91577216666667, "fusion_lon": 0.0, "fusion_lat": 0.0, "type": "electric_scooter", "name": "d98ea7dfb80f3ff51ad1950af9576640", "is_disabled": 0, "rental_uris": {"ios": "https://dc.lft.to/lastmile_qr_scan", "android": "https://dc.lft.to/lastmile_qr_scan"}, "is_reserved": 0}, {"lon": -76.94102883333333, "bike_id": "9eaa7c5941e14cf94e541238d306cfa2", "lat": 38.88644383333333, "fusion_lon": 0.0, "fusion_lat": 0.0, "type": "electric_scooter", "name": "9eaa7c5941e14cf94e541238d306cfa2", "is_disabled": 0, "rental_uris": {"ios": "https://dc.lft.to/lastmile_qr_scan", "android": "https://dc.lft.to/lastmile_qr_scan"}, "is_reserved": 0}, {"lon": -77.04652266666666, "bike_id": "263b790e218af6a89fd3027a00f7ebb0", "lat": 38.90957216666666, "fusion_lon": 0.0, "fusion_lat": 0.0, "type": "electric_scooter", "name": "263b790e218af6a89fd3027a00f7ebb0", "is_disabled": 0, "rental_uris": {"ios": "https://dc.lft.to/lastmile_qr_scan", "android": "https://dc.lft.to/lastmile_qr_scan"}, "is_reserved": 0}, {"lon": -76.9317395, "bike_id": "707d9010ee2860a0fc6d46771b27c19e", "lat": 38.898816833333335, "fusion_lon": 0.0, "fusion_lat": 0.0, "type": "electric_scooter", "name": "707d9010ee2860a0fc6d46771b27c19e", "is_disabled": 0, "rental_uris": {"ios": "https://dc.lft.to/lastmile_qr_scan", "android": "https://dc.lft.to/lastmile_qr_scan"}, "is_reserved": 0}, {"lon": -77.02399983333333, "bike_id": "bd780ba12182cd27c8309d58a09a75b7", "lat": 38.900257333333336, "fusion_lon": 0.0, "fusion_lat": 0.0, "type": "electric_scooter", "name": "bd780ba12182cd27c8309d58a09a75b7", "is_disabled": 0, "rental_uris": {"ios": "https://dc.lft.to/lastmile_qr_scan", "android": "https://dc.lft.to/lastmile_qr_scan"}, "is_reserved": 0}, {"lon": -77.03874666666667, "bike_id": "e8f922140a59ad27607a3d3f22595ebc", "lat": 38.921479166666664, "fusion_lon": 0.0, "fusion_lat": 0.0, "type": "electric_scooter", "name": "e8f922140a59ad27607a3d3f22595ebc", "is_disabled": 0, "rental_uris": {"ios": "https://dc.lft.to/lastmile_qr_scan", "android": "https://dc.lft.to/lastmile_qr_scan"}, "is_reserved": 0}, {"lon": -77.04452666666667, "bike_id": "cef600ada54fbfcc5d1c9b55a3e14e6c", "lat": 38.91932516666667, "fusion_lon": 0.0, "fusion_lat": 0.0, "type": "electric_scooter", "name": "cef600ada54fbfcc5d1c9b55a3e14e6c", "is_disabled": 0, "rental_uris": {"ios": "https://dc.lft.to/lastmile_qr_scan", "android": "https://dc.lft.to/lastmile_qr_scan"}, "is_reserved": 0}, {"lon": -77.044081, "bike_id": "10e27c9e3157e05c12d3f456f1b2cdd6", "lat": 38.929491, "fusion_lon": 0.0, "fusion_lat": 0.0, "type": "electric_scooter", "name": "10e27c9e3157e05c12d3f456f1b2cdd6", "is_disabled": 0, "rental_uris": {"ios": "https://dc.lft.to/lastmile_qr_scan", "android": "https://dc.lft.to/lastmile_qr_scan"}, "is_reserved": 0}, {"lon": -76.99570383333334, "bike_id": "708affb5dca6643346a1c59e097601a3", "lat": 38.851812, "fusion_lon": 0.0, "fusion_lat": 0.0, "type": "electric_bike", "name": "708affb5dca6643346a1c59e097601a3", "is_disabled": 0, "rental_uris": {"ios": "https://dc.lft.to/lastmile_qr_scan", "android": "https://dc.lft.to/lastmile_qr_scan"}, "is_reserved": 0}, {"lon": -76.99616666666667, "bike_id": "e465597ba9adf543da98c96868c1a0a2", "lat": 38.88316316666667, "fusion_lon": 0.0, "fusion_lat": 0.0, "type": "electric_scooter", "name": "e465597ba9adf543da98c96868c1a0a2", "is_disabled": 0, "rental_uris": {"ios": "https://dc.lft.to/lastmile_qr_scan", "android": "https://dc.lft.to/lastmile_qr_scan"}, "is_reserved": 0}, {"lon": -77.03346766666667, "bike_id": "91dabaacff49dd5420ddd5774cd7ff67", "lat": 38.947167666666665, "fusion_lon": 0.0, "fusion_lat": 0.0, "type": "electric_scooter", "name": "91dabaacff49dd5420ddd5774cd7ff67", "is_disabled": 0, "rental_uris": {"ios": "https://dc.lft.to/lastmile_qr_scan", "android": "https://dc.lft.to/lastmile_qr_scan"}, "is_reserved": 0}, {"lon": -77.01584916666667, "bike_id": "ea47110f03d9fb0b2394f2e532820776", "lat": 38.89470166666667, "fusion_lon": 0.0, "fusion_lat": 0.0, "type": "electric_scooter", "name": "ea47110f03d9fb0b2394f2e532820776", "is_disabled": 0, "rental_uris": {"ios": "https://dc.lft.to/lastmile_qr_scan", "android": "https://dc.lft.to/lastmile_qr_scan"}, "is_reserved": 0}, {"lon": -77.03216816666666, "bike_id": "4ace83051a100db1e6ad709516d3d8f0", "lat": 38.89222016666667, "fusion_lon": 0.0, "fusion_lat": 0.0, "type": "electric_scooter", "name": "4ace83051a100db1e6ad709516d3d8f0", "is_disabled": 0, "rental_uris": {"ios": "https://dc.lft.to/lastmile_qr_scan", "android": "https://dc.lft.to/lastmile_qr_scan"}, "is_reserved": 0}, {"lon": -77.0321675, "bike_id": "f610eaf621a3313aa4439f3f817ba7b4", "lat": 38.9142105, "fusion_lon": 0.0, "fusion_lat": 0.0, "type": "electric_scooter", "name": "f610eaf621a3313aa4439f3f817ba7b4", "is_disabled": 0, "rental_uris": {"ios": "https://dc.lft.to/lastmile_qr_scan", "android": "https://dc.lft.to/lastmile_qr_scan"}, "is_reserved": 0}, {"lon": -77.0339965, "bike_id": "f051cf2040967080b918fa53a0d71cb4", "lat": 38.920637, "fusion_lon": 0.0, "fusion_lat": 0.0, "type": "electric_scooter", "name": "f051cf2040967080b918fa53a0d71cb4", "is_disabled": 0, "rental_uris": {"ios": "https://dc.lft.to/lastmile_qr_scan", "android": "https://dc.lft.to/lastmile_qr_scan"}, "is_reserved": 0}, {"lon": -76.98363216666667, "bike_id": "2f90d757617bc6c5173b8dd508b62fc1", "lat": 38.86112933333333, "fusion_lon": 0.0, "fusion_lat": 0.0, "type": "electric_scooter", "name": "2f90d757617bc6c5173b8dd508b62fc1", "is_disabled": 0, "rental_uris": {"ios": "https://dc.lft.to/lastmile_qr_scan", "android": "https://dc.lft.to/lastmile_qr_scan"}, "is_reserved": 0}, {"lon": -77.03767933333333, "bike_id": "8f50707fb482be18378aade870261e87", "lat": 38.9077585, "fusion_lon": 0.0, "fusion_lat": 0.0, "type": "electric_scooter", "name": "8f50707fb482be18378aade870261e87", "is_disabled": 0, "rental_uris": {"ios": "https://dc.lft.to/lastmile_qr_scan", "android": "https://dc.lft.to/lastmile_qr_scan"}, "is_reserved": 0}, {"lon": -76.933764, "bike_id": "bca94b77a62f5ba4697c92777fd5ed98", "lat": 38.899104333333334, "fusion_lon": 0.0, "fusion_lat": 0.0, "type": "electric_scooter", "name": "bca94b77a62f5ba4697c92777fd5ed98", "is_disabled": 0, "rental_uris": {"ios": "https://dc.lft.to/lastmile_qr_scan", "android": "https://dc.lft.to/lastmile_qr_scan"}, "is_reserved": 0}, {"lon": -77.03891283333333, "bike_id": "4139326aec2c2823626611b45b190e1b", "lat": 38.9110165, "fusion_lon": 0.0, "fusion_lat": 0.0, "type": "electric_scooter", "name": "4139326aec2c2823626611b45b190e1b", "is_disabled": 0, "rental_uris": {"ios": "https://dc.lft.to/lastmile_qr_scan", "android": "https://dc.lft.to/lastmile_qr_scan"}, "is_reserved": 0}, {"lon": -77.03653533333333, "bike_id": "01b8cc823040ba3e87c0a15c90d138ac", "lat": 38.9359905, "fusion_lon": 0.0, "fusion_lat": 0.0, "type": "electric_scooter", "name": "01b8cc823040ba3e87c0a15c90d138ac", "is_disabled": 0, "rental_uris": {"ios": "https://dc.lft.to/lastmile_qr_scan", "android": "https://dc.lft.to/lastmile_qr_scan"}, "is_reserved": 0}, {"lon": -77.05642283333333, "bike_id": "5153bffcd4c479fbc5a4a42f6d867cb6", "lat": 38.894243, "fusion_lon": 0.0, "fusion_lat": 0.0, "type": "electric_scooter", "name": "5153bffcd4c479fbc5a4a42f6d867cb6", "is_disabled": 0, "rental_uris": {"ios": "https://dc.lft.to/lastmile_qr_scan", "android": "https://dc.lft.to/lastmile_qr_scan"}, "is_reserved": 0}, {"lon": -77.02056283333333, "bike_id": "1cbe26c1cee8b41dd921e71d38253a3b", "lat": 38.923501, "fusion_lon": 0.0, "fusion_lat": 0.0, "type": "electric_scooter", "name": "1cbe26c1cee8b41dd921e71d38253a3b", "is_disabled": 0, "rental_uris": {"ios": "https://dc.lft.to/lastmile_qr_scan", "android": "https://dc.lft.to/lastmile_qr_scan"}, "is_reserved": 0}, {"lon": -77.0859815, "bike_id": "ee631aa1603374d90a4ac25fce43b806", "lat": 38.908631, "fusion_lon": 0.0, "fusion_lat": 0.0, "type": "electric_scooter", "name": "ee631aa1603374d90a4ac25fce43b806", "is_disabled": 0, "rental_uris": {"ios": "https://dc.lft.to/lastmile_qr_scan", "android": "https://dc.lft.to/lastmile_qr_scan"}, "is_reserved": 0}, {"lon": -76.94638266666666, "bike_id": "c295fa6f7fa2195b8096c7b973fd5d4c", "lat": 38.898317, "fusion_lon": 0.0, "fusion_lat": 0.0, "type": "electric_scooter", "name": "c295fa6f7fa2195b8096c7b973fd5d4c", "is_disabled": 0, "rental_uris": {"ios": "https://dc.lft.to/lastmile_qr_scan", "android": "https://dc.lft.to/lastmile_qr_scan"}, "is_reserved": 0}, {"lon": -77.00058783333333, "bike_id": "0d156b944b807a02617c1cf01a8eaccf", "lat": 38.907089666666664, "fusion_lon": 0.0, "fusion_lat": 0.0, "type": "electric_scooter", "name": "0d156b944b807a02617c1cf01a8eaccf", "is_disabled": 0, "rental_uris": {"ios": "https://dc.lft.to/lastmile_qr_scan", "android": "https://dc.lft.to/lastmile_qr_scan"}, "is_reserved": 0}, {"lon": -76.98380016666667, "bike_id": "ec5b4788b9edfa4aded93694ad2f1650", "lat": 38.90646666666667, "fusion_lon": 0.0, "fusion_lat": 0.0, "type": "electric_scooter", "name": "ec5b4788b9edfa4aded93694ad2f1650", "is_disabled": 0, "rental_uris": {"ios": "https://dc.lft.to/lastmile_qr_scan", "android": "https://dc.lft.to/lastmile_qr_scan"}, "is_reserved": 0}, {"lon": -77.03646616666667, "bike_id": "606c4476d407e11a107eb615faebe7ce", "lat": 38.911788666666666, "fusion_lon": 0.0, "fusion_lat": 0.0, "type": "electric_scooter", "name": "606c4476d407e11a107eb615faebe7ce", "is_disabled": 0, "rental_uris": {"ios": "https://dc.lft.to/lastmile_qr_scan", "android": "https://dc.lft.to/lastmile_qr_scan"}, "is_reserved": 0}, {"lon": -77.01753716666667, "bike_id": "e45ae941f21497a26ebc54322fcfbd62", "lat": 38.880428333333334, "fusion_lon": 0.0, "fusion_lat": 0.0, "type": "electric_scooter", "name": "e45ae941f21497a26ebc54322fcfbd62", "is_disabled": 0, "rental_uris": {"ios": "https://dc.lft.to/lastmile_qr_scan", "android": "https://dc.lft.to/lastmile_qr_scan"}, "is_reserved": 0}, {"lon": -77.0364455, "bike_id": "ec2d6bb9e90409783b749cee7f52d1de", "lat": 38.937599166666665, "fusion_lon": 0.0, "fusion_lat": 0.0, "type": "electric_bike", "name": "ec2d6bb9e90409783b749cee7f52d1de", "is_disabled": 0, "rental_uris": {"ios": "https://dc.lft.to/lastmile_qr_scan", "android": "https://dc.lft.to/lastmile_qr_scan"}, "is_reserved": 0}, {"lon": -77.04504283333333, "bike_id": "c602ed040dffc46ff275c609e3167122", "lat": 38.911139, "fusion_lon": 0.0, "fusion_lat": 0.0, "type": "electric_scooter", "name": "c602ed040dffc46ff275c609e3167122", "is_disabled": 0, "rental_uris": {"ios": "https://dc.lft.to/lastmile_qr_scan", "android": "https://dc.lft.to/lastmile_qr_scan"}, "is_reserved": 0}, {"lon": -77.02399333333334, "bike_id": "052f73582187a46c1ac5b29e7ecdc3b5", "lat": 38.881343333333334, "fusion_lon": 0.0, "fusion_lat": 0.0, "type": "electric_scooter", "name": "052f73582187a46c1ac5b29e7ecdc3b5", "is_disabled": 0, "rental_uris": {"ios": "https://dc.lft.to/lastmile_qr_scan", "android": "https://dc.lft.to/lastmile_qr_scan"}, "is_reserved": 0}, {"lon": -76.99473966666666, "bike_id": "0f782860353632b48b0022fedd48d208", "lat": 38.88268933333333, "fusion_lon": 0.0, "fusion_lat": 0.0, "type": "electric_scooter", "name": "0f782860353632b48b0022fedd48d208", "is_disabled": 0, "rental_uris": {"ios": "https://dc.lft.to/lastmile_qr_scan", "android": "https://dc.lft.to/lastmile_qr_scan"}, "is_reserved": 0}, {"lon": -77.03988683333333, "bike_id": "037887fd410b4c0b35ab55f6148e6d69", "lat": 38.933377166666666, "fusion_lon": 0.0, "fusion_lat": 0.0, "type": "electric_scooter", "name": "037887fd410b4c0b35ab55f6148e6d69", "is_disabled": 0, "rental_uris": {"ios": "https://dc.lft.to/lastmile_qr_scan", "android": "https://dc.lft.to/lastmile_qr_scan"}, "is_reserved": 0}, {"lon": -77.07061916666666, "bike_id": "dd8f5410d2a257222efb6e61c1da85bd", "lat": 38.894864, "fusion_lon": 0.0, "fusion_lat": 0.0, "type": "electric_bike", "name": "dd8f5410d2a257222efb6e61c1da85bd", "is_disabled": 0, "rental_uris": {"ios": "https://dc.lft.to/lastmile_qr_scan", "android": "https://dc.lft.to/lastmile_qr_scan"}, "is_reserved": 0}, {"lon": -77.0326155, "bike_id": "d951907c3dae5a5d857f1400a5f171df", "lat": 38.920987833333335, "fusion_lon": 0.0, "fusion_lat": 0.0, "type": "electric_scooter", "name": "d951907c3dae5a5d857f1400a5f171df", "is_disabled": 0, "rental_uris": {"ios": "https://dc.lft.to/lastmile_qr_scan", "android": "https://dc.lft.to/lastmile_qr_scan"}, "is_reserved": 0}, {"lon": -77.0328585, "bike_id": "501b25f8f96342a9d4e489dce7faffe3", "lat": 38.95642616666667, "fusion_lon": 0.0, "fusion_lat": 0.0, "type": "electric_scooter", "name": "501b25f8f96342a9d4e489dce7faffe3", "is_disabled": 0, "rental_uris": {"ios": "https://dc.lft.to/lastmile_qr_scan", "android": "https://dc.lft.to/lastmile_qr_scan"}, "is_reserved": 0},