{"data": {"bikes": [{"name": "fb5df8e729b3632dcad6557660ae5e4b", "lat": 38.91412733333333, "lon": -77.00970283333334, "fusion_lon": 0.0, "bike_id": "fb5df8e729b3632dcad6557660ae5e4b", "rental_uris": {"android": "https://dc.lft.to/lastmile_qr_scan", "ios": "https://dc.lft.to/lastmile_qr_scan"}, "is_reserved": 0, "type": "electric_scooter", "is_disabled": 0, "fusion_lat": 0.0}, {"name": "a108c1719a3c0a785f1d79af28572bf2", "lat": 38.902827333333335, "lon": -77.036465, "fusion_lon": 0.0, "bike_id": "a108c1719a3c0a785f1d79af28572bf2", "rental_uris": {"android": "https://dc.lft.to/lastmile_qr_scan", "ios": "https://dc.lft.to/lastmile_qr_scan"}, "is_reserved": 0, "type": "electric_scooter", "is_disabled": 0, "fusion_lat": 0.0}, {"name": "f989ab17068004c5598139f0a4c20954", "lat": 38.89041683333333, "lon": -76.9375175, "fusion_lon": 0.0, "bike_id": "f989ab17068004c5598139f0a4c20954", "rental_uris": {"android": "https://dc.lft.to/lastmile_qr_scan", "ios": "https://dc.lft.to/lastmile_qr_scan"}, "is_reserved": 0, "type": "electric_scooter", "is_disabled": 0, "fusion_lat": 0.0}, {"name": "9bfaa7779524f1dc5b8b482672e45719", "lat": 38.90672466666667, "lon": -77.02703783333334, "fusion_lon": 0.0, "bike_id": "9bfaa7779524f1dc5b8b482672e45719", "rental_uris": {"android": "https://dc.lft.to/lastmile_qr_scan", "ios": "https://dc.lft.to/lastmile_qr_scan"}, "is_reserved": 0, "type": "electric_scooter", "is_disabled": 0, "fusion_lat": 0.0}, {"name": "58fe29491a601a6a2738e298edde8c6e", "lat": 38.931693, "lon": -77.07072583333333, "fusion_lon": 0.0, "bike_id": "58fe29491a601a6a2738e298edde8c6e", "rental_uris": {"android": "https://dc.lft.to/lastmile_qr_scan", "ios": "https://dc.lft.to/lastmile_qr_scan"}, "is_reserved": 0, "type": "electric_scooter", "is_disabled": 0, "fusion_lat": 0.0}, {"name": "9f3b64a82dfd779a279b944b3d7bad55", "lat": 38.90242833333333, "lon": -77.017961, "fusion_lon": 0.0, "bike_id": "9f3b64a82dfd779a279b944b3d7bad55", "rental_uris": {"android": "https://dc.lft.to/lastmile_qr_scan", "ios": "https://dc.lft.to/lastmile_qr_scan"}, "is_reserved": 0, "type": "electric_scooter", "is_disabled": 0, "fusion_lat": 0.0}, {"name": "03ac563939b6678aaa234c6e78946b16", "lat": 38.9180615, "lon": -77.02491433333333, "fusion_lon": 0.0, "bike_id": "03ac563939b6678aaa234c6e78946b16", "rental_uris": {"android": "https://dc.lft.to/lastmile_qr_scan", "ios": "https://dc.lft.to/lastmile_qr_scan"}, "is_reserved": 0, "type": "electric_scooter", "is_disabled": 0, "fusion_lat": 0.0}, {"name": "8d4f9a0c9d7f77684edddfa24333271e", "lat": 38.918135166666666, "lon": -77.03462333333333, "fusion_lon": 0.0, "bike_id": "8d4f9a0c9d7f77684edddfa24333271e", "rental_uris": {"android": "https://dc.lft.to/lastmile_qr_scan", "ios": "https://dc.lft.to/lastmile_qr_scan"}, "is_reserved": 0, "type": "electric_scooter", "is_disabled": 0, "fusion_lat": 0.0}, {"name": "d5ded9c87c34b76cd4a5252561b980a0", "lat": 38.9239115, "lon": -77.08036316666667, "fusion_lon": 0.0, "bike_id": "d5ded9c87c34b76cd4a5252561b980a0", "rental_uris": {"android": "https://dc.lft.to/lastmile_qr_scan", "ios": "https://dc.lft.to/lastmile_qr_scan"}, "is_reserved": 0, "type": "electric_scooter", "is_disabled": 0, "fusion_lat": 0.0}, {"name": "220ae62e0c099cd984b945c53aac3790", "lat": 38.901282333333334, "lon": -76.9987855, "fusion_lon": 0.0, "bike_id": "220ae62e0c099cd984b945c53aac3790", "rental_uris": {"android": "https://dc.lft.to/lastmile_qr_scan", "ios": "https://dc.lft.to/lastmile_qr_scan"}, "is_reserved": 0, "type": "electric_scooter", "is_disabled": 0, "fusion_lat": 0.0}, {"name": "c95011394527de0f60b086d5de0b9310", "lat": 38.928152833333336, "lon": -77.02901966666667, "fusion_lon": 0.0, "bike_id": "c95011394527de0f60b086d5de0b9310", "rental_uris": {"android": "https://dc.lft.to/lastmile_qr_scan", "ios": "https://dc.lft.to/lastmile_qr_scan"}, "is_reserved": 0, "type": "electric_scooter", "is_disabled": 0, "fusion_lat": 0.0}, {"name": "e24d7dd9a99da485a40e11381b31f9a1", "lat": 38.89526516666667, "lon": -77.0219985, "fusion_lon": 0.0, "bike_id": "e24d7dd9a99da485a40e11381b31f9a1", "rental_uris": {"android": "https://dc.lft.to/lastmile_qr_scan", "ios": "https://dc.lft.to/lastmile_qr_scan"}, "is_reserved": 0, "type": "electric_scooter", "is_disabled": 0, "fusion_lat": 0.0}, {"name": "4ddff0d5e6b9eb130368fed2d8e6da56", "lat": 38.92065916666667, "lon": -77.0424565, "fusion_lon": 0.0, "bike_id": "4ddff0d5e6b9eb130368fed2d8e6da56", "rental_uris": {"android": "https://dc.lft.to/lastmile_qr_scan", "ios": "https://dc.lft.to/lastmile_qr_scan"}, "is_reserved": 0, "type": "electric_scooter", "is_disabled": 0, "fusion_lat": 0.0}, {"name": "a6e0bcb5ca2e411c8b6fed46e1cdcfd8", "lat": 38.923534, "lon": -77.04147583333334, "fusion_lon": 0.0, "bike_id": "a6e0bcb5ca2e411c8b6fed46e1cdcfd8", "rental_uris": {"android": "https://dc.lft.to/lastmile_qr_scan", "ios": "https://dc.lft.to/lastmile_qr_scan"}, "is_reserved": 0, "type": "electric_scooter", "is_disabled": 0, "fusion_lat": 0.0}, {"name": "cca76eda07036b4598c9b4f09baf6e94", "lat": 38.898494, "lon": -77.05296116666666, "fusion_lon": 0.0, "bike_id": "cca76eda07036b4598c9b4f09baf6e94", "rental_uris": {"android": "https://dc.lft.to/lastmile_qr_scan", "ios": "https://dc.lft.to/lastmile_qr_scan"}, "is_reserved": 0, "type": "electric_bike", "is_disabled": 0, "fusion_lat": 0.0}, {"name": "236b847e7182aee13c55a11209dbf5e5", "lat": 38.9142575, "lon": -77.03181466666666, "fusion_lon": 0.0, "bike_id": "236b847e7182aee13c55a11209dbf5e5", "rental_uris": {"android": "https://dc.lft.to/lastmile_qr_scan", "ios": "https://dc.lft.to/lastmile_qr_scan"}, "is_reserved": 0, "type": "electric_scooter", "is_disabled": 0, "fusion_lat": 0.0}, {"name": "950789ee51f82d77b542167f81fdf121", "lat": 38.91471216666667, "lon": -77.03881083333333, "fusion_lon": 0.0, "bike_id": "950789ee51f82d77b542167f81fdf121", "rental_uris": {"android": "https://dc.lft.to/lastmile_qr_scan", "ios": "https://dc.lft.to/lastmile_qr_scan"}, "is_reserved": 0, "type": "electric_scooter", "is_disabled": 0, "fusion_lat": 0.0}, {"name": "0a712b1f5a8c5e12f3dbc9427c3cd1dc", "lat": 38.9023915, "lon": -77.00198933333333, "fusion_lon": 0.0, "bike_id": "0a712b1f5a8c5e12f3dbc9427c3cd1dc", "rental_uris": {"android": "https://dc.lft.to/lastmile_qr_scan", "ios": "https://dc.lft.to/lastmile_qr_scan"}, "is_reserved": 0, "type": "electric_scooter", "is_disabled": 0, "fusion_lat": 0.0}, {"name": "111cef74c076e1e628c1846dbac482be", "lat": 38.915499833333335, "lon": -77.029717, "fusion_lon": 0.0, "bike_id": "111cef74c076e1e628c1846dbac482be", "rental_uris": {"android": "https://dc.lft.to/lastmile_qr_scan", "ios": "https://dc.lft.to/lastmile_qr_scan"}, "is_reserved": 0, "type": "electric_scooter", "is_disabled": 0, "fusion_lat": 0.0}, {"name": "4e71c0a854d8dcf6514c4a83f90db87a", "lat": 38.911036333333335, "lon": -77.04830583333333, "fusion_lon": 0.0, "bike_id": "4e71c0a854d8dcf6514c4a83f90db87a", "rental_uris": {"android": "https://dc.lft.to/lastmile_qr_scan", "ios": "https://dc.lft.to/lastmile_qr_scan"}, "is_reserved": 0, "type": "electric_scooter", "is_disabled": 0, "fusion_lat": 0.0}, {"name": "941d957017fbebecc627d0d50b309768", "lat": 38.9572425, "lon": -77.00239416666666, "fusion_lon": 0.0, "bike_id": "941d957017fbebecc627d0d50b309768", "rental_uris": {"android": "https://dc.lft.to/lastmile_qr_scan", "ios": "https://dc.lft.to/lastmile_qr_scan"}, "is_reserved": 0, "type": "electric_scooter", "is_disabled": 0, "fusion_lat": 0.0}, {"name": "d02666334c521c8207c3e4766f2a49c7", "lat": 38.894922333333334, "lon": -77.01118416666667, "fusion_lon": 0.0, "bike_id": "d02666334c521c8207c3e4766f2a49c7", "rental_uris": {"android": "https://dc.lft.to/lastmile_qr_scan", "ios": "https://dc.lft.to/lastmile_qr_scan"}, "is_reserved": 0, "type": "electric_scooter", "is_disabled": 0, "fusion_lat": 0.0}, {"name": "121848e34c416e6221510c7220e33ee1", "lat": 38.90361566666667, "lon": -77.04343, "fusion_lon": 0.0, "bike_id": "121848e34c416e6221510c7220e33ee1", "rental_uris": {"android": "https://dc.lft.to/lastmile_qr_scan", "ios": "https://dc.lft.to/lastmile_qr_scan"}, "is_reserved": 0, "type": "electric_scooter", "is_disabled": 0, "fusion_lat": 0.0}, {"name": "1ef7bbf725df9fe8ec158822543f257e", "lat": 38.914233, "lon": -77.03201533333333, "fusion_lon": 0.0, "bike_id": "1ef7bbf725df9fe8ec158822543f257e", "rental_uris": {"android": "https://dc.lft.to/lastmile_qr_scan", "ios": "https://dc.lft.to/lastmile_qr_scan"}, "is_reserved": 0, "type": "electric_scooter", "is_disabled": 0, "fusion_lat": 0.0}, {"name": "debadbed26c5ce1d9e5a4541b9d466fa", "lat": 38.89742866666667, "lon": -77.0468275, "fusion_lon": 0.0, "bike_id": "debadbed26c5ce1d9e5a4541b9d466fa", "rental_uris": {"android": "https://dc.lft.to/lastmile_qr_scan", "ios": "https://dc.lft.to/lastmile_qr_scan"}, "is_reserved": 0, "type": "electric_scooter", "is_disabled": 0, "fusion_lat": 0.0}, {"name": "e0b607626d060623216ec609a52f791c", "lat": 38.928637333333334, "lon": -77.03384366666667, "fusion_lon": 0.0, "bike_id": "e0b607626d060623216ec609a52f791c", "rental_uris": {"android": "https://dc.lft.to/lastmile_qr_scan", "ios": "https://dc.lft.to/lastmile_qr_scan"}, "is_reserved": 0, "type": "electric_scooter", "is_disabled": 0, "fusion_lat": 0.0}, {"name": "40c384340cef4e7bd40e3eff4c67f3d6", "lat": 38.907341833333334, "lon": -76.98695133333334, "fusion_lon": 0.0, "bike_id": "40c384340cef4e7bd40e3eff4c67f3d6", "rental_uris": {"android": "https://dc.lft.to/lastmile_qr_scan", "ios": "https://dc.lft.to/lastmile_qr_scan"}, "is_reserved": 0, "type": "electric_scooter", "is_disabled": 0, "fusion_lat": 0.0}, {"name": "72d50f74c51d1bdd6f331a03d1a75655", "lat": 38.91066083333333, "lon": -77.041055, "fusion_lon": 0.0, "bike_id": "72d50f74c51d1bdd6f331a03d1a75655", "rental_uris": {"android": "https://dc.lft.to/lastmile_qr_scan", "ios": "https://dc.lft.to/lastmile_qr_scan"}, "is_reserved": 0, "type": "electric_scooter", "is_disabled": 0, "fusion_lat": 0.0}, {"name": "9cd0a46d9d6f81d80e1e37d5c668310d", "lat": 38.920909333333334, "lon": -76.99411833333333, "fusion_lon": 0.0, "bike_id": "9cd0a46d9d6f81d80e1e37d5c668310d", "rental_uris": {"android": "https://dc.lft.to/lastmile_qr_scan", "ios": "https://dc.lft.to/lastmile_qr_scan"}, "is_reserved": 0, "type": "electric_scooter", "is_disabled": 0, "fusion_lat": 0.0}, {"name": "025567cde03c5238ed3e21b189a829e2", "lat": 38.8381315, "lon": -77.09519966666667, "fusion_lon": 0.0, "bike_id": "025567cde03c5238ed3e21b189a829e2", "rental_uris": {"android": "https://dc.lft.to/lastmile_qr_scan", "ios": "https://dc.lft.to/lastmile_qr_scan"}, "is_reserved": 0, "type": "electric_bike", "is_disabled": 0, "fusion_lat": 0.0}, {"name": "474b0af6260624080d8ba63b31b0f672", "lat": 38.95116816666667, "lon": -76.9692845, "fusion_lon": 0.0, "bike_id": "474b0af6260624080d8ba63b31b0f672", "rental_uris": {"android": "https://dc.lft.to/lastmile_qr_scan", "ios": "https://dc.lft.to/lastmile_qr_scan"}, "is_reserved": 0, "type": "electric_bike", "is_disabled": 0, "fusion_lat": 0.0}, {"name": "c9ec8969d0452791ad01c51b3afc5d25", "lat": 38.862573833333336, "lon": -76.99547983333333, "fusion_lon": 0.0, "bike_id": "c9ec8969d0452791ad01c51b3afc5d25", "rental_uris": {"android": "https://dc.lft.to/lastmile_qr_scan", "ios": "https://dc.lft.to/lastmile_qr_scan"}, "is_reserved": 0, "type": "electric_scooter", "is_disabled": 0, "fusion_lat": 0.0}, {"name": "e1bfd0471a02f1e908980d28ac77f07d", "lat": 38.910181333333334, "lon": -77.227955, "fusion_lon": 0.0, "bike_id": "e1bfd0471a02f1e908980d28ac77f07d", "rental_uris": {"android": "https://dc.lft.to/lastmile_qr_scan", "ios": "https://dc.lft.to/lastmile_qr_scan"}, "is_reserved": 0, "type": "electric_bike", "is_disabled": 0, "fusion_lat": 0.0}, {"name": "df3c4710e274ce9e407213a44f46aa6f", "lat": 38.90554983333333, "lon": -77.04297566666666, "fusion_lon": 0.0, "bike_id": "df3c4710e274ce9e407213a44f46aa6f", "rental_uris": {"android": "https://dc.lft.to/lastmile_qr_scan", "ios": "https://dc.lft.to/lastmile_qr_scan"}, "is_reserved": 0, "type": "electric_scooter", "is_disabled": 0, "fusion_lat": 0.0}, {"name": "02913c9dab5ca64ac96f1d5496d61c69", "lat": 38.97494783333333, "lon": -77.01692633333333, "fusion_lon": 0.0, "bike_id": "02913c9dab5ca64ac96f1d5496d61c69", "rental_uris": {"android": "https://dc.lft.to/lastmile_qr_scan", "ios": "https://dc.lft.to/lastmile_qr_scan"}, "is_reserved": 0, "type": "electric_scooter", "is_disabled": 0, "fusion_lat": 0.0}, {"name": "cb0cbfd633cb59b5264a2036523f3a61", "lat": 38.912607, "lon": -77.0400315, "fusion_lon": 0.0, "bike_id": "cb0cbfd633cb59b5264a2036523f3a61", "rental_uris": {"android": "https://dc.lft.to/lastmile_qr_scan", "ios": "https://dc.lft.to/lastmile_qr_scan"}, "is_reserved": 0, "type": "electric_scooter", "is_disabled": 0, "fusion_lat": 0.0}, {"name": "03a2739139484229d5822bdb1e074a4d", "lat": 38.89532116666667, "lon": -77.03206216666666, "fusion_lon": 0.0, "bike_id": "03a2739139484229d5822bdb1e074a4d", "rental_uris": {"android": "https://dc.lft.to/lastmile_qr_scan", "ios": "https://dc.lft.to/lastmile_qr_scan"}, "is_reserved": 0, "type": "electric_scooter", "is_disabled": 0, "fusion_lat": 0.0}, {"name": "a923767eae94c9ea7513e74552deccff", "lat": 38.934839, "lon": -77.07267083333333, "fusion_lon": 0.0, "bike_id": "a923767eae94c9ea7513e74552deccff", "rental_uris": {"android": "https://dc.lft.to/lastmile_qr_scan", "ios": "https://dc.lft.to/lastmile_qr_scan"}, "is_reserved": 0, "type": "electric_scooter", "is_disabled": 0, "fusion_lat": 0.0}, {"name": "e46d6ddf9f8882dbe83b54dd5212abc4", "lat": 38.91027066666667, "lon": -76.9853505, "fusion_lon": 0.0, "bike_id": "e46d6ddf9f8882dbe83b54dd5212abc4", "rental_uris": {"android": "https://dc.lft.to/lastmile_qr_scan", "ios": "https://dc.lft.to/lastmile_qr_scan"}, "is_reserved": 0, "type": "electric_scooter", "is_disabled": 0, "fusion_lat": 0.0}, {"name": "a8c69bbbe3eadde1dc9e0ee445b70885", "lat": 38.84459783333333, "lon": -76.9874635, "fusion_lon": 0.0, "bike_id": "a8c69bbbe3eadde1dc9e0ee445b70885", "rental_uris": {"android": "https://dc.lft.to/lastmile_qr_scan", "ios": "https://dc.lft.to/lastmile_qr_scan"}, "is_reserved": 0, "type": "electric_scooter", "is_disabled": 0, "fusion_lat": 0.0}, {"name": "bd32c27d332e6def95d35abfe765917e", "lat": 38.90384316666667, "lon": -77.036426, "fusion_lon": 0.0, "bike_id": "bd32c27d332e6def95d35abfe765917e", "rental_uris": {"android": "https://dc.lft.to/lastmile_qr_scan", "ios": "https://dc.lft.to/lastmile_qr_scan"}, "is_reserved": 0, "type": "electric_scooter", "is_disabled": 0, "fusion_lat": 0.0}, {"name": "d78e52a9592240f9046c37d6a13af8e2", "lat": 38.94004433333333, "lon": -77.02483933333333, "fusion_lon": 0.0, "bike_id": "d78e52a9592240f9046c37d6a13af8e2", "rental_uris": {"android": "https://dc.lft.to/lastmile_qr_scan", "ios": "https://dc.lft.to/lastmile_qr_scan"}, "is_reserved": 0, "type": "electric_bike", "is_disabled": 0, "fusion_lat": 0.0}, {"name": "b87fa1a197dc2aa059f31976efc9a77c", "lat": 38.923456, "lon": -77.05119233333333, "fusion_lon": 0.0, "bike_id": "b87fa1a197dc2aa059f31976efc9a77c", "rental_uris": {"android": "https://dc.lft.to/lastmile_qr_scan", "ios": "https://dc.lft.to/lastmile_qr_scan"}, "is_reserved": 0, "type": "electric_scooter", "is_disabled": 0, "fusion_lat": 0.0}, {"name": "d0348b215a39a95e55c3e490390ea140", "lat": 38.913428833333334, "lon": -77.028859, "fusion_lon": 0.0, "bike_id": "d0348b215a39a95e55c3e490390ea140", "rental_uris": {"android": "https://dc.lft.to/lastmile_qr_scan", "ios": "https://dc.lft.to/lastmile_qr_scan"}, "is_reserved": 0, "type": "electric_scooter", "is_disabled": 0, "fusion_lat": 0.0}, {"name": "c8eebd068d0a43370a46b8ab960f9b1e", "lat": 38.9086335, "lon": -77.0859565, "fusion_lon": 0.0, "bike_id": "c8eebd068d0a43370a46b8ab960f9b1e", "rental_uris": {"android": "https://dc.lft.to/lastmile_qr_scan", "ios": "https://dc.lft.to/lastmile_qr_scan"}, "is_reserved": 0, "type": "electric_scooter", "is_disabled": 0, "fusion_lat": 0.0}, {"name": "578ff627ecb5a702d08fb48c170527f3", "lat": 38.89997183333333, "lon": -76.99640416666666, "fusion_lon": 0.0, "bike_id": "578ff627ecb5a702d08fb48c170527f3", "rental_uris": {"android": "https://dc.lft.to/lastmile_qr_scan", "ios": "https://dc.lft.to/lastmile_qr_scan"}, "is_reserved": 0, "type": "electric_scooter", "is_disabled": 0, "fusion_lat": 0.0}, {"name": "ce54de88f5cea3c6104c7b62601a2b38", "lat": 38.893163333333334, "lon": -77.01792783333333, "fusion_lon": 0.0, "bike_id": "ce54de88f5cea3c6104c7b62601a2b38", "rental_uris": {"android": "https://dc.lft.to/lastmile_qr_scan", "ios": "https://dc.lft.to/lastmile_qr_scan"}, "is_reserved": 0, "type": "electric_scooter", "is_disabled": 0, "fusion_lat": 0.0}, {"name": "baac5b3a64aba5b1854305ba101373d9", "lat": 38.931427666666664, "lon": -77.02601316666667, "fusion_lon": 0.0, "bike_id": "baac5b3a64aba5b1854305ba101373d9", "rental_uris": {"android": "https://dc.lft.to/lastmile_qr_scan", "ios": "https://dc.lft.to/lastmile_qr_scan"}, "is_reserved": 0, "type": "electric_scooter", "is_disabled": 0, "fusion_lat": 0.0}, {"name": "d6f66dc6c636044618550ec58ffe7e2d", "lat": 38.89387166666667, "lon": -76.95020516666666, "fusion_lon": 0.0, "bike_id": "d6f66dc6c636044618550ec58ffe7e2d", "rental_uris": {"android": "https://dc.lft.to/lastmile_qr_scan", "ios": "https://dc.lft.to/lastmile_qr_scan"}, "is_reserved": 0, "type": "electric_scooter", "is_disabled": 0, "fusion_lat": 0.0}, {"name": "5b3ef6c25694aef0d2fb888653261617", "lat": 38.9105245, "lon": -77.04358933333333, "fusion_lon": 0.0, "bike_id": "5b3ef6c25694aef0d2fb888653261617", "rental_uris": {"android": "https://dc.lft.to/lastmile_qr_scan", "ios": "https://dc.lft.to/lastmile_qr_scan"}, "is_reserved": 0, "type": "electric_scooter", "is_disabled": 0, "fusion_lat": 0.0}, {"name": "e626d8534a390474573224502112ef03", "lat": 38.902748, "lon": -77.045382, "fusion_lon": 0.0, "bike_id": "e626d8534a390474573224502112ef03", "rental_uris": {"android": "https://dc.lft.to/lastmile_qr_scan", "ios": "https://dc.lft.to/lastmile_qr_scan"}, "is_reserved": 0, "type": "electric_scooter", "is_disabled": 0, "fusion_lat": 0.0}, {"name": "220bc4a067cbe4501c7a97ec9337eb7a", "lat": 38.94885683333333, "lon": -77.02690966666667, "fusion_lon": 0.0, "bike_id": "220bc4a067cbe4501c7a97ec9337eb7a", "rental_uris": {"android": "https://dc.lft.to/lastmile_qr_scan", "ios": "https://dc.lft.to/lastmile_qr_scan"}, "is_reserved": 0, "type": "electric_scooter", "is_disabled": 0, "fusion_lat": 0.0}, {"name": "b20413e9d7a18454003c89295c96621c", "lat": 38.952580166666664, "lon": -77.02538483333333, "fusion_lon": 0.0, "bike_id": "b20413e9d7a18454003c89295c96621c", "rental_uris": {"android": "https://dc.lft.to/lastmile_qr_scan", "ios": "https://dc.lft.to/lastmile_qr_scan"}, "is_reserved": 0, "type": "electric_scooter", "is_disabled": 0, "fusion_lat": 0.0}, {"name": "7f57d65afc7741b4d1cebf67f06f11fe", "lat": 38.934487833333336, "lon": -76.96467766666666, "fusion_lon": 0.0, "bike_id": "7f57d65afc7741b4d1cebf67f06f11fe", "rental_uris": {"android": "https://dc.lft.to/lastmile_qr_scan", "ios": "https://dc.lft.to/lastmile_qr_scan"}, "is_reserved": 0, "type": "electric_scooter", "is_disabled": 0, "fusion_lat": 0.0}, {"name": "caf20cbea987c9e9ba4646e58454886c", "lat": 38.8760595, "lon": -77.00184633333333, "fusion_lon": 0.0, "bike_id": "caf20cbea987c9e9ba4646e58454886c", "rental_uris": {"android": "https://dc.lft.to/lastmile_qr_scan", "ios": "https://dc.lft.to/lastmile_qr_scan"}, "is_reserved": 0, "type": "electric_scooter", "is_disabled": 0, "fusion_lat": 0.0}, {"name": "8368875e1a37fcca459c9b4f07c893ef", "lat": 38.97574016666667, "lon": -77.01955016666666, "fusion_lon": 0.0, "bike_id": "8368875e1a37fcca459c9b4f07c893ef", "rental_uris": {"android": "https://dc.lft.to/lastmile_qr_scan", "ios": "https://dc.lft.to/lastmile_qr_scan"}, "is_reserved": 0, "type": "electric_bike", "is_disabled": 0, "fusion_lat": 0.0}, {"name": "21119f6dfc67d14de6be352356d15215", "lat": 38.96074, "lon": -77.02814016666666, "fusion_lon": 0.0, "bike_id": "21119f6dfc67d14de6be352356d15215", "rental_uris": {"android": "https://dc.lft.to/lastmile_qr_scan", "ios": "https://dc.lft.to/lastmile_qr_scan"}, "is_reserved": 0, "type": "electric_scooter", "is_disabled": 0, "fusion_lat": 0.0}, {"name": "69817f614c2367e915ef596957828c8a", "lat": 38.896999, "lon": -77.00490316666667, "fusion_lon": 0.0, "bike_id": "69817f614c2367e915ef596957828c8a", "rental_uris": {"android": "https://dc.lft.to/lastmile_qr_scan", "ios": "https://dc.lft.to/lastmile_qr_scan"}, "is_reserved": 0, "type": "electric_scooter", "is_disabled": 0, "fusion_lat": 0.0}, {"name": "2629da3d893d971b15fed2b95fcac5c2", "lat": 38.94005216666667, "lon": -77.07233616666667, "fusion_lon": 0.0, "bike_id": "2629da3d893d971b15fed2b95fcac5c2", "rental_uris": {"android": "https://dc.lft.to/lastmile_qr_scan", "ios": "https://dc.lft.to/lastmile_qr_scan"}, "is_reserved": 0, "type": "electric_scooter", "is_disabled": 0, "fusion_lat": 0.0}, {"name": "677ce7585a75e2431950954ee1014f31", "lat": 38.861258166666666, "lon": -76.98378083333333, "fusion_lon": 0.0, "bike_id": "677ce7585a75e2431950954ee1014f31", "rental_uris": {"android": "https://dc.lft.to/lastmile_qr_scan", "ios": "https://dc.lft.to/lastmile_qr_scan"}, "is_reserved": 0, "type": "electric_scooter", "is_disabled": 0, "fusion_lat": 0.0}, {"name": "eae0e14be12aabecba8c7f23c7a08807", "lat": 38.87629183333333, "lon": -77.00173283333334, "fusion_lon": 0.0, "bike_id": "eae0e14be12aabecba8c7f23c7a08807", "rental_uris": {"android": "https://dc.lft.to/lastmile_qr_scan", "ios": "https://dc.lft.to/lastmile_qr_scan"}, "is_reserved": 0, "type": "electric_scooter", "is_disabled": 0, "fusion_lat": 0.0}, {"name": "9b3204094cc8cbc925be82b8d9eb68f9", "lat": 38.89715416666667, "lon": -77.03359133333333, "fusion_lon": 0.0, "bike_id": "9b3204094cc8cbc925be82b8d9eb68f9", "rental_uris": {"android": "https://dc.lft.to/lastmile_qr_scan", "ios": "https://dc.lft.to/lastmile_qr_scan"}, "is_reserved": 0, "type": "electric_scooter", "is_disabled": 0, "fusion_lat": 0.0}, {"name": "d001f7f170aa2a713c474946c89ee247", "lat": 38.9019505, "lon": -77.0090215, "fusion_lon": 0.0, "bike_id": "d001f7f170aa2a713c474946c89ee247", "rental_uris": {"android": "https://dc.lft.to/lastmile_qr_scan", "ios": "https://dc.lft.to/lastmile_qr_scan"}, "is_reserved": 0, "type": "electric_scooter", "is_disabled": 0, "fusion_lat": 0.0}, {"name": "eaf5fda01349e37e61a9f413d63bc529", "lat": 38.89309883333333, "lon": -77.015084, "fusion_lon": 0.0, "bike_id": "eaf5fda01349e37e61a9f413d63bc529", "rental_uris": {"android": "https://dc.lft.to/lastmile_qr_scan", "ios": "https://dc.lft.to/lastmile_qr_scan"}, "is_reserved": 0, "type": "electric_scooter", "is_disabled": 0, "fusion_lat": 0.0}, {"name": "0f161f15dd90fe6a59c47dae392485d2", "lat": 38.88564616666667, "lon": -76.99629333333333, "fusion_lon": 0.0, "bike_id": "0f161f15dd90fe6a59c47dae392485d2", "rental_uris": {"android": "https://dc.lft.to/lastmile_qr_scan", "ios": "https://dc.lft.to/lastmile_qr_scan"}, "is_reserved": 0, "type": "electric_scooter", "is_disabled": 0, "fusion_lat": 0.0}, {"name": "5bc8e1fc6d5bc3b2fd4f7e43bccaa4aa", "lat": 38.91353016666667, "lon": -77.03180633333334, "fusion_lon": 0.0, "bike_id": "5bc8e1fc6d5bc3b2fd4f7e43bccaa4aa", "rental_uris": {"android": "https://dc.lft.to/lastmile_qr_scan", "ios": "https://dc.lft.to/lastmile_qr_scan"}, "is_reserved": 0, "type": "electric_scooter", "is_disabled": 0, "fusion_lat": 0.0}, {"name": "7fa4943088dd1b0190ffe96562895b7b", "lat": 38.895434, "lon": -76.99520183333334, "fusion_lon": 0.0, "bike_id": "7fa4943088dd1b0190ffe96562895b7b", "rental_uris": {"android": "https://dc.lft.to/lastmile_qr_scan", "ios": "https://dc.lft.to/lastmile_qr_scan"}, "is_reserved": 0, "type": "electric_scooter", "is_disabled": 0, "fusion_lat": 0.0}, {"name": "07228fbfddde962986ee37beca65ea1a", "lat": 38.88776816666667, "lon": -76.97710416666666, "fusion_lon": 0.0, "bike_id": "07228fbfddde962986ee37beca65ea1a", "rental_uris": {"android": "https://dc.lft.to/lastmile_qr_scan", "ios": "https://dc.lft.to/lastmile_qr_scan"}, "is_reserved": 0, "type": "electric_scooter", "is_disabled": 0, "fusion_lat": 0.0}, {"name": "dd08cf3e70eb6a76c59854ef4f2b0007", "lat": 38.89379483333333, "lon": -76.94818816666667, "fusion_lon": 0.0, "bike_id": "dd08cf3e70eb6a76c59854ef4f2b0007", "rental_uris": {"android": "https://dc.lft.to/lastmile_qr_scan", "ios": "https://dc.lft.to/lastmile_qr_scan"}, "is_reserved": 0, "type": "electric_bike", "is_disabled": 0, "fusion_lat": 0.0}, {"name": "eb67cd3e6c1f33b0fc79bc8123e6148e", "lat": 38.903707833333335, "lon": -77.01854516666667, "fusion_lon": 0.0, "bike_id": "eb67cd3e6c1f33b0fc79bc8123e6148e", "rental_uris": {"android": "https://dc.lft.to/lastmile_qr_scan", "ios": "https://dc.lft.to/lastmile_qr_scan"}, "is_reserved": 0, "type": "electric_scooter", "is_disabled": 0, "fusion_lat": 0.0}, {"name": "49fa4e67d44252dd350956bb1418c4a0", "lat": 38.8767715, "lon": -77.017997, "fusion_lon": 0.0, "bike_id": "49fa4e67d44252dd350956bb1418c4a0", "rental_uris": {"android": "https://dc.lft.to/lastmile_qr_scan", "ios": "https://dc.lft.to/lastmile_qr_scan"}, "is_reserved": 0, "type": "electric_scooter", "is_disabled": 0, "fusion_lat": 0.0}, {"name": "0f732d712c2c443fff4f77464d2ca471", "lat": 38.8592715, "lon": -76.96777033333333, "fusion_lon": 0.0, "bike_id": "0f732d712c2c443fff4f77464d2ca471", "rental_uris": {"android": "https://dc.lft.to/lastmile_qr_scan", "ios": "https://dc.lft.to/lastmile_qr_scan"}, "is_reserved": 0, "type": "electric_scooter", "is_disabled": 0, "fusion_lat": 0.0}, {"name": "edb48db175c66c7734db0cf362d8226e", "lat": 38.892197333333336, "lon": -77.046524, "fusion_lon": 0.0, "bike_id": "edb48db175c66c7734db0cf362d8226e", "rental_uris": {"android": "https://dc.lft.to/lastmile_qr_scan", "ios": "https://dc.lft.to/lastmile_qr_scan"}, "is_reserved": 0, "type": "electric_scooter", "is_disabled": 0, "fusion_lat": 0.0}, {"name": "f58396705f00cfa642905d14399d45bd", "lat": 38.86744916666667, "lon": -77.1170915, "fusion_lon": 0.0, "bike_id": "f58396705f00cfa642905d14399d45bd", "rental_uris": {"android": "https://dc.lft.to/lastmile_qr_scan", "ios": "https://dc.lft.to/lastmile_qr_scan"}, "is_reserved": 0, "type": "electric_bike", "is_disabled": 0, "fusion_lat": 0.0}, {"name": "0540c21c3ace45e40e01c28eede700cb", "lat": 38.944220333333334, "lon": -77.06331766666666, "fusion_lon": 0.0, "bike_id": "0540c21c3ace45e40e01c28eede700cb", "rental_uris": {"android": "https://dc.lft.to/lastmile_qr_scan", "ios": "https://dc.lft.to/lastmile_qr_scan"}, "is_reserved": 0, "type": "electric_scooter", "is_disabled": 0, "fusion_lat": 0.0}, {"name": "222554d1d1a62b7a028f38cd94fa9392", "lat": 38.91109483333334, "lon": -77.0450195, "fusion_lon": 0.0, "bike_id": "222554d1d1a62b7a028f38cd94fa9392", "rental_uris": {"android": "https://dc.lft.to/lastmile_qr_scan", "ios": "https://dc.lft.to/lastmile_qr_scan"}, "is_reserved": 0, "type": "electric_scooter", "is_disabled": 0, "fusion_lat": 0.0}, {"name": "4ee7c70161c02adca234bdc467f27a0e", "lat": 38.88268433333333, "lon": -77.003647, "fusion_lon": 0.0, "bike_id": "4ee7c70161c02adca234bdc467f27a0e", "rental_uris": {"android": "https://dc.lft.to/lastmile_qr_scan", "ios": "https://dc.lft.to/lastmile_qr_scan"}, "is_reserved": 0, "type": "electric_scooter", "is_disabled": 0, "fusion_lat": 0.0}, {"name": "32bf28e9c6951a3fea38dd482af01449", "lat": 38.87670116666666, "lon": -77.00596933333334, "fusion_lon": 0.0, "bike_id": "32bf28e9c6951a3fea38dd482af01449", "rental_uris": {"android": "https://dc.lft.to/lastmile_qr_scan", "ios": "https://dc.lft.to/lastmile_qr_scan"}, "is_reserved": 0, "type": "electric_scooter", "is_disabled": 0, "fusion_lat": 0.0}, {"name": "0f701b1eb700bcd32819b15ac10104e9", "lat": 38.91843216666667, "lon": -77.02328783333333, "fusion_lon": 0.0, "bike_id": "0f701b1eb700bcd32819b15ac10104e9", "rental_uris": {"android": "https://dc.lft.to/lastmile_qr_scan", "ios": "https://dc.lft.to/lastmile_qr_scan"}, "is_reserved": 0, "type": "electric_scooter", "is_disabled": 0, "fusion_lat": 0.0}, {"name": "9e0dfb61611775efbcec804b5e77d7e3", "lat": 38.90872916666667, "lon": -77.034613, "fusion_lon": 0.0, "bike_id": "9e0dfb61611775efbcec804b5e77d7e3", "rental_uris": {"android": "https://dc.lft.to/lastmile_qr_scan", "ios": "https://dc.lft.to/lastmile_qr_scan"}, "is_reserved": 0, "type": "electric_scooter", "is_disabled": 0, "fusion_lat": 0.0}, {"name": "714639597059c5277bb4dd066e960a7e", "lat": 38.89763666666666, "lon": -77.00743633333333, "fusion_lon": 0.0, "bike_id": "714639597059c5277bb4dd066e960a7e", "rental_uris": {"android": "https://dc.lft.to/lastmile_qr_scan", "ios": "https://dc.lft.to/lastmile_qr_scan"}, "is_reserved": 0, "type": "electric_scooter", "is_disabled": 0, "fusion_lat": 0.0}, {"name": "7cce97f9235d8f59a1eee63eb0b3140a", "lat": 38.90271466666667, "lon": -77.0617885, "fusion_lon": 0.0, "bike_id": "7cce97f9235d8f59a1eee63eb0b3140a", "rental_uris": {"android": "https://dc.lft.to/lastmile_qr_scan", "ios": "https://dc.lft.to/lastmile_qr_scan"}, "is_reserved": 0, "type": "electric_scooter", "is_disabled": 0, "fusion_lat": 0.0}, {"name": "6e5195b1807ea7f8f9b119c2068bdf8e", "lat": 38.900225166666665, "lon": -76.98875183333334, "fusion_lon": 0.0, "bike_id": "6e5195b1807ea7f8f9b119c2068bdf8e", "rental_uris": {"android": "https://dc.lft.to/lastmile_qr_scan", "ios": "https://dc.lft.to/lastmile_qr_scan"}, "is_reserved": 0, "type": "electric_scooter", "is_disabled": 0, "fusion_lat": 0.0}, {"name": "3b50450c3f8cfb406a06830a4ddc1c44", "lat": 38.884894833333334, "lon": -77.007248, "fusion_lon": 0.0, "bike_id": "3b50450c3f8cfb406a06830a4ddc1c44", "rental_uris": {"android": "https://dc.lft.to/lastmile_qr_scan", "ios": "https://dc.lft.to/lastmile_qr_scan"}, "is_reserved": 0, "type": "electric_scooter", "is_disabled": 0, "fusion_lat": 0.0}, {"name": "2a7dd4dd02f8c96a539fcb2a8402d82d", "lat": 38.90231883333333, "lon": -77.0163795, "fusion_lon": 0.0, "bike_id": "2a7dd4dd02f8c96a539fcb2a8402d82d", "rental_uris": {"android": "https://dc.lft.to/lastmile_qr_scan", "ios": "https://dc.lft.to/lastmile_qr_scan"}, "is_reserved": 0, "type": "electric_scooter", "is_disabled": 0, "fusion_lat": 0.0}, {"name": "dbcc65d48c0b6ebd0b91aa218bce9612", "lat": 38.880455166666664, "lon": -76.986294, "fusion_lon": 0.0, "bike_id": "dbcc65d48c0b6ebd0b91aa218bce9612", "rental_uris": {"android": "https://dc.lft.to/lastmile_qr_scan", "ios": "https://dc.lft.to/lastmile_qr_scan"}, "is_reserved": 0, "type": "electric_bike", "is_disabled": 0, "fusion_lat": 0.0}, {"name": "d4a431d3f2af690f05b351d853b0fd34", "lat": 38.930646, "lon": -77.032909, "fusion_lon": 0.0, "bike_id": "d4a431d3f2af690f05b351d853b0fd34", "rental_uris": {"android": "https://dc.lft.to/lastmile_qr_scan", "ios": "https://dc.lft.to/lastmile_qr_scan"}, "is_reserved": 0, "type": "electric_scooter", "is_disabled": 0, "fusion_lat": 0.0}, {"name": "88dc408b59f2954f76050c182d5ccdb7", "lat": 38.898151666666664, "lon": -76.99070333333333, "fusion_lon": 0.0, "bike_id": "88dc408b59f2954f76050c182d5ccdb7", "rental_uris": {"android": "https://dc.lft.to/lastmile_qr_scan", "ios": "https://dc.lft.to/lastmile_qr_scan"}, "is_reserved": 0, "type": "electric_bike", "is_disabled": 0, "fusion_lat": 0.0}, {"name": "26e5e24469656a64890caef6da5c6d6f", "lat": 38.8953075, "lon": -77.02186133333333, "fusion_lon": 0.0, "bike_id": "26e5e24469656a64890caef6da5c6d6f", "rental_uris": {"android": "https://dc.lft.to/lastmile_qr_scan", "ios": "https://dc.lft.to/lastmile_qr_scan"}, "is_reserved": 0, "type": "electric_scooter", "is_disabled": 0, "fusion_lat": 0.0}, {"name": "642cb50ffacdb6ca2b7470d658f317c5", "lat": 38.914638333333336, "lon": -77.0318325, "fusion_lon": 0.0, "bike_id": "642cb50ffacdb6ca2b7470d658f317c5", "rental_uris": {"android": "https://dc.lft.to/lastmile_qr_scan", "ios": "https://dc.lft.to/lastmile_qr_scan"}, "is_reserved": 0, "type": "electric_scooter", "is_disabled": 0, "fusion_lat": 0.0}, {"name": "afe432aedb4946531c72c6907c2287ce", "lat": 38.892226666666666, "lon": -77.022248, "fusion_lon": 0.0, "bike_id": "afe432aedb4946531c72c6907c2287ce", "rental_uris": {"android": "https://dc.lft.to/lastmile_qr_scan", "ios": "https://dc.lft.to/lastmile_qr_scan"}, "is_reserved": 0, "type": "electric_scooter", "is_disabled": 0, "fusion_lat": 0.0}, {"name": "267a2fde2dbd4579117af254d11ab972", "lat": 38.921865833333335, "lon": -77.02034316666666, "fusion_lon": 0.0, "bike_id": "267a2fde2dbd4579117af254d11ab972", "rental_uris": {"android": "https://dc.lft.to/lastmile_qr_scan", "ios": "https://dc.lft.to/lastmile_qr_scan"}, "is_reserved": 0, "type": "electric_scooter", "is_disabled": 0, "fusion_lat": 0.0}, {"name": "0885e41151dba00dd98321600d842942", "lat": 38.91942516666667, "lon": -77.03434466666667, "fusion_lon": 0.0, "bike_id": "0885e41151dba00dd98321600d842942", "rental_uris": {"android": "https://dc.lft.to/lastmile_qr_scan", "ios": "https://dc.lft.to/lastmile_qr_scan"}, "is_reserved": 0, "type": "electric_scooter", "is_disabled": 0, "fusion_lat": 0.0}, {"name": "beecb108c614255d97e8c59e164336d4", "lat": 38.9156235, "lon": -77.0116395, "fusion_lon": 0.0, "bike_id": "beecb108c614255d97e8c59e164336d4", "rental_uris": {"android": "https://dc.lft.to/lastmile_qr_scan", "ios": "https://dc.lft.to/lastmile_qr_scan"}, "is_reserved": 0, "type": "electric_scooter", "is_disabled": 0, "fusion_lat": 0.0}, {"name": "a75aa47b82e4b3a38ce385110ba7509b", "lat": 38.89699066666667, "lon": -77.02680583333333, "fusion_lon": 0.0, "bike_id": "a75aa47b82e4b3a38ce385110ba7509b", "rental_uris": {"android": "https://dc.lft.to/lastmile_qr_scan", "ios": "https://dc.lft.to/lastmile_qr_scan"}, "is_reserved": 0, "type": "electric_scooter", "is_disabled": 0, "fusion_lat": 0.0}, {"name": "60b5fce5cbc290f18dd304074b12685d", "lat": 38.93937833333333, "lon": -77.05262133333333, "fusion_lon": 0.0, "bike_id": "60b5fce5cbc290f18dd304074b12685d", "rental_uris": {"android": "https://dc.lft.to/lastmile_qr_scan", "ios": "https://dc.lft.to/lastmile_qr_scan"}, "is_reserved": 0, "type": "electric_scooter", "is_disabled": 0, "fusion_lat": 0.0}, {"name": "429afdc28a356118c6b5ca06c6991af4", "lat": 38.936402333333334, "lon": -77.07820016666666, "fusion_lon": 0.0, "bike_id": "429afdc28a356118c6b5ca06c6991af4", "rental_uris": {"android": "https://dc.lft.to/lastmile_qr_scan", "ios": "https://dc.lft.to/lastmile_qr_scan"}, "is_reserved": 0, "type": "electric_bike", "is_disabled": 0, "fusion_lat": 0.0}, {"name": "f55275113498b8fe1dbbee0aece89182", "lat": 38.89419433333333, "lon": -77.02621816666667, "fusion_lon": 0.0, "bike_id": "f55275113498b8fe1dbbee0aece89182", "rental_uris": {"android": "https://dc.lft.to/lastmile_qr_scan", "ios": "https://dc.lft.to/lastmile_qr_scan"}, "is_reserved": 0, "type": "electric_scooter", "is_disabled": 0, "fusion_lat": 0.0}, {"name": "85538e086620bd6c36541cb099b18226", "lat": 38.84282666666667, "lon": -76.9883865, "fusion_lon": 0.0, "bike_id": "85538e086620bd6c36541cb099b18226", "rental_uris": {"android": "https://dc.lft.to/lastmile_qr_scan", "ios": "https://dc.lft.to/lastmile_qr_scan"}, "is_reserved": 0, "type": "electric_bike", "is_disabled": 0, "fusion_lat": 0.0}, {"name": "0a8c7adaf5a45448dad49ea15f1ff364", "lat": 38.93156233333333, "lon": -77.04228983333333, "fusion_lon": 0.0, "bike_id": "0a8c7adaf5a45448dad49ea15f1ff364", "rental_uris": {"android": "https://dc.lft.to/lastmile_qr_scan", "ios": "https://dc.lft.to/lastmile_qr_scan"}, "is_reserved": 0, "type": "electric_scooter", "is_disabled": 0, "fusion_lat": 0.0}, {"name": "cae0147042cefcc60dec991d3471fe12", "lat": 38.918197666666664, "lon": -77.03254466666667, "fusion_lon": 0.0, "bike_id": "cae0147042cefcc60dec991d3471fe12", "rental_uris": {"android": "https://dc.lft.to/lastmile_qr_scan", "ios": "https://dc.lft.to/lastmile_qr_scan"}, "is_reserved": 0, "type": "electric_scooter", "is_disabled": 0, "fusion_lat": 0.0}, {"name": "bb95545bbde96815293ed9fdb03c66d6", "lat": 38.90636466666667, "lon": -77.02138966666666, "fusion_lon": 0.0, "bike_id": "bb95545bbde96815293ed9fdb03c66d6", "rental_uris": {"android": "https://dc.lft.to/lastmile_qr_scan", "ios": "https://dc.lft.to/lastmile_qr_scan"}, "is_reserved": 0, "type": "electric_scooter", "is_disabled": 0, "fusion_lat": 0.0}, {"name": "f4d7754b44383ef583f105a8bc8dd29b", "lat": 38.9247705, "lon": -77.02556816666667, "fusion_lon": 0.0, "bike_id": "f4d7754b44383ef583f105a8bc8dd29b", "rental_uris": {"android": "https://dc.lft.to/lastmile_qr_scan", "ios": "https://dc.lft.to/lastmile_qr_scan"}, "is_reserved": 0, "type": "electric_scooter", "is_disabled": 0, "fusion_lat": 0.0}, {"name": "8d61557f50eb1adc42b24997c5846c93", "lat": 38.952483, "lon": -76.97666366666667, "fusion_lon": 0.0, "bike_id": "8d61557f50eb1adc42b24997c5846c93", "rental_uris": {"android": "https://dc.lft.to/lastmile_qr_scan", "ios": "https://dc.lft.to/lastmile_qr_scan"}, "is_reserved": 0, "type": "electric_bike", "is_disabled": 0, "fusion_lat": 0.0}, {"name": "80f4997d0fd39587d933364a4aef27c9", "lat": 38.90232066666667, "lon": -77.05893583333334, "fusion_lon": 0.0, "bike_id": "80f4997d0fd39587d933364a4aef27c9", "rental_uris": {"android": "https://dc.lft.to/lastmile_qr_scan", "ios": "https://dc.lft.to/lastmile_qr_scan"}, "is_reserved": 0, "type": "electric_scooter", "is_disabled": 0, "fusion_lat": 0.0}, {"name": "17be4ff86934b2e85b2ac2aadfd0c785", "lat": 38.94186, "lon": -77.02490166666666, "fusion_lon": 0.0, "bike_id": "17be4ff86934b2e85b2ac2aadfd0c785", "rental_uris": {"android": "https://dc.lft.to/lastmile_qr_scan", "ios": "https://dc.lft.to/lastmile_qr_scan"}, "is_reserved": 0, "type": "electric_scooter", "is_disabled": 0, "fusion_lat": 0.0}, {"name": "3aa138958612996fbf865cb82de94be6", "lat": 38.91930033333333, "lon": -77.046413, "fusion_lon": 0.0, "bike_id": "3aa138958612996fbf865cb82de94be6", "rental_uris": {"android": "https://dc.lft.to/lastmile_qr_scan", "ios": "https://dc.lft.to/lastmile_qr_scan"}, "is_reserved": 0, "type": "electric_scooter", "is_disabled": 0, "fusion_lat": 0.0}, {"name": "ec3358d4020f0567cdd9fdc71fdf009f", "lat": 38.9393185, "lon": -77.03596483333334, "fusion_lon": 0.0, "bike_id": "ec3358d4020f0567cdd9fdc71fdf009f", "rental_uris": {"android": "https://dc.lft.to/lastmile_qr_scan", "ios": "https://dc.lft.to/lastmile_qr_scan"}, "is_reserved": 0, "type": "electric_scooter", "is_disabled": 0, "fusion_lat": 0.0}, {"name": "5575ac9fe5c4fcbf7d8eea3621740ba0", "lat": 38.905281, "lon": -76.983011, "fusion_lon": 0.0, "bike_id": "5575ac9fe5c4fcbf7d8eea3621740ba0", "rental_uris": {"android": "https://dc.lft.to/lastmile_qr_scan", "ios": "https://dc.lft.to/lastmile_qr_scan"}, "is_reserved": 0, "type": "electric_scooter", "is_disabled": 0, "fusion_lat": 0.0}, {"name": "c805f35310d6cca9f74c1d1e7783b6fa", "lat": 38.925201333333334, "lon": -77.03844966666666, "fusion_lon": 0.0, "bike_id": "c805f35310d6cca9f74c1d1e7783b6fa", "rental_uris": {"android": "https://dc.lft.to/lastmile_qr_scan", "ios": "https://dc.lft.to/lastmile_qr_scan"}, "is_reserved": 0, "type": "electric_scooter", "is_disabled": 0, "fusion_lat": 0.0}, {"name": "f8b684396b6574a5903237956be9617b", "lat": 38.9233055, "lon": -77.04308883333333, "fusion_lon": 0.0, "bike_id": "f8b684396b6574a5903237956be9617b", "rental_uris": {"android": "https://dc.lft.to/lastmile_qr_scan", "ios": "https://dc.lft.to/lastmile_qr_scan"}, "is_reserved": 0, "type": "electric_scooter", "is_disabled": 0, "fusion_lat": 0.0}, {"name": "7571c444fc171c79143d9155e47915ad", "lat": 38.8812, "lon": -77.01406666666666, "fusion_lon": 0.0, "bike_id": "7571c444fc171c79143d9155e47915ad", "rental_uris": {"android": "https://dc.lft.to/lastmile_qr_scan", "ios": "https://dc.lft.to/lastmile_qr_scan"}, "is_reserved": 0, "type": "electric_scooter", "is_disabled": 0, "fusion_lat": 0.0}, {"name": "8eaafd20cbabcd93196312a167427789", "lat": 38.886393166666664, "lon": -76.9960885, "fusion_lon": 0.0, "bike_id": "8eaafd20cbabcd93196312a167427789", "rental_uris": {"android": "https://dc.lft.to/lastmile_qr_scan", "ios": "https://dc.lft.to/lastmile_qr_scan"}, "is_reserved": 0, "type": "electric_scooter", "is_disabled": 0, "fusion_lat": 0.0}, {"name": "6ed616c0f846a43fe7a90045f54b02ec", "lat": 38.924093666666664, "lon": -77.0253645, "fusion_lon": 0.0, "bike_id": "6ed616c0f846a43fe7a90045f54b02ec", "rental_uris": {"android": "https://dc.lft.to/lastmile_qr_scan", "ios": "https://dc.lft.to/lastmile_qr_scan"}, "is_reserved": 0, "type": "electric_scooter", "is_disabled": 0, "fusion_lat": 0.0}, {"name": "d3cc02d30fcb1ae70197be9505689251", "lat": 38.836082, "lon": -77.00380066666666, "fusion_lon": 0.0, "bike_id": "d3cc02d30fcb1ae70197be9505689251", "rental_uris": {"android": "https://dc.lft.to/lastmile_qr_scan", "ios": "https://dc.lft.to/lastmile_qr_scan"}, "is_reserved": 0, "type": "electric_bike", "is_disabled": 0, "fusion_lat": 0.0}, {"name": "b313569b4893219715c035ef428b606a", "lat": 38.93205283333333, "lon": -77.03851566666667, "fusion_lon": 0.0, "bike_id": "b313569b4893219715c035ef428b606a", "rental_uris": {"android": "https://dc.lft.to/lastmile_qr_scan", "ios": "https://dc.lft.to/lastmile_qr_scan"}, "is_reserved": 0, "type": "electric_scooter", "is_disabled": 0, "fusion_lat": 0.0}, {"name": "9a9fb19561a3f4882d4aeece313a8dae", "lat": 38.90352566666667, "lon": -77.031756, "fusion_lon": 0.0, "bike_id": "9a9fb19561a3f4882d4aeece313a8dae", "rental_uris": {"android": "https://dc.lft.to/lastmile_qr_scan", "ios": "https://dc.lft.to/lastmile_qr_scan"}, "is_reserved": 0, "type": "electric_scooter", "is_disabled": 0, "fusion_lat": 0.0}, {"name": "3dff0bb90dd86c32ab4cbf3cab19b214", "lat": 38.922982166666664, "lon": -77.04268783333333, "fusion_lon": 0.0, "bike_id": "3dff0bb90dd86c32ab4cbf3cab19b214", "rental_uris": {"android": "https://dc.lft.to/lastmile_qr_scan", "ios": "https://dc.lft.to/lastmile_qr_scan"}, "is_reserved": 0, "type": "electric_scooter", "is_disabled": 0, "fusion_lat": 0.0}, {"name": "98f5cb538ca0af278b75ecc6d77c2260", "lat": 38.89889766666667, "lon": -77.01361683333333, "fusion_lon": 0.0, "bike_id": "98f5cb538ca0af278b75ecc6d77c2260", "rental_uris": {"android": "https://dc.lft.to/lastmile_qr_scan", "ios": "https://dc.lft.to/lastmile_qr_scan"}, "is_reserved": 0, "type": "electric_bike", "is_disabled": 0, "fusion_lat": 0.0}, {"name": "3f9d34ad87a99a5ad8931d253021d6f3", "lat": 38.902663, "lon": -77.01758416666667, "fusion_lon": 0.0, "bike_id": "3f9d34ad87a99a5ad8931d253021d6f3", "rental_uris": {"android": "https://dc.lft.to/lastmile_qr_scan", "ios": "https://dc.lft.to/lastmile_qr_scan"}, "is_reserved": 0, "type": "electric_scooter", "is_disabled": 0, "fusion_lat": 0.0}, {"name": "e6033b1076cc286070c4a788ceef4c73", "lat": 38.900339833333334, "lon": -77.01164216666666, "fusion_lon": 0.0, "bike_id": "e6033b1076cc286070c4a788ceef4c73", "rental_uris": {"android": "https://dc.lft.to/lastmile_qr_scan", "ios": "https://dc.lft.to/lastmile_qr_scan"}, "is_reserved": 0, "type": "electric_scooter", "is_disabled": 0, "fusion_lat": 0.0}, {"name": "814e982d697b59bcf076ce560dcb43ad", "lat": 38.928533333333334, "lon": -77.03289683333334, "fusion_lon": 0.0, "bike_id": "814e982d697b59bcf076ce560dcb43ad", "rental_uris": {"android": "https://dc.lft.to/lastmile_qr_scan", "ios": "https://dc.lft.to/lastmile_qr_scan"}, "is_reserved": 0, "type": "electric_scooter", "is_disabled": 0, "fusion_lat": 0.0}, {"name": "7acd09b319a7a8fe1aea7596d7b1ff58", "lat": 38.8946085, "lon": -77.02250316666667, "fusion_lon": 0.0, "bike_id": "7acd09b319a7a8fe1aea7596d7b1ff58", "rental_uris": {"android": "https://dc.lft.to/lastmile_qr_scan", "ios": "https://dc.lft.to/lastmile_qr_scan"}, "is_reserved": 0, "type": "electric_scooter", "is_disabled": 0, "fusion_lat": 0.0}, {"name": "a68a289df66bfbe96716123c3840ad71", "lat": 38.92614183333333, "lon": -77.0216025, "fusion_lon": 0.0, "bike_id": "a68a289df66bfbe96716123c3840ad71", "rental_uris": {"android": "https://dc.lft.to/lastmile_qr_scan", "ios": "https://dc.lft.to/lastmile_qr_scan"}, "is_reserved": 0, "type": "electric_scooter", "is_disabled": 0, "fusion_lat": 0.0}, {"name": "a84eadd7bcb1356e8fa051a427b15b77", "lat": 38.959576, "lon": -77.10089166666667, "fusion_lon": 0.0, "bike_id": "a84eadd7bcb1356e8fa051a427b15b77", "rental_uris": {"android": "https://dc.lft.to/lastmile_qr_scan", "ios": "https://dc.lft.to/lastmile_qr_scan"}, "is_reserved": 0, "type": "electric_bike", "is_disabled": 0, "fusion_lat": 0.0}, {"name": "3462fc4ee4c49cd793c0bf6b3fc0ca21", "lat": 38.90047883333333, "lon": -76.99856283333334, "fusion_lon": 0.0, "bike_id": "3462fc4ee4c49cd793c0bf6b3fc0ca21", "rental_uris": {"android": "https://dc.lft.to/lastmile_qr_scan", "ios": "https://dc.lft.to/lastmile_qr_scan"}, "is_reserved": 0, "type": "electric_scooter", "is_disabled": 0, "fusion_lat": 0.0}, {"name": "a78c82de9c41441b31f4a87b88cf0377", "lat": 38.9204005, "lon": -77.034068, "fusion_lon": 0.0, "bike_id": "a78c82de9c41441b31f4a87b88cf0377", "rental_uris": {"android": "https://dc.lft.to/lastmile_qr_scan", "ios": "https://dc.lft.to/lastmile_qr_scan"}, "is_reserved": 0, "type": "electric_scooter", "is_disabled": 0, "fusion_lat": 0.0}, {"name": "0982cdb41d5ec1d8325df72b246d220f", "lat": 38.880915333333334, "lon": -77.01646716666667, "fusion_lon": 0.0, "bike_id": "0982cdb41d5ec1d8325df72b246d220f", "rental_uris": {"android": "https://dc.lft.to/lastmile_qr_scan", "ios": "https://dc.lft.to/lastmile_qr_scan"}, "is_reserved": 0, "type": "electric_scooter", "is_disabled": 0, "fusion_lat": 0.0}, {"name": "e0fc3cafc76e1d8e9ba6ecd78ff212c1", "lat": 38.89914666666667, "lon": -76.93364383333333, "fusion_lon": 0.0, "bike_id": "e0fc3cafc76e1d8e9ba6ecd78ff212c1", "rental_uris": {"android": "https://dc.lft.to/lastmile_qr_scan", "ios": "https://dc.lft.to/lastmile_qr_scan"}, "is_reserved": 0, "type": "electric_scooter", "is_disabled": 0, "fusion_lat": 0.0}, {"name": "789048f58469043f3b6f595397e49c3c", "lat": 38.924752833333336, "lon": -77.03785166666667, "fusion_lon": 0.0, "bike_id": "789048f58469043f3b6f595397e49c3c", "rental_uris": {"android": "https://dc.lft.to/lastmile_qr_scan", "ios": "https://dc.lft.to/lastmile_qr_scan"}, "is_reserved": 0, "type": "electric_scooter", "is_disabled": 0, "fusion_lat": 0.0}, {"name": "1f5cb3689f805e9c0a305b9a1ff47749", "lat": 38.940859333333336, "lon": -77.02720266666667, "fusion_lon": 0.0, "bike_id": "1f5cb3689f805e9c0a305b9a1ff47749", "rental_uris": {"android": "https://dc.lft.to/lastmile_qr_scan", "ios": "https://dc.lft.to/lastmile_qr_scan"}, "is_reserved": 0, "type": "electric_scooter", "is_disabled": 0, "fusion_lat": 0.0}, {"name": "04f49e057c12109df67b0d3ce03d9b3a", "lat": 38.88871366666667, "lon": -76.95717533333334, "fusion_lon": 0.0, "bike_id": "04f49e057c12109df67b0d3ce03d9b3a", "rental_uris": {"android": "https://dc.lft.to/lastmile_qr_scan", "ios": "https://dc.lft.to/lastmile_qr_scan"}, "is_reserved": 0, "type": "electric_scooter", "is_disabled": 0, "fusion_lat": 0.0}, {"name": "634c4ee54399d1c2b08280a782fb38bc", "lat": 38.856950499999996, "lon": -76.9897295, "fusion_lon": 0.0, "bike_id": "634c4ee54399d1c2b08280a782fb38bc", "rental_uris": {"android": "https://dc.lft.to/lastmile_qr_scan", "ios": "https://dc.lft.to/lastmile_qr_scan"}, "is_reserved": 0, "type": "electric_scooter", "is_disabled": 0, "fusion_lat": 0.0}, {"name": "4cd4231ce0eb5e158a7e4957c77ed97e", "lat": 38.90011966666667, "lon": -76.99810433333333, "fusion_lon": 0.0, "bike_id": "4cd4231ce0eb5e158a7e4957c77ed97e", "rental_uris": {"android": "https://dc.lft.to/lastmile_qr_scan", "ios": "https://dc.lft.to/lastmile_qr_scan"}, "is_reserved": 0, "type": "electric_scooter", "is_disabled": 0, "fusion_lat": 0.0}, {"name": "a29112e041cdd12e385081e4525f7d61", "lat": 38.866267666666666, "lon": -76.9871225, "fusion_lon": 0.0, "bike_id": "a29112e041cdd12e385081e4525f7d61", "rental_uris": {"android": "https://dc.lft.to/lastmile_qr_scan", "ios": "https://dc.lft.to/lastmile_qr_scan"}, "is_reserved": 0, "type": "electric_scooter", "is_disabled": 0, "fusion_lat": 0.0}, {"name": "ee4e8e503af738b8d25f95770dfcdabb", "lat": 38.90766566666667, "lon": -77.00399283333333, "fusion_lon": 0.0, "bike_id": "ee4e8e503af738b8d25f95770dfcdabb", "rental_uris": {"android": "https://dc.lft.to/lastmile_qr_scan", "ios": "https://dc.lft.to/lastmile_qr_scan"}, "is_reserved": 0, "type": "electric_scooter", "is_disabled": 0, "fusion_lat": 0.0}, {"name": "8af8bc788881a7e9dd80975877c029de", "lat": 38.90786816666667, "lon": -77.071525, "fusion_lon": 0.0, "bike_id": "8af8bc788881a7e9dd80975877c029de", "rental_uris": {"android": "https://dc.lft.to/lastmile_qr_scan", "ios": "https://dc.lft.to/lastmile_qr_scan"}, "is_reserved": 0, "type": "electric_bike", "is_disabled": 0, "fusion_lat": 0.0}, {"name": "b2cf5c314041c4cf685cee29d6de2985", "lat": 38.91568216666667, "lon": -76.98264916666666, "fusion_lon": 0.0, "bike_id": "b2cf5c314041c4cf685cee29d6de2985", "rental_uris": {"android": "https://dc.lft.to/lastmile_qr_scan", "ios": "https://dc.lft.to/lastmile_qr_scan"}, "is_reserved": 0, "type": "electric_scooter", "is_disabled": 0, "fusion_lat": 0.0}, {"name": "5beeeb51493432d10ebddedbffe42ef7", "lat": 38.8870605, "lon": -77.00338566666667, "fusion_lon": 0.0, "bike_id": "5beeeb51493432d10ebddedbffe42ef7", "rental_uris": {"android": "https://dc.lft.to/lastmile_qr_scan", "ios": "https://dc.lft.to/lastmile_qr_scan"}, "is_reserved": 0, "type": "electric_scooter", "is_disabled": 0, "fusion_lat": 0.0}, {"name": "48848e4639d573fb90861eb1cf89dd76", "lat": 38.90030933333333, "lon": -77.0466915, "fusion_lon": 0.0, "bike_id": "48848e4639d573fb90861eb1cf89dd76", "rental_uris": {"android": "https://dc.lft.to/lastmile_qr_scan", "ios": "https://dc.lft.to/lastmile_qr_scan"}, "is_reserved": 0, "type": "electric_scooter", "is_disabled": 0, "fusion_lat": 0.0}, {"name": "9855e55a38b0e29615b24623d7e3623e", "lat": 38.907864333333336, "lon": -77.0321265, "fusion_lon": 0.0, "bike_id": "9855e55a38b0e29615b24623d7e3623e", "rental_uris": {"android": "https://dc.lft.to/lastmile_qr_scan", "ios": "https://dc.lft.to/lastmile_qr_scan"}, "is_reserved": 0, "type": "electric_scooter", "is_disabled": 0, "fusion_lat": 0.0}, {"name": "717e86a02c09deb13e0138c45b0691a3", "lat": 38.855624666666664, "lon": -77.081922, "fusion_lon": 0.0, "bike_id": "717e86a02c09deb13e0138c45b0691a3", "rental_uris": {"android": "https://dc.lft.to/lastmile_qr_scan", "ios": "https://dc.lft.to/lastmile_qr_scan"}, "is_reserved": 0, "type": "electric_bike", "is_disabled": 0, "fusion_lat": 0.0}, {"name": "146604c675834e5c92bc9b8d056c7534", "lat": 38.87511516666667, "lon": -77.00045866666666, "fusion_lon": 0.0, "bike_id": "146604c675834e5c92bc9b8d056c7534", "rental_uris": {"android": "https://dc.lft.to/lastmile_qr_scan", "ios": "https://dc.lft.to/lastmile_qr_scan"}, "is_reserved": 0, "type": "electric_scooter", "is_disabled": 0, "fusion_lat": 0.0}, {"name": "b1240fb735f67a4e270e1fae45c00999", "lat": 38.90741766666667, "lon": -76.95181916666667, "fusion_lon": 0.0, "bike_id": "b1240fb735f67a4e270e1fae45c00999", "rental_uris": {"android": "https://dc.lft.to/lastmile_qr_scan", "ios": "https://dc.lft.to/lastmile_qr_scan"}, "is_reserved": 0, "type": "electric_scooter", "is_disabled": 0, "fusion_lat": 0.0}, {"name": "861f4a88b64b47270a65854b462dcd44", "lat": 38.876685333333334, "lon": -77.00467083333334, "fusion_lon": 0.0, "bike_id": "861f4a88b64b47270a65854b462dcd44", "rental_uris": {"android": "https://dc.lft.to/lastmile_qr_scan", "ios": "https://dc.lft.to/lastmile_qr_scan"}, "is_reserved": 0, "type": "electric_scooter", "is_disabled": 0, "fusion_lat": 0.0}, {"name": "a1ce5e728fd198866586cf2973476aff", "lat": 38.93529616666667, "lon": -77.05817566666667, "fusion_lon": 0.0, "bike_id": "a1ce5e728fd198866586cf2973476aff", "rental_uris": {"android": "https://dc.lft.to/lastmile_qr_scan", "ios": "https://dc.lft.to/lastmile_qr_scan"}, "is_reserved": 0, "type": "electric_scooter", "is_disabled": 0, "fusion_lat": 0.0}, {"name": "f1605adfb5a70e292dfdf186e563d20a", "lat": 38.9045825, "lon": -77.0402745, "fusion_lon": 0.0, "bike_id": "f1605adfb5a70e292dfdf186e563d20a", "rental_uris": {"android": "https://dc.lft.to/lastmile_qr_scan", "ios": "https://dc.lft.to/lastmile_qr_scan"}, "is_reserved": 0, "type": "electric_scooter", "is_disabled": 0, "fusion_lat": 0.0}, {"name": "aefdd124a243a4c6f7437649a84300fb", "lat": 38.890353833333336, "lon": -76.93756916666666, "fusion_lon": 0.0, "bike_id": "aefdd124a243a4c6f7437649a84300fb", "rental_uris": {"android": "https://dc.lft.to/lastmile_qr_scan", "ios": "https://dc.lft.to/lastmile_qr_scan"}, "is_reserved": 0, "type": "electric_scooter", "is_disabled": 0, "fusion_lat": 0.0}, {"name": "5810d50f515c271ca2983f9184eb91e2", "lat": 38.832681, "lon": -77.0062655, "fusion_lon": 0.0, "bike_id": "5810d50f515c271ca2983f9184eb91e2", "rental_uris": {"android": "https://dc.lft.to/lastmile_qr_scan", "ios": "https://dc.lft.to/lastmile_qr_scan"}, "is_reserved": 0, "type": "electric_scooter", "is_disabled": 0, "fusion_lat": 0.0}, {"name": "f2c1fceea9ddd5b4623136489c42db79", "lat": 38.89961366666667, "lon": -77.03081583333334, "fusion_lon": 0.0, "bike_id": "f2c1fceea9ddd5b4623136489c42db79", "rental_uris": {"android": "https://dc.lft.to/lastmile_qr_scan", "ios": "https://dc.lft.to/lastmile_qr_scan"}, "is_reserved": 0, "type": "electric_scooter", "is_disabled": 0, "fusion_lat": 0.0}, {"name": "dad199cf27b409afb92b29a93022bd45", "lat": 38.896702833333336, "lon": -77.02607933333333, "fusion_lon": 0.0, "bike_id": "dad199cf27b409afb92b29a93022bd45", "rental_uris": {"android": "https://dc.lft.to/lastmile_qr_scan", "ios": "https://dc.lft.to/lastmile_qr_scan"}, "is_reserved": 0, "type": "electric_scooter", "is_disabled": 0, "fusion_lat": 0.0}, {"name": "b498b50ff28436d23f848cb4ced89062", "lat": 38.90048566666667, "lon": -77.0466285, "fusion_lon": 0.0, "bike_id": "b498b50ff28436d23f848cb4ced89062", "rental_uris": {"android": "https://dc.lft.to/lastmile_qr_scan", "ios": "https://dc.lft.to/lastmile_qr_scan"}, "is_reserved": 0, "type": "electric_scooter", "is_disabled": 0, "fusion_lat": 0.0}, {"name": "32fa474cba2a23ae074e96c4df5f5119", "lat": 38.918117, "lon": -77.03438583333333, "fusion_lon": 0.0, "bike_id": "32fa474cba2a23ae074e96c4df5f5119", "rental_uris": {"android": "https://dc.lft.to/lastmile_qr_scan", "ios": "https://dc.lft.to/lastmile_qr_scan"}, "is_reserved": 0, "type": "electric_scooter", "is_disabled": 0, "fusion_lat": 0.0}, {"name": "469711565b218e7af6014096f89224c8", "lat": 38.924221, "lon": -77.045525, "fusion_lon": 0.0, "bike_id": "469711565b218e7af6014096f89224c8", "rental_uris": {"android": "https://dc.lft.to/lastmile_qr_scan", "ios": "https://dc.lft.to/lastmile_qr_scan"}, "is_reserved": 0, "type": "electric_scooter", "is_disabled": 0, "fusion_lat": 0.0}, {"name": "2aa079a69f606048b7c3673cf59667f5", "lat": 38.90403583333333, "lon": -77.038685, "fusion_lon": 0.0, "bike_id": "2aa079a69f606048b7c3673cf59667f5", "rental_uris": {"android": "https://dc.lft.to/lastmile_qr_scan", "ios": "https://dc.lft.to/lastmile_qr_scan"}, "is_reserved": 0, "type": "electric_scooter", "is_disabled": 0, "fusion_lat": 0.0}, {"name": "235a4dc63fce6b41612c0ead82f84eab", "lat": 38.9387905, "lon": -77.0328295, "fusion_lon": 0.0, "bike_id": "235a4dc63fce6b41612c0ead82f84eab", "rental_uris": {"android": "https://dc.lft.to/lastmile_qr_scan", "ios": "https://dc.lft.to/lastmile_qr_scan"}, "is_reserved": 0, "type": "electric_scooter", "is_disabled": 0, "fusion_lat": 0.0}, {"name": "46709d918d1af1d99ad8c64e4769b8b3", "lat": 38.894978333333334, "lon": -77.00291783333333, "fusion_lon": 0.0, "bike_id": "46709d918d1af1d99ad8c64e4769b8b3", "rental_uris": {"android": "https://dc.lft.to/lastmile_qr_scan", "ios": "https://dc.lft.to/lastmile_qr_scan"}, "is_reserved": 0, "type": "electric_scooter", "is_disabled": 0, "fusion_lat": 0.0}, {"name": "1b6d437f37d73253c54fffb2890d4a89", "lat": 38.90358633333334, "lon": -77.03721433333334, "fusion_lon": 0.0, "bike_id": "1b6d437f37d73253c54fffb2890d4a89", "rental_uris": {"android": "https://dc.lft.to/lastmile_qr_scan", "ios": "https://dc.lft.to/lastmile_qr_scan"}, "is_reserved": 0, "type": "electric_scooter", "is_disabled": 0, "fusion_lat": 0.0}, {"name": "402371e15168811182bc0d135e8a44c9", "lat": 38.86696, "lon": -76.98397616666666, "fusion_lon": 0.0, "bike_id": "402371e15168811182bc0d135e8a44c9", "rental_uris": {"android": "https://dc.lft.to/lastmile_qr_scan", "ios": "https://dc.lft.to/lastmile_qr_scan"}, "is_reserved": 0, "type": "electric_scooter", "is_disabled": 0, "fusion_lat": 0.0}, {"name": "5b2bc7e51f43f6bca37c20b2308c40c8", "lat": 38.901532, "lon": -76.93058316666666, "fusion_lon": 0.0, "bike_id": "5b2bc7e51f43f6bca37c20b2308c40c8", "rental_uris": {"android": "https://dc.lft.to/lastmile_qr_scan", "ios": "https://dc.lft.to/lastmile_qr_scan"}, "is_reserved": 0, "type": "electric_scooter", "is_disabled": 0, "fusion_lat": 0.0}, {"name": "c170c8e0728e8dcc285f7cec19d6af49", "lat": 38.90213033333333, "lon": -77.0433185, "fusion_lon": 0.0, "bike_id": "c170c8e0728e8dcc285f7cec19d6af49", "rental_uris": {"android": "https://dc.lft.to/lastmile_qr_scan", "ios": "https://dc.lft.to/lastmile_qr_scan"}, "is_reserved": 0, "type": "electric_scooter", "is_disabled": 0, "fusion_lat": 0.0}, {"name": "3aa9f22967c8c9fbd33964853da1186e", "lat": 38.867013666666665, "lon": -76.98705016666666, "fusion_lon": 0.0, "bike_id": "3aa9f22967c8c9fbd33964853da1186e", "rental_uris": {"android": "https://dc.lft.to/lastmile_qr_scan", "ios": "https://dc.lft.to/lastmile_qr_scan"}, "is_reserved": 0, "type": "electric_scooter", "is_disabled": 0, "fusion_lat": 0.0}, {"name": "c84265afe87e858970bce2c14461561b", "lat": 38.928109666666664, "lon": -77.05396966666666, "fusion_lon": 0.0, "bike_id": "c84265afe87e858970bce2c14461561b", "rental_uris": {"android": "https://dc.lft.to/lastmile_qr_scan", "ios": "https://dc.lft.to/lastmile_qr_scan"}, "is_reserved": 0, "type": "electric_scooter", "is_disabled": 0, "fusion_lat": 0.0}, {"name": "d51440bd5d7857c57910d9c893222276", "lat": 38.9077945, "lon": -76.99707816666667, "fusion_lon": 0.0, "bike_id": "d51440bd5d7857c57910d9c893222276", "rental_uris": {"android": "https://dc.lft.to/lastmile_qr_scan", "ios": "https://dc.lft.to/lastmile_qr_scan"}, "is_reserved": 0, "type": "electric_scooter", "is_disabled": 0, "fusion_lat": 0.0}, {"name": "5c04d4c2a636ec78f274cf46b8ae418a", "lat": 38.91552, "lon": -77.01184566666667, "fusion_lon": 0.0, "bike_id": "5c04d4c2a636ec78f274cf46b8ae418a", "rental_uris": {"android": "https://dc.lft.to/lastmile_qr_scan", "ios": "https://dc.lft.to/lastmile_qr_scan"}, "is_reserved": 0, "type": "electric_scooter", "is_disabled": 0, "fusion_lat": 0.0}, {"name": "fa6bd9209e49ce1a421aa93e8375d0e2", "lat": 38.907111666666665, "lon": -77.031957, "fusion_lon": 0.0, "bike_id": "fa6bd9209e49ce1a421aa93e8375d0e2", "rental_uris": {"android": "https://dc.lft.to/lastmile_qr_scan", "ios": "https://dc.lft.to/lastmile_qr_scan"}, "is_reserved": 0, "type": "electric_scooter", "is_disabled": 0, "fusion_lat": 0.0}, {"name": "25767a942a6b678e9aaa3112f737d3eb", "lat": 38.863595333333336, "lon": -76.99059633333333, "fusion_lon": 0.0, "bike_id": "25767a942a6b678e9aaa3112f737d3eb", "rental_uris": {"android": "https://dc.lft.to/lastmile_qr_scan", "ios": "https://dc.lft.to/lastmile_qr_scan"}, "is_reserved": 0, "type": "electric_scooter", "is_disabled": 0, "fusion_lat": 0.0}, {"name": "0116e885af26f379aa5b1ded1cffd236", "lat": 38.92827533333333, "lon": -77.05440333333334, "fusion_lon": 0.0, "bike_id": "0116e885af26f379aa5b1ded1cffd236", "rental_uris": {"android": "https://dc.lft.to/lastmile_qr_scan", "ios": "https://dc.lft.to/lastmile_qr_scan"}, "is_reserved": 0, "type": "electric_scooter", "is_disabled": 0, "fusion_lat": 0.0}, {"name": "27fbdd48792735e9fa6d1e0b00e696be", "lat": 38.893894, "lon": -76.95017316666667, "fusion_lon": 0.0, "bike_id": "27fbdd48792735e9fa6d1e0b00e696be", "rental_uris": {"android": "https://dc.lft.to/lastmile_qr_scan", "ios": "https://dc.lft.to/lastmile_qr_scan"}, "is_reserved": 0, "type": "electric_scooter", "is_disabled": 0, "fusion_lat": 0.0}, {"name": "74ebd7fb013e8eb9ff400005dc181b91", "lat": 38.88507083333333, "lon": -77.0056635, "fusion_lon": 0.0, "bike_id": "74ebd7fb013e8eb9ff400005dc181b91", "rental_uris": {"android": "https://dc.lft.to/lastmile_qr_scan", "ios": "https://dc.lft.to/lastmile_qr_scan"}, "is_reserved": 0, "type": "electric_scooter", "is_disabled": 0, "fusion_lat": 0.0}, {"name": "39e2e3538d60fefffc10af991f4ae52b", "lat": 38.945020166666666, "lon": -77.03864316666666, "fusion_lon": 0.0, "bike_id": "39e2e3538d60fefffc10af991f4ae52b", "rental_uris": {"android": "https://dc.lft.to/lastmile_qr_scan", "ios": "https://dc.lft.to/lastmile_qr_scan"}, "is_reserved": 0, "type": "electric_scooter", "is_disabled": 0, "fusion_lat": 0.0}, {"name": "f152c4ec22b37251e0217fe99e6e25ac", "lat": 38.904528666666664, "lon": -77.03457316666666, "fusion_lon": 0.0, "bike_id": "f152c4ec22b37251e0217fe99e6e25ac", "rental_uris": {"android": "https://dc.lft.to/lastmile_qr_scan", "ios": "https://dc.lft.to/lastmile_qr_scan"}, "is_reserved": 0, "type": "electric_scooter", "is_disabled": 0, "fusion_lat": 0.0}, {"name": "cf46dbe66ad911de52160375e32906d1", "lat": 38.895492833333336, "lon": -76.94876683333334, "fusion_lon": 0.0, "bike_id": "cf46dbe66ad911de52160375e32906d1", "rental_uris": {"android": "https://dc.lft.to/lastmile_qr_scan", "ios": "https://dc.lft.to/lastmile_qr_scan"}, "is_reserved": 0, "type": "electric_scooter", "is_disabled": 0, "fusion_lat": 0.0}, {"name": "2088b9b3504e443b64eabeae15874581", "lat": 38.89730816666667, "lon": -77.04597416666667, "fusion_lon": 0.0, "bike_id": "2088b9b3504e443b64eabeae15874581", "rental_uris": {"android": "https://dc.lft.to/lastmile_qr_scan", "ios": "https://dc.lft.to/lastmile_qr_scan"}, "is_reserved": 0, "type": "electric_scooter", "is_disabled": 0, "fusion_lat": 0.0}, {"name": "e90bc848a97bdd9391f062fce962084f", "lat": 38.90232433333333, "lon": -77.05338933333333, "fusion_lon": 0.0, "bike_id": "e90bc848a97bdd9391f062fce962084f", "rental_uris": {"android": "https://dc.lft.to/lastmile_qr_scan", "ios": "https://dc.lft.to/lastmile_qr_scan"}, "is_reserved": 0, "type": "electric_scooter", "is_disabled": 0, "fusion_lat": 0.0}, {"name": "b04cdc9c90ec896a15c8e4dbd06b3b23", "lat": 38.9053285, "lon": -77.0221155, "fusion_lon": 0.0, "bike_id": "b04cdc9c90ec896a15c8e4dbd06b3b23", "rental_uris": {"android": "https://dc.lft.to/lastmile_qr_scan", "ios": "https://dc.lft.to/lastmile_qr_scan"}, "is_reserved": 0, "type": "electric_scooter", "is_disabled": 0, "fusion_lat": 0.0}, {"name": "88f9738e6eeec9af142424496f8ced00", "lat": 38.915546666666664, "lon": -77.03324133333334, "fusion_lon": 0.0, "bike_id": "88f9738e6eeec9af142424496f8ced00", "rental_uris": {"android": "https://dc.lft.to/lastmile_qr_scan", "ios": "https://dc.lft.to/lastmile_qr_scan"}, "is_reserved": 0, "type": "electric_scooter", "is_disabled": 0, "fusion_lat": 0.0}, {"name": "48d56b66a8324cd999a2cd17899aa926", "lat": 38.867025166666664, "lon": -76.98394533333334, "fusion_lon": 0.0, "bike_id": "48d56b66a8324cd999a2cd17899aa926", "rental_uris": {"android": "https://dc.lft.to/lastmile_qr_scan", "ios": "https://dc.lft.to/lastmile_qr_scan"}, "is_reserved": 0, "type": "electric_scooter", "is_disabled": 0, "fusion_lat": 0.0}, {"name": "d51d6d98381dc2bc9308ba1f0e807a9f", "lat": 38.915121, "lon": -77.0122095, "fusion_lon": 0.0, "bike_id": "d51d6d98381dc2bc9308ba1f0e807a9f", "rental_uris": {"android": "https://dc.lft.to/lastmile_qr_scan", "ios": "https://dc.lft.to/lastmile_qr_scan"}, "is_reserved": 0, "type": "electric_scooter", "is_disabled": 0, "fusion_lat": 0.0}, {"name": "57f80d7586d30918e10635b934d2f05c", "lat": 38.90501033333334, "lon": -77.04341166666667, "fusion_lon": 0.0, "bike_id": "57f80d7586d30918e10635b934d2f05c", "rental_uris": {"android": "https://dc.lft.to/lastmile_qr_scan", "ios": "https://dc.lft.to/lastmile_qr_scan"}, "is_reserved": 0, "type": "electric_scooter", "is_disabled": 0, "fusion_lat": 0.0}, {"name": "5c0ce21800667e4bece04fbc9e16d83d", "lat": 38.903977, "lon": -76.981106, "fusion_lon": 0.0, "bike_id": "5c0ce21800667e4bece04fbc9e16d83d", "rental_uris": {"android": "https://dc.lft.to/lastmile_qr_scan", "ios": "https://dc.lft.to/lastmile_qr_scan"}, "is_reserved": 0, "type": "electric_scooter", "is_disabled": 0, "fusion_lat": 0.0}, {"name": "095124aa2eda05b20b5ff103cb60a062", "lat": 38.919459, "lon": -77.025259, "fusion_lon": 0.0, "bike_id": "095124aa2eda05b20b5ff103cb60a062", "rental_uris": {"android": "https://dc.lft.to/lastmile_qr_scan", "ios": "https://dc.lft.to/lastmile_qr_scan"}, "is_reserved": 0, "type": "electric_scooter", "is_disabled": 0, "fusion_lat": 0.0}, {"name": "d92b3d78edf09fd02db86d6fe4a1da31", "lat": 38.918243333333336, "lon": -77.05880866666666, "fusion_lon": 0.0, "bike_id": "d92b3d78edf09fd02db86d6fe4a1da31", "rental_uris": {"android": "https://dc.lft.to/lastmile_qr_scan", "ios": "https://dc.lft.to/lastmile_qr_scan"}, "is_reserved": 0, "type": "electric_scooter", "is_disabled": 0, "fusion_lat": 0.0}, {"name": "2b186629e8980cb6cdab7e44996cf63e", "lat": 38.90019316666667, "lon": -77.0007695, "fusion_lon": 0.0, "bike_id": "2b186629e8980cb6cdab7e44996cf63e", "rental_uris": {"android": "https://dc.lft.to/lastmile_qr_scan", "ios": "https://dc.lft.to/lastmile_qr_scan"}, "is_reserved": 0, "type": "electric_scooter", "is_disabled": 0, "fusion_lat": 0.0}, {"name": "965b44031480df8486d12d6590c5fde9", "lat": 38.906806333333336, "lon": -77.0006055, "fusion_lon": 0.0, "bike_id": "965b44031480df8486d12d6590c5fde9", "rental_uris": {"android": "https://dc.lft.to/lastmile_qr_scan", "ios": "https://dc.lft.to/lastmile_qr_scan"}, "is_reserved": 0, "type": "electric_scooter", "is_disabled": 0, "fusion_lat": 0.0}, {"name": "98ae7b3c377682d8da889cc884c71252", "lat": 38.9066795, "lon": -77.037999, "fusion_lon": 0.0, "bike_id": "98ae7b3c377682d8da889cc884c71252", "rental_uris": {"android": "https://dc.lft.to/lastmile_qr_scan", "ios": "https://dc.lft.to/lastmile_qr_scan"}, "is_reserved": 0, "type": "electric_scooter", "is_disabled": 0, "fusion_lat": 0.0}, {"name": "788240502d4da498d032a586a9995f33", "lat": 38.858108666666666, "lon": -76.98921966666667, "fusion_lon": 0.0, "bike_id": "788240502d4da498d032a586a9995f33", "rental_uris": {"android": "https://dc.lft.to/lastmile_qr_scan", "ios": "https://dc.lft.to/lastmile_qr_scan"}, "is_reserved": 0, "type": "electric_scooter", "is_disabled": 0, "fusion_lat": 0.0}, {"name": "ca37ca42f69be66576e5ee5eb9036d85", "lat": 38.90237, "lon": -77.00195466666666, "fusion_lon": 0.0, "bike_id": "ca37ca42f69be66576e5ee5eb9036d85", "rental_uris": {"android": "https://dc.lft.to/lastmile_qr_scan", "ios": "https://dc.lft.to/lastmile_qr_scan"}, "is_reserved": 0, "type": "electric_scooter", "is_disabled": 0, "fusion_lat": 0.0}, {"name": "df2f84ebd4b32ec0fe0089c1cc4d106c", "lat": 38.9180435, "lon": -77.03443316666667, "fusion_lon": 0.0, "bike_id": "df2f84ebd4b32ec0fe0089c1cc4d106c", "rental_uris": {"android": "https://dc.lft.to/lastmile_qr_scan", "ios": "https://dc.lft.to/lastmile_qr_scan"}, "is_reserved": 0, "type": "electric_scooter", "is_disabled": 0, "fusion_lat": 0.0}, {"name": "db2ff09cfb96d42ec544e973c75c4460", "lat": 38.8443505, "lon": -76.99815983333333, "fusion_lon": 0.0, "bike_id": "db2ff09cfb96d42ec544e973c75c4460", "rental_uris": {"android": "https://dc.lft.to/lastmile_qr_scan", "ios": "https://dc.lft.to/lastmile_qr_scan"}, "is_reserved": 0, "type": "electric_scooter", "is_disabled": 0, "fusion_lat": 0.0}, {"name": "ec4a714657453f6f1cdb030f437da17e", "lat": 38.92271216666666, "lon": -77.0198515, "fusion_lon": 0.0, "bike_id": "ec4a714657453f6f1cdb030f437da17e", "rental_uris": {"android": "https://dc.lft.to/lastmile_qr_scan", "ios": "https://dc.lft.to/lastmile_qr_scan"}, "is_reserved": 0, "type": "electric_bike", "is_disabled": 0, "fusion_lat": 0.0}, {"name": "db17c9f127ed72f6a244e9fd68a07d2d", "lat": 38.8959805, "lon": -76.90707083333334, "fusion_lon": 0.0, "bike_id": "db17c9f127ed72f6a244e9fd68a07d2d", "rental_uris": {"android": "https://dc.lft.to/lastmile_qr_scan", "ios": "https://dc.lft.to/lastmile_qr_scan"}, "is_reserved": 0, "type": "electric_bike", "is_disabled": 0, "fusion_lat": 0.0}, {"name": "d387d4b01adb10073789eb497f6b6a58", "lat": 38.902310166666666, "lon": -77.0458985, "fusion_lon": 0.0, "bike_id": "d387d4b01adb10073789eb497f6b6a58", "rental_uris": {"android": "https://dc.lft.to/lastmile_qr_scan", "ios": "https://dc.lft.to/lastmile_qr_scan"}, "is_reserved": 0, "type": "electric_scooter", "is_disabled": 0, "fusion_lat": 0.0}, {"name": "7a8bc522ebe036c896afcae8b503e165", "lat": 38.89858366666667, "lon": -76.99024266666666, "fusion_lon": 0.0, "bike_id": "7a8bc522ebe036c896afcae8b503e165", "rental_uris": {"android": "https://dc.lft.to/lastmile_qr_scan", "ios": "https://dc.lft.to/lastmile_qr_scan"}, "is_reserved": 0, "type": "electric_scooter", "is_disabled": 0, "fusion_lat": 0.0}, {"name": "4267a8aa0bdd846af1bf05bf905208a0", "lat": 38.927913833333335, "lon": -77.05406733333334, "fusion_lon": 0.0, "bike_id": "4267a8aa0bdd846af1bf05bf905208a0", "rental_uris": {"android": "https://dc.lft.to/lastmile_qr_scan", "ios": "https://dc.lft.to/lastmile_qr_scan"}, "is_reserved": 0, "type": "electric_scooter", "is_disabled": 0, "fusion_lat": 0.0}, {"name": "738fd8a51321f59a589ca4380edcf3d2", "lat": 38.90776733333333, "lon": -77.04335916666666, "fusion_lon": 0.0, "bike_id": "738fd8a51321f59a589ca4380edcf3d2", "rental_uris": {"android": "https://dc.lft.to/lastmile_qr_scan", "ios": "https://dc.lft.to/lastmile_qr_scan"}, "is_reserved": 0, "type": "electric_scooter", "is_disabled": 0, "fusion_lat": 0.0}, {"name": "1c39ad66d4e79ce5bcfd860b83ba348d", "lat": 38.92606033333333, "lon": -77.02218166666667, "fusion_lon": 0.0, "bike_id": "1c39ad66d4e79ce5bcfd860b83ba348d", "rental_uris": {"android": "https://dc.lft.to/lastmile_qr_scan", "ios": "https://dc.lft.to/lastmile_qr_scan"}, "is_reserved": 0, "type": "electric_scooter", "is_disabled": 0, "fusion_lat": 0.0}, {"name": "49ee959247e16a59dffe09f80e9b932d", "lat": 38.92078433333333, "lon": -77.00450316666667, "fusion_lon": 0.0, "bike_id": "49ee959247e16a59dffe09f80e9b932d", "rental_uris": {"android": "https://dc.lft.to/lastmile_qr_scan", "ios": "https://dc.lft.to/lastmile_qr_scan"}, "is_reserved": 0, "type": "electric_scooter", "is_disabled": 0, "fusion_lat": 0.0}, {"name": "29f3d295e315bd1ef40190862d193994", "lat": 38.909798, "lon": -77.02695166666666, "fusion_lon": 0.0, "bike_id": "29f3d295e315bd1ef40190862d193994", "rental_uris": {"android": "https://dc.lft.to/lastmile_qr_scan", "ios": "https://dc.lft.to/lastmile_qr_scan"}, "is_reserved": 0, "type": "electric_scooter", "is_disabled": 0, "fusion_lat": 0.0}, {"name": "8469fa33a999f6cc726d25d27346b560", "lat": 38.87663716666667, "lon": -77.004457, "fusion_lon": 0.0, "bike_id": "8469fa33a999f6cc726d25d27346b560", "rental_uris": {"android": "https://dc.lft.to/lastmile_qr_scan", "ios": "https://dc.lft.to/lastmile_qr_scan"}, "is_reserved": 0, "type": "electric_scooter", "is_disabled": 0, "fusion_lat": 0.0}, {"name": "c078e9e9b49b5010ff62a90926a56748", "lat": 38.8577115, "lon": -76.98757316666666, "fusion_lon": 0.0, "bike_id": "c078e9e9b49b5010ff62a90926a56748", "rental_uris": {"android": "https://dc.lft.to/lastmile_qr_scan", "ios": "https://dc.lft.to/lastmile_qr_scan"}, "is_reserved": 0, "type": "electric_bike", "is_disabled": 0, "fusion_lat": 0.0}, {"name": "9c800fffc79e41a716ae9c1c13f55dc5", "lat": 38.90194666666667, "lon": -77.0472025, "fusion_lon": 0.0, "bike_id": "9c800fffc79e41a716ae9c1c13f55dc5", "rental_uris": {"android": "https://dc.lft.to/lastmile_qr_scan", "ios": "https://dc.lft.to/lastmile_qr_scan"}, "is_reserved": 0, "type": "electric_scooter", "is_disabled": 0, "fusion_lat": 0.0}, {"name": "a944bc75173c11a61a8461f7e84ec53d", "lat": 38.914178666666665, "lon": -77.0323945, "fusion_lon": 0.0, "bike_id": "a944bc75173c11a61a8461f7e84ec53d", "rental_uris": {"android": "https://dc.lft.to/lastmile_qr_scan", "ios": "https://dc.lft.to/lastmile_qr_scan"}, "is_reserved": 0, "type": "electric_scooter", "is_disabled": 0, "fusion_lat": 0.0}, {"name": "6729807361bacf8e2b87f660e3930bf0", "lat": 38.887707166666665, "lon": -76.93258816666666, "fusion_lon": 0.0, "bike_id": "6729807361bacf8e2b87f660e3930bf0", "rental_uris": {"android": "https://dc.lft.to/lastmile_qr_scan", "ios": "https://dc.lft.to/lastmile_qr_scan"}, "is_reserved": 0, "type": "electric_scooter", "is_disabled": 0, "fusion_lat": 0.0}, {"name": "4fbf70eda9071dac7e66403eeadd1f38", "lat": 38.92134516666667, "lon": -77.04472883333334, "fusion_lon": 0.0, "bike_id": "4fbf70eda9071dac7e66403eeadd1f38", "rental_uris": {"android": "https://dc.lft.to/lastmile_qr_scan", "ios": "https://dc.lft.to/lastmile_qr_scan"}, "is_reserved": 0, "type": "electric_scooter", "is_disabled": 0, "fusion_lat": 0.0}, {"name": "0392687a2e85f0bad465c43e7dcaee14", "lat": 38.91133816666667, "lon": -77.02692766666667, "fusion_lon": 0.0, "bike_id": "0392687a2e85f0bad465c43e7dcaee14", "rental_uris": {"android": "https://dc.lft.to/lastmile_qr_scan", "ios": "https://dc.lft.to/lastmile_qr_scan"}, "is_reserved": 0, "type": "electric_scooter", "is_disabled": 0, "fusion_lat": 0.0}, {"name": "c79b5a513e9bb381c94f509054715f18", "lat": 38.9314895, "lon": -77.039513, "fusion_lon": 0.0, "bike_id": "c79b5a513e9bb381c94f509054715f18", "rental_uris": {"android": "https://dc.lft.to/lastmile_qr_scan", "ios": "https://dc.lft.to/lastmile_qr_scan"}, "is_reserved": 0, "type": "electric_scooter", "is_disabled": 0, "fusion_lat": 0.0}, {"name": "23ba18cc2fbc304d40518f8ff6a927e3", "lat": 38.91692233333333, "lon": -77.03718566666667, "fusion_lon": 0.0, "bike_id": "23ba18cc2fbc304d40518f8ff6a927e3", "rental_uris": {"android": "https://dc.lft.to/lastmile_qr_scan", "ios": "https://dc.lft.to/lastmile_qr_scan"}, "is_reserved": 0, "type": "electric_scooter", "is_disabled": 0, "fusion_lat": 0.0}, {"name": "0ec026242e30303d8bac965fbfdee3d4", "lat": 38.90224883333333, "lon": -77.04592133333334, "fusion_lon": 0.0, "bike_id": "0ec026242e30303d8bac965fbfdee3d4", "rental_uris": {"android": "https://dc.lft.to/lastmile_qr_scan", "ios": "https://dc.lft.to/lastmile_qr_scan"}, "is_reserved": 0, "type": "electric_scooter", "is_disabled": 0, "fusion_lat": 0.0}, {"name": "640802701c4352fc1a6c08d3563f79a0", "lat": 38.901343833333335, "lon": -77.02943766666667, "fusion_lon": 0.0, "bike_id": "640802701c4352fc1a6c08d3563f79a0", "rental_uris": {"android": "https://dc.lft.to/lastmile_qr_scan", "ios": "https://dc.lft.to/lastmile_qr_scan"}, "is_reserved": 0, "type": "electric_scooter", "is_disabled": 0, "fusion_lat": 0.0}, {"name": "621388336d7f2e84a02f098c2e0a15eb", "lat": 38.916913, "lon": -77.00503616666667, "fusion_lon": 0.0, "bike_id": "621388336d7f2e84a02f098c2e0a15eb", "rental_uris": {"android": "https://dc.lft.to/lastmile_qr_scan", "ios": "https://dc.lft.to/lastmile_qr_scan"}, "is_reserved": 0, "type": "electric_scooter", "is_disabled": 0, "fusion_lat": 0.0}, {"name": "f3c5f73794404fba8569674f4a2eaf43", "lat": 38.9246665, "lon": -77.02713483333333, "fusion_lon": 0.0, "bike_id": "f3c5f73794404fba8569674f4a2eaf43", "rental_uris": {"android": "https://dc.lft.to/lastmile_qr_scan", "ios": "https://dc.lft.to/lastmile_qr_scan"}, "is_reserved": 0, "type": "electric_scooter", "is_disabled": 0, "fusion_lat": 0.0}, {"name": "23eb79a498b2199cedd870dcb9112b13", "lat": 38.90442266666667, "lon": -77.06275283333333, "fusion_lon": 0.0, "bike_id": "23eb79a498b2199cedd870dcb9112b13", "rental_uris": {"android": "https://dc.lft.to/lastmile_qr_scan", "ios": "https://dc.lft.to/lastmile_qr_scan"}, "is_reserved": 0, "type": "electric_scooter", "is_disabled": 0, "fusion_lat": 0.0}, {"name": "8c53a9e8d469bf19fbd845b9a1f23db7", "lat": 38.900119333333336, "lon": -77.04654383333333, "fusion_lon": 0.0, "bike_id": "8c53a9e8d469bf19fbd845b9a1f23db7", "rental_uris": {"android": "https://dc.lft.to/lastmile_qr_scan", "ios": "https://dc.lft.to/lastmile_qr_scan"}, "is_reserved": 0, "type": "electric_scooter", "is_disabled": 0, "fusion_lat": 0.0}, {"name": "7295dbbacbc4fc7402824f587d49690d", "lat": 38.91632, "lon": -77.032705, "fusion_lon": 0.0, "bike_id": "7295dbbacbc4fc7402824f587d49690d", "rental_uris": {"android": "https://dc.lft.to/lastmile_qr_scan", "ios": "https://dc.lft.to/lastmile_qr_scan"}, "is_reserved": 0, "type": "electric_scooter", "is_disabled": 0, "fusion_lat": 0.0}, {"name": "987e41aa18000079b07518fa229a6ee5", "lat": 38.905344, "lon": -77.0344035, "fusion_lon": 0.0, "bike_id": "987e41aa18000079b07518fa229a6ee5", "rental_uris": {"android": "https://dc.lft.to/lastmile_qr_scan", "ios": "https://dc.lft.to/lastmile_qr_scan"}, "is_reserved": 0, "type": "electric_scooter", "is_disabled": 0, "fusion_lat": 0.0}, {"name": "fb80a864a3b99484bcb9a10adf36408c", "lat": 38.90515283333333, "lon": -77.041904, "fusion_lon": 0.0, "bike_id": "fb80a864a3b99484bcb9a10adf36408c", "rental_uris": {"android": "https://dc.lft.to/lastmile_qr_scan", "ios": "https://dc.lft.to/lastmile_qr_scan"}, "is_reserved": 0, "type": "electric_scooter", "is_disabled": 0, "fusion_lat": 0.0}, {"name": "9adf5dcff3d5f482561f39d74ee7dddc", "lat": 38.93534283333334, "lon": -77.02348283333333, "fusion_lon": 0.0, "bike_id": "9adf5dcff3d5f482561f39d74ee7dddc", "rental_uris": {"android": "https://dc.lft.to/lastmile_qr_scan", "ios": "https://dc.lft.to/lastmile_qr_scan"}, "is_reserved": 0, "type": "electric_scooter", "is_disabled": 0, "fusion_lat": 0.0}, {"name": "79ee36f4bd686bb5646679ac58621d21", "lat": 38.903524833333336, "lon": -77.01104166666667, "fusion_lon": 0.0, "bike_id": "79ee36f4bd686bb5646679ac58621d21", "rental_uris": {"android": "https://dc.lft.to/lastmile_qr_scan", "ios": "https://dc.lft.to/lastmile_qr_scan"}, "is_reserved": 0, "type": "electric_scooter", "is_disabled": 0, "fusion_lat": 0.0}, {"name": "8dcdd455f45521b1950cfc8b29462c4c", "lat": 38.916889833333336, "lon": -77.046012, "fusion_lon": 0.0, "bike_id": "8dcdd455f45521b1950cfc8b29462c4c", "rental_uris": {"android": "https://dc.lft.to/lastmile_qr_scan", "ios": "https://dc.lft.to/lastmile_qr_scan"}, "is_reserved": 0, "type": "electric_scooter", "is_disabled": 0, "fusion_lat": 0.0}, {"name": "8e830f2a840bb4edd67bfd2fd62d9202", "lat": 38.84033733333333, "lon": -76.975802, "fusion_lon": 0.0, "bike_id": "8e830f2a840bb4edd67bfd2fd62d9202", "rental_uris": {"android": "https://dc.lft.to/lastmile_qr_scan", "ios": "https://dc.lft.to/lastmile_qr_scan"}, "is_reserved": 0, "type": "electric_bike", "is_disabled": 0, "fusion_lat": 0.0}, {"name": "a0102193d58b9a2deb9cba3db16a2303", "lat": 38.91318583333333, "lon": -77.0332895, "fusion_lon": 0.0, "bike_id": "a0102193d58b9a2deb9cba3db16a2303", "rental_uris": {"android": "https://dc.lft.to/lastmile_qr_scan", "ios": "https://dc.lft.to/lastmile_qr_scan"}, "is_reserved": 0, "type": "electric_scooter", "is_disabled": 0, "fusion_lat": 0.0}, {"name": "be5386808459922a93e6917cf1ba1cdc", "lat": 38.886389666666666, "lon": -76.95472583333333, "fusion_lon": 0.0, "bike_id": "be5386808459922a93e6917cf1ba1cdc", "rental_uris": {"android": "https://dc.lft.to/lastmile_qr_scan", "ios": "https://dc.lft.to/lastmile_qr_scan"}, "is_reserved": 0, "type": "electric_scooter", "is_disabled": 0, "fusion_lat": 0.0}, {"name": "db7660079d2d92db46b4b9d8a823f675", "lat": 38.899803, "lon": -76.93986666666666, "fusion_lon": 0.0, "bike_id": "db7660079d2d92db46b4b9d8a823f675", "rental_uris": {"android": "https://dc.lft.to/lastmile_qr_scan", "ios": "https://dc.lft.to/lastmile_qr_scan"}, "is_reserved": 0, "type": "electric_scooter", "is_disabled": 0, "fusion_lat": 0.0}, {"name": "fbe141f3afc1b3173bc70d810a5cce53", "lat": 38.90389966666667, "lon": -76.984875, "fusion_lon": 0.0, "bike_id": "fbe141f3afc1b3173bc70d810a5cce53", "rental_uris": {"android": "https://dc.lft.to/lastmile_qr_scan", "ios": "https://dc.lft.to/lastmile_qr_scan"}, "is_reserved": 0, "type": "electric_scooter", "is_disabled": 0, "fusion_lat": 0.0}, {"name": "5a51fc5fe56c0b1ecb81f556003591a1", "lat": 38.902373833333336, "lon": -77.00197, "fusion_lon": 0.0, "bike_id": "5a51fc5fe56c0b1ecb81f556003591a1", "rental_uris": {"android": "https://dc.lft.to/lastmile_qr_scan", "ios": "https://dc.lft.to/lastmile_qr_scan"}, "is_reserved": 0, "type": "electric_scooter", "is_disabled": 0, "fusion_lat": 0.0}, {"name": "5b3be17c16493968e68b17a7702416ef", "lat": 38.8588395, "lon": -76.9901015, "fusion_lon": 0.0, "bike_id": "5b3be17c16493968e68b17a7702416ef", "rental_uris": {"android": "https://dc.lft.to/lastmile_qr_scan", "ios": "https://dc.lft.to/lastmile_qr_scan"}, "is_reserved": 0, "type": "electric_scooter", "is_disabled": 0, "fusion_lat": 0.0}, {"name": "a34e43fd9baaae191a6a12940cd1a0fb", "lat": 38.8908955, "lon": -77.183037, "fusion_lon": 0.0, "bike_id": "a34e43fd9baaae191a6a12940cd1a0fb", "rental_uris": {"android": "https://dc.lft.to/lastmile_qr_scan", "ios": "https://dc.lft.to/lastmile_qr_scan"}, "is_reserved": 0, "type": "electric_bike", "is_disabled": 0, "fusion_lat": 0.0}, {"name": "de71efae441cf5b60893fe3f1755df35", "lat": 38.915597, "lon": -77.02257866666666, "fusion_lon": 0.0, "bike_id": "de71efae441cf5b60893fe3f1755df35", "rental_uris": {"android": "https://dc.lft.to/lastmile_qr_scan", "ios": "https://dc.lft.to/lastmile_qr_scan"}, "is_reserved": 0, "type": "electric_scooter", "is_disabled": 0, "fusion_lat": 0.0}, {"name": "6a145c410b3241608e9d2870c60c5c8c", "lat": 38.867374833333336, "lon": -76.98653533333334, "fusion_lon": 0.0, "bike_id": "6a145c410b3241608e9d2870c60c5c8c", "rental_uris": {"android": "https://dc.lft.to/lastmile_qr_scan", "ios": "https://dc.lft.to/lastmile_qr_scan"}, "is_reserved": 0, "type": "electric_scooter", "is_disabled": 0, "fusion_lat": 0.0}, {"name": "bde9923a9d7fb0b27a6d820ec2b132f4", "lat": 38.9179375, "lon": -77.03185516666667, "fusion_lon": 0.0, "bike_id": "bde9923a9d7fb0b27a6d820ec2b132f4", "rental_uris": {"android": "https://dc.lft.to/lastmile_qr_scan", "ios": "https://dc.lft.to/lastmile_qr_scan"}, "is_reserved": 0, "type": "electric_scooter", "is_disabled": 0, "fusion_lat": 0.0}, {"name": "40317bb52d4a15e537f3ffd1af05a5f2", "lat": 38.9156785, "lon": -77.01172216666667, "fusion_lon": 0.0, "bike_id": "40317bb52d4a15e537f3ffd1af05a5f2", "rental_uris": {"android": "https://dc.lft.to/lastmile_qr_scan", "ios": "https://dc.lft.to/lastmile_qr_scan"}, "is_reserved": 0, "type": "electric_scooter", "is_disabled": 0, "fusion_lat": 0.0}, {"name": "9bebae46be04964906eb686f5a702a49", "lat": 38.914146833333334, "lon": -77.0180255, "fusion_lon": 0.0, "bike_id": "9bebae46be04964906eb686f5a702a49", "rental_uris": {"android": "https://dc.lft.to/lastmile_qr_scan", "ios": "https://dc.lft.to/lastmile_qr_scan"}, "is_reserved": 0, "type": "electric_scooter", "is_disabled": 0, "fusion_lat": 0.0}, {"name": "75260f4f5640077187ca9542cf35ce92", "lat": 38.962247, "lon": -77.02628983333334, "fusion_lon": 0.0, "bike_id": "75260f4f5640077187ca9542cf35ce92", "rental_uris": {"android": "https://dc.lft.to/lastmile_qr_scan", "ios": "https://dc.lft.to/lastmile_qr_scan"}, "is_reserved": 0, "type": "electric_bike", "is_disabled": 0, "fusion_lat": 0.0}, {"name": "8f9cf427cae7cd83d670ed83e238260f", "lat": 38.905352666666666, "lon": -77.06525916666666, "fusion_lon": 0.0, "bike_id": "8f9cf427cae7cd83d670ed83e238260f", "rental_uris": {"android": "https://dc.lft.to/lastmile_qr_scan", "ios": "https://dc.lft.to/lastmile_qr_scan"}, "is_reserved": 0, "type": "electric_scooter", "is_disabled": 0, "fusion_lat": 0.0}, {"name": "31eaee26742a58988d6e393787a4fe67", "lat": 38.895852166666664, "lon": -77.02328683333333, "fusion_lon": 0.0, "bike_id": "31eaee26742a58988d6e393787a4fe67", "rental_uris": {"android": "https://dc.lft.to/lastmile_qr_scan", "ios": "https://dc.lft.to/lastmile_qr_scan"}, "is_reserved": 0, "type": "electric_scooter", "is_disabled": 0, "fusion_lat": 0.0}, {"name": "688ce5798e3913e09572f3db7832c2c2", "lat": 38.914185833333335, "lon": -77.04387333333334, "fusion_lon": 0.0, "bike_id": "688ce5798e3913e09572f3db7832c2c2", "rental_uris": {"android": "https://dc.lft.to/lastmile_qr_scan", "ios": "https://dc.lft.to/lastmile_qr_scan"}, "is_reserved": 0, "type": "electric_scooter", "is_disabled": 0, "fusion_lat": 0.0}, {"name": "a567c9f622438ffc85f83d68fee168f3", "lat": 38.954272333333336, "lon": -77.02770983333333, "fusion_lon": 0.0, "bike_id": "a567c9f622438ffc85f83d68fee168f3", "rental_uris": {"android": "https://dc.lft.to/lastmile_qr_scan", "ios": "https://dc.lft.to/lastmile_qr_scan"}, "is_reserved": 0, "type": "electric_scooter", "is_disabled": 0, "fusion_lat": 0.0}, {"name": "f7dfac605e51893935f6200eaecf9cdd", "lat": 38.90890316666667, "lon": -77.03201666666666, "fusion_lon": 0.0, "bike_id": "f7dfac605e51893935f6200eaecf9cdd", "rental_uris": {"android": "https://dc.lft.to/lastmile_qr_scan", "ios": "https://dc.lft.to/lastmile_qr_scan"}, "is_reserved": 0, "type": "electric_scooter", "is_disabled": 0, "fusion_lat": 0.0}, {"name": "eccb903df56eab5aad75d1137a102765", "lat": 38.918101666666665, "lon": -77.03439883333333, "fusion_lon": 0.0, "bike_id": "eccb903df56eab5aad75d1137a102765", "rental_uris": {"android": "https://dc.lft.to/lastmile_qr_scan", "ios": "https://dc.lft.to/lastmile_qr_scan"}, "is_reserved": 0, "type": "electric_scooter", "is_disabled": 0, "fusion_lat": 0.0}, {"name": "a6b769c65be7ebeab2667f1a399415d6", "lat": 38.90345383333333, "lon": -77.03169766666667, "fusion_lon": 0.0, "bike_id": "a6b769c65be7ebeab2667f1a399415d6", "rental_uris": {"android": "https://dc.lft.to/lastmile_qr_scan", "ios": "https://dc.lft.to/lastmile_qr_scan"}, "is_reserved": 0, "type": "electric_scooter", "is_disabled": 0, "fusion_lat": 0.0}, {"name": "bb4bf70288789ee2141a73f23b52aded", "lat": 38.942944833333335, "lon": -77.02173, "fusion_lon": 0.0, "bike_id": "bb4bf70288789ee2141a73f23b52aded", "rental_uris": {"android": "https://dc.lft.to/lastmile_qr_scan", "ios": "https://dc.lft.to/lastmile_qr_scan"}, "is_reserved": 0, "type": "electric_scooter", "is_disabled": 0, "fusion_lat": 0.0}, {"name": "7af8dc47035b56b322b6a404dfc34309", "lat": 38.9215275, "lon": -77.0386615, "fusion_lon": 0.0, "bike_id": "7af8dc47035b56b322b6a404dfc34309", "rental_uris": {"android": "https://dc.lft.to/lastmile_qr_scan", "ios": "https://dc.lft.to/lastmile_qr_scan"}, "is_reserved": 0, "type": "electric_scooter", "is_disabled": 0, "fusion_lat": 0.0}, {"name": "70f9a2290ad234dbc397b9e86925bc3a", "lat": 38.921446833333334, "lon": -77.043555, "fusion_lon": 0.0, "bike_id": "70f9a2290ad234dbc397b9e86925bc3a", "rental_uris": {"android": "https://dc.lft.to/lastmile_qr_scan", "ios": "https://dc.lft.to/lastmile_qr_scan"}, "is_reserved": 0, "type": "electric_scooter", "is_disabled": 0, "fusion_lat": 0.0}, {"name": "1c3c382cbb09de4d677ea0b0a7ac5590", "lat": 38.876301833333336, "lon": -76.96527316666666, "fusion_lon": 0.0, "bike_id": "1c3c382cbb09de4d677ea0b0a7ac5590", "rental_uris": {"android": "https://dc.lft.to/lastmile_qr_scan", "ios": "https://dc.lft.to/lastmile_qr_scan"}, "is_reserved": 0, "type": "electric_scooter", "is_disabled": 0, "fusion_lat": 0.0}, {"name": "7f4b69133c671877b2e15d433f08f545", "lat": 38.89374866666667, "lon": -77.0478585, "fusion_lon": 0.0, "bike_id": "7f4b69133c671877b2e15d433f08f545", "rental_uris": {"android": "https://dc.lft.to/lastmile_qr_scan", "ios": "https://dc.lft.to/lastmile_qr_scan"}, "is_reserved": 0, "type": "electric_scooter", "is_disabled": 0, "fusion_lat": 0.0}, {"name": "38d94462832e37b24fcfe3cd11d02b9d", "lat": 38.91266683333333, "lon": -77.03730666666667, "fusion_lon": 0.0, "bike_id": "38d94462832e37b24fcfe3cd11d02b9d", "rental_uris": {"android": "https://dc.lft.to/lastmile_qr_scan", "ios": "https://dc.lft.to/lastmile_qr_scan"}, "is_reserved": 0, "type": "electric_scooter", "is_disabled": 0, "fusion_lat": 0.0}, {"name": "e5a56e84e43e396f8e4fe0f1a2cd870a", "lat": 38.945553833333335, "lon": -77.07140183333334, "fusion_lon": 0.0, "bike_id": "e5a56e84e43e396f8e4fe0f1a2cd870a", "rental_uris": {"android": "https://dc.lft.to/lastmile_qr_scan", "ios": "https://dc.lft.to/lastmile_qr_scan"}, "is_reserved": 0, "type": "electric_scooter", "is_disabled": 0, "fusion_lat": 0.0}, {"name": "f0839bab98b1ff232caa0d2f2fbbe305", "lat": 38.910265833333334, "lon": -77.02955166666666, "fusion_lon": 0.0, "bike_id": "f0839bab98b1ff232caa0d2f2fbbe305", "rental_uris": {"android": "https://dc.lft.to/lastmile_qr_scan", "ios": "https://dc.lft.to/lastmile_qr_scan"}, "is_reserved": 0, "type": "electric_scooter", "is_disabled": 0, "fusion_lat": 0.0}, {"name": "b1d0ee6b601105612553e0a068971825", "lat": 38.905416833333334, "lon": -77.04354933333333, "fusion_lon": 0.0, "bike_id": "b1d0ee6b601105612553e0a068971825", "rental_uris": {"android": "https://dc.lft.to/lastmile_qr_scan", "ios": "https://dc.lft.to/lastmile_qr_scan"}, "is_reserved": 0, "type": "electric_scooter", "is_disabled": 0, "fusion_lat": 0.0}, {"name": "1e0e1c16e10114626fd67f81098ae885", "lat": 38.907983333333334, "lon": -77.04346666666666, "fusion_lon": 0.0, "bike_id": "1e0e1c16e10114626fd67f81098ae885", "rental_uris": {"android": "https://dc.lft.to/lastmile_qr_scan", "ios": "https://dc.lft.to/lastmile_qr_scan"}, "is_reserved": 0, "type": "electric_scooter", "is_disabled": 0, "fusion_lat": 0.0}, {"name": "f1a15e98e806a0f9e23c5d1c2d724f10", "lat": 38.8709225, "lon": -77.01219083333334, "fusion_lon": 0.0, "bike_id": "f1a15e98e806a0f9e23c5d1c2d724f10", "rental_uris": {"android": "https://dc.lft.to/lastmile_qr_scan", "ios": "https://dc.lft.to/lastmile_qr_scan"}, "is_reserved": 0, "type": "electric_bike", "is_disabled": 0, "fusion_lat": 0.0}, {"name": "ed9414f8901c1024db3fffc0f106730d", "lat": 38.921783833333336, "lon": -77.0422375, "fusion_lon": 0.0, "bike_id": "ed9414f8901c1024db3fffc0f106730d", "rental_uris": {"android": "https://dc.lft.to/lastmile_qr_scan", "ios": "https://dc.lft.to/lastmile_qr_scan"}, "is_reserved": 0, "type": "electric_scooter", "is_disabled": 0, "fusion_lat": 0.0}, {"name": "a56583baaf571ea5ee7dafac4f4d8520", "lat": 38.92339116666667, "lon": -77.03502066666667, "fusion_lon": 0.0, "bike_id": "a56583baaf571ea5ee7dafac4f4d8520", "rental_uris": {"android": "https://dc.lft.to/lastmile_qr_scan", "ios": "https://dc.lft.to/lastmile_qr_scan"}, "is_reserved": 0, "type": "electric_scooter", "is_disabled": 0, "fusion_lat": 0.0}, {"name": "33bfb7cfcf3aacad0775bbc34b56dc7c", "lat": 38.9076105, "lon": -77.0308055, "fusion_lon": 0.0, "bike_id": "33bfb7cfcf3aacad0775bbc34b56dc7c", "rental_uris": {"android": "https://dc.lft.to/lastmile_qr_scan", "ios": "https://dc.lft.to/lastmile_qr_scan"}, "is_reserved": 0, "type": "electric_scooter", "is_disabled": 0, "fusion_lat": 0.0}, {"name": "67201fd06e60114ed5c533c94c0266f0", "lat": 38.81937583333333, "lon": -77.002035, "fusion_lon": 0.0, "bike_id": "67201fd06e60114ed5c533c94c0266f0", "rental_uris": {"android": "https://dc.lft.to/lastmile_qr_scan", "ios": "https://dc.lft.to/lastmile_qr_scan"}, "is_reserved": 0, "type": "electric_bike", "is_disabled": 0, "fusion_lat": 0.0}, {"name": "542de89378ec12e609a5c158f1c51ccd", "lat": 38.8991775, "lon": -76.933646, "fusion_lon": 0.0, "bike_id": "542de89378ec12e609a5c158f1c51ccd", "rental_uris": {"android": "https://dc.lft.to/lastmile_qr_scan", "ios": "https://dc.lft.to/lastmile_qr_scan"}, "is_reserved": 0, "type": "electric_scooter", "is_disabled": 0, "fusion_lat": 0.0}, {"name": "7451086faf96532c2dd4de31b1cc271f", "lat": 38.915495, "lon": -77.02295783333334, "fusion_lon": 0.0, "bike_id": "7451086faf96532c2dd4de31b1cc271f", "rental_uris": {"android": "https://dc.lft.to/lastmile_qr_scan", "ios": "https://dc.lft.to/lastmile_qr_scan"}, "is_reserved": 0, "type": "electric_scooter", "is_disabled": 0, "fusion_lat": 0.0}, {"name": "b17b4517a64a4ad203da21aa9db7b76a", "lat": 38.9096025, "lon": -77.03255933333334, "fusion_lon": 0.0, "bike_id": "b17b4517a64a4ad203da21aa9db7b76a", "rental_uris": {"android": "https://dc.lft.to/lastmile_qr_scan", "ios": "https://dc.lft.to/lastmile_qr_scan"}, "is_reserved": 0, "type": "electric_scooter", "is_disabled": 0, "fusion_lat": 0.0}, {"name": "c58c8e072f395b630f65a676cd5a0600", "lat": 38.90053016666667, "lon": -77.00059033333334, "fusion_lon": 0.0, "bike_id": "c58c8e072f395b630f65a676cd5a0600", "rental_uris": {"android": "https://dc.lft.to/lastmile_qr_scan", "ios": "https://dc.lft.to/lastmile_qr_scan"}, "is_reserved": 0, "type": "electric_scooter", "is_disabled": 0, "fusion_lat": 0.0}, {"name": "5a74e8bdc07b9f40523206a66d61249d", "lat": 38.88643, "lon": -76.98210533333334, "fusion_lon": 0.0, "bike_id": "5a74e8bdc07b9f40523206a66d61249d", "rental_uris": {"android": "https://dc.lft.to/lastmile_qr_scan", "ios": "https://dc.lft.to/lastmile_qr_scan"}, "is_reserved": 0, "type": "electric_scooter", "is_disabled": 0, "fusion_lat": 0.0}, {"name": "96ecc9aaa527762974abc7cde99eb3cc", "lat": 38.9168475, "lon": -77.022941, "fusion_lon": 0.0, "bike_id": "96ecc9aaa527762974abc7cde99eb3cc", "rental_uris": {"android": "https://dc.lft.to/lastmile_qr_scan", "ios": "https://dc.lft.to/lastmile_qr_scan"}, "is_reserved": 0, "type": "electric_scooter", "is_disabled": 0, "fusion_lat": 0.0}, {"name": "85e83d0f097ba3d81a0a024e34525440", "lat": 38.88449716666667, "lon": -76.95095333333333, "fusion_lon": 0.0, "bike_id": "85e83d0f097ba3d81a0a024e34525440", "rental_uris": {"android": "https://dc.lft.to/lastmile_qr_scan", "ios": "https://dc.lft.to/lastmile_qr_scan"}, "is_reserved": 0, "type": "electric_scooter", "is_disabled": 0, "fusion_lat": 0.0}, {"name": "b43542efd51fabde35000ad742f8ef88", "lat": 38.88708183333333, "lon": -77.01367016666667, "fusion_lon": 0.0, "bike_id": "b43542efd51fabde35000ad742f8ef88", "rental_uris": {"android": "https://dc.lft.to/lastmile_qr_scan", "ios": "https://dc.lft.to/lastmile_qr_scan"}, "is_reserved": 0, "type": "electric_scooter", "is_disabled": 0, "fusion_lat": 0.0}, {"name": "8458661931ca49f48a1195a3db4e27a7", "lat": 38.8145025, "lon": -77.0527865, "fusion_lon": 0.0, "bike_id": "8458661931ca49f48a1195a3db4e27a7", "rental_uris": {"android": "https://dc.lft.to/lastmile_qr_scan", "ios": "https://dc.lft.to/lastmile_qr_scan"}, "is_reserved": 0, "type": "electric_bike", "is_disabled": 0, "fusion_lat": 0.0}, {"name": "31683c331177a921bd9921eed9f66413", "lat": 38.9202485, "lon": -77.01807566666666, "fusion_lon": 0.0, "bike_id": "31683c331177a921bd9921eed9f66413", "rental_uris": {"android": "https://dc.lft.to/lastmile_qr_scan", "ios": "https://dc.lft.to/lastmile_qr_scan"}, "is_reserved": 0, "type": "electric_scooter", "is_disabled": 0, "fusion_lat": 0.0}, {"name": "e6a70a99b75c748bd0e8414063d7c7a8", "lat": 38.9025475, "lon": -77.021447, "fusion_lon": 0.0, "bike_id": "e6a70a99b75c748bd0e8414063d7c7a8", "rental_uris": {"android": "https://dc.lft.to/lastmile_qr_scan", "ios": "https://dc.lft.to/lastmile_qr_scan"}, "is_reserved": 0, "type": "electric_scooter", "is_disabled": 0, "fusion_lat": 0.0}, {"name": "0f64a9ebd47ec2c7d771bf2dc9563b30", "lat": 38.902037166666666, "lon": -77.04623416666666, "fusion_lon": 0.0, "bike_id": "0f64a9ebd47ec2c7d771bf2dc9563b30", "rental_uris": {"android": "https://dc.lft.to/lastmile_qr_scan", "ios": "https://dc.lft.to/lastmile_qr_scan"}, "is_reserved": 0, "type": "electric_scooter", "is_disabled": 0, "fusion_lat": 0.0}, {"name": "24b43cfd030567b1f42e99a96578cf26", "lat": 38.95425633333333, "lon": -77.027688, "fusion_lon": 0.0, "bike_id": "24b43cfd030567b1f42e99a96578cf26", "rental_uris": {"android": "https://dc.lft.to/lastmile_qr_scan", "ios": "https://dc.lft.to/lastmile_qr_scan"}, "is_reserved": 0, "type": "electric_scooter", "is_disabled": 0, "fusion_lat": 0.0}, {"name": "a961ff3d486b0e2864156d645ecfca45", "lat": 38.8623585, "lon": -76.99073566666667, "fusion_lon": 0.0, "bike_id": "a961ff3d486b0e2864156d645ecfca45", "rental_uris": {"android": "https://dc.lft.to/lastmile_qr_scan", "ios": "https://dc.lft.to/lastmile_qr_scan"}, "is_reserved": 0, "type": "electric_bike", "is_disabled": 0, "fusion_lat": 0.0}, {"name": "44034e8d14e6f87aa2b7dbad22d1427a", "lat": 38.91703783333333, "lon": -77.02635866666667, "fusion_lon": 0.0, "bike_id": "44034e8d14e6f87aa2b7dbad22d1427a", "rental_uris": {"android": "https://dc.lft.to/lastmile_qr_scan", "ios": "https://dc.lft.to/lastmile_qr_scan"}, "is_reserved": 0, "type": "electric_scooter", "is_disabled": 0, "fusion_lat": 0.0}, {"name": "722bcf3d6b81f04e6c4bcc539824c5ca", "lat": 38.915716833333335, "lon": -77.01996383333334, "fusion_lon": 0.0, "bike_id": "722bcf3d6b81f04e6c4bcc539824c5ca", "rental_uris": {"android": "https://dc.lft.to/lastmile_qr_scan", "ios": "https://dc.lft.to/lastmile_qr_scan"}, "is_reserved": 0, "type": "electric_scooter", "is_disabled": 0, "fusion_lat": 0.0}, {"name": "57a6b0a85ccfe72671b6779aff388583", "lat": 38.890162833333335, "lon": -76.937335, "fusion_lon": 0.0, "bike_id": "57a6b0a85ccfe72671b6779aff388583", "rental_uris": {"android": "https://dc.lft.to/lastmile_qr_scan", "ios": "https://dc.lft.to/lastmile_qr_scan"}, "is_reserved": 0, "type": "electric_scooter", "is_disabled": 0, "fusion_lat": 0.0}, {"name": "5648a9df20baf9ca8c91b7612326bd99", "lat": 38.95633816666667, "lon": -77.03306416666666, "fusion_lon": 0.0, "bike_id": "5648a9df20baf9ca8c91b7612326bd99", "rental_uris": {"android": "https://dc.lft.to/lastmile_qr_scan", "ios": "https://dc.lft.to/lastmile_qr_scan"}, "is_reserved": 0, "type": "electric_scooter", "is_disabled": 0, "fusion_lat": 0.0}, {"name": "34d8c7151cbfcf4968638e2a1a3d3c2d", "lat": 38.90441716666667, "lon": -77.02845816666667, "fusion_lon": 0.0, "bike_id": "34d8c7151cbfcf4968638e2a1a3d3c2d", "rental_uris": {"android": "https://dc.lft.to/lastmile_qr_scan", "ios": "https://dc.lft.to/lastmile_qr_scan"}, "is_reserved": 0, "type": "electric_scooter", "is_disabled": 0, "fusion_lat": 0.0}, {"name": "8e0b1cf4507c24cc8fb6cfbbce0ec383", "lat": 38.94296766666667, "lon": -77.05875183333333, "fusion_lon": 0.0, "bike_id": "8e0b1cf4507c24cc8fb6cfbbce0ec383", "rental_uris": {"android": "https://dc.lft.to/lastmile_qr_scan", "ios": "https://dc.lft.to/lastmile_qr_scan"}, "is_reserved": 0, "type": "electric_scooter", "is_disabled": 0, "fusion_lat": 0.0}, {"name": "3884ac7a7585c3407b28f2e2c90f2e23", "lat": 38.933358166666665, "lon": -77.02913283333334, "fusion_lon": 0.0, "bike_id": "3884ac7a7585c3407b28f2e2c90f2e23", "rental_uris": {"android": "https://dc.lft.to/lastmile_qr_scan", "ios": "https://dc.lft.to/lastmile_qr_scan"}, "is_reserved": 0, "type": "electric_scooter", "is_disabled": 0, "fusion_lat": 0.0}, {"name": "f57c7e1d09e8b9194e46f755a0149178", "lat": 38.90976233333333, "lon": -77.04482466666667, "fusion_lon": 0.0, "bike_id": "f57c7e1d09e8b9194e46f755a0149178", "rental_uris": {"android": "https://dc.lft.to/lastmile_qr_scan", "ios": "https://dc.lft.to/lastmile_qr_scan"}, "is_reserved": 0, "type": "electric_scooter", "is_disabled": 0, "fusion_lat": 0.0}, {"name": "c06a5db1ebb753b6e6ddd58d57a0932b", "lat": 38.90118183333333, "lon": -77.04776916666667, "fusion_lon": 0.0, "bike_id": "c06a5db1ebb753b6e6ddd58d57a0932b", "rental_uris": {"android": "https://dc.lft.to/lastmile_qr_scan", "ios": "https://dc.lft.to/lastmile_qr_scan"}, "is_reserved": 0, "type": "electric_scooter", "is_disabled": 0, "fusion_lat": 0.0}, {"name": "a4f01bde6cff397df7fa1c22b905094e", "lat": 38.902203, "lon": -77.045153, "fusion_lon": 0.0, "bike_id": "a4f01bde6cff397df7fa1c22b905094e", "rental_uris": {"android": "https://dc.lft.to/lastmile_qr_scan", "ios": "https://dc.lft.to/lastmile_qr_scan"}, "is_reserved": 0, "type": "electric_scooter", "is_disabled": 0, "fusion_lat": 0.0}, {"name": "9303643bef650a574ca700f1ec135391", "lat": 38.92870766666667, "lon": -77.03344066666666, "fusion_lon": 0.0, "bike_id": "9303643bef650a574ca700f1ec135391", "rental_uris": {"android": "https://dc.lft.to/lastmile_qr_scan", "ios": "https://dc.lft.to/lastmile_qr_scan"}, "is_reserved": 0, "type": "electric_scooter", "is_disabled": 0, "fusion_lat": 0.0}, {"name": "dc9e73709a77fd2947074c39695f26b6", "lat": 38.844238, "lon": -76.99775233333334, "fusion_lon": 0.0, "bike_id": "dc9e73709a77fd2947074c39695f26b6", "rental_uris": {"android": "https://dc.lft.to/lastmile_qr_scan", "ios": "https://dc.lft.to/lastmile_qr_scan"}, "is_reserved": 0, "type": "electric_scooter", "is_disabled": 0, "fusion_lat": 0.0},