{"data": {"bikes": [{"type": "electric_scooter", "name": "069eef118817669f404175294b52ceaf", "rental_uris": {"ios": "https://dc.lft.to/lastmile_qr_scan", "android": "https://dc.lft.to/lastmile_qr_scan"}, "fusion_lon": 0.0, "lat": 38.915338, "is_disabled": 0, "bike_id": "069eef118817669f404175294b52ceaf", "fusion_lat": 0.0, "is_reserved": 0, "lon": -77.01220516666666}, {"type": "electric_scooter", "name": "21028baf58dfeee0dbc22af5c63a3215", "rental_uris": {"ios": "https://dc.lft.to/lastmile_qr_scan", "android": "https://dc.lft.to/lastmile_qr_scan"}, "fusion_lon": 0.0, "lat": 38.87657866666667, "is_disabled": 0, "bike_id": "21028baf58dfeee0dbc22af5c63a3215", "fusion_lat": 0.0, "is_reserved": 0, "lon": -77.00573366666667}, {"type": "electric_scooter", "name": "f621cea5d445f8940c7c7379d3b501f1", "rental_uris": {"ios": "https://dc.lft.to/lastmile_qr_scan", "android": "https://dc.lft.to/lastmile_qr_scan"}, "fusion_lon": 0.0, "lat": 38.887662666666664, "is_disabled": 0, "bike_id": "f621cea5d445f8940c7c7379d3b501f1", "fusion_lat": 0.0, "is_reserved": 0, "lon": -76.97747633333333}, {"type": "electric_scooter", "name": "bf9f21c30d47005d66863600c5f00679", "rental_uris": {"ios": "https://dc.lft.to/lastmile_qr_scan", "android": "https://dc.lft.to/lastmile_qr_scan"}, "fusion_lon": 0.0, "lat": 38.909712999999996, "is_disabled": 0, "bike_id": "bf9f21c30d47005d66863600c5f00679", "fusion_lat": 0.0, "is_reserved": 0, "lon": -77.0329515}, {"type": "electric_scooter", "name": "e443a906ec1b49cc54a327a0a1de1be7", "rental_uris": {"ios": "https://dc.lft.to/lastmile_qr_scan", "android": "https://dc.lft.to/lastmile_qr_scan"}, "fusion_lon": 0.0, "lat": 38.91924266666667, "is_disabled": 0, "bike_id": "e443a906ec1b49cc54a327a0a1de1be7", "fusion_lat": 0.0, "is_reserved": 0, "lon": -77.03171433333333}, {"type": "electric_bike", "name": "864b69ea3d0a8c49d593efe17a9924d4", "rental_uris": {"ios": "https://dc.lft.to/lastmile_qr_scan", "android": "https://dc.lft.to/lastmile_qr_scan"}, "fusion_lon": 0.0, "lat": 39.0340625, "is_disabled": 0, "bike_id": "864b69ea3d0a8c49d593efe17a9924d4", "fusion_lat": 0.0, "is_reserved": 0, "lon": -77.04154483333333}, {"type": "electric_scooter", "name": "cb645c6ea6466878a154fa7139d97d12", "rental_uris": {"ios": "https://dc.lft.to/lastmile_qr_scan", "android": "https://dc.lft.to/lastmile_qr_scan"}, "fusion_lon": 0.0, "lat": 38.890459, "is_disabled": 0, "bike_id": "cb645c6ea6466878a154fa7139d97d12", "fusion_lat": 0.0, "is_reserved": 0, "lon": -76.990387}, {"type": "electric_scooter", "name": "5ae77d23368db8e19bb3d8c1f1bc3288", "rental_uris": {"ios": "https://dc.lft.to/lastmile_qr_scan", "android": "https://dc.lft.to/lastmile_qr_scan"}, "fusion_lon": 0.0, "lat": 38.943123666666665, "is_disabled": 0, "bike_id": "5ae77d23368db8e19bb3d8c1f1bc3288", "fusion_lat": 0.0, "is_reserved": 0, "lon": -77.01726666666667}, {"type": "electric_scooter", "name": "7ebacffd282c997c15f32649f46af2e7", "rental_uris": {"ios": "https://dc.lft.to/lastmile_qr_scan", "android": "https://dc.lft.to/lastmile_qr_scan"}, "fusion_lon": 0.0, "lat": 38.88486366666667, "is_disabled": 0, "bike_id": "7ebacffd282c997c15f32649f46af2e7", "fusion_lat": 0.0, "is_reserved": 0, "lon": -77.00711983333333}, {"type": "electric_scooter", "name": "14b225e7cf5cd3c8428bd5c8023fcb8e", "rental_uris": {"ios": "https://dc.lft.to/lastmile_qr_scan", "android": "https://dc.lft.to/lastmile_qr_scan"}, "fusion_lon": 0.0, "lat": 38.906897, "is_disabled": 0, "bike_id": "14b225e7cf5cd3c8428bd5c8023fcb8e", "fusion_lat": 0.0, "is_reserved": 0, "lon": -76.98492816666666}, {"type": "electric_scooter", "name": "36b7781a174f303ffa55e31e51d5fb25", "rental_uris": {"ios": "https://dc.lft.to/lastmile_qr_scan", "android": "https://dc.lft.to/lastmile_qr_scan"}, "fusion_lon": 0.0, "lat": 38.908411666666666, "is_disabled": 0, "bike_id": "36b7781a174f303ffa55e31e51d5fb25", "fusion_lat": 0.0, "is_reserved": 0, "lon": -77.055768}, {"type": "electric_scooter", "name": "5bd081c4186dd3eb52d7aa0ef695f457", "rental_uris": {"ios": "https://dc.lft.to/lastmile_qr_scan", "android": "https://dc.lft.to/lastmile_qr_scan"}, "fusion_lon": 0.0, "lat": 38.91916, "is_disabled": 0, "bike_id": "5bd081c4186dd3eb52d7aa0ef695f457", "fusion_lat": 0.0, "is_reserved": 0, "lon": -77.03174033333333}, {"type": "electric_scooter", "name": "ebb5dd61bcfea7b1a313cef6a75023c7", "rental_uris": {"ios": "https://dc.lft.to/lastmile_qr_scan", "android": "https://dc.lft.to/lastmile_qr_scan"}, "fusion_lon": 0.0, "lat": 38.9181575, "is_disabled": 0, "bike_id": "ebb5dd61bcfea7b1a313cef6a75023c7", "fusion_lat": 0.0, "is_reserved": 0, "lon": -77.02473566666667}, {"type": "electric_scooter", "name": "7115f38560a1f09be56e6ce4b66bc1bd", "rental_uris": {"ios": "https://dc.lft.to/lastmile_qr_scan", "android": "https://dc.lft.to/lastmile_qr_scan"}, "fusion_lon": 0.0, "lat": 38.919121, "is_disabled": 0, "bike_id": "7115f38560a1f09be56e6ce4b66bc1bd", "fusion_lat": 0.0, "is_reserved": 0, "lon": -77.03174733333333}, {"type": "electric_scooter", "name": "cd30a4193bbeacd47066bd4a9e1a0aba", "rental_uris": {"ios": "https://dc.lft.to/lastmile_qr_scan", "android": "https://dc.lft.to/lastmile_qr_scan"}, "fusion_lon": 0.0, "lat": 38.9059125, "is_disabled": 0, "bike_id": "cd30a4193bbeacd47066bd4a9e1a0aba", "fusion_lat": 0.0, "is_reserved": 0, "lon": -77.06557033333333}, {"type": "electric_scooter", "name": "22599db43adb3d8331fc957e9719924f", "rental_uris": {"ios": "https://dc.lft.to/lastmile_qr_scan", "android": "https://dc.lft.to/lastmile_qr_scan"}, "fusion_lon": 0.0, "lat": 38.8863115, "is_disabled": 0, "bike_id": "22599db43adb3d8331fc957e9719924f", "fusion_lat": 0.0, "is_reserved": 0, "lon": -77.015317}, {"type": "electric_scooter", "name": "2239b316ff33beb25c8beb207dc3cc51", "rental_uris": {"ios": "https://dc.lft.to/lastmile_qr_scan", "android": "https://dc.lft.to/lastmile_qr_scan"}, "fusion_lon": 0.0, "lat": 38.90559666666667, "is_disabled": 0, "bike_id": "2239b316ff33beb25c8beb207dc3cc51", "fusion_lat": 0.0, "is_reserved": 0, "lon": -77.005826}, {"type": "electric_scooter", "name": "23683a0edde070aeb788cf260a0b7c41", "rental_uris": {"ios": "https://dc.lft.to/lastmile_qr_scan", "android": "https://dc.lft.to/lastmile_qr_scan"}, "fusion_lon": 0.0, "lat": 38.854608666666664, "is_disabled": 0, "bike_id": "23683a0edde070aeb788cf260a0b7c41", "fusion_lat": 0.0, "is_reserved": 0, "lon": -76.97224533333333}, {"type": "electric_scooter", "name": "e7f788f3f2f0006bc34b1e4c8c82c893", "rental_uris": {"ios": "https://dc.lft.to/lastmile_qr_scan", "android": "https://dc.lft.to/lastmile_qr_scan"}, "fusion_lon": 0.0, "lat": 38.92434516666667, "is_disabled": 0, "bike_id": "e7f788f3f2f0006bc34b1e4c8c82c893", "fusion_lat": 0.0, "is_reserved": 0, "lon": -77.0521195}, {"type": "electric_scooter", "name": "979b0b580afcd688863f0e8ed2f89ccc", "rental_uris": {"ios": "https://dc.lft.to/lastmile_qr_scan", "android": "https://dc.lft.to/lastmile_qr_scan"}, "fusion_lon": 0.0, "lat": 38.935286, "is_disabled": 0, "bike_id": "979b0b580afcd688863f0e8ed2f89ccc", "fusion_lat": 0.0, "is_reserved": 0, "lon": -77.023511}, {"type": "electric_scooter", "name": "288dc509b4c7d40883b7267b3b9d510f", "rental_uris": {"ios": "https://dc.lft.to/lastmile_qr_scan", "android": "https://dc.lft.to/lastmile_qr_scan"}, "fusion_lon": 0.0, "lat": 38.897183, "is_disabled": 0, "bike_id": "288dc509b4c7d40883b7267b3b9d510f", "fusion_lat": 0.0, "is_reserved": 0, "lon": -77.008}, {"type": "electric_bike", "name": "b4a4c4e2bc3f14d7953a63429f8a08b4", "rental_uris": {"ios": "https://dc.lft.to/lastmile_qr_scan", "android": "https://dc.lft.to/lastmile_qr_scan"}, "fusion_lon": 0.0, "lat": 38.944106, "is_disabled": 0, "bike_id": "b4a4c4e2bc3f14d7953a63429f8a08b4", "fusion_lat": 0.0, "is_reserved": 0, "lon": -77.06251333333333}, {"type": "electric_scooter", "name": "e60b446eda5b643235b28f61005887ba", "rental_uris": {"ios": "https://dc.lft.to/lastmile_qr_scan", "android": "https://dc.lft.to/lastmile_qr_scan"}, "fusion_lon": 0.0, "lat": 38.90265633333333, "is_disabled": 0, "bike_id": "e60b446eda5b643235b28f61005887ba", "fusion_lat": 0.0, "is_reserved": 0, "lon": -77.03846183333333}, {"type": "electric_scooter", "name": "cda653f042bf30dba16ef2d5096de081", "rental_uris": {"ios": "https://dc.lft.to/lastmile_qr_scan", "android": "https://dc.lft.to/lastmile_qr_scan"}, "fusion_lon": 0.0, "lat": 38.87895733333333, "is_disabled": 0, "bike_id": "cda653f042bf30dba16ef2d5096de081", "fusion_lat": 0.0, "is_reserved": 0, "lon": -77.01360633333333}, {"type": "electric_scooter", "name": "a4f7917e22b39ca7377afd0551be8d97", "rental_uris": {"ios": "https://dc.lft.to/lastmile_qr_scan", "android": "https://dc.lft.to/lastmile_qr_scan"}, "fusion_lon": 0.0, "lat": 38.904737, "is_disabled": 0, "bike_id": "a4f7917e22b39ca7377afd0551be8d97", "fusion_lat": 0.0, "is_reserved": 0, "lon": -77.04867233333333}, {"type": "electric_scooter", "name": "411da658d5a47b2bf73d6bf7e28fd83b", "rental_uris": {"ios": "https://dc.lft.to/lastmile_qr_scan", "android": "https://dc.lft.to/lastmile_qr_scan"}, "fusion_lon": 0.0, "lat": 38.93732833333333, "is_disabled": 0, "bike_id": "411da658d5a47b2bf73d6bf7e28fd83b", "fusion_lat": 0.0, "is_reserved": 0, "lon": -77.032648}, {"type": "electric_scooter", "name": "d4e964f8a26a0cd98182caf63dea5e5d", "rental_uris": {"ios": "https://dc.lft.to/lastmile_qr_scan", "android": "https://dc.lft.to/lastmile_qr_scan"}, "fusion_lon": 0.0, "lat": 38.9017105, "is_disabled": 0, "bike_id": "d4e964f8a26a0cd98182caf63dea5e5d", "fusion_lat": 0.0, "is_reserved": 0, "lon": -77.0248105}, {"type": "electric_scooter", "name": "96b71b3233291104a71f52e44e5347fb", "rental_uris": {"ios": "https://dc.lft.to/lastmile_qr_scan", "android": "https://dc.lft.to/lastmile_qr_scan"}, "fusion_lon": 0.0, "lat": 38.92962583333333, "is_disabled": 0, "bike_id": "96b71b3233291104a71f52e44e5347fb", "fusion_lat": 0.0, "is_reserved": 0, "lon": -77.03095416666666}, {"type": "electric_scooter", "name": "36b8a0c064b9e8f9f06da3f8b9fa8222", "rental_uris": {"ios": "https://dc.lft.to/lastmile_qr_scan", "android": "https://dc.lft.to/lastmile_qr_scan"}, "fusion_lon": 0.0, "lat": 38.89222483333333, "is_disabled": 0, "bike_id": "36b8a0c064b9e8f9f06da3f8b9fa8222", "fusion_lat": 0.0, "is_reserved": 0, "lon": -77.02228483333333}, {"type": "electric_scooter", "name": "6e796039bcab008c9b7776d0ccd54332", "rental_uris": {"ios": "https://dc.lft.to/lastmile_qr_scan", "android": "https://dc.lft.to/lastmile_qr_scan"}, "fusion_lon": 0.0, "lat": 38.975328, "is_disabled": 0, "bike_id": "6e796039bcab008c9b7776d0ccd54332", "fusion_lat": 0.0, "is_reserved": 0, "lon": -77.01457916666666}, {"type": "electric_scooter", "name": "f10ffb7f956af7967a5f997ecc380c13", "rental_uris": {"ios": "https://dc.lft.to/lastmile_qr_scan", "android": "https://dc.lft.to/lastmile_qr_scan"}, "fusion_lon": 0.0, "lat": 38.913977833333334, "is_disabled": 0, "bike_id": "f10ffb7f956af7967a5f997ecc380c13", "fusion_lat": 0.0, "is_reserved": 0, "lon": -77.04173133333333}, {"type": "electric_bike", "name": "941cba1d2da1f54a0f1e71ec905078cb", "rental_uris": {"ios": "https://dc.lft.to/lastmile_qr_scan", "android": "https://dc.lft.to/lastmile_qr_scan"}, "fusion_lon": 0.0, "lat": 38.94820033333333, "is_disabled": 0, "bike_id": "941cba1d2da1f54a0f1e71ec905078cb", "fusion_lat": 0.0, "is_reserved": 0, "lon": -77.02978233333333}, {"type": "electric_scooter", "name": "7d529e12a54ba055f3cf317038d0f21d", "rental_uris": {"ios": "https://dc.lft.to/lastmile_qr_scan", "android": "https://dc.lft.to/lastmile_qr_scan"}, "fusion_lon": 0.0, "lat": 38.89228266666667, "is_disabled": 0, "bike_id": "7d529e12a54ba055f3cf317038d0f21d", "fusion_lat": 0.0, "is_reserved": 0, "lon": -77.03956916666667}, {"type": "electric_scooter", "name": "96ebc5f1b020cddea16eeaa60b38ac17", "rental_uris": {"ios": "https://dc.lft.to/lastmile_qr_scan", "android": "https://dc.lft.to/lastmile_qr_scan"}, "fusion_lon": 0.0, "lat": 38.923675, "is_disabled": 0, "bike_id": "96ebc5f1b020cddea16eeaa60b38ac17", "fusion_lat": 0.0, "is_reserved": 0, "lon": -77.050274}, {"type": "electric_scooter", "name": "e3b8c396216a462621999c85584c6094", "rental_uris": {"ios": "https://dc.lft.to/lastmile_qr_scan", "android": "https://dc.lft.to/lastmile_qr_scan"}, "fusion_lon": 0.0, "lat": 38.93435516666667, "is_disabled": 0, "bike_id": "e3b8c396216a462621999c85584c6094", "fusion_lat": 0.0, "is_reserved": 0, "lon": -77.03458166666667}, {"type": "electric_scooter", "name": "fe07b565294b94f5a9b4bda398c75bf4", "rental_uris": {"ios": "https://dc.lft.to/lastmile_qr_scan", "android": "https://dc.lft.to/lastmile_qr_scan"}, "fusion_lon": 0.0, "lat": 38.932582333333336, "is_disabled": 0, "bike_id": "fe07b565294b94f5a9b4bda398c75bf4", "fusion_lat": 0.0, "is_reserved": 0, "lon": -77.03860016666667}, {"type": "electric_scooter", "name": "d1e78184f04cca284b5eda90ce95669a", "rental_uris": {"ios": "https://dc.lft.to/lastmile_qr_scan", "android": "https://dc.lft.to/lastmile_qr_scan"}, "fusion_lon": 0.0, "lat": 38.919176666666665, "is_disabled": 0, "bike_id": "d1e78184f04cca284b5eda90ce95669a", "fusion_lat": 0.0, "is_reserved": 0, "lon": -77.04470516666666}, {"type": "electric_scooter", "name": "f061fcd58d11bd3febb0456683d2e707", "rental_uris": {"ios": "https://dc.lft.to/lastmile_qr_scan", "android": "https://dc.lft.to/lastmile_qr_scan"}, "fusion_lon": 0.0, "lat": 38.89707333333333, "is_disabled": 0, "bike_id": "f061fcd58d11bd3febb0456683d2e707", "fusion_lat": 0.0, "is_reserved": 0, "lon": -77.0228885}, {"type": "electric_scooter", "name": "4c840c5abb829466fd6f2540090ce2a3", "rental_uris": {"ios": "https://dc.lft.to/lastmile_qr_scan", "android": "https://dc.lft.to/lastmile_qr_scan"}, "fusion_lon": 0.0, "lat": 38.899200666666665, "is_disabled": 0, "bike_id": "4c840c5abb829466fd6f2540090ce2a3", "fusion_lat": 0.0, "is_reserved": 0, "lon": -76.98535783333334}, {"type": "electric_scooter", "name": "23413a71a45f0018ebc1a6ce0d9c80df", "rental_uris": {"ios": "https://dc.lft.to/lastmile_qr_scan", "android": "https://dc.lft.to/lastmile_qr_scan"}, "fusion_lon": 0.0, "lat": 38.855761, "is_disabled": 0, "bike_id": "23413a71a45f0018ebc1a6ce0d9c80df", "fusion_lat": 0.0, "is_reserved": 0, "lon": -76.96654466666666}, {"type": "electric_bike", "name": "04e3bbeba2da7b352b753bec78deb5aa", "rental_uris": {"ios": "https://dc.lft.to/lastmile_qr_scan", "android": "https://dc.lft.to/lastmile_qr_scan"}, "fusion_lon": 0.0, "lat": 38.944113333333334, "is_disabled": 0, "bike_id": "04e3bbeba2da7b352b753bec78deb5aa", "fusion_lat": 0.0, "is_reserved": 0, "lon": -77.05514666666667}, {"type": "electric_scooter", "name": "8a2a31ca18f6921827b6bce1b1b97ccd", "rental_uris": {"ios": "https://dc.lft.to/lastmile_qr_scan", "android": "https://dc.lft.to/lastmile_qr_scan"}, "fusion_lon": 0.0, "lat": 38.904756, "is_disabled": 0, "bike_id": "8a2a31ca18f6921827b6bce1b1b97ccd", "fusion_lat": 0.0, "is_reserved": 0, "lon": -76.98234983333333}, {"type": "electric_scooter", "name": "927f5de287635eb4200002678466bc00", "rental_uris": {"ios": "https://dc.lft.to/lastmile_qr_scan", "android": "https://dc.lft.to/lastmile_qr_scan"}, "fusion_lon": 0.0, "lat": 38.883988, "is_disabled": 0, "bike_id": "927f5de287635eb4200002678466bc00", "fusion_lat": 0.0, "is_reserved": 0, "lon": -76.9304435}, {"type": "electric_scooter", "name": "c5629f8b76a297d2f1888a6cb6e16b61", "rental_uris": {"ios": "https://dc.lft.to/lastmile_qr_scan", "android": "https://dc.lft.to/lastmile_qr_scan"}, "fusion_lon": 0.0, "lat": 38.8923255, "is_disabled": 0, "bike_id": "c5629f8b76a297d2f1888a6cb6e16b61", "fusion_lat": 0.0, "is_reserved": 0, "lon": -77.02179633333333}, {"type": "electric_scooter", "name": "f7b1bf54c408dec70869caef0589e8d7", "rental_uris": {"ios": "https://dc.lft.to/lastmile_qr_scan", "android": "https://dc.lft.to/lastmile_qr_scan"}, "fusion_lon": 0.0, "lat": 38.93751266666666, "is_disabled": 0, "bike_id": "f7b1bf54c408dec70869caef0589e8d7", "fusion_lat": 0.0, "is_reserved": 0, "lon": -77.0295535}, {"type": "electric_scooter", "name": "ed728c843a29734d8b85a898a99abb2f", "rental_uris": {"ios": "https://dc.lft.to/lastmile_qr_scan", "android": "https://dc.lft.to/lastmile_qr_scan"}, "fusion_lon": 0.0, "lat": 38.89558733333333, "is_disabled": 0, "bike_id": "ed728c843a29734d8b85a898a99abb2f", "fusion_lat": 0.0, "is_reserved": 0, "lon": -77.0467295}, {"type": "electric_scooter", "name": "3c555a0db6aeb83aefdeddaace119ec5", "rental_uris": {"ios": "https://dc.lft.to/lastmile_qr_scan", "android": "https://dc.lft.to/lastmile_qr_scan"}, "fusion_lon": 0.0, "lat": 38.901982833333335, "is_disabled": 0, "bike_id": "3c555a0db6aeb83aefdeddaace119ec5", "fusion_lat": 0.0, "is_reserved": 0, "lon": -77.02097733333333}, {"type": "electric_scooter", "name": "da46c72cb5ebcc3bcd98d49ac37dad30", "rental_uris": {"ios": "https://dc.lft.to/lastmile_qr_scan", "android": "https://dc.lft.to/lastmile_qr_scan"}, "fusion_lon": 0.0, "lat": 38.93920816666667, "is_disabled": 0, "bike_id": "da46c72cb5ebcc3bcd98d49ac37dad30", "fusion_lat": 0.0, "is_reserved": 0, "lon": -77.06049333333333}, {"type": "electric_scooter", "name": "95b9f5284e3846b74bda4fa4aabb466b", "rental_uris": {"ios": "https://dc.lft.to/lastmile_qr_scan", "android": "https://dc.lft.to/lastmile_qr_scan"}, "fusion_lon": 0.0, "lat": 38.907847333333336, "is_disabled": 0, "bike_id": "95b9f5284e3846b74bda4fa4aabb466b", "fusion_lat": 0.0, "is_reserved": 0, "lon": -77.0110765}, {"type": "electric_scooter", "name": "8c87d03fa1927fbd0047d90c9647637b", "rental_uris": {"ios": "https://dc.lft.to/lastmile_qr_scan", "android": "https://dc.lft.to/lastmile_qr_scan"}, "fusion_lon": 0.0, "lat": 38.935348166666664, "is_disabled": 0, "bike_id": "8c87d03fa1927fbd0047d90c9647637b", "fusion_lat": 0.0, "is_reserved": 0, "lon": -77.02344533333333}, {"type": "electric_scooter", "name": "246f49380b0ad07d00802e86718b6724", "rental_uris": {"ios": "https://dc.lft.to/lastmile_qr_scan", "android": "https://dc.lft.to/lastmile_qr_scan"}, "fusion_lon": 0.0, "lat": 38.92953766666667, "is_disabled": 0, "bike_id": "246f49380b0ad07d00802e86718b6724", "fusion_lat": 0.0, "is_reserved": 0, "lon": -77.04403316666667}, {"type": "electric_scooter", "name": "29db2ae19415a6242b872d37351e1393", "rental_uris": {"ios": "https://dc.lft.to/lastmile_qr_scan", "android": "https://dc.lft.to/lastmile_qr_scan"}, "fusion_lon": 0.0, "lat": 38.92045983333333, "is_disabled": 0, "bike_id": "29db2ae19415a6242b872d37351e1393", "fusion_lat": 0.0, "is_reserved": 0, "lon": -77.02575283333333}, {"type": "electric_scooter", "name": "0ac2b37ce904a41275a4d0daba72f8ad", "rental_uris": {"ios": "https://dc.lft.to/lastmile_qr_scan", "android": "https://dc.lft.to/lastmile_qr_scan"}, "fusion_lon": 0.0, "lat": 38.90939933333333, "is_disabled": 0, "bike_id": "0ac2b37ce904a41275a4d0daba72f8ad", "fusion_lat": 0.0, "is_reserved": 0, "lon": -77.0281105}, {"type": "electric_scooter", "name": "22724f56f88203b8f05c15d06e902515", "rental_uris": {"ios": "https://dc.lft.to/lastmile_qr_scan", "android": "https://dc.lft.to/lastmile_qr_scan"}, "fusion_lon": 0.0, "lat": 38.8554675, "is_disabled": 0, "bike_id": "22724f56f88203b8f05c15d06e902515", "fusion_lat": 0.0, "is_reserved": 0, "lon": -76.98755433333334}, {"type": "electric_scooter", "name": "c0afefcedfe85b66b7b3894ce6100823", "rental_uris": {"ios": "https://dc.lft.to/lastmile_qr_scan", "android": "https://dc.lft.to/lastmile_qr_scan"}, "fusion_lon": 0.0, "lat": 38.92298483333333, "is_disabled": 0, "bike_id": "c0afefcedfe85b66b7b3894ce6100823", "fusion_lat": 0.0, "is_reserved": 0, "lon": -77.04267566666667}, {"type": "electric_scooter", "name": "51a6cca89ec870c8247c3389cd4854c9", "rental_uris": {"ios": "https://dc.lft.to/lastmile_qr_scan", "android": "https://dc.lft.to/lastmile_qr_scan"}, "fusion_lon": 0.0, "lat": 38.90618833333333, "is_disabled": 0, "bike_id": "51a6cca89ec870c8247c3389cd4854c9", "fusion_lat": 0.0, "is_reserved": 0, "lon": -77.0035155}, {"type": "electric_scooter", "name": "5d9c84656b4d801d02b5504415a60cc5", "rental_uris": {"ios": "https://dc.lft.to/lastmile_qr_scan", "android": "https://dc.lft.to/lastmile_qr_scan"}, "fusion_lon": 0.0, "lat": 38.922394833333335, "is_disabled": 0, "bike_id": "5d9c84656b4d801d02b5504415a60cc5", "fusion_lat": 0.0, "is_reserved": 0, "lon": -77.0209385}, {"type": "electric_scooter", "name": "688966646f9e0594c14707e25ea0fe82", "rental_uris": {"ios": "https://dc.lft.to/lastmile_qr_scan", "android": "https://dc.lft.to/lastmile_qr_scan"}, "fusion_lon": 0.0, "lat": 38.901126833333336, "is_disabled": 0, "bike_id": "688966646f9e0594c14707e25ea0fe82", "fusion_lat": 0.0, "is_reserved": 0, "lon": -77.04482283333333}, {"type": "electric_scooter", "name": "4b98872d2ed47b7a8b1afff0aaa963ba", "rental_uris": {"ios": "https://dc.lft.to/lastmile_qr_scan", "android": "https://dc.lft.to/lastmile_qr_scan"}, "fusion_lon": 0.0, "lat": 38.925052666666666, "is_disabled": 0, "bike_id": "4b98872d2ed47b7a8b1afff0aaa963ba", "fusion_lat": 0.0, "is_reserved": 0, "lon": -77.00231866666667}, {"type": "electric_scooter", "name": "f46687feb773a103023fa7fdd9044d9c", "rental_uris": {"ios": "https://dc.lft.to/lastmile_qr_scan", "android": "https://dc.lft.to/lastmile_qr_scan"}, "fusion_lon": 0.0, "lat": 38.89721216666667, "is_disabled": 0, "bike_id": "f46687feb773a103023fa7fdd9044d9c", "fusion_lat": 0.0, "is_reserved": 0, "lon": -77.04337966666667}, {"type": "electric_bike", "name": "095ad7265c94e281d23ed9c0efcd248e", "rental_uris": {"ios": "https://dc.lft.to/lastmile_qr_scan", "android": "https://dc.lft.to/lastmile_qr_scan"}, "fusion_lon": 0.0, "lat": 38.8408515, "is_disabled": 0, "bike_id": "095ad7265c94e281d23ed9c0efcd248e", "fusion_lat": 0.0, "is_reserved": 0, "lon": -76.9702665}, {"type": "electric_scooter", "name": "04af65a9b5dce95b351a5a446f13d988", "rental_uris": {"ios": "https://dc.lft.to/lastmile_qr_scan", "android": "https://dc.lft.to/lastmile_qr_scan"}, "fusion_lon": 0.0, "lat": 38.919849, "is_disabled": 0, "bike_id": "04af65a9b5dce95b351a5a446f13d988", "fusion_lat": 0.0, "is_reserved": 0, "lon": -76.97310316666666}, {"type": "electric_bike", "name": "714f51f5207029ab3cf215df511ede30", "rental_uris": {"ios": "https://dc.lft.to/lastmile_qr_scan", "android": "https://dc.lft.to/lastmile_qr_scan"}, "fusion_lon": 0.0, "lat": 38.88359883333333, "is_disabled": 0, "bike_id": "714f51f5207029ab3cf215df511ede30", "fusion_lat": 0.0, "is_reserved": 0, "lon": -76.9821345}, {"type": "electric_scooter", "name": "1fb77d8269b21d2b501df0372924eacf", "rental_uris": {"ios": "https://dc.lft.to/lastmile_qr_scan", "android": "https://dc.lft.to/lastmile_qr_scan"}, "fusion_lon": 0.0, "lat": 38.897449333333334, "is_disabled": 0, "bike_id": "1fb77d8269b21d2b501df0372924eacf", "fusion_lat": 0.0, "is_reserved": 0, "lon": -77.00918516666667}, {"type": "electric_scooter", "name": "50c4690a4a542b3e229a054b49be8190", "rental_uris": {"ios": "https://dc.lft.to/lastmile_qr_scan", "android": "https://dc.lft.to/lastmile_qr_scan"}, "fusion_lon": 0.0, "lat": 38.89723683333333, "is_disabled": 0, "bike_id": "50c4690a4a542b3e229a054b49be8190", "fusion_lat": 0.0, "is_reserved": 0, "lon": -77.04592833333334}, {"type": "electric_bike", "name": "7f42a32026191c97673b151dedb814e4", "rental_uris": {"ios": "https://dc.lft.to/lastmile_qr_scan", "android": "https://dc.lft.to/lastmile_qr_scan"}, "fusion_lon": 0.0, "lat": 38.94227766666667, "is_disabled": 0, "bike_id": "7f42a32026191c97673b151dedb814e4", "fusion_lat": 0.0, "is_reserved": 0, "lon": -76.965821}, {"type": "electric_scooter", "name": "1a0867fb1e45588bd67f14772e95041b", "rental_uris": {"ios": "https://dc.lft.to/lastmile_qr_scan", "android": "https://dc.lft.to/lastmile_qr_scan"}, "fusion_lon": 0.0, "lat": 38.92959483333333, "is_disabled": 0, "bike_id": "1a0867fb1e45588bd67f14772e95041b", "fusion_lat": 0.0, "is_reserved": 0, "lon": -77.01146616666666}, {"type": "electric_scooter", "name": "dea96088ac6c58063951c6814bd84711", "rental_uris": {"ios": "https://dc.lft.to/lastmile_qr_scan", "android": "https://dc.lft.to/lastmile_qr_scan"}, "fusion_lon": 0.0, "lat": 38.895542, "is_disabled": 0, "bike_id": "dea96088ac6c58063951c6814bd84711", "fusion_lat": 0.0, "is_reserved": 0, "lon": -76.99842483333333}, {"type": "electric_scooter", "name": "751c6808bf699dea871b38802204188b", "rental_uris": {"ios": "https://dc.lft.to/lastmile_qr_scan", "android": "https://dc.lft.to/lastmile_qr_scan"}, "fusion_lon": 0.0, "lat": 38.887425, "is_disabled": 0, "bike_id": "751c6808bf699dea871b38802204188b", "fusion_lat": 0.0, "is_reserved": 0, "lon": -76.98356983333333}, {"type": "electric_scooter", "name": "81dfaf130b540117b28953495c9ad710", "rental_uris": {"ios": "https://dc.lft.to/lastmile_qr_scan", "android": "https://dc.lft.to/lastmile_qr_scan"}, "fusion_lon": 0.0, "lat": 38.9012585, "is_disabled": 0, "bike_id": "81dfaf130b540117b28953495c9ad710", "fusion_lat": 0.0, "is_reserved": 0, "lon": -77.0461835}, {"type": "electric_scooter", "name": "d65b6bbecd06fe7076c3b49b340aad22", "rental_uris": {"ios": "https://dc.lft.to/lastmile_qr_scan", "android": "https://dc.lft.to/lastmile_qr_scan"}, "fusion_lon": 0.0, "lat": 38.914283, "is_disabled": 0, "bike_id": "d65b6bbecd06fe7076c3b49b340aad22", "fusion_lat": 0.0, "is_reserved": 0, "lon": -77.06416583333333}, {"type": "electric_scooter", "name": "a879b246284462a1c6bcd6feba9308e7", "rental_uris": {"ios": "https://dc.lft.to/lastmile_qr_scan", "android": "https://dc.lft.to/lastmile_qr_scan"}, "fusion_lon": 0.0, "lat": 38.88407083333333, "is_disabled": 0, "bike_id": "a879b246284462a1c6bcd6feba9308e7", "fusion_lat": 0.0, "is_reserved": 0, "lon": -76.98587683333334}, {"type": "electric_scooter", "name": "e58cebf23f94128d48426a5412e4016c", "rental_uris": {"ios": "https://dc.lft.to/lastmile_qr_scan", "android": "https://dc.lft.to/lastmile_qr_scan"}, "fusion_lon": 0.0, "lat": 38.8849345, "is_disabled": 0, "bike_id": "e58cebf23f94128d48426a5412e4016c", "fusion_lat": 0.0, "is_reserved": 0, "lon": -77.00724283333334}, {"type": "electric_scooter", "name": "bd687ed177c508e87d5dd9607b06dc75", "rental_uris": {"ios": "https://dc.lft.to/lastmile_qr_scan", "android": "https://dc.lft.to/lastmile_qr_scan"}, "fusion_lon": 0.0, "lat": 38.874583666666666, "is_disabled": 0, "bike_id": "bd687ed177c508e87d5dd9607b06dc75", "fusion_lat": 0.0, "is_reserved": 0, "lon": -77.00964733333333}, {"type": "electric_scooter", "name": "60a7e1ac682450abb93af5d426b16f34", "rental_uris": {"ios": "https://dc.lft.to/lastmile_qr_scan", "android": "https://dc.lft.to/lastmile_qr_scan"}, "fusion_lon": 0.0, "lat": 38.887466333333336, "is_disabled": 0, "bike_id": "60a7e1ac682450abb93af5d426b16f34", "fusion_lat": 0.0, "is_reserved": 0, "lon": -77.01770666666667}, {"type": "electric_scooter", "name": "ebf46df561a3a39d550ffe5b8aa704ec", "rental_uris": {"ios": "https://dc.lft.to/lastmile_qr_scan", "android": "https://dc.lft.to/lastmile_qr_scan"}, "fusion_lon": 0.0, "lat": 38.885214833333336, "is_disabled": 0, "bike_id": "ebf46df561a3a39d550ffe5b8aa704ec", "fusion_lat": 0.0, "is_reserved": 0, "lon": -77.01515966666666}, {"type": "electric_scooter", "name": "d2890e3f8c30ab2a7b714e0362a35083", "rental_uris": {"ios": "https://dc.lft.to/lastmile_qr_scan", "android": "https://dc.lft.to/lastmile_qr_scan"}, "fusion_lon": 0.0, "lat": 38.90734366666667, "is_disabled": 0, "bike_id": "d2890e3f8c30ab2a7b714e0362a35083", "fusion_lat": 0.0, "is_reserved": 0, "lon": -77.013076}, {"type": "electric_scooter", "name": "6a6cedab4d1bc080dafe8eccb9940c02", "rental_uris": {"ios": "https://dc.lft.to/lastmile_qr_scan", "android": "https://dc.lft.to/lastmile_qr_scan"}, "fusion_lon": 0.0, "lat": 38.8605995, "is_disabled": 0, "bike_id": "6a6cedab4d1bc080dafe8eccb9940c02", "fusion_lat": 0.0, "is_reserved": 0, "lon": -76.98499433333333}, {"type": "electric_scooter", "name": "72d450364a617bcf7c35a7f3266bb544", "rental_uris": {"ios": "https://dc.lft.to/lastmile_qr_scan", "android": "https://dc.lft.to/lastmile_qr_scan"}, "fusion_lon": 0.0, "lat": 38.938447, "is_disabled": 0, "bike_id": "72d450364a617bcf7c35a7f3266bb544", "fusion_lat": 0.0, "is_reserved": 0, "lon": -77.03376666666666}, {"type": "electric_scooter", "name": "d5e26e6eb11587ecf05e26efe1045118", "rental_uris": {"ios": "https://dc.lft.to/lastmile_qr_scan", "android": "https://dc.lft.to/lastmile_qr_scan"}, "fusion_lon": 0.0, "lat": 38.90198916666667, "is_disabled": 0, "bike_id": "d5e26e6eb11587ecf05e26efe1045118", "fusion_lat": 0.0, "is_reserved": 0, "lon": -77.02372133333333}, {"type": "electric_bike", "name": "2cf81d1af94ed98d805038275c766ee4", "rental_uris": {"ios": "https://dc.lft.to/lastmile_qr_scan", "android": "https://dc.lft.to/lastmile_qr_scan"}, "fusion_lon": 0.0, "lat": 38.98504583333333, "is_disabled": 0, "bike_id": "2cf81d1af94ed98d805038275c766ee4", "fusion_lat": 0.0, "is_reserved": 0, "lon": -76.98197266666666}, {"type": "electric_scooter", "name": "541efc157c52d19e3d5fc3c70000f954", "rental_uris": {"ios": "https://dc.lft.to/lastmile_qr_scan", "android": "https://dc.lft.to/lastmile_qr_scan"}, "fusion_lon": 0.0, "lat": 38.884901, "is_disabled": 0, "bike_id": "541efc157c52d19e3d5fc3c70000f954", "fusion_lat": 0.0, "is_reserved": 0, "lon": -77.007119}, {"type": "electric_scooter", "name": "e64849ea18f117a238041d1644f5f2e2", "rental_uris": {"ios": "https://dc.lft.to/lastmile_qr_scan", "android": "https://dc.lft.to/lastmile_qr_scan"}, "fusion_lon": 0.0, "lat": 38.908915, "is_disabled": 0, "bike_id": "e64849ea18f117a238041d1644f5f2e2", "fusion_lat": 0.0, "is_reserved": 0, "lon": -77.03431583333334}, {"type": "electric_scooter", "name": "792daa4551212d2a58bbcfe085307053", "rental_uris": {"ios": "https://dc.lft.to/lastmile_qr_scan", "android": "https://dc.lft.to/lastmile_qr_scan"}, "fusion_lon": 0.0, "lat": 38.928548666666664, "is_disabled": 0, "bike_id": "792daa4551212d2a58bbcfe085307053", "fusion_lat": 0.0, "is_reserved": 0, "lon": -77.03304166666666}, {"type": "electric_scooter", "name": "ad49b592ce59b1124501d01dc17a0a47", "rental_uris": {"ios": "https://dc.lft.to/lastmile_qr_scan", "android": "https://dc.lft.to/lastmile_qr_scan"}, "fusion_lon": 0.0, "lat": 38.92416766666667, "is_disabled": 0, "bike_id": "ad49b592ce59b1124501d01dc17a0a47", "fusion_lat": 0.0, "is_reserved": 0, "lon": -77.05177333333333}, {"type": "electric_scooter", "name": "243111091942354c175cbfe658522e09", "rental_uris": {"ios": "https://dc.lft.to/lastmile_qr_scan", "android": "https://dc.lft.to/lastmile_qr_scan"}, "fusion_lon": 0.0, "lat": 38.917127666666666, "is_disabled": 0, "bike_id": "243111091942354c175cbfe658522e09", "fusion_lat": 0.0, "is_reserved": 0, "lon": -77.041557}, {"type": "electric_scooter", "name": "c6833f3a16803d3c1a9becf869b2feda", "rental_uris": {"ios": "https://dc.lft.to/lastmile_qr_scan", "android": "https://dc.lft.to/lastmile_qr_scan"}, "fusion_lon": 0.0, "lat": 38.903172166666664, "is_disabled": 0, "bike_id": "c6833f3a16803d3c1a9becf869b2feda", "fusion_lat": 0.0, "is_reserved": 0, "lon": -77.02438166666667}, {"type": "electric_scooter", "name": "f8c0fb64e2fe259af8ab26d4a75b06e0", "rental_uris": {"ios": "https://dc.lft.to/lastmile_qr_scan", "android": "https://dc.lft.to/lastmile_qr_scan"}, "fusion_lon": 0.0, "lat": 38.9287775, "is_disabled": 0, "bike_id": "f8c0fb64e2fe259af8ab26d4a75b06e0", "fusion_lat": 0.0, "is_reserved": 0, "lon": -77.0270935}, {"type": "electric_scooter", "name": "02961734b27da237be0c8f01e6c6dce0", "rental_uris": {"ios": "https://dc.lft.to/lastmile_qr_scan", "android": "https://dc.lft.to/lastmile_qr_scan"}, "fusion_lon": 0.0, "lat": 38.90770883333333, "is_disabled": 0, "bike_id": "02961734b27da237be0c8f01e6c6dce0", "fusion_lat": 0.0, "is_reserved": 0, "lon": -77.04003533333334}, {"type": "electric_scooter", "name": "1e2e5d580ad26d9c95dc1643e31611ac", "rental_uris": {"ios": "https://dc.lft.to/lastmile_qr_scan", "android": "https://dc.lft.to/lastmile_qr_scan"}, "fusion_lon": 0.0, "lat": 38.904108, "is_disabled": 0, "bike_id": "1e2e5d580ad26d9c95dc1643e31611ac", "fusion_lat": 0.0, "is_reserved": 0, "lon": -76.97331916666667}, {"type": "electric_scooter", "name": "e8deab5e5c2a18d2ed00a73592b615fc", "rental_uris": {"ios": "https://dc.lft.to/lastmile_qr_scan", "android": "https://dc.lft.to/lastmile_qr_scan"}, "fusion_lon": 0.0, "lat": 38.9156135, "is_disabled": 0, "bike_id": "e8deab5e5c2a18d2ed00a73592b615fc", "fusion_lat": 0.0, "is_reserved": 0, "lon": -77.03855033333333}, {"type": "electric_scooter", "name": "8bc3fb73f445c055fc317203138c1872", "rental_uris": {"ios": "https://dc.lft.to/lastmile_qr_scan", "android": "https://dc.lft.to/lastmile_qr_scan"}, "fusion_lon": 0.0, "lat": 38.90115866666667, "is_disabled": 0, "bike_id": "8bc3fb73f445c055fc317203138c1872", "fusion_lat": 0.0, "is_reserved": 0, "lon": -77.02367133333334}, {"type": "electric_scooter", "name": "6b9a24ba56f3f35457559c9369a8d24f", "rental_uris": {"ios": "https://dc.lft.to/lastmile_qr_scan", "android": "https://dc.lft.to/lastmile_qr_scan"}, "fusion_lon": 0.0, "lat": 38.91705366666667, "is_disabled": 0, "bike_id": "6b9a24ba56f3f35457559c9369a8d24f", "fusion_lat": 0.0, "is_reserved": 0, "lon": -77.03472916666666}, {"type": "electric_scooter", "name": "3ca34ec11981cd5011df5dba2dc2695a", "rental_uris": {"ios": "https://dc.lft.to/lastmile_qr_scan", "android": "https://dc.lft.to/lastmile_qr_scan"}, "fusion_lon": 0.0, "lat": 38.92458516666667, "is_disabled": 0, "bike_id": "3ca34ec11981cd5011df5dba2dc2695a", "fusion_lat": 0.0, "is_reserved": 0, "lon": -77.05234183333333}, {"type": "electric_scooter", "name": "b3ac60ffed1c228f6fef278a26f862f5", "rental_uris": {"ios": "https://dc.lft.to/lastmile_qr_scan", "android": "https://dc.lft.to/lastmile_qr_scan"}, "fusion_lon": 0.0, "lat": 38.909765, "is_disabled": 0, "bike_id": "b3ac60ffed1c228f6fef278a26f862f5", "fusion_lat": 0.0, "is_reserved": 0, "lon": -77.0343935}, {"type": "electric_scooter", "name": "2341e3ea7373ced88596fbbd44f02976", "rental_uris": {"ios": "https://dc.lft.to/lastmile_qr_scan", "android": "https://dc.lft.to/lastmile_qr_scan"}, "fusion_lon": 0.0, "lat": 38.898156166666666, "is_disabled": 0, "bike_id": "2341e3ea7373ced88596fbbd44f02976", "fusion_lat": 0.0, "is_reserved": 0, "lon": -77.03149483333333}, {"type": "electric_scooter", "name": "185e34e8eb162ab22a95e586fab3f383", "rental_uris": {"ios": "https://dc.lft.to/lastmile_qr_scan", "android": "https://dc.lft.to/lastmile_qr_scan"}, "fusion_lon": 0.0, "lat": 38.91315816666667, "is_disabled": 0, "bike_id": "185e34e8eb162ab22a95e586fab3f383", "fusion_lat": 0.0, "is_reserved": 0, "lon": -77.01506416666666}, {"type": "electric_scooter", "name": "3d6f76dffc8506bd1e94f8f1a1862e4c", "rental_uris": {"ios": "https://dc.lft.to/lastmile_qr_scan", "android": "https://dc.lft.to/lastmile_qr_scan"}, "fusion_lon": 0.0, "lat": 38.902593833333334, "is_disabled": 0, "bike_id": "3d6f76dffc8506bd1e94f8f1a1862e4c", "fusion_lat": 0.0, "is_reserved": 0, "lon": -76.97452633333333}, {"type": "electric_scooter", "name": "53ce50f788fc694703e524bd399a3a86", "rental_uris": {"ios": "https://dc.lft.to/lastmile_qr_scan", "android": "https://dc.lft.to/lastmile_qr_scan"}, "fusion_lon": 0.0, "lat": 38.90852483333333, "is_disabled": 0, "bike_id": "53ce50f788fc694703e524bd399a3a86", "fusion_lat": 0.0, "is_reserved": 0, "lon": -76.99797283333334}, {"type": "electric_scooter", "name": "da421149bf0fab4d27effd47f59f71b9", "rental_uris": {"ios": "https://dc.lft.to/lastmile_qr_scan", "android": "https://dc.lft.to/lastmile_qr_scan"}, "fusion_lon": 0.0, "lat": 38.88719966666667, "is_disabled": 0, "bike_id": "da421149bf0fab4d27effd47f59f71b9", "fusion_lat": 0.0, "is_reserved": 0, "lon": -76.99685966666667}, {"type": "electric_scooter", "name": "34d9152def698449c131e206d37704d2", "rental_uris": {"ios": "https://dc.lft.to/lastmile_qr_scan", "android": "https://dc.lft.to/lastmile_qr_scan"}, "fusion_lon": 0.0, "lat": 38.92358566666667, "is_disabled": 0, "bike_id": "34d9152def698449c131e206d37704d2", "fusion_lat": 0.0, "is_reserved": 0, "lon": -77.0505015}, {"type": "electric_scooter", "name": "502264ac8a00a39e8cab1d7ef3943ff3", "rental_uris": {"ios": "https://dc.lft.to/lastmile_qr_scan", "android": "https://dc.lft.to/lastmile_qr_scan"}, "fusion_lon": 0.0, "lat": 38.927531, "is_disabled": 0, "bike_id": "502264ac8a00a39e8cab1d7ef3943ff3", "fusion_lat": 0.0, "is_reserved": 0, "lon": -77.02110916666666}, {"type": "electric_scooter", "name": "552f1d5e91c8c99be11d96ed2b697378", "rental_uris": {"ios": "https://dc.lft.to/lastmile_qr_scan", "android": "https://dc.lft.to/lastmile_qr_scan"}, "fusion_lon": 0.0, "lat": 38.87673766666666, "is_disabled": 0, "bike_id": "552f1d5e91c8c99be11d96ed2b697378", "fusion_lat": 0.0, "is_reserved": 0, "lon": -77.00889916666667}, {"type": "electric_bike", "name": "1901771658282ad8a3c6945b54f4e358", "rental_uris": {"ios": "https://dc.lft.to/lastmile_qr_scan", "android": "https://dc.lft.to/lastmile_qr_scan"}, "fusion_lon": 0.0, "lat": 38.9491375, "is_disabled": 0, "bike_id": "1901771658282ad8a3c6945b54f4e358", "fusion_lat": 0.0, "is_reserved": 0, "lon": -77.00793633333333}, {"type": "electric_scooter", "name": "d88339d0a8ce12fd2f702e1230cc26ec", "rental_uris": {"ios": "https://dc.lft.to/lastmile_qr_scan", "android": "https://dc.lft.to/lastmile_qr_scan"}, "fusion_lon": 0.0, "lat": 38.910044, "is_disabled": 0, "bike_id": "d88339d0a8ce12fd2f702e1230cc26ec", "fusion_lat": 0.0, "is_reserved": 0, "lon": -76.99413016666666}, {"type": "electric_scooter", "name": "3dedaf4ef818d5a1598d9fff564021c1", "rental_uris": {"ios": "https://dc.lft.to/lastmile_qr_scan", "android": "https://dc.lft.to/lastmile_qr_scan"}, "fusion_lon": 0.0, "lat": 38.90228283333333, "is_disabled": 0, "bike_id": "3dedaf4ef818d5a1598d9fff564021c1", "fusion_lat": 0.0, "is_reserved": 0, "lon": -77.059393}, {"type": "electric_scooter", "name": "9eed830eb5335cd54c759e02bdf60608", "rental_uris": {"ios": "https://dc.lft.to/lastmile_qr_scan", "android": "https://dc.lft.to/lastmile_qr_scan"}, "fusion_lon": 0.0, "lat": 38.905766666666665, "is_disabled": 0, "bike_id": "9eed830eb5335cd54c759e02bdf60608", "fusion_lat": 0.0, "is_reserved": 0, "lon": -77.05139966666667}, {"type": "electric_scooter", "name": "d3c59f41f1b73d2d5baea721e28b0666", "rental_uris": {"ios": "https://dc.lft.to/lastmile_qr_scan", "android": "https://dc.lft.to/lastmile_qr_scan"}, "fusion_lon": 0.0, "lat": 38.911185833333334, "is_disabled": 0, "bike_id": "d3c59f41f1b73d2d5baea721e28b0666", "fusion_lat": 0.0, "is_reserved": 0, "lon": -77.02205016666667}, {"type": "electric_scooter", "name": "d7b18e632a8f5f22233373bbdda2a47c", "rental_uris": {"ios": "https://dc.lft.to/lastmile_qr_scan", "android": "https://dc.lft.to/lastmile_qr_scan"}, "fusion_lon": 0.0, "lat": 38.88527966666667, "is_disabled": 0, "bike_id": "d7b18e632a8f5f22233373bbdda2a47c", "fusion_lat": 0.0, "is_reserved": 0, "lon": -77.0154145}, {"type": "electric_scooter", "name": "c6c0852c58ea82e0807e8f230fe39d99", "rental_uris": {"ios": "https://dc.lft.to/lastmile_qr_scan", "android": "https://dc.lft.to/lastmile_qr_scan"}, "fusion_lon": 0.0, "lat": 38.908101333333335, "is_disabled": 0, "bike_id": "c6c0852c58ea82e0807e8f230fe39d99", "fusion_lat": 0.0, "is_reserved": 0, "lon": -77.034468}, {"type": "electric_scooter", "name": "c87da3cf3c67ac1f20566c75f73a56ea", "rental_uris": {"ios": "https://dc.lft.to/lastmile_qr_scan", "android": "https://dc.lft.to/lastmile_qr_scan"}, "fusion_lon": 0.0, "lat": 38.89889733333333, "is_disabled": 0, "bike_id": "c87da3cf3c67ac1f20566c75f73a56ea", "fusion_lat": 0.0, "is_reserved": 0, "lon": -77.00874183333333}, {"type": "electric_scooter", "name": "54f7f56fac03c038d6e96cd555794f05", "rental_uris": {"ios": "https://dc.lft.to/lastmile_qr_scan", "android": "https://dc.lft.to/lastmile_qr_scan"}, "fusion_lon": 0.0, "lat": 38.89849066666667, "is_disabled": 0, "bike_id": "54f7f56fac03c038d6e96cd555794f05", "fusion_lat": 0.0, "is_reserved": 0, "lon": -76.99031416666666}, {"type": "electric_scooter", "name": "894c8eb36e6f42dac39105eaa5aa7381", "rental_uris": {"ios": "https://dc.lft.to/lastmile_qr_scan", "android": "https://dc.lft.to/lastmile_qr_scan"}, "fusion_lon": 0.0, "lat": 38.917213, "is_disabled": 0, "bike_id": "894c8eb36e6f42dac39105eaa5aa7381", "fusion_lat": 0.0, "is_reserved": 0, "lon": -77.02891383333333}, {"type": "electric_scooter", "name": "08b7a2b9948d21e1e03edf398fad956d", "rental_uris": {"ios": "https://dc.lft.to/lastmile_qr_scan", "android": "https://dc.lft.to/lastmile_qr_scan"}, "fusion_lon": 0.0, "lat": 38.928637, "is_disabled": 0, "bike_id": "08b7a2b9948d21e1e03edf398fad956d", "fusion_lat": 0.0, "is_reserved": 0, "lon": -77.03519716666666}, {"type": "electric_scooter", "name": "6d269dac4774b4dcca3a3a37ddf5a378", "rental_uris": {"ios": "https://dc.lft.to/lastmile_qr_scan", "android": "https://dc.lft.to/lastmile_qr_scan"}, "fusion_lon": 0.0, "lat": 38.915341166666664, "is_disabled": 0, "bike_id": "6d269dac4774b4dcca3a3a37ddf5a378", "fusion_lat": 0.0, "is_reserved": 0, "lon": -77.0122285}, {"type": "electric_scooter", "name": "68bf3f3f963e0631d3ab904501c9c998", "rental_uris": {"ios": "https://dc.lft.to/lastmile_qr_scan", "android": "https://dc.lft.to/lastmile_qr_scan"}, "fusion_lon": 0.0, "lat": 38.9200425, "is_disabled": 0, "bike_id": "68bf3f3f963e0631d3ab904501c9c998", "fusion_lat": 0.0, "is_reserved": 0, "lon": -77.03207066666667}, {"type": "electric_scooter", "name": "08ad10d6d008c4e21d2388f949a1e3e0", "rental_uris": {"ios": "https://dc.lft.to/lastmile_qr_scan", "android": "https://dc.lft.to/lastmile_qr_scan"}, "fusion_lon": 0.0, "lat": 38.915889666666665, "is_disabled": 0, "bike_id": "08ad10d6d008c4e21d2388f949a1e3e0", "fusion_lat": 0.0, "is_reserved": 0, "lon": -76.97967383333334}, {"type": "electric_scooter", "name": "5497e0678f850cb1ebb70090d972c62a", "rental_uris": {"ios": "https://dc.lft.to/lastmile_qr_scan", "android": "https://dc.lft.to/lastmile_qr_scan"}, "fusion_lon": 0.0, "lat": 38.9387245, "is_disabled": 0, "bike_id": "5497e0678f850cb1ebb70090d972c62a", "fusion_lat": 0.0, "is_reserved": 0, "lon": -77.02459166666667}, {"type": "electric_scooter", "name": "c1971a112ddd60b674bf71d01e2fe54d", "rental_uris": {"ios": "https://dc.lft.to/lastmile_qr_scan", "android": "https://dc.lft.to/lastmile_qr_scan"}, "fusion_lon": 0.0, "lat": 38.856973333333336, "is_disabled": 0, "bike_id": "c1971a112ddd60b674bf71d01e2fe54d", "fusion_lat": 0.0, "is_reserved": 0, "lon": -76.99589266666666}, {"type": "electric_bike", "name": "a4325c703c4056cb4742a1e6d1009fb4", "rental_uris": {"ios": "https://dc.lft.to/lastmile_qr_scan", "android": "https://dc.lft.to/lastmile_qr_scan"}, "fusion_lon": 0.0, "lat": 38.8498955, "is_disabled": 0, "bike_id": "a4325c703c4056cb4742a1e6d1009fb4", "fusion_lat": 0.0, "is_reserved": 0, "lon": -77.09758466666666}, {"type": "electric_scooter", "name": "2d5bc9d15ad28b4ac5c96f8c5274de66", "rental_uris": {"ios": "https://dc.lft.to/lastmile_qr_scan", "android": "https://dc.lft.to/lastmile_qr_scan"}, "fusion_lon": 0.0, "lat": 38.88366766666667, "is_disabled": 0, "bike_id": "2d5bc9d15ad28b4ac5c96f8c5274de66", "fusion_lat": 0.0, "is_reserved": 0, "lon": -77.02006266666666}, {"type": "electric_scooter", "name": "59c152bdca9f5efb57d44f49ec7029c7", "rental_uris": {"ios": "https://dc.lft.to/lastmile_qr_scan", "android": "https://dc.lft.to/lastmile_qr_scan"}, "fusion_lon": 0.0, "lat": 38.88293566666667, "is_disabled": 0, "bike_id": "59c152bdca9f5efb57d44f49ec7029c7", "fusion_lat": 0.0, "is_reserved": 0, "lon": -77.02474883333333}, {"type": "electric_scooter", "name": "514134e2567b9e7ebe60a36a96055873", "rental_uris": {"ios": "https://dc.lft.to/lastmile_qr_scan", "android": "https://dc.lft.to/lastmile_qr_scan"}, "fusion_lon": 0.0, "lat": 38.917079, "is_disabled": 0, "bike_id": "514134e2567b9e7ebe60a36a96055873", "fusion_lat": 0.0, "is_reserved": 0, "lon": -77.04145583333333}, {"type": "electric_scooter", "name": "aee47e3e36774a45ae64649b04704e03", "rental_uris": {"ios": "https://dc.lft.to/lastmile_qr_scan", "android": "https://dc.lft.to/lastmile_qr_scan"}, "fusion_lon": 0.0, "lat": 38.913535833333334, "is_disabled": 0, "bike_id": "aee47e3e36774a45ae64649b04704e03", "fusion_lat": 0.0, "is_reserved": 0, "lon": -77.03428616666666}, {"type": "electric_scooter", "name": "3d48f46df1c88e0edbf3859ad6edac95", "rental_uris": {"ios": "https://dc.lft.to/lastmile_qr_scan", "android": "https://dc.lft.to/lastmile_qr_scan"}, "fusion_lon": 0.0, "lat": 38.916775, "is_disabled": 0, "bike_id": "3d48f46df1c88e0edbf3859ad6edac95", "fusion_lat": 0.0, "is_reserved": 0, "lon": -77.03690683333333}, {"type": "electric_scooter", "name": "26417147794c0d5e4c7245fa24e97e70", "rental_uris": {"ios": "https://dc.lft.to/lastmile_qr_scan", "android": "https://dc.lft.to/lastmile_qr_scan"}, "fusion_lon": 0.0, "lat": 38.90569, "is_disabled": 0, "bike_id": "26417147794c0d5e4c7245fa24e97e70", "fusion_lat": 0.0, "is_reserved": 0, "lon": -77.024}, {"type": "electric_bike", "name": "df3a47719b5bafee420f15592784ff4a", "rental_uris": {"ios": "https://dc.lft.to/lastmile_qr_scan", "android": "https://dc.lft.to/lastmile_qr_scan"}, "fusion_lon": 0.0, "lat": 38.8133135, "is_disabled": 0, "bike_id": "df3a47719b5bafee420f15592784ff4a", "fusion_lat": 0.0, "is_reserved": 0, "lon": -77.05081016666666}, {"type": "electric_bike", "name": "0ef501127591926dd0a7465bb52ea874", "rental_uris": {"ios": "https://dc.lft.to/lastmile_qr_scan", "android": "https://dc.lft.to/lastmile_qr_scan"}, "fusion_lon": 0.0, "lat": 38.9319065, "is_disabled": 0, "bike_id": "0ef501127591926dd0a7465bb52ea874", "fusion_lat": 0.0, "is_reserved": 0, "lon": -77.2292365}, {"type": "electric_scooter", "name": "5d28ba31775ba9e23b42cc79ac94b8f9", "rental_uris": {"ios": "https://dc.lft.to/lastmile_qr_scan", "android": "https://dc.lft.to/lastmile_qr_scan"}, "fusion_lon": 0.0, "lat": 38.92079016666667, "is_disabled": 0, "bike_id": "5d28ba31775ba9e23b42cc79ac94b8f9", "fusion_lat": 0.0, "is_reserved": 0, "lon": -76.99727333333334}, {"type": "electric_scooter", "name": "b558c3b657d2b7f1d47c18326bce7a58", "rental_uris": {"ios": "https://dc.lft.to/lastmile_qr_scan", "android": "https://dc.lft.to/lastmile_qr_scan"}, "fusion_lon": 0.0, "lat": 38.922457666666666, "is_disabled": 0, "bike_id": "b558c3b657d2b7f1d47c18326bce7a58", "fusion_lat": 0.0, "is_reserved": 0, "lon": -77.08082916666666}, {"type": "electric_scooter", "name": "1c2e137af20f79529cfb64f207f1364b", "rental_uris": {"ios": "https://dc.lft.to/lastmile_qr_scan", "android": "https://dc.lft.to/lastmile_qr_scan"}, "fusion_lon": 0.0, "lat": 38.94183666666667, "is_disabled": 0, "bike_id": "1c2e137af20f79529cfb64f207f1364b", "fusion_lat": 0.0, "is_reserved": 0, "lon": -77.02406283333333}, {"type": "electric_scooter", "name": "b8fa277712df414e58fa625bc11428d4", "rental_uris": {"ios": "https://dc.lft.to/lastmile_qr_scan", "android": "https://dc.lft.to/lastmile_qr_scan"}, "fusion_lon": 0.0, "lat": 38.901806666666666, "is_disabled": 0, "bike_id": "b8fa277712df414e58fa625bc11428d4", "fusion_lat": 0.0, "is_reserved": 0, "lon": -77.01626983333334}, {"type": "electric_scooter", "name": "39ff9e1a6fd54941d307edb76bded9d9", "rental_uris": {"ios": "https://dc.lft.to/lastmile_qr_scan", "android": "https://dc.lft.to/lastmile_qr_scan"}, "fusion_lon": 0.0, "lat": 38.905074166666665, "is_disabled": 0, "bike_id": "39ff9e1a6fd54941d307edb76bded9d9", "fusion_lat": 0.0, "is_reserved": 0, "lon": -77.01986666666667}, {"type": "electric_scooter", "name": "00f456c0c2d2e3c2b799a6a9aac3133e", "rental_uris": {"ios": "https://dc.lft.to/lastmile_qr_scan", "android": "https://dc.lft.to/lastmile_qr_scan"}, "fusion_lon": 0.0, "lat": 38.91300416666667, "is_disabled": 0, "bike_id": "00f456c0c2d2e3c2b799a6a9aac3133e", "fusion_lat": 0.0, "is_reserved": 0, "lon": -77.0319895}, {"type": "electric_scooter", "name": "a1a92b8a85c3e648ab4206a070f393f3", "rental_uris": {"ios": "https://dc.lft.to/lastmile_qr_scan", "android": "https://dc.lft.to/lastmile_qr_scan"}, "fusion_lon": 0.0, "lat": 38.89825733333333, "is_disabled": 0, "bike_id": "a1a92b8a85c3e648ab4206a070f393f3", "fusion_lat": 0.0, "is_reserved": 0, "lon": -77.048271}, {"type": "electric_scooter", "name": "2d96f5183e005079d36ca6f687a99c11", "rental_uris": {"ios": "https://dc.lft.to/lastmile_qr_scan", "android": "https://dc.lft.to/lastmile_qr_scan"}, "fusion_lon": 0.0, "lat": 38.90513583333333, "is_disabled": 0, "bike_id": "2d96f5183e005079d36ca6f687a99c11", "fusion_lat": 0.0, "is_reserved": 0, "lon": -77.04160316666666}, {"type": "electric_scooter", "name": "80d1c404ea41e461565ebb2db5e3d4d7", "rental_uris": {"ios": "https://dc.lft.to/lastmile_qr_scan", "android": "https://dc.lft.to/lastmile_qr_scan"}, "fusion_lon": 0.0, "lat": 38.949679833333334, "is_disabled": 0, "bike_id": "80d1c404ea41e461565ebb2db5e3d4d7", "fusion_lat": 0.0, "is_reserved": 0, "lon": -77.07528216666667}, {"type": "electric_scooter", "name": "fbfd4e88940b0e2c330c2b626b63023d", "rental_uris": {"ios": "https://dc.lft.to/lastmile_qr_scan", "android": "https://dc.lft.to/lastmile_qr_scan"}, "fusion_lon": 0.0, "lat": 38.934720666666664, "is_disabled": 0, "bike_id": "fbfd4e88940b0e2c330c2b626b63023d", "fusion_lat": 0.0, "is_reserved": 0, "lon": -77.02971366666667}, {"type": "electric_scooter", "name": "056baf2638b5987691413075271495ff", "rental_uris": {"ios": "https://dc.lft.to/lastmile_qr_scan", "android": "https://dc.lft.to/lastmile_qr_scan"}, "fusion_lon": 0.0, "lat": 38.88394916666667, "is_disabled": 0, "bike_id": "056baf2638b5987691413075271495ff", "fusion_lat": 0.0, "is_reserved": 0, "lon": -76.93043566666667}, {"type": "electric_scooter", "name": "b07cb9487577963e3f9b0cf43173eca7", "rental_uris": {"ios": "https://dc.lft.to/lastmile_qr_scan", "android": "https://dc.lft.to/lastmile_qr_scan"}, "fusion_lon": 0.0, "lat": 38.90995133333333, "is_disabled": 0, "bike_id": "b07cb9487577963e3f9b0cf43173eca7", "fusion_lat": 0.0, "is_reserved": 0, "lon": -77.02691633333333}, {"type": "electric_scooter", "name": "d2e68f391fc5fd692b2dee667c1b3b11", "rental_uris": {"ios": "https://dc.lft.to/lastmile_qr_scan", "android": "https://dc.lft.to/lastmile_qr_scan"}, "fusion_lon": 0.0, "lat": 38.9362795, "is_disabled": 0, "bike_id": "d2e68f391fc5fd692b2dee667c1b3b11", "fusion_lat": 0.0, "is_reserved": 0, "lon": -77.02461566666666}, {"type": "electric_scooter", "name": "77c16020ed1512f9b37f60f18b9b4614", "rental_uris": {"ios": "https://dc.lft.to/lastmile_qr_scan", "android": "https://dc.lft.to/lastmile_qr_scan"}, "fusion_lon": 0.0, "lat": 38.89689516666667, "is_disabled": 0, "bike_id": "77c16020ed1512f9b37f60f18b9b4614", "fusion_lat": 0.0, "is_reserved": 0, "lon": -77.04654133333334}, {"type": "electric_scooter", "name": "cc8ca66dd7ac6af9d99df4ad0165b7ba", "rental_uris": {"ios": "https://dc.lft.to/lastmile_qr_scan", "android": "https://dc.lft.to/lastmile_qr_scan"}, "fusion_lon": 0.0, "lat": 38.9311745, "is_disabled": 0, "bike_id": "cc8ca66dd7ac6af9d99df4ad0165b7ba", "fusion_lat": 0.0, "is_reserved": 0, "lon": -77.03803266666667}, {"type": "electric_scooter", "name": "9674a981ab6e284039cd30500e93476b", "rental_uris": {"ios": "https://dc.lft.to/lastmile_qr_scan", "android": "https://dc.lft.to/lastmile_qr_scan"}, "fusion_lon": 0.0, "lat": 38.90560383333333, "is_disabled": 0, "bike_id": "9674a981ab6e284039cd30500e93476b", "fusion_lat": 0.0, "is_reserved": 0, "lon": -77.0130815}, {"type": "electric_scooter", "name": "a62b7fca18f4000b0d8b4a5a6f5e992b", "rental_uris": {"ios": "https://dc.lft.to/lastmile_qr_scan", "android": "https://dc.lft.to/lastmile_qr_scan"}, "fusion_lon": 0.0, "lat": 38.89578733333333, "is_disabled": 0, "bike_id": "a62b7fca18f4000b0d8b4a5a6f5e992b", "fusion_lat": 0.0, "is_reserved": 0, "lon": -77.02305933333334}, {"type": "electric_scooter", "name": "c73aa3c13c946780de9f11e1b7480df8", "rental_uris": {"ios": "https://dc.lft.to/lastmile_qr_scan", "android": "https://dc.lft.to/lastmile_qr_scan"}, "fusion_lon": 0.0, "lat": 38.917779333333336, "is_disabled": 0, "bike_id": "c73aa3c13c946780de9f11e1b7480df8", "fusion_lat": 0.0, "is_reserved": 0, "lon": -77.02277833333333}, {"type": "electric_bike", "name": "0f55649089076040603cbe7548fa88f5", "rental_uris": {"ios": "https://dc.lft.to/lastmile_qr_scan", "android": "https://dc.lft.to/lastmile_qr_scan"}, "fusion_lon": 0.0, "lat": 38.898090333333336, "is_disabled": 0, "bike_id": "0f55649089076040603cbe7548fa88f5", "fusion_lat": 0.0, "is_reserved": 0, "lon": -77.00600183333333}, {"type": "electric_scooter", "name": "9cd7f9e3c8552f0cc2f88a07bc8e3e3a", "rental_uris": {"ios": "https://dc.lft.to/lastmile_qr_scan", "android": "https://dc.lft.to/lastmile_qr_scan"}, "fusion_lon": 0.0, "lat": 38.9367685, "is_disabled": 0, "bike_id": "9cd7f9e3c8552f0cc2f88a07bc8e3e3a", "fusion_lat": 0.0, "is_reserved": 0, "lon": -77.03586366666667}, {"type": "electric_scooter", "name": "b9283f395d1e15fc1ca0afc58661dfcb", "rental_uris": {"ios": "https://dc.lft.to/lastmile_qr_scan", "android": "https://dc.lft.to/lastmile_qr_scan"}, "fusion_lon": 0.0, "lat": 38.931745, "is_disabled": 0, "bike_id": "b9283f395d1e15fc1ca0afc58661dfcb", "fusion_lat": 0.0, "is_reserved": 0, "lon": -77.04292866666667}, {"type": "electric_scooter", "name": "5c6887d0edf74d7f1d965584d902325d", "rental_uris": {"ios": "https://dc.lft.to/lastmile_qr_scan", "android": "https://dc.lft.to/lastmile_qr_scan"}, "fusion_lon": 0.0, "lat": 38.892242, "is_disabled": 0, "bike_id": "5c6887d0edf74d7f1d965584d902325d", "fusion_lat": 0.0, "is_reserved": 0, "lon": -77.04329}, {"type": "electric_scooter", "name": "b3407a5dcc6bf43a1ad6563a91f43e46", "rental_uris": {"ios": "https://dc.lft.to/lastmile_qr_scan", "android": "https://dc.lft.to/lastmile_qr_scan"}, "fusion_lon": 0.0, "lat": 38.91710283333333, "is_disabled": 0, "bike_id": "b3407a5dcc6bf43a1ad6563a91f43e46", "fusion_lat": 0.0, "is_reserved": 0, "lon": -77.03471933333333}, {"type": "electric_scooter", "name": "8e0e11481d460232de5e58586e06b9ed", "rental_uris": {"ios": "https://dc.lft.to/lastmile_qr_scan", "android": "https://dc.lft.to/lastmile_qr_scan"}, "fusion_lon": 0.0, "lat": 38.9164265, "is_disabled": 0, "bike_id": "8e0e11481d460232de5e58586e06b9ed", "fusion_lat": 0.0, "is_reserved": 0, "lon": -77.047856}, {"type": "electric_scooter", "name": "72d852868c38be75b291aa611c2ab103", "rental_uris": {"ios": "https://dc.lft.to/lastmile_qr_scan", "android": "https://dc.lft.to/lastmile_qr_scan"}, "fusion_lon": 0.0, "lat": 38.89879666666667, "is_disabled": 0, "bike_id": "72d852868c38be75b291aa611c2ab103", "fusion_lat": 0.0, "is_reserved": 0, "lon": -77.03278333333333}, {"type": "electric_scooter", "name": "1efc8f863f163cdcc63598bfcb96db8f", "rental_uris": {"ios": "https://dc.lft.to/lastmile_qr_scan", "android": "https://dc.lft.to/lastmile_qr_scan"}, "fusion_lon": 0.0, "lat": 38.911183, "is_disabled": 0, "bike_id": "1efc8f863f163cdcc63598bfcb96db8f", "fusion_lat": 0.0, "is_reserved": 0, "lon": -77.022071}, {"type": "electric_scooter", "name": "36fe7132cc0f7bb8ce5c7344db6f0362", "rental_uris": {"ios": "https://dc.lft.to/lastmile_qr_scan", "android": "https://dc.lft.to/lastmile_qr_scan"}, "fusion_lon": 0.0, "lat": 38.8951995, "is_disabled": 0, "bike_id": "36fe7132cc0f7bb8ce5c7344db6f0362", "fusion_lat": 0.0, "is_reserved": 0, "lon": -77.02190766666666}, {"type": "electric_scooter", "name": "e3b639e5296e0e285cabfd93b614ee04", "rental_uris": {"ios": "https://dc.lft.to/lastmile_qr_scan", "android": "https://dc.lft.to/lastmile_qr_scan"}, "fusion_lon": 0.0, "lat": 38.9212005, "is_disabled": 0, "bike_id": "e3b639e5296e0e285cabfd93b614ee04", "fusion_lat": 0.0, "is_reserved": 0, "lon": -77.04390983333333}, {"type": "electric_scooter", "name": "6ce851b04310fb0a96820173e53fd726", "rental_uris": {"ios": "https://dc.lft.to/lastmile_qr_scan", "android": "https://dc.lft.to/lastmile_qr_scan"}, "fusion_lon": 0.0, "lat": 38.88461816666667, "is_disabled": 0, "bike_id": "6ce851b04310fb0a96820173e53fd726", "fusion_lat": 0.0, "is_reserved": 0, "lon": -76.94974966666666}, {"type": "electric_scooter", "name": "84afd89b44e9aef4b43f07b166c91475", "rental_uris": {"ios": "https://dc.lft.to/lastmile_qr_scan", "android": "https://dc.lft.to/lastmile_qr_scan"}, "fusion_lon": 0.0, "lat": 38.883276, "is_disabled": 0, "bike_id": "84afd89b44e9aef4b43f07b166c91475", "fusion_lat": 0.0, "is_reserved": 0, "lon": -77.01758633333333}, {"type": "electric_scooter", "name": "0969a56e87bbb6721eaa51e4f49a31f0", "rental_uris": {"ios": "https://dc.lft.to/lastmile_qr_scan", "android": "https://dc.lft.to/lastmile_qr_scan"}, "fusion_lon": 0.0, "lat": 38.9367465, "is_disabled": 0, "bike_id": "0969a56e87bbb6721eaa51e4f49a31f0", "fusion_lat": 0.0, "is_reserved": 0, "lon": -77.03589583333333}, {"type": "electric_scooter", "name": "bf7c475bfc13e529c151f3b71d24feb0", "rental_uris": {"ios": "https://dc.lft.to/lastmile_qr_scan", "android": "https://dc.lft.to/lastmile_qr_scan"}, "fusion_lon": 0.0, "lat": 38.902309833333334, "is_disabled": 0, "bike_id": "bf7c475bfc13e529c151f3b71d24feb0", "fusion_lat": 0.0, "is_reserved": 0, "lon": -77.04566866666667}, {"type": "electric_scooter", "name": "8d3dbffd3bf72de79ceb1515eb4a31f2", "rental_uris": {"ios": "https://dc.lft.to/lastmile_qr_scan", "android": "https://dc.lft.to/lastmile_qr_scan"}, "fusion_lon": 0.0, "lat": 38.92043733333333, "is_disabled": 0, "bike_id": "8d3dbffd3bf72de79ceb1515eb4a31f2", "fusion_lat": 0.0, "is_reserved": 0, "lon": -77.01677766666667}, {"type": "electric_scooter", "name": "6e3c5abae9b2c6dff576c61830b1b595", "rental_uris": {"ios": "https://dc.lft.to/lastmile_qr_scan", "android": "https://dc.lft.to/lastmile_qr_scan"}, "fusion_lon": 0.0, "lat": 38.903994833333336, "is_disabled": 0, "bike_id": "6e3c5abae9b2c6dff576c61830b1b595", "fusion_lat": 0.0, "is_reserved": 0, "lon": -77.04883733333334}, {"type": "electric_scooter", "name": "df999ec928eef27a61f4fda9bae2aab4", "rental_uris": {"ios": "https://dc.lft.to/lastmile_qr_scan", "android": "https://dc.lft.to/lastmile_qr_scan"}, "fusion_lon": 0.0, "lat": 38.9387215, "is_disabled": 0, "bike_id": "df999ec928eef27a61f4fda9bae2aab4", "fusion_lat": 0.0, "is_reserved": 0, "lon": -77.0245615}, {"type": "electric_scooter", "name": "7371cdacd56793ecbd7d044c1c52f6cc", "rental_uris": {"ios": "https://dc.lft.to/lastmile_qr_scan", "android": "https://dc.lft.to/lastmile_qr_scan"}, "fusion_lon": 0.0, "lat": 38.90673366666667, "is_disabled": 0, "bike_id": "7371cdacd56793ecbd7d044c1c52f6cc", "fusion_lat": 0.0, "is_reserved": 0, "lon": -77.06590583333333}, {"type": "electric_scooter", "name": "9fe225216942fb0a195eb9b7ce37062c", "rental_uris": {"ios": "https://dc.lft.to/lastmile_qr_scan", "android": "https://dc.lft.to/lastmile_qr_scan"}, "fusion_lon": 0.0, "lat": 38.9190205, "is_disabled": 0, "bike_id": "9fe225216942fb0a195eb9b7ce37062c", "fusion_lat": 0.0, "is_reserved": 0, "lon": -77.02751366666666}, {"type": "electric_scooter", "name": "f04fa1e68bf31d750fa8fe3fb8763972", "rental_uris": {"ios": "https://dc.lft.to/lastmile_qr_scan", "android": "https://dc.lft.to/lastmile_qr_scan"}, "fusion_lon": 0.0, "lat": 38.90239716666667, "is_disabled": 0, "bike_id": "f04fa1e68bf31d750fa8fe3fb8763972", "fusion_lat": 0.0, "is_reserved": 0, "lon": -77.0403935}, {"type": "electric_scooter", "name": "74b6845ad790c5cf53db202742b00170", "rental_uris": {"ios": "https://dc.lft.to/lastmile_qr_scan", "android": "https://dc.lft.to/lastmile_qr_scan"}, "fusion_lon": 0.0, "lat": 38.9003095, "is_disabled": 0, "bike_id": "74b6845ad790c5cf53db202742b00170", "fusion_lat": 0.0, "is_reserved": 0, "lon": -77.0582235}, {"type": "electric_scooter", "name": "57deb70f765f87068dafe104f25efb3d", "rental_uris": {"ios": "https://dc.lft.to/lastmile_qr_scan", "android": "https://dc.lft.to/lastmile_qr_scan"}, "fusion_lon": 0.0, "lat": 38.92252, "is_disabled": 0, "bike_id": "57deb70f765f87068dafe104f25efb3d", "fusion_lat": 0.0, "is_reserved": 0, "lon": -77.02974816666666}, {"type": "electric_scooter", "name": "f3d5a6ec2b2c8f7e7fefb03d98d2f0f4", "rental_uris": {"ios": "https://dc.lft.to/lastmile_qr_scan", "android": "https://dc.lft.to/lastmile_qr_scan"}, "fusion_lon": 0.0, "lat": 38.91716016666667, "is_disabled": 0, "bike_id": "f3d5a6ec2b2c8f7e7fefb03d98d2f0f4", "fusion_lat": 0.0, "is_reserved": 0, "lon": -77.036642}, {"type": "electric_scooter", "name": "f008a9092f0bc71849d0b9f65f5ed81d", "rental_uris": {"ios": "https://dc.lft.to/lastmile_qr_scan", "android": "https://dc.lft.to/lastmile_qr_scan"}, "fusion_lon": 0.0, "lat": 38.89217383333333, "is_disabled": 0, "bike_id": "f008a9092f0bc71849d0b9f65f5ed81d", "fusion_lat": 0.0, "is_reserved": 0, "lon": -77.0242535}, {"type": "electric_bike", "name": "a205928fdb047b1b50afe9b4bbe09cfe", "rental_uris": {"ios": "https://dc.lft.to/lastmile_qr_scan", "android": "https://dc.lft.to/lastmile_qr_scan"}, "fusion_lon": 0.0, "lat": 38.794686166666665, "is_disabled": 0, "bike_id": "a205928fdb047b1b50afe9b4bbe09cfe", "fusion_lat": 0.0, "is_reserved": 0, "lon": -76.99245433333333}, {"type": "electric_scooter", "name": "900bcc8690da949376444848c20d38ff", "rental_uris": {"ios": "https://dc.lft.to/lastmile_qr_scan", "android": "https://dc.lft.to/lastmile_qr_scan"}, "fusion_lon": 0.0, "lat": 38.905733, "is_disabled": 0, "bike_id": "900bcc8690da949376444848c20d38ff", "fusion_lat": 0.0, "is_reserved": 0, "lon": -77.04355933333333}, {"type": "electric_scooter", "name": "c32f5493f9ddad681e125a92df56a145", "rental_uris": {"ios": "https://dc.lft.to/lastmile_qr_scan", "android": "https://dc.lft.to/lastmile_qr_scan"}, "fusion_lon": 0.0, "lat": 38.902431666666665, "is_disabled": 0, "bike_id": "c32f5493f9ddad681e125a92df56a145", "fusion_lat": 0.0, "is_reserved": 0, "lon": -77.026003}, {"type": "electric_bike", "name": "8c1774d1309c61546481275f03cee392", "rental_uris": {"ios": "https://dc.lft.to/lastmile_qr_scan", "android": "https://dc.lft.to/lastmile_qr_scan"}, "fusion_lon": 0.0, "lat": 38.890378, "is_disabled": 0, "bike_id": "8c1774d1309c61546481275f03cee392", "fusion_lat": 0.0, "is_reserved": 0, "lon": -77.1839545}, {"type": "electric_scooter", "name": "6f015afb2ed6c37519b30209b714726b", "rental_uris": {"ios": "https://dc.lft.to/lastmile_qr_scan", "android": "https://dc.lft.to/lastmile_qr_scan"}, "fusion_lon": 0.0, "lat": 38.876387, "is_disabled": 0, "bike_id": "6f015afb2ed6c37519b30209b714726b", "fusion_lat": 0.0, "is_reserved": 0, "lon": -77.00644866666667}, {"type": "electric_scooter", "name": "35063efbd24f6887a3c78bab798808c5", "rental_uris": {"ios": "https://dc.lft.to/lastmile_qr_scan", "android": "https://dc.lft.to/lastmile_qr_scan"}, "fusion_lon": 0.0, "lat": 38.913923833333335, "is_disabled": 0, "bike_id": "35063efbd24f6887a3c78bab798808c5", "fusion_lat": 0.0, "is_reserved": 0, "lon": -77.03852533333334}, {"type": "electric_bike", "name": "6b1139319d2767d98980753c03b6a414", "rental_uris": {"ios": "https://dc.lft.to/lastmile_qr_scan", "android": "https://dc.lft.to/lastmile_qr_scan"}, "fusion_lon": 0.0, "lat": 38.819909333333335, "is_disabled": 0, "bike_id": "6b1139319d2767d98980753c03b6a414", "fusion_lat": 0.0, "is_reserved": 0, "lon": -76.99808633333333}, {"type": "electric_scooter", "name": "dd96a6a025dba75bc88ac38ce73aceb3", "rental_uris": {"ios": "https://dc.lft.to/lastmile_qr_scan", "android": "https://dc.lft.to/lastmile_qr_scan"}, "fusion_lon": 0.0, "lat": 38.900051500000004, "is_disabled": 0, "bike_id": "dd96a6a025dba75bc88ac38ce73aceb3", "fusion_lat": 0.0, "is_reserved": 0, "lon": -77.019876}, {"type": "electric_scooter", "name": "7f52d8a77e0151f5fab6cac8327a5293", "rental_uris": {"ios": "https://dc.lft.to/lastmile_qr_scan", "android": "https://dc.lft.to/lastmile_qr_scan"}, "fusion_lon": 0.0, "lat": 38.92347, "is_disabled": 0, "bike_id": "7f52d8a77e0151f5fab6cac8327a5293", "fusion_lat": 0.0, "is_reserved": 0, "lon": -77.03210116666666}, {"type": "electric_scooter", "name": "5a22a9c91ecedef97d0d788d697af4d5", "rental_uris": {"ios": "https://dc.lft.to/lastmile_qr_scan", "android": "https://dc.lft.to/lastmile_qr_scan"}, "fusion_lon": 0.0, "lat": 38.87366216666667, "is_disabled": 0, "bike_id": "5a22a9c91ecedef97d0d788d697af4d5", "fusion_lat": 0.0, "is_reserved": 0, "lon": -77.005807}, {"type": "electric_scooter", "name": "f49fea631737d8a0d82b0bdf3ee2b058", "rental_uris": {"ios": "https://dc.lft.to/lastmile_qr_scan", "android": "https://dc.lft.to/lastmile_qr_scan"}, "fusion_lon": 0.0, "lat": 38.907133333333334, "is_disabled": 0, "bike_id": "f49fea631737d8a0d82b0bdf3ee2b058", "fusion_lat": 0.0, "is_reserved": 0, "lon": -77.029549}, {"type": "electric_scooter", "name": "463d8d80a1c4136f26aba029509febee", "rental_uris": {"ios": "https://dc.lft.to/lastmile_qr_scan", "android": "https://dc.lft.to/lastmile_qr_scan"}, "fusion_lon": 0.0, "lat": 38.866273666666665, "is_disabled": 0, "bike_id": "463d8d80a1c4136f26aba029509febee", "fusion_lat": 0.0, "is_reserved": 0, "lon": -76.987072}, {"type": "electric_scooter", "name": "458f487f7eca9377d1a5dffc2187ee75", "rental_uris": {"ios": "https://dc.lft.to/lastmile_qr_scan", "android": "https://dc.lft.to/lastmile_qr_scan"}, "fusion_lon": 0.0, "lat": 38.875477333333336, "is_disabled": 0, "bike_id": "458f487f7eca9377d1a5dffc2187ee75", "fusion_lat": 0.0, "is_reserved": 0, "lon": -77.00535383333333}, {"type": "electric_scooter", "name": "bf7e1b440672cfa8df658b32718193ee", "rental_uris": {"ios": "https://dc.lft.to/lastmile_qr_scan", "android": "https://dc.lft.to/lastmile_qr_scan"}, "fusion_lon": 0.0, "lat": 38.907089666666664, "is_disabled": 0, "bike_id": "bf7e1b440672cfa8df658b32718193ee", "fusion_lat": 0.0, "is_reserved": 0, "lon": -77.00573066666666}, {"type": "electric_scooter", "name": "9a8ae2a07c55f1338e4338e1cad841ca", "rental_uris": {"ios": "https://dc.lft.to/lastmile_qr_scan", "android": "https://dc.lft.to/lastmile_qr_scan"}, "fusion_lon": 0.0, "lat": 38.898731833333336, "is_disabled": 0, "bike_id": "9a8ae2a07c55f1338e4338e1cad841ca", "fusion_lat": 0.0, "is_reserved": 0, "lon": -77.02723083333333}, {"type": "electric_scooter", "name": "7f715f889f1c46da989791affd957825", "rental_uris": {"ios": "https://dc.lft.to/lastmile_qr_scan", "android": "https://dc.lft.to/lastmile_qr_scan"}, "fusion_lon": 0.0, "lat": 38.897043333333336, "is_disabled": 0, "bike_id": "7f715f889f1c46da989791affd957825", "fusion_lat": 0.0, "is_reserved": 0, "lon": -77.01610833333334}, {"type": "electric_scooter", "name": "631c19a417357055660af8fa6479fdab", "rental_uris": {"ios": "https://dc.lft.to/lastmile_qr_scan", "android": "https://dc.lft.to/lastmile_qr_scan"}, "fusion_lon": 0.0, "lat": 38.90535716666667, "is_disabled": 0, "bike_id": "631c19a417357055660af8fa6479fdab", "fusion_lat": 0.0, "is_reserved": 0, "lon": -77.02699666666666}, {"type": "electric_scooter", "name": "c124c11047e9d89ff19ae31fc7684a3b", "rental_uris": {"ios": "https://dc.lft.to/lastmile_qr_scan", "android": "https://dc.lft.to/lastmile_qr_scan"}, "fusion_lon": 0.0, "lat": 38.88810266666667, "is_disabled": 0, "bike_id": "c124c11047e9d89ff19ae31fc7684a3b", "fusion_lat": 0.0, "is_reserved": 0, "lon": -76.98358}, {"type": "electric_scooter", "name": "c61bf91d35e2a4a95ca7434e3c21d68e", "rental_uris": {"ios": "https://dc.lft.to/lastmile_qr_scan", "android": "https://dc.lft.to/lastmile_qr_scan"}, "fusion_lon": 0.0, "lat": 38.897128333333335, "is_disabled": 0, "bike_id": "c61bf91d35e2a4a95ca7434e3c21d68e", "fusion_lat": 0.0, "is_reserved": 0, "lon": -77.0276475}, {"type": "electric_scooter", "name": "9ac41f137fb3eb245bc4e66e2f843086", "rental_uris": {"ios": "https://dc.lft.to/lastmile_qr_scan", "android": "https://dc.lft.to/lastmile_qr_scan"}, "fusion_lon": 0.0, "lat": 38.92046333333333, "is_disabled": 0, "bike_id": "9ac41f137fb3eb245bc4e66e2f843086", "fusion_lat": 0.0, "is_reserved": 0, "lon": -77.01672183333334}, {"type": "electric_bike", "name": "21f9e921c889257572800785aba5703b", "rental_uris": {"ios": "https://dc.lft.to/lastmile_qr_scan", "android": "https://dc.lft.to/lastmile_qr_scan"}, "fusion_lon": 0.0, "lat": 38.8564745, "is_disabled": 0, "bike_id": "21f9e921c889257572800785aba5703b", "fusion_lat": 0.0, "is_reserved": 0, "lon": -77.08526766666667}, {"type": "electric_scooter", "name": "98581a46175e08853570f6bc16d4e122", "rental_uris": {"ios": "https://dc.lft.to/lastmile_qr_scan", "android": "https://dc.lft.to/lastmile_qr_scan"}, "fusion_lon": 0.0, "lat": 38.91530783333333, "is_disabled": 0, "bike_id": "98581a46175e08853570f6bc16d4e122", "fusion_lat": 0.0, "is_reserved": 0, "lon": -77.0122425}, {"type": "electric_scooter", "name": "14a12032a551d4d37787b0d88db5b1f7", "rental_uris": {"ios": "https://dc.lft.to/lastmile_qr_scan", "android": "https://dc.lft.to/lastmile_qr_scan"}, "fusion_lon": 0.0, "lat": 38.8825475, "is_disabled": 0, "bike_id": "14a12032a551d4d37787b0d88db5b1f7", "fusion_lat": 0.0, "is_reserved": 0, "lon": -76.92667666666667}, {"type": "electric_bike", "name": "507bf19af777069d1b8680375a745ff3", "rental_uris": {"ios": "https://dc.lft.to/lastmile_qr_scan", "android": "https://dc.lft.to/lastmile_qr_scan"}, "fusion_lon": 0.0, "lat": 38.9630185, "is_disabled": 0, "bike_id": "507bf19af777069d1b8680375a745ff3", "fusion_lat": 0.0, "is_reserved": 0, "lon": -77.0106845}, {"type": "electric_bike", "name": "8782f56b01457d297ed8dbea265303d5", "rental_uris": {"ios": "https://dc.lft.to/lastmile_qr_scan", "android": "https://dc.lft.to/lastmile_qr_scan"}, "fusion_lon": 0.0, "lat": 39.08445116666667, "is_disabled": 0, "bike_id": "8782f56b01457d297ed8dbea265303d5", "fusion_lat": 0.0, "is_reserved": 0, "lon": -76.95183216666666}, {"type": "electric_scooter", "name": "9f40fe8bd9e733751f5bf55ec3da54ce", "rental_uris": {"ios": "https://dc.lft.to/lastmile_qr_scan", "android": "https://dc.lft.to/lastmile_qr_scan"}, "fusion_lon": 0.0, "lat": 38.9267585, "is_disabled": 0, "bike_id": "9f40fe8bd9e733751f5bf55ec3da54ce", "fusion_lat": 0.0, "is_reserved": 0, "lon": -77.0428515}, {"type": "electric_scooter", "name": "76834b4250984c863394938521b11651", "rental_uris": {"ios": "https://dc.lft.to/lastmile_qr_scan", "android": "https://dc.lft.to/lastmile_qr_scan"}, "fusion_lon": 0.0, "lat": 38.893982, "is_disabled": 0, "bike_id": "76834b4250984c863394938521b11651", "fusion_lat": 0.0, "is_reserved": 0, "lon": -76.991568}, {"type": "electric_scooter", "name": "a0a1bab3eb2d16d984f8a381e261b7ce", "rental_uris": {"ios": "https://dc.lft.to/lastmile_qr_scan", "android": "https://dc.lft.to/lastmile_qr_scan"}, "fusion_lon": 0.0, "lat": 38.90810033333333, "is_disabled": 0, "bike_id": "a0a1bab3eb2d16d984f8a381e261b7ce", "fusion_lat": 0.0, "is_reserved": 0, "lon": -77.03945}, {"type": "electric_scooter", "name": "a94961e922ddfdde79918637d72ec23e", "rental_uris": {"ios": "https://dc.lft.to/lastmile_qr_scan", "android": "https://dc.lft.to/lastmile_qr_scan"}, "fusion_lon": 0.0, "lat": 38.906928, "is_disabled": 0, "bike_id": "a94961e922ddfdde79918637d72ec23e", "fusion_lat": 0.0, "is_reserved": 0, "lon": -77.05721183333333}, {"type": "electric_scooter", "name": "556d5e577abdd99bf61c23b91f6a4c93", "rental_uris": {"ios": "https://dc.lft.to/lastmile_qr_scan", "android": "https://dc.lft.to/lastmile_qr_scan"}, "fusion_lon": 0.0, "lat": 38.9147815, "is_disabled": 0, "bike_id": "556d5e577abdd99bf61c23b91f6a4c93", "fusion_lat": 0.0, "is_reserved": 0, "lon": -77.0087545}, {"type": "electric_scooter", "name": "b5d4adc14eac5529548d46c962f079c2", "rental_uris": {"ios": "https://dc.lft.to/lastmile_qr_scan", "android": "https://dc.lft.to/lastmile_qr_scan"}, "fusion_lon": 0.0, "lat": 38.88732666666667, "is_disabled": 0, "bike_id": "b5d4adc14eac5529548d46c962f079c2", "fusion_lat": 0.0, "is_reserved": 0, "lon": -76.9948685}, {"type": "electric_scooter", "name": "9b76332347218e06fa79c3aff1a71f0b", "rental_uris": {"ios": "https://dc.lft.to/lastmile_qr_scan", "android": "https://dc.lft.to/lastmile_qr_scan"}, "fusion_lon": 0.0, "lat": 38.919152833333335, "is_disabled": 0, "bike_id": "9b76332347218e06fa79c3aff1a71f0b", "fusion_lat": 0.0, "is_reserved": 0, "lon": -77.0213975}, {"type": "electric_scooter", "name": "e3fa28796766177179a469fb2f09854e", "rental_uris": {"ios": "https://dc.lft.to/lastmile_qr_scan", "android": "https://dc.lft.to/lastmile_qr_scan"}, "fusion_lon": 0.0, "lat": 38.929789, "is_disabled": 0, "bike_id": "e3fa28796766177179a469fb2f09854e", "fusion_lat": 0.0, "is_reserved": 0, "lon": -77.03182383333333}, {"type": "electric_scooter", "name": "5556d893a05d9602e405149e6169ca17", "rental_uris": {"ios": "https://dc.lft.to/lastmile_qr_scan", "android": "https://dc.lft.to/lastmile_qr_scan"}, "fusion_lon": 0.0, "lat": 38.8924195, "is_disabled": 0, "bike_id": "5556d893a05d9602e405149e6169ca17", "fusion_lat": 0.0, "is_reserved": 0, "lon": -77.03959916666666}, {"type": "electric_scooter", "name": "e330fbd5d453b81c3963754c79553260", "rental_uris": {"ios": "https://dc.lft.to/lastmile_qr_scan", "android": "https://dc.lft.to/lastmile_qr_scan"}, "fusion_lon": 0.0, "lat": 38.831461166666664, "is_disabled": 0, "bike_id": "e330fbd5d453b81c3963754c79553260", "fusion_lat": 0.0, "is_reserved": 0, "lon": -77.0083925}, {"type": "electric_scooter", "name": "ebfde3862af8e165ef0e1cb4ff70d310", "rental_uris": {"ios": "https://dc.lft.to/lastmile_qr_scan", "android": "https://dc.lft.to/lastmile_qr_scan"}, "fusion_lon": 0.0, "lat": 38.89876266666667, "is_disabled": 0, "bike_id": "ebfde3862af8e165ef0e1cb4ff70d310", "fusion_lat": 0.0, "is_reserved": 0, "lon": -76.93182783333333}, {"type": "electric_scooter", "name": "c72d332517d3e2ac4c9ee28330443e63", "rental_uris": {"ios": "https://dc.lft.to/lastmile_qr_scan", "android": "https://dc.lft.to/lastmile_qr_scan"}, "fusion_lon": 0.0, "lat": 38.93484083333333, "is_disabled": 0, "bike_id": "c72d332517d3e2ac4c9ee28330443e63", "fusion_lat": 0.0, "is_reserved": 0, "lon": -77.04537066666667}, {"type": "electric_bike", "name": "7ca8d086aecd64db8a20ebdbc93636f2", "rental_uris": {"ios": "https://dc.lft.to/lastmile_qr_scan", "android": "https://dc.lft.to/lastmile_qr_scan"}, "fusion_lon": 0.0, "lat": 38.95239683333333, "is_disabled": 0, "bike_id": "7ca8d086aecd64db8a20ebdbc93636f2", "fusion_lat": 0.0, "is_reserved": 0, "lon": -77.00270166666667}, {"type": "electric_scooter", "name": "87b486cdd0aced318382cbcd72e53a70", "rental_uris": {"ios": "https://dc.lft.to/lastmile_qr_scan", "android": "https://dc.lft.to/lastmile_qr_scan"}, "fusion_lon": 0.0, "lat": 38.922741, "is_disabled": 0, "bike_id": "87b486cdd0aced318382cbcd72e53a70", "fusion_lat": 0.0, "is_reserved": 0, "lon": -77.04241766666667}, {"type": "electric_scooter", "name": "8c87c84cd4c06212a9d286d50371af8b", "rental_uris": {"ios": "https://dc.lft.to/lastmile_qr_scan", "android": "https://dc.lft.to/lastmile_qr_scan"}, "fusion_lon": 0.0, "lat": 38.90011916666667, "is_disabled": 0, "bike_id": "8c87c84cd4c06212a9d286d50371af8b", "fusion_lat": 0.0, "is_reserved": 0, "lon": -76.987865}, {"type": "electric_scooter", "name": "f11f1295ba5465fa021147093352f437", "rental_uris": {"ios": "https://dc.lft.to/lastmile_qr_scan", "android": "https://dc.lft.to/lastmile_qr_scan"}, "fusion_lon": 0.0, "lat": 38.91939466666667, "is_disabled": 0, "bike_id": "f11f1295ba5465fa021147093352f437", "fusion_lat": 0.0, "is_reserved": 0, "lon": -77.0249555}, {"type": "electric_scooter", "name": "02a244faebb1d3700a1c17c53b405228", "rental_uris": {"ios": "https://dc.lft.to/lastmile_qr_scan", "android": "https://dc.lft.to/lastmile_qr_scan"}, "fusion_lon": 0.0, "lat": 38.89838483333333, "is_disabled": 0, "bike_id": "02a244faebb1d3700a1c17c53b405228", "fusion_lat": 0.0, "is_reserved": 0, "lon": -77.0133845}, {"type": "electric_scooter", "name": "23ed2f9bb2f52c427d9fd2413c8be7d1", "rental_uris": {"ios": "https://dc.lft.to/lastmile_qr_scan", "android": "https://dc.lft.to/lastmile_qr_scan"}, "fusion_lon": 0.0, "lat": 38.9204405, "is_disabled": 0, "bike_id": "23ed2f9bb2f52c427d9fd2413c8be7d1", "fusion_lat": 0.0, "is_reserved": 0, "lon": -77.01678116666666}, {"type": "electric_scooter", "name": "98cf5886abb29160185c52f0e0bb81ff", "rental_uris": {"ios": "https://dc.lft.to/lastmile_qr_scan", "android": "https://dc.lft.to/lastmile_qr_scan"}, "fusion_lon": 0.0, "lat": 38.925113833333334, "is_disabled": 0, "bike_id": "98cf5886abb29160185c52f0e0bb81ff", "fusion_lat": 0.0, "is_reserved": 0, "lon": -77.022862}, {"type": "electric_scooter", "name": "8139230ccf8130f0127ebf2e5c03354d", "rental_uris": {"ios": "https://dc.lft.to/lastmile_qr_scan", "android": "https://dc.lft.to/lastmile_qr_scan"}, "fusion_lon": 0.0, "lat": 38.90258266666667, "is_disabled": 0, "bike_id": "8139230ccf8130f0127ebf2e5c03354d", "fusion_lat": 0.0, "is_reserved": 0, "lon": -77.03965433333333}, {"type": "electric_scooter", "name": "b4340aff1193d0398b55d43b83802ffc", "rental_uris": {"ios": "https://dc.lft.to/lastmile_qr_scan", "android": "https://dc.lft.to/lastmile_qr_scan"}, "fusion_lon": 0.0, "lat": 38.902080166666664, "is_disabled": 0, "bike_id": "b4340aff1193d0398b55d43b83802ffc", "fusion_lat": 0.0, "is_reserved": 0, "lon": -77.02737933333333}, {"type": "electric_scooter", "name": "bea87c298a9d149abc6470ab06f2380f", "rental_uris": {"ios": "https://dc.lft.to/lastmile_qr_scan", "android": "https://dc.lft.to/lastmile_qr_scan"}, "fusion_lon": 0.0, "lat": 38.90561683333333, "is_disabled": 0, "bike_id": "bea87c298a9d149abc6470ab06f2380f", "fusion_lat": 0.0, "is_reserved": 0, "lon": -77.04007816666666}, {"type": "electric_bike", "name": "5ec73934506493be2f0315519e5d1a0d", "rental_uris": {"ios": "https://dc.lft.to/lastmile_qr_scan", "android": "https://dc.lft.to/lastmile_qr_scan"}, "fusion_lon": 0.0, "lat": 38.92935883333333, "is_disabled": 0, "bike_id": "5ec73934506493be2f0315519e5d1a0d", "fusion_lat": 0.0, "is_reserved": 0, "lon": -77.03763366666666}, {"type": "electric_scooter", "name": "afba26cfa4e39924c6eb49d5d6ab052d", "rental_uris": {"ios": "https://dc.lft.to/lastmile_qr_scan", "android": "https://dc.lft.to/lastmile_qr_scan"}, "fusion_lon": 0.0, "lat": 38.90691916666667, "is_disabled": 0, "bike_id": "afba26cfa4e39924c6eb49d5d6ab052d", "fusion_lat": 0.0, "is_reserved": 0, "lon": -77.0562935}, {"type": "electric_scooter", "name": "af434c78277e8f321d754d1249026d5f", "rental_uris": {"ios": "https://dc.lft.to/lastmile_qr_scan", "android": "https://dc.lft.to/lastmile_qr_scan"}, "fusion_lon": 0.0, "lat": 38.89533766666667, "is_disabled": 0, "bike_id": "af434c78277e8f321d754d1249026d5f", "fusion_lat": 0.0, "is_reserved": 0, "lon": -76.94890733333334}, {"type": "electric_scooter", "name": "f403b2887b0d471ed6b00f98dc14490b", "rental_uris": {"ios": "https://dc.lft.to/lastmile_qr_scan", "android": "https://dc.lft.to/lastmile_qr_scan"}, "fusion_lon": 0.0, "lat": 38.91691133333333, "is_disabled": 0, "bike_id": "f403b2887b0d471ed6b00f98dc14490b", "fusion_lat": 0.0, "is_reserved": 0, "lon": -77.028957}, {"type": "electric_scooter", "name": "6ce208be75d86979634ae9d5ed43cdfa", "rental_uris": {"ios": "https://dc.lft.to/lastmile_qr_scan", "android": "https://dc.lft.to/lastmile_qr_scan"}, "fusion_lon": 0.0, "lat": 38.8842555, "is_disabled": 0, "bike_id": "6ce208be75d86979634ae9d5ed43cdfa", "fusion_lat": 0.0, "is_reserved": 0, "lon": -76.95753316666666}, {"type": "electric_scooter", "name": "b97028193aa530cf9313a4d17223ad96", "rental_uris": {"ios": "https://dc.lft.to/lastmile_qr_scan", "android": "https://dc.lft.to/lastmile_qr_scan"}, "fusion_lon": 0.0, "lat": 38.932117166666664, "is_disabled": 0, "bike_id": "b97028193aa530cf9313a4d17223ad96", "fusion_lat": 0.0, "is_reserved": 0, "lon": -77.03350816666666}, {"type": "electric_scooter", "name": "3e1826364d3c8e47c2f30f36fa8fbe56", "rental_uris": {"ios": "https://dc.lft.to/lastmile_qr_scan", "android": "https://dc.lft.to/lastmile_qr_scan"}, "fusion_lon": 0.0, "lat": 38.91710466666667, "is_disabled": 0, "bike_id": "3e1826364d3c8e47c2f30f36fa8fbe56", "fusion_lat": 0.0, "is_reserved": 0, "lon": -77.031713}, {"type": "electric_scooter", "name": "8bb8732d9b181372c25cc8fe58159bfd", "rental_uris": {"ios": "https://dc.lft.to/lastmile_qr_scan", "android": "https://dc.lft.to/lastmile_qr_scan"}, "fusion_lon": 0.0, "lat": 38.92064166666667, "is_disabled": 0, "bike_id": "8bb8732d9b181372c25cc8fe58159bfd", "fusion_lat": 0.0, "is_reserved": 0, "lon": -77.04222416666667}, {"type": "electric_scooter", "name": "8a08fe3fec9cc0347aa3e5ddfb87d464", "rental_uris": {"ios": "https://dc.lft.to/lastmile_qr_scan", "android": "https://dc.lft.to/lastmile_qr_scan"}, "fusion_lon": 0.0, "lat": 38.92823116666667, "is_disabled": 0, "bike_id": "8a08fe3fec9cc0347aa3e5ddfb87d464", "fusion_lat": 0.0, "is_reserved": 0, "lon": -77.0597195}, {"type": "electric_bike", "name": "039197f258d5dec09e6a769c5a53604c", "rental_uris": {"ios": "https://dc.lft.to/lastmile_qr_scan", "android": "https://dc.lft.to/lastmile_qr_scan"}, "fusion_lon": 0.0, "lat": 38.994188666666666, "is_disabled": 0, "bike_id": "039197f258d5dec09e6a769c5a53604c", "fusion_lat": 0.0, "is_reserved": 0, "lon": -77.07696816666666}, {"type": "electric_bike", "name": "2aa0ef739d1d330f6c81094761044417", "rental_uris": {"ios": "https://dc.lft.to/lastmile_qr_scan", "android": "https://dc.lft.to/lastmile_qr_scan"}, "fusion_lon": 0.0, "lat": 39.03610783333333, "is_disabled": 0, "bike_id": "2aa0ef739d1d330f6c81094761044417", "fusion_lat": 0.0, "is_reserved": 0, "lon": -77.05543633333333}, {"type": "electric_bike", "name": "f084afb8704b2b62e406bbd80879068e", "rental_uris": {"ios": "https://dc.lft.to/lastmile_qr_scan", "android": "https://dc.lft.to/lastmile_qr_scan"}, "fusion_lon": 0.0, "lat": 38.951699, "is_disabled": 0, "bike_id": "f084afb8704b2b62e406bbd80879068e", "fusion_lat": 0.0, "is_reserved": 0, "lon": -77.03164166666667}, {"type": "electric_scooter", "name": "b6f88988ba1ccac4717bad1b55a78b0c", "rental_uris": {"ios": "https://dc.lft.to/lastmile_qr_scan", "android": "https://dc.lft.to/lastmile_qr_scan"}, "fusion_lon": 0.0, "lat": 38.916685, "is_disabled": 0, "bike_id": "b6f88988ba1ccac4717bad1b55a78b0c", "fusion_lat": 0.0, "is_reserved": 0, "lon": -77.034541}, {"type": "electric_scooter", "name": "e194f429b9c7431c5efd6d5866eb74f4", "rental_uris": {"ios": "https://dc.lft.to/lastmile_qr_scan", "android": "https://dc.lft.to/lastmile_qr_scan"}, "fusion_lon": 0.0, "lat": 38.929647833333334, "is_disabled": 0, "bike_id": "e194f429b9c7431c5efd6d5866eb74f4", "fusion_lat": 0.0, "is_reserved": 0, "lon": -77.031847}, {"type": "electric_scooter", "name": "7f9bb82e537ebe63706b66d0fe491c76", "rental_uris": {"ios": "https://dc.lft.to/lastmile_qr_scan", "android": "https://dc.lft.to/lastmile_qr_scan"}, "fusion_lon": 0.0, "lat": 38.92439616666667, "is_disabled": 0, "bike_id": "7f9bb82e537ebe63706b66d0fe491c76", "fusion_lat": 0.0, "is_reserved": 0, "lon": -77.033745}, {"type": "electric_scooter", "name": "72725c6e8e73c0309a50c16840cb4a74", "rental_uris": {"ios": "https://dc.lft.to/lastmile_qr_scan", "android": "https://dc.lft.to/lastmile_qr_scan"}, "fusion_lon": 0.0, "lat": 38.914331833333335, "is_disabled": 0, "bike_id": "72725c6e8e73c0309a50c16840cb4a74", "fusion_lat": 0.0, "is_reserved": 0, "lon": -77.02197283333334}, {"type": "electric_scooter", "name": "6f484ce3ad77bfc5b7210322676e6785", "rental_uris": {"ios": "https://dc.lft.to/lastmile_qr_scan", "android": "https://dc.lft.to/lastmile_qr_scan"}, "fusion_lon": 0.0, "lat": 38.91912966666666, "is_disabled": 0, "bike_id": "6f484ce3ad77bfc5b7210322676e6785", "fusion_lat": 0.0, "is_reserved": 0, "lon": -77.03178583333333}, {"type": "electric_scooter", "name": "ac101cd11ee6e518a262bdce2005fef6", "rental_uris": {"ios": "https://dc.lft.to/lastmile_qr_scan", "android": "https://dc.lft.to/lastmile_qr_scan"}, "fusion_lon": 0.0, "lat": 38.899868166666664, "is_disabled": 0, "bike_id": "ac101cd11ee6e518a262bdce2005fef6", "fusion_lat": 0.0, "is_reserved": 0, "lon": -76.98434933333333}, {"type": "electric_scooter", "name": "70b0e05e2e43b20c514aa8e09ddc27de", "rental_uris": {"ios": "https://dc.lft.to/lastmile_qr_scan", "android": "https://dc.lft.to/lastmile_qr_scan"}, "fusion_lon": 0.0, "lat": 38.92370716666667, "is_disabled": 0, "bike_id": "70b0e05e2e43b20c514aa8e09ddc27de", "fusion_lat": 0.0, "is_reserved": 0, "lon": -77.03130516666667}, {"type": "electric_scooter", "name": "6e7fd48eafb1209d4d74372e2d82157f", "rental_uris": {"ios": "https://dc.lft.to/lastmile_qr_scan", "android": "https://dc.lft.to/lastmile_qr_scan"}, "fusion_lon": 0.0, "lat": 38.879968, "is_disabled": 0, "bike_id": "6e7fd48eafb1209d4d74372e2d82157f", "fusion_lat": 0.0, "is_reserved": 0, "lon": -76.99503783333333}, {"type": "electric_scooter", "name": "0b325d40c6519fe8eecc9d6a8527b927", "rental_uris": {"ios": "https://dc.lft.to/lastmile_qr_scan", "android": "https://dc.lft.to/lastmile_qr_scan"}, "fusion_lon": 0.0, "lat": 38.90974933333333, "is_disabled": 0, "bike_id": "0b325d40c6519fe8eecc9d6a8527b927", "fusion_lat": 0.0, "is_reserved": 0, "lon": -77.03441916666667}, {"type": "electric_scooter", "name": "791fcaa6922f781043d672f6e4b127fd", "rental_uris": {"ios": "https://dc.lft.to/lastmile_qr_scan", "android": "https://dc.lft.to/lastmile_qr_scan"}, "fusion_lon": 0.0, "lat": 38.892506833333336, "is_disabled": 0, "bike_id": "791fcaa6922f781043d672f6e4b127fd", "fusion_lat": 0.0, "is_reserved": 0, "lon": -77.039582}, {"type": "electric_bike", "name": "9433659e5a44532317569d3e50240dbb", "rental_uris": {"ios": "https://dc.lft.to/lastmile_qr_scan", "android": "https://dc.lft.to/lastmile_qr_scan"}, "fusion_lon": 0.0, "lat": 38.940513, "is_disabled": 0, "bike_id": "9433659e5a44532317569d3e50240dbb", "fusion_lat": 0.0, "is_reserved": 0, "lon": -76.904205}, {"type": "electric_scooter", "name": "c5a85c1caf0bfb22f04eb88a69b06a5f", "rental_uris": {"ios": "https://dc.lft.to/lastmile_qr_scan", "android": "https://dc.lft.to/lastmile_qr_scan"}, "fusion_lon": 0.0, "lat": 38.918175166666664, "is_disabled": 0, "bike_id": "c5a85c1caf0bfb22f04eb88a69b06a5f", "fusion_lat": 0.0, "is_reserved": 0, "lon": -77.04026033333334}, {"type": "electric_bike", "name": "88813b463bb95da475739bf6e8fac632", "rental_uris": {"ios": "https://dc.lft.to/lastmile_qr_scan", "android": "https://dc.lft.to/lastmile_qr_scan"}, "fusion_lon": 0.0, "lat": 38.975198666666664, "is_disabled": 0, "bike_id": "88813b463bb95da475739bf6e8fac632", "fusion_lat": 0.0, "is_reserved": 0, "lon": -77.01685566666667}, {"type": "electric_scooter", "name": "b2c4d05a0e0130878ba64a10d899f750", "rental_uris": {"ios": "https://dc.lft.to/lastmile_qr_scan", "android": "https://dc.lft.to/lastmile_qr_scan"}, "fusion_lon": 0.0, "lat": 38.902370166666664, "is_disabled": 0, "bike_id": "b2c4d05a0e0130878ba64a10d899f750", "fusion_lat": 0.0, "is_reserved": 0, "lon": -77.03999466666667}, {"type": "electric_scooter", "name": "da59b718722468cca2700ecff7243038", "rental_uris": {"ios": "https://dc.lft.to/lastmile_qr_scan", "android": "https://dc.lft.to/lastmile_qr_scan"}, "fusion_lon": 0.0, "lat": 38.920540333333335, "is_disabled": 0, "bike_id": "da59b718722468cca2700ecff7243038", "fusion_lat": 0.0, "is_reserved": 0, "lon": -77.04191166666666}, {"type": "electric_scooter", "name": "5f82ec348993a4a8134387f47bb47d13", "rental_uris": {"ios": "https://dc.lft.to/lastmile_qr_scan", "android": "https://dc.lft.to/lastmile_qr_scan"}, "fusion_lon": 0.0, "lat": 38.922865, "is_disabled": 0, "bike_id": "5f82ec348993a4a8134387f47bb47d13", "fusion_lat": 0.0, "is_reserved": 0, "lon": -77.02962666666667}, {"type": "electric_bike", "name": "22cdb5a6c8500a1ffb77d372df6cbfeb", "rental_uris": {"ios": "https://dc.lft.to/lastmile_qr_scan", "android": "https://dc.lft.to/lastmile_qr_scan"}, "fusion_lon": 0.0, "lat": 38.99441433333333, "is_disabled": 0, "bike_id": "22cdb5a6c8500a1ffb77d372df6cbfeb", "fusion_lat": 0.0, "is_reserved": 0, "lon": -76.99585966666666}, {"type": "electric_scooter", "name": "f4378217c4ff6ee52355855e3bb7b661", "rental_uris": {"ios": "https://dc.lft.to/lastmile_qr_scan", "android": "https://dc.lft.to/lastmile_qr_scan"}, "fusion_lon": 0.0, "lat": 38.923932666666666, "is_disabled": 0, "bike_id": "f4378217c4ff6ee52355855e3bb7b661", "fusion_lat": 0.0, "is_reserved": 0, "lon": -77.02429766666667}, {"type": "electric_scooter", "name": "10bfcac5d434c07ccc38d8debd9704e8", "rental_uris": {"ios": "https://dc.lft.to/lastmile_qr_scan", "android": "https://dc.lft.to/lastmile_qr_scan"}, "fusion_lon": 0.0, "lat": 38.914149, "is_disabled": 0, "bike_id": "10bfcac5d434c07ccc38d8debd9704e8", "fusion_lat": 0.0, "is_reserved": 0, "lon": -77.024472}, {"type": "electric_scooter", "name": "2f02eb66eb57a6e0e2ee5976e244e58c", "rental_uris": {"ios": "https://dc.lft.to/lastmile_qr_scan", "android": "https://dc.lft.to/lastmile_qr_scan"}, "fusion_lon": 0.0, "lat": 38.902365, "is_disabled": 0, "bike_id": "2f02eb66eb57a6e0e2ee5976e244e58c", "fusion_lat": 0.0, "is_reserved": 0, "lon": -77.0450825}, {"type": "electric_scooter", "name": "3af0595ef5331077ca3b8911637df34d", "rental_uris": {"ios": "https://dc.lft.to/lastmile_qr_scan", "android": "https://dc.lft.to/lastmile_qr_scan"}, "fusion_lon": 0.0, "lat": 38.895324333333335, "is_disabled": 0, "bike_id": "3af0595ef5331077ca3b8911637df34d", "fusion_lat": 0.0, "is_reserved": 0, "lon": -77.028105}, {"type": "electric_scooter", "name": "c0d42da55d27168f7ad284da7996913f", "rental_uris": {"ios": "https://dc.lft.to/lastmile_qr_scan", "android": "https://dc.lft.to/lastmile_qr_scan"}, "fusion_lon": 0.0, "lat": 38.909509666666665, "is_disabled": 0, "bike_id": "c0d42da55d27168f7ad284da7996913f", "fusion_lat": 0.0, "is_reserved": 0, "lon": -76.9987665}, {"type": "electric_bike", "name": "34e24482ea67d325fe582ac10b3e7b9c", "rental_uris": {"ios": "https://dc.lft.to/lastmile_qr_scan", "android": "https://dc.lft.to/lastmile_qr_scan"}, "fusion_lon": 0.0, "lat": 38.903049833333334, "is_disabled": 0, "bike_id": "34e24482ea67d325fe582ac10b3e7b9c", "fusion_lat": 0.0, "is_reserved": 0, "lon": -76.97649833333334}, {"type": "electric_scooter", "name": "54d7c765ea1ba8c208e62ff8527cc9a1", "rental_uris": {"ios": "https://dc.lft.to/lastmile_qr_scan", "android": "https://dc.lft.to/lastmile_qr_scan"}, "fusion_lon": 0.0, "lat": 38.89424416666667, "is_disabled": 0, "bike_id": "54d7c765ea1ba8c208e62ff8527cc9a1", "fusion_lat": 0.0, "is_reserved": 0, "lon": -77.00097383333333}, {"type": "electric_scooter", "name": "ba7e23e968fba3b9aa0b8c7b4da3714d", "rental_uris": {"ios": "https://dc.lft.to/lastmile_qr_scan", "android": "https://dc.lft.to/lastmile_qr_scan"}, "fusion_lon": 0.0, "lat": 38.9095965, "is_disabled": 0, "bike_id": "ba7e23e968fba3b9aa0b8c7b4da3714d", "fusion_lat": 0.0, "is_reserved": 0, "lon": -77.02274666666666}, {"type": "electric_scooter", "name": "fd20c0be806f46e6812d6318106637cf", "rental_uris": {"ios": "https://dc.lft.to/lastmile_qr_scan", "android": "https://dc.lft.to/lastmile_qr_scan"}, "fusion_lon": 0.0, "lat": 38.89554366666667, "is_disabled": 0, "bike_id": "fd20c0be806f46e6812d6318106637cf", "fusion_lat": 0.0, "is_reserved": 0, "lon": -77.039439}, {"type": "electric_scooter", "name": "0ad8c8d754b9c118352cc7a5887e0f11", "rental_uris": {"ios": "https://dc.lft.to/lastmile_qr_scan", "android": "https://dc.lft.to/lastmile_qr_scan"}, "fusion_lon": 0.0, "lat": 38.923234, "is_disabled": 0, "bike_id": "0ad8c8d754b9c118352cc7a5887e0f11", "fusion_lat": 0.0, "is_reserved": 0, "lon": -77.02970116666667}, {"type": "electric_scooter", "name": "068bf048f5dd307e680cfb9cd8ff5b34", "rental_uris": {"ios": "https://dc.lft.to/lastmile_qr_scan", "android": "https://dc.lft.to/lastmile_qr_scan"}, "fusion_lon": 0.0, "lat": 38.91126916666666, "is_disabled": 0, "bike_id": "068bf048f5dd307e680cfb9cd8ff5b34", "fusion_lat": 0.0, "is_reserved": 0, "lon": -77.04354566666666}, {"type": "electric_bike", "name": "f5c63d0ccea2916ca5598de89b982503", "rental_uris": {"ios": "https://dc.lft.to/lastmile_qr_scan", "android": "https://dc.lft.to/lastmile_qr_scan"}, "fusion_lon": 0.0, "lat": 38.835797166666666, "is_disabled": 0, "bike_id": "f5c63d0ccea2916ca5598de89b982503", "fusion_lat": 0.0, "is_reserved": 0, "lon": -77.00119833333333}, {"type": "electric_scooter", "name": "954ef211ce6f884e9610f2488ad2ae61", "rental_uris": {"ios": "https://dc.lft.to/lastmile_qr_scan", "android": "https://dc.lft.to/lastmile_qr_scan"}, "fusion_lon": 0.0, "lat": 38.93171266666667, "is_disabled": 0, "bike_id": "954ef211ce6f884e9610f2488ad2ae61", "fusion_lat": 0.0, "is_reserved": 0, "lon": -77.03667883333334}, {"type": "electric_scooter", "name": "ccf97d759e48dff82e447e2139fd7825", "rental_uris": {"ios": "https://dc.lft.to/lastmile_qr_scan", "android": "https://dc.lft.to/lastmile_qr_scan"}, "fusion_lon": 0.0, "lat": 38.89621316666667, "is_disabled": 0, "bike_id": "ccf97d759e48dff82e447e2139fd7825", "fusion_lat": 0.0, "is_reserved": 0, "lon": -77.04799333333334}, {"type": "electric_scooter", "name": "796d12cf2257f0afc99940077e73b598", "rental_uris": {"ios": "https://dc.lft.to/lastmile_qr_scan", "android": "https://dc.lft.to/lastmile_qr_scan"}, "fusion_lon": 0.0, "lat": 38.92748016666667, "is_disabled": 0, "bike_id": "796d12cf2257f0afc99940077e73b598", "fusion_lat": 0.0, "is_reserved": 0, "lon": -77.021291}, {"type": "electric_scooter", "name": "1ab038f53e1d67f1250f98feb69ab59a", "rental_uris": {"ios": "https://dc.lft.to/lastmile_qr_scan", "android": "https://dc.lft.to/lastmile_qr_scan"}, "fusion_lon": 0.0, "lat": 38.939030333333335, "is_disabled": 0, "bike_id": "1ab038f53e1d67f1250f98feb69ab59a", "fusion_lat": 0.0, "is_reserved": 0, "lon": -77.03316116666667}, {"type": "electric_scooter", "name": "532803a0a74cd27ea2ee26b99bb953bc", "rental_uris": {"ios": "https://dc.lft.to/lastmile_qr_scan", "android": "https://dc.lft.to/lastmile_qr_scan"}, "fusion_lon": 0.0, "lat": 38.90724783333334, "is_disabled": 0, "bike_id": "532803a0a74cd27ea2ee26b99bb953bc", "fusion_lat": 0.0, "is_reserved": 0, "lon": -77.06890683333333}, {"type": "electric_scooter", "name": "6461d391a9ffeda4da65e8a0fefa0606", "rental_uris": {"ios": "https://dc.lft.to/lastmile_qr_scan", "android": "https://dc.lft.to/lastmile_qr_scan"}, "fusion_lon": 0.0, "lat": 38.926579333333336, "is_disabled": 0, "bike_id": "6461d391a9ffeda4da65e8a0fefa0606", "fusion_lat": 0.0, "is_reserved": 0, "lon": -77.03713216666667}, {"type": "electric_scooter", "name": "c378dacd60dcb6c2acde92457df48da8", "rental_uris": {"ios": "https://dc.lft.to/lastmile_qr_scan", "android": "https://dc.lft.to/lastmile_qr_scan"}, "fusion_lon": 0.0, "lat": 38.98059083333333, "is_disabled": 0, "bike_id": "c378dacd60dcb6c2acde92457df48da8", "fusion_lat": 0.0, "is_reserved": 0, "lon": -77.02640833333334}, {"type": "electric_scooter", "name": "aaeab2991323d125be4b6e44052d6831", "rental_uris": {"ios": "https://dc.lft.to/lastmile_qr_scan", "android": "https://dc.lft.to/lastmile_qr_scan"}, "fusion_lon": 0.0, "lat": 38.94274166666667, "is_disabled": 0, "bike_id": "aaeab2991323d125be4b6e44052d6831", "fusion_lat": 0.0, "is_reserved": 0, "lon": -77.01258866666667}, {"type": "electric_scooter", "name": "879c86a96b6f429bcd3f695e8e4367c9", "rental_uris": {"ios": "https://dc.lft.to/lastmile_qr_scan", "android": "https://dc.lft.to/lastmile_qr_scan"}, "fusion_lon": 0.0, "lat": 38.92049766666667, "is_disabled": 0, "bike_id": "879c86a96b6f429bcd3f695e8e4367c9", "fusion_lat": 0.0, "is_reserved": 0, "lon": -77.00207533333334}, {"type": "electric_scooter", "name": "a36f80e49a21b963340794c884d643f5", "rental_uris": {"ios": "https://dc.lft.to/lastmile_qr_scan", "android": "https://dc.lft.to/lastmile_qr_scan"}, "fusion_lon": 0.0, "lat": 38.907205, "is_disabled": 0, "bike_id": "a36f80e49a21b963340794c884d643f5", "fusion_lat": 0.0, "is_reserved": 0, "lon": -77.02541433333333}, {"type": "electric_scooter", "name": "99870ee3e34b49da72717769aadd968f", "rental_uris": {"ios": "https://dc.lft.to/lastmile_qr_scan", "android": "https://dc.lft.to/lastmile_qr_scan"}, "fusion_lon": 0.0, "lat": 38.8761085, "is_disabled": 0, "bike_id": "99870ee3e34b49da72717769aadd968f", "fusion_lat": 0.0, "is_reserved": 0, "lon": -76.965642}, {"type": "electric_scooter", "name": "f1494d1ee8f86c160fadb3e995d6400c", "rental_uris": {"ios": "https://dc.lft.to/lastmile_qr_scan", "android": "https://dc.lft.to/lastmile_qr_scan"}, "fusion_lon": 0.0, "lat": 38.8917065, "is_disabled": 0, "bike_id": "f1494d1ee8f86c160fadb3e995d6400c", "fusion_lat": 0.0, "is_reserved": 0, "lon": -76.99943866666666}, {"type": "electric_scooter", "name": "9dc98c8e13d8ae39ce48d5210a42552f", "rental_uris": {"ios": "https://dc.lft.to/lastmile_qr_scan", "android": "https://dc.lft.to/lastmile_qr_scan"}, "fusion_lon": 0.0, "lat": 38.901852, "is_disabled": 0, "bike_id": "9dc98c8e13d8ae39ce48d5210a42552f", "fusion_lat": 0.0, "is_reserved": 0, "lon": -76.92898083333333}, {"type": "electric_scooter", "name": "46f860f62cb664a1a30365159504f2fe", "rental_uris": {"ios": "https://dc.lft.to/lastmile_qr_scan", "android": "https://dc.lft.to/lastmile_qr_scan"}, "fusion_lon": 0.0, "lat": 38.902348, "is_disabled": 0, "bike_id": "46f860f62cb664a1a30365159504f2fe", "fusion_lat": 0.0, "is_reserved": 0, "lon": -77.0019675}, {"type": "electric_scooter", "name": "9611be395100e8ea12ac03a6db7e3c58", "rental_uris": {"ios": "https://dc.lft.to/lastmile_qr_scan", "android": "https://dc.lft.to/lastmile_qr_scan"}, "fusion_lon": 0.0, "lat": 38.932058833333336, "is_disabled": 0, "bike_id": "9611be395100e8ea12ac03a6db7e3c58", "fusion_lat": 0.0, "is_reserved": 0, "lon": -77.036539}, {"type": "electric_bike", "name": "79d322753189cf884602cf7b845ddae8", "rental_uris": {"ios": "https://dc.lft.to/lastmile_qr_scan", "android": "https://dc.lft.to/lastmile_qr_scan"}, "fusion_lon": 0.0, "lat": 38.8551145, "is_disabled": 0, "bike_id": "79d322753189cf884602cf7b845ddae8", "fusion_lat": 0.0, "is_reserved": 0, "lon": -77.105368}, {"type": "electric_scooter", "name": "e906224be6c3a5de1e48f8044894c1f9", "rental_uris": {"ios": "https://dc.lft.to/lastmile_qr_scan", "android": "https://dc.lft.to/lastmile_qr_scan"}, "fusion_lon": 0.0, "lat": 38.886346833333334, "is_disabled": 0, "bike_id": "e906224be6c3a5de1e48f8044894c1f9", "fusion_lat": 0.0, "is_reserved": 0, "lon": -76.92581983333334}, {"type": "electric_scooter", "name": "4b244bd49d4a0786ad48d6c7888bc918", "rental_uris": {"ios": "https://dc.lft.to/lastmile_qr_scan", "android": "https://dc.lft.to/lastmile_qr_scan"}, "fusion_lon": 0.0, "lat": 38.92827, "is_disabled": 0, "bike_id": "4b244bd49d4a0786ad48d6c7888bc918", "fusion_lat": 0.0, "is_reserved": 0, "lon": -77.05439033333333}, {"type": "electric_scooter", "name": "ff320e9fcf7561c9208dc67a08022c62", "rental_uris": {"ios": "https://dc.lft.to/lastmile_qr_scan", "android": "https://dc.lft.to/lastmile_qr_scan"}, "fusion_lon": 0.0, "lat": 38.892209, "is_disabled": 0, "bike_id": "ff320e9fcf7561c9208dc67a08022c62", "fusion_lat": 0.0, "is_reserved": 0, "lon": -77.02225883333334}, {"type": "electric_scooter", "name": "ec2521aa96e818ba3194d3de9d5354dd", "rental_uris": {"ios": "https://dc.lft.to/lastmile_qr_scan", "android": "https://dc.lft.to/lastmile_qr_scan"}, "fusion_lon": 0.0, "lat": 38.91693933333333, "is_disabled": 0, "bike_id": "ec2521aa96e818ba3194d3de9d5354dd", "fusion_lat": 0.0, "is_reserved": 0, "lon": -77.03155416666667}, {"type": "electric_scooter", "name": "153f774a4d0eca2a524ac41aa01e0d1f", "rental_uris": {"ios": "https://dc.lft.to/lastmile_qr_scan", "android": "https://dc.lft.to/lastmile_qr_scan"}, "fusion_lon": 0.0, "lat": 38.8922415, "is_disabled": 0, "bike_id": "153f774a4d0eca2a524ac41aa01e0d1f", "fusion_lat": 0.0, "is_reserved": 0, "lon": -77.0480455}, {"type": "electric_scooter", "name": "97f7cdb6ad6bbd3f7b9ea9081dbc40c8", "rental_uris": {"ios": "https://dc.lft.to/lastmile_qr_scan", "android": "https://dc.lft.to/lastmile_qr_scan"}, "fusion_lon": 0.0, "lat": 38.9275875, "is_disabled": 0, "bike_id": "97f7cdb6ad6bbd3f7b9ea9081dbc40c8", "fusion_lat": 0.0, "is_reserved": 0, "lon": -77.0327075}, {"type": "electric_scooter", "name": "a95c72fc6a41904d6f4a50642e8351a9", "rental_uris": {"ios": "https://dc.lft.to/lastmile_qr_scan", "android": "https://dc.lft.to/lastmile_qr_scan"}, "fusion_lon": 0.0, "lat": 38.90559583333334, "is_disabled": 0, "bike_id": "a95c72fc6a41904d6f4a50642e8351a9", "fusion_lat": 0.0, "is_reserved": 0, "lon": -77.005612}, {"type": "electric_scooter", "name": "52e7e7ad9166f480857d5c08c37d65f3", "rental_uris": {"ios": "https://dc.lft.to/lastmile_qr_scan", "android": "https://dc.lft.to/lastmile_qr_scan"}, "fusion_lon": 0.0, "lat": 38.909472, "is_disabled": 0, "bike_id": "52e7e7ad9166f480857d5c08c37d65f3", "fusion_lat": 0.0, "is_reserved": 0, "lon": -77.015229}, {"type": "electric_bike", "name": "abe901137c14061fd41569fa16ddc003", "rental_uris": {"ios": "https://dc.lft.to/lastmile_qr_scan", "android": "https://dc.lft.to/lastmile_qr_scan"},