{"data": {"bikes": [{"name": "af0ff2844a777b4b34658e4a3aa307ad", "is_reserved": 0, "fusion_lon": 0.0, "bike_id": "af0ff2844a777b4b34658e4a3aa307ad", "lat": 38.92039333333334, "is_disabled": 0, "lon": -77.041989, "fusion_lat": 0.0, "rental_uris": {"ios": "https://dc.lft.to/lastmile_qr_scan", "android": "https://dc.lft.to/lastmile_qr_scan"}, "type": "electric_scooter"}, {"name": "377699e2e03516fd386207e9224a76ea", "is_reserved": 0, "fusion_lon": 0.0, "bike_id": "377699e2e03516fd386207e9224a76ea", "lat": 38.87708266666667, "is_disabled": 0, "lon": -77.01788883333333, "fusion_lat": 0.0, "rental_uris": {"ios": "https://dc.lft.to/lastmile_qr_scan", "android": "https://dc.lft.to/lastmile_qr_scan"}, "type": "electric_scooter"}, {"name": "47921ea855667643892ec90d70010e98", "is_reserved": 0, "fusion_lon": 0.0, "bike_id": "47921ea855667643892ec90d70010e98", "lat": 38.923927, "is_disabled": 0, "lon": -77.02082516666667, "fusion_lat": 0.0, "rental_uris": {"ios": "https://dc.lft.to/lastmile_qr_scan", "android": "https://dc.lft.to/lastmile_qr_scan"}, "type": "electric_scooter"}, {"name": "e54f0d37db697d080612e96dee2b2a80", "is_reserved": 0, "fusion_lon": 0.0, "bike_id": "e54f0d37db697d080612e96dee2b2a80", "lat": 38.86561483333333, "is_disabled": 0, "lon": -76.974074, "fusion_lat": 0.0, "rental_uris": {"ios": "https://dc.lft.to/lastmile_qr_scan", "android": "https://dc.lft.to/lastmile_qr_scan"}, "type": "electric_scooter"}, {"name": "d7a8af33cc89a42ef44c54fd9859635c", "is_reserved": 0, "fusion_lon": 0.0, "bike_id": "d7a8af33cc89a42ef44c54fd9859635c", "lat": 38.92362166666667, "is_disabled": 0, "lon": -77.05390266666667, "fusion_lat": 0.0, "rental_uris": {"ios": "https://dc.lft.to/lastmile_qr_scan", "android": "https://dc.lft.to/lastmile_qr_scan"}, "type": "electric_scooter"}, {"name": "917875c2a117c76152f350f6a240b18a", "is_reserved": 0, "fusion_lon": 0.0, "bike_id": "917875c2a117c76152f350f6a240b18a", "lat": 38.9236015, "is_disabled": 0, "lon": -77.035418, "fusion_lat": 0.0, "rental_uris": {"ios": "https://dc.lft.to/lastmile_qr_scan", "android": "https://dc.lft.to/lastmile_qr_scan"}, "type": "electric_scooter"}, {"name": "9f8257d0482afa7848963f8c093be74c", "is_reserved": 0, "fusion_lon": 0.0, "bike_id": "9f8257d0482afa7848963f8c093be74c", "lat": 38.9047345, "is_disabled": 0, "lon": -77.03551766666666, "fusion_lat": 0.0, "rental_uris": {"ios": "https://dc.lft.to/lastmile_qr_scan", "android": "https://dc.lft.to/lastmile_qr_scan"}, "type": "electric_scooter"}, {"name": "52044334a74352041ac05e3ab252f95a", "is_reserved": 0, "fusion_lon": 0.0, "bike_id": "52044334a74352041ac05e3ab252f95a", "lat": 38.87194366666667, "is_disabled": 0, "lon": -77.00610083333333, "fusion_lat": 0.0, "rental_uris": {"ios": "https://dc.lft.to/lastmile_qr_scan", "android": "https://dc.lft.to/lastmile_qr_scan"}, "type": "electric_scooter"}, {"name": "84a6d15bdf8d6d2f533e86c63f93cf3e", "is_reserved": 0, "fusion_lon": 0.0, "bike_id": "84a6d15bdf8d6d2f533e86c63f93cf3e", "lat": 38.89806766666667, "is_disabled": 0, "lon": -77.02448583333333, "fusion_lat": 0.0, "rental_uris": {"ios": "https://dc.lft.to/lastmile_qr_scan", "android": "https://dc.lft.to/lastmile_qr_scan"}, "type": "electric_scooter"}, {"name": "93b751bb0bc071681d5b76b638be4656", "is_reserved": 0, "fusion_lon": 0.0, "bike_id": "93b751bb0bc071681d5b76b638be4656", "lat": 38.908249, "is_disabled": 0, "lon": -77.03942716666667, "fusion_lat": 0.0, "rental_uris": {"ios": "https://dc.lft.to/lastmile_qr_scan", "android": "https://dc.lft.to/lastmile_qr_scan"}, "type": "electric_scooter"}, {"name": "233b79459b2ab80527aff416c2f7a8f0", "is_reserved": 0, "fusion_lon": 0.0, "bike_id": "233b79459b2ab80527aff416c2f7a8f0", "lat": 38.920543, "is_disabled": 0, "lon": -77.04188716666667, "fusion_lat": 0.0, "rental_uris": {"ios": "https://dc.lft.to/lastmile_qr_scan", "android": "https://dc.lft.to/lastmile_qr_scan"}, "type": "electric_scooter"}, {"name": "1d6fa63e663ad90eac8ffac39d37f57b", "is_reserved": 0, "fusion_lon": 0.0, "bike_id": "1d6fa63e663ad90eac8ffac39d37f57b", "lat": 38.902427333333335, "is_disabled": 0, "lon": -77.04363933333333, "fusion_lat": 0.0, "rental_uris": {"ios": "https://dc.lft.to/lastmile_qr_scan", "android": "https://dc.lft.to/lastmile_qr_scan"}, "type": "electric_scooter"}, {"name": "b7848a08df5bba38d45825332c8c8ac8", "is_reserved": 0, "fusion_lon": 0.0, "bike_id": "b7848a08df5bba38d45825332c8c8ac8", "lat": 38.92021883333334, "is_disabled": 0, "lon": -77.03974816666667, "fusion_lat": 0.0, "rental_uris": {"ios": "https://dc.lft.to/lastmile_qr_scan", "android": "https://dc.lft.to/lastmile_qr_scan"}, "type": "electric_scooter"}, {"name": "75b187b53f9de97aa2c357606749de76", "is_reserved": 0, "fusion_lon": 0.0, "bike_id": "75b187b53f9de97aa2c357606749de76", "lat": 38.89621966666667, "is_disabled": 0, "lon": -76.90752066666667, "fusion_lat": 0.0, "rental_uris": {"ios": "https://dc.lft.to/lastmile_qr_scan", "android": "https://dc.lft.to/lastmile_qr_scan"}, "type": "electric_bike"}, {"name": "9d820f08b8c421d796965ca147e0e12a", "is_reserved": 0, "fusion_lon": 0.0, "bike_id": "9d820f08b8c421d796965ca147e0e12a", "lat": 38.9215265, "is_disabled": 0, "lon": -77.03376783333333, "fusion_lat": 0.0, "rental_uris": {"ios": "https://dc.lft.to/lastmile_qr_scan", "android": "https://dc.lft.to/lastmile_qr_scan"}, "type": "electric_scooter"}, {"name": "7ca41ff662b600f56d6d18ab2b58dd0c", "is_reserved": 0, "fusion_lon": 0.0, "bike_id": "7ca41ff662b600f56d6d18ab2b58dd0c", "lat": 38.897511333333334, "is_disabled": 0, "lon": -77.0267065, "fusion_lat": 0.0, "rental_uris": {"ios": "https://dc.lft.to/lastmile_qr_scan", "android": "https://dc.lft.to/lastmile_qr_scan"}, "type": "electric_scooter"}, {"name": "2728688e068c2c6f1bbc2dd28a082d13", "is_reserved": 0, "fusion_lon": 0.0, "bike_id": "2728688e068c2c6f1bbc2dd28a082d13", "lat": 38.913526833333336, "is_disabled": 0, "lon": -76.97137666666667, "fusion_lat": 0.0, "rental_uris": {"ios": "https://dc.lft.to/lastmile_qr_scan", "android": "https://dc.lft.to/lastmile_qr_scan"}, "type": "electric_scooter"}, {"name": "d0f6dce8a6683af0076de89f4b8fbb11", "is_reserved": 0, "fusion_lon": 0.0, "bike_id": "d0f6dce8a6683af0076de89f4b8fbb11", "lat": 38.9003285, "is_disabled": 0, "lon": -76.9885755, "fusion_lat": 0.0, "rental_uris": {"ios": "https://dc.lft.to/lastmile_qr_scan", "android": "https://dc.lft.to/lastmile_qr_scan"}, "type": "electric_scooter"}, {"name": "3ba7f6a70b2749dda6bc60b0da46c697", "is_reserved": 0, "fusion_lon": 0.0, "bike_id": "3ba7f6a70b2749dda6bc60b0da46c697", "lat": 38.923921, "is_disabled": 0, "lon": -77.02123533333334, "fusion_lat": 0.0, "rental_uris": {"ios": "https://dc.lft.to/lastmile_qr_scan", "android": "https://dc.lft.to/lastmile_qr_scan"}, "type": "electric_scooter"}, {"name": "1dcf3512221a0c1afe0dd1bbaa1c9895", "is_reserved": 0, "fusion_lon": 0.0, "bike_id": "1dcf3512221a0c1afe0dd1bbaa1c9895", "lat": 38.9244915, "is_disabled": 0, "lon": -77.02153466666667, "fusion_lat": 0.0, "rental_uris": {"ios": "https://dc.lft.to/lastmile_qr_scan", "android": "https://dc.lft.to/lastmile_qr_scan"}, "type": "electric_scooter"}, {"name": "c69965396004c92ce6979ce9ebdb56da", "is_reserved": 0, "fusion_lon": 0.0, "bike_id": "c69965396004c92ce6979ce9ebdb56da", "lat": 38.863265, "is_disabled": 0, "lon": -76.99117766666667, "fusion_lat": 0.0, "rental_uris": {"ios": "https://dc.lft.to/lastmile_qr_scan", "android": "https://dc.lft.to/lastmile_qr_scan"}, "type": "electric_scooter"}, {"name": "323ced45934c7badc44598f8b5cb9c3d", "is_reserved": 0, "fusion_lon": 0.0, "bike_id": "323ced45934c7badc44598f8b5cb9c3d", "lat": 38.90240416666666, "is_disabled": 0, "lon": -77.03339883333334, "fusion_lat": 0.0, "rental_uris": {"ios": "https://dc.lft.to/lastmile_qr_scan", "android": "https://dc.lft.to/lastmile_qr_scan"}, "type": "electric_scooter"}, {"name": "fe3deddf41271e938a613132bdd1ec17", "is_reserved": 0, "fusion_lon": 0.0, "bike_id": "fe3deddf41271e938a613132bdd1ec17", "lat": 38.923795166666665, "is_disabled": 0, "lon": -77.03029416666666, "fusion_lat": 0.0, "rental_uris": {"ios": "https://dc.lft.to/lastmile_qr_scan", "android": "https://dc.lft.to/lastmile_qr_scan"}, "type": "electric_scooter"}, {"name": "6c7f3037b3917cc142aca3c7abce1af1", "is_reserved": 0, "fusion_lon": 0.0, "bike_id": "6c7f3037b3917cc142aca3c7abce1af1", "lat": 38.9419555, "is_disabled": 0, "lon": -77.013282, "fusion_lat": 0.0, "rental_uris": {"ios": "https://dc.lft.to/lastmile_qr_scan", "android": "https://dc.lft.to/lastmile_qr_scan"}, "type": "electric_scooter"}, {"name": "2893b6acb41140fff174de73c0a42f6d", "is_reserved": 0, "fusion_lon": 0.0, "bike_id": "2893b6acb41140fff174de73c0a42f6d", "lat": 38.88382266666667, "is_disabled": 0, "lon": -77.03174383333334, "fusion_lat": 0.0, "rental_uris": {"ios": "https://dc.lft.to/lastmile_qr_scan", "android": "https://dc.lft.to/lastmile_qr_scan"}, "type": "electric_scooter"}, {"name": "94bbc7592e0e66d66f4ebb744bf1d7a9", "is_reserved": 0, "fusion_lon": 0.0, "bike_id": "94bbc7592e0e66d66f4ebb744bf1d7a9", "lat": 38.9178365, "is_disabled": 0, "lon": -77.02493933333334, "fusion_lat": 0.0, "rental_uris": {"ios": "https://dc.lft.to/lastmile_qr_scan", "android": "https://dc.lft.to/lastmile_qr_scan"}, "type": "electric_scooter"}, {"name": "de20829ec738296048a2d1f6ef3d8e53", "is_reserved": 0, "fusion_lon": 0.0, "bike_id": "de20829ec738296048a2d1f6ef3d8e53", "lat": 38.90107183333333, "is_disabled": 0, "lon": -76.998466, "fusion_lat": 0.0, "rental_uris": {"ios": "https://dc.lft.to/lastmile_qr_scan", "android": "https://dc.lft.to/lastmile_qr_scan"}, "type": "electric_scooter"}, {"name": "2027bc12a3a508507b4aad422a3dc8ca", "is_reserved": 0, "fusion_lon": 0.0, "bike_id": "2027bc12a3a508507b4aad422a3dc8ca", "lat": 38.886125666666665, "is_disabled": 0, "lon": -76.926318, "fusion_lat": 0.0, "rental_uris": {"ios": "https://dc.lft.to/lastmile_qr_scan", "android": "https://dc.lft.to/lastmile_qr_scan"}, "type": "electric_scooter"}, {"name": "998dc76b21f19155dfc5dc89d4298e86", "is_reserved": 0, "fusion_lon": 0.0, "bike_id": "998dc76b21f19155dfc5dc89d4298e86", "lat": 38.91760333333333, "is_disabled": 0, "lon": -77.02389116666667, "fusion_lat": 0.0, "rental_uris": {"ios": "https://dc.lft.to/lastmile_qr_scan", "android": "https://dc.lft.to/lastmile_qr_scan"}, "type": "electric_scooter"}, {"name": "4c648ae9d3c5a34fb0d40679a32aa5de", "is_reserved": 0, "fusion_lon": 0.0, "bike_id": "4c648ae9d3c5a34fb0d40679a32aa5de", "lat": 38.8918725, "is_disabled": 0, "lon": -77.03668966666666, "fusion_lat": 0.0, "rental_uris": {"ios": "https://dc.lft.to/lastmile_qr_scan", "android": "https://dc.lft.to/lastmile_qr_scan"}, "type": "electric_bike"}, {"name": "4a287f4c71a79273314049cd96ec9849", "is_reserved": 0, "fusion_lon": 0.0, "bike_id": "4a287f4c71a79273314049cd96ec9849", "lat": 38.902765333333335, "is_disabled": 0, "lon": -77.03242183333333, "fusion_lat": 0.0, "rental_uris": {"ios": "https://dc.lft.to/lastmile_qr_scan", "android": "https://dc.lft.to/lastmile_qr_scan"}, "type": "electric_scooter"}, {"name": "2de7780f6c66c576e388b2984a6ee1e1", "is_reserved": 0, "fusion_lon": 0.0, "bike_id": "2de7780f6c66c576e388b2984a6ee1e1", "lat": 39.039079666666666, "is_disabled": 0, "lon": -77.05017433333333, "fusion_lat": 0.0, "rental_uris": {"ios": "https://dc.lft.to/lastmile_qr_scan", "android": "https://dc.lft.to/lastmile_qr_scan"}, "type": "electric_bike"}, {"name": "17f00d7af21f5c28c96cb17892f10c74", "is_reserved": 0, "fusion_lon": 0.0, "bike_id": "17f00d7af21f5c28c96cb17892f10c74", "lat": 38.913984666666664, "is_disabled": 0, "lon": -77.00978583333334, "fusion_lat": 0.0, "rental_uris": {"ios": "https://dc.lft.to/lastmile_qr_scan", "android": "https://dc.lft.to/lastmile_qr_scan"}, "type": "electric_scooter"}, {"name": "3fd89b751156aa69e8d036e0265a40e2", "is_reserved": 0, "fusion_lon": 0.0, "bike_id": "3fd89b751156aa69e8d036e0265a40e2", "lat": 38.9270405, "is_disabled": 0, "lon": -77.060029, "fusion_lat": 0.0, "rental_uris": {"ios": "https://dc.lft.to/lastmile_qr_scan", "android": "https://dc.lft.to/lastmile_qr_scan"}, "type": "electric_scooter"}, {"name": "e57aecabb7a763da4d2b83a6c3bb07b7", "is_reserved": 0, "fusion_lon": 0.0, "bike_id": "e57aecabb7a763da4d2b83a6c3bb07b7", "lat": 38.947776166666664, "is_disabled": 0, "lon": -76.9949025, "fusion_lat": 0.0, "rental_uris": {"ios": "https://dc.lft.to/lastmile_qr_scan", "android": "https://dc.lft.to/lastmile_qr_scan"}, "type": "electric_scooter"}, {"name": "52b655044da14ca6dec3b5c2c34cd91d", "is_reserved": 0, "fusion_lon": 0.0, "bike_id": "52b655044da14ca6dec3b5c2c34cd91d", "lat": 38.92485033333333, "is_disabled": 0, "lon": -77.02977833333334, "fusion_lat": 0.0, "rental_uris": {"ios": "https://dc.lft.to/lastmile_qr_scan", "android": "https://dc.lft.to/lastmile_qr_scan"}, "type": "electric_scooter"}, {"name": "11d18f6448ef7ec094a33b6538c11ce2", "is_reserved": 0, "fusion_lon": 0.0, "bike_id": "11d18f6448ef7ec094a33b6538c11ce2", "lat": 38.900708, "is_disabled": 0, "lon": -77.02711366666666, "fusion_lat": 0.0, "rental_uris": {"ios": "https://dc.lft.to/lastmile_qr_scan", "android": "https://dc.lft.to/lastmile_qr_scan"}, "type": "electric_scooter"}, {"name": "803514ac5d996ea7ba705ba6bec9cb4a", "is_reserved": 0, "fusion_lon": 0.0, "bike_id": "803514ac5d996ea7ba705ba6bec9cb4a", "lat": 38.90724733333333, "is_disabled": 0, "lon": -77.017098, "fusion_lat": 0.0, "rental_uris": {"ios": "https://dc.lft.to/lastmile_qr_scan", "android": "https://dc.lft.to/lastmile_qr_scan"}, "type": "electric_scooter"}, {"name": "6af70455805a103150863842bf2d352d", "is_reserved": 0, "fusion_lon": 0.0, "bike_id": "6af70455805a103150863842bf2d352d", "lat": 38.894235, "is_disabled": 0, "lon": -77.04462516666666, "fusion_lat": 0.0, "rental_uris": {"ios": "https://dc.lft.to/lastmile_qr_scan", "android": "https://dc.lft.to/lastmile_qr_scan"}, "type": "electric_scooter"}, {"name": "c520740a9be399b41ee3ebadce884061", "is_reserved": 0, "fusion_lon": 0.0, "bike_id": "c520740a9be399b41ee3ebadce884061", "lat": 38.941958666666665, "is_disabled": 0, "lon": -77.02846033333333, "fusion_lat": 0.0, "rental_uris": {"ios": "https://dc.lft.to/lastmile_qr_scan", "android": "https://dc.lft.to/lastmile_qr_scan"}, "type": "electric_scooter"}, {"name": "ab980ef4910c1842c99f8bd0bd5903d0", "is_reserved": 0, "fusion_lon": 0.0, "bike_id": "ab980ef4910c1842c99f8bd0bd5903d0", "lat": 38.896118, "is_disabled": 0, "lon": -77.04445216666667, "fusion_lat": 0.0, "rental_uris": {"ios": "https://dc.lft.to/lastmile_qr_scan", "android": "https://dc.lft.to/lastmile_qr_scan"}, "type": "electric_scooter"}, {"name": "f7334bbcf89ddb79664e515d4bb775b1", "is_reserved": 0, "fusion_lon": 0.0, "bike_id": "f7334bbcf89ddb79664e515d4bb775b1", "lat": 38.90493016666667, "is_disabled": 0, "lon": -77.03002416666666, "fusion_lat": 0.0, "rental_uris": {"ios": "https://dc.lft.to/lastmile_qr_scan", "android": "https://dc.lft.to/lastmile_qr_scan"}, "type": "electric_scooter"}, {"name": "aa7cff15c68e833f3afb52426d128a2b", "is_reserved": 0, "fusion_lon": 0.0, "bike_id": "aa7cff15c68e833f3afb52426d128a2b", "lat": 38.881444333333334, "is_disabled": 0, "lon": -77.01651683333333, "fusion_lat": 0.0, "rental_uris": {"ios": "https://dc.lft.to/lastmile_qr_scan", "android": "https://dc.lft.to/lastmile_qr_scan"}, "type": "electric_scooter"}, {"name": "5e6a12c5f2380b45234ba6564ab566e5", "is_reserved": 0, "fusion_lon": 0.0, "bike_id": "5e6a12c5f2380b45234ba6564ab566e5", "lat": 38.920550166666665, "is_disabled": 0, "lon": -77.04260933333333, "fusion_lat": 0.0, "rental_uris": {"ios": "https://dc.lft.to/lastmile_qr_scan", "android": "https://dc.lft.to/lastmile_qr_scan"}, "type": "electric_scooter"}, {"name": "3892fa0eb4508146a2bc9fbc5d5cc7a1", "is_reserved": 0, "fusion_lon": 0.0, "bike_id": "3892fa0eb4508146a2bc9fbc5d5cc7a1", "lat": 38.92462966666667, "is_disabled": 0, "lon": -77.05230433333334, "fusion_lat": 0.0, "rental_uris": {"ios": "https://dc.lft.to/lastmile_qr_scan", "android": "https://dc.lft.to/lastmile_qr_scan"}, "type": "electric_scooter"}, {"name": "e52ffcc592a73f2aae130a7fc9569445", "is_reserved": 0, "fusion_lon": 0.0, "bike_id": "e52ffcc592a73f2aae130a7fc9569445", "lat": 38.928042, "is_disabled": 0, "lon": -77.03149783333333, "fusion_lat": 0.0, "rental_uris": {"ios": "https://dc.lft.to/lastmile_qr_scan", "android": "https://dc.lft.to/lastmile_qr_scan"}, "type": "electric_scooter"}, {"name": "eef033a643db8cae6305fdf9b8c5a3ca", "is_reserved": 0, "fusion_lon": 0.0, "bike_id": "eef033a643db8cae6305fdf9b8c5a3ca", "lat": 38.891824166666666, "is_disabled": 0, "lon": -77.0028735, "fusion_lat": 0.0, "rental_uris": {"ios": "https://dc.lft.to/lastmile_qr_scan", "android": "https://dc.lft.to/lastmile_qr_scan"}, "type": "electric_scooter"}, {"name": "010a9be3e173cb1b6341c56664a55385", "is_reserved": 0, "fusion_lon": 0.0, "bike_id": "010a9be3e173cb1b6341c56664a55385", "lat": 38.89863016666666, "is_disabled": 0, "lon": -77.02775716666666, "fusion_lat": 0.0, "rental_uris": {"ios": "https://dc.lft.to/lastmile_qr_scan", "android": "https://dc.lft.to/lastmile_qr_scan"}, "type": "electric_scooter"}, {"name": "30ccd37aca0c3c4148b7f044c008fc9f", "is_reserved": 0, "fusion_lon": 0.0, "bike_id": "30ccd37aca0c3c4148b7f044c008fc9f", "lat": 38.90414283333333, "is_disabled": 0, "lon": -77.026448, "fusion_lat": 0.0, "rental_uris": {"ios": "https://dc.lft.to/lastmile_qr_scan", "android": "https://dc.lft.to/lastmile_qr_scan"}, "type": "electric_scooter"}, {"name": "b55469e7464051729127f0cb4b9861f0", "is_reserved": 0, "fusion_lon": 0.0, "bike_id": "b55469e7464051729127f0cb4b9861f0", "lat": 38.9232325, "is_disabled": 0, "lon": -77.03664716666667, "fusion_lat": 0.0, "rental_uris": {"ios": "https://dc.lft.to/lastmile_qr_scan", "android": "https://dc.lft.to/lastmile_qr_scan"}, "type": "electric_scooter"}, {"name": "82b8c768b5fbcf2fc82c51492316b71e", "is_reserved": 0, "fusion_lon": 0.0, "bike_id": "82b8c768b5fbcf2fc82c51492316b71e", "lat": 38.893246, "is_disabled": 0, "lon": -77.03157516666667, "fusion_lat": 0.0, "rental_uris": {"ios": "https://dc.lft.to/lastmile_qr_scan", "android": "https://dc.lft.to/lastmile_qr_scan"}, "type": "electric_scooter"}, {"name": "bbc28b3ea697218a24ba5f0c15cc087a", "is_reserved": 0, "fusion_lon": 0.0, "bike_id": "bbc28b3ea697218a24ba5f0c15cc087a", "lat": 38.895548, "is_disabled": 0, "lon": -77.04670116666667, "fusion_lat": 0.0, "rental_uris": {"ios": "https://dc.lft.to/lastmile_qr_scan", "android": "https://dc.lft.to/lastmile_qr_scan"}, "type": "electric_scooter"}, {"name": "6d120cb28206098b81fcc5b3fa341aa5", "is_reserved": 0, "fusion_lon": 0.0, "bike_id": "6d120cb28206098b81fcc5b3fa341aa5", "lat": 38.905305166666665, "is_disabled": 0, "lon": -77.06427883333333, "fusion_lat": 0.0, "rental_uris": {"ios": "https://dc.lft.to/lastmile_qr_scan", "android": "https://dc.lft.to/lastmile_qr_scan"}, "type": "electric_scooter"}, {"name": "2724ccd88d88a5f40ae580705053ec34", "is_reserved": 0, "fusion_lon": 0.0, "bike_id": "2724ccd88d88a5f40ae580705053ec34", "lat": 38.902605666666666, "is_disabled": 0, "lon": -77.04592133333334, "fusion_lat": 0.0, "rental_uris": {"ios": "https://dc.lft.to/lastmile_qr_scan", "android": "https://dc.lft.to/lastmile_qr_scan"}, "type": "electric_scooter"}, {"name": "6539151db84e8d82463928daca5a5aef", "is_reserved": 0, "fusion_lon": 0.0, "bike_id": "6539151db84e8d82463928daca5a5aef", "lat": 38.918161166666664, "is_disabled": 0, "lon": -77.03694216666666, "fusion_lat": 0.0, "rental_uris": {"ios": "https://dc.lft.to/lastmile_qr_scan", "android": "https://dc.lft.to/lastmile_qr_scan"}, "type": "electric_scooter"}, {"name": "6abe99311b4db86471ad1f4df41c222b", "is_reserved": 0, "fusion_lon": 0.0, "bike_id": "6abe99311b4db86471ad1f4df41c222b", "lat": 38.89352516666667, "is_disabled": 0, "lon": -77.02820166666666, "fusion_lat": 0.0, "rental_uris": {"ios": "https://dc.lft.to/lastmile_qr_scan", "android": "https://dc.lft.to/lastmile_qr_scan"}, "type": "electric_scooter"}, {"name": "2fc095164c671cf540b0cea995570a32", "is_reserved": 0, "fusion_lon": 0.0, "bike_id": "2fc095164c671cf540b0cea995570a32", "lat": 38.92408183333333, "is_disabled": 0, "lon": -77.0212885, "fusion_lat": 0.0, "rental_uris": {"ios": "https://dc.lft.to/lastmile_qr_scan", "android": "https://dc.lft.to/lastmile_qr_scan"}, "type": "electric_scooter"}, {"name": "800ae60c846167245b152a3e7c99936c", "is_reserved": 0, "fusion_lon": 0.0, "bike_id": "800ae60c846167245b152a3e7c99936c", "lat": 38.89460716666667, "is_disabled": 0, "lon": -77.046593, "fusion_lat": 0.0, "rental_uris": {"ios": "https://dc.lft.to/lastmile_qr_scan", "android": "https://dc.lft.to/lastmile_qr_scan"}, "type": "electric_scooter"}, {"name": "05eaec3818b7be89cc6c1901507d8975", "is_reserved": 0, "fusion_lon": 0.0, "bike_id": "05eaec3818b7be89cc6c1901507d8975", "lat": 38.91468483333333, "is_disabled": 0, "lon": -76.98110616666666, "fusion_lat": 0.0, "rental_uris": {"ios": "https://dc.lft.to/lastmile_qr_scan", "android": "https://dc.lft.to/lastmile_qr_scan"}, "type": "electric_scooter"}, {"name": "0f1c75e04a52ba8c2b369b434be15e14", "is_reserved": 0, "fusion_lon": 0.0, "bike_id": "0f1c75e04a52ba8c2b369b434be15e14", "lat": 38.893688833333336, "is_disabled": 0, "lon": -77.0395435, "fusion_lat": 0.0, "rental_uris": {"ios": "https://dc.lft.to/lastmile_qr_scan", "android": "https://dc.lft.to/lastmile_qr_scan"}, "type": "electric_scooter"}, {"name": "c82b1df36886fb56f1bcaa8dc8d987f4", "is_reserved": 0, "fusion_lon": 0.0, "bike_id": "c82b1df36886fb56f1bcaa8dc8d987f4", "lat": 38.89356183333334, "is_disabled": 0, "lon": -77.0154935, "fusion_lat": 0.0, "rental_uris": {"ios": "https://dc.lft.to/lastmile_qr_scan", "android": "https://dc.lft.to/lastmile_qr_scan"}, "type": "electric_scooter"}, {"name": "6233663361532dfdd13bb73c196165b8", "is_reserved": 0, "fusion_lon": 0.0, "bike_id": "6233663361532dfdd13bb73c196165b8", "lat": 38.8863875, "is_disabled": 0, "lon": -76.98209166666666, "fusion_lat": 0.0, "rental_uris": {"ios": "https://dc.lft.to/lastmile_qr_scan", "android": "https://dc.lft.to/lastmile_qr_scan"}, "type": "electric_scooter"}, {"name": "2394e31112311cb642e78387017f9d4e", "is_reserved": 0, "fusion_lon": 0.0, "bike_id": "2394e31112311cb642e78387017f9d4e", "lat": 38.910017, "is_disabled": 0, "lon": -76.99392083333333, "fusion_lat": 0.0, "rental_uris": {"ios": "https://dc.lft.to/lastmile_qr_scan", "android": "https://dc.lft.to/lastmile_qr_scan"}, "type": "electric_scooter"}, {"name": "5f036202a4c3c12546c0c59009251a99", "is_reserved": 0, "fusion_lon": 0.0, "bike_id": "5f036202a4c3c12546c0c59009251a99", "lat": 38.90243816666667, "is_disabled": 0, "lon": -77.03952866666667, "fusion_lat": 0.0, "rental_uris": {"ios": "https://dc.lft.to/lastmile_qr_scan", "android": "https://dc.lft.to/lastmile_qr_scan"}, "type": "electric_scooter"}, {"name": "f6ce284ca801348eec0ca2a856048dcf", "is_reserved": 0, "fusion_lon": 0.0, "bike_id": "f6ce284ca801348eec0ca2a856048dcf", "lat": 38.890966166666665, "is_disabled": 0, "lon": -76.98829166666667, "fusion_lat": 0.0, "rental_uris": {"ios": "https://dc.lft.to/lastmile_qr_scan", "android": "https://dc.lft.to/lastmile_qr_scan"}, "type": "electric_scooter"}, {"name": "2aba104089ea54b48a2a5ef235e61025", "is_reserved": 0, "fusion_lon": 0.0, "bike_id": "2aba104089ea54b48a2a5ef235e61025", "lat": 38.924120333333335, "is_disabled": 0, "lon": -77.021299, "fusion_lat": 0.0, "rental_uris": {"ios": "https://dc.lft.to/lastmile_qr_scan", "android": "https://dc.lft.to/lastmile_qr_scan"}, "type": "electric_scooter"}, {"name": "8b59a22bdda19caf113e42ce01f6a125", "is_reserved": 0, "fusion_lon": 0.0, "bike_id": "8b59a22bdda19caf113e42ce01f6a125", "lat": 38.846737166666664, "is_disabled": 0, "lon": -77.139321, "fusion_lat": 0.0, "rental_uris": {"ios": "https://dc.lft.to/lastmile_qr_scan", "android": "https://dc.lft.to/lastmile_qr_scan"}, "type": "electric_bike"}, {"name": "936441499165539742b3e2f9396eedeb", "is_reserved": 0, "fusion_lon": 0.0, "bike_id": "936441499165539742b3e2f9396eedeb", "lat": 38.92219816666667, "is_disabled": 0, "lon": -77.028243, "fusion_lat": 0.0, "rental_uris": {"ios": "https://dc.lft.to/lastmile_qr_scan", "android": "https://dc.lft.to/lastmile_qr_scan"}, "type": "electric_scooter"}, {"name": "7df212c38c54167347d40d46abd14d6d", "is_reserved": 0, "fusion_lon": 0.0, "bike_id": "7df212c38c54167347d40d46abd14d6d", "lat": 38.92171316666666, "is_disabled": 0, "lon": -77.01913783333333, "fusion_lat": 0.0, "rental_uris": {"ios": "https://dc.lft.to/lastmile_qr_scan", "android": "https://dc.lft.to/lastmile_qr_scan"}, "type": "electric_scooter"}, {"name": "ab35a105a71da9f8ac6dc57317c080ad", "is_reserved": 0, "fusion_lon": 0.0, "bike_id": "ab35a105a71da9f8ac6dc57317c080ad", "lat": 38.897386833333336, "is_disabled": 0, "lon": -77.007758, "fusion_lat": 0.0, "rental_uris": {"ios": "https://dc.lft.to/lastmile_qr_scan", "android": "https://dc.lft.to/lastmile_qr_scan"}, "type": "electric_scooter"}, {"name": "9cc732e4b9213b3ee505fa30d3fb4442", "is_reserved": 0, "fusion_lon": 0.0, "bike_id": "9cc732e4b9213b3ee505fa30d3fb4442", "lat": 38.932671166666665, "is_disabled": 0, "lon": -77.0308465, "fusion_lat": 0.0, "rental_uris": {"ios": "https://dc.lft.to/lastmile_qr_scan", "android": "https://dc.lft.to/lastmile_qr_scan"}, "type": "electric_scooter"}, {"name": "c3bbc9b46f89da33b06fcee8d156dcff", "is_reserved": 0, "fusion_lon": 0.0, "bike_id": "c3bbc9b46f89da33b06fcee8d156dcff", "lat": 38.90000333333333, "is_disabled": 0, "lon": -77.0122, "fusion_lat": 0.0, "rental_uris": {"ios": "https://dc.lft.to/lastmile_qr_scan", "android": "https://dc.lft.to/lastmile_qr_scan"}, "type": "electric_scooter"}, {"name": "6d28a91d3133dbcf1978bec522a0c041", "is_reserved": 0, "fusion_lon": 0.0, "bike_id": "6d28a91d3133dbcf1978bec522a0c041", "lat": 38.9427035, "is_disabled": 0, "lon": -77.02938566666667, "fusion_lat": 0.0, "rental_uris": {"ios": "https://dc.lft.to/lastmile_qr_scan", "android": "https://dc.lft.to/lastmile_qr_scan"}, "type": "electric_scooter"}, {"name": "6e49afc2357ab7e9f798bb93fa15165f", "is_reserved": 0, "fusion_lon": 0.0, "bike_id": "6e49afc2357ab7e9f798bb93fa15165f", "lat": 38.9173475, "is_disabled": 0, "lon": -77.021129, "fusion_lat": 0.0, "rental_uris": {"ios": "https://dc.lft.to/lastmile_qr_scan", "android": "https://dc.lft.to/lastmile_qr_scan"}, "type": "electric_scooter"}, {"name": "4b37f388c76946c0ca6c426d8ff5fc04", "is_reserved": 0, "fusion_lon": 0.0, "bike_id": "4b37f388c76946c0ca6c426d8ff5fc04", "lat": 38.9573765, "is_disabled": 0, "lon": -77.0216085, "fusion_lat": 0.0, "rental_uris": {"ios": "https://dc.lft.to/lastmile_qr_scan", "android": "https://dc.lft.to/lastmile_qr_scan"}, "type": "electric_bike"}, {"name": "65aa9ac6e3327c6896faba84cd783693", "is_reserved": 0, "fusion_lon": 0.0, "bike_id": "65aa9ac6e3327c6896faba84cd783693", "lat": 38.909790666666666, "is_disabled": 0, "lon": -77.033484, "fusion_lat": 0.0, "rental_uris": {"ios": "https://dc.lft.to/lastmile_qr_scan", "android": "https://dc.lft.to/lastmile_qr_scan"}, "type": "electric_scooter"}, {"name": "4317577855a6737e2a580c0f2a697190", "is_reserved": 0, "fusion_lon": 0.0, "bike_id": "4317577855a6737e2a580c0f2a697190", "lat": 38.917587833333336, "is_disabled": 0, "lon": -77.0239355, "fusion_lat": 0.0, "rental_uris": {"ios": "https://dc.lft.to/lastmile_qr_scan", "android": "https://dc.lft.to/lastmile_qr_scan"}, "type": "electric_scooter"}, {"name": "8451a16e61898b3060b82dec062cbe65", "is_reserved": 0, "fusion_lon": 0.0, "bike_id": "8451a16e61898b3060b82dec062cbe65", "lat": 38.9010015, "is_disabled": 0, "lon": -77.034891, "fusion_lat": 0.0, "rental_uris": {"ios": "https://dc.lft.to/lastmile_qr_scan", "android": "https://dc.lft.to/lastmile_qr_scan"}, "type": "electric_scooter"}, {"name": "423dbdafd39f7682048b4b0be96bf011", "is_reserved": 0, "fusion_lon": 0.0, "bike_id": "423dbdafd39f7682048b4b0be96bf011", "lat": 38.876335, "is_disabled": 0, "lon": -76.99393433333333, "fusion_lat": 0.0, "rental_uris": {"ios": "https://dc.lft.to/lastmile_qr_scan", "android": "https://dc.lft.to/lastmile_qr_scan"}, "type": "electric_scooter"}, {"name": "d677f8ac65ccfc33c6897572c5a37957", "is_reserved": 0, "fusion_lon": 0.0, "bike_id": "d677f8ac65ccfc33c6897572c5a37957", "lat": 38.807368833333335, "is_disabled": 0, "lon": -77.0968665, "fusion_lat": 0.0, "rental_uris": {"ios": "https://dc.lft.to/lastmile_qr_scan", "android": "https://dc.lft.to/lastmile_qr_scan"}, "type": "electric_bike"}, {"name": "d40d4862d7ca3faa21553e2fb6948a5f", "is_reserved": 0, "fusion_lon": 0.0, "bike_id": "d40d4862d7ca3faa21553e2fb6948a5f", "lat": 38.883585333333336, "is_disabled": 0, "lon": -76.941524, "fusion_lat": 0.0, "rental_uris": {"ios": "https://dc.lft.to/lastmile_qr_scan", "android": "https://dc.lft.to/lastmile_qr_scan"}, "type": "electric_scooter"}, {"name": "14ae5f5afb5fff523d5448da6cf88997", "is_reserved": 0, "fusion_lon": 0.0, "bike_id": "14ae5f5afb5fff523d5448da6cf88997", "lat": 38.93732266666667, "is_disabled": 0, "lon": -77.03281416666667, "fusion_lat": 0.0, "rental_uris": {"ios": "https://dc.lft.to/lastmile_qr_scan", "android": "https://dc.lft.to/lastmile_qr_scan"}, "type": "electric_scooter"}, {"name": "0ca87bf642c2fe84687688487b8402ca", "is_reserved": 0, "fusion_lon": 0.0, "bike_id": "0ca87bf642c2fe84687688487b8402ca", "lat": 38.915313, "is_disabled": 0, "lon": -77.21398316666667, "fusion_lat": 0.0, "rental_uris": {"ios": "https://dc.lft.to/lastmile_qr_scan", "android": "https://dc.lft.to/lastmile_qr_scan"}, "type": "electric_bike"}, {"name": "f1f11a2f04053267d01852415597ac7f", "is_reserved": 0, "fusion_lon": 0.0, "bike_id": "f1f11a2f04053267d01852415597ac7f", "lat": 38.898274, "is_disabled": 0, "lon": -77.03934383333333, "fusion_lat": 0.0, "rental_uris": {"ios": "https://dc.lft.to/lastmile_qr_scan", "android": "https://dc.lft.to/lastmile_qr_scan"}, "type": "electric_scooter"}, {"name": "fdff62414b10c14ede1d0e4521fc1629", "is_reserved": 0, "fusion_lon": 0.0, "bike_id": "fdff62414b10c14ede1d0e4521fc1629", "lat": 38.87173283333333, "is_disabled": 0, "lon": -77.2339175, "fusion_lat": 0.0, "rental_uris": {"ios": "https://dc.lft.to/lastmile_qr_scan", "android": "https://dc.lft.to/lastmile_qr_scan"}, "type": "electric_bike"}, {"name": "96b8c217e874dc353eb807d41f25ddab", "is_reserved": 0, "fusion_lon": 0.0, "bike_id": "96b8c217e874dc353eb807d41f25ddab", "lat": 38.9021225, "is_disabled": 0, "lon": -77.02307833333333, "fusion_lat": 0.0, "rental_uris": {"ios": "https://dc.lft.to/lastmile_qr_scan", "android": "https://dc.lft.to/lastmile_qr_scan"}, "type": "electric_scooter"}, {"name": "87ad59086c51fffaeefd9c588206c20d", "is_reserved": 0, "fusion_lon": 0.0, "bike_id": "87ad59086c51fffaeefd9c588206c20d", "lat": 38.978102166666666, "is_disabled": 0, "lon": -77.09401933333334, "fusion_lat": 0.0, "rental_uris": {"ios": "https://dc.lft.to/lastmile_qr_scan", "android": "https://dc.lft.to/lastmile_qr_scan"}, "type": "electric_bike"}, {"name": "7a0d7627d0ff145bf3e7e7ce9c1a2967", "is_reserved": 0, "fusion_lon": 0.0, "bike_id": "7a0d7627d0ff145bf3e7e7ce9c1a2967", "lat": 38.87286233333333, "is_disabled": 0, "lon": -77.01518533333333, "fusion_lat": 0.0, "rental_uris": {"ios": "https://dc.lft.to/lastmile_qr_scan", "android": "https://dc.lft.to/lastmile_qr_scan"}, "type": "electric_scooter"}, {"name": "2cfd7c793b7b39e3fa3e55237b8a5ba2", "is_reserved": 0, "fusion_lon": 0.0, "bike_id": "2cfd7c793b7b39e3fa3e55237b8a5ba2", "lat": 38.923187, "is_disabled": 0, "lon": -77.01947516666667, "fusion_lat": 0.0, "rental_uris": {"ios": "https://dc.lft.to/lastmile_qr_scan", "android": "https://dc.lft.to/lastmile_qr_scan"}, "type": "electric_scooter"}, {"name": "1583f7ad3aadbfed6c4db5aa7e97235f", "is_reserved": 0, "fusion_lon": 0.0, "bike_id": "1583f7ad3aadbfed6c4db5aa7e97235f", "lat": 38.938889833333334, "is_disabled": 0, "lon": -77.02490066666667, "fusion_lat": 0.0, "rental_uris": {"ios": "https://dc.lft.to/lastmile_qr_scan", "android": "https://dc.lft.to/lastmile_qr_scan"}, "type": "electric_scooter"}, {"name": "6d075cbfd3ee83e0ca34b130fbb25807", "is_reserved": 0, "fusion_lon": 0.0, "bike_id": "6d075cbfd3ee83e0ca34b130fbb25807", "lat": 38.923571, "is_disabled": 0, "lon": -77.01950933333333, "fusion_lat": 0.0, "rental_uris": {"ios": "https://dc.lft.to/lastmile_qr_scan", "android": "https://dc.lft.to/lastmile_qr_scan"}, "type": "electric_scooter"}, {"name": "a7536d106ad65aadc2b5512abcef74b7", "is_reserved": 0, "fusion_lon": 0.0, "bike_id": "a7536d106ad65aadc2b5512abcef74b7", "lat": 38.922782833333336, "is_disabled": 0, "lon": -77.03204816666667, "fusion_lat": 0.0, "rental_uris": {"ios": "https://dc.lft.to/lastmile_qr_scan", "android": "https://dc.lft.to/lastmile_qr_scan"}, "type": "electric_scooter"}, {"name": "96846a0c62a5aca6263a846cc1020789", "is_reserved": 0, "fusion_lon": 0.0, "bike_id": "96846a0c62a5aca6263a846cc1020789", "lat": 38.920376, "is_disabled": 0, "lon": -77.04192016666667, "fusion_lat": 0.0, "rental_uris": {"ios": "https://dc.lft.to/lastmile_qr_scan", "android": "https://dc.lft.to/lastmile_qr_scan"}, "type": "electric_scooter"}, {"name": "beaff8040fe30f2cc36684577a42ee6e", "is_reserved": 0, "fusion_lon": 0.0, "bike_id": "beaff8040fe30f2cc36684577a42ee6e", "lat": 38.872861, "is_disabled": 0, "lon": -77.009851, "fusion_lat": 0.0, "rental_uris": {"ios": "https://dc.lft.to/lastmile_qr_scan", "android": "https://dc.lft.to/lastmile_qr_scan"}, "type": "electric_scooter"}, {"name": "78d68f29c7c724239989bae9b12388d6", "is_reserved": 0, "fusion_lon": 0.0, "bike_id": "78d68f29c7c724239989bae9b12388d6", "lat": 38.92437733333333, "is_disabled": 0, "lon": -77.0296945, "fusion_lat": 0.0, "rental_uris": {"ios": "https://dc.lft.to/lastmile_qr_scan", "android": "https://dc.lft.to/lastmile_qr_scan"}, "type": "electric_scooter"}, {"name": "49aa0d51ebe85d527b083f52748c5db1", "is_reserved": 0, "fusion_lon": 0.0, "bike_id": "49aa0d51ebe85d527b083f52748c5db1", "lat": 38.804537333333336, "is_disabled": 0, "lon": -77.06080016666667, "fusion_lat": 0.0, "rental_uris": {"ios": "https://dc.lft.to/lastmile_qr_scan", "android": "https://dc.lft.to/lastmile_qr_scan"}, "type": "electric_bike"}, {"name": "1c91ead45e77a3d511a5e40b76c5ad4c", "is_reserved": 0, "fusion_lon": 0.0, "bike_id": "1c91ead45e77a3d511a5e40b76c5ad4c", "lat": 38.93106316666667, "is_disabled": 0, "lon": -77.02122183333333, "fusion_lat": 0.0, "rental_uris": {"ios": "https://dc.lft.to/lastmile_qr_scan", "android": "https://dc.lft.to/lastmile_qr_scan"}, "type": "electric_scooter"}, {"name": "0897add7479fe866a48a2a5f7aeffb04", "is_reserved": 0, "fusion_lon": 0.0, "bike_id": "0897add7479fe866a48a2a5f7aeffb04", "lat": 38.94622916666667, "is_disabled": 0, "lon": -76.99305933333333, "fusion_lat": 0.0, "rental_uris": {"ios": "https://dc.lft.to/lastmile_qr_scan", "android": "https://dc.lft.to/lastmile_qr_scan"}, "type": "electric_bike"}, {"name": "d38e086c9194497c5fcfd135b4d3dbe9", "is_reserved": 0, "fusion_lon": 0.0, "bike_id": "d38e086c9194497c5fcfd135b4d3dbe9", "lat": 38.8972385, "is_disabled": 0, "lon": -77.055198, "fusion_lat": 0.0, "rental_uris": {"ios": "https://dc.lft.to/lastmile_qr_scan", "android": "https://dc.lft.to/lastmile_qr_scan"}, "type": "electric_scooter"}, {"name": "743ba0602d08dcdd93bf55ab003598c0", "is_reserved": 0, "fusion_lon": 0.0, "bike_id": "743ba0602d08dcdd93bf55ab003598c0", "lat": 38.91373316666667, "is_disabled": 0, "lon": -77.0458545, "fusion_lat": 0.0, "rental_uris": {"ios": "https://dc.lft.to/lastmile_qr_scan", "android": "https://dc.lft.to/lastmile_qr_scan"}, "type": "electric_scooter"}, {"name": "2375892899040171652e5888e483341c", "is_reserved": 0, "fusion_lon": 0.0, "bike_id": "2375892899040171652e5888e483341c", "lat": 38.914889, "is_disabled": 0, "lon": -77.01852666666667, "fusion_lat": 0.0, "rental_uris": {"ios": "https://dc.lft.to/lastmile_qr_scan", "android": "https://dc.lft.to/lastmile_qr_scan"}, "type": "electric_scooter"}, {"name": "7dda38a6860e79723d35d87dd352b8f9", "is_reserved": 0, "fusion_lon": 0.0, "bike_id": "7dda38a6860e79723d35d87dd352b8f9", "lat": 38.92035516666667, "is_disabled": 0, "lon": -77.0168535, "fusion_lat": 0.0, "rental_uris": {"ios": "https://dc.lft.to/lastmile_qr_scan", "android": "https://dc.lft.to/lastmile_qr_scan"}, "type": "electric_scooter"}, {"name": "d54725f784f4e0810981719997da674a", "is_reserved": 0, "fusion_lon": 0.0, "bike_id": "d54725f784f4e0810981719997da674a", "lat": 38.924270666666665, "is_disabled": 0, "lon": -77.02019333333334, "fusion_lat": 0.0, "rental_uris": {"ios": "https://dc.lft.to/lastmile_qr_scan", "android": "https://dc.lft.to/lastmile_qr_scan"}, "type": "electric_scooter"}, {"name": "3e0d9c3d1b808185223748c7b5943ae9", "is_reserved": 0, "fusion_lon": 0.0, "bike_id": "3e0d9c3d1b808185223748c7b5943ae9", "lat": 38.920607, "is_disabled": 0, "lon": -77.02369583333333, "fusion_lat": 0.0, "rental_uris": {"ios": "https://dc.lft.to/lastmile_qr_scan", "android": "https://dc.lft.to/lastmile_qr_scan"}, "type": "electric_scooter"}, {"name": "2cfb59a5dfaed17f35dcdfad9871281a", "is_reserved": 0, "fusion_lon": 0.0, "bike_id": "2cfb59a5dfaed17f35dcdfad9871281a", "lat": 38.91825083333333, "is_disabled": 0, "lon": -77.02531033333334, "fusion_lat": 0.0, "rental_uris": {"ios": "https://dc.lft.to/lastmile_qr_scan", "android": "https://dc.lft.to/lastmile_qr_scan"}, "type": "electric_scooter"}, {"name": "e5a384c950abe99f9e8d64a8df024ec4", "is_reserved": 0, "fusion_lon": 0.0, "bike_id": "e5a384c950abe99f9e8d64a8df024ec4", "lat": 38.92150766666666, "is_disabled": 0, "lon": -77.0422955, "fusion_lat": 0.0, "rental_uris": {"ios": "https://dc.lft.to/lastmile_qr_scan", "android": "https://dc.lft.to/lastmile_qr_scan"}, "type": "electric_scooter"}, {"name": "3e3b690a3db12590e21403bf4eef0c49", "is_reserved": 0, "fusion_lon": 0.0, "bike_id": "3e3b690a3db12590e21403bf4eef0c49", "lat": 38.897258, "is_disabled": 0, "lon": -76.925856, "fusion_lat": 0.0, "rental_uris": {"ios": "https://dc.lft.to/lastmile_qr_scan", "android": "https://dc.lft.to/lastmile_qr_scan"}, "type": "electric_scooter"}, {"name": "6f71515c1ff21b467359e5f1e5a97cee", "is_reserved": 0, "fusion_lon": 0.0, "bike_id": "6f71515c1ff21b467359e5f1e5a97cee", "lat": 38.83921816666667, "is_disabled": 0, "lon": -77.08435316666667, "fusion_lat": 0.0, "rental_uris": {"ios": "https://dc.lft.to/lastmile_qr_scan", "android": "https://dc.lft.to/lastmile_qr_scan"}, "type": "electric_bike"}, {"name": "86146c6de055e5f6bc0c62db54d4a99c", "is_reserved": 0, "fusion_lon": 0.0, "bike_id": "86146c6de055e5f6bc0c62db54d4a99c", "lat": 38.89435316666667, "is_disabled": 0, "lon": -76.98083883333334, "fusion_lat": 0.0, "rental_uris": {"ios": "https://dc.lft.to/lastmile_qr_scan", "android": "https://dc.lft.to/lastmile_qr_scan"}, "type": "electric_scooter"}, {"name": "8f6ed93bbe8b17771135c9d6d8082a30", "is_reserved": 0, "fusion_lon": 0.0, "bike_id": "8f6ed93bbe8b17771135c9d6d8082a30", "lat": 38.9260485, "is_disabled": 0, "lon": -77.0216295, "fusion_lat": 0.0, "rental_uris": {"ios": "https://dc.lft.to/lastmile_qr_scan", "android": "https://dc.lft.to/lastmile_qr_scan"}, "type": "electric_scooter"}, {"name": "a138a718ecae5a7aa3bc5e0eb890868e", "is_reserved": 0, "fusion_lon": 0.0, "bike_id": "a138a718ecae5a7aa3bc5e0eb890868e", "lat": 38.87679983333334, "is_disabled": 0, "lon": -77.00422733333333, "fusion_lat": 0.0, "rental_uris": {"ios": "https://dc.lft.to/lastmile_qr_scan", "android": "https://dc.lft.to/lastmile_qr_scan"}, "type": "electric_scooter"}, {"name": "2f441b4b0d72194f80003fbc62f2ba35", "is_reserved": 0, "fusion_lon": 0.0, "bike_id": "2f441b4b0d72194f80003fbc62f2ba35", "lat": 38.9011875, "is_disabled": 0, "lon": -77.0404215, "fusion_lat": 0.0, "rental_uris": {"ios": "https://dc.lft.to/lastmile_qr_scan", "android": "https://dc.lft.to/lastmile_qr_scan"}, "type": "electric_scooter"}, {"name": "e321c6c0a11c7d718b6738f642475f72", "is_reserved": 0, "fusion_lon": 0.0, "bike_id": "e321c6c0a11c7d718b6738f642475f72", "lat": 38.9518695, "is_disabled": 0, "lon": -76.9512555, "fusion_lat": 0.0, "rental_uris": {"ios": "https://dc.lft.to/lastmile_qr_scan", "android": "https://dc.lft.to/lastmile_qr_scan"}, "type": "electric_bike"}, {"name": "c3080827ce1e31636bee5364bfb437b4", "is_reserved": 0, "fusion_lon": 0.0, "bike_id": "c3080827ce1e31636bee5364bfb437b4", "lat": 38.88077666666667, "is_disabled": 0, "lon": -76.985311, "fusion_lat": 0.0, "rental_uris": {"ios": "https://dc.lft.to/lastmile_qr_scan", "android": "https://dc.lft.to/lastmile_qr_scan"}, "type": "electric_bike"}, {"name": "a5263ef423d42d759b1e50071573bb42", "is_reserved": 0, "fusion_lon": 0.0, "bike_id": "a5263ef423d42d759b1e50071573bb42", "lat": 38.90736283333333, "is_disabled": 0, "lon": -77.02796033333334, "fusion_lat": 0.0, "rental_uris": {"ios": "https://dc.lft.to/lastmile_qr_scan", "android": "https://dc.lft.to/lastmile_qr_scan"}, "type": "electric_scooter"}, {"name": "a9ef74c1e48ba293dd56a1f5647c0f9d", "is_reserved": 0, "fusion_lon": 0.0, "bike_id": "a9ef74c1e48ba293dd56a1f5647c0f9d", "lat": 38.83860966666667, "is_disabled": 0, "lon": -76.99698166666667, "fusion_lat": 0.0, "rental_uris": {"ios": "https://dc.lft.to/lastmile_qr_scan", "android": "https://dc.lft.to/lastmile_qr_scan"}, "type": "electric_bike"}, {"name": "50983710c77c8d6f5dd90ec9fed84c1f", "is_reserved": 0, "fusion_lon": 0.0, "bike_id": "50983710c77c8d6f5dd90ec9fed84c1f", "lat": 38.918088833333336, "is_disabled": 0, "lon": -77.02501283333334, "fusion_lat": 0.0, "rental_uris": {"ios": "https://dc.lft.to/lastmile_qr_scan", "android": "https://dc.lft.to/lastmile_qr_scan"}, "type": "electric_scooter"}, {"name": "8aea3cae407038f7d69b9b7d765470b7", "is_reserved": 0, "fusion_lon": 0.0, "bike_id": "8aea3cae407038f7d69b9b7d765470b7", "lat": 38.904245333333336, "is_disabled": 0, "lon": -77.04872516666667, "fusion_lat": 0.0, "rental_uris": {"ios": "https://dc.lft.to/lastmile_qr_scan", "android": "https://dc.lft.to/lastmile_qr_scan"}, "type": "electric_scooter"}, {"name": "e5ceda3a2023137b6e5b9500fcc7f40c", "is_reserved": 0, "fusion_lon": 0.0, "bike_id": "e5ceda3a2023137b6e5b9500fcc7f40c", "lat": 38.9242575, "is_disabled": 0, "lon": -77.02241816666667, "fusion_lat": 0.0, "rental_uris": {"ios": "https://dc.lft.to/lastmile_qr_scan", "android": "https://dc.lft.to/lastmile_qr_scan"}, "type": "electric_scooter"}, {"name": "273fcc790876d96c7716262ee17d4d1f", "is_reserved": 0, "fusion_lon": 0.0, "bike_id": "273fcc790876d96c7716262ee17d4d1f", "lat": 38.91586383333333, "is_disabled": 0, "lon": -77.02385816666667, "fusion_lat": 0.0, "rental_uris": {"ios": "https://dc.lft.to/lastmile_qr_scan", "android": "https://dc.lft.to/lastmile_qr_scan"}, "type": "electric_scooter"}, {"name": "36112b989fc4b8d0be0fca058ad02d5f", "is_reserved": 0, "fusion_lon": 0.0, "bike_id": "36112b989fc4b8d0be0fca058ad02d5f", "lat": 38.898148666666664, "is_disabled": 0, "lon": -77.02949583333333, "fusion_lat": 0.0, "rental_uris": {"ios": "https://dc.lft.to/lastmile_qr_scan", "android": "https://dc.lft.to/lastmile_qr_scan"}, "type": "electric_scooter"}, {"name": "fa8d0cb33682df43d5f2502207d04056", "is_reserved": 0, "fusion_lon": 0.0, "bike_id": "fa8d0cb33682df43d5f2502207d04056", "lat": 38.91703283333333, "is_disabled": 0, "lon": -77.03356316666667, "fusion_lat": 0.0, "rental_uris": {"ios": "https://dc.lft.to/lastmile_qr_scan", "android": "https://dc.lft.to/lastmile_qr_scan"}, "type": "electric_scooter"}, {"name": "87ecf516814b9e76a37097d0cdfc104f", "is_reserved": 0, "fusion_lon": 0.0, "bike_id": "87ecf516814b9e76a37097d0cdfc104f", "lat": 38.89715433333333, "is_disabled": 0, "lon": -77.04647183333333, "fusion_lat": 0.0, "rental_uris": {"ios": "https://dc.lft.to/lastmile_qr_scan", "android": "https://dc.lft.to/lastmile_qr_scan"}, "type": "electric_scooter"}, {"name": "14dd73caeab530824d9f200d10e59edd", "is_reserved": 0, "fusion_lon": 0.0, "bike_id": "14dd73caeab530824d9f200d10e59edd", "lat": 38.90367033333333, "is_disabled": 0, "lon": -77.03426266666666, "fusion_lat": 0.0, "rental_uris": {"ios": "https://dc.lft.to/lastmile_qr_scan", "android": "https://dc.lft.to/lastmile_qr_scan"}, "type": "electric_scooter"}, {"name": "91f8d5c9838884d03e2323ed5b0a314d", "is_reserved": 0, "fusion_lon": 0.0, "bike_id": "91f8d5c9838884d03e2323ed5b0a314d", "lat": 38.994953833333334, "is_disabled": 0, "lon": -77.0013225, "fusion_lat": 0.0, "rental_uris": {"ios": "https://dc.lft.to/lastmile_qr_scan", "android": "https://dc.lft.to/lastmile_qr_scan"}, "type": "electric_bike"}, {"name": "82a885ddb929582669d32499d21df3ce", "is_reserved": 0, "fusion_lon": 0.0, "bike_id": "82a885ddb929582669d32499d21df3ce", "lat": 38.921878166666666, "is_disabled": 0, "lon": -77.0185175, "fusion_lat": 0.0, "rental_uris": {"ios": "https://dc.lft.to/lastmile_qr_scan", "android": "https://dc.lft.to/lastmile_qr_scan"}, "type": "electric_scooter"}, {"name": "8eaf63c7febe8e99f53c86c39c27bdc8", "is_reserved": 0, "fusion_lon": 0.0, "bike_id": "8eaf63c7febe8e99f53c86c39c27bdc8", "lat": 38.875415333333336, "is_disabled": 0, "lon": -77.00532983333333, "fusion_lat": 0.0, "rental_uris": {"ios": "https://dc.lft.to/lastmile_qr_scan", "android": "https://dc.lft.to/lastmile_qr_scan"}, "type": "electric_scooter"}, {"name": "f2f61f22bda85f409f3df10e8255bafa", "is_reserved": 0, "fusion_lon": 0.0, "bike_id": "f2f61f22bda85f409f3df10e8255bafa", "lat": 38.900062166666665, "is_disabled": 0, "lon": -76.98930383333334, "fusion_lat": 0.0, "rental_uris": {"ios": "https://dc.lft.to/lastmile_qr_scan", "android": "https://dc.lft.to/lastmile_qr_scan"}, "type": "electric_scooter"}, {"name": "aab5907fc2ce58387a2b2d33c8f4167e", "is_reserved": 0, "fusion_lon": 0.0, "bike_id": "aab5907fc2ce58387a2b2d33c8f4167e", "lat": 38.87917183333333, "is_disabled": 0, "lon": -77.015484, "fusion_lat": 0.0, "rental_uris": {"ios": "https://dc.lft.to/lastmile_qr_scan", "android": "https://dc.lft.to/lastmile_qr_scan"}, "type": "electric_scooter"}, {"name": "504b4f2f4b85edf65e9f78920d864c5f", "is_reserved": 0, "fusion_lon": 0.0, "bike_id": "504b4f2f4b85edf65e9f78920d864c5f", "lat": 38.896989166666664, "is_disabled": 0, "lon": -77.01292033333333, "fusion_lat": 0.0, "rental_uris": {"ios": "https://dc.lft.to/lastmile_qr_scan", "android": "https://dc.lft.to/lastmile_qr_scan"}, "type": "electric_scooter"}, {"name": "94bc96dbef056226e79ab85f5bde9de9", "is_reserved": 0, "fusion_lon": 0.0, "bike_id": "94bc96dbef056226e79ab85f5bde9de9", "lat": 38.911332333333334, "is_disabled": 0, "lon": -77.00361833333334, "fusion_lat": 0.0, "rental_uris": {"ios": "https://dc.lft.to/lastmile_qr_scan", "android": "https://dc.lft.to/lastmile_qr_scan"}, "type": "electric_scooter"}, {"name": "c5b24c1a391d629d6824e1e020c1cb40", "is_reserved": 0, "fusion_lon": 0.0, "bike_id": "c5b24c1a391d629d6824e1e020c1cb40", "lat": 38.927848166666664, "is_disabled": 0, "lon": -77.02128033333334, "fusion_lat": 0.0, "rental_uris": {"ios": "https://dc.lft.to/lastmile_qr_scan", "android": "https://dc.lft.to/lastmile_qr_scan"}, "type": "electric_scooter"}, {"name": "9792b80fbfdaf1afe270446db59c8a4c", "is_reserved": 0, "fusion_lon": 0.0, "bike_id": "9792b80fbfdaf1afe270446db59c8a4c", "lat": 38.9316875, "is_disabled": 0, "lon": -77.03782533333333, "fusion_lat": 0.0, "rental_uris": {"ios": "https://dc.lft.to/lastmile_qr_scan", "android": "https://dc.lft.to/lastmile_qr_scan"}, "type": "electric_scooter"}, {"name": "3a4c4f4f05fb3a02249e84b019786153", "is_reserved": 0, "fusion_lon": 0.0, "bike_id": "3a4c4f4f05fb3a02249e84b019786153", "lat": 38.884972, "is_disabled": 0, "lon": -77.00563366666667, "fusion_lat": 0.0, "rental_uris": {"ios": "https://dc.lft.to/lastmile_qr_scan", "android": "https://dc.lft.to/lastmile_qr_scan"}, "type": "electric_scooter"}, {"name": "1e23eacecc5cb8264a1cdba838bd4ab9", "is_reserved": 0, "fusion_lon": 0.0, "bike_id": "1e23eacecc5cb8264a1cdba838bd4ab9", "lat": 38.92956083333333, "is_disabled": 0, "lon": -77.011447, "fusion_lat": 0.0, "rental_uris": {"ios": "https://dc.lft.to/lastmile_qr_scan", "android": "https://dc.lft.to/lastmile_qr_scan"}, "type": "electric_scooter"}, {"name": "3d940e1c2f1f288f47e4463de5af0d0d", "is_reserved": 0, "fusion_lon": 0.0, "bike_id": "3d940e1c2f1f288f47e4463de5af0d0d", "lat": 38.867096, "is_disabled": 0, "lon": -76.9896405, "fusion_lat": 0.0, "rental_uris": {"ios": "https://dc.lft.to/lastmile_qr_scan", "android": "https://dc.lft.to/lastmile_qr_scan"}, "type": "electric_bike"}, {"name": "faecc7aff7ed060461c27d88e555d83c", "is_reserved": 0, "fusion_lon": 0.0, "bike_id": "faecc7aff7ed060461c27d88e555d83c", "lat": 38.91710716666667, "is_disabled": 0, "lon": -77.03851416666667, "fusion_lat": 0.0, "rental_uris": {"ios": "https://dc.lft.to/lastmile_qr_scan", "android": "https://dc.lft.to/lastmile_qr_scan"}, "type": "electric_scooter"}, {"name": "71ec79c9881449639b9cb3e01760ea1d", "is_reserved": 0, "fusion_lon": 0.0, "bike_id": "71ec79c9881449639b9cb3e01760ea1d", "lat": 38.91808733333333, "is_disabled": 0, "lon": -77.04977, "fusion_lat": 0.0, "rental_uris": {"ios": "https://dc.lft.to/lastmile_qr_scan", "android": "https://dc.lft.to/lastmile_qr_scan"}, "type": "electric_scooter"}, {"name": "a12e56aac05f39f19f4cd6598ba375e5", "is_reserved": 0, "fusion_lon": 0.0, "bike_id": "a12e56aac05f39f19f4cd6598ba375e5", "lat": 38.90289633333333, "is_disabled": 0, "lon": -77.0256685, "fusion_lat": 0.0, "rental_uris": {"ios": "https://dc.lft.to/lastmile_qr_scan", "android": "https://dc.lft.to/lastmile_qr_scan"}, "type": "electric_scooter"}, {"name": "124078cb6e0e8b083fcb6ec6517cd24b", "is_reserved": 0, "fusion_lon": 0.0, "bike_id": "124078cb6e0e8b083fcb6ec6517cd24b", "lat": 38.9342185, "is_disabled": 0, "lon": -77.03995783333333, "fusion_lat": 0.0, "rental_uris": {"ios": "https://dc.lft.to/lastmile_qr_scan", "android": "https://dc.lft.to/lastmile_qr_scan"}, "type": "electric_scooter"}, {"name": "ca9f23b21f9a012b8f13e3b4707d3e73", "is_reserved": 0, "fusion_lon": 0.0, "bike_id": "ca9f23b21f9a012b8f13e3b4707d3e73", "lat": 38.895243, "is_disabled": 0, "lon": -77.02201983333333, "fusion_lat": 0.0, "rental_uris": {"ios": "https://dc.lft.to/lastmile_qr_scan", "android": "https://dc.lft.to/lastmile_qr_scan"}, "type": "electric_scooter"}, {"name": "6783424741063199d3825270ef869d1e", "is_reserved": 0, "fusion_lon": 0.0, "bike_id": "6783424741063199d3825270ef869d1e", "lat": 38.89229816666667, "is_disabled": 0, "lon": -77.04998016666667, "fusion_lat": 0.0, "rental_uris": {"ios": "https://dc.lft.to/lastmile_qr_scan", "android": "https://dc.lft.to/lastmile_qr_scan"}, "type": "electric_scooter"}, {"name": "0eae8c2391eba51de9723ce3f930f454", "is_reserved": 0, "fusion_lon": 0.0, "bike_id": "0eae8c2391eba51de9723ce3f930f454", "lat": 38.898672166666664, "is_disabled": 0, "lon": -77.020238, "fusion_lat": 0.0, "rental_uris": {"ios": "https://dc.lft.to/lastmile_qr_scan", "android": "https://dc.lft.to/lastmile_qr_scan"}, "type": "electric_scooter"}, {"name": "cf043e5a0db59272b9a63f9640a01750", "is_reserved": 0, "fusion_lon": 0.0, "bike_id": "cf043e5a0db59272b9a63f9640a01750", "lat": 38.8765545, "is_disabled": 0, "lon": -77.00305116666667, "fusion_lat": 0.0, "rental_uris": {"ios": "https://dc.lft.to/lastmile_qr_scan", "android": "https://dc.lft.to/lastmile_qr_scan"}, "type": "electric_scooter"}, {"name": "bdb762f90d182cc7a6c3537b90b66775", "is_reserved": 0, "fusion_lon": 0.0, "bike_id": "bdb762f90d182cc7a6c3537b90b66775", "lat": 38.90603866666667, "is_disabled": 0, "lon": -76.99811766666667, "fusion_lat": 0.0, "rental_uris": {"ios": "https://dc.lft.to/lastmile_qr_scan", "android": "https://dc.lft.to/lastmile_qr_scan"}, "type": "electric_scooter"}, {"name": "d63562ac0c5707b38d1252f85e9e6d18", "is_reserved": 0, "fusion_lon": 0.0, "bike_id": "d63562ac0c5707b38d1252f85e9e6d18", "lat": 38.892364666666666, "is_disabled": 0, "lon": -76.98452566666667, "fusion_lat": 0.0, "rental_uris": {"ios": "https://dc.lft.to/lastmile_qr_scan", "android": "https://dc.lft.to/lastmile_qr_scan"}, "type": "electric_scooter"}, {"name": "e03b241a1f4df37bfce620d491d8235f", "is_reserved": 0, "fusion_lon": 0.0, "bike_id": "e03b241a1f4df37bfce620d491d8235f", "lat": 38.91020533333333, "is_disabled": 0, "lon": -77.043458, "fusion_lat": 0.0, "rental_uris": {"ios": "https://dc.lft.to/lastmile_qr_scan", "android": "https://dc.lft.to/lastmile_qr_scan"}, "type": "electric_scooter"}, {"name": "dc3f75580e81d1ef3c11ae2954c172b9", "is_reserved": 0, "fusion_lon": 0.0, "bike_id": "dc3f75580e81d1ef3c11ae2954c172b9", "lat": 38.920599833333334, "is_disabled": 0, "lon": -77.04355333333334, "fusion_lat": 0.0, "rental_uris": {"ios": "https://dc.lft.to/lastmile_qr_scan", "android": "https://dc.lft.to/lastmile_qr_scan"}, "type": "electric_scooter"}, {"name": "f4b18ed70ca2cc1779aacb8383f8c27e", "is_reserved": 0, "fusion_lon": 0.0, "bike_id": "f4b18ed70ca2cc1779aacb8383f8c27e", "lat": 38.912596, "is_disabled": 0, "lon": -77.0049155, "fusion_lat": 0.0, "rental_uris": {"ios": "https://dc.lft.to/lastmile_qr_scan", "android": "https://dc.lft.to/lastmile_qr_scan"}, "type": "electric_scooter"}, {"name": "4239c29bcec5dcdb786921d92aa6d2b8", "is_reserved": 0, "fusion_lon": 0.0, "bike_id": "4239c29bcec5dcdb786921d92aa6d2b8", "lat": 38.919615666666665, "is_disabled": 0, "lon": -77.02710616666667, "fusion_lat": 0.0, "rental_uris": {"ios": "https://dc.lft.to/lastmile_qr_scan", "android": "https://dc.lft.to/lastmile_qr_scan"}, "type": "electric_scooter"}, {"name": "b83fc754b736af0e8a6f901ea1125a81", "is_reserved": 0, "fusion_lon": 0.0, "bike_id": "b83fc754b736af0e8a6f901ea1125a81", "lat": 38.9246095, "is_disabled": 0, "lon": -77.02213216666667, "fusion_lat": 0.0, "rental_uris": {"ios": "https://dc.lft.to/lastmile_qr_scan", "android": "https://dc.lft.to/lastmile_qr_scan"}, "type": "electric_scooter"}, {"name": "d6e54e664715abeb2821604e0a095107", "is_reserved": 0, "fusion_lon": 0.0, "bike_id": "d6e54e664715abeb2821604e0a095107", "lat": 38.90505116666667, "is_disabled": 0, "lon": -77.030028, "fusion_lat": 0.0, "rental_uris": {"ios": "https://dc.lft.to/lastmile_qr_scan", "android": "https://dc.lft.to/lastmile_qr_scan"}, "type": "electric_scooter"}, {"name": "b13b8a3a9112a00b9c5c3ff3c3a1b4bd", "is_reserved": 0, "fusion_lon": 0.0, "bike_id": "b13b8a3a9112a00b9c5c3ff3c3a1b4bd", "lat": 38.93145783333333, "is_disabled": 0, "lon": -77.07848433333334, "fusion_lat": 0.0, "rental_uris": {"ios": "https://dc.lft.to/lastmile_qr_scan", "android": "https://dc.lft.to/lastmile_qr_scan"}, "type": "electric_scooter"}, {"name": "6294bb10b1a64957a295244ed7081b68", "is_reserved": 0, "fusion_lon": 0.0, "bike_id": "6294bb10b1a64957a295244ed7081b68", "lat": 38.922503666666664, "is_disabled": 0, "lon": -77.0194905, "fusion_lat": 0.0, "rental_uris": {"ios": "https://dc.lft.to/lastmile_qr_scan", "android": "https://dc.lft.to/lastmile_qr_scan"}, "type": "electric_scooter"}, {"name": "c0df99a7dfed017588da22e0ebbc2a72", "is_reserved": 0, "fusion_lon": 0.0, "bike_id": "c0df99a7dfed017588da22e0ebbc2a72", "lat": 38.895629, "is_disabled": 0, "lon": -77.0256065, "fusion_lat": 0.0, "rental_uris": {"ios": "https://dc.lft.to/lastmile_qr_scan", "android": "https://dc.lft.to/lastmile_qr_scan"}, "type": "electric_scooter"}, {"name": "ca750fccec7413d4eb79381dd2ae4b1c", "is_reserved": 0, "fusion_lon": 0.0, "bike_id": "ca750fccec7413d4eb79381dd2ae4b1c", "lat": 38.905171333333335, "is_disabled": 0, "lon": -77.048937, "fusion_lat": 0.0, "rental_uris": {"ios": "https://dc.lft.to/lastmile_qr_scan", "android": "https://dc.lft.to/lastmile_qr_scan"}, "type": "electric_scooter"}, {"name": "b2f39fb6fe12cab12e872576e85217f6", "is_reserved": 0, "fusion_lon": 0.0, "bike_id": "b2f39fb6fe12cab12e872576e85217f6", "lat": 38.89750266666667, "is_disabled": 0, "lon": -77.003407, "fusion_lat": 0.0, "rental_uris": {"ios": "https://dc.lft.to/lastmile_qr_scan", "android": "https://dc.lft.to/lastmile_qr_scan"}, "type": "electric_scooter"}, {"name": "d57b189591515d7c39b04bdf7333bad4", "is_reserved": 0, "fusion_lon": 0.0, "bike_id": "d57b189591515d7c39b04bdf7333bad4", "lat": 38.90956416666667, "is_disabled": 0, "lon": -77.0463105, "fusion_lat": 0.0, "rental_uris": {"ios": "https://dc.lft.to/lastmile_qr_scan", "android": "https://dc.lft.to/lastmile_qr_scan"}, "type": "electric_scooter"}, {"name": "edbec7f24f513bb35d6c3fd02ce1db15", "is_reserved": 0, "fusion_lon": 0.0, "bike_id": "edbec7f24f513bb35d6c3fd02ce1db15", "lat": 38.899475333333335, "is_disabled": 0, "lon": -77.0160505, "fusion_lat": 0.0, "rental_uris": {"ios": "https://dc.lft.to/lastmile_qr_scan", "android": "https://dc.lft.to/lastmile_qr_scan"}, "type": "electric_scooter"}, {"name": "97b3d38ce4374e9c57566e8673f1cea1", "is_reserved": 0, "fusion_lon": 0.0, "bike_id": "97b3d38ce4374e9c57566e8673f1cea1", "lat": 38.90244033333333, "is_disabled": 0, "lon": -77.043918, "fusion_lat": 0.0, "rental_uris": {"ios": "https://dc.lft.to/lastmile_qr_scan", "android": "https://dc.lft.to/lastmile_qr_scan"}, "type": "electric_scooter"}, {"name": "725b2f522109ecf1da5ae07df65506db", "is_reserved": 0, "fusion_lon": 0.0, "bike_id": "725b2f522109ecf1da5ae07df65506db", "lat": 38.89557033333333, "is_disabled": 0, "lon": -76.93059, "fusion_lat": 0.0, "rental_uris": {"ios": "https://dc.lft.to/lastmile_qr_scan", "android": "https://dc.lft.to/lastmile_qr_scan"}, "type": "electric_scooter"}, {"name": "d4e54d65002f0d67265d18d7edfb3c63", "is_reserved": 0, "fusion_lon": 0.0, "bike_id": "d4e54d65002f0d67265d18d7edfb3c63", "lat": 38.90371366666667, "is_disabled": 0, "lon": -77.0218885, "fusion_lat": 0.0, "rental_uris": {"ios": "https://dc.lft.to/lastmile_qr_scan", "android": "https://dc.lft.to/lastmile_qr_scan"}, "type": "electric_scooter"}, {"name": "79156c2bc1b97d4ebaebc92f544149cd", "is_reserved": 0, "fusion_lon": 0.0, "bike_id": "79156c2bc1b97d4ebaebc92f544149cd", "lat": 38.90015483333333, "is_disabled": 0, "lon": -77.0067605, "fusion_lat": 0.0, "rental_uris": {"ios": "https://dc.lft.to/lastmile_qr_scan", "android": "https://dc.lft.to/lastmile_qr_scan"}, "type": "electric_scooter"}, {"name": "6c2a546b5b31dee41902a6b89fdf6e82", "is_reserved": 0, "fusion_lon": 0.0, "bike_id": "6c2a546b5b31dee41902a6b89fdf6e82", "lat": 38.90197033333333, "is_disabled": 0, "lon": -77.05027616666666, "fusion_lat": 0.0, "rental_uris": {"ios": "https://dc.lft.to/lastmile_qr_scan", "android": "https://dc.lft.to/lastmile_qr_scan"}, "type": "electric_scooter"}, {"name": "a3a9c4970a56e1b3700719bcb915df82", "is_reserved": 0, "fusion_lon": 0.0, "bike_id": "a3a9c4970a56e1b3700719bcb915df82", "lat": 38.8948155, "is_disabled": 0, "lon": -77.01368083333334, "fusion_lat": 0.0, "rental_uris": {"ios": "https://dc.lft.to/lastmile_qr_scan", "android": "https://dc.lft.to/lastmile_qr_scan"}, "type": "electric_scooter"}, {"name": "bfc8781186d4e8120948fea24d23bcb7", "is_reserved": 0, "fusion_lon": 0.0, "bike_id": "bfc8781186d4e8120948fea24d23bcb7", "lat": 38.881334833333334, "is_disabled": 0, "lon": -77.0128705, "fusion_lat": 0.0, "rental_uris": {"ios": "https://dc.lft.to/lastmile_qr_scan", "android": "https://dc.lft.to/lastmile_qr_scan"}, "type": "electric_bike"}, {"name": "4a04a13cb6be851d3fac45eeea9f91aa", "is_reserved": 0, "fusion_lon": 0.0, "bike_id": "4a04a13cb6be851d3fac45eeea9f91aa", "lat": 38.9094385, "is_disabled": 0, "lon": -77.03447533333333, "fusion_lat": 0.0, "rental_uris": {"ios": "https://dc.lft.to/lastmile_qr_scan", "android": "https://dc.lft.to/lastmile_qr_scan"}, "type": "electric_scooter"}, {"name": "947979766d052853f594f5a578ef3cef", "is_reserved": 0, "fusion_lon": 0.0, "bike_id": "947979766d052853f594f5a578ef3cef", "lat": 38.90605133333333, "is_disabled": 0, "lon": -77.0398445, "fusion_lat": 0.0, "rental_uris": {"ios": "https://dc.lft.to/lastmile_qr_scan", "android": "https://dc.lft.to/lastmile_qr_scan"}, "type": "electric_scooter"}, {"name": "7abfb697df3edd960c9715966d2d1b07", "is_reserved": 0, "fusion_lon": 0.0, "bike_id": "7abfb697df3edd960c9715966d2d1b07", "lat": 38.91354966666667, "is_disabled": 0, "lon": -77.02690516666667, "fusion_lat": 0.0, "rental_uris": {"ios": "https://dc.lft.to/lastmile_qr_scan", "android": "https://dc.lft.to/lastmile_qr_scan"}, "type": "electric_scooter"}, {"name": "2a5207a37b5e3de07f827cfbd7f8d14b", "is_reserved": 0, "fusion_lon": 0.0, "bike_id": "2a5207a37b5e3de07f827cfbd7f8d14b", "lat": 39.0842575, "is_disabled": 0, "lon": -76.95133866666667, "fusion_lat": 0.0, "rental_uris": {"ios": "https://dc.lft.to/lastmile_qr_scan", "android": "https://dc.lft.to/lastmile_qr_scan"}, "type": "electric_bike"}, {"name": "ddb73cb806d85e32e5d171daad08da15", "is_reserved": 0, "fusion_lon": 0.0, "bike_id": "ddb73cb806d85e32e5d171daad08da15", "lat": 38.909438333333334, "is_disabled": 0, "lon": -76.93594516666667, "fusion_lat": 0.0, "rental_uris": {"ios": "https://dc.lft.to/lastmile_qr_scan", "android": "https://dc.lft.to/lastmile_qr_scan"}, "type": "electric_scooter"}, {"name": "be25fe1a8b1a6416400e7d26e25be5fe", "is_reserved": 0, "fusion_lon": 0.0, "bike_id": "be25fe1a8b1a6416400e7d26e25be5fe", "lat": 38.915217166666665, "is_disabled": 0, "lon": -77.04635766666667, "fusion_lat": 0.0, "rental_uris": {"ios": "https://dc.lft.to/lastmile_qr_scan", "android": "https://dc.lft.to/lastmile_qr_scan"}, "type": "electric_scooter"}, {"name": "27d96665d275e1746d4d1a29843ddd11", "is_reserved": 0, "fusion_lon": 0.0, "bike_id": "27d96665d275e1746d4d1a29843ddd11", "lat": 38.90510183333333, "is_disabled": 0, "lon": -77.04076116666667, "fusion_lat": 0.0, "rental_uris": {"ios": "https://dc.lft.to/lastmile_qr_scan", "android": "https://dc.lft.to/lastmile_qr_scan"}, "type": "electric_scooter"}, {"name": "2952182328f6e95ccf4a0df7e4105435", "is_reserved": 0, "fusion_lon": 0.0, "bike_id": "2952182328f6e95ccf4a0df7e4105435", "lat": 38.92903733333333, "is_disabled": 0, "lon": -77.02110066666667, "fusion_lat": 0.0, "rental_uris": {"ios": "https://dc.lft.to/lastmile_qr_scan", "android": "https://dc.lft.to/lastmile_qr_scan"}, "type": "electric_scooter"}, {"name": "6f36e3919545ba1980ad9b2fdba169e8", "is_reserved": 0, "fusion_lon": 0.0, "bike_id": "6f36e3919545ba1980ad9b2fdba169e8", "lat": 38.89732566666667, "is_disabled": 0, "lon": -77.04659333333333, "fusion_lat": 0.0, "rental_uris": {"ios": "https://dc.lft.to/lastmile_qr_scan", "android": "https://dc.lft.to/lastmile_qr_scan"}, "type": "electric_scooter"}, {"name": "ee9cb624022a110ca1bdf9b16c74267e", "is_reserved": 0, "fusion_lon": 0.0, "bike_id": "ee9cb624022a110ca1bdf9b16c74267e", "lat": 38.90803666666667, "is_disabled": 0, "lon": -77.06371366666667, "fusion_lat": 0.0, "rental_uris": {"ios": "https://dc.lft.to/lastmile_qr_scan", "android": "https://dc.lft.to/lastmile_qr_scan"}, "type": "electric_scooter"}, {"name": "6034401321725564ca9ff2b8bb89b8c3", "is_reserved": 0, "fusion_lon": 0.0, "bike_id": "6034401321725564ca9ff2b8bb89b8c3", "lat": 38.9225875, "is_disabled": 0, "lon": -77.04294466666667, "fusion_lat": 0.0, "rental_uris": {"ios": "https://dc.lft.to/lastmile_qr_scan", "android": "https://dc.lft.to/lastmile_qr_scan"}, "type": "electric_scooter"}, {"name": "57943b0fd280ca51ad57cba3b0ea4a93", "is_reserved": 0, "fusion_lon": 0.0, "bike_id": "57943b0fd280ca51ad57cba3b0ea4a93", "lat": 38.917826, "is_disabled": 0, "lon": -77.02492616666666, "fusion_lat": 0.0, "rental_uris": {"ios": "https://dc.lft.to/lastmile_qr_scan", "android": "https://dc.lft.to/lastmile_qr_scan"}, "type": "electric_scooter"}, {"name": "b3ad71dbd9239fad96c7d087c3fc8389", "is_reserved": 0, "fusion_lon": 0.0, "bike_id": "b3ad71dbd9239fad96c7d087c3fc8389", "lat": 38.879977333333336, "is_disabled": 0, "lon": -76.9978435, "fusion_lat": 0.0, "rental_uris": {"ios": "https://dc.lft.to/lastmile_qr_scan", "android": "https://dc.lft.to/lastmile_qr_scan"}, "type": "electric_scooter"}, {"name": "7e2c8469ac9c64d6c856b9cbbdb55f91", "is_reserved": 0, "fusion_lon": 0.0, "bike_id": "7e2c8469ac9c64d6c856b9cbbdb55f91", "lat": 38.924741833333336, "is_disabled": 0, "lon": -77.03502916666666, "fusion_lat": 0.0, "rental_uris": {"ios": "https://dc.lft.to/lastmile_qr_scan", "android": "https://dc.lft.to/lastmile_qr_scan"}, "type": "electric_scooter"}, {"name": "b8229109d73b32b8edba2f36b2fd3e74", "is_reserved": 0, "fusion_lon": 0.0, "bike_id": "b8229109d73b32b8edba2f36b2fd3e74", "lat": 38.92467366666666, "is_disabled": 0, "lon": -77.02214416666666, "fusion_lat": 0.0, "rental_uris": {"ios": "https://dc.lft.to/lastmile_qr_scan", "android": "https://dc.lft.to/lastmile_qr_scan"}, "type": "electric_scooter"}, {"name": "ff108ea6eac97598f8ec067c9c2136bd", "is_reserved": 0, "fusion_lon": 0.0, "bike_id": "ff108ea6eac97598f8ec067c9c2136bd", "lat": 38.8986695, "is_disabled": 0, "lon": -77.02602983333334, "fusion_lat": 0.0, "rental_uris": {"ios": "https://dc.lft.to/lastmile_qr_scan", "android": "https://dc.lft.to/lastmile_qr_scan"}, "type": "electric_scooter"}, {"name": "e89f8c9158617ec899a78e3dda430118", "is_reserved": 0, "fusion_lon": 0.0, "bike_id": "e89f8c9158617ec899a78e3dda430118", "lat": 38.90564066666666, "is_disabled": 0, "lon": -77.00392316666667, "fusion_lat": 0.0, "rental_uris": {"ios": "https://dc.lft.to/lastmile_qr_scan", "android": "https://dc.lft.to/lastmile_qr_scan"}, "type": "electric_scooter"}, {"name": "accfaa922c12727056d14cfea81f211d", "is_reserved": 0, "fusion_lon": 0.0, "bike_id": "accfaa922c12727056d14cfea81f211d", "lat": 38.892581, "is_disabled": 0, "lon": -76.9837295, "fusion_lat": 0.0, "rental_uris": {"ios": "https://dc.lft.to/lastmile_qr_scan", "android": "https://dc.lft.to/lastmile_qr_scan"}, "type": "electric_scooter"}, {"name": "ec64e6f0c7a9308e29837d3cde5fd51a", "is_reserved": 0, "fusion_lon": 0.0, "bike_id": "ec64e6f0c7a9308e29837d3cde5fd51a", "lat": 38.939673, "is_disabled": 0, "lon": -77.02942533333334, "fusion_lat": 0.0, "rental_uris": {"ios": "https://dc.lft.to/lastmile_qr_scan", "android": "https://dc.lft.to/lastmile_qr_scan"}, "type": "electric_scooter"}, {"name": "06b31721a3110a6bc8cd2f01fcdf14c5", "is_reserved": 0, "fusion_lon": 0.0, "bike_id": "06b31721a3110a6bc8cd2f01fcdf14c5", "lat": 38.915415833333334, "is_disabled": 0, "lon": -77.02339816666667, "fusion_lat": 0.0, "rental_uris": {"ios": "https://dc.lft.to/lastmile_qr_scan", "android": "https://dc.lft.to/lastmile_qr_scan"}, "type": "electric_scooter"}, {"name": "91e102e37ec8b579b8cda3a379858f8b", "is_reserved": 0, "fusion_lon": 0.0, "bike_id": "91e102e37ec8b579b8cda3a379858f8b", "lat": 38.90282, "is_disabled": 0, "lon": -77.03635866666667, "fusion_lat": 0.0, "rental_uris": {"ios": "https://dc.lft.to/lastmile_qr_scan", "android": "https://dc.lft.to/lastmile_qr_scan"}, "type": "electric_scooter"}, {"name": "10a03c3a304287e2ed191ab29dfc4bae", "is_reserved": 0, "fusion_lon": 0.0, "bike_id": "10a03c3a304287e2ed191ab29dfc4bae", "lat": 38.88612066666666, "is_disabled": 0, "lon": -77.022024, "fusion_lat": 0.0, "rental_uris": {"ios": "https://dc.lft.to/lastmile_qr_scan", "android": "https://dc.lft.to/lastmile_qr_scan"}, "type": "electric_scooter"}, {"name": "9d2283cfb7d950cb84511ca753942d19", "is_reserved": 0, "fusion_lon": 0.0, "bike_id": "9d2283cfb7d950cb84511ca753942d19", "lat": 38.893626833333336, "is_disabled": 0, "lon": -77.003304, "fusion_lat": 0.0, "rental_uris": {"ios": "https://dc.lft.to/lastmile_qr_scan", "android": "https://dc.lft.to/lastmile_qr_scan"}, "type": "electric_scooter"}, {"name": "069727b3532f6e9f541b583fb3d24588", "is_reserved": 0, "fusion_lon": 0.0, "bike_id": "069727b3532f6e9f541b583fb3d24588", "lat": 38.8651745, "is_disabled": 0, "lon": -76.97323333333334, "fusion_lat": 0.0, "rental_uris": {"ios": "https://dc.lft.to/lastmile_qr_scan", "android": "https://dc.lft.to/lastmile_qr_scan"}, "type": "electric_bike"}, {"name": "4d7eca9452f9212d9dd639ad25f01b25", "is_reserved": 0, "fusion_lon": 0.0, "bike_id": "4d7eca9452f9212d9dd639ad25f01b25", "lat": 38.90087033333333, "is_disabled": 0, "lon": -77.03435683333333, "fusion_lat": 0.0, "rental_uris": {"ios": "https://dc.lft.to/lastmile_qr_scan", "android": "https://dc.lft.to/lastmile_qr_scan"}, "type": "electric_scooter"}, {"name": "2fb86d715d18101e3167fd1c2410acfd", "is_reserved": 0, "fusion_lon": 0.0, "bike_id": "2fb86d715d18101e3167fd1c2410acfd", "lat": 38.94175933333333, "is_disabled": 0, "lon": -77.02401066666667, "fusion_lat": 0.0, "rental_uris": {"ios": "https://dc.lft.to/lastmile_qr_scan", "android": "https://dc.lft.to/lastmile_qr_scan"}, "type": "electric_scooter"}, {"name": "24f62aa715bad3ad7acda179809359ae", "is_reserved": 0, "fusion_lon": 0.0, "bike_id": "24f62aa715bad3ad7acda179809359ae", "lat": 38.89512, "is_disabled": 0, "lon": -76.94883716666666, "fusion_lat": 0.0, "rental_uris": {"ios": "https://dc.lft.to/lastmile_qr_scan", "android": "https://dc.lft.to/lastmile_qr_scan"}, "type": "electric_scooter"}, {"name": "d36787674292c9ba6ca8b6774833c8d1", "is_reserved": 0, "fusion_lon": 0.0, "bike_id": "d36787674292c9ba6ca8b6774833c8d1", "lat": 38.8773515, "is_disabled": 0, "lon": -77.14869416666667, "fusion_lat": 0.0, "rental_uris": {"ios": "https://dc.lft.to/lastmile_qr_scan", "android": "https://dc.lft.to/lastmile_qr_scan"}, "type": "electric_bike"}, {"name": "7c529f78b91ffad55cb8f35c71ee397d", "is_reserved": 0, "fusion_lon": 0.0, "bike_id": "7c529f78b91ffad55cb8f35c71ee397d", "lat": 38.89551683333333, "is_disabled": 0, "lon": -77.00914016666667, "fusion_lat": 0.0, "rental_uris": {"ios": "https://dc.lft.to/lastmile_qr_scan", "android": "https://dc.lft.to/lastmile_qr_scan"}, "type": "electric_scooter"}, {"name": "d4c92d3f53e7b7d5870c35185186d55a", "is_reserved": 0, "fusion_lon": 0.0, "bike_id": "d4c92d3f53e7b7d5870c35185186d55a", "lat": 38.9290465, "is_disabled": 0, "lon": -77.032476, "fusion_lat": 0.0, "rental_uris": {"ios": "https://dc.lft.to/lastmile_qr_scan", "android": "https://dc.lft.to/lastmile_qr_scan"}, "type": "electric_scooter"}, {"name": "deea04b00e8d5ac34085c85b7dea593f", "is_reserved": 0, "fusion_lon": 0.0, "bike_id": "deea04b00e8d5ac34085c85b7dea593f", "lat": 38.907517166666665, "is_disabled": 0, "lon": -77.016931, "fusion_lat": 0.0, "rental_uris": {"ios": "https://dc.lft.to/lastmile_qr_scan", "android": "https://dc.lft.to/lastmile_qr_scan"}, "type": "electric_scooter"}, {"name": "061d2447f56cc1d74bed7dc517054e6f", "is_reserved": 0, "fusion_lon": 0.0, "bike_id": "061d2447f56cc1d74bed7dc517054e6f", "lat": 38.90553883333333, "is_disabled": 0, "lon": -77.03401666666667, "fusion_lat": 0.0, "rental_uris": {"ios": "https://dc.lft.to/lastmile_qr_scan", "android": "https://dc.lft.to/lastmile_qr_scan"}, "type": "electric_scooter"}, {"name": "d402d95e7f6b82075474b3d22fdec6c6", "is_reserved": 0, "fusion_lon": 0.0, "bike_id": "d402d95e7f6b82075474b3d22fdec6c6", "lat": 38.91184716666667, "is_disabled": 0, "lon": -77.07510266666667, "fusion_lat": 0.0, "rental_uris": {"ios": "https://dc.lft.to/lastmile_qr_scan", "android": "https://dc.lft.to/lastmile_qr_scan"}, "type": "electric_scooter"}, {"name": "69b65ba0f8e1f320df0cdeab2d222021", "is_reserved": 0, "fusion_lon": 0.0, "bike_id": "69b65ba0f8e1f320df0cdeab2d222021", "lat": 38.88478416666667, "is_disabled": 0, "lon": -77.0334945, "fusion_lat": 0.0, "rental_uris": {"ios": "https://dc.lft.to/lastmile_qr_scan", "android": "https://dc.lft.to/lastmile_qr_scan"}, "type": "electric_scooter"}, {"name": "915bd8423e54fc92d9c5f997c9d3e718", "is_reserved": 0, "fusion_lon": 0.0, "bike_id": "915bd8423e54fc92d9c5f997c9d3e718", "lat": 38.916010166666666, "is_disabled": 0, "lon": -77.04580766666666, "fusion_lat": 0.0, "rental_uris": {"ios": "https://dc.lft.to/lastmile_qr_scan", "android": "https://dc.lft.to/lastmile_qr_scan"}, "type": "electric_scooter"}, {"name": "322756ece93d16e1e39e03b76d8587d8", "is_reserved": 0, "fusion_lon": 0.0, "bike_id": "322756ece93d16e1e39e03b76d8587d8", "lat": 38.95644383333333, "is_disabled": 0, "lon": -77.019334, "fusion_lat": 0.0, "rental_uris": {"ios": "https://dc.lft.to/lastmile_qr_scan", "android": "https://dc.lft.to/lastmile_qr_scan"}, "type": "electric_scooter"}, {"name": "7bd864df380e1859c6c39a2aad4d3fbc", "is_reserved": 0, "fusion_lon": 0.0, "bike_id": "7bd864df380e1859c6c39a2aad4d3fbc", "lat": 38.923505166666665, "is_disabled": 0, "lon": -77.04147366666666, "fusion_lat": 0.0, "rental_uris": {"ios": "https://dc.lft.to/lastmile_qr_scan", "android": "https://dc.lft.to/lastmile_qr_scan"}, "type": "electric_scooter"}, {"name": "57ae50c11738012b4c31ea07ab0e304c", "is_reserved": 0, "fusion_lon": 0.0, "bike_id": "57ae50c11738012b4c31ea07ab0e304c", "lat": 38.89150333333333, "is_disabled": 0, "lon": -76.98357483333334, "fusion_lat": 0.0, "rental_uris": {"ios": "https://dc.lft.to/lastmile_qr_scan", "android": "https://dc.lft.to/lastmile_qr_scan"}, "type": "electric_scooter"}, {"name": "c20385c3ab14503efbc7a6ac2b043062", "is_reserved": 0, "fusion_lon": 0.0, "bike_id": "c20385c3ab14503efbc7a6ac2b043062", "lat": 38.90901066666667, "is_disabled": 0, "lon": -77.04146583333333, "fusion_lat": 0.0, "rental_uris": {"ios": "https://dc.lft.to/lastmile_qr_scan", "android": "https://dc.lft.to/lastmile_qr_scan"}, "type": "electric_scooter"}, {"name": "9f02ef4d6d75371ecd8983ae65642094", "is_reserved": 0, "fusion_lon": 0.0, "bike_id": "9f02ef4d6d75371ecd8983ae65642094", "lat": 38.905059333333334, "is_disabled": 0, "lon": -77.04077133333334, "fusion_lat": 0.0, "rental_uris": {"ios": "https://dc.lft.to/lastmile_qr_scan", "android": "https://dc.lft.to/lastmile_qr_scan"}, "type": "electric_scooter"}, {"name": "09e22023b6edd802817f61273267203c", "is_reserved": 0, "fusion_lon": 0.0, "bike_id": "09e22023b6edd802817f61273267203c", "lat": 38.88480533333333, "is_disabled": 0, "lon": -77.00708566666667, "fusion_lat": 0.0, "rental_uris": {"ios": "https://dc.lft.to/lastmile_qr_scan", "android": "https://dc.lft.to/lastmile_qr_scan"}, "type": "electric_scooter"}, {"name": "73e669d9a7730a6804d34460beba1ee6", "is_reserved": 0, "fusion_lon": 0.0, "bike_id": "73e669d9a7730a6804d34460beba1ee6", "lat": 38.94916933333333, "is_disabled": 0, "lon": -77.0185565, "fusion_lat": 0.0, "rental_uris": {"ios": "https://dc.lft.to/lastmile_qr_scan", "android": "https://dc.lft.to/lastmile_qr_scan"}, "type": "electric_scooter"}, {"name": "bd006fd1fcf42677df4319e12538d213", "is_reserved": 0, "fusion_lon": 0.0, "bike_id": "bd006fd1fcf42677df4319e12538d213", "lat": 38.89942683333334, "is_disabled": 0, "lon": -77.02577083333334, "fusion_lat": 0.0, "rental_uris": {"ios": "https://dc.lft.to/lastmile_qr_scan", "android": "https://dc.lft.to/lastmile_qr_scan"}, "type": "electric_scooter"}, {"name": "0fc019e8bae2a62e81bcd8acadd5427f", "is_reserved": 0, "fusion_lon": 0.0, "bike_id": "0fc019e8bae2a62e81bcd8acadd5427f", "lat": 38.89621783333333, "is_disabled": 0, "lon": -76.985647, "fusion_lat": 0.0, "rental_uris": {"ios": "https://dc.lft.to/lastmile_qr_scan", "android": "https://dc.lft.to/lastmile_qr_scan"}, "type": "electric_scooter"}, {"name": "36e7bbd3e7e6f676144b09faf1b84497", "is_reserved": 0, "fusion_lon": 0.0, "bike_id": "36e7bbd3e7e6f676144b09faf1b84497", "lat": 38.916589, "is_disabled": 0, "lon": -77.056935, "fusion_lat": 0.0, "rental_uris": {"ios": "https://dc.lft.to/lastmile_qr_scan", "android": "https://dc.lft.to/lastmile_qr_scan"}, "type": "electric_scooter"}, {"name": "388fc4eb18cf30b192208745d2e8b94a", "is_reserved": 0, "fusion_lon": 0.0, "bike_id": "388fc4eb18cf30b192208745d2e8b94a", "lat": 38.89391366666667, "is_disabled": 0, "lon": -77.05475, "fusion_lat": 0.0, "rental_uris": {"ios": "https://dc.lft.to/lastmile_qr_scan", "android": "https://dc.lft.to/lastmile_qr_scan"}, "type": "electric_scooter"}, {"name": "30ed8927a8a205ec22a47233d915bfc1", "is_reserved": 0, "fusion_lon": 0.0, "bike_id": "30ed8927a8a205ec22a47233d915bfc1", "lat": 38.900549166666664, "is_disabled": 0, "lon": -76.99344116666667, "fusion_lat": 0.0, "rental_uris": {"ios": "https://dc.lft.to/lastmile_qr_scan", "android": "https://dc.lft.to/lastmile_qr_scan"}, "type": "electric_scooter"}, {"name": "086cdc7b898d4dcef159834f41137c53", "is_reserved": 0, "fusion_lon": 0.0, "bike_id": "086cdc7b898d4dcef159834f41137c53", "lat": 38.8922135, "is_disabled": 0, "lon": -77.015565, "fusion_lat": 0.0, "rental_uris": {"ios": "https://dc.lft.to/lastmile_qr_scan", "android": "https://dc.lft.to/lastmile_qr_scan"}, "type": "electric_scooter"}, {"name": "c358c24680df05c5aa21584f50213f6c", "is_reserved": 0, "fusion_lon": 0.0, "bike_id": "c358c24680df05c5aa21584f50213f6c", "lat": 38.96383933333333, "is_disabled": 0, "lon": -77.02767766666666, "fusion_lat": 0.0, "rental_uris": {"ios": "https://dc.lft.to/lastmile_qr_scan", "android": "https://dc.lft.to/lastmile_qr_scan"}, "type": "electric_scooter"}, {"name": "90988e0e45a77e30344c3cee2abb0746", "is_reserved": 0, "fusion_lon": 0.0, "bike_id": "90988e0e45a77e30344c3cee2abb0746", "lat": 38.92357066666667, "is_disabled": 0, "lon": -77.02118716666666, "fusion_lat": 0.0, "rental_uris": {"ios": "https://dc.lft.to/lastmile_qr_scan", "android": "https://dc.lft.to/lastmile_qr_scan"}, "type": "electric_scooter"}, {"name": "b8589d9a4b5d1622aded0618723759e5", "is_reserved": 0, "fusion_lon": 0.0, "bike_id": "b8589d9a4b5d1622aded0618723759e5", "lat": 38.937254, "is_disabled": 0, "lon": -77.03278783333333, "fusion_lat": 0.0, "rental_uris": {"ios": "https://dc.lft.to/lastmile_qr_scan", "android": "https://dc.lft.to/lastmile_qr_scan"}, "type": "electric_scooter"}, {"name": "5e2c7b4cef3ff04571a1f236590d8d99", "is_reserved": 0, "fusion_lon": 0.0, "bike_id": "5e2c7b4cef3ff04571a1f236590d8d99", "lat": 38.9000265, "is_disabled": 0, "lon": -76.97742983333333, "fusion_lat": 0.0, "rental_uris": {"ios": "https://dc.lft.to/lastmile_qr_scan", "android": "https://dc.lft.to/lastmile_qr_scan"}, "type": "electric_scooter"}, {"name": "8f5b4e450f40994c8c0341fa25ad4880", "is_reserved": 0, "fusion_lon": 0.0, "bike_id": "8f5b4e450f40994c8c0341fa25ad4880", "lat": 38.885917, "is_disabled": 0, "lon": -76.92497433333334, "fusion_lat": 0.0, "rental_uris": {"ios": "https://dc.lft.to/lastmile_qr_scan", "android": "https://dc.lft.to/lastmile_qr_scan"}, "type": "electric_scooter"}, {"name": "a772aa912ba4970a1c95747d2127d980", "is_reserved": 0, "fusion_lon": 0.0, "bike_id": "a772aa912ba4970a1c95747d2127d980", "lat": 38.900624, "is_disabled": 0, "lon": -77.04023333333333, "fusion_lat": 0.0, "rental_uris": {"ios": "https://dc.lft.to/lastmile_qr_scan", "android": "https://dc.lft.to/lastmile_qr_scan"}, "type": "electric_bike"}, {"name": "c0f6f4045efcd2b78c3095688f2ecd12", "is_reserved": 0, "fusion_lon": 0.0, "bike_id": "c0f6f4045efcd2b78c3095688f2ecd12", "lat": 38.89693966666667, "is_disabled": 0, "lon": -77.02261716666666, "fusion_lat": 0.0, "rental_uris": {"ios": "https://dc.lft.to/lastmile_qr_scan", "android": "https://dc.lft.to/lastmile_qr_scan"}, "type": "electric_scooter"}, {"name": "aefef84f410288963e8aba75c66f55c2", "is_reserved": 0, "fusion_lon": 0.0, "bike_id": "aefef84f410288963e8aba75c66f55c2", "lat": 38.898427833333336, "is_disabled": 0, "lon": -77.04880666666666, "fusion_lat": 0.0, "rental_uris": {"ios": "https://dc.lft.to/lastmile_qr_scan", "android": "https://dc.lft.to/lastmile_qr_scan"}, "type": "electric_scooter"}, {"name": "72036c4cd595dfa41a6e98e1dfcacde3", "is_reserved": 0, "fusion_lon": 0.0, "bike_id": "72036c4cd595dfa41a6e98e1dfcacde3", "lat": 38.91277866666667, "is_disabled": 0, "lon": -77.0224555, "fusion_lat": 0.0, "rental_uris": {"ios": "https://dc.lft.to/lastmile_qr_scan", "android": "https://dc.lft.to/lastmile_qr_scan"}, "type": "electric_scooter"}, {"name": "60e0dcdd23409bccf2c42a2aa9b0dd10", "is_reserved": 0, "fusion_lon": 0.0, "bike_id": "60e0dcdd23409bccf2c42a2aa9b0dd10", "lat": 38.89233266666667, "is_disabled": 0, "lon": -77.002937, "fusion_lat": 0.0, "rental_uris": {"ios": "https://dc.lft.to/lastmile_qr_scan", "android": "https://dc.lft.to/lastmile_qr_scan"}, "type": "electric_scooter"}, {"name": "55fe8c6f2636f90cfbe85e3ae5735b61", "is_reserved": 0, "fusion_lon": 0.0, "bike_id": "55fe8c6f2636f90cfbe85e3ae5735b61", "lat": 38.903401, "is_disabled": 0, "lon": -77.0383125, "fusion_lat": 0.0, "rental_uris": {"ios": "https://dc.lft.to/lastmile_qr_scan", "android": "https://dc.lft.to/lastmile_qr_scan"}, "type": "electric_scooter"}, {"name": "db9f34043c4e5f83a75aa6d938af57df", "is_reserved": 0, "fusion_lon": 0.0, "bike_id": "db9f34043c4e5f83a75aa6d938af57df", "lat": 38.89886116666667, "is_disabled": 0, "lon": -77.04048033333333, "fusion_lat": 0.0, "rental_uris": {"ios": "https://dc.lft.to/lastmile_qr_scan", "android": "https://dc.lft.to/lastmile_qr_scan"}, "type": "electric_scooter"}, {"name": "409ffbe01a1507459423e5884c7ca00d", "is_reserved": 0, "fusion_lon": 0.0, "bike_id": "409ffbe01a1507459423e5884c7ca00d", "lat": 38.899090666666666, "is_disabled": 0, "lon": -76.9338495, "fusion_lat": 0.0, "rental_uris": {"ios": "https://dc.lft.to/lastmile_qr_scan", "android": "https://dc.lft.to/lastmile_qr_scan"}, "type": "electric_scooter"}, {"name": "e0cd48a9a149a8d80c9853547ccfab33", "is_reserved": 0, "fusion_lon": 0.0, "bike_id": "e0cd48a9a149a8d80c9853547ccfab33", "lat": 38.90782633333333, "is_disabled": 0, "lon": -77.02299416666666, "fusion_lat": 0.0, "rental_uris": {"ios": "https://dc.lft.to/lastmile_qr_scan", "android": "https://dc.lft.to/lastmile_qr_scan"}, "type": "electric_scooter"}, {"name": "03808909f9cb6a14422c8ce9700a68e9", "is_reserved": 0, "fusion_lon": 0.0, "bike_id": "03808909f9cb6a14422c8ce9700a68e9", "lat": 38.90850966666667, "is_disabled": 0, "lon": -77.06390316666666, "fusion_lat": 0.0, "rental_uris": {"ios": "https://dc.lft.to/lastmile_qr_scan", "android": "https://dc.lft.to/lastmile_qr_scan"}, "type": "electric_scooter"}, {"name": "b4d70e6b1410a9390ff87ff9ffb676b8", "is_reserved": 0, "fusion_lon": 0.0, "bike_id": "b4d70e6b1410a9390ff87ff9ffb676b8", "lat": 38.964549166666664, "is_disabled": 0, "lon": -77.03572566666666, "fusion_lat": 0.0, "rental_uris": {"ios": "https://dc.lft.to/lastmile_qr_scan", "android": "https://dc.lft.to/lastmile_qr_scan"}, "type": "electric_bike"}, {"name": "3ae5a4cf1216ea57556c75e0879992cb", "is_reserved": 0, "fusion_lon": 0.0, "bike_id": "3ae5a4cf1216ea57556c75e0879992cb", "lat": 38.93601866666667, "is_disabled": 0, "lon": -77.002172, "fusion_lat": 0.0, "rental_uris": {"ios": "https://dc.lft.to/lastmile_qr_scan", "android": "https://dc.lft.to/lastmile_qr_scan"}, "type": "electric_bike"}, {"name": "13f283222bc0c505e8a355fc7a4349d1", "is_reserved": 0, "fusion_lon": 0.0, "bike_id": "13f283222bc0c505e8a355fc7a4349d1", "lat": 38.922353333333334, "is_disabled": 0, "lon": -77.03650383333333, "fusion_lat": 0.0, "rental_uris": {"ios": "https://dc.lft.to/lastmile_qr_scan", "android": "https://dc.lft.to/lastmile_qr_scan"}, "type": "electric_scooter"}, {"name": "6d83d134d54d43af567e4875c2e759e3", "is_reserved": 0, "fusion_lon": 0.0, "bike_id": "6d83d134d54d43af567e4875c2e759e3", "lat": 38.866179, "is_disabled": 0, "lon": -76.94568833333334, "fusion_lat": 0.0, "rental_uris": {"ios": "https://dc.lft.to/lastmile_qr_scan", "android": "https://dc.lft.to/lastmile_qr_scan"}, "type": "electric_bike"}, {"name": "d96112fd2b1a28b07cb68e1338241f7a", "is_reserved": 0, "fusion_lon": 0.0, "bike_id": "d96112fd2b1a28b07cb68e1338241f7a", "lat": 38.95239183333333, "is_disabled": 0, "lon": -77.09621133333333, "fusion_lat": 0.0, "rental_uris": {"ios": "https://dc.lft.to/lastmile_qr_scan", "android": "https://dc.lft.to/lastmile_qr_scan"}, "type": "electric_bike"}, {"name": "86a54efe87c26208c49f27a1e8cd955d", "is_reserved": 0, "fusion_lon": 0.0, "bike_id": "86a54efe87c26208c49f27a1e8cd955d", "lat": 38.902361, "is_disabled": 0, "lon": -77.03969633333334, "fusion_lat": 0.0, "rental_uris": {"ios": "https://dc.lft.to/lastmile_qr_scan", "android": "https://dc.lft.to/lastmile_qr_scan"}, "type": "electric_scooter"}, {"name": "231b0b781b5c8c62b3300ef09ae00600", "is_reserved": 0, "fusion_lon": 0.0, "bike_id": "231b0b781b5c8c62b3300ef09ae00600", "lat": 38.90260716666667, "is_disabled": 0, "lon": -77.02752016666666, "fusion_lat": 0.0, "rental_uris": {"ios": "https://dc.lft.to/lastmile_qr_scan", "android": "https://dc.lft.to/lastmile_qr_scan"}, "type": "electric_scooter"}, {"name": "b4b2c0a66ab143cc73a0bfb264cacd42", "is_reserved": 0, "fusion_lon": 0.0, "bike_id": "b4b2c0a66ab143cc73a0bfb264cacd42", "lat": 38.89196183333333, "is_disabled": 0, "lon": -77.03390033333334, "fusion_lat": 0.0, "rental_uris": {"ios": "https://dc.lft.to/lastmile_qr_scan", "android": "https://dc.lft.to/lastmile_qr_scan"}, "type": "electric_bike"}, {"name": "dade1ef6f8f1fc5008d8325b76127322", "is_reserved": 0, "fusion_lon": 0.0, "bike_id": "dade1ef6f8f1fc5008d8325b76127322", "lat": 38.91120816666667, "is_disabled": 0, "lon": -77.03735633333334, "fusion_lat": 0.0, "rental_uris": {"ios": "https://dc.lft.to/lastmile_qr_scan", "android": "https://dc.lft.to/lastmile_qr_scan"}, "type": "electric_scooter"}, {"name": "64d4b6443c69408b7799c449e84caf76", "is_reserved": 0, "fusion_lon": 0.0, "bike_id": "64d4b6443c69408b7799c449e84caf76", "lat": 38.88431166666667, "is_disabled": 0, "lon": -76.99595483333333, "fusion_lat": 0.0, "rental_uris": {"ios": "https://dc.lft.to/lastmile_qr_scan", "android": "https://dc.lft.to/lastmile_qr_scan"}, "type": "electric_scooter"}, {"name": "e7fbbfb02b2f0b797318ee39ba8acc80", "is_reserved": 0, "fusion_lon": 0.0, "bike_id": "e7fbbfb02b2f0b797318ee39ba8acc80", "lat": 38.907190166666666, "is_disabled": 0, "lon": -77.032142, "fusion_lat": 0.0, "rental_uris": {"ios": "https://dc.lft.to/lastmile_qr_scan", "android": "https://dc.lft.to/lastmile_qr_scan"}, "type": "electric_scooter"}, {"name": "1e43a309f2a01bca4e59f4b24ada846a", "is_reserved": 0, "fusion_lon": 0.0, "bike_id": "1e43a309f2a01bca4e59f4b24ada846a", "lat": 38.91071783333334, "is_disabled": 0, "lon": -77.0162455, "fusion_lat": 0.0, "rental_uris": {"ios": "https://dc.lft.to/lastmile_qr_scan", "android": "https://dc.lft.to/lastmile_qr_scan"}, "type": "electric_scooter"}, {"name": "6e58fdea42e083cba74444edbcb1aa34", "is_reserved": 0, "fusion_lon": 0.0, "bike_id": "6e58fdea42e083cba74444edbcb1aa34", "lat": 38.8993335, "is_disabled": 0, "lon": -77.0015385, "fusion_lat": 0.0, "rental_uris": {"ios": "https://dc.lft.to/lastmile_qr_scan", "android": "https://dc.lft.to/lastmile_qr_scan"}, "type": "electric_bike"}, {"name": "34e622994c16f8c3bcdae204c803fc2b", "is_reserved": 0, "fusion_lon": 0.0, "bike_id": "34e622994c16f8c3bcdae204c803fc2b", "lat": 38.90776, "is_disabled": 0, "lon": -77.0816945, "fusion_lat": 0.0, "rental_uris": {"ios": "https://dc.lft.to/lastmile_qr_scan", "android": "https://dc.lft.to/lastmile_qr_scan"}, "type": "electric_bike"}, {"name": "8bb4057c8f83ce4243bca202a7bb1627", "is_reserved": 0, "fusion_lon": 0.0, "bike_id": "8bb4057c8f83ce4243bca202a7bb1627", "lat": 38.927007, "is_disabled": 0, "lon": -77.02383516666667, "fusion_lat": 0.0, "rental_uris": {"ios": "https://dc.lft.to/lastmile_qr_scan", "android": "https://dc.lft.to/lastmile_qr_scan"}, "type": "electric_scooter"}, {"name": "6659771762a017dfcfddfeec14652254", "is_reserved": 0, "fusion_lon": 0.0, "bike_id": "6659771762a017dfcfddfeec14652254", "lat": 38.886023, "is_disabled": 0, "lon": -76.98540366666667, "fusion_lat": 0.0, "rental_uris": {"ios": "https://dc.lft.to/lastmile_qr_scan", "android": "https://dc.lft.to/lastmile_qr_scan"}, "type": "electric_scooter"}, {"name": "83b09ba7589bfb609c14ba459fd12460", "is_reserved": 0, "fusion_lon": 0.0, "bike_id": "83b09ba7589bfb609c14ba459fd12460", "lat": 38.9019055, "is_disabled": 0, "lon": -77.046299, "fusion_lat": 0.0, "rental_uris": {"ios": "https://dc.lft.to/lastmile_qr_scan", "android": "https://dc.lft.to/lastmile_qr_scan"}, "type": "electric_scooter"}, {"name": "d3d38fde0fc0b18475eca11a55958492", "is_reserved": 0, "fusion_lon": 0.0, "bike_id": "d3d38fde0fc0b18475eca11a55958492", "lat": 38.96671933333333, "is_disabled": 0, "lon": -77.0230085, "fusion_lat": 0.0, "rental_uris": {"ios": "https://dc.lft.to/lastmile_qr_scan", "android": "https://dc.lft.to/lastmile_qr_scan"}, "type": "electric_bike"}, {"name": "ca5c32e960f80968705cdf2ca83724be", "is_reserved": 0, "fusion_lon": 0.0, "bike_id": "ca5c32e960f80968705cdf2ca83724be", "lat": 38.912669, "is_disabled": 0, "lon": -77.03871433333333, "fusion_lat": 0.0, "rental_uris": {"ios": "https://dc.lft.to/lastmile_qr_scan", "android": "https://dc.lft.to/lastmile_qr_scan"}, "type": "electric_scooter"}, {"name": "6f62f6b61b5c8a3f5513dad9a890f401", "is_reserved": 0, "fusion_lon": 0.0, "bike_id": "6f62f6b61b5c8a3f5513dad9a890f401", "lat": 38.83062233333333, "is_disabled": 0, "lon": -77.040744, "fusion_lat": 0.0, "rental_uris": {"ios": "https://dc.lft.to/lastmile_qr_scan", "android": "https://dc.lft.to/lastmile_qr_scan"}, "type": "electric_bike"}, {"name": "ac4ef5e0e725c8c9fa0a63007305dc1e", "is_reserved": 0, "fusion_lon": 0.0, "bike_id": "ac4ef5e0e725c8c9fa0a63007305dc1e", "lat": 38.89627816666667, "is_disabled": 0, "lon": -77.02213433333333, "fusion_lat": 0.0, "rental_uris": {"ios": "https://dc.lft.to/lastmile_qr_scan", "android": "https://dc.lft.to/lastmile_qr_scan"}, "type": "electric_scooter"}, {"name": "6136beb96317c19ff82e6a2015272b91", "is_reserved": 0, "fusion_lon": 0.0, "bike_id": "6136beb96317c19ff82e6a2015272b91", "lat": 38.920444, "is_disabled": 0, "lon": -77.01678283333334, "fusion_lat": 0.0, "rental_uris": {"ios": "https://dc.lft.to/lastmile_qr_scan", "android": "https://dc.lft.to/lastmile_qr_scan"}, "type": "electric_scooter"}, {"name": "11bd7cfdbba9ff85324856a8c88e56fe", "is_reserved": 0, "fusion_lon": 0.0, "bike_id": "11bd7cfdbba9ff85324856a8c88e56fe", "lat": 38.88073766666667, "is_disabled": 0, "lon": -76.985207, "fusion_lat": 0.0, "rental_uris": {"ios": "https://dc.lft.to/lastmile_qr_scan", "android": "https://dc.lft.to/lastmile_qr_scan"}, "type": "electric_scooter"}, {"name": "fd30931a96025fb4a66d1fa3ae369e16", "is_reserved": 0, "fusion_lon": 0.0, "bike_id": "fd30931a96025fb4a66d1fa3ae369e16", "lat": 38.89979733333333, "is_disabled": 0, "lon": -77.02226566666667, "fusion_lat": 0.0, "rental_uris": {"ios": "https://dc.lft.to/lastmile_qr_scan", "android": "https://dc.lft.to/lastmile_qr_scan"}, "type": "electric_scooter"}, {"name": "7b38151dd8cd8317e0db956b146b40ba", "is_reserved": 0, "fusion_lon": 0.0, "bike_id": "7b38151dd8cd8317e0db956b146b40ba", "lat": 38.92548816666667, "is_disabled": 0, "lon": -76.97205383333333, "fusion_lat": 0.0, "rental_uris": {"ios": "https://dc.lft.to/lastmile_qr_scan", "android": "https://dc.lft.to/lastmile_qr_scan"}, "type": "electric_scooter"}, {"name": "f157cf3a8d0ff162539dcbc29c4c2c6e", "is_reserved": 0, "fusion_lon": 0.0, "bike_id": "f157cf3a8d0ff162539dcbc29c4c2c6e", "lat": 38.9120615, "is_disabled": 0, "lon": -77.03858316666667, "fusion_lat": 0.0, "rental_uris": {"ios": "https://dc.lft.to/lastmile_qr_scan", "android": "https://dc.lft.to/lastmile_qr_scan"}, "type": "electric_scooter"}, {"name": "b8585a25b621620e23962107bf6b5336", "is_reserved": 0, "fusion_lon": 0.0, "bike_id": "b8585a25b621620e23962107bf6b5336", "lat": 38.886104333333336, "is_disabled": 0, "lon": -76.977034, "fusion_lat": 0.0, "rental_uris": {"ios": "https://dc.lft.to/lastmile_qr_scan", "android": "https://dc.lft.to/lastmile_qr_scan"}, "type": "electric_scooter"}, {"name": "775d782d7c716aabce4b90d020431ec1", "is_reserved": 0, "fusion_lon": 0.0, "bike_id": "775d782d7c716aabce4b90d020431ec1", "lat": 38.893918166666666, "is_disabled": 0, "lon": -77.021513, "fusion_lat": 0.0, "rental_uris": {"ios": "https://dc.lft.to/lastmile_qr_scan", "android": "https://dc.lft.to/lastmile_qr_scan"}, "type": "electric_scooter"}, {"name": "dc7b885c27fc0d2d975313845cae77b0", "is_reserved": 0, "fusion_lon": 0.0, "bike_id": "dc7b885c27fc0d2d975313845cae77b0", "lat": 38.93772366666666, "is_disabled": 0, "lon": -77.01989933333333, "fusion_lat": 0.0, "rental_uris": {"ios": "https://dc.lft.to/lastmile_qr_scan", "android": "https://dc.lft.to/lastmile_qr_scan"}, "type": "electric_scooter"}, {"name": "6e66e1ed21818b54785d08d6c9eef8a8", "is_reserved": 0, "fusion_lon": 0.0, "bike_id": "6e66e1ed21818b54785d08d6c9eef8a8", "lat": 38.87539616666667, "is_disabled": 0, "lon": -77.00533083333333, "fusion_lat": 0.0, "rental_uris": {"ios": "https://dc.lft.to/lastmile_qr_scan", "android": "https://dc.lft.to/lastmile_qr_scan"}, "type": "electric_scooter"}, {"name": "a2ccedd6170d38b8913f70a8c1ba93c6", "is_reserved": 0, "fusion_lon": 0.0, "bike_id": "a2ccedd6170d38b8913f70a8c1ba93c6", "lat": 38.901449166666666, "is_disabled": 0, "lon": -77.043983, "fusion_lat": 0.0, "rental_uris": {"ios": "https://dc.lft.to/lastmile_qr_scan", "android": "https://dc.lft.to/lastmile_qr_scan"}, "type": "electric_scooter"}, {"name": "c73922037d102f1361113c5696e0dddd", "is_reserved": 0, "fusion_lon": 0.0, "bike_id": "c73922037d102f1361113c5696e0dddd", "lat": 38.944374833333335, "is_disabled": 0, "lon": -77.06401716666667, "fusion_lat": 0.0, "rental_uris": {"ios": "https://dc.lft.to/lastmile_qr_scan", "android": "https://dc.lft.to/lastmile_qr_scan"}, "type": "electric_scooter"}, {"name": "6e4259f7628609f44408d27a0a22e6cf", "is_reserved": 0, "fusion_lon": 0.0, "bike_id": "6e4259f7628609f44408d27a0a22e6cf", "lat": 38.897473833333336, "is_disabled": 0, "lon": -77.04491633333333, "fusion_lat": 0.0, "rental_uris": {"ios": "https://dc.lft.to/lastmile_qr_scan", "android": "https://dc.lft.to/lastmile_qr_scan"}, "type": "electric_scooter"}, {"name": "84c909715acdbfd7891c21aa7401d93c", "is_reserved": 0, "fusion_lon": 0.0, "bike_id": "84c909715acdbfd7891c21aa7401d93c", "lat": 38.90404083333333, "is_disabled": 0, "lon": -76.973278, "fusion_lat": 0.0, "rental_uris": {"ios": "https://dc.lft.to/lastmile_qr_scan", "android": "https://dc.lft.to/lastmile_qr_scan"}, "type": "electric_scooter"}, {"name": "e0501a08cc4cff6a582f1a847e48038a", "is_reserved": 0, "fusion_lon": 0.0, "bike_id": "e0501a08cc4cff6a582f1a847e48038a", "lat": 38.92362466666667, "is_disabled": 0, "lon": -77.02119266666666, "fusion_lat": 0.0, "rental_uris": {"ios": "https://dc.lft.to/lastmile_qr_scan", "android": "https://dc.lft.to/lastmile_qr_scan"}, "type": "electric_scooter"}, {"name": "9ec0b86bac756ce75bf3ee26cb87c7a5", "is_reserved": 0, "fusion_lon": 0.0, "bike_id": "9ec0b86bac756ce75bf3ee26cb87c7a5", "lat": 38.90036333333333, "is_disabled": 0, "lon": -76.98828283333333, "fusion_lat": 0.0, "rental_uris": {"ios": "https://dc.lft.to/lastmile_qr_scan", "android": "https://dc.lft.to/lastmile_qr_scan"}, "type": "electric_scooter"}, {"name": "805a14ac0f3b24efdc301c7dd4ee69f1", "is_reserved": 0, "fusion_lon": 0.0, "bike_id": "805a14ac0f3b24efdc301c7dd4ee69f1", "lat": 38.860324166666665, "is_disabled": 0, "lon": -76.98371316666666, "fusion_lat": 0.0, "rental_uris": {"ios": "https://dc.lft.to/lastmile_qr_scan", "android": "https://dc.lft.to/lastmile_qr_scan"}, "type": "electric_scooter"}, {"name": "593bee02e327093d127d4b9e1d4881dc", "is_reserved": 0, "fusion_lon": 0.0, "bike_id": "593bee02e327093d127d4b9e1d4881dc", "lat": 38.917926, "is_disabled": 0, "lon": -77.03206483333334, "fusion_lat": 0.0, "rental_uris": {"ios": "https://dc.lft.to/lastmile_qr_scan", "android": "https://dc.lft.to/lastmile_qr_scan"}, "type": "electric_scooter"}, {"name": "c362168678169e0943328f6cc6489e6d", "is_reserved": 0, "fusion_lon": 0.0, "bike_id": "c362168678169e0943328f6cc6489e6d", "lat": 38.9057215, "is_disabled": 0, "lon": -77.062847, "fusion_lat": 0.0, "rental_uris": {"ios": "https://dc.lft.to/lastmile_qr_scan", "android": "https://dc.lft.to/lastmile_qr_scan"}, "type": "electric_bike"}, {"name": "c41b97062604dedbe58999f35791402e", "is_reserved": 0, "fusion_lon": 0.0, "bike_id": "c41b97062604dedbe58999f35791402e", "lat": 38.813329333333336, "is_disabled": 0, "lon": -77.05080483333333, "fusion_lat": 0.0, "rental_uris": {"ios": "https://dc.lft.to/lastmile_qr_scan", "android": "https://dc.lft.to/lastmile_qr_scan"}, "type": "electric_bike"}, {"name": "86fc4087f2f875448b15d5c64975cddb", "is_reserved": 0, "fusion_lon": 0.0, "bike_id": "86fc4087f2f875448b15d5c64975cddb", "lat": 38.92758366666666, "is_disabled": 0, "lon": -77.02753766666666, "fusion_lat": 0.0, "rental_uris": {"ios": "https://dc.lft.to/lastmile_qr_scan", "android": "https://dc.lft.to/lastmile_qr_scan"}, "type": "electric_scooter"}, {"name": "864c5bdf8e1075bfea5490f9024c6752", "is_reserved": 0, "fusion_lon": 0.0, "bike_id": "864c5bdf8e1075bfea5490f9024c6752", "lat": 38.927937666666665, "is_disabled": 0, "lon": -77.22923866666666, "fusion_lat": 0.0, "rental_uris": {"ios": "https://dc.lft.to/lastmile_qr_scan", "android": "https://dc.lft.to/lastmile_qr_scan"}, "type": "electric_bike"}, {"name": "be2fb7fb48735ec4e1f23065ec70f6ea", "is_reserved": 0, "fusion_lon": 0.0, "bike_id": "be2fb7fb48735ec4e1f23065ec70f6ea", "lat": 38.92772, "is_disabled": 0, "lon": -77.02790866666666, "fusion_lat": 0.0, "rental_uris": {"ios": "https://dc.lft.to/lastmile_qr_scan", "android": "https://dc.lft.to/lastmile_qr_scan"}, "type": "electric_scooter"}, {"name": "4af13f69c610e401c09258072c11b805", "is_reserved": 0, "fusion_lon": 0.0, "bike_id": "4af13f69c610e401c09258072c11b805", "lat": 38.90031616666667, "is_disabled": 0, "lon": -77.03712316666666, "fusion_lat": 0.0, "rental_uris": {"ios": "https://dc.lft.to/lastmile_qr_scan", "android": "https://dc.lft.to/lastmile_qr_scan"}, "type": "electric_scooter"}, {"name": "86ed5bcd29277d84ff22f4eb8476e3eb", "is_reserved": 0, "fusion_lon": 0.0, "bike_id": "86ed5bcd29277d84ff22f4eb8476e3eb", "lat": 38.920374833333334, "is_disabled": 0, "lon": -77.016725, "fusion_lat": 0.0, "rental_uris": {"ios": "https://dc.lft.to/lastmile_qr_scan", "android": "https://dc.lft.to/lastmile_qr_scan"}, "type": "electric_scooter"}, {"name": "785bd3dd7417e50da2d1ebe5de884f8e", "is_reserved": 0, "fusion_lon": 0.0, "bike_id": "785bd3dd7417e50da2d1ebe5de884f8e", "lat": 38.91968216666667, "is_disabled": 0, "lon": -77.04503183333334, "fusion_lat": 0.0, "rental_uris": {"ios": "https://dc.lft.to/lastmile_qr_scan", "android": "https://dc.lft.to/lastmile_qr_scan"}, "type": "electric_scooter"}, {"name": "20db422507cdd177f94b216c68dc1647", "is_reserved": 0, "fusion_lon": 0.0, "bike_id": "20db422507cdd177f94b216c68dc1647", "lat": 38.91816133333333, "is_disabled": 0, "lon": -77.03690266666666, "fusion_lat": 0.0, "rental_uris": {"ios": "https://dc.lft.to/lastmile_qr_scan", "android": "https://dc.lft.to/lastmile_qr_scan"}, "type": "electric_scooter"}, {"name": "808302f3afa66e8898f4285353a3ea11", "is_reserved": 0, "fusion_lon": 0.0, "bike_id": "808302f3afa66e8898f4285353a3ea11", "lat": 38.91823983333333, "is_disabled": 0, "lon": -77.036942, "fusion_lat": 0.0, "rental_uris": {"ios": "https://dc.lft.to/lastmile_qr_scan", "android": "https://dc.lft.to/lastmile_qr_scan"}, "type": "electric_scooter"}, {"name": "1879f48c8aa667110680e6406fe9eb95", "is_reserved": 0, "fusion_lon": 0.0, "bike_id": "1879f48c8aa667110680e6406fe9eb95", "lat": 38.892287833333334, "is_disabled": 0, "lon": -77.03168583333333, "fusion_lat": 0.0, "rental_uris": {"ios": "https://dc.lft.to/lastmile_qr_scan", "android": "https://dc.lft.to/lastmile_qr_scan"}, "type": "electric_scooter"}, {"name": "709fb9acaf59a3ff79b1818170718dad", "is_reserved": 0, "fusion_lon": 0.0, "bike_id": "709fb9acaf59a3ff79b1818170718dad", "lat": 38.922678166666664, "is_disabled": 0, "lon": -77.018241, "fusion_lat": 0.0, "rental_uris": {"ios": "https://dc.lft.to/lastmile_qr_scan", "android": "https://dc.lft.to/lastmile_qr_scan"}, "type": "electric_scooter"}, {"name": "05c8f29b77b44d236b0d0ce1be1364b3", "is_reserved": 0, "fusion_lon": 0.0, "bike_id": "05c8f29b77b44d236b0d0ce1be1364b3", "lat": 38.933974, "is_disabled": 0, "lon": -77.05742816666667, "fusion_lat": 0.0, "rental_uris": {"ios": "https://dc.lft.to/lastmile_qr_scan", "android": "https://dc.lft.to/lastmile_qr_scan"}, "type": "electric_scooter"}, {"name": "cb943d1f752ed1010ff93b8d8b11f6e7", "is_reserved": 0, "fusion_lon": 0.0, "bike_id": "cb943d1f752ed1010ff93b8d8b11f6e7", "lat": 38.92903966666667, "is_disabled": 0, "lon": -77.02291383333333, "fusion_lat": 0.0, "rental_uris": {"ios": "https://dc.lft.to/lastmile_qr_scan", "android": "https://dc.lft.to/lastmile_qr_scan"}, "type": "electric_scooter"}, {"name": "7719395c055afc84e04be4fb42c66c47", "is_reserved": 0, "fusion_lon": 0.0, "bike_id": "7719395c055afc84e04be4fb42c66c47", "lat": 38.923445666666666, "is_disabled": 0, "lon": -77.04398716666667, "fusion_lat": 0.0, "rental_uris": {"ios": "https://dc.lft.to/lastmile_qr_scan", "android": "https://dc.lft.to/lastmile_qr_scan"}, "type": "electric_scooter"},