{"data": {"bikes": [{"rental_uris": {"ios": "https://dc.lft.to/lastmile_qr_scan", "android": "https://dc.lft.to/lastmile_qr_scan"}, "lon": -77.04880866666667, "type": "electric_scooter", "fusion_lat": 0.0, "lat": 38.89665866666667, "name": "abc299cc29ae40a60cc687bf31d37934", "fusion_lon": 0.0, "bike_id": "abc299cc29ae40a60cc687bf31d37934", "is_disabled": 0, "is_reserved": 0}, {"rental_uris": {"ios": "https://dc.lft.to/lastmile_qr_scan", "android": "https://dc.lft.to/lastmile_qr_scan"}, "lon": -77.02383616666667, "type": "electric_scooter", "fusion_lat": 0.0, "lat": 38.92500583333333, "name": "0a47bba8630230ea1d91505b5a66615d", "fusion_lon": 0.0, "bike_id": "0a47bba8630230ea1d91505b5a66615d", "is_disabled": 0, "is_reserved": 0}, {"rental_uris": {"ios": "https://dc.lft.to/lastmile_qr_scan", "android": "https://dc.lft.to/lastmile_qr_scan"}, "lon": -77.01270916666667, "type": "electric_scooter", "fusion_lat": 0.0, "lat": 38.91542066666667, "name": "28ff1cb0bffda5b6dd79ff523eaf369e", "fusion_lon": 0.0, "bike_id": "28ff1cb0bffda5b6dd79ff523eaf369e", "is_disabled": 0, "is_reserved": 0}, {"rental_uris": {"ios": "https://dc.lft.to/lastmile_qr_scan", "android": "https://dc.lft.to/lastmile_qr_scan"}, "lon": -77.0354075, "type": "electric_scooter", "fusion_lat": 0.0, "lat": 38.92620516666667, "name": "e3f155be6816da0aec58f1572e906e57", "fusion_lon": 0.0, "bike_id": "e3f155be6816da0aec58f1572e906e57", "is_disabled": 0, "is_reserved": 0}, {"rental_uris": {"ios": "https://dc.lft.to/lastmile_qr_scan", "android": "https://dc.lft.to/lastmile_qr_scan"}, "lon": -77.03557783333333, "type": "electric_scooter", "fusion_lat": 0.0, "lat": 38.917987333333336, "name": "6c838895a2acb7cd2fd747f3ba4b7d32", "fusion_lon": 0.0, "bike_id": "6c838895a2acb7cd2fd747f3ba4b7d32", "is_disabled": 0, "is_reserved": 0}, {"rental_uris": {"ios": "https://dc.lft.to/lastmile_qr_scan", "android": "https://dc.lft.to/lastmile_qr_scan"}, "lon": -76.97704483333334, "type": "electric_scooter", "fusion_lat": 0.0, "lat": 38.897044666666666, "name": "c5ad33c5dd3d3cbf9d585ab3f9058630", "fusion_lon": 0.0, "bike_id": "c5ad33c5dd3d3cbf9d585ab3f9058630", "is_disabled": 0, "is_reserved": 0}, {"rental_uris": {"ios": "https://dc.lft.to/lastmile_qr_scan", "android": "https://dc.lft.to/lastmile_qr_scan"}, "lon": -77.04685533333334, "type": "electric_scooter", "fusion_lat": 0.0, "lat": 38.89218866666667, "name": "8ab592b1fcb7c708591761db236b9656", "fusion_lon": 0.0, "bike_id": "8ab592b1fcb7c708591761db236b9656", "is_disabled": 0, "is_reserved": 0}, {"rental_uris": {"ios": "https://dc.lft.to/lastmile_qr_scan", "android": "https://dc.lft.to/lastmile_qr_scan"}, "lon": -77.035108, "type": "electric_scooter", "fusion_lat": 0.0, "lat": 38.90029783333333, "name": "2d9417963f8d227a83118955d7b5e43f", "fusion_lon": 0.0, "bike_id": "2d9417963f8d227a83118955d7b5e43f", "is_disabled": 0, "is_reserved": 0}, {"rental_uris": {"ios": "https://dc.lft.to/lastmile_qr_scan", "android": "https://dc.lft.to/lastmile_qr_scan"}, "lon": -77.01764266666666, "type": "electric_scooter", "fusion_lat": 0.0, "lat": 38.887301, "name": "d04712052de8e9d51dd51b30ddb1c8aa", "fusion_lon": 0.0, "bike_id": "d04712052de8e9d51dd51b30ddb1c8aa", "is_disabled": 0, "is_reserved": 0}, {"rental_uris": {"ios": "https://dc.lft.to/lastmile_qr_scan", "android": "https://dc.lft.to/lastmile_qr_scan"}, "lon": -77.03584216666667, "type": "electric_scooter", "fusion_lat": 0.0, "lat": 38.90759, "name": "5a275bed1af878c87a0d6e52190abfe2", "fusion_lon": 0.0, "bike_id": "5a275bed1af878c87a0d6e52190abfe2", "is_disabled": 0, "is_reserved": 0}, {"rental_uris": {"ios": "https://dc.lft.to/lastmile_qr_scan", "android": "https://dc.lft.to/lastmile_qr_scan"}, "lon": -76.94889816666667, "type": "electric_scooter", "fusion_lat": 0.0, "lat": 38.895315333333336, "name": "36d63a5f58edeff6d124478b932db6bd", "fusion_lon": 0.0, "bike_id": "36d63a5f58edeff6d124478b932db6bd", "is_disabled": 0, "is_reserved": 0}, {"rental_uris": {"ios": "https://dc.lft.to/lastmile_qr_scan", "android": "https://dc.lft.to/lastmile_qr_scan"}, "lon": -77.06279766666667, "type": "electric_scooter", "fusion_lat": 0.0, "lat": 38.906319833333335, "name": "47f0ae59425370c46262f6451a004d22", "fusion_lon": 0.0, "bike_id": "47f0ae59425370c46262f6451a004d22", "is_disabled": 0, "is_reserved": 0}, {"rental_uris": {"ios": "https://dc.lft.to/lastmile_qr_scan", "android": "https://dc.lft.to/lastmile_qr_scan"}, "lon": -77.05885566666667, "type": "electric_scooter", "fusion_lat": 0.0, "lat": 38.93630133333333, "name": "8b5c7074c63f1a51664dd405d6424a01", "fusion_lon": 0.0, "bike_id": "8b5c7074c63f1a51664dd405d6424a01", "is_disabled": 0, "is_reserved": 0}, {"rental_uris": {"ios": "https://dc.lft.to/lastmile_qr_scan", "android": "https://dc.lft.to/lastmile_qr_scan"}, "lon": -77.04999233333334, "type": "electric_scooter", "fusion_lat": 0.0, "lat": 38.89229783333333, "name": "215a99fa9b8f259b49a1f5480f12ba2b", "fusion_lon": 0.0, "bike_id": "215a99fa9b8f259b49a1f5480f12ba2b", "is_disabled": 0, "is_reserved": 0}, {"rental_uris": {"ios": "https://dc.lft.to/lastmile_qr_scan", "android": "https://dc.lft.to/lastmile_qr_scan"}, "lon": -76.99520666666666, "type": "electric_scooter", "fusion_lat": 0.0, "lat": 38.86259016666666, "name": "17e97f81a1637d7129628c21cd048576", "fusion_lon": 0.0, "bike_id": "17e97f81a1637d7129628c21cd048576", "is_disabled": 0, "is_reserved": 0}, {"rental_uris": {"ios": "https://dc.lft.to/lastmile_qr_scan", "android": "https://dc.lft.to/lastmile_qr_scan"}, "lon": -77.02359716666666, "type": "electric_scooter", "fusion_lat": 0.0, "lat": 38.945184833333336, "name": "e74df1dc007bb6bee71172aae9ee5892", "fusion_lon": 0.0, "bike_id": "e74df1dc007bb6bee71172aae9ee5892", "is_disabled": 0, "is_reserved": 0}, {"rental_uris": {"ios": "https://dc.lft.to/lastmile_qr_scan", "android": "https://dc.lft.to/lastmile_qr_scan"}, "lon": -77.0469145, "type": "electric_scooter", "fusion_lat": 0.0, "lat": 38.897424, "name": "9509e22675e058ec59679e05de3e756d", "fusion_lon": 0.0, "bike_id": "9509e22675e058ec59679e05de3e756d", "is_disabled": 0, "is_reserved": 0}, {"rental_uris": {"ios": "https://dc.lft.to/lastmile_qr_scan", "android": "https://dc.lft.to/lastmile_qr_scan"}, "lon": -77.03330033333333, "type": "electric_scooter", "fusion_lat": 0.0, "lat": 38.928804166666666, "name": "ad46e9261895922e9e4954efde4fe058", "fusion_lon": 0.0, "bike_id": "ad46e9261895922e9e4954efde4fe058", "is_disabled": 0, "is_reserved": 0}, {"rental_uris": {"ios": "https://dc.lft.to/lastmile_qr_scan", "android": "https://dc.lft.to/lastmile_qr_scan"}, "lon": -77.01613883333333, "type": "electric_scooter", "fusion_lat": 0.0, "lat": 38.89958333333333, "name": "a481e6821ea383be971f220731876c7d", "fusion_lon": 0.0, "bike_id": "a481e6821ea383be971f220731876c7d", "is_disabled": 0, "is_reserved": 0}, {"rental_uris": {"ios": "https://dc.lft.to/lastmile_qr_scan", "android": "https://dc.lft.to/lastmile_qr_scan"}, "lon": -77.00737616666666, "type": "electric_scooter", "fusion_lat": 0.0, "lat": 38.90357, "name": "67171a1780b50c67cbadef68c0fc5bd2", "fusion_lon": 0.0, "bike_id": "67171a1780b50c67cbadef68c0fc5bd2", "is_disabled": 0, "is_reserved": 0}, {"rental_uris": {"ios": "https://dc.lft.to/lastmile_qr_scan", "android": "https://dc.lft.to/lastmile_qr_scan"}, "lon": -77.029701, "type": "electric_scooter", "fusion_lat": 0.0, "lat": 38.9360845, "name": "b8ad843676e475e7c5bf3b45efc2510a", "fusion_lon": 0.0, "bike_id": "b8ad843676e475e7c5bf3b45efc2510a", "is_disabled": 0, "is_reserved": 0}, {"rental_uris": {"ios": "https://dc.lft.to/lastmile_qr_scan", "android": "https://dc.lft.to/lastmile_qr_scan"}, "lon": -77.047493, "type": "electric_scooter", "fusion_lat": 0.0, "lat": 38.90527266666667, "name": "7a08dc7b3d6040e4fdc4d919cea5f703", "fusion_lon": 0.0, "bike_id": "7a08dc7b3d6040e4fdc4d919cea5f703", "is_disabled": 0, "is_reserved": 0}, {"rental_uris": {"ios": "https://dc.lft.to/lastmile_qr_scan", "android": "https://dc.lft.to/lastmile_qr_scan"}, "lon": -77.03260716666666, "type": "electric_scooter", "fusion_lat": 0.0, "lat": 38.94416183333333, "name": "8f1a649c5b53da42a46556b358bd47ae", "fusion_lon": 0.0, "bike_id": "8f1a649c5b53da42a46556b358bd47ae", "is_disabled": 0, "is_reserved": 0}, {"rental_uris": {"ios": "https://dc.lft.to/lastmile_qr_scan", "android": "https://dc.lft.to/lastmile_qr_scan"}, "lon": -77.02197916666667, "type": "electric_scooter", "fusion_lat": 0.0, "lat": 38.897654833333334, "name": "b1f0464d5137614789c6a01afc44ff13", "fusion_lon": 0.0, "bike_id": "b1f0464d5137614789c6a01afc44ff13", "is_disabled": 0, "is_reserved": 0}, {"rental_uris": {"ios": "https://dc.lft.to/lastmile_qr_scan", "android": "https://dc.lft.to/lastmile_qr_scan"}, "lon": -77.02020183333333, "type": "electric_scooter", "fusion_lat": 0.0, "lat": 38.93245833333334, "name": "86646e91d6eae24f8a905def971c88d1", "fusion_lon": 0.0, "bike_id": "86646e91d6eae24f8a905def971c88d1", "is_disabled": 0, "is_reserved": 0}, {"rental_uris": {"ios": "https://dc.lft.to/lastmile_qr_scan", "android": "https://dc.lft.to/lastmile_qr_scan"}, "lon": -77.01787383333334, "type": "electric_scooter", "fusion_lat": 0.0, "lat": 38.941128, "name": "b463af6d8e3ea35bd2ff7c868ad0c3c1", "fusion_lon": 0.0, "bike_id": "b463af6d8e3ea35bd2ff7c868ad0c3c1", "is_disabled": 0, "is_reserved": 0}, {"rental_uris": {"ios": "https://dc.lft.to/lastmile_qr_scan", "android": "https://dc.lft.to/lastmile_qr_scan"}, "lon": -76.99776183333333, "type": "electric_scooter", "fusion_lat": 0.0, "lat": 38.844223166666666, "name": "db4823e58027ffc1128e42bf79a7b78c", "fusion_lon": 0.0, "bike_id": "db4823e58027ffc1128e42bf79a7b78c", "is_disabled": 0, "is_reserved": 0}, {"rental_uris": {"ios": "https://dc.lft.to/lastmile_qr_scan", "android": "https://dc.lft.to/lastmile_qr_scan"}, "lon": -77.0528155, "type": "electric_scooter", "fusion_lat": 0.0, "lat": 38.91012833333333, "name": "0dac746d9a49cb2f8c60a1fa98f8f512", "fusion_lon": 0.0, "bike_id": "0dac746d9a49cb2f8c60a1fa98f8f512", "is_disabled": 0, "is_reserved": 0}, {"rental_uris": {"ios": "https://dc.lft.to/lastmile_qr_scan", "android": "https://dc.lft.to/lastmile_qr_scan"}, "lon": -77.04922033333334, "type": "electric_scooter", "fusion_lat": 0.0, "lat": 38.89608333333334, "name": "4c132b2b77fd33fe60f7edd6fc67b93c", "fusion_lon": 0.0, "bike_id": "4c132b2b77fd33fe60f7edd6fc67b93c", "is_disabled": 0, "is_reserved": 0}, {"rental_uris": {"ios": "https://dc.lft.to/lastmile_qr_scan", "android": "https://dc.lft.to/lastmile_qr_scan"}, "lon": -77.02713766666666, "type": "electric_scooter", "fusion_lat": 0.0, "lat": 38.90683116666666, "name": "4acebed624f8b66eee52d66925b9ad02", "fusion_lon": 0.0, "bike_id": "4acebed624f8b66eee52d66925b9ad02", "is_disabled": 0, "is_reserved": 0}, {"rental_uris": {"ios": "https://dc.lft.to/lastmile_qr_scan", "android": "https://dc.lft.to/lastmile_qr_scan"}, "lon": -76.939595, "type": "electric_scooter", "fusion_lat": 0.0, "lat": 38.8941405, "name": "d22f84dde2b2b46ba17480372ada8d27", "fusion_lon": 0.0, "bike_id": "d22f84dde2b2b46ba17480372ada8d27", "is_disabled": 0, "is_reserved": 0}, {"rental_uris": {"ios": "https://dc.lft.to/lastmile_qr_scan", "android": "https://dc.lft.to/lastmile_qr_scan"}, "lon": -77.07810916666666, "type": "electric_scooter", "fusion_lat": 0.0, "lat": 38.940826333333334, "name": "869ddc7b5276dab577cbe30f09b2a0ac", "fusion_lon": 0.0, "bike_id": "869ddc7b5276dab577cbe30f09b2a0ac", "is_disabled": 0, "is_reserved": 0}, {"rental_uris": {"ios": "https://dc.lft.to/lastmile_qr_scan", "android": "https://dc.lft.to/lastmile_qr_scan"}, "lon": -77.00713733333333, "type": "electric_scooter", "fusion_lat": 0.0, "lat": 38.91340916666667, "name": "8a4987f9bbc5c33539815db1b6aa2283", "fusion_lon": 0.0, "bike_id": "8a4987f9bbc5c33539815db1b6aa2283", "is_disabled": 0, "is_reserved": 0}, {"rental_uris": {"ios": "https://dc.lft.to/lastmile_qr_scan", "android": "https://dc.lft.to/lastmile_qr_scan"}, "lon": -77.02653066666667, "type": "electric_scooter", "fusion_lat": 0.0, "lat": 38.9218055, "name": "03df99d48e7517ec4164c1a45fffafc6", "fusion_lon": 0.0, "bike_id": "03df99d48e7517ec4164c1a45fffafc6", "is_disabled": 0, "is_reserved": 0}, {"rental_uris": {"ios": "https://dc.lft.to/lastmile_qr_scan", "android": "https://dc.lft.to/lastmile_qr_scan"}, "lon": -77.01904833333333, "type": "electric_scooter", "fusion_lat": 0.0, "lat": 38.902007166666664, "name": "87be8c70a7342bc49f467f2962e77c53", "fusion_lon": 0.0, "bike_id": "87be8c70a7342bc49f467f2962e77c53", "is_disabled": 0, "is_reserved": 0}, {"rental_uris": {"ios": "https://dc.lft.to/lastmile_qr_scan", "android": "https://dc.lft.to/lastmile_qr_scan"}, "lon": -77.03183516666667, "type": "electric_scooter", "fusion_lat": 0.0, "lat": 38.918036666666666, "name": "470f0c6eb83a7a1a5c7eb80ff0cd141a", "fusion_lon": 0.0, "bike_id": "470f0c6eb83a7a1a5c7eb80ff0cd141a", "is_disabled": 0, "is_reserved": 0}, {"rental_uris": {"ios": "https://dc.lft.to/lastmile_qr_scan", "android": "https://dc.lft.to/lastmile_qr_scan"}, "lon": -76.92998716666666, "type": "electric_bike", "fusion_lat": 0.0, "lat": 38.8879385, "name": "4d06adf01bd3699bfc5b0a02c73d66e6", "fusion_lon": 0.0, "bike_id": "4d06adf01bd3699bfc5b0a02c73d66e6", "is_disabled": 0, "is_reserved": 0}, {"rental_uris": {"ios": "https://dc.lft.to/lastmile_qr_scan", "android": "https://dc.lft.to/lastmile_qr_scan"}, "lon": -77.03302266666667, "type": "electric_bike", "fusion_lat": 0.0, "lat": 38.907338, "name": "dc7704eba3f79ca49860d60bfe8056c2", "fusion_lon": 0.0, "bike_id": "dc7704eba3f79ca49860d60bfe8056c2", "is_disabled": 0, "is_reserved": 0}, {"rental_uris": {"ios": "https://dc.lft.to/lastmile_qr_scan", "android": "https://dc.lft.to/lastmile_qr_scan"}, "lon": -77.033223, "type": "electric_scooter", "fusion_lat": 0.0, "lat": 38.901455, "name": "347c0faffc6486342a907f70404900c9", "fusion_lon": 0.0, "bike_id": "347c0faffc6486342a907f70404900c9", "is_disabled": 0, "is_reserved": 0}, {"rental_uris": {"ios": "https://dc.lft.to/lastmile_qr_scan", "android": "https://dc.lft.to/lastmile_qr_scan"}, "lon": -76.9782205, "type": "electric_scooter", "fusion_lat": 0.0, "lat": 38.895221666666664, "name": "fd3632819490375127e2b6eb050511c6", "fusion_lon": 0.0, "bike_id": "fd3632819490375127e2b6eb050511c6", "is_disabled": 0, "is_reserved": 0}, {"rental_uris": {"ios": "https://dc.lft.to/lastmile_qr_scan", "android": "https://dc.lft.to/lastmile_qr_scan"}, "lon": -77.06754983333333, "type": "electric_scooter", "fusion_lat": 0.0, "lat": 38.91561, "name": "a070df0a84737b476876520afadf6e8b", "fusion_lon": 0.0, "bike_id": "a070df0a84737b476876520afadf6e8b", "is_disabled": 0, "is_reserved": 0}, {"rental_uris": {"ios": "https://dc.lft.to/lastmile_qr_scan", "android": "https://dc.lft.to/lastmile_qr_scan"}, "lon": -77.0424155, "type": "electric_scooter", "fusion_lat": 0.0, "lat": 38.92210566666667, "name": "ccb2dd283ba825fb2c52489b8bb17330", "fusion_lon": 0.0, "bike_id": "ccb2dd283ba825fb2c52489b8bb17330", "is_disabled": 0, "is_reserved": 0}, {"rental_uris": {"ios": "https://dc.lft.to/lastmile_qr_scan", "android": "https://dc.lft.to/lastmile_qr_scan"}, "lon": -77.026904, "type": "electric_scooter", "fusion_lat": 0.0, "lat": 38.905986666666664, "name": "0cde5cff34b9df6293bed6905d067bfb", "fusion_lon": 0.0, "bike_id": "0cde5cff34b9df6293bed6905d067bfb", "is_disabled": 0, "is_reserved": 0}, {"rental_uris": {"ios": "https://dc.lft.to/lastmile_qr_scan", "android": "https://dc.lft.to/lastmile_qr_scan"}, "lon": -76.97420433333333, "type": "electric_bike", "fusion_lat": 0.0, "lat": 38.932015166666666, "name": "8045311df5744b3d2aee8d76ba738f39", "fusion_lon": 0.0, "bike_id": "8045311df5744b3d2aee8d76ba738f39", "is_disabled": 0, "is_reserved": 0}, {"rental_uris": {"ios": "https://dc.lft.to/lastmile_qr_scan", "android": "https://dc.lft.to/lastmile_qr_scan"}, "lon": -77.02496983333333, "type": "electric_scooter", "fusion_lat": 0.0, "lat": 38.907245833333334, "name": "1b865b6c23cc9055c60d8a4c580bd971", "fusion_lon": 0.0, "bike_id": "1b865b6c23cc9055c60d8a4c580bd971", "is_disabled": 0, "is_reserved": 0}, {"rental_uris": {"ios": "https://dc.lft.to/lastmile_qr_scan", "android": "https://dc.lft.to/lastmile_qr_scan"}, "lon": -77.03176633333334, "type": "electric_scooter", "fusion_lat": 0.0, "lat": 38.8992355, "name": "4304a12649acd0076eaf053830168fc8", "fusion_lon": 0.0, "bike_id": "4304a12649acd0076eaf053830168fc8", "is_disabled": 0, "is_reserved": 0}, {"rental_uris": {"ios": "https://dc.lft.to/lastmile_qr_scan", "android": "https://dc.lft.to/lastmile_qr_scan"}, "lon": -76.9500085, "type": "electric_scooter", "fusion_lat": 0.0, "lat": 38.89370066666667, "name": "26d3d48d26e32e0b7d7f23d9a2ac6194", "fusion_lon": 0.0, "bike_id": "26d3d48d26e32e0b7d7f23d9a2ac6194", "is_disabled": 0, "is_reserved": 0}, {"rental_uris": {"ios": "https://dc.lft.to/lastmile_qr_scan", "android": "https://dc.lft.to/lastmile_qr_scan"}, "lon": -77.01613666666667, "type": "electric_scooter", "fusion_lat": 0.0, "lat": 38.89959733333333, "name": "d0047a6dcd602e2d3135c0fd0d94159e", "fusion_lon": 0.0, "bike_id": "d0047a6dcd602e2d3135c0fd0d94159e", "is_disabled": 0, "is_reserved": 0}, {"rental_uris": {"ios": "https://dc.lft.to/lastmile_qr_scan", "android": "https://dc.lft.to/lastmile_qr_scan"}, "lon": -77.1843095, "type": "electric_bike", "fusion_lat": 0.0, "lat": 39.11362316666666, "name": "e6d656d0d7c807d1dac1c7edb8d976a5", "fusion_lon": 0.0, "bike_id": "e6d656d0d7c807d1dac1c7edb8d976a5", "is_disabled": 0, "is_reserved": 0}, {"rental_uris": {"ios": "https://dc.lft.to/lastmile_qr_scan", "android": "https://dc.lft.to/lastmile_qr_scan"}, "lon": -77.18290766666667, "type": "electric_bike", "fusion_lat": 0.0, "lat": 38.8834525, "name": "0bec03728854a13c3d9b811b15654d81", "fusion_lon": 0.0, "bike_id": "0bec03728854a13c3d9b811b15654d81", "is_disabled": 0, "is_reserved": 0}, {"rental_uris": {"ios": "https://dc.lft.to/lastmile_qr_scan", "android": "https://dc.lft.to/lastmile_qr_scan"}, "lon": -77.032697, "type": "electric_scooter", "fusion_lat": 0.0, "lat": 38.93230633333334, "name": "09447f48cf7dfc681f3d8f100851a121", "fusion_lon": 0.0, "bike_id": "09447f48cf7dfc681f3d8f100851a121", "is_disabled": 0, "is_reserved": 0}, {"rental_uris": {"ios": "https://dc.lft.to/lastmile_qr_scan", "android": "https://dc.lft.to/lastmile_qr_scan"}, "lon": -77.03223416666667, "type": "electric_scooter", "fusion_lat": 0.0, "lat": 38.92668416666667, "name": "cdfee74980ffd10d898a3440110311be", "fusion_lon": 0.0, "bike_id": "cdfee74980ffd10d898a3440110311be", "is_disabled": 0, "is_reserved": 0}, {"rental_uris": {"ios": "https://dc.lft.to/lastmile_qr_scan", "android": "https://dc.lft.to/lastmile_qr_scan"}, "lon": -76.98956383333334, "type": "electric_scooter", "fusion_lat": 0.0, "lat": 38.9002655, "name": "c95e604c5dbe76b18d09d5bb735be339", "fusion_lon": 0.0, "bike_id": "c95e604c5dbe76b18d09d5bb735be339", "is_disabled": 0, "is_reserved": 0}, {"rental_uris": {"ios": "https://dc.lft.to/lastmile_qr_scan", "android": "https://dc.lft.to/lastmile_qr_scan"}, "lon": -77.12899133333333, "type": "electric_bike", "fusion_lat": 0.0, "lat": 38.863743, "name": "d69cef7cf3e76e33bff36875581c0c9a", "fusion_lon": 0.0, "bike_id": "d69cef7cf3e76e33bff36875581c0c9a", "is_disabled": 0, "is_reserved": 0}, {"rental_uris": {"ios": "https://dc.lft.to/lastmile_qr_scan", "android": "https://dc.lft.to/lastmile_qr_scan"}, "lon": -77.052892, "type": "electric_scooter", "fusion_lat": 0.0, "lat": 38.927850666666664, "name": "f62230d4398c9b7cfd23b0ec46b4bda6", "fusion_lon": 0.0, "bike_id": "f62230d4398c9b7cfd23b0ec46b4bda6", "is_disabled": 0, "is_reserved": 0}, {"rental_uris": {"ios": "https://dc.lft.to/lastmile_qr_scan", "android": "https://dc.lft.to/lastmile_qr_scan"}, "lon": -77.058006, "type": "electric_bike", "fusion_lat": 0.0, "lat": 38.93555716666667, "name": "f46f3bc23c1cd921c7aca34f753dff20", "fusion_lon": 0.0, "bike_id": "f46f3bc23c1cd921c7aca34f753dff20", "is_disabled": 0, "is_reserved": 0}, {"rental_uris": {"ios": "https://dc.lft.to/lastmile_qr_scan", "android": "https://dc.lft.to/lastmile_qr_scan"}, "lon": -77.048681, "type": "electric_scooter", "fusion_lat": 0.0, "lat": 38.9030095, "name": "fd3805f14b32a942b5d85201e85555ca", "fusion_lon": 0.0, "bike_id": "fd3805f14b32a942b5d85201e85555ca", "is_disabled": 0, "is_reserved": 0}, {"rental_uris": {"ios": "https://dc.lft.to/lastmile_qr_scan", "android": "https://dc.lft.to/lastmile_qr_scan"}, "lon": -76.959885, "type": "electric_scooter", "fusion_lat": 0.0, "lat": 38.88042216666667, "name": "2894888e28308611e9218f393ac96296", "fusion_lon": 0.0, "bike_id": "2894888e28308611e9218f393ac96296", "is_disabled": 0, "is_reserved": 0}, {"rental_uris": {"ios": "https://dc.lft.to/lastmile_qr_scan", "android": "https://dc.lft.to/lastmile_qr_scan"}, "lon": -76.94754866666666, "type": "electric_scooter", "fusion_lat": 0.0, "lat": 38.90054416666667, "name": "393fee6b2988b5d444da3fdfb2ed092e", "fusion_lon": 0.0, "bike_id": "393fee6b2988b5d444da3fdfb2ed092e", "is_disabled": 0, "is_reserved": 0}, {"rental_uris": {"ios": "https://dc.lft.to/lastmile_qr_scan", "android": "https://dc.lft.to/lastmile_qr_scan"}, "lon": -77.03055716666667, "type": "electric_scooter", "fusion_lat": 0.0, "lat": 38.9170945, "name": "807653520a3fc927b8d269bb78a643f9", "fusion_lon": 0.0, "bike_id": "807653520a3fc927b8d269bb78a643f9", "is_disabled": 0, "is_reserved": 0}, {"rental_uris": {"ios": "https://dc.lft.to/lastmile_qr_scan", "android": "https://dc.lft.to/lastmile_qr_scan"}, "lon": -77.02134016666666, "type": "electric_scooter", "fusion_lat": 0.0, "lat": 38.8949265, "name": "38ed788aa013d3de01821276ddd02317", "fusion_lon": 0.0, "bike_id": "38ed788aa013d3de01821276ddd02317", "is_disabled": 0, "is_reserved": 0}, {"rental_uris": {"ios": "https://dc.lft.to/lastmile_qr_scan", "android": "https://dc.lft.to/lastmile_qr_scan"}, "lon": -76.97290533333333, "type": "electric_scooter", "fusion_lat": 0.0, "lat": 38.90337, "name": "79bbaf9a9f5e38698f05e100c0c6ec31", "fusion_lon": 0.0, "bike_id": "79bbaf9a9f5e38698f05e100c0c6ec31", "is_disabled": 0, "is_reserved": 0}, {"rental_uris": {"ios": "https://dc.lft.to/lastmile_qr_scan", "android": "https://dc.lft.to/lastmile_qr_scan"}, "lon": -77.04757233333333, "type": "electric_scooter", "fusion_lat": 0.0, "lat": 38.905295833333334, "name": "dd2572586d7213aed520fc03a361db80", "fusion_lon": 0.0, "bike_id": "dd2572586d7213aed520fc03a361db80", "is_disabled": 0, "is_reserved": 0}, {"rental_uris": {"ios": "https://dc.lft.to/lastmile_qr_scan", "android": "https://dc.lft.to/lastmile_qr_scan"}, "lon": -76.95898866666667, "type": "electric_bike", "fusion_lat": 0.0, "lat": 38.98506283333333, "name": "ddebd12bd5792411875d77291dc507d6", "fusion_lon": 0.0, "bike_id": "ddebd12bd5792411875d77291dc507d6", "is_disabled": 0, "is_reserved": 0}, {"rental_uris": {"ios": "https://dc.lft.to/lastmile_qr_scan", "android": "https://dc.lft.to/lastmile_qr_scan"}, "lon": -77.00204566666666, "type": "electric_scooter", "fusion_lat": 0.0, "lat": 38.90029066666666, "name": "70e4c16bae8fe65c9c2c512c01e36b15", "fusion_lon": 0.0, "bike_id": "70e4c16bae8fe65c9c2c512c01e36b15", "is_disabled": 0, "is_reserved": 0}, {"rental_uris": {"ios": "https://dc.lft.to/lastmile_qr_scan", "android": "https://dc.lft.to/lastmile_qr_scan"}, "lon": -77.12955266666667, "type": "electric_bike", "fusion_lat": 0.0, "lat": 38.85212, "name": "d106741d54ca7623f1e90bde4d69b81b", "fusion_lon": 0.0, "bike_id": "d106741d54ca7623f1e90bde4d69b81b", "is_disabled": 0, "is_reserved": 0}, {"rental_uris": {"ios": "https://dc.lft.to/lastmile_qr_scan", "android": "https://dc.lft.to/lastmile_qr_scan"}, "lon": -76.98366016666667, "type": "electric_scooter", "fusion_lat": 0.0, "lat": 38.89546133333333, "name": "1da2fe05ce3665e3214eec24b0d93a64", "fusion_lon": 0.0, "bike_id": "1da2fe05ce3665e3214eec24b0d93a64", "is_disabled": 0, "is_reserved": 0}, {"rental_uris": {"ios": "https://dc.lft.to/lastmile_qr_scan", "android": "https://dc.lft.to/lastmile_qr_scan"}, "lon": -77.05475783333333, "type": "electric_scooter", "fusion_lat": 0.0, "lat": 38.89389116666667, "name": "7e0a87185a24f816a560208a181c9504", "fusion_lon": 0.0, "bike_id": "7e0a87185a24f816a560208a181c9504", "is_disabled": 0, "is_reserved": 0}, {"rental_uris": {"ios": "https://dc.lft.to/lastmile_qr_scan", "android": "https://dc.lft.to/lastmile_qr_scan"}, "lon": -76.932258, "type": "electric_bike", "fusion_lat": 0.0, "lat": 38.865874833333336, "name": "93a46bb04d1a2f676b79262c1c400f5c", "fusion_lon": 0.0, "bike_id": "93a46bb04d1a2f676b79262c1c400f5c", "is_disabled": 0, "is_reserved": 0}, {"rental_uris": {"ios": "https://dc.lft.to/lastmile_qr_scan", "android": "https://dc.lft.to/lastmile_qr_scan"}, "lon": -77.02204, "type": "electric_scooter", "fusion_lat": 0.0, "lat": 38.896106, "name": "107839025f5734d834a546252086a893", "fusion_lon": 0.0, "bike_id": "107839025f5734d834a546252086a893", "is_disabled": 0, "is_reserved": 0}, {"rental_uris": {"ios": "https://dc.lft.to/lastmile_qr_scan", "android": "https://dc.lft.to/lastmile_qr_scan"}, "lon": -76.99690033333333, "type": "electric_scooter", "fusion_lat": 0.0, "lat": 38.900633666666664, "name": "dc1899c406de9f0acfcd4b63bff29edc", "fusion_lon": 0.0, "bike_id": "dc1899c406de9f0acfcd4b63bff29edc", "is_disabled": 0, "is_reserved": 0}, {"rental_uris": {"ios": "https://dc.lft.to/lastmile_qr_scan", "android": "https://dc.lft.to/lastmile_qr_scan"}, "lon": -77.00186933333333, "type": "electric_scooter", "fusion_lat": 0.0, "lat": 38.87387983333333, "name": "4c9df8329c02b73a0c2703d811400941", "fusion_lon": 0.0, "bike_id": "4c9df8329c02b73a0c2703d811400941", "is_disabled": 0, "is_reserved": 0}, {"rental_uris": {"ios": "https://dc.lft.to/lastmile_qr_scan", "android": "https://dc.lft.to/lastmile_qr_scan"}, "lon": -77.02225683333333, "type": "electric_scooter", "fusion_lat": 0.0, "lat": 38.89218016666667, "name": "e9b252be2de82bcc76d616dc55d685c7", "fusion_lon": 0.0, "bike_id": "e9b252be2de82bcc76d616dc55d685c7", "is_disabled": 0, "is_reserved": 0}, {"rental_uris": {"ios": "https://dc.lft.to/lastmile_qr_scan", "android": "https://dc.lft.to/lastmile_qr_scan"}, "lon": -77.03192516666667, "type": "electric_scooter", "fusion_lat": 0.0, "lat": 38.91272166666667, "name": "a3097043cbef0b2e68bb3b3145686a53", "fusion_lon": 0.0, "bike_id": "a3097043cbef0b2e68bb3b3145686a53", "is_disabled": 0, "is_reserved": 0}, {"rental_uris": {"ios": "https://dc.lft.to/lastmile_qr_scan", "android": "https://dc.lft.to/lastmile_qr_scan"}, "lon": -77.01200783333333, "type": "electric_bike", "fusion_lat": 0.0, "lat": 38.8707845, "name": "a4ef30375c7e912d88637d8653202ebf", "fusion_lon": 0.0, "bike_id": "a4ef30375c7e912d88637d8653202ebf", "is_disabled": 0, "is_reserved": 0}, {"rental_uris": {"ios": "https://dc.lft.to/lastmile_qr_scan", "android": "https://dc.lft.to/lastmile_qr_scan"}, "lon": -76.96627266666667, "type": "electric_bike", "fusion_lat": 0.0, "lat": 38.9419995, "name": "a8acbcf64dd93d88239ddea36b325c98", "fusion_lon": 0.0, "bike_id": "a8acbcf64dd93d88239ddea36b325c98", "is_disabled": 0, "is_reserved": 0}, {"rental_uris": {"ios": "https://dc.lft.to/lastmile_qr_scan", "android": "https://dc.lft.to/lastmile_qr_scan"}, "lon": -77.01981616666667, "type": "electric_scooter", "fusion_lat": 0.0, "lat": 38.91519666666667, "name": "a079a9a8a37b4fdc93c36700fd7b739d", "fusion_lon": 0.0, "bike_id": "a079a9a8a37b4fdc93c36700fd7b739d", "is_disabled": 0, "is_reserved": 0}, {"rental_uris": {"ios": "https://dc.lft.to/lastmile_qr_scan", "android": "https://dc.lft.to/lastmile_qr_scan"}, "lon": -77.03185083333334, "type": "electric_scooter", "fusion_lat": 0.0, "lat": 38.899541166666666, "name": "78b393f8d0e84a69d717c0bc26161639", "fusion_lon": 0.0, "bike_id": "78b393f8d0e84a69d717c0bc26161639", "is_disabled": 0, "is_reserved": 0}, {"rental_uris": {"ios": "https://dc.lft.to/lastmile_qr_scan", "android": "https://dc.lft.to/lastmile_qr_scan"}, "lon": -76.92890116666666, "type": "electric_scooter", "fusion_lat": 0.0, "lat": 38.893286833333335, "name": "c3c63130668528bf009744e3ecd4b986", "fusion_lon": 0.0, "bike_id": "c3c63130668528bf009744e3ecd4b986", "is_disabled": 0, "is_reserved": 0}, {"rental_uris": {"ios": "https://dc.lft.to/lastmile_qr_scan", "android": "https://dc.lft.to/lastmile_qr_scan"}, "lon": -77.02779266666667, "type": "electric_scooter", "fusion_lat": 0.0, "lat": 38.8921705, "name": "c30c279cadd90d169db5ba84d9d41954", "fusion_lon": 0.0, "bike_id": "c30c279cadd90d169db5ba84d9d41954", "is_disabled": 0, "is_reserved": 0}, {"rental_uris": {"ios": "https://dc.lft.to/lastmile_qr_scan", "android": "https://dc.lft.to/lastmile_qr_scan"}, "lon": -77.04683683333333, "type": "electric_scooter", "fusion_lat": 0.0, "lat": 38.892238, "name": "7bfc1b65e9d2ef7354ab81e236093205", "fusion_lon": 0.0, "bike_id": "7bfc1b65e9d2ef7354ab81e236093205", "is_disabled": 0, "is_reserved": 0}, {"rental_uris": {"ios": "https://dc.lft.to/lastmile_qr_scan", "android": "https://dc.lft.to/lastmile_qr_scan"}, "lon": -77.01054533333334, "type": "electric_scooter", "fusion_lat": 0.0, "lat": 38.87935216666666, "name": "932f2080e067cc763199a46dcd958907", "fusion_lon": 0.0, "bike_id": "932f2080e067cc763199a46dcd958907", "is_disabled": 0, "is_reserved": 0}, {"rental_uris": {"ios": "https://dc.lft.to/lastmile_qr_scan", "android": "https://dc.lft.to/lastmile_qr_scan"}, "lon": -77.0269985, "type": "electric_scooter", "fusion_lat": 0.0, "lat": 38.94977166666666, "name": "a1f6be864d1b59cf407c76c8959359c1", "fusion_lon": 0.0, "bike_id": "a1f6be864d1b59cf407c76c8959359c1", "is_disabled": 0, "is_reserved": 0}, {"rental_uris": {"ios": "https://dc.lft.to/lastmile_qr_scan", "android": "https://dc.lft.to/lastmile_qr_scan"}, "lon": -77.022072, "type": "electric_scooter", "fusion_lat": 0.0, "lat": 38.896069, "name": "43225cedbcdf24227a8ed3ba2d4ed6f4", "fusion_lon": 0.0, "bike_id": "43225cedbcdf24227a8ed3ba2d4ed6f4", "is_disabled": 0, "is_reserved": 0}, {"rental_uris": {"ios": "https://dc.lft.to/lastmile_qr_scan", "android": "https://dc.lft.to/lastmile_qr_scan"}, "lon": -77.046133, "type": "electric_scooter", "fusion_lat": 0.0, "lat": 38.903861666666664, "name": "f56c7c93845c0db6f542c080655c97dc", "fusion_lon": 0.0, "bike_id": "f56c7c93845c0db6f542c080655c97dc", "is_disabled": 0, "is_reserved": 0}, {"rental_uris": {"ios": "https://dc.lft.to/lastmile_qr_scan", "android": "https://dc.lft.to/lastmile_qr_scan"}, "lon": -77.04574983333333, "type": "electric_scooter", "fusion_lat": 0.0, "lat": 38.9023355, "name": "6e180c82313c082087a9eca214eb1f35", "fusion_lon": 0.0, "bike_id": "6e180c82313c082087a9eca214eb1f35", "is_disabled": 0, "is_reserved": 0}, {"rental_uris": {"ios": "https://dc.lft.to/lastmile_qr_scan", "android": "https://dc.lft.to/lastmile_qr_scan"}, "lon": -77.05030016666667, "type": "electric_scooter", "fusion_lat": 0.0, "lat": 38.89650966666667, "name": "f7a2b4fa32fccc94d21f202672abf2e9", "fusion_lon": 0.0, "bike_id": "f7a2b4fa32fccc94d21f202672abf2e9", "is_disabled": 0, "is_reserved": 0}, {"rental_uris": {"ios": "https://dc.lft.to/lastmile_qr_scan", "android": "https://dc.lft.to/lastmile_qr_scan"}, "lon": -77.04682716666667, "type": "electric_scooter", "fusion_lat": 0.0, "lat": 38.896012166666665, "name": "cb9fd3d797b73f5a074188e755421da6", "fusion_lon": 0.0, "bike_id": "cb9fd3d797b73f5a074188e755421da6", "is_disabled": 0, "is_reserved": 0}, {"rental_uris": {"ios": "https://dc.lft.to/lastmile_qr_scan", "android": "https://dc.lft.to/lastmile_qr_scan"}, "lon": -76.9733315, "type": "electric_bike", "fusion_lat": 0.0, "lat": 38.85053716666667, "name": "6eb1202f63e29c976a88c13c942f8605", "fusion_lon": 0.0, "bike_id": "6eb1202f63e29c976a88c13c942f8605", "is_disabled": 0, "is_reserved": 0}, {"rental_uris": {"ios": "https://dc.lft.to/lastmile_qr_scan", "android": "https://dc.lft.to/lastmile_qr_scan"}, "lon": -77.06277133333333, "type": "electric_scooter", "fusion_lat": 0.0, "lat": 38.90541133333333, "name": "2760d724c43eef6dd92526c2fd46f039", "fusion_lon": 0.0, "bike_id": "2760d724c43eef6dd92526c2fd46f039", "is_disabled": 0, "is_reserved": 0}, {"rental_uris": {"ios": "https://dc.lft.to/lastmile_qr_scan", "android": "https://dc.lft.to/lastmile_qr_scan"}, "lon": -77.05419183333333, "type": "electric_scooter", "fusion_lat": 0.0, "lat": 38.928368666666664, "name": "ef3b833ddb5920667d1c0a1012691a06", "fusion_lon": 0.0, "bike_id": "ef3b833ddb5920667d1c0a1012691a06", "is_disabled": 0, "is_reserved": 0}, {"rental_uris": {"ios": "https://dc.lft.to/lastmile_qr_scan", "android": "https://dc.lft.to/lastmile_qr_scan"}, "lon": -77.0435365, "type": "electric_scooter", "fusion_lat": 0.0, "lat": 38.921173, "name": "6b2710337ce2fc7cc7f20ce9dc996509", "fusion_lon": 0.0, "bike_id": "6b2710337ce2fc7cc7f20ce9dc996509", "is_disabled": 0, "is_reserved": 0}, {"rental_uris": {"ios": "https://dc.lft.to/lastmile_qr_scan", "android": "https://dc.lft.to/lastmile_qr_scan"}, "lon": -76.97724366666667, "type": "electric_scooter", "fusion_lat": 0.0, "lat": 38.8724315, "name": "404e09b3aaa8603b2a148c991cc76d6c", "fusion_lon": 0.0, "bike_id": "404e09b3aaa8603b2a148c991cc76d6c", "is_disabled": 0, "is_reserved": 0}, {"rental_uris": {"ios": "https://dc.lft.to/lastmile_qr_scan", "android": "https://dc.lft.to/lastmile_qr_scan"}, "lon": -77.0367465, "type": "electric_scooter", "fusion_lat": 0.0, "lat": 38.9298295, "name": "97107f5b73380d9f49508dcbf5ed0fa3", "fusion_lon": 0.0, "bike_id": "97107f5b73380d9f49508dcbf5ed0fa3", "is_disabled": 0, "is_reserved": 0}, {"rental_uris": {"ios": "https://dc.lft.to/lastmile_qr_scan", "android": "https://dc.lft.to/lastmile_qr_scan"}, "lon": -77.024181, "type": "electric_scooter", "fusion_lat": 0.0, "lat": 38.918225, "name": "68000941f0653205308f088db0154f46", "fusion_lon": 0.0, "bike_id": "68000941f0653205308f088db0154f46", "is_disabled": 0, "is_reserved": 0}, {"rental_uris": {"ios": "https://dc.lft.to/lastmile_qr_scan", "android": "https://dc.lft.to/lastmile_qr_scan"}, "lon": -77.024547, "type": "electric_scooter", "fusion_lat": 0.0, "lat": 38.97930216666666, "name": "bd63c10f768b9cadef0288c9a2dda109", "fusion_lon": 0.0, "bike_id": "bd63c10f768b9cadef0288c9a2dda109", "is_disabled": 0, "is_reserved": 0}, {"rental_uris": {"ios": "https://dc.lft.to/lastmile_qr_scan", "android": "https://dc.lft.to/lastmile_qr_scan"}, "lon": -77.03224233333333, "type": "electric_scooter", "fusion_lat": 0.0, "lat": 38.938687, "name": "977b1f3bb52ea9ba4339218fa28d783c", "fusion_lon": 0.0, "bike_id": "977b1f3bb52ea9ba4339218fa28d783c", "is_disabled": 0, "is_reserved": 0}, {"rental_uris": {"ios": "https://dc.lft.to/lastmile_qr_scan", "android": "https://dc.lft.to/lastmile_qr_scan"}, "lon": -76.99006383333334, "type": "electric_scooter", "fusion_lat": 0.0, "lat": 38.90390566666667, "name": "68bfd6b7c9dea4f750cdafe62a72303e", "fusion_lon": 0.0, "bike_id": "68bfd6b7c9dea4f750cdafe62a72303e", "is_disabled": 0, "is_reserved": 0}, {"rental_uris": {"ios": "https://dc.lft.to/lastmile_qr_scan", "android": "https://dc.lft.to/lastmile_qr_scan"}, "lon": -77.0393015, "type": "electric_scooter", "fusion_lat": 0.0, "lat": 38.899186, "name": "806bdddf94305ead954be9e6d7abd2ff", "fusion_lon": 0.0, "bike_id": "806bdddf94305ead954be9e6d7abd2ff", "is_disabled": 0, "is_reserved": 0}, {"rental_uris": {"ios": "https://dc.lft.to/lastmile_qr_scan", "android": "https://dc.lft.to/lastmile_qr_scan"}, "lon": -77.03290116666666, "type": "electric_scooter", "fusion_lat": 0.0, "lat": 38.909757666666664, "name": "357a54293bdd5ef0247993333b57ccc3", "fusion_lon": 0.0, "bike_id": "357a54293bdd5ef0247993333b57ccc3", "is_disabled": 0, "is_reserved": 0}, {"rental_uris": {"ios": "https://dc.lft.to/lastmile_qr_scan", "android": "https://dc.lft.to/lastmile_qr_scan"}, "lon": -77.00977033333334, "type": "electric_scooter", "fusion_lat": 0.0, "lat": 38.91412866666667, "name": "a39234ba8ff62bbc0b49a1c903d9b9b9", "fusion_lon": 0.0, "bike_id": "a39234ba8ff62bbc0b49a1c903d9b9b9", "is_disabled": 0, "is_reserved": 0}, {"rental_uris": {"ios": "https://dc.lft.to/lastmile_qr_scan", "android": "https://dc.lft.to/lastmile_qr_scan"}, "lon": -76.91665666666667, "type": "electric_bike", "fusion_lat": 0.0, "lat": 38.8686655, "name": "97fafc354b78b5c435c8b397fa70dc9c", "fusion_lon": 0.0, "bike_id": "97fafc354b78b5c435c8b397fa70dc9c", "is_disabled": 0, "is_reserved": 0}, {"rental_uris": {"ios": "https://dc.lft.to/lastmile_qr_scan", "android": "https://dc.lft.to/lastmile_qr_scan"}, "lon": -76.9485825, "type": "electric_scooter", "fusion_lat": 0.0, "lat": 38.8958555, "name": "9166c9426d6a6a7e494a3ed3cc67bd47", "fusion_lon": 0.0, "bike_id": "9166c9426d6a6a7e494a3ed3cc67bd47", "is_disabled": 0, "is_reserved": 0}, {"rental_uris": {"ios": "https://dc.lft.to/lastmile_qr_scan", "android": "https://dc.lft.to/lastmile_qr_scan"}, "lon": -77.16223583333333, "type": "electric_bike", "fusion_lat": 0.0, "lat": 38.88657033333333, "name": "2333a555f34ecf2169f1b35fc9f3e01f", "fusion_lon": 0.0, "bike_id": "2333a555f34ecf2169f1b35fc9f3e01f", "is_disabled": 0, "is_reserved": 0}, {"rental_uris": {"ios": "https://dc.lft.to/lastmile_qr_scan", "android": "https://dc.lft.to/lastmile_qr_scan"}, "lon": -77.01064816666667, "type": "electric_scooter", "fusion_lat": 0.0, "lat": 38.87474, "name": "aa6e5703ae1eec373178e86a09f793a1", "fusion_lon": 0.0, "bike_id": "aa6e5703ae1eec373178e86a09f793a1", "is_disabled": 0, "is_reserved": 0}, {"rental_uris": {"ios": "https://dc.lft.to/lastmile_qr_scan", "android": "https://dc.lft.to/lastmile_qr_scan"}, "lon": -77.0280405, "type": "electric_scooter", "fusion_lat": 0.0, "lat": 38.91063066666667, "name": "d5198925ba5bfd904b94c737239f289c", "fusion_lon": 0.0, "bike_id": "d5198925ba5bfd904b94c737239f289c", "is_disabled": 0, "is_reserved": 0}, {"rental_uris": {"ios": "https://dc.lft.to/lastmile_qr_scan", "android": "https://dc.lft.to/lastmile_qr_scan"}, "lon": -77.02790466666667, "type": "electric_scooter", "fusion_lat": 0.0, "lat": 38.88733966666667, "name": "51a60f50780606dbf9c7791f42ae54cd", "fusion_lon": 0.0, "bike_id": "51a60f50780606dbf9c7791f42ae54cd", "is_disabled": 0, "is_reserved": 0}, {"rental_uris": {"ios": "https://dc.lft.to/lastmile_qr_scan", "android": "https://dc.lft.to/lastmile_qr_scan"}, "lon": -77.06163316666667, "type": "electric_scooter", "fusion_lat": 0.0, "lat": 38.91287916666667, "name": "5cff75cbc462ecec8f2c64732e0c186a", "fusion_lon": 0.0, "bike_id": "5cff75cbc462ecec8f2c64732e0c186a", "is_disabled": 0, "is_reserved": 0}, {"rental_uris": {"ios": "https://dc.lft.to/lastmile_qr_scan", "android": "https://dc.lft.to/lastmile_qr_scan"}, "lon": -77.00986366666666, "type": "electric_scooter", "fusion_lat": 0.0, "lat": 38.87284416666667, "name": "ee3c6e4d0c60717e8dfe9d765e2f76fd", "fusion_lon": 0.0, "bike_id": "ee3c6e4d0c60717e8dfe9d765e2f76fd", "is_disabled": 0, "is_reserved": 0}, {"rental_uris": {"ios": "https://dc.lft.to/lastmile_qr_scan", "android": "https://dc.lft.to/lastmile_qr_scan"}, "lon": -77.02963233333334, "type": "electric_scooter", "fusion_lat": 0.0, "lat": 38.91679933333333, "name": "4a1b96bdaf4e771b017ddbba47c89cae", "fusion_lon": 0.0, "bike_id": "4a1b96bdaf4e771b017ddbba47c89cae", "is_disabled": 0, "is_reserved": 0}, {"rental_uris": {"ios": "https://dc.lft.to/lastmile_qr_scan", "android": "https://dc.lft.to/lastmile_qr_scan"}, "lon": -77.0216505, "type": "electric_scooter", "fusion_lat": 0.0, "lat": 38.94290733333333, "name": "ff3b6bb2af0c3ee1aa4bbeac3ba279f9", "fusion_lon": 0.0, "bike_id": "ff3b6bb2af0c3ee1aa4bbeac3ba279f9", "is_disabled": 0, "is_reserved": 0}, {"rental_uris": {"ios": "https://dc.lft.to/lastmile_qr_scan", "android": "https://dc.lft.to/lastmile_qr_scan"}, "lon": -76.98903383333334, "type": "electric_scooter", "fusion_lat": 0.0, "lat": 38.86689166666667, "name": "68d2423a53fc3399b4e914efa6795576", "fusion_lon": 0.0, "bike_id": "68d2423a53fc3399b4e914efa6795576", "is_disabled": 0, "is_reserved": 0}, {"rental_uris": {"ios": "https://dc.lft.to/lastmile_qr_scan", "android": "https://dc.lft.to/lastmile_qr_scan"}, "lon": -77.022265, "type": "electric_scooter", "fusion_lat": 0.0, "lat": 38.8921755, "name": "69307bf20de808472e0342b032c68479", "fusion_lon": 0.0, "bike_id": "69307bf20de808472e0342b032c68479", "is_disabled": 0, "is_reserved": 0}, {"rental_uris": {"ios": "https://dc.lft.to/lastmile_qr_scan", "android": "https://dc.lft.to/lastmile_qr_scan"}, "lon": -77.0400945, "type": "electric_scooter", "fusion_lat": 0.0, "lat": 38.92185833333333, "name": "366abfbb8bc224d16dea427af1cb6180", "fusion_lon": 0.0, "bike_id": "366abfbb8bc224d16dea427af1cb6180", "is_disabled": 0, "is_reserved": 0}, {"rental_uris": {"ios": "https://dc.lft.to/lastmile_qr_scan", "android": "https://dc.lft.to/lastmile_qr_scan"}, "lon": -77.05042466666667, "type": "electric_scooter", "fusion_lat": 0.0, "lat": 38.903561, "name": "0c880b35d1df5e4a0b2a8956258a62c0", "fusion_lon": 0.0, "bike_id": "0c880b35d1df5e4a0b2a8956258a62c0", "is_disabled": 0, "is_reserved": 0}, {"rental_uris": {"ios": "https://dc.lft.to/lastmile_qr_scan", "android": "https://dc.lft.to/lastmile_qr_scan"}, "lon": -77.069997, "type": "electric_bike", "fusion_lat": 0.0, "lat": 38.9549875, "name": "5954eadb5a54a6055df0fbb5352159c5", "fusion_lon": 0.0, "bike_id": "5954eadb5a54a6055df0fbb5352159c5", "is_disabled": 0, "is_reserved": 0}, {"rental_uris": {"ios": "https://dc.lft.to/lastmile_qr_scan", "android": "https://dc.lft.to/lastmile_qr_scan"}, "lon": -77.03928416666666, "type": "electric_scooter", "fusion_lat": 0.0, "lat": 38.899266, "name": "5948293b59a0e1a24fd0c8b868700dfc", "fusion_lon": 0.0, "bike_id": "5948293b59a0e1a24fd0c8b868700dfc", "is_disabled": 0, "is_reserved": 0}, {"rental_uris": {"ios": "https://dc.lft.to/lastmile_qr_scan", "android": "https://dc.lft.to/lastmile_qr_scan"}, "lon": -77.10778466666666, "type": "electric_bike", "fusion_lat": 0.0, "lat": 38.892139, "name": "38cc7a0a0d650ea6e0c070e8983ce53a", "fusion_lon": 0.0, "bike_id": "38cc7a0a0d650ea6e0c070e8983ce53a", "is_disabled": 0, "is_reserved": 0}, {"rental_uris": {"ios": "https://dc.lft.to/lastmile_qr_scan", "android": "https://dc.lft.to/lastmile_qr_scan"}, "lon": -77.0293785, "type": "electric_scooter", "fusion_lat": 0.0, "lat": 38.904608333333336, "name": "23b2bb269c97e78449dd91d7df33b68a", "fusion_lon": 0.0, "bike_id": "23b2bb269c97e78449dd91d7df33b68a", "is_disabled": 0, "is_reserved": 0}, {"rental_uris": {"ios": "https://dc.lft.to/lastmile_qr_scan", "android": "https://dc.lft.to/lastmile_qr_scan"}, "lon": -77.035563, "type": "electric_scooter", "fusion_lat": 0.0, "lat": 38.9180045, "name": "2eb8eb71c6f65d7d41b1f5427b472c5c", "fusion_lon": 0.0, "bike_id": "2eb8eb71c6f65d7d41b1f5427b472c5c", "is_disabled": 0, "is_reserved": 0}, {"rental_uris": {"ios": "https://dc.lft.to/lastmile_qr_scan", "android": "https://dc.lft.to/lastmile_qr_scan"}, "lon": -77.063634, "type": "electric_scooter", "fusion_lat": 0.0, "lat": 38.909230666666666, "name": "099a2b5370db84f85ae08760b0891c79", "fusion_lon": 0.0, "bike_id": "099a2b5370db84f85ae08760b0891c79", "is_disabled": 0, "is_reserved": 0}, {"rental_uris": {"ios": "https://dc.lft.to/lastmile_qr_scan", "android": "https://dc.lft.to/lastmile_qr_scan"}, "lon": -77.0319365, "type": "electric_scooter", "fusion_lat": 0.0, "lat": 38.91633216666666, "name": "8523a5eef540e47a7382428257c0254c", "fusion_lon": 0.0, "bike_id": "8523a5eef540e47a7382428257c0254c", "is_disabled": 0, "is_reserved": 0}, {"rental_uris": {"ios": "https://dc.lft.to/lastmile_qr_scan", "android": "https://dc.lft.to/lastmile_qr_scan"}, "lon": -76.93175033333333, "type": "electric_scooter", "fusion_lat": 0.0, "lat": 38.89883233333333, "name": "d31520b9d96d9097e2f4cf289a479e03", "fusion_lon": 0.0, "bike_id": "d31520b9d96d9097e2f4cf289a479e03", "is_disabled": 0, "is_reserved": 0}, {"rental_uris": {"ios": "https://dc.lft.to/lastmile_qr_scan", "android": "https://dc.lft.to/lastmile_qr_scan"}, "lon": -76.97498516666667, "type": "electric_scooter", "fusion_lat": 0.0, "lat": 38.86914216666667, "name": "ffe225b76eb73e0c3c2859113d7d21c4", "fusion_lon": 0.0, "bike_id": "ffe225b76eb73e0c3c2859113d7d21c4", "is_disabled": 0, "is_reserved": 0}, {"rental_uris": {"ios": "https://dc.lft.to/lastmile_qr_scan", "android": "https://dc.lft.to/lastmile_qr_scan"}, "lon": -77.04993933333333, "type": "electric_scooter", "fusion_lat": 0.0, "lat": 38.90115816666667, "name": "ed8445b18b53b0b30673a2f78319ae48", "fusion_lon": 0.0, "bike_id": "ed8445b18b53b0b30673a2f78319ae48", "is_disabled": 0, "is_reserved": 0}, {"rental_uris": {"ios": "https://dc.lft.to/lastmile_qr_scan", "android": "https://dc.lft.to/lastmile_qr_scan"}, "lon": -77.04362633333334, "type": "electric_scooter", "fusion_lat": 0.0, "lat": 38.92809, "name": "8ddf516f7e451255485136602c604bb3", "fusion_lon": 0.0, "bike_id": "8ddf516f7e451255485136602c604bb3", "is_disabled": 0, "is_reserved": 0}, {"rental_uris": {"ios": "https://dc.lft.to/lastmile_qr_scan", "android": "https://dc.lft.to/lastmile_qr_scan"}, "lon": -77.0207475, "type": "electric_scooter", "fusion_lat": 0.0, "lat": 38.91553616666667, "name": "2618b8e587b20ced675c3b1c0613987f", "fusion_lon": 0.0, "bike_id": "2618b8e587b20ced675c3b1c0613987f", "is_disabled": 0, "is_reserved": 0}, {"rental_uris": {"ios": "https://dc.lft.to/lastmile_qr_scan", "android": "https://dc.lft.to/lastmile_qr_scan"}, "lon": -76.99486933333333, "type": "electric_scooter", "fusion_lat": 0.0, "lat": 38.89956866666667, "name": "5c89045213ac8761dfc0917ed76e88b2", "fusion_lon": 0.0, "bike_id": "5c89045213ac8761dfc0917ed76e88b2", "is_disabled": 0, "is_reserved": 0}, {"rental_uris": {"ios": "https://dc.lft.to/lastmile_qr_scan", "android": "https://dc.lft.to/lastmile_qr_scan"}, "lon": -77.03480866666666, "type": "electric_scooter", "fusion_lat": 0.0, "lat": 38.907901333333335, "name": "3bc464c896fd321db2e181f2f0df8bdb", "fusion_lon": 0.0, "bike_id": "3bc464c896fd321db2e181f2f0df8bdb", "is_disabled": 0, "is_reserved": 0}, {"rental_uris": {"ios": "https://dc.lft.to/lastmile_qr_scan", "android": "https://dc.lft.to/lastmile_qr_scan"}, "lon": -77.03861666666667, "type": "electric_scooter", "fusion_lat": 0.0, "lat": 38.902925833333335, "name": "257c13aa893f8a58bcac976a4860205c", "fusion_lon": 0.0, "bike_id": "257c13aa893f8a58bcac976a4860205c", "is_disabled": 0, "is_reserved": 0}, {"rental_uris": {"ios": "https://dc.lft.to/lastmile_qr_scan", "android": "https://dc.lft.to/lastmile_qr_scan"}, "lon": -77.04624, "type": "electric_bike", "fusion_lat": 0.0, "lat": 38.999061833333336, "name": "8b55d0eed1cc825e7de854df9629492d", "fusion_lon": 0.0, "bike_id": "8b55d0eed1cc825e7de854df9629492d", "is_disabled": 0, "is_reserved": 0}, {"rental_uris": {"ios": "https://dc.lft.to/lastmile_qr_scan", "android": "https://dc.lft.to/lastmile_qr_scan"}, "lon": -77.03262083333334, "type": "electric_scooter", "fusion_lat": 0.0, "lat": 38.93519366666666, "name": "74a1fa944ce0a56f8e38e83866e3df97", "fusion_lon": 0.0, "bike_id": "74a1fa944ce0a56f8e38e83866e3df97", "is_disabled": 0, "is_reserved": 0}, {"rental_uris": {"ios": "https://dc.lft.to/lastmile_qr_scan", "android": "https://dc.lft.to/lastmile_qr_scan"}, "lon": -77.0381235, "type": "electric_scooter", "fusion_lat": 0.0, "lat": 38.93114283333333, "name": "7b92c7a66f1615137282c781cf27cd7a", "fusion_lon": 0.0, "bike_id": "7b92c7a66f1615137282c781cf27cd7a", "is_disabled": 0, "is_reserved": 0}, {"rental_uris": {"ios": "https://dc.lft.to/lastmile_qr_scan", "android": "https://dc.lft.to/lastmile_qr_scan"}, "lon": -77.03576766666667, "type": "electric_scooter", "fusion_lat": 0.0, "lat": 38.933843833333334, "name": "b33dab7201a7857d317e91ac273bacf5", "fusion_lon": 0.0, "bike_id": "b33dab7201a7857d317e91ac273bacf5", "is_disabled": 0, "is_reserved": 0}, {"rental_uris": {"ios": "https://dc.lft.to/lastmile_qr_scan", "android": "https://dc.lft.to/lastmile_qr_scan"}, "lon": -77.0962175, "type": "electric_bike", "fusion_lat": 0.0, "lat": 38.84569233333333, "name": "2a195d5a21f92dc29a49351d40b7b8da", "fusion_lon": 0.0, "bike_id": "2a195d5a21f92dc29a49351d40b7b8da", "is_disabled": 0, "is_reserved": 0}, {"rental_uris": {"ios": "https://dc.lft.to/lastmile_qr_scan", "android": "https://dc.lft.to/lastmile_qr_scan"}, "lon": -77.00051633333334, "type": "electric_scooter", "fusion_lat": 0.0, "lat": 38.92057533333333, "name": "cc0cc6de82f15429d941e573c970adf7", "fusion_lon": 0.0, "bike_id": "cc0cc6de82f15429d941e573c970adf7", "is_disabled": 0, "is_reserved": 0}, {"rental_uris": {"ios": "https://dc.lft.to/lastmile_qr_scan", "android": "https://dc.lft.to/lastmile_qr_scan"}, "lon": -77.064664, "type": "electric_bike", "fusion_lat": 0.0, "lat": 38.97379, "name": "a2a0c8744bb480be5c0cd6eddec0db8d", "fusion_lon": 0.0, "bike_id": "a2a0c8744bb480be5c0cd6eddec0db8d", "is_disabled": 0, "is_reserved": 0}, {"rental_uris": {"ios": "https://dc.lft.to/lastmile_qr_scan", "android": "https://dc.lft.to/lastmile_qr_scan"}, "lon": -77.07777733333333, "type": "electric_scooter", "fusion_lat": 0.0, "lat": 38.945625, "name": "bc14aa1ebf5d8b45cd0f14414fbc19d7", "fusion_lon": 0.0, "bike_id": "bc14aa1ebf5d8b45cd0f14414fbc19d7", "is_disabled": 0, "is_reserved": 0}, {"rental_uris": {"ios": "https://dc.lft.to/lastmile_qr_scan", "android": "https://dc.lft.to/lastmile_qr_scan"}, "lon": -76.98953066666667, "type": "electric_scooter", "fusion_lat": 0.0, "lat": 38.9013985, "name": "54aec8834c4a030eb0edb1c433ad3d5d", "fusion_lon": 0.0, "bike_id": "54aec8834c4a030eb0edb1c433ad3d5d", "is_disabled": 0, "is_reserved": 0}, {"rental_uris": {"ios": "https://dc.lft.to/lastmile_qr_scan", "android": "https://dc.lft.to/lastmile_qr_scan"}, "lon": -77.019753, "type": "electric_scooter", "fusion_lat": 0.0, "lat": 38.88741233333333, "name": "4eacc4a5b93b75b7795b1f047848a551", "fusion_lon": 0.0, "bike_id": "4eacc4a5b93b75b7795b1f047848a551", "is_disabled": 0, "is_reserved": 0}, {"rental_uris": {"ios": "https://dc.lft.to/lastmile_qr_scan", "android": "https://dc.lft.to/lastmile_qr_scan"}, "lon": -76.98844933333334, "type": "electric_bike", "fusion_lat": 0.0, "lat": 38.84269116666667, "name": "fce2102c56b74a7389bfce747a1b0253", "fusion_lon": 0.0, "bike_id": "fce2102c56b74a7389bfce747a1b0253", "is_disabled": 0, "is_reserved": 0}, {"rental_uris": {"ios": "https://dc.lft.to/lastmile_qr_scan", "android": "https://dc.lft.to/lastmile_qr_scan"}, "lon": -77.0481155, "type": "electric_scooter", "fusion_lat": 0.0, "lat": 38.90963566666667, "name": "a02cf26a951331726993bfabe2ed9d74", "fusion_lon": 0.0, "bike_id": "a02cf26a951331726993bfabe2ed9d74", "is_disabled": 0, "is_reserved": 0}, {"rental_uris": {"ios": "https://dc.lft.to/lastmile_qr_scan", "android": "https://dc.lft.to/lastmile_qr_scan"}, "lon": -77.03327583333333, "type": "electric_scooter", "fusion_lat": 0.0, "lat": 38.92882816666667, "name": "f2832509b743f5f109a78caed8baa086", "fusion_lon": 0.0, "bike_id": "f2832509b743f5f109a78caed8baa086", "is_disabled": 0, "is_reserved": 0}, {"rental_uris": {"ios": "https://dc.lft.to/lastmile_qr_scan", "android": "https://dc.lft.to/lastmile_qr_scan"}, "lon": -77.03792866666667, "type": "electric_scooter", "fusion_lat": 0.0, "lat": 38.92630316666666, "name": "0b161b4e18cf11e2f6a7a32781516b4e", "fusion_lon": 0.0, "bike_id": "0b161b4e18cf11e2f6a7a32781516b4e", "is_disabled": 0, "is_reserved": 0}, {"rental_uris": {"ios": "https://dc.lft.to/lastmile_qr_scan", "android": "https://dc.lft.to/lastmile_qr_scan"}, "lon": -77.03210083333333, "type": "electric_scooter", "fusion_lat": 0.0, "lat": 38.91668116666666, "name": "203de3fc0e8cf4a37e190c477d278f5b", "fusion_lon": 0.0, "bike_id": "203de3fc0e8cf4a37e190c477d278f5b", "is_disabled": 0, "is_reserved": 0}, {"rental_uris": {"ios": "https://dc.lft.to/lastmile_qr_scan", "android": "https://dc.lft.to/lastmile_qr_scan"}, "lon": -77.01233783333333, "type": "electric_scooter", "fusion_lat": 0.0, "lat": 38.90030766666667, "name": "65bd8d2280b2a29db18f195b48370bf0", "fusion_lon": 0.0, "bike_id": "65bd8d2280b2a29db18f195b48370bf0", "is_disabled": 0, "is_reserved": 0}, {"rental_uris": {"ios": "https://dc.lft.to/lastmile_qr_scan", "android": "https://dc.lft.to/lastmile_qr_scan"}, "lon": -76.99826616666667, "type": "electric_scooter", "fusion_lat": 0.0, "lat": 38.881204333333336, "name": "1adab0118cb5eff1b80cfd30efccd7b8", "fusion_lon": 0.0, "bike_id": "1adab0118cb5eff1b80cfd30efccd7b8", "is_disabled": 0, "is_reserved": 0}, {"rental_uris": {"ios": "https://dc.lft.to/lastmile_qr_scan", "android": "https://dc.lft.to/lastmile_qr_scan"}, "lon": -77.0383485, "type": "electric_scooter", "fusion_lat": 0.0, "lat": 38.914697833333335, "name": "e8d7c3f723d43e6107b8089a0c0cebcd", "fusion_lon": 0.0, "bike_id": "e8d7c3f723d43e6107b8089a0c0cebcd", "is_disabled": 0, "is_reserved": 0}, {"rental_uris": {"ios": "https://dc.lft.to/lastmile_qr_scan", "android": "https://dc.lft.to/lastmile_qr_scan"}, "lon": -77.00259466666667, "type": "electric_scooter", "fusion_lat": 0.0, "lat": 38.89896866666667, "name": "03550cad2dea0316b1b04b387d878901", "fusion_lon": 0.0, "bike_id": "03550cad2dea0316b1b04b387d878901", "is_disabled": 0, "is_reserved": 0}, {"rental_uris": {"ios": "https://dc.lft.to/lastmile_qr_scan", "android": "https://dc.lft.to/lastmile_qr_scan"}, "lon": -77.05605983333334, "type": "electric_bike", "fusion_lat": 0.0, "lat": 38.92413783333333, "name": "fced79b09dcb9ad6c46be4d3ec79c8fd", "fusion_lon": 0.0, "bike_id": "fced79b09dcb9ad6c46be4d3ec79c8fd", "is_disabled": 0, "is_reserved": 0}, {"rental_uris": {"ios": "https://dc.lft.to/lastmile_qr_scan", "android": "https://dc.lft.to/lastmile_qr_scan"}, "lon": -77.04010166666667, "type": "electric_scooter", "fusion_lat": 0.0, "lat": 38.909914666666666, "name": "9a57ac61971c974228c9c94443e39a4e", "fusion_lon": 0.0, "bike_id": "9a57ac61971c974228c9c94443e39a4e", "is_disabled": 0, "is_reserved": 0}, {"rental_uris": {"ios": "https://dc.lft.to/lastmile_qr_scan", "android": "https://dc.lft.to/lastmile_qr_scan"}, "lon": -77.04861033333333, "type": "electric_scooter", "fusion_lat": 0.0, "lat": 38.908460166666664, "name": "1011db5db18bf26d2ff8224fed603d35", "fusion_lon": 0.0, "bike_id": "1011db5db18bf26d2ff8224fed603d35", "is_disabled": 0, "is_reserved": 0}, {"rental_uris": {"ios": "https://dc.lft.to/lastmile_qr_scan", "android": "https://dc.lft.to/lastmile_qr_scan"}, "lon": -77.058125, "type": "electric_scooter", "fusion_lat": 0.0, "lat": 38.9344995, "name": "03021d59468ced50b0747920f25c0c8a", "fusion_lon": 0.0, "bike_id": "03021d59468ced50b0747920f25c0c8a", "is_disabled": 0, "is_reserved": 0}, {"rental_uris": {"ios": "https://dc.lft.to/lastmile_qr_scan", "android": "https://dc.lft.to/lastmile_qr_scan"}, "lon": -77.03227516666666, "type": "electric_scooter", "fusion_lat": 0.0, "lat": 38.92668783333333, "name": "b90e69277f43db49f042c9b333c54cf7", "fusion_lon": 0.0, "bike_id": "b90e69277f43db49f042c9b333c54cf7", "is_disabled": 0, "is_reserved": 0}, {"rental_uris": {"ios": "https://dc.lft.to/lastmile_qr_scan", "android": "https://dc.lft.to/lastmile_qr_scan"}, "lon": -76.97404766666666, "type": "electric_scooter", "fusion_lat": 0.0, "lat": 38.901582166666664, "name": "890fec471c973eb1e02741f048b2797b", "fusion_lon": 0.0, "bike_id": "890fec471c973eb1e02741f048b2797b", "is_disabled": 0, "is_reserved": 0}, {"rental_uris": {"ios": "https://dc.lft.to/lastmile_qr_scan", "android": "https://dc.lft.to/lastmile_qr_scan"}, "lon": -76.97494433333334, "type": "electric_bike", "fusion_lat": 0.0, "lat": 38.920019333333336, "name": "abe7b13910a7cc12c81a219d7a4efd1a", "fusion_lon": 0.0, "bike_id": "abe7b13910a7cc12c81a219d7a4efd1a", "is_disabled": 0, "is_reserved": 0}, {"rental_uris": {"ios": "https://dc.lft.to/lastmile_qr_scan", "android": "https://dc.lft.to/lastmile_qr_scan"}, "lon": -77.042658, "type": "electric_scooter", "fusion_lat": 0.0, "lat": 38.908137333333336, "name": "62f5f55619ea03ca9a5d6a8468d97c5e", "fusion_lon": 0.0, "bike_id": "62f5f55619ea03ca9a5d6a8468d97c5e", "is_disabled": 0, "is_reserved": 0}, {"rental_uris": {"ios": "https://dc.lft.to/lastmile_qr_scan", "android": "https://dc.lft.to/lastmile_qr_scan"}, "lon": -76.99780766666666, "type": "electric_scooter", "fusion_lat": 0.0, "lat": 38.9087455, "name": "9bbfdf4d8a210e351b60af58fa76d779", "fusion_lon": 0.0, "bike_id": "9bbfdf4d8a210e351b60af58fa76d779", "is_disabled": 0, "is_reserved": 0}, {"rental_uris": {"ios": "https://dc.lft.to/lastmile_qr_scan", "android": "https://dc.lft.to/lastmile_qr_scan"}, "lon": -76.93717883333333, "type": "electric_scooter", "fusion_lat": 0.0, "lat": 38.895889, "name": "baafd44998161755ab3c6f3deb5ffad5", "fusion_lon": 0.0, "bike_id": "baafd44998161755ab3c6f3deb5ffad5", "is_disabled": 0, "is_reserved": 0}, {"rental_uris": {"ios": "https://dc.lft.to/lastmile_qr_scan", "android": "https://dc.lft.to/lastmile_qr_scan"}, "lon": -77.02383666666667, "type": "electric_scooter", "fusion_lat": 0.0, "lat": 38.913719, "name": "f1ca7df4e346baa3592d2d2b7aba0614", "fusion_lon": 0.0, "bike_id": "f1ca7df4e346baa3592d2d2b7aba0614", "is_disabled": 0, "is_reserved": 0}, {"rental_uris": {"ios": "https://dc.lft.to/lastmile_qr_scan", "android": "https://dc.lft.to/lastmile_qr_scan"}, "lon": -77.04108316666667, "type": "electric_scooter", "fusion_lat": 0.0, "lat": 38.92447166666667, "name": "cc15ab1779fee2e1b2cbf2db74240b3b", "fusion_lon": 0.0, "bike_id": "cc15ab1779fee2e1b2cbf2db74240b3b", "is_disabled": 0, "is_reserved": 0}, {"rental_uris": {"ios": "https://dc.lft.to/lastmile_qr_scan", "android": "https://dc.lft.to/lastmile_qr_scan"}, "lon": -77.03421, "type": "electric_scooter", "fusion_lat": 0.0, "lat": 38.935392, "name": "19fec59d3a5f4ae3d772dcfbc63f26e6", "fusion_lon": 0.0, "bike_id": "19fec59d3a5f4ae3d772dcfbc63f26e6", "is_disabled": 0, "is_reserved": 0}, {"rental_uris": {"ios": "https://dc.lft.to/lastmile_qr_scan", "android": "https://dc.lft.to/lastmile_qr_scan"}, "lon": -77.006489, "type": "electric_scooter", "fusion_lat": 0.0, "lat": 38.8717375, "name": "32a4af3f9d74226a1607b163879b4459", "fusion_lon": 0.0, "bike_id": "32a4af3f9d74226a1607b163879b4459", "is_disabled": 0, "is_reserved": 0}, {"rental_uris": {"ios": "https://dc.lft.to/lastmile_qr_scan", "android": "https://dc.lft.to/lastmile_qr_scan"}, "lon": -77.02595583333333, "type": "electric_scooter", "fusion_lat": 0.0, "lat": 38.8926015, "name": "34e1cb996e9f0613e37a66a35d50d22b", "fusion_lon": 0.0, "bike_id": "34e1cb996e9f0613e37a66a35d50d22b", "is_disabled": 0, "is_reserved": 0}, {"rental_uris": {"ios": "https://dc.lft.to/lastmile_qr_scan", "android": "https://dc.lft.to/lastmile_qr_scan"}, "lon": -77.12960133333333, "type": "electric_bike", "fusion_lat": 0.0, "lat": 38.80785383333333, "name": "1bd2750d693e65d93ceed409b9a0cb22", "fusion_lon": 0.0, "bike_id": "1bd2750d693e65d93ceed409b9a0cb22", "is_disabled": 0, "is_reserved": 0}, {"rental_uris": {"ios": "https://dc.lft.to/lastmile_qr_scan", "android": "https://dc.lft.to/lastmile_qr_scan"}, "lon": -77.055213, "type": "electric_scooter", "fusion_lat": 0.0, "lat": 38.89730983333333, "name": "1d9ba618c05d9c794ec4d8ee22b3be21", "fusion_lon": 0.0, "bike_id": "1d9ba618c05d9c794ec4d8ee22b3be21", "is_disabled": 0, "is_reserved": 0}, {"rental_uris": {"ios": "https://dc.lft.to/lastmile_qr_scan", "android": "https://dc.lft.to/lastmile_qr_scan"}, "lon": -77.0128395, "type": "electric_bike", "fusion_lat": 0.0, "lat": 39.003803, "name": "b500f2ba65c92e542abf14014ac939cd", "fusion_lon": 0.0, "bike_id": "b500f2ba65c92e542abf14014ac939cd", "is_disabled": 0, "is_reserved": 0}, {"rental_uris": {"ios": "https://dc.lft.to/lastmile_qr_scan", "android": "https://dc.lft.to/lastmile_qr_scan"}, "lon": -77.08392583333334, "type": "electric_scooter", "fusion_lat": 0.0, "lat": 38.96091783333333, "name": "f690bb382c0218ce8f2f262e866cdd0c", "fusion_lon": 0.0, "bike_id": "f690bb382c0218ce8f2f262e866cdd0c", "is_disabled": 0, "is_reserved": 0}, {"rental_uris": {"ios": "https://dc.lft.to/lastmile_qr_scan", "android": "https://dc.lft.to/lastmile_qr_scan"}, "lon": -77.04493883333333, "type": "electric_scooter", "fusion_lat": 0.0, "lat": 38.91107383333333, "name": "0603f833465171dd1db93ce43f5e647f", "fusion_lon": 0.0, "bike_id": "0603f833465171dd1db93ce43f5e647f", "is_disabled": 0, "is_reserved": 0}, {"rental_uris": {"ios": "https://dc.lft.to/lastmile_qr_scan", "android": "https://dc.lft.to/lastmile_qr_scan"}, "lon": -77.0318, "type": "electric_scooter", "fusion_lat": 0.0, "lat": 38.887342333333336, "name": "c232d12b5f602785b22048e4770a09a1", "fusion_lon": 0.0, "bike_id": "c232d12b5f602785b22048e4770a09a1", "is_disabled": 0, "is_reserved": 0}, {"rental_uris": {"ios": "https://dc.lft.to/lastmile_qr_scan", "android": "https://dc.lft.to/lastmile_qr_scan"}, "lon": -77.04662883333333, "type": "electric_scooter", "fusion_lat": 0.0, "lat": 38.93294983333333, "name": "3b6c8a368fe3be070b205dc2146ebe91", "fusion_lon": 0.0, "bike_id": "3b6c8a368fe3be070b205dc2146ebe91", "is_disabled": 0, "is_reserved": 0}, {"rental_uris": {"ios": "https://dc.lft.to/lastmile_qr_scan", "android": "https://dc.lft.to/lastmile_qr_scan"}, "lon": -77.01612983333334, "type": "electric_scooter", "fusion_lat": 0.0, "lat": 38.901778666666665, "name": "254ddb563534070457a5e45eefacb46e", "fusion_lon": 0.0, "bike_id": "254ddb563534070457a5e45eefacb46e", "is_disabled": 0, "is_reserved": 0}, {"rental_uris": {"ios": "https://dc.lft.to/lastmile_qr_scan", "android": "https://dc.lft.to/lastmile_qr_scan"}, "lon": -77.032044, "type": "electric_scooter", "fusion_lat": 0.0, "lat": 38.91538716666667, "name": "77eddfde3966b7cc2a08e8b371dad433", "fusion_lon": 0.0, "bike_id": "77eddfde3966b7cc2a08e8b371dad433", "is_disabled": 0, "is_reserved": 0}, {"rental_uris": {"ios": "https://dc.lft.to/lastmile_qr_scan", "android": "https://dc.lft.to/lastmile_qr_scan"}, "lon": -77.04645116666667, "type": "electric_bike", "fusion_lat": 0.0, "lat": 38.85210216666667, "name": "3f671c8262895947c9d92172c8419f02", "fusion_lon": 0.0, "bike_id": "3f671c8262895947c9d92172c8419f02", "is_disabled": 0, "is_reserved": 0}, {"rental_uris": {"ios": "https://dc.lft.to/lastmile_qr_scan", "android": "https://dc.lft.to/lastmile_qr_scan"}, "lon": -76.99033766666666, "type": "electric_scooter", "fusion_lat": 0.0, "lat": 38.856576, "name": "c860e92dc9e90767b77abbf01c25ec15", "fusion_lon": 0.0, "bike_id": "c860e92dc9e90767b77abbf01c25ec15", "is_disabled": 0, "is_reserved": 0}, {"rental_uris": {"ios": "https://dc.lft.to/lastmile_qr_scan", "android": "https://dc.lft.to/lastmile_qr_scan"}, "lon": -76.9324605, "type": "electric_scooter", "fusion_lat": 0.0, "lat": 38.89403516666667, "name": "b659899a3192938b84c800c9fc2f307b", "fusion_lon": 0.0, "bike_id": "b659899a3192938b84c800c9fc2f307b", "is_disabled": 0, "is_reserved": 0}, {"rental_uris": {"ios": "https://dc.lft.to/lastmile_qr_scan", "android": "https://dc.lft.to/lastmile_qr_scan"}, "lon": -77.02856116666666, "type": "electric_scooter", "fusion_lat": 0.0, "lat": 38.88873666666667, "name": "729259337d8b4ca12762373a4bbc51f0", "fusion_lon": 0.0, "bike_id": "729259337d8b4ca12762373a4bbc51f0", "is_disabled": 0, "is_reserved": 0}, {"rental_uris": {"ios": "https://dc.lft.to/lastmile_qr_scan", "android": "https://dc.lft.to/lastmile_qr_scan"}, "lon": -76.98865233333333, "type": "electric_scooter", "fusion_lat": 0.0, "lat": 38.900271333333336, "name": "52e98daddf457fd348839ff36b013a96", "fusion_lon": 0.0, "bike_id": "52e98daddf457fd348839ff36b013a96", "is_disabled": 0, "is_reserved": 0}, {"rental_uris": {"ios": "https://dc.lft.to/lastmile_qr_scan", "android": "https://dc.lft.to/lastmile_qr_scan"}, "lon": -77.0454875, "type": "electric_scooter", "fusion_lat": 0.0, "lat": 38.934065833333335, "name": "da7ca15f36896cd6360f9733516b5e39", "fusion_lon": 0.0, "bike_id": "da7ca15f36896cd6360f9733516b5e39", "is_disabled": 0, "is_reserved": 0}, {"rental_uris": {"ios": "https://dc.lft.to/lastmile_qr_scan", "android": "https://dc.lft.to/lastmile_qr_scan"}, "lon": -76.988425, "type": "electric_bike", "fusion_lat": 0.0, "lat": 38.89606766666667, "name": "2618ee7e37cdd85bf92ba8535f1449a0", "fusion_lon": 0.0, "bike_id": "2618ee7e37cdd85bf92ba8535f1449a0", "is_disabled": 0, "is_reserved": 0}, {"rental_uris": {"ios": "https://dc.lft.to/lastmile_qr_scan", "android": "https://dc.lft.to/lastmile_qr_scan"}, "lon": -77.04641066666667, "type": "electric_scooter", "fusion_lat": 0.0, "lat": 38.89347333333333, "name": "abdaefaf0f6b12e30d08d0a8a2926420", "fusion_lon": 0.0, "bike_id": "abdaefaf0f6b12e30d08d0a8a2926420", "is_disabled": 0, "is_reserved": 0}, {"rental_uris": {"ios": "https://dc.lft.to/lastmile_qr_scan", "android": "https://dc.lft.to/lastmile_qr_scan"}, "lon": -76.94034333333333, "type": "electric_scooter", "fusion_lat": 0.0, "lat": 38.900728666666666, "name": "2a0f893c171ee62d8377718a1ebe2116", "fusion_lon": 0.0, "bike_id": "2a0f893c171ee62d8377718a1ebe2116", "is_disabled": 0, "is_reserved": 0}, {"rental_uris": {"ios": "https://dc.lft.to/lastmile_qr_scan", "android": "https://dc.lft.to/lastmile_qr_scan"}, "lon": -77.0230885, "type": "electric_scooter", "fusion_lat": 0.0, "lat": 38.9298835, "name": "2b5612ed851caf33b6b26a193e8a8cd9", "fusion_lon": 0.0, "bike_id": "2b5612ed851caf33b6b26a193e8a8cd9", "is_disabled": 0, "is_reserved": 0}, {"rental_uris": {"ios": "https://dc.lft.to/lastmile_qr_scan", "android": "https://dc.lft.to/lastmile_qr_scan"}, "lon": -77.00110183333334, "type": "electric_scooter", "fusion_lat": 0.0, "lat": 38.908455333333336, "name": "027b3bf7edab57568c472b36f18331cc", "fusion_lon": 0.0, "bike_id": "027b3bf7edab57568c472b36f18331cc", "is_disabled": 0, "is_reserved": 0}, {"rental_uris": {"ios": "https://dc.lft.to/lastmile_qr_scan", "android": "https://dc.lft.to/lastmile_qr_scan"}, "lon": -77.0065095, "type": "electric_scooter", "fusion_lat": 0.0, "lat": 38.8717985, "name": "4955ff2158583fa3c00ba50bd1d62d42", "fusion_lon": 0.0, "bike_id": "4955ff2158583fa3c00ba50bd1d62d42", "is_disabled": 0, "is_reserved": 0}, {"rental_uris": {"ios": "https://dc.lft.to/lastmile_qr_scan", "android": "https://dc.lft.to/lastmile_qr_scan"}, "lon": -77.05766266666667, "type": "electric_scooter", "fusion_lat": 0.0, "lat": 38.9052985, "name": "4212ca72fdce9dbcb023309c8ec9943d", "fusion_lon": 0.0, "bike_id": "4212ca72fdce9dbcb023309c8ec9943d", "is_disabled": 0, "is_reserved": 0}, {"rental_uris": {"ios": "https://dc.lft.to/lastmile_qr_scan", "android": "https://dc.lft.to/lastmile_qr_scan"}, "lon": -77.03286683333333, "type": "electric_scooter", "fusion_lat": 0.0, "lat": 38.923474, "name": "e7d15f73992853836c51c8e428cc656e", "fusion_lon": 0.0, "bike_id": "e7d15f73992853836c51c8e428cc656e", "is_disabled": 0, "is_reserved": 0}, {"rental_uris": {"ios": "https://dc.lft.to/lastmile_qr_scan", "android": "https://dc.lft.to/lastmile_qr_scan"}, "lon": -77.036564, "type": "electric_scooter", "fusion_lat": 0.0, "lat": 38.918143, "name": "e748fca4fe3cc2f1363d5a00ca3d2441", "fusion_lon": 0.0, "bike_id": "e748fca4fe3cc2f1363d5a00ca3d2441", "is_disabled": 0, "is_reserved": 0}, {"rental_uris": {"ios": "https://dc.lft.to/lastmile_qr_scan", "android": "https://dc.lft.to/lastmile_qr_scan"}, "lon": -77.03618133333333, "type": "electric_scooter", "fusion_lat": 0.0, "lat": 38.92854033333333, "name": "d8664ac1f8e640a551a85d2d823e3a24", "fusion_lon": 0.0, "bike_id": "d8664ac1f8e640a551a85d2d823e3a24", "is_disabled": 0, "is_reserved": 0}, {"rental_uris": {"ios": "https://dc.lft.to/lastmile_qr_scan", "android": "https://dc.lft.to/lastmile_qr_scan"}, "lon": -77.02980916666667, "type": "electric_scooter", "fusion_lat": 0.0, "lat": 38.9459985, "name": "4808fc2fe7fc844eaf0d7c5291385154", "fusion_lon": 0.0, "bike_id": "4808fc2fe7fc844eaf0d7c5291385154", "is_disabled": 0, "is_reserved": 0}, {"rental_uris": {"ios": "https://dc.lft.to/lastmile_qr_scan", "android": "https://dc.lft.to/lastmile_qr_scan"}, "lon": -77.0020325, "type": "electric_scooter", "fusion_lat": 0.0, "lat": 38.900328333333334, "name": "599d4df5ba8f0d6cb05066284af11aee", "fusion_lon": 0.0, "bike_id": "599d4df5ba8f0d6cb05066284af11aee", "is_disabled": 0, "is_reserved": 0}, {"rental_uris": {"ios": "https://dc.lft.to/lastmile_qr_scan", "android": "https://dc.lft.to/lastmile_qr_scan"}, "lon": -77.0422295, "type": "electric_scooter", "fusion_lat": 0.0, "lat": 38.92090966666667, "name": "34924502766e45c313e7a8e745187b99", "fusion_lon": 0.0, "bike_id": "34924502766e45c313e7a8e745187b99", "is_disabled": 0, "is_reserved": 0}, {"rental_uris": {"ios": "https://dc.lft.to/lastmile_qr_scan", "android": "https://dc.lft.to/lastmile_qr_scan"}, "lon": -77.0109285, "type": "electric_scooter", "fusion_lat": 0.0, "lat": 38.90729, "name": "5a868ecc5f08a15b4edd3e295cdc383d", "fusion_lon": 0.0, "bike_id": "5a868ecc5f08a15b4edd3e295cdc383d", "is_disabled": 0, "is_reserved": 0}, {"rental_uris": {"ios": "https://dc.lft.to/lastmile_qr_scan", "android": "https://dc.lft.to/lastmile_qr_scan"}, "lon": -77.122617, "type": "electric_bike", "fusion_lat": 0.0, "lat": 38.853343333333335, "name": "d88a82f07ee20dfeb79912680b547ffc", "fusion_lon": 0.0, "bike_id": "d88a82f07ee20dfeb79912680b547ffc", "is_disabled": 0, "is_reserved": 0}, {"rental_uris": {"ios": "https://dc.lft.to/lastmile_qr_scan", "android": "https://dc.lft.to/lastmile_qr_scan"}, "lon": -77.04442133333333, "type": "electric_scooter", "fusion_lat": 0.0, "lat": 38.91008466666667, "name": "26b8b89cb753f3a0c0b3c126c17160ca", "fusion_lon": 0.0, "bike_id": "26b8b89cb753f3a0c0b3c126c17160ca", "is_disabled": 0, "is_reserved": 0}, {"rental_uris": {"ios": "https://dc.lft.to/lastmile_qr_scan", "android": "https://dc.lft.to/lastmile_qr_scan"}, "lon": -76.99495866666666, "type": "electric_scooter", "fusion_lat": 0.0, "lat": 38.86240016666667, "name": "4cff2e3758e0abe120e03fa4d80541d7", "fusion_lon": 0.0, "bike_id": "4cff2e3758e0abe120e03fa4d80541d7", "is_disabled": 0, "is_reserved": 0}, {"rental_uris": {"ios": "https://dc.lft.to/lastmile_qr_scan", "android": "https://dc.lft.to/lastmile_qr_scan"}, "lon": -76.93172683333333, "type": "electric_scooter", "fusion_lat": 0.0, "lat": 38.89885266666667, "name": "ba0ec4f9d11ac1a364dad478c3c643f4", "fusion_lon": 0.0, "bike_id": "ba0ec4f9d11ac1a364dad478c3c643f4", "is_disabled": 0, "is_reserved": 0}, {"rental_uris": {"ios": "https://dc.lft.to/lastmile_qr_scan", "android": "https://dc.lft.to/lastmile_qr_scan"}, "lon": -77.0733745, "type": "electric_scooter", "fusion_lat": 0.0, "lat": 38.935498833333334, "name": "4bc919b481349fdbd983b1e580edd8af", "fusion_lon": 0.0, "bike_id": "4bc919b481349fdbd983b1e580edd8af", "is_disabled": 0, "is_reserved": 0}, {"rental_uris": {"ios": "https://dc.lft.to/lastmile_qr_scan", "android": "https://dc.lft.to/lastmile_qr_scan"}, "lon": -76.99143516666666, "type": "electric_scooter", "fusion_lat": 0.0, "lat": 38.9003935, "name": "738d966c39ff299eb86c671caf1fe07a", "fusion_lon": 0.0, "bike_id": "738d966c39ff299eb86c671caf1fe07a", "is_disabled": 0, "is_reserved": 0}, {"rental_uris": {"ios": "https://dc.lft.to/lastmile_qr_scan", "android": "https://dc.lft.to/lastmile_qr_scan"}, "lon": -77.01175083333334, "type": "electric_scooter", "fusion_lat": 0.0, "lat": 38.900349, "name": "0f955e77d0773deabdbb30dc66b1d8d0", "fusion_lon": 0.0, "bike_id": "0f955e77d0773deabdbb30dc66b1d8d0", "is_disabled": 0, "is_reserved": 0}, {"rental_uris": {"ios": "https://dc.lft.to/lastmile_qr_scan", "android": "https://dc.lft.to/lastmile_qr_scan"}, "lon": -77.0418765, "type": "electric_scooter", "fusion_lat": 0.0, "lat": 38.900567333333335, "name": "b844c35dd4f335688d23201b644afcf4", "fusion_lon": 0.0, "bike_id": "b844c35dd4f335688d23201b644afcf4", "is_disabled": 0, "is_reserved": 0}, {"rental_uris": {"ios": "https://dc.lft.to/lastmile_qr_scan", "android": "https://dc.lft.to/lastmile_qr_scan"}, "lon": -76.9871995, "type": "electric_scooter", "fusion_lat": 0.0, "lat": 38.862586666666665, "name": "9a6b0f33287d8051ef2b1813508c8aad", "fusion_lon": 0.0, "bike_id": "9a6b0f33287d8051ef2b1813508c8aad", "is_disabled": 0, "is_reserved": 0}, {"rental_uris": {"ios": "https://dc.lft.to/lastmile_qr_scan", "android": "https://dc.lft.to/lastmile_qr_scan"}, "lon": -77.13596166666666, "type": "electric_bike", "fusion_lat": 0.0, "lat": 39.05343666666667, "name": "dfd0cd7487c4b87b77204c8ece28772b", "fusion_lon": 0.0, "bike_id": "dfd0cd7487c4b87b77204c8ece28772b", "is_disabled": 0, "is_reserved": 0}, {"rental_uris": {"ios": "https://dc.lft.to/lastmile_qr_scan", "android": "https://dc.lft.to/lastmile_qr_scan"}, "lon": -77.04185416666667, "type": "electric_scooter", "fusion_lat": 0.0, "lat": 38.92014866666667, "name": "900748444ebd8fccb5cfb4f715dacad1", "fusion_lon": 0.0, "bike_id": "900748444ebd8fccb5cfb4f715dacad1", "is_disabled": 0, "is_reserved": 0}, {"rental_uris": {"ios": "https://dc.lft.to/lastmile_qr_scan", "android": "https://dc.lft.to/lastmile_qr_scan"}, "lon": -77.012546, "type": "electric_scooter", "fusion_lat": 0.0, "lat": 38.8995845, "name": "23be312beff7dcbae5cd514b28c8b7f3", "fusion_lon": 0.0, "bike_id": "23be312beff7dcbae5cd514b28c8b7f3", "is_disabled": 0, "is_reserved": 0}, {"rental_uris": {"ios": "https://dc.lft.to/lastmile_qr_scan", "android": "https://dc.lft.to/lastmile_qr_scan"}, "lon": -77.04344583333334, "type": "electric_scooter", "fusion_lat": 0.0, "lat": 38.9079515, "name": "57a4fdb549543efefc94a20d5d735741", "fusion_lon": 0.0, "bike_id": "57a4fdb549543efefc94a20d5d735741", "is_disabled": 0, "is_reserved": 0}, {"rental_uris": {"ios": "https://dc.lft.to/lastmile_qr_scan", "android": "https://dc.lft.to/lastmile_qr_scan"}, "lon": -77.05501133333334, "type": "electric_scooter", "fusion_lat": 0.0, "lat": 38.929728833333336, "name": "151fbe85eb88b83ed14a06d17942829a", "fusion_lon": 0.0, "bike_id": "151fbe85eb88b83ed14a06d17942829a", "is_disabled": 0, "is_reserved": 0}, {"rental_uris": {"ios": "https://dc.lft.to/lastmile_qr_scan", "android": "https://dc.lft.to/lastmile_qr_scan"}, "lon": -77.02155183333333, "type": "electric_scooter", "fusion_lat": 0.0, "lat": 38.9260085, "name": "000ccb5c0cb14a2af5de9c9dc492fda0", "fusion_lon": 0.0, "bike_id": "000ccb5c0cb14a2af5de9c9dc492fda0", "is_disabled": 0, "is_reserved": 0}, {"rental_uris": {"ios": "https://dc.lft.to/lastmile_qr_scan", "android": "https://dc.lft.to/lastmile_qr_scan"}, "lon": -76.990006, "type": "electric_scooter", "fusion_lat": 0.0, "lat": 38.86503, "name": "61a4855ddf0ed8f2d843fa72b1b8aba1", "fusion_lon": 0.0, "bike_id": "61a4855ddf0ed8f2d843fa72b1b8aba1", "is_disabled": 0, "is_reserved": 0}, {"rental_uris": {"ios": "https://dc.lft.to/lastmile_qr_scan", "android": "https://dc.lft.to/lastmile_qr_scan"}, "lon": -77.052915, "type": "electric_scooter", "fusion_lat": 0.0, "lat": 38.918956666666666, "name": "d9eb1d8f745125d12ccd4c598a4ce5ee", "fusion_lon": 0.0, "bike_id": "d9eb1d8f745125d12ccd4c598a4ce5ee", "is_disabled": 0, "is_reserved": 0}, {"rental_uris": {"ios": "https://dc.lft.to/lastmile_qr_scan", "android": "https://dc.lft.to/lastmile_qr_scan"}, "lon": -77.070679, "type": "electric_scooter", "fusion_lat": 0.0, "lat": 38.95219383333333, "name": "6191344aeba9e5bee6f594b5da79299a", "fusion_lon": 0.0, "bike_id": "6191344aeba9e5bee6f594b5da79299a", "is_disabled": 0, "is_reserved": 0}, {"rental_uris": {"ios": "https://dc.lft.to/lastmile_qr_scan", "android": "https://dc.lft.to/lastmile_qr_scan"}, "lon": -77.0086175, "type": "electric_bike", "fusion_lat": 0.0, "lat": 38.827254, "name": "92ff4639894b29e381d4b8462cc4ed90", "fusion_lon": 0.0, "bike_id": "92ff4639894b29e381d4b8462cc4ed90", "is_disabled": 0, "is_reserved": 0}, {"rental_uris": {"ios": "https://dc.lft.to/lastmile_qr_scan", "android": "https://dc.lft.to/lastmile_qr_scan"}, "lon": -77.05396366666666, "type": "electric_scooter", "fusion_lat": 0.0, "lat": 38.9025715, "name": "fb30ce252131418d8b71d5bd0b43c3de", "fusion_lon": 0.0, "bike_id": "fb30ce252131418d8b71d5bd0b43c3de", "is_disabled": 0, "is_reserved": 0}, {"rental_uris": {"ios": "https://dc.lft.to/lastmile_qr_scan", "android": "https://dc.lft.to/lastmile_qr_scan"}, "lon": -77.04199166666666, "type": "electric_scooter", "fusion_lat": 0.0, "lat": 38.90336516666667, "name": "c2d2b854de8dc73c0626dee975913a05", "fusion_lon": 0.0, "bike_id": "c2d2b854de8dc73c0626dee975913a05", "is_disabled": 0, "is_reserved": 0}, {"rental_uris": {"ios": "https://dc.lft.to/lastmile_qr_scan", "android": "https://dc.lft.to/lastmile_qr_scan"}, "lon": -77.047129, "type": "electric_scooter", "fusion_lat": 0.0, "lat": 38.9223175, "name": "5e3899e34dcc9e9bd87066907d90d6be", "fusion_lon": 0.0, "bike_id": "5e3899e34dcc9e9bd87066907d90d6be", "is_disabled": 0, "is_reserved": 0}, {"rental_uris": {"ios": "https://dc.lft.to/lastmile_qr_scan", "android": "https://dc.lft.to/lastmile_qr_scan"}, "lon": -77.034056, "type": "electric_scooter", "fusion_lat": 0.0, "lat": 38.92268933333333, "name": "2e09cda9e370f133c45efb16d8631914", "fusion_lon": 0.0, "bike_id": "2e09cda9e370f133c45efb16d8631914", "is_disabled": 0, "is_reserved": 0}, {"rental_uris": {"ios": "https://dc.lft.to/lastmile_qr_scan", "android": "https://dc.lft.to/lastmile_qr_scan"}, "lon": -77.03109316666666, "type": "electric_scooter", "fusion_lat": 0.0, "lat": 38.9141515, "name": "cead5218c98b337bb8352ae7ea5976bd", "fusion_lon": 0.0, "bike_id": "cead5218c98b337bb8352ae7ea5976bd", "is_disabled": 0, "is_reserved": 0}, {"rental_uris": {"ios": "https://dc.lft.to/lastmile_qr_scan", "android": "https://dc.lft.to/lastmile_qr_scan"}, "lon": -77.028206, "type": "electric_scooter", "fusion_lat": 0.0, "lat": 38.88649483333333, "name": "24ee31d53ecb3430ab03f41f6ed74c26", "fusion_lon": 0.0, "bike_id": "24ee31d53ecb3430ab03f41f6ed74c26", "is_disabled": 0, "is_reserved": 0}, {"rental_uris": {"ios": "https://dc.lft.to/lastmile_qr_scan", "android": "https://dc.lft.to/lastmile_qr_scan"}, "lon": -76.9489085, "type": "electric_scooter", "fusion_lat": 0.0, "lat": 38.89523966666667, "name": "bc3e0c90050f8f311112e016cba7504a", "fusion_lon": 0.0, "bike_id": "bc3e0c90050f8f311112e016cba7504a", "is_disabled": 0, "is_reserved": 0}, {"rental_uris": {"ios": "https://dc.lft.to/lastmile_qr_scan", "android": "https://dc.lft.to/lastmile_qr_scan"}, "lon": -77.04514033333334, "type": "electric_bike", "fusion_lat": 0.0, "lat": 38.909783833333336, "name": "c02d4b44850aad95e2819510d6a0edf0", "fusion_lon": 0.0, "bike_id": "c02d4b44850aad95e2819510d6a0edf0", "is_disabled": 0, "is_reserved": 0}, {"rental_uris": {"ios": "https://dc.lft.to/lastmile_qr_scan", "android": "https://dc.lft.to/lastmile_qr_scan"}, "lon": -77.02157516666666, "type": "electric_scooter", "fusion_lat": 0.0, "lat": 38.926027833333336, "name": "9f231a46ee9a5a87f8b08e7a3a2130d1", "fusion_lon": 0.0, "bike_id": "9f231a46ee9a5a87f8b08e7a3a2130d1", "is_disabled": 0, "is_reserved": 0}, {"rental_uris": {"ios": "https://dc.lft.to/lastmile_qr_scan", "android": "https://dc.lft.to/lastmile_qr_scan"}, "lon": -77.03347866666667, "type": "electric_scooter", "fusion_lat": 0.0, "lat": 38.917117833333336, "name": "5f9313244b95815f1f6e5ffa386bea85", "fusion_lon": 0.0, "bike_id": "5f9313244b95815f1f6e5ffa386bea85", "is_disabled": 0, "is_reserved": 0}, {"rental_uris": {"ios": "https://dc.lft.to/lastmile_qr_scan", "android": "https://dc.lft.to/lastmile_qr_scan"}, "lon": -77.012938, "type": "electric_bike", "fusion_lat": 0.0, "lat": 38.881209166666665, "name": "776d7d88f60efb04a75377b207f2c97c", "fusion_lon": 0.0, "bike_id": "776d7d88f60efb04a75377b207f2c97c", "is_disabled": 0, "is_reserved": 0}, {"rental_uris": {"ios": "https://dc.lft.to/lastmile_qr_scan", "android": "https://dc.lft.to/lastmile_qr_scan"}, "lon": -77.00580366666667, "type": "electric_scooter", "fusion_lat": 0.0, "lat": 38.8449495, "name": "589f7fde15c8c716462dedef8ac79db4", "fusion_lon": 0.0, "bike_id": "589f7fde15c8c716462dedef8ac79db4", "is_disabled": 0, "is_reserved": 0}, {"rental_uris": {"ios": "https://dc.lft.to/lastmile_qr_scan", "android": "https://dc.lft.to/lastmile_qr_scan"}, "lon": -77.032099, "type": "electric_scooter", "fusion_lat": 0.0, "lat": 38.907818, "name": "b0c2294f6a3a9a2a8a4456048f1a8a3f", "fusion_lon": 0.0, "bike_id": "b0c2294f6a3a9a2a8a4456048f1a8a3f", "is_disabled": 0, "is_reserved": 0}, {"rental_uris": {"ios": "https://dc.lft.to/lastmile_qr_scan", "android": "https://dc.lft.to/lastmile_qr_scan"}, "lon": -77.045137, "type": "electric_scooter", "fusion_lat": 0.0, "lat": 38.912896833333335, "name": "4c59550087674a47a7c14b8923573ee0", "fusion_lon": 0.0, "bike_id": "4c59550087674a47a7c14b8923573ee0", "is_disabled": 0, "is_reserved": 0}, {"rental_uris": {"ios": "https://dc.lft.to/lastmile_qr_scan", "android": "https://dc.lft.to/lastmile_qr_scan"}, "lon": -77.00498133333333, "type": "electric_scooter", "fusion_lat": 0.0, "lat": 38.914126333333336, "name": "60fbbe5303243b0f2f87cb404dba01f3", "fusion_lon": 0.0, "bike_id": "60fbbe5303243b0f2f87cb404dba01f3", "is_disabled": 0, "is_reserved": 0}, {"rental_uris": {"ios": "https://dc.lft.to/lastmile_qr_scan", "android": "https://dc.lft.to/lastmile_qr_scan"}, "lon": -76.9733605, "type": "electric_scooter", "fusion_lat": 0.0, "lat": 38.9177355, "name": "56901dcc84a1eab700c0a870b005afc0", "fusion_lon": 0.0, "bike_id": "56901dcc84a1eab700c0a870b005afc0", "is_disabled": 0, "is_reserved": 0}, {"rental_uris": {"ios": "https://dc.lft.to/lastmile_qr_scan", "android": "https://dc.lft.to/lastmile_qr_scan"}, "lon": -77.043129, "type": "electric_scooter", "fusion_lat": 0.0, "lat": 38.918767833333334, "name": "18d477243640d669e37aefd8203dc06a", "fusion_lon": 0.0, "bike_id": "18d477243640d669e37aefd8203dc06a", "is_disabled": 0, "is_reserved": 0}, {"rental_uris": {"ios": "https://dc.lft.to/lastmile_qr_scan", "android": "https://dc.lft.to/lastmile_qr_scan"}, "lon": -77.03195016666666, "type": "electric_scooter", "fusion_lat": 0.0, "lat": 38.91477616666667, "name": "84b8815dded4069c5fdefd9d07a16e4e", "fusion_lon": 0.0, "bike_id": "84b8815dded4069c5fdefd9d07a16e4e", "is_disabled": 0, "is_reserved": 0}, {"rental_uris": {"ios": "https://dc.lft.to/lastmile_qr_scan", "android": "https://dc.lft.to/lastmile_qr_scan"}, "lon": -77.02447816666667, "type": "electric_scooter", "fusion_lat": 0.0, "lat": 38.937447, "name": "98a2ad6134f399e607421e5ee536e1a7", "fusion_lon": 0.0, "bike_id": "98a2ad6134f399e607421e5ee536e1a7", "is_disabled": 0, "is_reserved": 0}, {"rental_uris": {"ios": "https://dc.lft.to/lastmile_qr_scan", "android": "https://dc.lft.to/lastmile_qr_scan"}, "lon": -76.9818315, "type": "electric_scooter", "fusion_lat": 0.0, "lat": 38.89583233333333, "name": "5c690e1fe60af128c0b8e6ed8a854e60", "fusion_lon": 0.0, "bike_id": "5c690e1fe60af128c0b8e6ed8a854e60", "is_disabled": 0, "is_reserved": 0}, {"rental_uris": {"ios": "https://dc.lft.to/lastmile_qr_scan", "android": "https://dc.lft.to/lastmile_qr_scan"}, "lon": -76.90961983333334, "type": "electric_bike", "fusion_lat": 0.0, "lat": 38.854253166666666, "name": "5440557ca57113865701f2d950c7712f", "fusion_lon": 0.0, "bike_id": "5440557ca57113865701f2d950c7712f", "is_disabled": 0, "is_reserved": 0}, {"rental_uris": {"ios": "https://dc.lft.to/lastmile_qr_scan", "android": "https://dc.lft.to/lastmile_qr_scan"}, "lon": -77.01614866666667, "type": "electric_scooter", "fusion_lat": 0.0, "lat": 38.8996105, "name": "751438e0be22875c24ee2680a9700f55", "fusion_lon": 0.0, "bike_id": "751438e0be22875c24ee2680a9700f55", "is_disabled": 0, "is_reserved": 0}, {"rental_uris": {"ios": "https://dc.lft.to/lastmile_qr_scan", "android": "https://dc.lft.to/lastmile_qr_scan"}, "lon": -77.03294016666666, "type": "electric_scooter", "fusion_lat": 0.0, "lat": 38.91803866666667, "name": "9a340d93e1c022fdbc3e31797392f60d", "fusion_lon": 0.0, "bike_id": "9a340d93e1c022fdbc3e31797392f60d", "is_disabled": 0, "is_reserved": 0}, {"rental_uris": {"ios": "https://dc.lft.to/lastmile_qr_scan", "android": "https://dc.lft.to/lastmile_qr_scan"}, "lon": -77.0235455, "type": "electric_scooter", "fusion_lat": 0.0, "lat": 38.92499816666667, "name": "680b277e9bd22e7d27cd905c82b1659d", "fusion_lon": 0.0, "bike_id": "680b277e9bd22e7d27cd905c82b1659d", "is_disabled": 0, "is_reserved": 0}, {"rental_uris": {"ios": "https://dc.lft.to/lastmile_qr_scan", "android": "https://dc.lft.to/lastmile_qr_scan"}, "lon": -77.0367735, "type": "electric_scooter", "fusion_lat": 0.0, "lat": 38.9392195, "name": "91316dc1d2c198968ba170f9cd6f58bd", "fusion_lon": 0.0, "bike_id": "91316dc1d2c198968ba170f9cd6f58bd", "is_disabled": 0, "is_reserved": 0}, {"rental_uris": {"ios": "https://dc.lft.to/lastmile_qr_scan", "android": "https://dc.lft.to/lastmile_qr_scan"}, "lon": -77.0130935, "type": "electric_scooter", "fusion_lat": 0.0, "lat": 38.92116683333333, "name": "84d5261de1c0e8ab4abed7190ceda086", "fusion_lon": 0.0, "bike_id": "84d5261de1c0e8ab4abed7190ceda086", "is_disabled": 0, "is_reserved": 0}, {"rental_uris": {"ios": "https://dc.lft.to/lastmile_qr_scan", "android": "https://dc.lft.to/lastmile_qr_scan"}, "lon": -76.9489075, "type": "electric_scooter", "fusion_lat": 0.0, "lat": 38.8952645, "name": "af687af444fe8d45b25384c930d68ccf", "fusion_lon": 0.0, "bike_id": "af687af444fe8d45b25384c930d68ccf", "is_disabled": 0, "is_reserved": 0}, {"rental_uris": {"ios": "https://dc.lft.to/lastmile_qr_scan", "android": "https://dc.lft.to/lastmile_qr_scan"}, "lon": -77.035494, "type": "electric_scooter", "fusion_lat": 0.0, "lat": 38.91686283333333, "name": "12bf79edf26863f0dc59512e05cf9476", "fusion_lon": 0.0, "bike_id": "12bf79edf26863f0dc59512e05cf9476", "is_disabled": 0, "is_reserved": 0}, {"rental_uris": {"ios": "https://dc.lft.to/lastmile_qr_scan", "android": "https://dc.lft.to/lastmile_qr_scan"}, "lon": -77.027299, "type": "electric_scooter", "fusion_lat": 0.0, "lat": 38.91688633333333, "name": "d31e24cb12a769d5405b129bb87aefa6", "fusion_lon": 0.0, "bike_id": "d31e24cb12a769d5405b129bb87aefa6", "is_disabled": 0, "is_reserved": 0}, {"rental_uris": {"ios": "https://dc.lft.to/lastmile_qr_scan", "android": "https://dc.lft.to/lastmile_qr_scan"}, "lon": -77.02403966666667, "type": "electric_scooter", "fusion_lat": 0.0, "lat": 38.93492883333333, "name": "94b0686797ff9e535cd97ed324313e33", "fusion_lon": 0.0, "bike_id": "94b0686797ff9e535cd97ed324313e33", "is_disabled": 0, "is_reserved": 0}, {"rental_uris": {"ios": "https://dc.lft.to/lastmile_qr_scan", "android": "https://dc.lft.to/lastmile_qr_scan"}, "lon": -77.04430083333334, "type": "electric_scooter", "fusion_lat": 0.0, "lat": 38.910095, "name": "1a5fe0e186ba34b87fe101093c8bfbe7", "fusion_lon": 0.0, "bike_id": "1a5fe0e186ba34b87fe101093c8bfbe7", "is_disabled": 0, "is_reserved": 0}, {"rental_uris": {"ios": "https://dc.lft.to/lastmile_qr_scan", "android": "https://dc.lft.to/lastmile_qr_scan"}, "lon": -77.00103616666667, "type": "electric_scooter", "fusion_lat": 0.0, "lat": 38.894251, "name": "6a9be4a2006be4483b1cf4b160a3a47b", "fusion_lon": 0.0, "bike_id": "6a9be4a2006be4483b1cf4b160a3a47b", "is_disabled": 0, "is_reserved": 0}, {"rental_uris": {"ios": "https://dc.lft.to/lastmile_qr_scan", "android": "https://dc.lft.to/lastmile_qr_scan"}, "lon": -77.03185683333334, "type": "electric_scooter", "fusion_lat": 0.0, "lat": 38.88733366666666, "name": "1d06ec39f1f69550188e05dfd5c50639", "fusion_lon": 0.0, "bike_id": "1d06ec39f1f69550188e05dfd5c50639", "is_disabled": 0, "is_reserved": 0}, {"rental_uris": {"ios": "https://dc.lft.to/lastmile_qr_scan", "android": "https://dc.lft.to/lastmile_qr_scan"}, "lon": -77.00696266666667, "type": "electric_scooter", "fusion_lat": 0.0, "lat": 38.87841316666667, "name": "09f4bd925ea390ad5ba496512609a36b", "fusion_lon": 0.0, "bike_id": "09f4bd925ea390ad5ba496512609a36b", "is_disabled": 0, "is_reserved": 0}, {"rental_uris": {"ios": "https://dc.lft.to/lastmile_qr_scan", "android": "https://dc.lft.to/lastmile_qr_scan"}, "lon": -77.11521016666667, "type": "electric_bike", "fusion_lat": 0.0, "lat": 38.85490866666667, "name": "47f6200cdfe343d9cd476c12cfde1aa7", "fusion_lon": 0.0, "bike_id": "47f6200cdfe343d9cd476c12cfde1aa7", "is_disabled": 0, "is_reserved": 0}, {"rental_uris": {"ios": "https://dc.lft.to/lastmile_qr_scan", "android": "https://dc.lft.to/lastmile_qr_scan"}, "lon": -77.044698, "type": "electric_scooter", "fusion_lat": 0.0, "lat": 38.91114983333333, "name": "ecb2a635a4edfa74d5d909771f503e50", "fusion_lon": 0.0, "bike_id": "ecb2a635a4edfa74d5d909771f503e50", "is_disabled": 0, "is_reserved": 0}, {"rental_uris": {"ios": "https://dc.lft.to/lastmile_qr_scan", "android": "https://dc.lft.to/lastmile_qr_scan"}, "lon": -76.98197033333334, "type": "electric_scooter", "fusion_lat": 0.0, "lat": 38.9039315, "name": "49dad3a530231114314a7d9f3a207a24", "fusion_lon": 0.0, "bike_id": "49dad3a530231114314a7d9f3a207a24", "is_disabled": 0, "is_reserved": 0}, {"rental_uris": {"ios": "https://dc.lft.to/lastmile_qr_scan", "android": "https://dc.lft.to/lastmile_qr_scan"}, "lon": -77.05511433333334, "type": "electric_scooter", "fusion_lat": 0.0, "lat": 38.929696, "name": "bde723a8500289721071559191005f2e", "fusion_lon": 0.0, "bike_id": "bde723a8500289721071559191005f2e", "is_disabled": 0, "is_reserved": 0}, {"rental_uris": {"ios": "https://dc.lft.to/lastmile_qr_scan", "android": "https://dc.lft.to/lastmile_qr_scan"}, "lon": -77.02860266666667, "type": "electric_scooter", "fusion_lat": 0.0, "lat": 38.89843716666667, "name": "5aca8f19278528f9ae91cbab6b183643", "fusion_lon": 0.0, "bike_id": "5aca8f19278528f9ae91cbab6b183643", "is_disabled": 0, "is_reserved": 0}, {"rental_uris": {"ios": "https://dc.lft.to/lastmile_qr_scan", "android": "https://dc.lft.to/lastmile_qr_scan"}, "lon": -76.99258516666667, "type": "electric_scooter", "fusion_lat": 0.0, "lat": 38.919715833333335, "name": "2312609906d74996ab1b96cb9b1829e2", "fusion_lon": 0.0, "bike_id": "2312609906d74996ab1b96cb9b1829e2", "is_disabled": 0, "is_reserved": 0}, {"rental_uris": {"ios": "https://dc.lft.to/lastmile_qr_scan", "android": "https://dc.lft.to/lastmile_qr_scan"}, "lon": -77.03137916666667, "type": "electric_scooter", "fusion_lat": 0.0, "lat": 38.911261833333334, "name": "a6a4f817fbcbf60af0ce0c7791439497", "fusion_lon": 0.0, "bike_id": "a6a4f817fbcbf60af0ce0c7791439497", "is_disabled": 0, "is_reserved": 0}, {"rental_uris": {"ios": "https://dc.lft.to/lastmile_qr_scan", "android": "https://dc.lft.to/lastmile_qr_scan"}, "lon": -77.0486045, "type": "electric_scooter", "fusion_lat": 0.0, "lat": 38.9084415, "name": "1061e2b423e9907dd933fd62496f827f", "fusion_lon": 0.0, "bike_id": "1061e2b423e9907dd933fd62496f827f", "is_disabled": 0, "is_reserved": 0}, {"rental_uris": {"ios": "https://dc.lft.to/lastmile_qr_scan", "android": "https://dc.lft.to/lastmile_qr_scan"}, "lon": -76.94417866666667, "type": "electric_scooter", "fusion_lat": 0.0, "lat": 38.897904, "name": "66327ca706d709be657f28c468f7700f", "fusion_lon": 0.0, "bike_id": "66327ca706d709be657f28c468f7700f", "is_disabled": 0, "is_reserved": 0}, {"rental_uris": {"ios": "https://dc.lft.to/lastmile_qr_scan", "android": "https://dc.lft.to/lastmile_qr_scan"}, "lon": -76.99380633333334, "type": "electric_scooter", "fusion_lat": 0.0, "lat": 38.88743366666667, "name": "bef7d07b9cf3bc3c26d4da61f8b6d3a1", "fusion_lon": 0.0, "bike_id": "bef7d07b9cf3bc3c26d4da61f8b6d3a1", "is_disabled": 0, "is_reserved": 0}, {"rental_uris": {"ios": "https://dc.lft.to/lastmile_qr_scan", "android": "https://dc.lft.to/lastmile_qr_scan"}, "lon": -77.032255, "type": "electric_scooter", "fusion_lat": 0.0, "lat": 38.9266825, "name": "60f13336b47cd50571022345fb63c714", "fusion_lon": 0.0, "bike_id": "60f13336b47cd50571022345fb63c714", "is_disabled": 0, "is_reserved": 0}, {"rental_uris": {"ios": "https://dc.lft.to/lastmile_qr_scan", "android": "https://dc.lft.to/lastmile_qr_scan"}, "lon": -77.02338333333333, "type": "electric_scooter", "fusion_lat": 0.0, "lat": 38.92936816666667, "name": "2789c7cc1cd711eace93ebe51611abd8", "fusion_lon": 0.0, "bike_id": "2789c7cc1cd711eace93ebe51611abd8", "is_disabled": 0, "is_reserved": 0}, {"rental_uris": {"ios": "https://dc.lft.to/lastmile_qr_scan", "android": "https://dc.lft.to/lastmile_qr_scan"}, "lon": -77.05016066666667, "type": "electric_scooter", "fusion_lat": 0.0, "lat": 38.91792566666667, "name": "5abba3dde6f71a324e121b2b779d6f21", "fusion_lon": 0.0, "bike_id": "5abba3dde6f71a324e121b2b779d6f21", "is_disabled": 0, "is_reserved": 0}, {"rental_uris": {"ios": "https://dc.lft.to/lastmile_qr_scan", "android": "https://dc.lft.to/lastmile_qr_scan"}, "lon": -76.98345833333333, "type": "electric_scooter", "fusion_lat": 0.0, "lat": 38.915358, "name": "41050a65329405da011e3210ee893acb", "fusion_lon": 0.0, "bike_id": "41050a65329405da011e3210ee893acb", "is_disabled": 0, "is_reserved": 0}, {"rental_uris": {"ios": "https://dc.lft.to/lastmile_qr_scan", "android": "https://dc.lft.to/lastmile_qr_scan"}, "lon": -77.0421905, "type": "electric_scooter", "fusion_lat": 0.0, "lat": 38.921151, "name": "b164c89842a8810fde3496d6b58e5431", "fusion_lon": 0.0, "bike_id": "b164c89842a8810fde3496d6b58e5431", "is_disabled": 0, "is_reserved": 0}, {"rental_uris": {"ios": "https://dc.lft.to/lastmile_qr_scan", "android": "https://dc.lft.to/lastmile_qr_scan"}, "lon": -77.06485116666667, "type": "electric_bike", "fusion_lat": 0.0, "lat": 38.9648815, "name": "5e26406e4bba46b4324ba9794b4a6618", "fusion_lon": 0.0, "bike_id": "5e26406e4bba46b4324ba9794b4a6618", "is_disabled": 0, "is_reserved": 0}, {"rental_uris": {"ios": "https://dc.lft.to/lastmile_qr_scan", "android": "https://dc.lft.to/lastmile_qr_scan"}, "lon": -77.199071, "type": "electric_bike", "fusion_lat": 0.0, "lat": 38.875283, "name": "0e3eef000acd1b0f2f4f3e02363632c8", "fusion_lon": 0.0, "bike_id": "0e3eef000acd1b0f2f4f3e02363632c8", "is_disabled": 0, "is_reserved": 0}, {"rental_uris": {"ios": "https://dc.lft.to/lastmile_qr_scan", "android": "https://dc.lft.to/lastmile_qr_scan"}, "lon": -77.00585966666667, "type": "electric_scooter", "fusion_lat": 0.0, "lat": 38.880016833333336, "name": "1e53fa06559bc9042a1688c33b04c604", "fusion_lon": 0.0, "bike_id": "1e53fa06559bc9042a1688c33b04c604", "is_disabled": 0, "is_reserved": 0}, {"rental_uris": {"ios": "https://dc.lft.to/lastmile_qr_scan", "android": "https://dc.lft.to/lastmile_qr_scan"}, "lon": -76.933658, "type": "electric_scooter", "fusion_lat": 0.0, "lat": 38.899146, "name": "4e3c62a9c92cff961a95458e5abe6004", "fusion_lon": 0.0, "bike_id": "4e3c62a9c92cff961a95458e5abe6004", "is_disabled": 0, "is_reserved": 0}, {"rental_uris": {"ios": "https://dc.lft.to/lastmile_qr_scan", "android": "https://dc.lft.to/lastmile_qr_scan"}, "lon": -77.0342255, "type": "electric_scooter", "fusion_lat": 0.0, "lat": 38.904391, "name": "4d71fc5c7e865f85e9d32d1a05a647b2", "fusion_lon": 0.0, "bike_id": "4d71fc5c7e865f85e9d32d1a05a647b2", "is_disabled": 0, "is_reserved": 0}, {"rental_uris": {"ios": "https://dc.lft.to/lastmile_qr_scan", "android": "https://dc.lft.to/lastmile_qr_scan"}, "lon": -77.04622033333334, "type": "electric_scooter", "fusion_lat": 0.0, "lat": 38.91907416666667, "name": "bb6f3453432784db6e97b19dc2a4698d", "fusion_lon": 0.0, "bike_id": "bb6f3453432784db6e97b19dc2a4698d", "is_disabled": 0, "is_reserved": 0}, {"rental_uris": {"ios": "https://dc.lft.to/lastmile_qr_scan", "android": "https://dc.lft.to/lastmile_qr_scan"}, "lon": -77.04714683333333, "type": "electric_scooter", "fusion_lat": 0.0, "lat": 38.9166985, "name": "c0c4f23634f217ae74117b1dd1af6d30", "fusion_lon": 0.0, "bike_id": "c0c4f23634f217ae74117b1dd1af6d30", "is_disabled": 0, "is_reserved": 0}, {"rental_uris": {"ios": "https://dc.lft.to/lastmile_qr_scan", "android": "https://dc.lft.to/lastmile_qr_scan"}, "lon": -76.94629183333333, "type": "electric_bike", "fusion_lat": 0.0, "lat": 38.94623033333333, "name": "74244ebc2492c659c9acee6c4ae913ff", "fusion_lon": 0.0, "bike_id": "74244ebc2492c659c9acee6c4ae913ff", "is_disabled": 0, "is_reserved": 0}, {"rental_uris": {"ios": "https://dc.lft.to/lastmile_qr_scan", "android": "https://dc.lft.to/lastmile_qr_scan"}, "lon": -77.0393605, "type": "electric_scooter", "fusion_lat": 0.0, "lat": 38.89914666666667, "name": "daab8ea76822e36339e2edf32e390500", "fusion_lon": 0.0, "bike_id": "daab8ea76822e36339e2edf32e390500", "is_disabled": 0, "is_reserved": 0}, {"rental_uris": {"ios": "https://dc.lft.to/lastmile_qr_scan", "android": "https://dc.lft.to/lastmile_qr_scan"}, "lon": -77.026271, "type": "electric_scooter", "fusion_lat": 0.0, "lat": 38.8958835, "name": "f305a5e75fdeeb2b71d3ef1cbe7ca70d", "fusion_lon": 0.0, "bike_id": "f305a5e75fdeeb2b71d3ef1cbe7ca70d", "is_disabled": 0, "is_reserved": 0}, {"rental_uris": {"ios": "https://dc.lft.to/lastmile_qr_scan", "android": "https://dc.lft.to/lastmile_qr_scan"}, "lon": -77.032478, "type": "electric_scooter", "fusion_lat": 0.0, "lat": 38.90987366666667, "name": "72494470a01134b5fe501c6d8008ae8e", "fusion_lon": 0.0, "bike_id": "72494470a01134b5fe501c6d8008ae8e", "is_disabled": 0, "is_reserved": 0}, {"rental_uris": {"ios": "https://dc.lft.to/lastmile_qr_scan", "android": "https://dc.lft.to/lastmile_qr_scan"}, "lon": -77.0291895, "type": "electric_scooter", "fusion_lat": 0.0, "lat": 38.89538266666667, "name": "d1131cb55444617663f448766ac77a2a", "fusion_lon": 0.0, "bike_id": "d1131cb55444617663f448766ac77a2a", "is_disabled": 0, "is_reserved": 0}, {"rental_uris": {"ios": "https://dc.lft.to/lastmile_qr_scan", "android": "https://dc.lft.to/lastmile_qr_scan"}, "lon": -76.9987935, "type": "electric_scooter", "fusion_lat": 0.0, "lat": 38.90751266666667, "name": "fed1b825d8fc5a0ff8f667aaf855aa3c", "fusion_lon": 0.0, "bike_id": "fed1b825d8fc5a0ff8f667aaf855aa3c", "is_disabled": 0, "is_reserved": 0}, {"rental_uris": {"ios": "https://dc.lft.to/lastmile_qr_scan", "android": "https://dc.lft.to/lastmile_qr_scan"}, "lon": -77.06299966666667, "type": "electric_scooter", "fusion_lat": 0.0, "lat": 38.906968666666664, "name": "49f9c6314dc4a9841ac1559afe95cde3", "fusion_lon": 0.0, "bike_id": "49f9c6314dc4a9841ac1559afe95cde3", "is_disabled": 0, "is_reserved": 0}, {"rental_uris": {"ios": "https://dc.lft.to/lastmile_qr_scan", "android": "https://dc.lft.to/lastmile_qr_scan"}, "lon": -77.04338833333334, "type": "electric_scooter", "fusion_lat": 0.0, "lat": 38.908101333333335, "name": "c46ce3bbbdc45e48017a10655c2e331f", "fusion_lon": 0.0, "bike_id": "c46ce3bbbdc45e48017a10655c2e331f", "is_disabled": 0, "is_reserved": 0}, {"rental_uris": {"ios": "https://dc.lft.to/lastmile_qr_scan", "android": "https://dc.lft.to/lastmile_qr_scan"}, "lon": -76.97217766666667, "type": "electric_scooter", "fusion_lat": 0.0, "lat": 38.854947833333334, "name": "7b6a36077068dadc1aebfb23a5fd1916", "fusion_lon": 0.0, "bike_id": "7b6a36077068dadc1aebfb23a5fd1916", "is_disabled": 0, "is_reserved": 0}, {"rental_uris": {"ios": "https://dc.lft.to/lastmile_qr_scan", "android": "https://dc.lft.to/lastmile_qr_scan"}, "lon": -77.039544, "type": "electric_scooter", "fusion_lat": 0.0, "lat": 38.90019233333334, "name": "9bfc16bc82344ad5f92330f4f567c259", "fusion_lon": 0.0, "bike_id": "9bfc16bc82344ad5f92330f4f567c259", "is_disabled": 0, "is_reserved": 0}, {"rental_uris": {"ios": "https://dc.lft.to/lastmile_qr_scan", "android": "https://dc.lft.to/lastmile_qr_scan"}, "lon": -77.04328633333333, "type": "electric_scooter", "fusion_lat": 0.0, "lat": 38.89585733333333, "name": "5a0851ae891040916b3e62ccb2426739", "fusion_lon": 0.0, "bike_id": "5a0851ae891040916b3e62ccb2426739", "is_disabled": 0, "is_reserved": 0}, {"rental_uris": {"ios": "https://dc.lft.to/lastmile_qr_scan", "android": "https://dc.lft.to/lastmile_qr_scan"}, "lon": -77.02207666666666, "type": "electric_scooter", "fusion_lat": 0.0, "lat": 38.89604516666667, "name": "6ae0293f1290548ff5e6455c11d4ab1c", "fusion_lon": 0.0, "bike_id": "6ae0293f1290548ff5e6455c11d4ab1c", "is_disabled": 0, "is_reserved": 0}, {"rental_uris": {"ios": "https://dc.lft.to/lastmile_qr_scan", "android": "https://dc.lft.to/lastmile_qr_scan"}, "lon": -77.04680416666666, "type": "electric_scooter", "fusion_lat": 0.0, "lat": 38.90382233333333, "name": "d294849aabf4d99e0958838ba0277bf3", "fusion_lon": 0.0, "bike_id": "d294849aabf4d99e0958838ba0277bf3", "is_disabled": 0, "is_reserved": 0}, {"rental_uris": {"ios": "https://dc.lft.to/lastmile_qr_scan", "android": "https://dc.lft.to/lastmile_qr_scan"}, "lon": -77.04498966666667, "type": "electric_scooter", "fusion_lat": 0.0, "lat": 38.911931, "name": "26273fa1a0ca755a2fc6344af555170c", "fusion_lon": 0.0, "bike_id": "26273fa1a0ca755a2fc6344af555170c", "is_disabled": 0, "is_reserved": 0}, {"rental_uris": {"ios": "https://dc.lft.to/lastmile_qr_scan", "android": "https://dc.lft.to/lastmile_qr_scan"},