{"data": {"bikes": [{"fusion_lon": 0.0, "bike_id": "0df90d56c2035a031b44213a75bb1784", "name": "0df90d56c2035a031b44213a75bb1784", "type": "electric_scooter", "lon": -77.04327316666667, "rental_uris": {"android": "https://dc.lft.to/lastmile_qr_scan", "ios": "https://dc.lft.to/lastmile_qr_scan"}, "lat": 38.907511, "is_reserved": 0, "is_disabled": 0, "fusion_lat": 0.0}, {"fusion_lon": 0.0, "bike_id": "d05401e3a4b72bd468c2710b610001b4", "name": "d05401e3a4b72bd468c2710b610001b4", "type": "electric_scooter", "lon": -77.06260966666666, "rental_uris": {"android": "https://dc.lft.to/lastmile_qr_scan", "ios": "https://dc.lft.to/lastmile_qr_scan"}, "lat": 38.9052495, "is_reserved": 0, "is_disabled": 0, "fusion_lat": 0.0}, {"fusion_lon": 0.0, "bike_id": "20b9e8ea7640955a7d52ef9be2cdacc8", "name": "20b9e8ea7640955a7d52ef9be2cdacc8", "type": "electric_scooter", "lon": -77.03861833333333, "rental_uris": {"android": "https://dc.lft.to/lastmile_qr_scan", "ios": "https://dc.lft.to/lastmile_qr_scan"}, "lat": 38.912903666666665, "is_reserved": 0, "is_disabled": 0, "fusion_lat": 0.0}, {"fusion_lon": 0.0, "bike_id": "8f2a9ccf37036e0157108fca51f88743", "name": "8f2a9ccf37036e0157108fca51f88743", "type": "electric_scooter", "lon": -77.04164933333334, "rental_uris": {"android": "https://dc.lft.to/lastmile_qr_scan", "ios": "https://dc.lft.to/lastmile_qr_scan"}, "lat": 38.9134375, "is_reserved": 0, "is_disabled": 0, "fusion_lat": 0.0}, {"fusion_lon": 0.0, "bike_id": "54aaa5a23e5e2b6f10a65fb35d589373", "name": "54aaa5a23e5e2b6f10a65fb35d589373", "type": "electric_scooter", "lon": -77.0096035, "rental_uris": {"android": "https://dc.lft.to/lastmile_qr_scan", "ios": "https://dc.lft.to/lastmile_qr_scan"}, "lat": 38.876629666666666, "is_reserved": 0, "is_disabled": 0, "fusion_lat": 0.0}, {"fusion_lon": 0.0, "bike_id": "bd8b761eae22145d7b16edc615dec96d", "name": "bd8b761eae22145d7b16edc615dec96d", "type": "electric_scooter", "lon": -77.03219683333333, "rental_uris": {"android": "https://dc.lft.to/lastmile_qr_scan", "ios": "https://dc.lft.to/lastmile_qr_scan"}, "lat": 38.8874345, "is_reserved": 0, "is_disabled": 0, "fusion_lat": 0.0}, {"fusion_lon": 0.0, "bike_id": "b4de2a083f5194ea5eede7fbab2c77da", "name": "b4de2a083f5194ea5eede7fbab2c77da", "type": "electric_scooter", "lon": -77.037934, "rental_uris": {"android": "https://dc.lft.to/lastmile_qr_scan", "ios": "https://dc.lft.to/lastmile_qr_scan"}, "lat": 38.93577166666667, "is_reserved": 0, "is_disabled": 0, "fusion_lat": 0.0}, {"fusion_lon": 0.0, "bike_id": "131f331b8f7d4ef569b95d3c5aaebfc8", "name": "131f331b8f7d4ef569b95d3c5aaebfc8", "type": "electric_scooter", "lon": -77.06123633333333, "rental_uris": {"android": "https://dc.lft.to/lastmile_qr_scan", "ios": "https://dc.lft.to/lastmile_qr_scan"}, "lat": 38.943741833333334, "is_reserved": 0, "is_disabled": 0, "fusion_lat": 0.0}, {"fusion_lon": 0.0, "bike_id": "f1924935b9c3f9b7eadd54f56d5f9ccb", "name": "f1924935b9c3f9b7eadd54f56d5f9ccb", "type": "electric_scooter", "lon": -77.0142055, "rental_uris": {"android": "https://dc.lft.to/lastmile_qr_scan", "ios": "https://dc.lft.to/lastmile_qr_scan"}, "lat": 38.92832533333333, "is_reserved": 0, "is_disabled": 0, "fusion_lat": 0.0}, {"fusion_lon": 0.0, "bike_id": "dcd22db1476beda6d16ae9e032653fae", "name": "dcd22db1476beda6d16ae9e032653fae", "type": "electric_scooter", "lon": -76.93755283333333, "rental_uris": {"android": "https://dc.lft.to/lastmile_qr_scan", "ios": "https://dc.lft.to/lastmile_qr_scan"}, "lat": 38.8903465, "is_reserved": 0, "is_disabled": 0, "fusion_lat": 0.0}, {"fusion_lon": 0.0, "bike_id": "2b0dd70e3a7657967f16b5520092a82e", "name": "2b0dd70e3a7657967f16b5520092a82e", "type": "electric_bike", "lon": -76.90962433333334, "rental_uris": {"android": "https://dc.lft.to/lastmile_qr_scan", "ios": "https://dc.lft.to/lastmile_qr_scan"}, "lat": 38.854360666666665, "is_reserved": 0, "is_disabled": 0, "fusion_lat": 0.0}, {"fusion_lon": 0.0, "bike_id": "8a5c32126b2becbe12fe2b8453e5aed4", "name": "8a5c32126b2becbe12fe2b8453e5aed4", "type": "electric_scooter", "lon": -77.00346516666667, "rental_uris": {"android": "https://dc.lft.to/lastmile_qr_scan", "ios": "https://dc.lft.to/lastmile_qr_scan"}, "lat": 38.92269733333333, "is_reserved": 0, "is_disabled": 0, "fusion_lat": 0.0}, {"fusion_lon": 0.0, "bike_id": "e9300a315d2d67effe414a08bbcf504e", "name": "e9300a315d2d67effe414a08bbcf504e", "type": "electric_scooter", "lon": -77.02585266666667, "rental_uris": {"android": "https://dc.lft.to/lastmile_qr_scan", "ios": "https://dc.lft.to/lastmile_qr_scan"}, "lat": 38.9279165, "is_reserved": 0, "is_disabled": 0, "fusion_lat": 0.0}, {"fusion_lon": 0.0, "bike_id": "578d68017923fbb91b49d21c2bfe4799", "name": "578d68017923fbb91b49d21c2bfe4799", "type": "electric_scooter", "lon": -77.00924033333334, "rental_uris": {"android": "https://dc.lft.to/lastmile_qr_scan", "ios": "https://dc.lft.to/lastmile_qr_scan"}, "lat": 38.89651516666667, "is_reserved": 0, "is_disabled": 0, "fusion_lat": 0.0}, {"fusion_lon": 0.0, "bike_id": "1ffff248e9ae30674e88dc5ab7530e18", "name": "1ffff248e9ae30674e88dc5ab7530e18", "type": "electric_scooter", "lon": -77.03056466666666, "rental_uris": {"android": "https://dc.lft.to/lastmile_qr_scan", "ios": "https://dc.lft.to/lastmile_qr_scan"}, "lat": 38.90129816666666, "is_reserved": 0, "is_disabled": 0, "fusion_lat": 0.0}, {"fusion_lon": 0.0, "bike_id": "72ebeb65a1ac5a5ab5c915cace2d388a", "name": "72ebeb65a1ac5a5ab5c915cace2d388a", "type": "electric_scooter", "lon": -77.036555, "rental_uris": {"android": "https://dc.lft.to/lastmile_qr_scan", "ios": "https://dc.lft.to/lastmile_qr_scan"}, "lat": 38.9362955, "is_reserved": 0, "is_disabled": 0, "fusion_lat": 0.0}, {"fusion_lon": 0.0, "bike_id": "a0e28add9dc55853b91cf1145cbc4109", "name": "a0e28add9dc55853b91cf1145cbc4109", "type": "electric_scooter", "lon": -77.02804033333334, "rental_uris": {"android": "https://dc.lft.to/lastmile_qr_scan", "ios": "https://dc.lft.to/lastmile_qr_scan"}, "lat": 38.9062055, "is_reserved": 0, "is_disabled": 0, "fusion_lat": 0.0}, {"fusion_lon": 0.0, "bike_id": "2404be151b5830e6af08ec4c553fa46f", "name": "2404be151b5830e6af08ec4c553fa46f", "type": "electric_scooter", "lon": -77.0306625, "rental_uris": {"android": "https://dc.lft.to/lastmile_qr_scan", "ios": "https://dc.lft.to/lastmile_qr_scan"}, "lat": 38.88048033333333, "is_reserved": 0, "is_disabled": 0, "fusion_lat": 0.0}, {"fusion_lon": 0.0, "bike_id": "6429c6a9e939c41f1571daedb0ca82b0", "name": "6429c6a9e939c41f1571daedb0ca82b0", "type": "electric_bike", "lon": -77.026558, "rental_uris": {"android": "https://dc.lft.to/lastmile_qr_scan", "ios": "https://dc.lft.to/lastmile_qr_scan"}, "lat": 38.98814516666667, "is_reserved": 0, "is_disabled": 0, "fusion_lat": 0.0}, {"fusion_lon": 0.0, "bike_id": "85283b95f521e3adf46290b6b6442929", "name": "85283b95f521e3adf46290b6b6442929", "type": "electric_bike", "lon": -77.131813, "rental_uris": {"android": "https://dc.lft.to/lastmile_qr_scan", "ios": "https://dc.lft.to/lastmile_qr_scan"}, "lat": 38.86908066666667, "is_reserved": 0, "is_disabled": 0, "fusion_lat": 0.0}, {"fusion_lon": 0.0, "bike_id": "027a7c866b531cf8345fbdf03991f4ac", "name": "027a7c866b531cf8345fbdf03991f4ac", "type": "electric_scooter", "lon": -77.03380283333334, "rental_uris": {"android": "https://dc.lft.to/lastmile_qr_scan", "ios": "https://dc.lft.to/lastmile_qr_scan"}, "lat": 38.9253835, "is_reserved": 0, "is_disabled": 0, "fusion_lat": 0.0}, {"fusion_lon": 0.0, "bike_id": "19ea890fd85d7a63c71bdd1ed3191769", "name": "19ea890fd85d7a63c71bdd1ed3191769", "type": "electric_scooter", "lon": -77.0295505, "rental_uris": {"android": "https://dc.lft.to/lastmile_qr_scan", "ios": "https://dc.lft.to/lastmile_qr_scan"}, "lat": 38.90412333333333, "is_reserved": 0, "is_disabled": 0, "fusion_lat": 0.0}, {"fusion_lon": 0.0, "bike_id": "61f18c0a35a8e72330c2489692abca36", "name": "61f18c0a35a8e72330c2489692abca36", "type": "electric_scooter", "lon": -77.02214433333333, "rental_uris": {"android": "https://dc.lft.to/lastmile_qr_scan", "ios": "https://dc.lft.to/lastmile_qr_scan"}, "lat": 38.8952915, "is_reserved": 0, "is_disabled": 0, "fusion_lat": 0.0}, {"fusion_lon": 0.0, "bike_id": "fce7887c6bc40e74f1f897ee1c67d834", "name": "fce7887c6bc40e74f1f897ee1c67d834", "type": "electric_scooter", "lon": -77.03764333333334, "rental_uris": {"android": "https://dc.lft.to/lastmile_qr_scan", "ios": "https://dc.lft.to/lastmile_qr_scan"}, "lat": 38.924750833333334, "is_reserved": 0, "is_disabled": 0, "fusion_lat": 0.0}, {"fusion_lon": 0.0, "bike_id": "cbf6602c01687a981108afe6cd3595d6", "name": "cbf6602c01687a981108afe6cd3595d6", "type": "electric_scooter", "lon": -76.98473933333334, "rental_uris": {"android": "https://dc.lft.to/lastmile_qr_scan", "ios": "https://dc.lft.to/lastmile_qr_scan"}, "lat": 38.9289925, "is_reserved": 0, "is_disabled": 0, "fusion_lat": 0.0}, {"fusion_lon": 0.0, "bike_id": "3fabbe704dd136c50e79b6bb2d2501c4", "name": "3fabbe704dd136c50e79b6bb2d2501c4", "type": "electric_scooter", "lon": -77.0118815, "rental_uris": {"android": "https://dc.lft.to/lastmile_qr_scan", "ios": "https://dc.lft.to/lastmile_qr_scan"}, "lat": 38.87156516666667, "is_reserved": 0, "is_disabled": 0, "fusion_lat": 0.0}, {"fusion_lon": 0.0, "bike_id": "c715d3459601cc4e0a2cacfb84aeeac2", "name": "c715d3459601cc4e0a2cacfb84aeeac2", "type": "electric_scooter", "lon": -76.92952183333334, "rental_uris": {"android": "https://dc.lft.to/lastmile_qr_scan", "ios": "https://dc.lft.to/lastmile_qr_scan"}, "lat": 38.898783333333334, "is_reserved": 0, "is_disabled": 0, "fusion_lat": 0.0}, {"fusion_lon": 0.0, "bike_id": "056f3472f230fddd98c8881f41524925", "name": "056f3472f230fddd98c8881f41524925", "type": "electric_scooter", "lon": -77.03674566666666, "rental_uris": {"android": "https://dc.lft.to/lastmile_qr_scan", "ios": "https://dc.lft.to/lastmile_qr_scan"}, "lat": 38.9027415, "is_reserved": 0, "is_disabled": 0, "fusion_lat": 0.0}, {"fusion_lon": 0.0, "bike_id": "9b03468080a44d796cfb434463fbe0c5", "name": "9b03468080a44d796cfb434463fbe0c5", "type": "electric_scooter", "lon": -77.04657933333333, "rental_uris": {"android": "https://dc.lft.to/lastmile_qr_scan", "ios": "https://dc.lft.to/lastmile_qr_scan"}, "lat": 38.903535833333336, "is_reserved": 0, "is_disabled": 0, "fusion_lat": 0.0}, {"fusion_lon": 0.0, "bike_id": "3023c0d0fef4987ece9098e3aa051638", "name": "3023c0d0fef4987ece9098e3aa051638", "type": "electric_scooter", "lon": -77.03871333333333, "rental_uris": {"android": "https://dc.lft.to/lastmile_qr_scan", "ios": "https://dc.lft.to/lastmile_qr_scan"}, "lat": 38.919874666666665, "is_reserved": 0, "is_disabled": 0, "fusion_lat": 0.0}, {"fusion_lon": 0.0, "bike_id": "54b6c5d3236c00759c745cb16602854e", "name": "54b6c5d3236c00759c745cb16602854e", "type": "electric_scooter", "lon": -77.03283666666667, "rental_uris": {"android": "https://dc.lft.to/lastmile_qr_scan", "ios": "https://dc.lft.to/lastmile_qr_scan"}, "lat": 38.938811666666666, "is_reserved": 0, "is_disabled": 0, "fusion_lat": 0.0}, {"fusion_lon": 0.0, "bike_id": "ce55880503923ad90a61bbbab7daa9f1", "name": "ce55880503923ad90a61bbbab7daa9f1", "type": "electric_scooter", "lon": -77.01209933333334, "rental_uris": {"android": "https://dc.lft.to/lastmile_qr_scan", "ios": "https://dc.lft.to/lastmile_qr_scan"}, "lat": 38.893335666666665, "is_reserved": 0, "is_disabled": 0, "fusion_lat": 0.0}, {"fusion_lon": 0.0, "bike_id": "40533e16c8ad05bc66c24d62b691de3f", "name": "40533e16c8ad05bc66c24d62b691de3f", "type": "electric_scooter", "lon": -77.03418183333334, "rental_uris": {"android": "https://dc.lft.to/lastmile_qr_scan", "ios": "https://dc.lft.to/lastmile_qr_scan"}, "lat": 38.92943866666667, "is_reserved": 0, "is_disabled": 0, "fusion_lat": 0.0}, {"fusion_lon": 0.0, "bike_id": "20be75704331e62520146849f399bb7d", "name": "20be75704331e62520146849f399bb7d", "type": "electric_scooter", "lon": -76.99155516666667, "rental_uris": {"android": "https://dc.lft.to/lastmile_qr_scan", "ios": "https://dc.lft.to/lastmile_qr_scan"}, "lat": 38.879091333333335, "is_reserved": 0, "is_disabled": 0, "fusion_lat": 0.0}, {"fusion_lon": 0.0, "bike_id": "195639f941058e770796b87d24e58854", "name": "195639f941058e770796b87d24e58854", "type": "electric_scooter", "lon": -77.05212366666666, "rental_uris": {"android": "https://dc.lft.to/lastmile_qr_scan", "ios": "https://dc.lft.to/lastmile_qr_scan"}, "lat": 38.92437683333333, "is_reserved": 0, "is_disabled": 0, "fusion_lat": 0.0}, {"fusion_lon": 0.0, "bike_id": "5688785d07baa6524cb4a71adfcad386", "name": "5688785d07baa6524cb4a71adfcad386", "type": "electric_bike", "lon": -76.99760716666667, "rental_uris": {"android": "https://dc.lft.to/lastmile_qr_scan", "ios": "https://dc.lft.to/lastmile_qr_scan"}, "lat": 39.005968333333335, "is_reserved": 0, "is_disabled": 0, "fusion_lat": 0.0}, {"fusion_lon": 0.0, "bike_id": "a3f2adddb304b8bdedabcc5e1be5223a", "name": "a3f2adddb304b8bdedabcc5e1be5223a", "type": "electric_scooter", "lon": -77.04179783333333, "rental_uris": {"android": "https://dc.lft.to/lastmile_qr_scan", "ios": "https://dc.lft.to/lastmile_qr_scan"}, "lat": 38.915740166666666, "is_reserved": 0, "is_disabled": 0, "fusion_lat": 0.0}, {"fusion_lon": 0.0, "bike_id": "05617e4bb445a07076d5da27b3b67a24", "name": "05617e4bb445a07076d5da27b3b67a24", "type": "electric_scooter", "lon": -77.02779483333333, "rental_uris": {"android": "https://dc.lft.to/lastmile_qr_scan", "ios": "https://dc.lft.to/lastmile_qr_scan"}, "lat": 38.8815865, "is_reserved": 0, "is_disabled": 0, "fusion_lat": 0.0}, {"fusion_lon": 0.0, "bike_id": "082974f7f86098e3563ef89f794d3301", "name": "082974f7f86098e3563ef89f794d3301", "type": "electric_scooter", "lon": -77.02377083333333, "rental_uris": {"android": "https://dc.lft.to/lastmile_qr_scan", "ios": "https://dc.lft.to/lastmile_qr_scan"}, "lat": 38.90731366666667, "is_reserved": 0, "is_disabled": 0, "fusion_lat": 0.0}, {"fusion_lon": 0.0, "bike_id": "9177341d6f0339b2c0a0a1b02289ef54", "name": "9177341d6f0339b2c0a0a1b02289ef54", "type": "electric_bike", "lon": -77.17801733333333, "rental_uris": {"android": "https://dc.lft.to/lastmile_qr_scan", "ios": "https://dc.lft.to/lastmile_qr_scan"}, "lat": 39.0884685, "is_reserved": 0, "is_disabled": 0, "fusion_lat": 0.0}, {"fusion_lon": 0.0, "bike_id": "e1ec1d927d86cddf061f1d210fe29b5a", "name": "e1ec1d927d86cddf061f1d210fe29b5a", "type": "electric_scooter", "lon": -77.002951, "rental_uris": {"android": "https://dc.lft.to/lastmile_qr_scan", "ios": "https://dc.lft.to/lastmile_qr_scan"}, "lat": 38.892001666666665, "is_reserved": 0, "is_disabled": 0, "fusion_lat": 0.0}, {"fusion_lon": 0.0, "bike_id": "d166cea1a8ea21a4afdf1e13476a2f91", "name": "d166cea1a8ea21a4afdf1e13476a2f91", "type": "electric_scooter", "lon": -77.07254083333333, "rental_uris": {"android": "https://dc.lft.to/lastmile_qr_scan", "ios": "https://dc.lft.to/lastmile_qr_scan"}, "lat": 38.9078565, "is_reserved": 0, "is_disabled": 0, "fusion_lat": 0.0}, {"fusion_lon": 0.0, "bike_id": "4fc7441487e4a163cd3fdfa5e5d7528d", "name": "4fc7441487e4a163cd3fdfa5e5d7528d", "type": "electric_scooter", "lon": -76.9951645, "rental_uris": {"android": "https://dc.lft.to/lastmile_qr_scan", "ios": "https://dc.lft.to/lastmile_qr_scan"}, "lat": 38.88586033333333, "is_reserved": 0, "is_disabled": 0, "fusion_lat": 0.0}, {"fusion_lon": 0.0, "bike_id": "e86d0de3995275bf7b2d0f6eba8067c0", "name": "e86d0de3995275bf7b2d0f6eba8067c0", "type": "electric_scooter", "lon": -77.03857783333333, "rental_uris": {"android": "https://dc.lft.to/lastmile_qr_scan", "ios": "https://dc.lft.to/lastmile_qr_scan"}, "lat": 38.931578333333334, "is_reserved": 0, "is_disabled": 0, "fusion_lat": 0.0}, {"fusion_lon": 0.0, "bike_id": "ee3ca99692eab97ff138e1c96565b634", "name": "ee3ca99692eab97ff138e1c96565b634", "type": "electric_scooter", "lon": -76.99491116666667, "rental_uris": {"android": "https://dc.lft.to/lastmile_qr_scan", "ios": "https://dc.lft.to/lastmile_qr_scan"}, "lat": 38.842147833333335, "is_reserved": 0, "is_disabled": 0, "fusion_lat": 0.0}, {"fusion_lon": 0.0, "bike_id": "455c4eecb2930ec015d36a13d1bdd7ce", "name": "455c4eecb2930ec015d36a13d1bdd7ce", "type": "electric_scooter", "lon": -77.04873616666667, "rental_uris": {"android": "https://dc.lft.to/lastmile_qr_scan", "ios": "https://dc.lft.to/lastmile_qr_scan"}, "lat": 38.892339666666665, "is_reserved": 0, "is_disabled": 0, "fusion_lat": 0.0}, {"fusion_lon": 0.0, "bike_id": "bf6db4de77a8e05bc3254648d1aeba47", "name": "bf6db4de77a8e05bc3254648d1aeba47", "type": "electric_bike", "lon": -77.02714533333334, "rental_uris": {"android": "https://dc.lft.to/lastmile_qr_scan", "ios": "https://dc.lft.to/lastmile_qr_scan"}, "lat": 38.98193083333334, "is_reserved": 0, "is_disabled": 0, "fusion_lat": 0.0}, {"fusion_lon": 0.0, "bike_id": "eb5f4f7d3ed2f8e1a9a84e34b4e26deb", "name": "eb5f4f7d3ed2f8e1a9a84e34b4e26deb", "type": "electric_scooter", "lon": -77.02043883333333, "rental_uris": {"android": "https://dc.lft.to/lastmile_qr_scan", "ios": "https://dc.lft.to/lastmile_qr_scan"}, "lat": 38.915607666666666, "is_reserved": 0, "is_disabled": 0, "fusion_lat": 0.0}, {"fusion_lon": 0.0, "bike_id": "df6960ee467b7339aeda042a0761b4f2", "name": "df6960ee467b7339aeda042a0761b4f2", "type": "electric_scooter", "lon": -77.06537816666666, "rental_uris": {"android": "https://dc.lft.to/lastmile_qr_scan", "ios": "https://dc.lft.to/lastmile_qr_scan"}, "lat": 38.95069866666667, "is_reserved": 0, "is_disabled": 0, "fusion_lat": 0.0}, {"fusion_lon": 0.0, "bike_id": "76c950fff29ae29347e7408ec764e2fa", "name": "76c950fff29ae29347e7408ec764e2fa", "type": "electric_scooter", "lon": -77.07170366666666, "rental_uris": {"android": "https://dc.lft.to/lastmile_qr_scan", "ios": "https://dc.lft.to/lastmile_qr_scan"}, "lat": 38.907772, "is_reserved": 0, "is_disabled": 0, "fusion_lat": 0.0}, {"fusion_lon": 0.0, "bike_id": "ca413f78638ead4478ebd0f820959c7d", "name": "ca413f78638ead4478ebd0f820959c7d", "type": "electric_scooter", "lon": -76.98882316666666, "rental_uris": {"android": "https://dc.lft.to/lastmile_qr_scan", "ios": "https://dc.lft.to/lastmile_qr_scan"}, "lat": 38.86672466666667, "is_reserved": 0, "is_disabled": 0, "fusion_lat": 0.0}, {"fusion_lon": 0.0, "bike_id": "489c1d3963a440519021d7721be7d50b", "name": "489c1d3963a440519021d7721be7d50b", "type": "electric_scooter", "lon": -77.02598783333333, "rental_uris": {"android": "https://dc.lft.to/lastmile_qr_scan", "ios": "https://dc.lft.to/lastmile_qr_scan"}, "lat": 38.916923833333335, "is_reserved": 0, "is_disabled": 0, "fusion_lat": 0.0}, {"fusion_lon": 0.0, "bike_id": "1db8d5a13b9c07c4e8bd37df7e6ffc4b", "name": "1db8d5a13b9c07c4e8bd37df7e6ffc4b", "type": "electric_scooter", "lon": -77.04363883333333, "rental_uris": {"android": "https://dc.lft.to/lastmile_qr_scan", "ios": "https://dc.lft.to/lastmile_qr_scan"}, "lat": 38.8923915, "is_reserved": 0, "is_disabled": 0, "fusion_lat": 0.0}, {"fusion_lon": 0.0, "bike_id": "1e8f98013ac7c3849a84a8f18b772212", "name": "1e8f98013ac7c3849a84a8f18b772212", "type": "electric_scooter", "lon": -76.9773875, "rental_uris": {"android": "https://dc.lft.to/lastmile_qr_scan", "ios": "https://dc.lft.to/lastmile_qr_scan"}, "lat": 38.88865533333333, "is_reserved": 0, "is_disabled": 0, "fusion_lat": 0.0}, {"fusion_lon": 0.0, "bike_id": "7dc3fdaf6021cf0e3087096bad107a04", "name": "7dc3fdaf6021cf0e3087096bad107a04", "type": "electric_scooter", "lon": -77.00192433333333, "rental_uris": {"android": "https://dc.lft.to/lastmile_qr_scan", "ios": "https://dc.lft.to/lastmile_qr_scan"}, "lat": 38.900404, "is_reserved": 0, "is_disabled": 0, "fusion_lat": 0.0}, {"fusion_lon": 0.0, "bike_id": "63a73ba5bbace211248bc58aa536bad7", "name": "63a73ba5bbace211248bc58aa536bad7", "type": "electric_scooter", "lon": -77.03435, "rental_uris": {"android": "https://dc.lft.to/lastmile_qr_scan", "ios": "https://dc.lft.to/lastmile_qr_scan"}, "lat": 38.9027945, "is_reserved": 0, "is_disabled": 0, "fusion_lat": 0.0}, {"fusion_lon": 0.0, "bike_id": "c26570657920562d2456fb81fcf8e63a", "name": "c26570657920562d2456fb81fcf8e63a", "type": "electric_scooter", "lon": -77.00433383333333, "rental_uris": {"android": "https://dc.lft.to/lastmile_qr_scan", "ios": "https://dc.lft.to/lastmile_qr_scan"}, "lat": 38.876576, "is_reserved": 0, "is_disabled": 0, "fusion_lat": 0.0}, {"fusion_lon": 0.0, "bike_id": "0b6d94500d7e926dee2d0c1dac4651f6", "name": "0b6d94500d7e926dee2d0c1dac4651f6", "type": "electric_scooter", "lon": -77.02266666666667, "rental_uris": {"android": "https://dc.lft.to/lastmile_qr_scan", "ios": "https://dc.lft.to/lastmile_qr_scan"}, "lat": 38.947173166666666, "is_reserved": 0, "is_disabled": 0, "fusion_lat": 0.0}, {"fusion_lon": 0.0, "bike_id": "36dbd92545b237722940d685569c628b", "name": "36dbd92545b237722940d685569c628b", "type": "electric_scooter", "lon": -77.02202566666666, "rental_uris": {"android": "https://dc.lft.to/lastmile_qr_scan", "ios": "https://dc.lft.to/lastmile_qr_scan"}, "lat": 38.915299166666664, "is_reserved": 0, "is_disabled": 0, "fusion_lat": 0.0}, {"fusion_lon": 0.0, "bike_id": "3bcc520d53bb215cd9fe252c3bcda784", "name": "3bcc520d53bb215cd9fe252c3bcda784", "type": "electric_scooter", "lon": -77.0229725, "rental_uris": {"android": "https://dc.lft.to/lastmile_qr_scan", "ios": "https://dc.lft.to/lastmile_qr_scan"}, "lat": 38.916082833333334, "is_reserved": 0, "is_disabled": 0, "fusion_lat": 0.0}, {"fusion_lon": 0.0, "bike_id": "99ca0a076bd54d9161f0d9a85d6439c9", "name": "99ca0a076bd54d9161f0d9a85d6439c9", "type": "electric_scooter", "lon": -77.001426, "rental_uris": {"android": "https://dc.lft.to/lastmile_qr_scan", "ios": "https://dc.lft.to/lastmile_qr_scan"}, "lat": 38.905163, "is_reserved": 0, "is_disabled": 0, "fusion_lat": 0.0}, {"fusion_lon": 0.0, "bike_id": "de6ee53c1efac4b632a97b7ad32636a8", "name": "de6ee53c1efac4b632a97b7ad32636a8", "type": "electric_scooter", "lon": -77.03444666666667, "rental_uris": {"android": "https://dc.lft.to/lastmile_qr_scan", "ios": "https://dc.lft.to/lastmile_qr_scan"}, "lat": 38.90536516666667, "is_reserved": 0, "is_disabled": 0, "fusion_lat": 0.0}, {"fusion_lon": 0.0, "bike_id": "fef0f2e957c12ffa2635d23def68ca0e", "name": "fef0f2e957c12ffa2635d23def68ca0e", "type": "electric_scooter", "lon": -77.03338183333334, "rental_uris": {"android": "https://dc.lft.to/lastmile_qr_scan", "ios": "https://dc.lft.to/lastmile_qr_scan"}, "lat": 38.89829616666667, "is_reserved": 0, "is_disabled": 0, "fusion_lat": 0.0}, {"fusion_lon": 0.0, "bike_id": "29c3687b87f3dc86652f350eacf98680", "name": "29c3687b87f3dc86652f350eacf98680", "type": "electric_scooter", "lon": -77.03318016666667, "rental_uris": {"android": "https://dc.lft.to/lastmile_qr_scan", "ios": "https://dc.lft.to/lastmile_qr_scan"}, "lat": 38.90423333333333, "is_reserved": 0, "is_disabled": 0, "fusion_lat": 0.0}, {"fusion_lon": 0.0, "bike_id": "4ec6628f4d2d88aa50870bd69e567b3e", "name": "4ec6628f4d2d88aa50870bd69e567b3e", "type": "electric_scooter", "lon": -76.99004666666667, "rental_uris": {"android": "https://dc.lft.to/lastmile_qr_scan", "ios": "https://dc.lft.to/lastmile_qr_scan"}, "lat": 38.865075833333336, "is_reserved": 0, "is_disabled": 0, "fusion_lat": 0.0}, {"fusion_lon": 0.0, "bike_id": "1f964e925deb0c10505e831ae5d6363f", "name": "1f964e925deb0c10505e831ae5d6363f", "type": "electric_scooter", "lon": -77.01712116666667, "rental_uris": {"android": "https://dc.lft.to/lastmile_qr_scan", "ios": "https://dc.lft.to/lastmile_qr_scan"}, "lat": 38.90507566666667, "is_reserved": 0, "is_disabled": 0, "fusion_lat": 0.0}, {"fusion_lon": 0.0, "bike_id": "f4fce578a71abbc85a16df2294ceaaeb", "name": "f4fce578a71abbc85a16df2294ceaaeb", "type": "electric_scooter", "lon": -77.03452066666667, "rental_uris": {"android": "https://dc.lft.to/lastmile_qr_scan", "ios": "https://dc.lft.to/lastmile_qr_scan"}, "lat": 38.917209166666666, "is_reserved": 0, "is_disabled": 0, "fusion_lat": 0.0}, {"fusion_lon": 0.0, "bike_id": "9df638bd47700a56e3875fe1cdc0e347", "name": "9df638bd47700a56e3875fe1cdc0e347", "type": "electric_scooter", "lon": -77.0386755, "rental_uris": {"android": "https://dc.lft.to/lastmile_qr_scan", "ios": "https://dc.lft.to/lastmile_qr_scan"}, "lat": 38.912673166666664, "is_reserved": 0, "is_disabled": 0, "fusion_lat": 0.0}, {"fusion_lon": 0.0, "bike_id": "6dd5b2db857e5c76c61518dc6bce541b", "name": "6dd5b2db857e5c76c61518dc6bce541b", "type": "electric_scooter", "lon": -77.025929, "rental_uris": {"android": "https://dc.lft.to/lastmile_qr_scan", "ios": "https://dc.lft.to/lastmile_qr_scan"}, "lat": 38.94202666666666, "is_reserved": 0, "is_disabled": 0, "fusion_lat": 0.0}, {"fusion_lon": 0.0, "bike_id": "a9bc9d1696b41e32e03cc65548ee5bac", "name": "a9bc9d1696b41e32e03cc65548ee5bac", "type": "electric_scooter", "lon": -76.94288033333333, "rental_uris": {"android": "https://dc.lft.to/lastmile_qr_scan", "ios": "https://dc.lft.to/lastmile_qr_scan"}, "lat": 38.883036833333335, "is_reserved": 0, "is_disabled": 0, "fusion_lat": 0.0}, {"fusion_lon": 0.0, "bike_id": "3c3f788e94aac348789aaeeea3d0f103", "name": "3c3f788e94aac348789aaeeea3d0f103", "type": "electric_scooter", "lon": -77.04374133333333, "rental_uris": {"android": "https://dc.lft.to/lastmile_qr_scan", "ios": "https://dc.lft.to/lastmile_qr_scan"}, "lat": 38.9009855, "is_reserved": 0, "is_disabled": 0, "fusion_lat": 0.0}, {"fusion_lon": 0.0, "bike_id": "7eafd13350f0c33313640b74aaf5697f", "name": "7eafd13350f0c33313640b74aaf5697f", "type": "electric_scooter", "lon": -76.98334966666667, "rental_uris": {"android": "https://dc.lft.to/lastmile_qr_scan", "ios": "https://dc.lft.to/lastmile_qr_scan"}, "lat": 38.862542833333336, "is_reserved": 0, "is_disabled": 0, "fusion_lat": 0.0}, {"fusion_lon": 0.0, "bike_id": "e95915f13d68dc1ac72103f5abad8316", "name": "e95915f13d68dc1ac72103f5abad8316", "type": "electric_scooter", "lon": -76.99861233333333, "rental_uris": {"android": "https://dc.lft.to/lastmile_qr_scan", "ios": "https://dc.lft.to/lastmile_qr_scan"}, "lat": 38.900181333333336, "is_reserved": 0, "is_disabled": 0, "fusion_lat": 0.0}, {"fusion_lon": 0.0, "bike_id": "74b5aa2c02390e69d4330fa4ae4ed187", "name": "74b5aa2c02390e69d4330fa4ae4ed187", "type": "electric_bike", "lon": -77.08945433333334, "rental_uris": {"android": "https://dc.lft.to/lastmile_qr_scan", "ios": "https://dc.lft.to/lastmile_qr_scan"}, "lat": 38.841103833333335, "is_reserved": 0, "is_disabled": 0, "fusion_lat": 0.0}, {"fusion_lon": 0.0, "bike_id": "9ae09f84f92966034971320468ed6cc4", "name": "9ae09f84f92966034971320468ed6cc4", "type": "electric_scooter", "lon": -77.0070335, "rental_uris": {"android": "https://dc.lft.to/lastmile_qr_scan", "ios": "https://dc.lft.to/lastmile_qr_scan"}, "lat": 38.89674616666667, "is_reserved": 0, "is_disabled": 0, "fusion_lat": 0.0}, {"fusion_lon": 0.0, "bike_id": "fe420debb68a4565d3c2e52c4bb4535d", "name": "fe420debb68a4565d3c2e52c4bb4535d", "type": "electric_scooter", "lon": -77.027577, "rental_uris": {"android": "https://dc.lft.to/lastmile_qr_scan", "ios": "https://dc.lft.to/lastmile_qr_scan"}, "lat": 38.9541595, "is_reserved": 0, "is_disabled": 0, "fusion_lat": 0.0}, {"fusion_lon": 0.0, "bike_id": "6b98f695db2f9c40a3aa4f0eeb4ea00a", "name": "6b98f695db2f9c40a3aa4f0eeb4ea00a", "type": "electric_scooter", "lon": -77.02313033333333, "rental_uris": {"android": "https://dc.lft.to/lastmile_qr_scan", "ios": "https://dc.lft.to/lastmile_qr_scan"}, "lat": 38.91616533333333, "is_reserved": 0, "is_disabled": 0, "fusion_lat": 0.0}, {"fusion_lon": 0.0, "bike_id": "15f6677bd0826029ea96a2270866b5d0", "name": "15f6677bd0826029ea96a2270866b5d0", "type": "electric_scooter", "lon": -77.06393533333333, "rental_uris": {"android": "https://dc.lft.to/lastmile_qr_scan", "ios": "https://dc.lft.to/lastmile_qr_scan"}, "lat": 38.9291155, "is_reserved": 0, "is_disabled": 0, "fusion_lat": 0.0}, {"fusion_lon": 0.0, "bike_id": "20ef2b4a85d5ec01c9a2c9fd96bc5482", "name": "20ef2b4a85d5ec01c9a2c9fd96bc5482", "type": "electric_scooter", "lon": -77.02712983333333, "rental_uris": {"android": "https://dc.lft.to/lastmile_qr_scan", "ios": "https://dc.lft.to/lastmile_qr_scan"}, "lat": 38.918032333333336, "is_reserved": 0, "is_disabled": 0, "fusion_lat": 0.0}, {"fusion_lon": 0.0, "bike_id": "dca6e3f6fde466067bda7025ebe1c298", "name": "dca6e3f6fde466067bda7025ebe1c298", "type": "electric_scooter", "lon": -77.04506516666666, "rental_uris": {"android": "https://dc.lft.to/lastmile_qr_scan", "ios": "https://dc.lft.to/lastmile_qr_scan"}, "lat": 38.9127575, "is_reserved": 0, "is_disabled": 0, "fusion_lat": 0.0}, {"fusion_lon": 0.0, "bike_id": "0a81962ee39cdfc573134adc406adda0", "name": "0a81962ee39cdfc573134adc406adda0", "type": "electric_scooter", "lon": -77.0243075, "rental_uris": {"android": "https://dc.lft.to/lastmile_qr_scan", "ios": "https://dc.lft.to/lastmile_qr_scan"}, "lat": 38.92658383333333, "is_reserved": 0, "is_disabled": 0, "fusion_lat": 0.0}, {"fusion_lon": 0.0, "bike_id": "e14de0960d141a97600f7a0a0ce19708", "name": "e14de0960d141a97600f7a0a0ce19708", "type": "electric_scooter", "lon": -77.03263683333333, "rental_uris": {"android": "https://dc.lft.to/lastmile_qr_scan", "ios": "https://dc.lft.to/lastmile_qr_scan"}, "lat": 38.937507, "is_reserved": 0, "is_disabled": 0, "fusion_lat": 0.0}, {"fusion_lon": 0.0, "bike_id": "19bb3dd2dcfd42272b84c0daeb5fc6fd", "name": "19bb3dd2dcfd42272b84c0daeb5fc6fd", "type": "electric_scooter", "lon": -77.06043, "rental_uris": {"android": "https://dc.lft.to/lastmile_qr_scan", "ios": "https://dc.lft.to/lastmile_qr_scan"}, "lat": 38.9390735, "is_reserved": 0, "is_disabled": 0, "fusion_lat": 0.0}, {"fusion_lon": 0.0, "bike_id": "b92bc297b289f20bc4129e5c64a32af4", "name": "b92bc297b289f20bc4129e5c64a32af4", "type": "electric_scooter", "lon": -76.94122816666666, "rental_uris": {"android": "https://dc.lft.to/lastmile_qr_scan", "ios": "https://dc.lft.to/lastmile_qr_scan"}, "lat": 38.90791333333333, "is_reserved": 0, "is_disabled": 0, "fusion_lat": 0.0}, {"fusion_lon": 0.0, "bike_id": "13b1af86acfd1e2796a7458c7f5c360d", "name": "13b1af86acfd1e2796a7458c7f5c360d", "type": "electric_scooter", "lon": -77.04242316666667, "rental_uris": {"android": "https://dc.lft.to/lastmile_qr_scan", "ios": "https://dc.lft.to/lastmile_qr_scan"}, "lat": 38.945489, "is_reserved": 0, "is_disabled": 0, "fusion_lat": 0.0}, {"fusion_lon": 0.0, "bike_id": "702de61cee512fb2e570a74cd9caa131", "name": "702de61cee512fb2e570a74cd9caa131", "type": "electric_scooter", "lon": -77.0268455, "rental_uris": {"android": "https://dc.lft.to/lastmile_qr_scan", "ios": "https://dc.lft.to/lastmile_qr_scan"}, "lat": 38.91257516666667, "is_reserved": 0, "is_disabled": 0, "fusion_lat": 0.0}, {"fusion_lon": 0.0, "bike_id": "6aa33d8ecb6588ca6ac8b9f0244990f6", "name": "6aa33d8ecb6588ca6ac8b9f0244990f6", "type": "electric_bike", "lon": -76.923407, "rental_uris": {"android": "https://dc.lft.to/lastmile_qr_scan", "ios": "https://dc.lft.to/lastmile_qr_scan"}, "lat": 38.887903, "is_reserved": 0, "is_disabled": 0, "fusion_lat": 0.0}, {"fusion_lon": 0.0, "bike_id": "4209811730f066b401b89cf186ef8eeb", "name": "4209811730f066b401b89cf186ef8eeb", "type": "electric_scooter", "lon": -77.00932666666667, "rental_uris": {"android": "https://dc.lft.to/lastmile_qr_scan", "ios": "https://dc.lft.to/lastmile_qr_scan"}, "lat": 38.876822833333335, "is_reserved": 0, "is_disabled": 0, "fusion_lat": 0.0}, {"fusion_lon": 0.0, "bike_id": "4c208ec8c31a26097df4df63a53d51c0", "name": "4c208ec8c31a26097df4df63a53d51c0", "type": "electric_scooter", "lon": -77.03265533333334, "rental_uris": {"android": "https://dc.lft.to/lastmile_qr_scan", "ios": "https://dc.lft.to/lastmile_qr_scan"}, "lat": 38.93521583333333, "is_reserved": 0, "is_disabled": 0, "fusion_lat": 0.0}, {"fusion_lon": 0.0, "bike_id": "210cc2e667ef4266da15855734c476f7", "name": "210cc2e667ef4266da15855734c476f7", "type": "electric_scooter", "lon": -77.030871, "rental_uris": {"android": "https://dc.lft.to/lastmile_qr_scan", "ios": "https://dc.lft.to/lastmile_qr_scan"}, "lat": 38.92378133333333, "is_reserved": 0, "is_disabled": 0, "fusion_lat": 0.0}, {"fusion_lon": 0.0, "bike_id": "a2a62ad2dc857dd3450f534a9c453ab7", "name": "a2a62ad2dc857dd3450f534a9c453ab7", "type": "electric_scooter", "lon": -76.985448, "rental_uris": {"android": "https://dc.lft.to/lastmile_qr_scan", "ios": "https://dc.lft.to/lastmile_qr_scan"}, "lat": 38.88007233333333, "is_reserved": 0, "is_disabled": 0, "fusion_lat": 0.0}, {"fusion_lon": 0.0, "bike_id": "5f0d492a17a2297ad530495f6b371a8a", "name": "5f0d492a17a2297ad530495f6b371a8a", "type": "electric_scooter", "lon": -77.03453083333333, "rental_uris": {"android": "https://dc.lft.to/lastmile_qr_scan", "ios": "https://dc.lft.to/lastmile_qr_scan"}, "lat": 38.90497883333333, "is_reserved": 0, "is_disabled": 0, "fusion_lat": 0.0}, {"fusion_lon": 0.0, "bike_id": "18ae410ed4265581a6ffd115a5569722", "name": "18ae410ed4265581a6ffd115a5569722", "type": "electric_scooter", "lon": -77.003766, "rental_uris": {"android": "https://dc.lft.to/lastmile_qr_scan", "ios": "https://dc.lft.to/lastmile_qr_scan"}, "lat": 38.90618416666667, "is_reserved": 0, "is_disabled": 0, "fusion_lat": 0.0}, {"fusion_lon": 0.0, "bike_id": "24f9525fc26a35b7870f119b4100ccf2", "name": "24f9525fc26a35b7870f119b4100ccf2", "type": "electric_bike", "lon": -76.97618783333333, "rental_uris": {"android": "https://dc.lft.to/lastmile_qr_scan", "ios": "https://dc.lft.to/lastmile_qr_scan"}, "lat": 38.8929195, "is_reserved": 0, "is_disabled": 0, "fusion_lat": 0.0}, {"fusion_lon": 0.0, "bike_id": "893129ffc9ab09dde4cf028f22ed74f2", "name": "893129ffc9ab09dde4cf028f22ed74f2", "type": "electric_scooter", "lon": -77.0111165, "rental_uris": {"android": "https://dc.lft.to/lastmile_qr_scan", "ios": "https://dc.lft.to/lastmile_qr_scan"}, "lat": 38.8959255, "is_reserved": 0, "is_disabled": 0, "fusion_lat": 0.0}, {"fusion_lon": 0.0, "bike_id": "7c79233551c47135ee6e738d9af877a9", "name": "7c79233551c47135ee6e738d9af877a9", "type": "electric_scooter", "lon": -77.020502, "rental_uris": {"android": "https://dc.lft.to/lastmile_qr_scan", "ios": "https://dc.lft.to/lastmile_qr_scan"}, "lat": 38.94122766666667, "is_reserved": 0, "is_disabled": 0, "fusion_lat": 0.0}, {"fusion_lon": 0.0, "bike_id": "22b35c2a397f6e7cea83f09635eec6b2", "name": "22b35c2a397f6e7cea83f09635eec6b2", "type": "electric_scooter", "lon": -77.0386025, "rental_uris": {"android": "https://dc.lft.to/lastmile_qr_scan", "ios": "https://dc.lft.to/lastmile_qr_scan"}, "lat": 38.90786283333333, "is_reserved": 0, "is_disabled": 0, "fusion_lat": 0.0}, {"fusion_lon": 0.0, "bike_id": "1bba2bde6c741fae5213f8ffaa887a7a", "name": "1bba2bde6c741fae5213f8ffaa887a7a", "type": "electric_scooter", "lon": -77.0256245, "rental_uris": {"android": "https://dc.lft.to/lastmile_qr_scan", "ios": "https://dc.lft.to/lastmile_qr_scan"}, "lat": 38.914191833333334, "is_reserved": 0, "is_disabled": 0, "fusion_lat": 0.0}, {"fusion_lon": 0.0, "bike_id": "cddda049ff63219cda4b35e9835b4a6a", "name": "cddda049ff63219cda4b35e9835b4a6a", "type": "electric_scooter", "lon": -76.97420783333334, "rental_uris": {"android": "https://dc.lft.to/lastmile_qr_scan", "ios": "https://dc.lft.to/lastmile_qr_scan"}, "lat": 38.863955833333335, "is_reserved": 0, "is_disabled": 0, "fusion_lat": 0.0}, {"fusion_lon": 0.0, "bike_id": "c0445f6e6c9b5e67d0f36cac2fe0a9cc", "name": "c0445f6e6c9b5e67d0f36cac2fe0a9cc", "type": "electric_bike", "lon": -77.10022866666667, "rental_uris": {"android": "https://dc.lft.to/lastmile_qr_scan", "ios": "https://dc.lft.to/lastmile_qr_scan"}, "lat": 38.990588, "is_reserved": 0, "is_disabled": 0, "fusion_lat": 0.0}, {"fusion_lon": 0.0, "bike_id": "227a2a74279bcb1d406363a87b42d230", "name": "227a2a74279bcb1d406363a87b42d230", "type": "electric_scooter", "lon": -77.03179466666667, "rental_uris": {"android": "https://dc.lft.to/lastmile_qr_scan", "ios": "https://dc.lft.to/lastmile_qr_scan"}, "lat": 38.92906966666666, "is_reserved": 0, "is_disabled": 0, "fusion_lat": 0.0}, {"fusion_lon": 0.0, "bike_id": "8484d60827de8c72cd3da24e82e860a4", "name": "8484d60827de8c72cd3da24e82e860a4", "type": "electric_scooter", "lon": -77.03072866666666, "rental_uris": {"android": "https://dc.lft.to/lastmile_qr_scan", "ios": "https://dc.lft.to/lastmile_qr_scan"}, "lat": 38.9075445, "is_reserved": 0, "is_disabled": 0, "fusion_lat": 0.0}, {"fusion_lon": 0.0, "bike_id": "374549bbb7c65c0e124615808394a45d", "name": "374549bbb7c65c0e124615808394a45d", "type": "electric_scooter", "lon": -77.035124, "rental_uris": {"android": "https://dc.lft.to/lastmile_qr_scan", "ios": "https://dc.lft.to/lastmile_qr_scan"}, "lat": 38.936051, "is_reserved": 0, "is_disabled": 0, "fusion_lat": 0.0}, {"fusion_lon": 0.0, "bike_id": "f73be41199e44dd8a1b61da2ec2a56d4", "name": "f73be41199e44dd8a1b61da2ec2a56d4", "type": "electric_scooter", "lon": -77.04406916666667, "rental_uris": {"android": "https://dc.lft.to/lastmile_qr_scan", "ios": "https://dc.lft.to/lastmile_qr_scan"}, "lat": 38.92952833333333, "is_reserved": 0, "is_disabled": 0, "fusion_lat": 0.0}, {"fusion_lon": 0.0, "bike_id": "e54cb7ae74df6fc3ac3ca6eff1ec1a26", "name": "e54cb7ae74df6fc3ac3ca6eff1ec1a26", "type": "electric_scooter", "lon": -77.041749, "rental_uris": {"android": "https://dc.lft.to/lastmile_qr_scan", "ios": "https://dc.lft.to/lastmile_qr_scan"}, "lat": 38.907259, "is_reserved": 0, "is_disabled": 0, "fusion_lat": 0.0}, {"fusion_lon": 0.0, "bike_id": "09d51497dc0a669965998835822cf570", "name": "09d51497dc0a669965998835822cf570", "type": "electric_scooter", "lon": -76.97615566666667, "rental_uris": {"android": "https://dc.lft.to/lastmile_qr_scan", "ios": "https://dc.lft.to/lastmile_qr_scan"}, "lat": 38.93142066666667, "is_reserved": 0, "is_disabled": 0, "fusion_lat": 0.0}, {"fusion_lon": 0.0, "bike_id": "cd921ff1e83116ec0889191ec270e2e2", "name": "cd921ff1e83116ec0889191ec270e2e2", "type": "electric_scooter", "lon": -76.99052116666667, "rental_uris": {"android": "https://dc.lft.to/lastmile_qr_scan", "ios": "https://dc.lft.to/lastmile_qr_scan"}, "lat": 38.858975, "is_reserved": 0, "is_disabled": 0, "fusion_lat": 0.0}, {"fusion_lon": 0.0, "bike_id": "e30ba3118bacde583b541d529160aaa6", "name": "e30ba3118bacde583b541d529160aaa6", "type": "electric_scooter", "lon": -77.02332033333333, "rental_uris": {"android": "https://dc.lft.to/lastmile_qr_scan", "ios": "https://dc.lft.to/lastmile_qr_scan"}, "lat": 38.91555783333333, "is_reserved": 0, "is_disabled": 0, "fusion_lat": 0.0}, {"fusion_lon": 0.0, "bike_id": "22b801df0a87b938c61bb1f4ad53aa92", "name": "22b801df0a87b938c61bb1f4ad53aa92", "type": "electric_scooter", "lon": -76.99480383333334, "rental_uris": {"android": "https://dc.lft.to/lastmile_qr_scan", "ios": "https://dc.lft.to/lastmile_qr_scan"}, "lat": 38.8621745, "is_reserved": 0, "is_disabled": 0, "fusion_lat": 0.0}, {"fusion_lon": 0.0, "bike_id": "60b7cce03cbeb4b25edde6651a3af931", "name": "60b7cce03cbeb4b25edde6651a3af931", "type": "electric_scooter", "lon": -77.00438716666666, "rental_uris": {"android": "https://dc.lft.to/lastmile_qr_scan", "ios": "https://dc.lft.to/lastmile_qr_scan"}, "lat": 38.87654783333333, "is_reserved": 0, "is_disabled": 0, "fusion_lat": 0.0}, {"fusion_lon": 0.0, "bike_id": "78377c01adcfc3bad3fb5daf0bbb5f0d", "name": "78377c01adcfc3bad3fb5daf0bbb5f0d", "type": "electric_scooter", "lon": -77.003084, "rental_uris": {"android": "https://dc.lft.to/lastmile_qr_scan", "ios": "https://dc.lft.to/lastmile_qr_scan"}, "lat": 38.894815333333334, "is_reserved": 0, "is_disabled": 0, "fusion_lat": 0.0}, {"fusion_lon": 0.0, "bike_id": "f3b22a4316d9149ce7017fcf83e7f63f", "name": "f3b22a4316d9149ce7017fcf83e7f63f", "type": "electric_scooter", "lon": -77.07231516666667, "rental_uris": {"android": "https://dc.lft.to/lastmile_qr_scan", "ios": "https://dc.lft.to/lastmile_qr_scan"}, "lat": 38.93461383333333, "is_reserved": 0, "is_disabled": 0, "fusion_lat": 0.0}, {"fusion_lon": 0.0, "bike_id": "80d91ea6d89c195410ead838f76cb1fc", "name": "80d91ea6d89c195410ead838f76cb1fc", "type": "electric_scooter", "lon": -76.98517533333333, "rental_uris": {"android": "https://dc.lft.to/lastmile_qr_scan", "ios": "https://dc.lft.to/lastmile_qr_scan"}, "lat": 38.880807, "is_reserved": 0, "is_disabled": 0, "fusion_lat": 0.0}, {"fusion_lon": 0.0, "bike_id": "42f5493d032c6af7e1196e3344998f8c", "name": "42f5493d032c6af7e1196e3344998f8c", "type": "electric_scooter", "lon": -77.0372935, "rental_uris": {"android": "https://dc.lft.to/lastmile_qr_scan", "ios": "https://dc.lft.to/lastmile_qr_scan"}, "lat": 38.926609166666665, "is_reserved": 0, "is_disabled": 0, "fusion_lat": 0.0}, {"fusion_lon": 0.0, "bike_id": "98b862e60117070d8c124234ff8cb793", "name": "98b862e60117070d8c124234ff8cb793", "type": "electric_bike", "lon": -76.95466816666666, "rental_uris": {"android": "https://dc.lft.to/lastmile_qr_scan", "ios": "https://dc.lft.to/lastmile_qr_scan"}, "lat": 38.93570716666667, "is_reserved": 0, "is_disabled": 0, "fusion_lat": 0.0}, {"fusion_lon": 0.0, "bike_id": "ed7e4271403c3e63fc5f2c6b5d9f8c98", "name": "ed7e4271403c3e63fc5f2c6b5d9f8c98", "type": "electric_scooter", "lon": -77.0413875, "rental_uris": {"android": "https://dc.lft.to/lastmile_qr_scan", "ios": "https://dc.lft.to/lastmile_qr_scan"}, "lat": 38.90246533333333, "is_reserved": 0, "is_disabled": 0, "fusion_lat": 0.0}, {"fusion_lon": 0.0, "bike_id": "8684b402df4739dd2075fa4d3c65fe52", "name": "8684b402df4739dd2075fa4d3c65fe52", "type": "electric_scooter", "lon": -77.01995133333334, "rental_uris": {"android": "https://dc.lft.to/lastmile_qr_scan", "ios": "https://dc.lft.to/lastmile_qr_scan"}, "lat": 38.883752666666666, "is_reserved": 0, "is_disabled": 0, "fusion_lat": 0.0}, {"fusion_lon": 0.0, "bike_id": "d6751218914a27f21ae8b19a0b62a55d", "name": "d6751218914a27f21ae8b19a0b62a55d", "type": "electric_scooter", "lon": -77.04648466666667, "rental_uris": {"android": "https://dc.lft.to/lastmile_qr_scan", "ios": "https://dc.lft.to/lastmile_qr_scan"}, "lat": 38.900150833333335, "is_reserved": 0, "is_disabled": 0, "fusion_lat": 0.0}, {"fusion_lon": 0.0, "bike_id": "44ee62535db18f122d4348609f334ad2", "name": "44ee62535db18f122d4348609f334ad2", "type": "electric_scooter", "lon": -76.99365516666667, "rental_uris": {"android": "https://dc.lft.to/lastmile_qr_scan", "ios": "https://dc.lft.to/lastmile_qr_scan"}, "lat": 38.92840566666667, "is_reserved": 0, "is_disabled": 0, "fusion_lat": 0.0}, {"fusion_lon": 0.0, "bike_id": "83dbea0c70ad6e43e2e2f01a8b84b81d", "name": "83dbea0c70ad6e43e2e2f01a8b84b81d", "type": "electric_scooter", "lon": -76.99080716666667, "rental_uris": {"android": "https://dc.lft.to/lastmile_qr_scan", "ios": "https://dc.lft.to/lastmile_qr_scan"}, "lat": 38.86060066666667, "is_reserved": 0, "is_disabled": 0, "fusion_lat": 0.0}, {"fusion_lon": 0.0, "bike_id": "ce475b26f1c815691c690bcbb56eee4c", "name": "ce475b26f1c815691c690bcbb56eee4c", "type": "electric_scooter", "lon": -77.023016, "rental_uris": {"android": "https://dc.lft.to/lastmile_qr_scan", "ios": "https://dc.lft.to/lastmile_qr_scan"}, "lat": 38.917307, "is_reserved": 0, "is_disabled": 0, "fusion_lat": 0.0}, {"fusion_lon": 0.0, "bike_id": "42e08eb53f26b1f3d3d36e9354282d36", "name": "42e08eb53f26b1f3d3d36e9354282d36", "type": "electric_scooter", "lon": -77.01997683333333, "rental_uris": {"android": "https://dc.lft.to/lastmile_qr_scan", "ios": "https://dc.lft.to/lastmile_qr_scan"}, "lat": 38.966374, "is_reserved": 0, "is_disabled": 0, "fusion_lat": 0.0}, {"fusion_lon": 0.0, "bike_id": "4c3789a0679bc278a3684c33f4079daf", "name": "4c3789a0679bc278a3684c33f4079daf", "type": "electric_scooter", "lon": -77.06248766666667, "rental_uris": {"android": "https://dc.lft.to/lastmile_qr_scan", "ios": "https://dc.lft.to/lastmile_qr_scan"}, "lat": 38.91316066666667, "is_reserved": 0, "is_disabled": 0, "fusion_lat": 0.0}, {"fusion_lon": 0.0, "bike_id": "7baeac092e7b17a3f22a52642ee1d52f", "name": "7baeac092e7b17a3f22a52642ee1d52f", "type": "electric_scooter", "lon": -76.99003716666667, "rental_uris": {"android": "https://dc.lft.to/lastmile_qr_scan", "ios": "https://dc.lft.to/lastmile_qr_scan"}, "lat": 38.86512166666667, "is_reserved": 0, "is_disabled": 0, "fusion_lat": 0.0}, {"fusion_lon": 0.0, "bike_id": "d618f04ed5d3405517491bbc6ad65f79", "name": "d618f04ed5d3405517491bbc6ad65f79", "type": "electric_scooter", "lon": -77.01204616666666, "rental_uris": {"android": "https://dc.lft.to/lastmile_qr_scan", "ios": "https://dc.lft.to/lastmile_qr_scan"}, "lat": 38.92585733333333, "is_reserved": 0, "is_disabled": 0, "fusion_lat": 0.0}, {"fusion_lon": 0.0, "bike_id": "1ffe73a63c7bfcd229ab6df4e5e65494", "name": "1ffe73a63c7bfcd229ab6df4e5e65494", "type": "electric_scooter", "lon": -77.02222083333334, "rental_uris": {"android": "https://dc.lft.to/lastmile_qr_scan", "ios": "https://dc.lft.to/lastmile_qr_scan"}, "lat": 38.892210166666665, "is_reserved": 0, "is_disabled": 0, "fusion_lat": 0.0}, {"fusion_lon": 0.0, "bike_id": "cb1d00170ef979022b53c1035777a0a1", "name": "cb1d00170ef979022b53c1035777a0a1", "type": "electric_scooter", "lon": -77.05756583333333, "rental_uris": {"android": "https://dc.lft.to/lastmile_qr_scan", "ios": "https://dc.lft.to/lastmile_qr_scan"}, "lat": 38.924921833333336, "is_reserved": 0, "is_disabled": 0, "fusion_lat": 0.0}, {"fusion_lon": 0.0, "bike_id": "0e5dc9ae459f26a91297281b6b0c124e", "name": "0e5dc9ae459f26a91297281b6b0c124e", "type": "electric_scooter", "lon": -77.03283333333333, "rental_uris": {"android": "https://dc.lft.to/lastmile_qr_scan", "ios": "https://dc.lft.to/lastmile_qr_scan"}, "lat": 38.946991833333335, "is_reserved": 0, "is_disabled": 0, "fusion_lat": 0.0}, {"fusion_lon": 0.0, "bike_id": "84314f6ec79ee4ef06edd9071e5a5506", "name": "84314f6ec79ee4ef06edd9071e5a5506", "type": "electric_scooter", "lon": -77.00733, "rental_uris": {"android": "https://dc.lft.to/lastmile_qr_scan", "ios": "https://dc.lft.to/lastmile_qr_scan"}, "lat": 38.877029666666665, "is_reserved": 0, "is_disabled": 0, "fusion_lat": 0.0}, {"fusion_lon": 0.0, "bike_id": "e39e518134b2ccf455b073a240ded6e3", "name": "e39e518134b2ccf455b073a240ded6e3", "type": "electric_scooter", "lon": -77.04557233333334, "rental_uris": {"android": "https://dc.lft.to/lastmile_qr_scan", "ios": "https://dc.lft.to/lastmile_qr_scan"}, "lat": 38.90743, "is_reserved": 0, "is_disabled": 0, "fusion_lat": 0.0}, {"fusion_lon": 0.0, "bike_id": "2028c0dd821fa486dd74b37fcdf4f266", "name": "2028c0dd821fa486dd74b37fcdf4f266", "type": "electric_scooter", "lon": -77.027441, "rental_uris": {"android": "https://dc.lft.to/lastmile_qr_scan", "ios": "https://dc.lft.to/lastmile_qr_scan"}, "lat": 38.932022333333336, "is_reserved": 0, "is_disabled": 0, "fusion_lat": 0.0}, {"fusion_lon": 0.0, "bike_id": "36db2b1e983756cec8b1b42b62826b7d", "name": "36db2b1e983756cec8b1b42b62826b7d", "type": "electric_scooter", "lon": -77.04397066666667, "rental_uris": {"android": "https://dc.lft.to/lastmile_qr_scan", "ios": "https://dc.lft.to/lastmile_qr_scan"}, "lat": 38.90271666666666, "is_reserved": 0, "is_disabled": 0, "fusion_lat": 0.0}, {"fusion_lon": 0.0, "bike_id": "9e920c56f67d1d38baa848bd02289410", "name": "9e920c56f67d1d38baa848bd02289410", "type": "electric_scooter", "lon": -76.99060383333334, "rental_uris": {"android": "https://dc.lft.to/lastmile_qr_scan", "ios": "https://dc.lft.to/lastmile_qr_scan"}, "lat": 38.86366116666667, "is_reserved": 0, "is_disabled": 0, "fusion_lat": 0.0}, {"fusion_lon": 0.0, "bike_id": "1a98a6581a832c8b5c614cc62e7a03a1", "name": "1a98a6581a832c8b5c614cc62e7a03a1", "type": "electric_scooter", "lon": -77.02814216666667, "rental_uris": {"android": "https://dc.lft.to/lastmile_qr_scan", "ios": "https://dc.lft.to/lastmile_qr_scan"}, "lat": 38.916314, "is_reserved": 0, "is_disabled": 0, "fusion_lat": 0.0}, {"fusion_lon": 0.0, "bike_id": "972345c0900496959aaed40faac5b901", "name": "972345c0900496959aaed40faac5b901", "type": "electric_scooter", "lon": -77.01377816666667, "rental_uris": {"android": "https://dc.lft.to/lastmile_qr_scan", "ios": "https://dc.lft.to/lastmile_qr_scan"}, "lat": 38.928761333333334, "is_reserved": 0, "is_disabled": 0, "fusion_lat": 0.0}, {"fusion_lon": 0.0, "bike_id": "4f5862710c36552c814a2ad4664b5b9a", "name": "4f5862710c36552c814a2ad4664b5b9a", "type": "electric_scooter", "lon": -76.99355033333333, "rental_uris": {"android": "https://dc.lft.to/lastmile_qr_scan", "ios": "https://dc.lft.to/lastmile_qr_scan"}, "lat": 38.8961325, "is_reserved": 0, "is_disabled": 0, "fusion_lat": 0.0}, {"fusion_lon": 0.0, "bike_id": "5ed9854f7861fe3cfd1a11ae760415ce", "name": "5ed9854f7861fe3cfd1a11ae760415ce", "type": "electric_scooter", "lon": -77.04342033333333, "rental_uris": {"android": "https://dc.lft.to/lastmile_qr_scan", "ios": "https://dc.lft.to/lastmile_qr_scan"}, "lat": 38.90686, "is_reserved": 0, "is_disabled": 0, "fusion_lat": 0.0}, {"fusion_lon": 0.0, "bike_id": "88ae2e0bc3f68f18d452e5956ee18c99", "name": "88ae2e0bc3f68f18d452e5956ee18c99", "type": "electric_scooter", "lon": -77.04392783333333, "rental_uris": {"android": "https://dc.lft.to/lastmile_qr_scan", "ios": "https://dc.lft.to/lastmile_qr_scan"}, "lat": 38.91119533333333, "is_reserved": 0, "is_disabled": 0, "fusion_lat": 0.0}, {"fusion_lon": 0.0, "bike_id": "2c29f823e8090e1c409c7bcf7845440c", "name": "2c29f823e8090e1c409c7bcf7845440c", "type": "electric_scooter", "lon": -77.04166083333334, "rental_uris": {"android": "https://dc.lft.to/lastmile_qr_scan", "ios": "https://dc.lft.to/lastmile_qr_scan"}, "lat": 38.906094, "is_reserved": 0, "is_disabled": 0, "fusion_lat": 0.0}, {"fusion_lon": 0.0, "bike_id": "2afef81ea758b987d7f48767df122573", "name": "2afef81ea758b987d7f48767df122573", "type": "electric_scooter", "lon": -77.02784283333334, "rental_uris": {"android": "https://dc.lft.to/lastmile_qr_scan", "ios": "https://dc.lft.to/lastmile_qr_scan"}, "lat": 38.892224166666665, "is_reserved": 0, "is_disabled": 0, "fusion_lat": 0.0}, {"fusion_lon": 0.0, "bike_id": "8ad0ed761d9037ed7dd5d9326f4250b9", "name": "8ad0ed761d9037ed7dd5d9326f4250b9", "type": "electric_scooter", "lon": -77.00333233333333, "rental_uris": {"android": "https://dc.lft.to/lastmile_qr_scan", "ios": "https://dc.lft.to/lastmile_qr_scan"}, "lat": 38.87503016666667, "is_reserved": 0, "is_disabled": 0, "fusion_lat": 0.0}, {"fusion_lon": 0.0, "bike_id": "6c7800b7b1ac7ca3532d680cbcc42acc", "name": "6c7800b7b1ac7ca3532d680cbcc42acc", "type": "electric_scooter", "lon": -77.03249816666667, "rental_uris": {"android": "https://dc.lft.to/lastmile_qr_scan", "ios": "https://dc.lft.to/lastmile_qr_scan"}, "lat": 38.904253, "is_reserved": 0, "is_disabled": 0, "fusion_lat": 0.0}, {"fusion_lon": 0.0, "bike_id": "ec1a95e279e67d91c45dd522f25cb706", "name": "ec1a95e279e67d91c45dd522f25cb706", "type": "electric_scooter", "lon": -77.02548083333333, "rental_uris": {"android": "https://dc.lft.to/lastmile_qr_scan", "ios": "https://dc.lft.to/lastmile_qr_scan"}, "lat": 38.8970045, "is_reserved": 0, "is_disabled": 0, "fusion_lat": 0.0}, {"fusion_lon": 0.0, "bike_id": "c250e95114d1ce255457a3e0888bf472", "name": "c250e95114d1ce255457a3e0888bf472", "type": "electric_scooter", "lon": -77.02009133333334, "rental_uris": {"android": "https://dc.lft.to/lastmile_qr_scan", "ios": "https://dc.lft.to/lastmile_qr_scan"}, "lat": 38.92415233333333, "is_reserved": 0, "is_disabled": 0, "fusion_lat": 0.0}, {"fusion_lon": 0.0, "bike_id": "10153c24abcac38331c5c5d8d2514e55", "name": "10153c24abcac38331c5c5d8d2514e55", "type": "electric_bike", "lon": -76.9821395, "rental_uris": {"android": "https://dc.lft.to/lastmile_qr_scan", "ios": "https://dc.lft.to/lastmile_qr_scan"}, "lat": 38.9850575, "is_reserved": 0, "is_disabled": 0, "fusion_lat": 0.0}, {"fusion_lon": 0.0, "bike_id": "bf187cc8614d3aaf48f28703ddbf4e04", "name": "bf187cc8614d3aaf48f28703ddbf4e04", "type": "electric_scooter", "lon": -77.00187266666667, "rental_uris": {"android": "https://dc.lft.to/lastmile_qr_scan", "ios": "https://dc.lft.to/lastmile_qr_scan"}, "lat": 38.952549, "is_reserved": 0, "is_disabled": 0, "fusion_lat": 0.0}, {"fusion_lon": 0.0, "bike_id": "914299980a3b246f4dd3b31acc401124", "name": "914299980a3b246f4dd3b31acc401124", "type": "electric_scooter", "lon": -77.054253, "rental_uris": {"android": "https://dc.lft.to/lastmile_qr_scan", "ios": "https://dc.lft.to/lastmile_qr_scan"}, "lat": 38.928038, "is_reserved": 0, "is_disabled": 0, "fusion_lat": 0.0}, {"fusion_lon": 0.0, "bike_id": "179d38a93206cc5c98aebd27d978a943", "name": "179d38a93206cc5c98aebd27d978a943", "type": "electric_scooter", "lon": -77.0239165, "rental_uris": {"android": "https://dc.lft.to/lastmile_qr_scan", "ios": "https://dc.lft.to/lastmile_qr_scan"}, "lat": 38.901365, "is_reserved": 0, "is_disabled": 0, "fusion_lat": 0.0}, {"fusion_lon": 0.0, "bike_id": "288926bcfe4219fac4977c18019e6752", "name": "288926bcfe4219fac4977c18019e6752", "type": "electric_scooter", "lon": -77.00740216666667, "rental_uris": {"android": "https://dc.lft.to/lastmile_qr_scan", "ios": "https://dc.lft.to/lastmile_qr_scan"}, "lat": 38.898369833333334, "is_reserved": 0, "is_disabled": 0, "fusion_lat": 0.0}, {"fusion_lon": 0.0, "bike_id": "59073289fcee619ea701c9728d933bda", "name": "59073289fcee619ea701c9728d933bda", "type": "electric_scooter", "lon": -77.03152316666667, "rental_uris": {"android": "https://dc.lft.to/lastmile_qr_scan", "ios": "https://dc.lft.to/lastmile_qr_scan"}, "lat": 38.92722916666666, "is_reserved": 0, "is_disabled": 0, "fusion_lat": 0.0}, {"fusion_lon": 0.0, "bike_id": "65fab64a5337fb20759243a85999892e", "name": "65fab64a5337fb20759243a85999892e", "type": "electric_scooter", "lon": -77.03857583333334, "rental_uris": {"android": "https://dc.lft.to/lastmile_qr_scan", "ios": "https://dc.lft.to/lastmile_qr_scan"}, "lat": 38.91812566666667, "is_reserved": 0, "is_disabled": 0, "fusion_lat": 0.0}, {"fusion_lon": 0.0, "bike_id": "934a99cb85e67cbb34037b8a22ff56d7", "name": "934a99cb85e67cbb34037b8a22ff56d7", "type": "electric_scooter", "lon": -77.00727783333333, "rental_uris": {"android": "https://dc.lft.to/lastmile_qr_scan", "ios": "https://dc.lft.to/lastmile_qr_scan"}, "lat": 38.876566333333336, "is_reserved": 0, "is_disabled": 0, "fusion_lat": 0.0}, {"fusion_lon": 0.0, "bike_id": "7db499f59c92b362978b9127744292f6", "name": "7db499f59c92b362978b9127744292f6", "type": "electric_scooter", "lon": -77.03270533333334, "rental_uris": {"android": "https://dc.lft.to/lastmile_qr_scan", "ios": "https://dc.lft.to/lastmile_qr_scan"}, "lat": 38.93205016666667, "is_reserved": 0, "is_disabled": 0, "fusion_lat": 0.0}, {"fusion_lon": 0.0, "bike_id": "05db8647151d702b1a36e9bf719c0700", "name": "05db8647151d702b1a36e9bf719c0700", "type": "electric_scooter", "lon": -77.02575883333333, "rental_uris": {"android": "https://dc.lft.to/lastmile_qr_scan", "ios": "https://dc.lft.to/lastmile_qr_scan"}, "lat": 38.925116, "is_reserved": 0, "is_disabled": 0, "fusion_lat": 0.0}, {"fusion_lon": 0.0, "bike_id": "ece20831e6cb2fa4890cc02e618720d4", "name": "ece20831e6cb2fa4890cc02e618720d4", "type": "electric_scooter", "lon": -76.98592066666667, "rental_uris": {"android": "https://dc.lft.to/lastmile_qr_scan", "ios": "https://dc.lft.to/lastmile_qr_scan"}, "lat": 38.889703, "is_reserved": 0, "is_disabled": 0, "fusion_lat": 0.0}, {"fusion_lon": 0.0, "bike_id": "239a5ed918646fb22a18dd7e42c03ed8", "name": "239a5ed918646fb22a18dd7e42c03ed8", "type": "electric_scooter", "lon": -77.01356666666666, "rental_uris": {"android": "https://dc.lft.to/lastmile_qr_scan", "ios": "https://dc.lft.to/lastmile_qr_scan"}, "lat": 38.903803833333335, "is_reserved": 0, "is_disabled": 0, "fusion_lat": 0.0}, {"fusion_lon": 0.0, "bike_id": "a0c2731f70707d3eac60e1e058fc3219", "name": "a0c2731f70707d3eac60e1e058fc3219", "type": "electric_scooter", "lon": -77.0479455, "rental_uris": {"android": "https://dc.lft.to/lastmile_qr_scan", "ios": "https://dc.lft.to/lastmile_qr_scan"}, "lat": 38.89370066666667, "is_reserved": 0, "is_disabled": 0, "fusion_lat": 0.0}, {"fusion_lon": 0.0, "bike_id": "1756c8211b56311ee0a822c08dc76500", "name": "1756c8211b56311ee0a822c08dc76500", "type": "electric_bike", "lon": -76.91123366666666, "rental_uris": {"android": "https://dc.lft.to/lastmile_qr_scan", "ios": "https://dc.lft.to/lastmile_qr_scan"}, "lat": 39.0103865, "is_reserved": 0, "is_disabled": 0, "fusion_lat": 0.0}, {"fusion_lon": 0.0, "bike_id": "1812c93f9ffbe51d811f247f69d466eb", "name": "1812c93f9ffbe51d811f247f69d466eb", "type": "electric_scooter", "lon": -77.03183166666666, "rental_uris": {"android": "https://dc.lft.to/lastmile_qr_scan", "ios": "https://dc.lft.to/lastmile_qr_scan"}, "lat": 38.919207, "is_reserved": 0, "is_disabled": 0, "fusion_lat": 0.0}, {"fusion_lon": 0.0, "bike_id": "f7ac95bf4267154a2e639f0e00b3b572", "name": "f7ac95bf4267154a2e639f0e00b3b572", "type": "electric_scooter", "lon": -77.031958, "rental_uris": {"android": "https://dc.lft.to/lastmile_qr_scan", "ios": "https://dc.lft.to/lastmile_qr_scan"}, "lat": 38.907797333333335, "is_reserved": 0, "is_disabled": 0, "fusion_lat": 0.0}, {"fusion_lon": 0.0, "bike_id": "f42a5a8b6fd7e7bbbd345f62368f54fa", "name": "f42a5a8b6fd7e7bbbd345f62368f54fa", "type": "electric_scooter", "lon": -77.023364, "rental_uris": {"android": "https://dc.lft.to/lastmile_qr_scan", "ios": "https://dc.lft.to/lastmile_qr_scan"}, "lat": 38.9155835, "is_reserved": 0, "is_disabled": 0, "fusion_lat": 0.0}, {"fusion_lon": 0.0, "bike_id": "a6c351ee16e86d1ee6e1c8317be52ebc", "name": "a6c351ee16e86d1ee6e1c8317be52ebc", "type": "electric_scooter", "lon": -77.03859816666667, "rental_uris": {"android": "https://dc.lft.to/lastmile_qr_scan", "ios": "https://dc.lft.to/lastmile_qr_scan"}, "lat": 38.90289283333333, "is_reserved": 0, "is_disabled": 0, "fusion_lat": 0.0}, {"fusion_lon": 0.0, "bike_id": "13e09e8b1f4b3da26b513b7a42dd6903", "name": "13e09e8b1f4b3da26b513b7a42dd6903", "type": "electric_scooter", "lon": -76.98558883333334, "rental_uris": {"android": "https://dc.lft.to/lastmile_qr_scan", "ios": "https://dc.lft.to/lastmile_qr_scan"}, "lat": 38.920058, "is_reserved": 0, "is_disabled": 0, "fusion_lat": 0.0}, {"fusion_lon": 0.0, "bike_id": "6edb4db5df7b3f546474fc81eec4a3ef", "name": "6edb4db5df7b3f546474fc81eec4a3ef", "type": "electric_scooter", "lon": -77.02275383333334, "rental_uris": {"android": "https://dc.lft.to/lastmile_qr_scan", "ios": "https://dc.lft.to/lastmile_qr_scan"}, "lat": 38.92502866666667, "is_reserved": 0, "is_disabled": 0, "fusion_lat": 0.0}, {"fusion_lon": 0.0, "bike_id": "619fc3eff41c78a668c6855f7e787f37", "name": "619fc3eff41c78a668c6855f7e787f37", "type": "electric_scooter", "lon": -77.03920816666667, "rental_uris": {"android": "https://dc.lft.to/lastmile_qr_scan", "ios": "https://dc.lft.to/lastmile_qr_scan"}, "lat": 38.90330616666667, "is_reserved": 0, "is_disabled": 0, "fusion_lat": 0.0}, {"fusion_lon": 0.0, "bike_id": "2304e378b36e7261aaaf96187fe4d8ef", "name": "2304e378b36e7261aaaf96187fe4d8ef", "type": "electric_scooter", "lon": -76.93742433333334, "rental_uris": {"android": "https://dc.lft.to/lastmile_qr_scan", "ios": "https://dc.lft.to/lastmile_qr_scan"}, "lat": 38.89004533333333, "is_reserved": 0, "is_disabled": 0, "fusion_lat": 0.0}, {"fusion_lon": 0.0, "bike_id": "2e6c997e5d53a37873b2f16354046c67", "name": "2e6c997e5d53a37873b2f16354046c67", "type": "electric_scooter", "lon": -77.01039583333333, "rental_uris": {"android": "https://dc.lft.to/lastmile_qr_scan", "ios": "https://dc.lft.to/lastmile_qr_scan"}, "lat": 38.884452333333336, "is_reserved": 0, "is_disabled": 0, "fusion_lat": 0.0}, {"fusion_lon": 0.0, "bike_id": "4b40e1d55ab89824b113ae29cef32ded", "name": "4b40e1d55ab89824b113ae29cef32ded", "type": "electric_scooter", "lon": -77.05271916666666, "rental_uris": {"android": "https://dc.lft.to/lastmile_qr_scan", "ios": "https://dc.lft.to/lastmile_qr_scan"}, "lat": 38.9276025, "is_reserved": 0, "is_disabled": 0, "fusion_lat": 0.0}, {"fusion_lon": 0.0, "bike_id": "b32bc23ebec2a95c59b8f37c0bb86826", "name": "b32bc23ebec2a95c59b8f37c0bb86826", "type": "electric_bike", "lon": -76.98331583333334, "rental_uris": {"android": "https://dc.lft.to/lastmile_qr_scan", "ios": "https://dc.lft.to/lastmile_qr_scan"}, "lat": 38.966052166666664, "is_reserved": 0, "is_disabled": 0, "fusion_lat": 0.0}, {"fusion_lon": 0.0, "bike_id": "5bad5687267bb73fd1fa4af56776b51d", "name": "5bad5687267bb73fd1fa4af56776b51d", "type": "electric_scooter", "lon": -76.9343145, "rental_uris": {"android": "https://dc.lft.to/lastmile_qr_scan", "ios": "https://dc.lft.to/lastmile_qr_scan"}, "lat": 38.8996055, "is_reserved": 0, "is_disabled": 0, "fusion_lat": 0.0}, {"fusion_lon": 0.0, "bike_id": "10a3d6f507e3a73d28a3835a10bc02a8", "name": "10a3d6f507e3a73d28a3835a10bc02a8", "type": "electric_scooter", "lon": -77.0223165, "rental_uris": {"android": "https://dc.lft.to/lastmile_qr_scan", "ios": "https://dc.lft.to/lastmile_qr_scan"}, "lat": 38.88766833333333, "is_reserved": 0, "is_disabled": 0, "fusion_lat": 0.0}, {"fusion_lon": 0.0, "bike_id": "2afa8064b95f0075bc1d8af37ea4f922", "name": "2afa8064b95f0075bc1d8af37ea4f922", "type": "electric_scooter", "lon": -76.99002416666667, "rental_uris": {"android": "https://dc.lft.to/lastmile_qr_scan", "ios": "https://dc.lft.to/lastmile_qr_scan"}, "lat": 38.86504883333333, "is_reserved": 0, "is_disabled": 0, "fusion_lat": 0.0}, {"fusion_lon": 0.0, "bike_id": "6a5226a8f35a41ecc5952c3ab0b85844", "name": "6a5226a8f35a41ecc5952c3ab0b85844", "type": "electric_scooter", "lon": -77.02844183333333, "rental_uris": {"android": "https://dc.lft.to/lastmile_qr_scan", "ios": "https://dc.lft.to/lastmile_qr_scan"}, "lat": 38.922410166666666, "is_reserved": 0, "is_disabled": 0, "fusion_lat": 0.0}, {"fusion_lon": 0.0, "bike_id": "761933f67a7e3d84b048500c7bf1d130", "name": "761933f67a7e3d84b048500c7bf1d130", "type": "electric_scooter", "lon": -77.0320935, "rental_uris": {"android": "https://dc.lft.to/lastmile_qr_scan", "ios": "https://dc.lft.to/lastmile_qr_scan"}, "lat": 38.914992833333336, "is_reserved": 0, "is_disabled": 0, "fusion_lat": 0.0}, {"fusion_lon": 0.0, "bike_id": "116b8038e6b26a5cd96bbee0afbba87c", "name": "116b8038e6b26a5cd96bbee0afbba87c", "type": "electric_scooter", "lon": -76.948741, "rental_uris": {"android": "https://dc.lft.to/lastmile_qr_scan", "ios": "https://dc.lft.to/lastmile_qr_scan"}, "lat": 38.895866, "is_reserved": 0, "is_disabled": 0, "fusion_lat": 0.0}, {"fusion_lon": 0.0, "bike_id": "5f39e973a6f393ad3de52fe29a99d0ec", "name": "5f39e973a6f393ad3de52fe29a99d0ec", "type": "electric_scooter", "lon": -77.02296066666666, "rental_uris": {"android": "https://dc.lft.to/lastmile_qr_scan", "ios": "https://dc.lft.to/lastmile_qr_scan"}, "lat": 38.917039, "is_reserved": 0, "is_disabled": 0, "fusion_lat": 0.0}, {"fusion_lon": 0.0, "bike_id": "c78609fa61fdee5bf5f469bee0443789", "name": "c78609fa61fdee5bf5f469bee0443789", "type": "electric_scooter", "lon": -77.053178, "rental_uris": {"android": "https://dc.lft.to/lastmile_qr_scan", "ios": "https://dc.lft.to/lastmile_qr_scan"}, "lat": 38.92767383333333, "is_reserved": 0, "is_disabled": 0, "fusion_lat": 0.0}, {"fusion_lon": 0.0, "bike_id": "1d5c47a0a2673b6518ba11e473d76870", "name": "1d5c47a0a2673b6518ba11e473d76870", "type": "electric_scooter", "lon": -77.03207633333334, "rental_uris": {"android": "https://dc.lft.to/lastmile_qr_scan", "ios": "https://dc.lft.to/lastmile_qr_scan"}, "lat": 38.9076775, "is_reserved": 0, "is_disabled": 0, "fusion_lat": 0.0}, {"fusion_lon": 0.0, "bike_id": "a9913f5207ffa3ccd4c3b1986a54abe6", "name": "a9913f5207ffa3ccd4c3b1986a54abe6", "type": "electric_scooter", "lon": -77.04161033333334, "rental_uris": {"android": "https://dc.lft.to/lastmile_qr_scan", "ios": "https://dc.lft.to/lastmile_qr_scan"}, "lat": 38.9133205, "is_reserved": 0, "is_disabled": 0, "fusion_lat": 0.0}, {"fusion_lon": 0.0, "bike_id": "9f7ac1fdcc23bc1ef5a52bfcde08a32c", "name": "9f7ac1fdcc23bc1ef5a52bfcde08a32c", "type": "electric_scooter", "lon": -77.0455975, "rental_uris": {"android": "https://dc.lft.to/lastmile_qr_scan", "ios": "https://dc.lft.to/lastmile_qr_scan"}, "lat": 38.90747266666666, "is_reserved": 0, "is_disabled": 0, "fusion_lat": 0.0}, {"fusion_lon": 0.0, "bike_id": "db5aa1515c08e0fe4f29c20b582a8658", "name": "db5aa1515c08e0fe4f29c20b582a8658", "type": "electric_scooter", "lon": -76.99445966666667, "rental_uris": {"android": "https://dc.lft.to/lastmile_qr_scan", "ios": "https://dc.lft.to/lastmile_qr_scan"}, "lat": 38.9050485, "is_reserved": 0, "is_disabled": 0, "fusion_lat": 0.0}, {"fusion_lon": 0.0, "bike_id": "1138d088f5a7e7d9e5c446fe22a9ffbe", "name": "1138d088f5a7e7d9e5c446fe22a9ffbe", "type": "electric_scooter", "lon": -77.02488033333333, "rental_uris": {"android": "https://dc.lft.to/lastmile_qr_scan", "ios": "https://dc.lft.to/lastmile_qr_scan"}, "lat": 38.941828666666666, "is_reserved": 0, "is_disabled": 0, "fusion_lat": 0.0}, {"fusion_lon": 0.0, "bike_id": "924c4a63b3aea6377c87b3d747f7b6ce", "name": "924c4a63b3aea6377c87b3d747f7b6ce", "type": "electric_scooter", "lon": -77.02281116666667, "rental_uris": {"android": "https://dc.lft.to/lastmile_qr_scan", "ios": "https://dc.lft.to/lastmile_qr_scan"}, "lat": 38.901547666666666, "is_reserved": 0, "is_disabled": 0, "fusion_lat": 0.0}, {"fusion_lon": 0.0, "bike_id": "c66ec6c69d44b2c84125bfc143249528", "name": "c66ec6c69d44b2c84125bfc143249528", "type": "electric_bike", "lon": -76.92915166666667, "rental_uris": {"android": "https://dc.lft.to/lastmile_qr_scan", "ios": "https://dc.lft.to/lastmile_qr_scan"}, "lat": 38.980337166666665, "is_reserved": 0, "is_disabled": 0, "fusion_lat": 0.0}, {"fusion_lon": 0.0, "bike_id": "89d7104868c475b5169ef83b2658c450", "name": "89d7104868c475b5169ef83b2658c450", "type": "electric_scooter", "lon": -76.9551885, "rental_uris": {"android": "https://dc.lft.to/lastmile_qr_scan", "ios": "https://dc.lft.to/lastmile_qr_scan"}, "lat": 38.89054, "is_reserved": 0, "is_disabled": 0, "fusion_lat": 0.0}, {"fusion_lon": 0.0, "bike_id": "e1fa991b7b3d2cc2d7f5c27f19f51d6d", "name": "e1fa991b7b3d2cc2d7f5c27f19f51d6d", "type": "electric_scooter", "lon": -76.9447265, "rental_uris": {"android": "https://dc.lft.to/lastmile_qr_scan", "ios": "https://dc.lft.to/lastmile_qr_scan"}, "lat": 38.902809833333336, "is_reserved": 0, "is_disabled": 0, "fusion_lat": 0.0}, {"fusion_lon": 0.0, "bike_id": "9427599610d354d87dd77aebf02125cb", "name": "9427599610d354d87dd77aebf02125cb", "type": "electric_scooter", "lon": -77.00198516666667, "rental_uris": {"android": "https://dc.lft.to/lastmile_qr_scan", "ios": "https://dc.lft.to/lastmile_qr_scan"}, "lat": 38.902352, "is_reserved": 0, "is_disabled": 0, "fusion_lat": 0.0}, {"fusion_lon": 0.0, "bike_id": "e2cce7784b0e44d195f888fbc4fafa14", "name": "e2cce7784b0e44d195f888fbc4fafa14", "type": "electric_scooter", "lon": -77.02602133333333, "rental_uris": {"android": "https://dc.lft.to/lastmile_qr_scan", "ios": "https://dc.lft.to/lastmile_qr_scan"}, "lat": 38.914284333333335, "is_reserved": 0, "is_disabled": 0, "fusion_lat": 0.0}, {"fusion_lon": 0.0, "bike_id": "f3a5223e523e03ef32efb281266558a3", "name": "f3a5223e523e03ef32efb281266558a3", "type": "electric_scooter", "lon": -77.04138516666667, "rental_uris": {"android": "https://dc.lft.to/lastmile_qr_scan", "ios": "https://dc.lft.to/lastmile_qr_scan"}, "lat": 38.916828, "is_reserved": 0, "is_disabled": 0, "fusion_lat": 0.0}, {"fusion_lon": 0.0, "bike_id": "04dbe11e2adffa817e6b2a9a8a4ca512", "name": "04dbe11e2adffa817e6b2a9a8a4ca512", "type": "electric_scooter", "lon": -77.0317485, "rental_uris": {"android": "https://dc.lft.to/lastmile_qr_scan", "ios": "https://dc.lft.to/lastmile_qr_scan"}, "lat": 38.921100333333335, "is_reserved": 0, "is_disabled": 0, "fusion_lat": 0.0}, {"fusion_lon": 0.0, "bike_id": "681f943d941d799bbfd6f3e00b4e62a9", "name": "681f943d941d799bbfd6f3e00b4e62a9", "type": "electric_scooter", "lon": -77.0295465, "rental_uris": {"android": "https://dc.lft.to/lastmile_qr_scan", "ios": "https://dc.lft.to/lastmile_qr_scan"}, "lat": 38.91682933333333, "is_reserved": 0, "is_disabled": 0, "fusion_lat": 0.0}, {"fusion_lon": 0.0, "bike_id": "6eda61cc45c3c60bebd744a92c7257ee", "name": "6eda61cc45c3c60bebd744a92c7257ee", "type": "electric_scooter", "lon": -76.99416283333333, "rental_uris": {"android": "https://dc.lft.to/lastmile_qr_scan", "ios": "https://dc.lft.to/lastmile_qr_scan"}, "lat": 38.933073, "is_reserved": 0, "is_disabled": 0, "fusion_lat": 0.0}, {"fusion_lon": 0.0, "bike_id": "689ffa17766785ef1c50dd2d6601735e", "name": "689ffa17766785ef1c50dd2d6601735e", "type": "electric_scooter", "lon": -76.94639133333334, "rental_uris": {"android": "https://dc.lft.to/lastmile_qr_scan", "ios": "https://dc.lft.to/lastmile_qr_scan"}, "lat": 38.8984095, "is_reserved": 0, "is_disabled": 0, "fusion_lat": 0.0}, {"fusion_lon": 0.0, "bike_id": "d7b4609444015db7a21499d91c2fe8cc", "name": "d7b4609444015db7a21499d91c2fe8cc", "type": "electric_scooter", "lon": -77.03449716666667, "rental_uris": {"android": "https://dc.lft.to/lastmile_qr_scan", "ios": "https://dc.lft.to/lastmile_qr_scan"}, "lat": 38.9043825, "is_reserved": 0, "is_disabled": 0, "fusion_lat": 0.0}, {"fusion_lon": 0.0, "bike_id": "f7ec3eababfa4e4f7bb1d98fc7ba2fe2", "name": "f7ec3eababfa4e4f7bb1d98fc7ba2fe2", "type": "electric_scooter", "lon": -77.05059466666667, "rental_uris": {"android": "https://dc.lft.to/lastmile_qr_scan", "ios": "https://dc.lft.to/lastmile_qr_scan"}, "lat": 38.9007835, "is_reserved": 0, "is_disabled": 0, "fusion_lat": 0.0}, {"fusion_lon": 0.0, "bike_id": "0c6ef7ea1e6f70562ac8cd71cfed8766", "name": "0c6ef7ea1e6f70562ac8cd71cfed8766", "type": "electric_scooter", "lon": -77.04775866666667, "rental_uris": {"android": "https://dc.lft.to/lastmile_qr_scan", "ios": "https://dc.lft.to/lastmile_qr_scan"}, "lat": 38.90139716666667, "is_reserved": 0, "is_disabled": 0, "fusion_lat": 0.0}, {"fusion_lon": 0.0, "bike_id": "58fccf80a31f8e68b72e99993bd57a2b", "name": "58fccf80a31f8e68b72e99993bd57a2b", "type": "electric_scooter", "lon": -77.01945166666667, "rental_uris": {"android": "https://dc.lft.to/lastmile_qr_scan", "ios": "https://dc.lft.to/lastmile_qr_scan"}, "lat": 38.922518833333335, "is_reserved": 0, "is_disabled": 0, "fusion_lat": 0.0}, {"fusion_lon": 0.0, "bike_id": "0f0bf53974bff858e3763e73cc6d042c", "name": "0f0bf53974bff858e3763e73cc6d042c", "type": "electric_scooter", "lon": -77.02719133333333, "rental_uris": {"android": "https://dc.lft.to/lastmile_qr_scan", "ios": "https://dc.lft.to/lastmile_qr_scan"}, "lat": 38.9067465, "is_reserved": 0, "is_disabled": 0, "fusion_lat": 0.0}, {"fusion_lon": 0.0, "bike_id": "a2079ccde42673ce5d0719edc2e4bd34", "name": "a2079ccde42673ce5d0719edc2e4bd34", "type": "electric_scooter", "lon": -76.99808933333334, "rental_uris": {"android": "https://dc.lft.to/lastmile_qr_scan", "ios": "https://dc.lft.to/lastmile_qr_scan"}, "lat": 38.8766815, "is_reserved": 0, "is_disabled": 0, "fusion_lat": 0.0}, {"fusion_lon": 0.0, "bike_id": "11634ac0b64edc4437cb5247cf26346b", "name": "11634ac0b64edc4437cb5247cf26346b", "type": "electric_scooter", "lon": -77.0029495, "rental_uris": {"android": "https://dc.lft.to/lastmile_qr_scan", "ios": "https://dc.lft.to/lastmile_qr_scan"}, "lat": 38.908804833333335, "is_reserved": 0, "is_disabled": 0, "fusion_lat": 0.0}, {"fusion_lon": 0.0, "bike_id": "c5af3b5d6aeea16573fd56dc21be272f", "name": "c5af3b5d6aeea16573fd56dc21be272f", "type": "electric_scooter", "lon": -77.05792266666667, "rental_uris": {"android": "https://dc.lft.to/lastmile_qr_scan", "ios": "https://dc.lft.to/lastmile_qr_scan"}, "lat": 38.934782166666665, "is_reserved": 0, "is_disabled": 0, "fusion_lat": 0.0}, {"fusion_lon": 0.0, "bike_id": "92b3c1073e572d24566c0f791ef38e3c", "name": "92b3c1073e572d24566c0f791ef38e3c", "type": "electric_scooter", "lon": -77.02292183333333, "rental_uris": {"android": "https://dc.lft.to/lastmile_qr_scan", "ios": "https://dc.lft.to/lastmile_qr_scan"}, "lat": 38.937689, "is_reserved": 0, "is_disabled": 0, "fusion_lat": 0.0}, {"fusion_lon": 0.0, "bike_id": "20be2b46a12bf049c989f79425b5a9ca", "name": "20be2b46a12bf049c989f79425b5a9ca", "type": "electric_bike", "lon": -76.98841, "rental_uris": {"android": "https://dc.lft.to/lastmile_qr_scan", "ios": "https://dc.lft.to/lastmile_qr_scan"}, "lat": 38.84269333333334, "is_reserved": 0, "is_disabled": 0, "fusion_lat": 0.0}, {"fusion_lon": 0.0, "bike_id": "cb9189b7d0b9507598a4d5b4617c748b", "name": "cb9189b7d0b9507598a4d5b4617c748b", "type": "electric_scooter", "lon": -77.0045075, "rental_uris": {"android": "https://dc.lft.to/lastmile_qr_scan", "ios": "https://dc.lft.to/lastmile_qr_scan"}, "lat": 38.90729816666666, "is_reserved": 0, "is_disabled": 0, "fusion_lat": 0.0}, {"fusion_lon": 0.0, "bike_id": "a40e019fd872250e11f99c36dcfb4206", "name": "a40e019fd872250e11f99c36dcfb4206", "type": "electric_scooter", "lon": -77.03288983333333, "rental_uris": {"android": "https://dc.lft.to/lastmile_qr_scan", "ios": "https://dc.lft.to/lastmile_qr_scan"}, "lat": 38.9565205, "is_reserved": 0, "is_disabled": 0, "fusion_lat": 0.0}, {"fusion_lon": 0.0, "bike_id": "92a59c3ffdea5d4195dcd76a94a6bedb", "name": "92a59c3ffdea5d4195dcd76a94a6bedb", "type": "electric_scooter", "lon": -76.94941533333333, "rental_uris": {"android": "https://dc.lft.to/lastmile_qr_scan", "ios": "https://dc.lft.to/lastmile_qr_scan"}, "lat": 38.883176166666665, "is_reserved": 0, "is_disabled": 0, "fusion_lat": 0.0}, {"fusion_lon": 0.0, "bike_id": "980b938df0addf924918225840ea2901", "name": "980b938df0addf924918225840ea2901", "type": "electric_scooter", "lon": -77.023915, "rental_uris": {"android": "https://dc.lft.to/lastmile_qr_scan", "ios": "https://dc.lft.to/lastmile_qr_scan"}, "lat": 38.90747983333333, "is_reserved": 0, "is_disabled": 0, "fusion_lat": 0.0}, {"fusion_lon": 0.0, "bike_id": "76655071c5fc43d23ab61f0ddd0a53cd", "name": "76655071c5fc43d23ab61f0ddd0a53cd", "type": "electric_scooter", "lon": -77.0230255, "rental_uris": {"android": "https://dc.lft.to/lastmile_qr_scan", "ios": "https://dc.lft.to/lastmile_qr_scan"}, "lat": 38.91568133333333, "is_reserved": 0, "is_disabled": 0, "fusion_lat": 0.0}, {"fusion_lon": 0.0, "bike_id": "3ad51be893cc948dd79d21348ac90245", "name": "3ad51be893cc948dd79d21348ac90245", "type": "electric_bike", "lon": -77.0894555, "rental_uris": {"android": "https://dc.lft.to/lastmile_qr_scan", "ios": "https://dc.lft.to/lastmile_qr_scan"}, "lat": 38.841031666666666, "is_reserved": 0, "is_disabled": 0, "fusion_lat": 0.0}, {"fusion_lon": 0.0, "bike_id": "d2f73741c82f35082c3e5bf92bb7d061", "name": "d2f73741c82f35082c3e5bf92bb7d061", "type": "electric_scooter", "lon": -77.0435585, "rental_uris": {"android": "https://dc.lft.to/lastmile_qr_scan", "ios": "https://dc.lft.to/lastmile_qr_scan"}, "lat": 38.90718433333333, "is_reserved": 0, "is_disabled": 0, "fusion_lat": 0.0}, {"fusion_lon": 0.0, "bike_id": "ffb603c3a21e2242d5693627d8257fbf", "name": "ffb603c3a21e2242d5693627d8257fbf", "type": "electric_scooter", "lon": -77.02994066666666, "rental_uris": {"android": "https://dc.lft.to/lastmile_qr_scan", "ios": "https://dc.lft.to/lastmile_qr_scan"}, "lat": 38.924875166666666, "is_reserved": 0, "is_disabled": 0, "fusion_lat": 0.0}, {"fusion_lon": 0.0, "bike_id": "daac90a94ee8828e074cd9b56d4dddcd", "name": "daac90a94ee8828e074cd9b56d4dddcd", "type": "electric_bike", "lon": -76.98828633333333, "rental_uris": {"android": "https://dc.lft.to/lastmile_qr_scan", "ios": "https://dc.lft.to/lastmile_qr_scan"}, "lat": 38.98565633333333, "is_reserved": 0, "is_disabled": 0, "fusion_lat": 0.0}, {"fusion_lon": 0.0, "bike_id": "f8dae3eb0f2aa8fd9510f993d3a1e322", "name": "f8dae3eb0f2aa8fd9510f993d3a1e322", "type": "electric_scooter", "lon": -77.04786016666667, "rental_uris": {"android": "https://dc.lft.to/lastmile_qr_scan", "ios": "https://dc.lft.to/lastmile_qr_scan"}, "lat": 38.90785866666667, "is_reserved": 0, "is_disabled": 0, "fusion_lat": 0.0}, {"fusion_lon": 0.0, "bike_id": "7cf69e95f8f3ce7b1b3b78b52f75659e", "name": "7cf69e95f8f3ce7b1b3b78b52f75659e", "type": "electric_scooter", "lon": -77.00209616666666, "rental_uris": {"android": "https://dc.lft.to/lastmile_qr_scan", "ios": "https://dc.lft.to/lastmile_qr_scan"}, "lat": 38.900226, "is_reserved": 0, "is_disabled": 0, "fusion_lat": 0.0}, {"fusion_lon": 0.0, "bike_id": "e47a9276c7064dc6e38c2a20c477dd0a", "name": "e47a9276c7064dc6e38c2a20c477dd0a", "type": "electric_scooter", "lon": -77.0344215, "rental_uris": {"android": "https://dc.lft.to/lastmile_qr_scan", "ios": "https://dc.lft.to/lastmile_qr_scan"}, "lat": 38.905184, "is_reserved": 0, "is_disabled": 0, "fusion_lat": 0.0}, {"fusion_lon": 0.0, "bike_id": "0af4cf9e4289025048318037eb76eb68", "name": "0af4cf9e4289025048318037eb76eb68", "type": "electric_scooter", "lon": -76.99466533333333, "rental_uris": {"android": "https://dc.lft.to/lastmile_qr_scan", "ios": "https://dc.lft.to/lastmile_qr_scan"}, "lat": 38.84034616666667, "is_reserved": 0, "is_disabled": 0, "fusion_lat": 0.0}, {"fusion_lon": 0.0, "bike_id": "849fd54b450439a7a662300da9026b32", "name": "849fd54b450439a7a662300da9026b32", "type": "electric_scooter", "lon": -77.042796, "rental_uris": {"android": "https://dc.lft.to/lastmile_qr_scan", "ios": "https://dc.lft.to/lastmile_qr_scan"}, "lat": 38.90834816666667, "is_reserved": 0, "is_disabled": 0, "fusion_lat": 0.0}, {"fusion_lon": 0.0, "bike_id": "c82df33caff693f282525edcccc2efde", "name": "c82df33caff693f282525edcccc2efde", "type": "electric_scooter", "lon": -77.024489, "rental_uris": {"android": "https://dc.lft.to/lastmile_qr_scan", "ios": "https://dc.lft.to/lastmile_qr_scan"}, "lat": 38.927942333333334, "is_reserved": 0, "is_disabled": 0, "fusion_lat": 0.0}, {"fusion_lon": 0.0, "bike_id": "34a701896d627ffa48f55e4691a9e596", "name": "34a701896d627ffa48f55e4691a9e596", "type": "electric_scooter", "lon": -77.026622, "rental_uris": {"android": "https://dc.lft.to/lastmile_qr_scan", "ios": "https://dc.lft.to/lastmile_qr_scan"}, "lat": 38.97940933333334, "is_reserved": 0, "is_disabled": 0, "fusion_lat": 0.0}, {"fusion_lon": 0.0, "bike_id": "d27d18262288ca94f727c080328418ad", "name": "d27d18262288ca94f727c080328418ad", "type": "electric_scooter", "lon": -77.04701283333333, "rental_uris": {"android": "https://dc.lft.to/lastmile_qr_scan", "ios": "https://dc.lft.to/lastmile_qr_scan"}, "lat": 38.897386, "is_reserved": 0, "is_disabled": 0, "fusion_lat": 0.0}, {"fusion_lon": 0.0, "bike_id": "b3827b920403e893241b2398ee4ff12a", "name": "b3827b920403e893241b2398ee4ff12a", "type": "electric_scooter", "lon": -77.0326105, "rental_uris": {"android": "https://dc.lft.to/lastmile_qr_scan", "ios": "https://dc.lft.to/lastmile_qr_scan"}, "lat": 38.93208683333334, "is_reserved": 0, "is_disabled": 0, "fusion_lat": 0.0}, {"fusion_lon": 0.0, "bike_id": "4ce8ab493d2d41739f59648b31afee26", "name": "4ce8ab493d2d41739f59648b31afee26", "type": "electric_scooter", "lon": -77.04159883333334, "rental_uris": {"android": "https://dc.lft.to/lastmile_qr_scan", "ios": "https://dc.lft.to/lastmile_qr_scan"}, "lat": 38.916061, "is_reserved": 0, "is_disabled": 0, "fusion_lat": 0.0}, {"fusion_lon": 0.0, "bike_id": "76b3fe988400ae9144b358cc9a1b624a", "name": "76b3fe988400ae9144b358cc9a1b624a", "type": "electric_scooter", "lon": -77.05251416666667, "rental_uris": {"android": "https://dc.lft.to/lastmile_qr_scan", "ios": "https://dc.lft.to/lastmile_qr_scan"}, "lat": 38.923722833333336, "is_reserved": 0, "is_disabled": 0, "fusion_lat": 0.0}, {"fusion_lon": 0.0, "bike_id": "a51fec41a0ac53c95d8424a48e5d7386", "name": "a51fec41a0ac53c95d8424a48e5d7386", "type": "electric_scooter", "lon": -77.0238825, "rental_uris": {"android": "https://dc.lft.to/lastmile_qr_scan", "ios": "https://dc.lft.to/lastmile_qr_scan"}, "lat": 38.95736183333333, "is_reserved": 0, "is_disabled": 0, "fusion_lat": 0.0}, {"fusion_lon": 0.0, "bike_id": "f475f6e708b37e36511bc8bd68c01f4b", "name": "f475f6e708b37e36511bc8bd68c01f4b", "type": "electric_scooter", "lon": -77.02496466666666, "rental_uris": {"android": "https://dc.lft.to/lastmile_qr_scan", "ios": "https://dc.lft.to/lastmile_qr_scan"}, "lat": 38.9197615, "is_reserved": 0, "is_disabled": 0, "fusion_lat": 0.0}, {"fusion_lon": 0.0, "bike_id": "346831488ba4d2527e566fdaed9c1e8f", "name": "346831488ba4d2527e566fdaed9c1e8f", "type": "electric_scooter", "lon": -77.01561616666666, "rental_uris": {"android": "https://dc.lft.to/lastmile_qr_scan", "ios": "https://dc.lft.to/lastmile_qr_scan"}, "lat": 38.91363716666667, "is_reserved": 0, "is_disabled": 0, "fusion_lat": 0.0}, {"fusion_lon": 0.0, "bike_id": "9514948456029612be23616333e3e8b2", "name": "9514948456029612be23616333e3e8b2", "type": "electric_scooter", "lon": -76.992079, "rental_uris": {"android": "https://dc.lft.to/lastmile_qr_scan", "ios": "https://dc.lft.to/lastmile_qr_scan"}, "lat": 38.895167666666666, "is_reserved": 0, "is_disabled": 0, "fusion_lat": 0.0}, {"fusion_lon": 0.0, "bike_id": "6809ebb7d8b02f28315c1f14fce60bcf", "name": "6809ebb7d8b02f28315c1f14fce60bcf", "type": "electric_scooter", "lon": -77.06609916666666, "rental_uris": {"android": "https://dc.lft.to/lastmile_qr_scan", "ios": "https://dc.lft.to/lastmile_qr_scan"}, "lat": 38.904473, "is_reserved": 0, "is_disabled": 0, "fusion_lat": 0.0}, {"fusion_lon": 0.0, "bike_id": "def0925c7de14829f6548b26e58a3437", "name": "def0925c7de14829f6548b26e58a3437", "type": "electric_scooter", "lon": -77.03347233333334, "rental_uris": {"android": "https://dc.lft.to/lastmile_qr_scan", "ios": "https://dc.lft.to/lastmile_qr_scan"}, "lat": 38.90138916666667, "is_reserved": 0, "is_disabled": 0, "fusion_lat": 0.0}, {"fusion_lon": 0.0, "bike_id": "0ab4e7f9d79d339c81a493ed4ff3fd58", "name": "0ab4e7f9d79d339c81a493ed4ff3fd58", "type": "electric_scooter", "lon": -77.03173133333334, "rental_uris": {"android": "https://dc.lft.to/lastmile_qr_scan", "ios": "https://dc.lft.to/lastmile_qr_scan"}, "lat": 38.88651266666667, "is_reserved": 0, "is_disabled": 0, "fusion_lat": 0.0}, {"fusion_lon": 0.0, "bike_id": "f71865fc94bd4c8aa27cbc0cc81d4f69", "name": "f71865fc94bd4c8aa27cbc0cc81d4f69", "type": "electric_scooter", "lon": -77.02157716666666, "rental_uris": {"android": "https://dc.lft.to/lastmile_qr_scan", "ios": "https://dc.lft.to/lastmile_qr_scan"}, "lat": 38.926057666666665, "is_reserved": 0, "is_disabled": 0, "fusion_lat": 0.0}, {"fusion_lon": 0.0, "bike_id": "c2e743e6f3e88bbf7fdea7b5fed52df8", "name": "c2e743e6f3e88bbf7fdea7b5fed52df8", "type": "electric_scooter", "lon": -77.04173666666667, "rental_uris": {"android": "https://dc.lft.to/lastmile_qr_scan", "ios": "https://dc.lft.to/lastmile_qr_scan"}, "lat": 38.907264166666664, "is_reserved": 0, "is_disabled": 0, "fusion_lat": 0.0}, {"fusion_lon": 0.0, "bike_id": "a5b9045ebf4114918e4ee2ac566a6291", "name": "a5b9045ebf4114918e4ee2ac566a6291", "type": "electric_scooter", "lon": -77.00762133333333, "rental_uris": {"android": "https://dc.lft.to/lastmile_qr_scan", "ios": "https://dc.lft.to/lastmile_qr_scan"}, "lat": 38.9004805, "is_reserved": 0, "is_disabled": 0, "fusion_lat": 0.0}, {"fusion_lon": 0.0, "bike_id": "599d401c3d6861a4de800d8b2d52cf0b", "name": "599d401c3d6861a4de800d8b2d52cf0b", "type": "electric_scooter", "lon": -77.0408435, "rental_uris": {"android": "https://dc.lft.to/lastmile_qr_scan", "ios": "https://dc.lft.to/lastmile_qr_scan"}, "lat": 38.916909833333335, "is_reserved": 0, "is_disabled": 0, "fusion_lat": 0.0}, {"fusion_lon": 0.0, "bike_id": "5acf3edad51a81f666c628a8449ca457", "name": "5acf3edad51a81f666c628a8449ca457", "type": "electric_scooter", "lon": -77.03379366666667, "rental_uris": {"android": "https://dc.lft.to/lastmile_qr_scan", "ios": "https://dc.lft.to/lastmile_qr_scan"}, "lat": 38.90108516666667, "is_reserved": 0, "is_disabled": 0, "fusion_lat": 0.0}, {"fusion_lon": 0.0, "bike_id": "131500071809f7fed2a0e179cd47bf43", "name": "131500071809f7fed2a0e179cd47bf43", "type": "electric_scooter", "lon": -77.023256, "rental_uris": {"android": "https://dc.lft.to/lastmile_qr_scan", "ios": "https://dc.lft.to/lastmile_qr_scan"}, "lat": 38.927029, "is_reserved": 0, "is_disabled": 0, "fusion_lat": 0.0}, {"fusion_lon": 0.0, "bike_id": "4682b3ba4c0e31b85dcaac2487a4084d", "name": "4682b3ba4c0e31b85dcaac2487a4084d", "type": "electric_scooter", "lon": -77.02151466666666, "rental_uris": {"android": "https://dc.lft.to/lastmile_qr_scan", "ios": "https://dc.lft.to/lastmile_qr_scan"}, "lat": 38.9257705, "is_reserved": 0, "is_disabled": 0, "fusion_lat": 0.0}, {"fusion_lon": 0.0, "bike_id": "9150772de46b9c3ad7caa05cdb1de403", "name": "9150772de46b9c3ad7caa05cdb1de403", "type": "electric_scooter", "lon": -77.03799533333333, "rental_uris": {"android": "https://dc.lft.to/lastmile_qr_scan", "ios": "https://dc.lft.to/lastmile_qr_scan"}, "lat": 38.93596216666667, "is_reserved": 0, "is_disabled": 0, "fusion_lat": 0.0}, {"fusion_lon": 0.0, "bike_id": "e025b61d66a92c074dfc556d57837e5c", "name": "e025b61d66a92c074dfc556d57837e5c", "type": "electric_scooter", "lon": -77.022083, "rental_uris": {"android": "https://dc.lft.to/lastmile_qr_scan", "ios": "https://dc.lft.to/lastmile_qr_scan"}, "lat": 38.91530616666667, "is_reserved": 0, "is_disabled": 0, "fusion_lat": 0.0}, {"fusion_lon": 0.0, "bike_id": "8e9d059ca741ed257822df33c2a27aad", "name": "8e9d059ca741ed257822df33c2a27aad", "type": "electric_scooter", "lon": -76.97185666666667, "rental_uris": {"android": "https://dc.lft.to/lastmile_qr_scan", "ios": "https://dc.lft.to/lastmile_qr_scan"}, "lat": 38.9126525, "is_reserved": 0, "is_disabled": 0, "fusion_lat": 0.0}, {"fusion_lon": 0.0, "bike_id": "0ae3f5d88ca4e11df22c99427952d2af", "name": "0ae3f5d88ca4e11df22c99427952d2af", "type": "electric_scooter", "lon": -76.98674316666667, "rental_uris": {"android": "https://dc.lft.to/lastmile_qr_scan", "ios": "https://dc.lft.to/lastmile_qr_scan"}, "lat": 38.85580233333334, "is_reserved": 0, "is_disabled": 0, "fusion_lat": 0.0}, {"fusion_lon": 0.0, "bike_id": "bb55ed2334f4cbfd284608635b546163", "name": "bb55ed2334f4cbfd284608635b546163", "type": "electric_scooter", "lon": -77.02709366666667, "rental_uris": {"android": "https://dc.lft.to/lastmile_qr_scan", "ios": "https://dc.lft.to/lastmile_qr_scan"}, "lat": 38.91726933333333, "is_reserved": 0, "is_disabled": 0, "fusion_lat": 0.0}, {"fusion_lon": 0.0, "bike_id": "fb9716efb866a76cd616004f556a58e9", "name": "fb9716efb866a76cd616004f556a58e9", "type": "electric_scooter", "lon": -77.0126365, "rental_uris": {"android": "https://dc.lft.to/lastmile_qr_scan", "ios": "https://dc.lft.to/lastmile_qr_scan"}, "lat": 38.87481616666667, "is_reserved": 0, "is_disabled": 0, "fusion_lat": 0.0}, {"fusion_lon": 0.0, "bike_id": "4202b4929227ad7910e39a2b58d12f8c", "name": "4202b4929227ad7910e39a2b58d12f8c", "type": "electric_scooter", "lon": -77.021062, "rental_uris": {"android": "https://dc.lft.to/lastmile_qr_scan", "ios": "https://dc.lft.to/lastmile_qr_scan"}, "lat": 38.8973755, "is_reserved": 0, "is_disabled": 0, "fusion_lat": 0.0}, {"fusion_lon": 0.0, "bike_id": "7690424668bbdac0e341651e191e16ff", "name": "7690424668bbdac0e341651e191e16ff", "type": "electric_scooter", "lon": -77.026437, "rental_uris": {"android": "https://dc.lft.to/lastmile_qr_scan", "ios": "https://dc.lft.to/lastmile_qr_scan"}, "lat": 38.9027105, "is_reserved": 0, "is_disabled": 0, "fusion_lat": 0.0}, {"fusion_lon": 0.0, "bike_id": "142e995380c51722b33339356b78409f", "name": "142e995380c51722b33339356b78409f", "type": "electric_bike", "lon": -77.12741533333333, "rental_uris": {"android": "https://dc.lft.to/lastmile_qr_scan", "ios": "https://dc.lft.to/lastmile_qr_scan"}, "lat": 38.888240833333334, "is_reserved": 0, "is_disabled": 0, "fusion_lat": 0.0}, {"fusion_lon": 0.0, "bike_id": "7055c801570ef5b3b00c24f15099f773", "name": "7055c801570ef5b3b00c24f15099f773", "type": "electric_scooter", "lon": -77.01514566666667, "rental_uris": {"android": "https://dc.lft.to/lastmile_qr_scan", "ios": "https://dc.lft.to/lastmile_qr_scan"}, "lat": 38.8850795, "is_reserved": 0, "is_disabled": 0, "fusion_lat": 0.0}, {"fusion_lon": 0.0, "bike_id": "73556e69ee24c413b4112bc22f77f4d7", "name": "73556e69ee24c413b4112bc22f77f4d7", "type": "electric_scooter", "lon": -76.987685, "rental_uris": {"android": "https://dc.lft.to/lastmile_qr_scan", "ios": "https://dc.lft.to/lastmile_qr_scan"}, "lat": 38.91205, "is_reserved": 0, "is_disabled": 0, "fusion_lat": 0.0}, {"fusion_lon": 0.0, "bike_id": "a276f754c22da331066a87aa98f216fd", "name": "a276f754c22da331066a87aa98f216fd", "type": "electric_scooter", "lon": -77.01592933333333, "rental_uris": {"android": "https://dc.lft.to/lastmile_qr_scan", "ios": "https://dc.lft.to/lastmile_qr_scan"}, "lat": 38.897305, "is_reserved": 0, "is_disabled": 0, "fusion_lat": 0.0}, {"fusion_lon": 0.0, "bike_id": "41546747ff2831a85f9b19c42271f5c4", "name": "41546747ff2831a85f9b19c42271f5c4", "type": "electric_scooter", "lon": -77.02720016666666, "rental_uris": {"android": "https://dc.lft.to/lastmile_qr_scan", "ios": "https://dc.lft.to/lastmile_qr_scan"}, "lat": 38.90672216666667, "is_reserved": 0, "is_disabled": 0, "fusion_lat": 0.0}, {"fusion_lon": 0.0, "bike_id": "bd69fbf41e22c27588477b7c86276833", "name": "bd69fbf41e22c27588477b7c86276833", "type": "electric_scooter", "lon": -77.061615, "rental_uris": {"android": "https://dc.lft.to/lastmile_qr_scan", "ios": "https://dc.lft.to/lastmile_qr_scan"}, "lat": 38.94213533333333, "is_reserved": 0, "is_disabled": 0, "fusion_lat": 0.0}, {"fusion_lon": 0.0, "bike_id": "4911289f1d5b9b3e5099c225dce4d8ab", "name": "4911289f1d5b9b3e5099c225dce4d8ab", "type": "electric_scooter", "lon": -76.93158933333333, "rental_uris": {"android": "https://dc.lft.to/lastmile_qr_scan", "ios": "https://dc.lft.to/lastmile_qr_scan"}, "lat": 38.89881616666667, "is_reserved": 0, "is_disabled": 0, "fusion_lat": 0.0}, {"fusion_lon": 0.0, "bike_id": "e269c35d3f4e81a393abd16872571c9f", "name": "e269c35d3f4e81a393abd16872571c9f", "type": "electric_scooter", "lon": -76.9411855, "rental_uris": {"android": "https://dc.lft.to/lastmile_qr_scan", "ios": "https://dc.lft.to/lastmile_qr_scan"}, "lat": 38.907938333333334, "is_reserved": 0, "is_disabled": 0, "fusion_lat": 0.0}, {"fusion_lon": 0.0, "bike_id": "d85ed2f418ce828f7b3ca6b63e4e2e71", "name": "d85ed2f418ce828f7b3ca6b63e4e2e71", "type": "electric_scooter", "lon": -77.004752, "rental_uris": {"android": "https://dc.lft.to/lastmile_qr_scan", "ios": "https://dc.lft.to/lastmile_qr_scan"}, "lat": 38.92598366666667, "is_reserved": 0, "is_disabled": 0, "fusion_lat": 0.0}, {"fusion_lon": 0.0, "bike_id": "25a2affe595680e7fd5fa0a6ccee09fe", "name": "25a2affe595680e7fd5fa0a6ccee09fe", "type": "electric_scooter", "lon": -77.00765516666667, "rental_uris": {"android": "https://dc.lft.to/lastmile_qr_scan", "ios": "https://dc.lft.to/lastmile_qr_scan"}, "lat": 38.900377166666665, "is_reserved": 0, "is_disabled": 0, "fusion_lat": 0.0}, {"fusion_lon": 0.0, "bike_id": "5197bee4f28e97a1f5552e70bcb0bda2", "name": "5197bee4f28e97a1f5552e70bcb0bda2", "type": "electric_scooter", "lon": -77.027876, "rental_uris": {"android": "https://dc.lft.to/lastmile_qr_scan", "ios": "https://dc.lft.to/lastmile_qr_scan"}, "lat": 38.926781166666665, "is_reserved": 0, "is_disabled": 0, "fusion_lat": 0.0}, {"fusion_lon": 0.0, "bike_id": "471e573749817904d733ef0d3e3e695c", "name": "471e573749817904d733ef0d3e3e695c", "type": "electric_scooter", "lon": -77.02380866666667, "rental_uris": {"android": "https://dc.lft.to/lastmile_qr_scan", "ios": "https://dc.lft.to/lastmile_qr_scan"}, "lat": 38.89236533333333, "is_reserved": 0, "is_disabled": 0, "fusion_lat": 0.0}, {"fusion_lon": 0.0, "bike_id": "239d18255c30e91c23c1731caaeee308", "name": "239d18255c30e91c23c1731caaeee308", "type": "electric_scooter", "lon": -77.04486416666667, "rental_uris": {"android": "https://dc.lft.to/lastmile_qr_scan", "ios": "https://dc.lft.to/lastmile_qr_scan"}, "lat": 38.9056025, "is_reserved": 0, "is_disabled": 0, "fusion_lat": 0.0}, {"fusion_lon": 0.0, "bike_id": "77dfbde4e68013dc7b581d81b4981611", "name": "77dfbde4e68013dc7b581d81b4981611", "type": "electric_scooter", "lon": -77.02025516666667, "rental_uris": {"android": "https://dc.lft.to/lastmile_qr_scan", "ios": "https://dc.lft.to/lastmile_qr_scan"}, "lat": 38.91304066666667, "is_reserved": 0, "is_disabled": 0, "fusion_lat": 0.0}, {"fusion_lon": 0.0, "bike_id": "ed3c72b1fed2c5f95975c5cbf73f6f3a", "name": "ed3c72b1fed2c5f95975c5cbf73f6f3a", "type": "electric_scooter", "lon": -77.04182316666666, "rental_uris": {"android": "https://dc.lft.to/lastmile_qr_scan", "ios": "https://dc.lft.to/lastmile_qr_scan"}, "lat": 38.9125825, "is_reserved": 0, "is_disabled": 0, "fusion_lat": 0.0}, {"fusion_lon": 0.0, "bike_id": "aefc3b8330c46a50d058f07b2153874e", "name": "aefc3b8330c46a50d058f07b2153874e", "type": "electric_scooter", "lon": -77.05004583333333, "rental_uris": {"android": "https://dc.lft.to/lastmile_qr_scan", "ios": "https://dc.lft.to/lastmile_qr_scan"}, "lat": 38.90178483333333, "is_reserved": 0, "is_disabled": 0, "fusion_lat": 0.0}, {"fusion_lon": 0.0, "bike_id": "fc29c17e09780990f1f95ca0e7c331c6", "name": "fc29c17e09780990f1f95ca0e7c331c6", "type": "electric_scooter", "lon": -77.01598966666667, "rental_uris": {"android": "https://dc.lft.to/lastmile_qr_scan", "ios": "https://dc.lft.to/lastmile_qr_scan"}, "lat": 38.92835983333333, "is_reserved": 0, "is_disabled": 0, "fusion_lat": 0.0}, {"fusion_lon": 0.0, "bike_id": "364a5071329d10e12fe1d1891fec93a1", "name": "364a5071329d10e12fe1d1891fec93a1", "type": "electric_scooter", "lon": -77.01057116666667, "rental_uris": {"android": "https://dc.lft.to/lastmile_qr_scan", "ios": "https://dc.lft.to/lastmile_qr_scan"}, "lat": 38.87249116666667, "is_reserved": 0, "is_disabled": 0, "fusion_lat": 0.0}, {"fusion_lon": 0.0, "bike_id": "7a6f812d118612fe74082b8c063a0c02", "name": "7a6f812d118612fe74082b8c063a0c02", "type": "electric_scooter", "lon": -77.03184383333334, "rental_uris": {"android": "https://dc.lft.to/lastmile_qr_scan", "ios": "https://dc.lft.to/lastmile_qr_scan"}, "lat": 38.89178116666667, "is_reserved": 0, "is_disabled": 0, "fusion_lat": 0.0}, {"fusion_lon": 0.0, "bike_id": "d10fffd3017ae6104a7ffeb862094460", "name": "d10fffd3017ae6104a7ffeb862094460", "type": "electric_scooter", "lon": -77.02471766666666, "rental_uris": {"android": "https://dc.lft.to/lastmile_qr_scan", "ios": "https://dc.lft.to/lastmile_qr_scan"}, "lat": 38.897363666666664, "is_reserved": 0, "is_disabled": 0, "fusion_lat": 0.0}, {"fusion_lon": 0.0, "bike_id": "efcb1ece290150aeb5b1b9147875f25f", "name": "efcb1ece290150aeb5b1b9147875f25f", "type": "electric_scooter", "lon": -76.9893025, "rental_uris": {"android": "https://dc.lft.to/lastmile_qr_scan", "ios": "https://dc.lft.to/lastmile_qr_scan"}, "lat": 38.882033666666665, "is_reserved": 0, "is_disabled": 0, "fusion_lat": 0.0}, {"fusion_lon": 0.0, "bike_id": "697b45f2a22a55775cb9f6f411707644", "name": "697b45f2a22a55775cb9f6f411707644", "type": "electric_scooter", "lon": -77.04979616666667, "rental_uris": {"android": "https://dc.lft.to/lastmile_qr_scan", "ios": "https://dc.lft.to/lastmile_qr_scan"}, "lat": 38.89608716666667, "is_reserved": 0, "is_disabled": 0, "fusion_lat": 0.0}, {"fusion_lon": 0.0, "bike_id": "35a46a8d2356794656c74241a37f3737", "name": "35a46a8d2356794656c74241a37f3737", "type": "electric_scooter", "lon": -77.01775516666666, "rental_uris": {"android": "https://dc.lft.to/lastmile_qr_scan", "ios": "https://dc.lft.to/lastmile_qr_scan"}, "lat": 38.921031166666666, "is_reserved": 0, "is_disabled": 0, "fusion_lat": 0.0}, {"fusion_lon": 0.0, "bike_id": "89fc7067c7f6911e0df9013c65205cf6", "name": "89fc7067c7f6911e0df9013c65205cf6", "type": "electric_scooter", "lon": -77.02714533333334, "rental_uris": {"android": "https://dc.lft.to/lastmile_qr_scan", "ios": "https://dc.lft.to/lastmile_qr_scan"}, "lat": 38.91957583333333, "is_reserved": 0, "is_disabled": 0, "fusion_lat": 0.0}, {"fusion_lon": 0.0, "bike_id": "7285753199e39cb5be1bf1b22dee4e3a", "name": "7285753199e39cb5be1bf1b22dee4e3a", "type": "electric_scooter", "lon": -77.024823, "rental_uris": {"android": "https://dc.lft.to/lastmile_qr_scan", "ios": "https://dc.lft.to/lastmile_qr_scan"}, "lat": 38.938885, "is_reserved": 0, "is_disabled": 0, "fusion_lat": 0.0}, {"fusion_lon": 0.0, "bike_id": "47a0f9473d9b4cc97f619e42a8c4deda", "name": "47a0f9473d9b4cc97f619e42a8c4deda", "type": "electric_scooter", "lon": -77.03074916666667, "rental_uris": {"android": "https://dc.lft.to/lastmile_qr_scan", "ios": "https://dc.lft.to/lastmile_qr_scan"}, "lat": 38.90280116666667, "is_reserved": 0, "is_disabled": 0, "fusion_lat": 0.0}, {"fusion_lon": 0.0, "bike_id": "152530fba94855adaca5d4a4a195d060", "name": "152530fba94855adaca5d4a4a195d060", "type": "electric_scooter", "lon": -77.025002, "rental_uris": {"android": "https://dc.lft.to/lastmile_qr_scan", "ios": "https://dc.lft.to/lastmile_qr_scan"}, "lat": 38.920655833333335, "is_reserved": 0, "is_disabled": 0, "fusion_lat": 0.0}, {"fusion_lon": 0.0, "bike_id": "40930e9fd8ae92f0bfd6e59b842d2342", "name": "40930e9fd8ae92f0bfd6e59b842d2342", "type": "electric_scooter", "lon": -77.04403033333334, "rental_uris": {"android": "https://dc.lft.to/lastmile_qr_scan", "ios": "https://dc.lft.to/lastmile_qr_scan"}, "lat": 38.920221166666664, "is_reserved": 0, "is_disabled": 0, "fusion_lat": 0.0}, {"fusion_lon": 0.0, "bike_id": "6ec1a0d96bb86a957de60c8b052b9838", "name": "6ec1a0d96bb86a957de60c8b052b9838", "type": "electric_bike", "lon": -77.12738316666666, "rental_uris": {"android": "https://dc.lft.to/lastmile_qr_scan", "ios": "https://dc.lft.to/lastmile_qr_scan"}, "lat": 38.895660166666666, "is_reserved": 0, "is_disabled": 0, "fusion_lat": 0.0}, {"fusion_lon": 0.0, "bike_id": "cee38096bbfb3703e72965cd06d8316a", "name": "cee38096bbfb3703e72965cd06d8316a", "type": "electric_bike", "lon": -76.94871166666667, "rental_uris": {"android": "https://dc.lft.to/lastmile_qr_scan", "ios": "https://dc.lft.to/lastmile_qr_scan"}, "lat": 38.88968716666667, "is_reserved": 0, "is_disabled": 0, "fusion_lat": 0.0}, {"fusion_lon": 0.0, "bike_id": "8d4736fa1ee7c5f8ef2574ce78ee669f", "name": "8d4736fa1ee7c5f8ef2574ce78ee669f", "type": "electric_scooter", "lon": -77.032777, "rental_uris": {"android": "https://dc.lft.to/lastmile_qr_scan", "ios": "https://dc.lft.to/lastmile_qr_scan"}, "lat": 38.89886216666667, "is_reserved": 0, "is_disabled": 0, "fusion_lat": 0.0}, {"fusion_lon": 0.0, "bike_id": "b2e3e38a133e163e4748985d21e70a4c", "name": "b2e3e38a133e163e4748985d21e70a4c", "type": "electric_scooter", "lon": -77.04264583333334, "rental_uris": {"android": "https://dc.lft.to/lastmile_qr_scan", "ios": "https://dc.lft.to/lastmile_qr_scan"}, "lat": 38.897277833333334, "is_reserved": 0, "is_disabled": 0, "fusion_lat": 0.0}, {"fusion_lon": 0.0, "bike_id": "a1be3757ba2e578d580a7f8cea6f1b63", "name": "a1be3757ba2e578d580a7f8cea6f1b63", "type": "electric_scooter", "lon": -77.04476916666667, "rental_uris": {"android": "https://dc.lft.to/lastmile_qr_scan", "ios": "https://dc.lft.to/lastmile_qr_scan"}, "lat": 38.911183333333334, "is_reserved": 0, "is_disabled": 0, "fusion_lat": 0.0}, {"fusion_lon": 0.0, "bike_id": "103bad809616b85408ff2e702e95cb92", "name": "103bad809616b85408ff2e702e95cb92", "type": "electric_scooter", "lon": -77.02184433333333, "rental_uris": {"android": "https://dc.lft.to/lastmile_qr_scan", "ios": "https://dc.lft.to/lastmile_qr_scan"}, "lat": 38.89617166666667, "is_reserved": 0, "is_disabled": 0, "fusion_lat": 0.0}, {"fusion_lon": 0.0, "bike_id": "4243e4903a92f9313a6b70233066a74b", "name": "4243e4903a92f9313a6b70233066a74b", "type": "electric_scooter", "lon": -76.97820866666666, "rental_uris": {"android": "https://dc.lft.to/lastmile_qr_scan", "ios": "https://dc.lft.to/lastmile_qr_scan"}, "lat": 38.846132, "is_reserved": 0, "is_disabled": 0, "fusion_lat": 0.0}, {"fusion_lon": 0.0, "bike_id": "f2857b4f354f421f883ced7571eaf468", "name": "f2857b4f354f421f883ced7571eaf468", "type": "electric_bike", "lon": -76.98520733333334, "rental_uris": {"android": "https://dc.lft.to/lastmile_qr_scan", "ios": "https://dc.lft.to/lastmile_qr_scan"}, "lat": 38.91996666666667, "is_reserved": 0, "is_disabled": 0, "fusion_lat": 0.0}, {"fusion_lon": 0.0, "bike_id": "b766cb840f9eba086d63a6072c3334f0", "name": "b766cb840f9eba086d63a6072c3334f0", "type": "electric_scooter", "lon": -77.0260135, "rental_uris": {"android": "https://dc.lft.to/lastmile_qr_scan", "ios": "https://dc.lft.to/lastmile_qr_scan"}, "lat": 38.90330933333333, "is_reserved": 0, "is_disabled": 0, "fusion_lat": 0.0},