{"data": {"bikes": [{"lon": -77.022273, "name": "462464adcf44889d2ff09a89413ed2ad", "is_disabled": 0, "type": "electric_bike", "is_reserved": 0, "fusion_lon": 0.0, "lat": 38.956944, "rental_uris": {"ios": "https://dc.lft.to/lastmile_qr_scan", "android": "https://dc.lft.to/lastmile_qr_scan"}, "bike_id": "462464adcf44889d2ff09a89413ed2ad", "fusion_lat": 0.0}, {"lon": -76.99144116666666, "name": "8d9cae6604f0e82b880dd10039c17b8e", "is_disabled": 0, "type": "electric_scooter", "is_reserved": 0, "fusion_lon": 0.0, "lat": 38.89977866666667, "rental_uris": {"ios": "https://dc.lft.to/lastmile_qr_scan", "android": "https://dc.lft.to/lastmile_qr_scan"}, "bike_id": "8d9cae6604f0e82b880dd10039c17b8e", "fusion_lat": 0.0}, {"lon": -77.02294733333333, "name": "de74145f1d538f43c16cab4a527791d8", "is_disabled": 0, "type": "electric_scooter", "is_reserved": 0, "fusion_lon": 0.0, "lat": 38.91668283333333, "rental_uris": {"ios": "https://dc.lft.to/lastmile_qr_scan", "android": "https://dc.lft.to/lastmile_qr_scan"}, "bike_id": "de74145f1d538f43c16cab4a527791d8", "fusion_lat": 0.0}, {"lon": -76.9854075, "name": "9ba703171230b4b6ed27246cf4d03f6e", "is_disabled": 0, "type": "electric_scooter", "is_reserved": 0, "fusion_lon": 0.0, "lat": 38.9058775, "rental_uris": {"ios": "https://dc.lft.to/lastmile_qr_scan", "android": "https://dc.lft.to/lastmile_qr_scan"}, "bike_id": "9ba703171230b4b6ed27246cf4d03f6e", "fusion_lat": 0.0}, {"lon": -77.035939, "name": "a8647621fe02a7b08ba979b3a7be46b8", "is_disabled": 0, "type": "electric_scooter", "is_reserved": 0, "fusion_lon": 0.0, "lat": 38.90825866666667, "rental_uris": {"ios": "https://dc.lft.to/lastmile_qr_scan", "android": "https://dc.lft.to/lastmile_qr_scan"}, "bike_id": "a8647621fe02a7b08ba979b3a7be46b8", "fusion_lat": 0.0}, {"lon": -77.02270716666666, "name": "90972c3c3cdd36b3f824a082355f8237", "is_disabled": 0, "type": "electric_scooter", "is_reserved": 0, "fusion_lon": 0.0, "lat": 38.8813715, "rental_uris": {"ios": "https://dc.lft.to/lastmile_qr_scan", "android": "https://dc.lft.to/lastmile_qr_scan"}, "bike_id": "90972c3c3cdd36b3f824a082355f8237", "fusion_lat": 0.0}, {"lon": -77.03482933333333, "name": "49307d53d24299dade83cc80b62eb616", "is_disabled": 0, "type": "electric_scooter", "is_reserved": 0, "fusion_lon": 0.0, "lat": 38.9291565, "rental_uris": {"ios": "https://dc.lft.to/lastmile_qr_scan", "android": "https://dc.lft.to/lastmile_qr_scan"}, "bike_id": "49307d53d24299dade83cc80b62eb616", "fusion_lat": 0.0}, {"lon": -77.0261, "name": "d4e5d9433d51cb6fa469c6cef95d91d0", "is_disabled": 0, "type": "electric_scooter", "is_reserved": 0, "fusion_lon": 0.0, "lat": 38.906016666666666, "rental_uris": {"ios": "https://dc.lft.to/lastmile_qr_scan", "android": "https://dc.lft.to/lastmile_qr_scan"}, "bike_id": "d4e5d9433d51cb6fa469c6cef95d91d0", "fusion_lat": 0.0}, {"lon": -76.93526883333334, "name": "7e5f5b63f216994b57f6248302f58573", "is_disabled": 0, "type": "electric_scooter", "is_reserved": 0, "fusion_lon": 0.0, "lat": 38.8790005, "rental_uris": {"ios": "https://dc.lft.to/lastmile_qr_scan", "android": "https://dc.lft.to/lastmile_qr_scan"}, "bike_id": "7e5f5b63f216994b57f6248302f58573", "fusion_lat": 0.0}, {"lon": -77.01177483333333, "name": "53edeca14619d5d1d36bb6dd55e29948", "is_disabled": 0, "type": "electric_scooter", "is_reserved": 0, "fusion_lon": 0.0, "lat": 38.912005666666666, "rental_uris": {"ios": "https://dc.lft.to/lastmile_qr_scan", "android": "https://dc.lft.to/lastmile_qr_scan"}, "bike_id": "53edeca14619d5d1d36bb6dd55e29948", "fusion_lat": 0.0}, {"lon": -77.040331, "name": "899eb364b604400cab3d4b4f156ba77d", "is_disabled": 0, "type": "electric_scooter", "is_reserved": 0, "fusion_lon": 0.0, "lat": 38.902979333333334, "rental_uris": {"ios": "https://dc.lft.to/lastmile_qr_scan", "android": "https://dc.lft.to/lastmile_qr_scan"}, "bike_id": "899eb364b604400cab3d4b4f156ba77d", "fusion_lat": 0.0}, {"lon": -77.02529633333333, "name": "813ff53bbc8c2351a5e50fbb586b33dc", "is_disabled": 0, "type": "electric_scooter", "is_reserved": 0, "fusion_lon": 0.0, "lat": 38.967325333333335, "rental_uris": {"ios": "https://dc.lft.to/lastmile_qr_scan", "android": "https://dc.lft.to/lastmile_qr_scan"}, "bike_id": "813ff53bbc8c2351a5e50fbb586b33dc", "fusion_lat": 0.0}, {"lon": -77.072314, "name": "a1c0ecca04cab56db7a01d19a0121600", "is_disabled": 0, "type": "electric_scooter", "is_reserved": 0, "fusion_lon": 0.0, "lat": 38.923677833333336, "rental_uris": {"ios": "https://dc.lft.to/lastmile_qr_scan", "android": "https://dc.lft.to/lastmile_qr_scan"}, "bike_id": "a1c0ecca04cab56db7a01d19a0121600", "fusion_lat": 0.0}, {"lon": -76.94666166666667, "name": "d1661455fa130741d5b93a5fa4ee553e", "is_disabled": 0, "type": "electric_scooter", "is_reserved": 0, "fusion_lon": 0.0, "lat": 38.8987115, "rental_uris": {"ios": "https://dc.lft.to/lastmile_qr_scan", "android": "https://dc.lft.to/lastmile_qr_scan"}, "bike_id": "d1661455fa130741d5b93a5fa4ee553e", "fusion_lat": 0.0}, {"lon": -77.00127916666666, "name": "4ed72309b7deb1ac73c9890b6be83cfb", "is_disabled": 0, "type": "electric_scooter", "is_reserved": 0, "fusion_lon": 0.0, "lat": 38.873764666666666, "rental_uris": {"ios": "https://dc.lft.to/lastmile_qr_scan", "android": "https://dc.lft.to/lastmile_qr_scan"}, "bike_id": "4ed72309b7deb1ac73c9890b6be83cfb", "fusion_lat": 0.0}, {"lon": -77.03953783333333, "name": "3da2d600b53038a7053e80390d79ec05", "is_disabled": 0, "type": "electric_scooter", "is_reserved": 0, "fusion_lon": 0.0, "lat": 38.89861583333333, "rental_uris": {"ios": "https://dc.lft.to/lastmile_qr_scan", "android": "https://dc.lft.to/lastmile_qr_scan"}, "bike_id": "3da2d600b53038a7053e80390d79ec05", "fusion_lat": 0.0}, {"lon": -77.02138333333333, "name": "5f2088ba486f3fd670e629f4ff51cc1c", "is_disabled": 0, "type": "electric_scooter", "is_reserved": 0, "fusion_lon": 0.0, "lat": 38.92368416666667, "rental_uris": {"ios": "https://dc.lft.to/lastmile_qr_scan", "android": "https://dc.lft.to/lastmile_qr_scan"}, "bike_id": "5f2088ba486f3fd670e629f4ff51cc1c", "fusion_lat": 0.0}, {"lon": -77.0282415, "name": "25253e540bfcf2e0d173c92e9e0b2f14", "is_disabled": 0, "type": "electric_scooter", "is_reserved": 0, "fusion_lon": 0.0, "lat": 38.907068333333335, "rental_uris": {"ios": "https://dc.lft.to/lastmile_qr_scan", "android": "https://dc.lft.to/lastmile_qr_scan"}, "bike_id": "25253e540bfcf2e0d173c92e9e0b2f14", "fusion_lat": 0.0}, {"lon": -77.04320116666666, "name": "179ff169765d6fa419c5e5f16d34bca3", "is_disabled": 0, "type": "electric_bike", "is_reserved": 0, "fusion_lon": 0.0, "lat": 39.034182, "rental_uris": {"ios": "https://dc.lft.to/lastmile_qr_scan", "android": "https://dc.lft.to/lastmile_qr_scan"}, "bike_id": "179ff169765d6fa419c5e5f16d34bca3", "fusion_lat": 0.0}, {"lon": -77.01765416666667, "name": "9f0d731909c13e2d1a69e26f43223eaa", "is_disabled": 0, "type": "electric_scooter", "is_reserved": 0, "fusion_lon": 0.0, "lat": 38.88323066666667, "rental_uris": {"ios": "https://dc.lft.to/lastmile_qr_scan", "android": "https://dc.lft.to/lastmile_qr_scan"}, "bike_id": "9f0d731909c13e2d1a69e26f43223eaa", "fusion_lat": 0.0}, {"lon": -76.984766, "name": "f6f4eec59205249ce39dd9fddc4f9ca0", "is_disabled": 0, "type": "electric_bike", "is_reserved": 0, "fusion_lon": 0.0, "lat": 38.9127355, "rental_uris": {"ios": "https://dc.lft.to/lastmile_qr_scan", "android": "https://dc.lft.to/lastmile_qr_scan"}, "bike_id": "f6f4eec59205249ce39dd9fddc4f9ca0", "fusion_lat": 0.0}, {"lon": -77.02660733333333, "name": "2194ee8e947030700825cb54618f4f9c", "is_disabled": 0, "type": "electric_scooter", "is_reserved": 0, "fusion_lon": 0.0, "lat": 38.9238705, "rental_uris": {"ios": "https://dc.lft.to/lastmile_qr_scan", "android": "https://dc.lft.to/lastmile_qr_scan"}, "bike_id": "2194ee8e947030700825cb54618f4f9c", "fusion_lat": 0.0}, {"lon": -77.020625, "name": "4eda3ea08b404da2c77941da128d0b6b", "is_disabled": 0, "type": "electric_scooter", "is_reserved": 0, "fusion_lon": 0.0, "lat": 38.93260083333333, "rental_uris": {"ios": "https://dc.lft.to/lastmile_qr_scan", "android": "https://dc.lft.to/lastmile_qr_scan"}, "bike_id": "4eda3ea08b404da2c77941da128d0b6b", "fusion_lat": 0.0}, {"lon": -76.99786066666667, "name": "60b695a0987829e4ac3a6d368324d442", "is_disabled": 0, "type": "electric_scooter", "is_reserved": 0, "fusion_lon": 0.0, "lat": 38.932213833333336, "rental_uris": {"ios": "https://dc.lft.to/lastmile_qr_scan", "android": "https://dc.lft.to/lastmile_qr_scan"}, "bike_id": "60b695a0987829e4ac3a6d368324d442", "fusion_lat": 0.0}, {"lon": -77.04023666666667, "name": "da2fd73b796154cc2ebaefcd153c7de5", "is_disabled": 0, "type": "electric_scooter", "is_reserved": 0, "fusion_lon": 0.0, "lat": 38.904890333333334, "rental_uris": {"ios": "https://dc.lft.to/lastmile_qr_scan", "android": "https://dc.lft.to/lastmile_qr_scan"}, "bike_id": "da2fd73b796154cc2ebaefcd153c7de5", "fusion_lat": 0.0}, {"lon": -76.93392766666666, "name": "9fc9a7d694a9b730ad12613776f756e8", "is_disabled": 0, "type": "electric_scooter", "is_reserved": 0, "fusion_lon": 0.0, "lat": 38.89910483333333, "rental_uris": {"ios": "https://dc.lft.to/lastmile_qr_scan", "android": "https://dc.lft.to/lastmile_qr_scan"}, "bike_id": "9fc9a7d694a9b730ad12613776f756e8", "fusion_lat": 0.0}, {"lon": -77.021766, "name": "68ca0f9998537ddab365a7ef1d1dc687", "is_disabled": 0, "type": "electric_scooter", "is_reserved": 0, "fusion_lon": 0.0, "lat": 38.9140485, "rental_uris": {"ios": "https://dc.lft.to/lastmile_qr_scan", "android": "https://dc.lft.to/lastmile_qr_scan"}, "bike_id": "68ca0f9998537ddab365a7ef1d1dc687", "fusion_lat": 0.0}, {"lon": -77.04239833333334, "name": "2d53b014db88188d0f2af79aa8a5f46c", "is_disabled": 0, "type": "electric_scooter", "is_reserved": 0, "fusion_lon": 0.0, "lat": 38.921569166666664, "rental_uris": {"ios": "https://dc.lft.to/lastmile_qr_scan", "android": "https://dc.lft.to/lastmile_qr_scan"}, "bike_id": "2d53b014db88188d0f2af79aa8a5f46c", "fusion_lat": 0.0}, {"lon": -77.04321, "name": "d56a72247a25daab6904533f13eaafe3", "is_disabled": 0, "type": "electric_scooter", "is_reserved": 0, "fusion_lon": 0.0, "lat": 38.896919833333335, "rental_uris": {"ios": "https://dc.lft.to/lastmile_qr_scan", "android": "https://dc.lft.to/lastmile_qr_scan"}, "bike_id": "d56a72247a25daab6904533f13eaafe3", "fusion_lat": 0.0}, {"lon": -77.00676083333333, "name": "f73db993f69f6cd088395e5afcc2b84c", "is_disabled": 0, "type": "electric_bike", "is_reserved": 0, "fusion_lon": 0.0, "lat": 38.94510783333333, "rental_uris": {"ios": "https://dc.lft.to/lastmile_qr_scan", "android": "https://dc.lft.to/lastmile_qr_scan"}, "bike_id": "f73db993f69f6cd088395e5afcc2b84c", "fusion_lat": 0.0}, {"lon": -77.06784066666667, "name": "cc0c85f55e43112a8cee8c32fa0e6698", "is_disabled": 0, "type": "electric_scooter", "is_reserved": 0, "fusion_lon": 0.0, "lat": 38.95212716666666, "rental_uris": {"ios": "https://dc.lft.to/lastmile_qr_scan", "android": "https://dc.lft.to/lastmile_qr_scan"}, "bike_id": "cc0c85f55e43112a8cee8c32fa0e6698", "fusion_lat": 0.0}, {"lon": -77.079004, "name": "68c8e8d92c0ecb744ba71348671c2f16", "is_disabled": 0, "type": "electric_bike", "is_reserved": 0, "fusion_lon": 0.0, "lat": 38.83936516666667, "rental_uris": {"ios": "https://dc.lft.to/lastmile_qr_scan", "android": "https://dc.lft.to/lastmile_qr_scan"}, "bike_id": "68c8e8d92c0ecb744ba71348671c2f16", "fusion_lat": 0.0}, {"lon": -77.04874083333333, "name": "2f3c582a9174c11b2697f98d96390f9a", "is_disabled": 0, "type": "electric_scooter", "is_reserved": 0, "fusion_lon": 0.0, "lat": 38.90637, "rental_uris": {"ios": "https://dc.lft.to/lastmile_qr_scan", "android": "https://dc.lft.to/lastmile_qr_scan"}, "bike_id": "2f3c582a9174c11b2697f98d96390f9a", "fusion_lat": 0.0}, {"lon": -77.03363116666667, "name": "360f71dd7199c3ef37d8c4a6e858c2f1", "is_disabled": 0, "type": "electric_scooter", "is_reserved": 0, "fusion_lon": 0.0, "lat": 38.92756933333333, "rental_uris": {"ios": "https://dc.lft.to/lastmile_qr_scan", "android": "https://dc.lft.to/lastmile_qr_scan"}, "bike_id": "360f71dd7199c3ef37d8c4a6e858c2f1", "fusion_lat": 0.0}, {"lon": -76.99297366666667, "name": "eebae848c4f432029349466641654c02", "is_disabled": 0, "type": "electric_scooter", "is_reserved": 0, "fusion_lon": 0.0, "lat": 38.93772583333333, "rental_uris": {"ios": "https://dc.lft.to/lastmile_qr_scan", "android": "https://dc.lft.to/lastmile_qr_scan"}, "bike_id": "eebae848c4f432029349466641654c02", "fusion_lat": 0.0}, {"lon": -77.02217933333333, "name": "3b1575aa394148465466452863a5ba29", "is_disabled": 0, "type": "electric_scooter", "is_reserved": 0, "fusion_lon": 0.0, "lat": 38.8962505, "rental_uris": {"ios": "https://dc.lft.to/lastmile_qr_scan", "android": "https://dc.lft.to/lastmile_qr_scan"}, "bike_id": "3b1575aa394148465466452863a5ba29", "fusion_lat": 0.0}, {"lon": -77.04107083333334, "name": "f2ec7801c72bd7194dbd09a2f4c64a4f", "is_disabled": 0, "type": "electric_scooter", "is_reserved": 0, "fusion_lon": 0.0, "lat": 38.892244833333336, "rental_uris": {"ios": "https://dc.lft.to/lastmile_qr_scan", "android": "https://dc.lft.to/lastmile_qr_scan"}, "bike_id": "f2ec7801c72bd7194dbd09a2f4c64a4f", "fusion_lat": 0.0}, {"lon": -77.022431, "name": "f133b17f28453fb7be516b23844548b5", "is_disabled": 0, "type": "electric_scooter", "is_reserved": 0, "fusion_lon": 0.0, "lat": 38.924366, "rental_uris": {"ios": "https://dc.lft.to/lastmile_qr_scan", "android": "https://dc.lft.to/lastmile_qr_scan"}, "bike_id": "f133b17f28453fb7be516b23844548b5", "fusion_lat": 0.0}, {"lon": -77.0220305, "name": "6a26f0474ff859f142c4542412f2a762", "is_disabled": 0, "type": "electric_scooter", "is_reserved": 0, "fusion_lon": 0.0, "lat": 38.901462, "rental_uris": {"ios": "https://dc.lft.to/lastmile_qr_scan", "android": "https://dc.lft.to/lastmile_qr_scan"}, "bike_id": "6a26f0474ff859f142c4542412f2a762", "fusion_lat": 0.0}, {"lon": -76.90748916666666, "name": "f398587a760c56eb2209cb5767066283", "is_disabled": 0, "type": "electric_bike", "is_reserved": 0, "fusion_lon": 0.0, "lat": 38.8962165, "rental_uris": {"ios": "https://dc.lft.to/lastmile_qr_scan", "android": "https://dc.lft.to/lastmile_qr_scan"}, "bike_id": "f398587a760c56eb2209cb5767066283", "fusion_lat": 0.0}, {"lon": -76.972243, "name": "109b86995b5032e84d7fee59c2ceb850", "is_disabled": 0, "type": "electric_bike", "is_reserved": 0, "fusion_lon": 0.0, "lat": 38.90039483333334, "rental_uris": {"ios": "https://dc.lft.to/lastmile_qr_scan", "android": "https://dc.lft.to/lastmile_qr_scan"}, "bike_id": "109b86995b5032e84d7fee59c2ceb850", "fusion_lat": 0.0}, {"lon": -77.04008016666667, "name": "36051ad8d526a42727c79447cdcb740f", "is_disabled": 0, "type": "electric_scooter", "is_reserved": 0, "fusion_lon": 0.0, "lat": 38.921648833333336, "rental_uris": {"ios": "https://dc.lft.to/lastmile_qr_scan", "android": "https://dc.lft.to/lastmile_qr_scan"}, "bike_id": "36051ad8d526a42727c79447cdcb740f", "fusion_lat": 0.0}, {"lon": -77.02791516666667, "name": "c48e61bc3ba9527b48ad23c23f74d2d2", "is_disabled": 0, "type": "electric_scooter", "is_reserved": 0, "fusion_lon": 0.0, "lat": 38.93079, "rental_uris": {"ios": "https://dc.lft.to/lastmile_qr_scan", "android": "https://dc.lft.to/lastmile_qr_scan"}, "bike_id": "c48e61bc3ba9527b48ad23c23f74d2d2", "fusion_lat": 0.0}, {"lon": -76.97592516666667, "name": "09f5e9e7d558c8a3d4cefba3f046c6d3", "is_disabled": 0, "type": "electric_scooter", "is_reserved": 0, "fusion_lon": 0.0, "lat": 38.90336166666667, "rental_uris": {"ios": "https://dc.lft.to/lastmile_qr_scan", "android": "https://dc.lft.to/lastmile_qr_scan"}, "bike_id": "09f5e9e7d558c8a3d4cefba3f046c6d3", "fusion_lat": 0.0}, {"lon": -76.924405, "name": "030f369798559ba4b4360f43b406782b", "is_disabled": 0, "type": "electric_scooter", "is_reserved": 0, "fusion_lon": 0.0, "lat": 38.88514833333333, "rental_uris": {"ios": "https://dc.lft.to/lastmile_qr_scan", "android": "https://dc.lft.to/lastmile_qr_scan"}, "bike_id": "030f369798559ba4b4360f43b406782b", "fusion_lat": 0.0}, {"lon": -77.031996, "name": "2752785b3d64dca8b6d9eeaf45566813", "is_disabled": 0, "type": "electric_scooter", "is_reserved": 0, "fusion_lon": 0.0, "lat": 38.91607183333333, "rental_uris": {"ios": "https://dc.lft.to/lastmile_qr_scan", "android": "https://dc.lft.to/lastmile_qr_scan"}, "bike_id": "2752785b3d64dca8b6d9eeaf45566813", "fusion_lat": 0.0}, {"lon": -77.0021045, "name": "bf7f8c3e367ecf4ce90b369059c3ac97", "is_disabled": 0, "type": "electric_scooter", "is_reserved": 0, "fusion_lon": 0.0, "lat": 38.901343833333335, "rental_uris": {"ios": "https://dc.lft.to/lastmile_qr_scan", "android": "https://dc.lft.to/lastmile_qr_scan"}, "bike_id": "bf7f8c3e367ecf4ce90b369059c3ac97", "fusion_lat": 0.0}, {"lon": -77.0272535, "name": "ef62dd89208dd8a70552da8f2ee4ebf7", "is_disabled": 0, "type": "electric_scooter", "is_reserved": 0, "fusion_lon": 0.0, "lat": 38.9282475, "rental_uris": {"ios": "https://dc.lft.to/lastmile_qr_scan", "android": "https://dc.lft.to/lastmile_qr_scan"}, "bike_id": "ef62dd89208dd8a70552da8f2ee4ebf7", "fusion_lat": 0.0}, {"lon": -77.01221433333333, "name": "61858af49485ae9b62e9fa63b34fa970", "is_disabled": 0, "type": "electric_scooter", "is_reserved": 0, "fusion_lon": 0.0, "lat": 38.925149833333336, "rental_uris": {"ios": "https://dc.lft.to/lastmile_qr_scan", "android": "https://dc.lft.to/lastmile_qr_scan"}, "bike_id": "61858af49485ae9b62e9fa63b34fa970", "fusion_lat": 0.0}, {"lon": -77.032861, "name": "c4d4277666575d6cdd45bd9178f49365", "is_disabled": 0, "type": "electric_scooter", "is_reserved": 0, "fusion_lon": 0.0, "lat": 38.93583266666667, "rental_uris": {"ios": "https://dc.lft.to/lastmile_qr_scan", "android": "https://dc.lft.to/lastmile_qr_scan"}, "bike_id": "c4d4277666575d6cdd45bd9178f49365", "fusion_lat": 0.0}, {"lon": -76.965433, "name": "e5c1d646b3ce90aef4456c1e88c5239f", "is_disabled": 0, "type": "electric_scooter", "is_reserved": 0, "fusion_lon": 0.0, "lat": 38.878866333333335, "rental_uris": {"ios": "https://dc.lft.to/lastmile_qr_scan", "android": "https://dc.lft.to/lastmile_qr_scan"}, "bike_id": "e5c1d646b3ce90aef4456c1e88c5239f", "fusion_lat": 0.0}, {"lon": -77.00538733333333, "name": "0523df067d9c21be9394342515f265b6", "is_disabled": 0, "type": "electric_scooter", "is_reserved": 0, "fusion_lon": 0.0, "lat": 38.87547466666667, "rental_uris": {"ios": "https://dc.lft.to/lastmile_qr_scan", "android": "https://dc.lft.to/lastmile_qr_scan"}, "bike_id": "0523df067d9c21be9394342515f265b6", "fusion_lat": 0.0}, {"lon": -77.0404325, "name": "c8b187e014ddb2d9129628e90311791e", "is_disabled": 0, "type": "electric_scooter", "is_reserved": 0, "fusion_lon": 0.0, "lat": 38.92044933333333, "rental_uris": {"ios": "https://dc.lft.to/lastmile_qr_scan", "android": "https://dc.lft.to/lastmile_qr_scan"}, "bike_id": "c8b187e014ddb2d9129628e90311791e", "fusion_lat": 0.0}, {"lon": -77.04400666666666, "name": "51ff6fd43b90bca2eed4274114ba227e", "is_disabled": 0, "type": "electric_scooter", "is_reserved": 0, "fusion_lon": 0.0, "lat": 38.929539166666665, "rental_uris": {"ios": "https://dc.lft.to/lastmile_qr_scan", "android": "https://dc.lft.to/lastmile_qr_scan"}, "bike_id": "51ff6fd43b90bca2eed4274114ba227e", "fusion_lat": 0.0}, {"lon": -77.02485583333333, "name": "64cc93a5c660436729189f20dfb9ae72", "is_disabled": 0, "type": "electric_scooter", "is_reserved": 0, "fusion_lon": 0.0, "lat": 38.91817833333333, "rental_uris": {"ios": "https://dc.lft.to/lastmile_qr_scan", "android": "https://dc.lft.to/lastmile_qr_scan"}, "bike_id": "64cc93a5c660436729189f20dfb9ae72", "fusion_lat": 0.0}, {"lon": -77.03684116666666, "name": "cd26036cb8f392d3e387d3f52fd39370", "is_disabled": 0, "type": "electric_scooter", "is_reserved": 0, "fusion_lon": 0.0, "lat": 38.930691833333334, "rental_uris": {"ios": "https://dc.lft.to/lastmile_qr_scan", "android": "https://dc.lft.to/lastmile_qr_scan"}, "bike_id": "cd26036cb8f392d3e387d3f52fd39370", "fusion_lat": 0.0}, {"lon": -77.00359133333333, "name": "9770ac53e9ef0d9d3273ca882a5d24a3", "is_disabled": 0, "type": "electric_scooter", "is_reserved": 0, "fusion_lon": 0.0, "lat": 38.917667333333334, "rental_uris": {"ios": "https://dc.lft.to/lastmile_qr_scan", "android": "https://dc.lft.to/lastmile_qr_scan"}, "bike_id": "9770ac53e9ef0d9d3273ca882a5d24a3", "fusion_lat": 0.0}, {"lon": -77.027624, "name": "91e0c2f596559e29161683b081064d25", "is_disabled": 0, "type": "electric_scooter", "is_reserved": 0, "fusion_lon": 0.0, "lat": 38.925814833333334, "rental_uris": {"ios": "https://dc.lft.to/lastmile_qr_scan", "android": "https://dc.lft.to/lastmile_qr_scan"}, "bike_id": "91e0c2f596559e29161683b081064d25", "fusion_lat": 0.0}, {"lon": -76.99101483333334, "name": "247e4743c54e3f3b51a8abac9b678210", "is_disabled": 0, "type": "electric_bike", "is_reserved": 0, "fusion_lon": 0.0, "lat": 38.80484366666666, "rental_uris": {"ios": "https://dc.lft.to/lastmile_qr_scan", "android": "https://dc.lft.to/lastmile_qr_scan"}, "bike_id": "247e4743c54e3f3b51a8abac9b678210", "fusion_lat": 0.0}, {"lon": -77.012713, "name": "3ea9c3e94e66623cb39f59777d6f744c", "is_disabled": 0, "type": "electric_scooter", "is_reserved": 0, "fusion_lon": 0.0, "lat": 38.86470766666667, "rental_uris": {"ios": "https://dc.lft.to/lastmile_qr_scan", "android": "https://dc.lft.to/lastmile_qr_scan"}, "bike_id": "3ea9c3e94e66623cb39f59777d6f744c", "fusion_lat": 0.0}, {"lon": -77.03200833333334, "name": "ed2dc8e1ef8a172b2ef15de35de04465", "is_disabled": 0, "type": "electric_scooter", "is_reserved": 0, "fusion_lon": 0.0, "lat": 38.91635616666667, "rental_uris": {"ios": "https://dc.lft.to/lastmile_qr_scan", "android": "https://dc.lft.to/lastmile_qr_scan"}, "bike_id": "ed2dc8e1ef8a172b2ef15de35de04465", "fusion_lat": 0.0}, {"lon": -76.987226, "name": "3bcedb53c44f48ccd548f918b3a16f33", "is_disabled": 0, "type": "electric_bike", "is_reserved": 0, "fusion_lon": 0.0, "lat": 38.86332383333333, "rental_uris": {"ios": "https://dc.lft.to/lastmile_qr_scan", "android": "https://dc.lft.to/lastmile_qr_scan"}, "bike_id": "3bcedb53c44f48ccd548f918b3a16f33", "fusion_lat": 0.0}, {"lon": -76.9755975, "name": "f3462e6ddcf91be6c28f11b4dfa3d359", "is_disabled": 0, "type": "electric_bike", "is_reserved": 0, "fusion_lon": 0.0, "lat": 38.87266066666667, "rental_uris": {"ios": "https://dc.lft.to/lastmile_qr_scan", "android": "https://dc.lft.to/lastmile_qr_scan"}, "bike_id": "f3462e6ddcf91be6c28f11b4dfa3d359", "fusion_lat": 0.0}, {"lon": -77.0366155, "name": "edf3c5d2ed9f8beb15a498d4f3940ae1", "is_disabled": 0, "type": "electric_scooter", "is_reserved": 0, "fusion_lon": 0.0, "lat": 38.92336016666667, "rental_uris": {"ios": "https://dc.lft.to/lastmile_qr_scan", "android": "https://dc.lft.to/lastmile_qr_scan"}, "bike_id": "edf3c5d2ed9f8beb15a498d4f3940ae1", "fusion_lat": 0.0}, {"lon": -77.0185255, "name": "837e2e46a20c80accdc11dd1edd25bda", "is_disabled": 0, "type": "electric_scooter", "is_reserved": 0, "fusion_lon": 0.0, "lat": 38.94893016666666, "rental_uris": {"ios": "https://dc.lft.to/lastmile_qr_scan", "android": "https://dc.lft.to/lastmile_qr_scan"}, "bike_id": "837e2e46a20c80accdc11dd1edd25bda", "fusion_lat": 0.0}, {"lon": -77.0802215, "name": "66146312946254fa0e44b2fe3bc56080", "is_disabled": 0, "type": "electric_bike", "is_reserved": 0, "fusion_lon": 0.0, "lat": 38.957707166666665, "rental_uris": {"ios": "https://dc.lft.to/lastmile_qr_scan", "android": "https://dc.lft.to/lastmile_qr_scan"}, "bike_id": "66146312946254fa0e44b2fe3bc56080", "fusion_lat": 0.0}, {"lon": -76.99381883333334, "name": "c48738de1425cab972e177cdfd797183", "is_disabled": 0, "type": "electric_scooter", "is_reserved": 0, "fusion_lon": 0.0, "lat": 38.893412833333336, "rental_uris": {"ios": "https://dc.lft.to/lastmile_qr_scan", "android": "https://dc.lft.to/lastmile_qr_scan"}, "bike_id": "c48738de1425cab972e177cdfd797183", "fusion_lat": 0.0}, {"lon": -77.04007916666667, "name": "0507bacf805fa1b9a2f2588cf0bf219a", "is_disabled": 0, "type": "electric_scooter", "is_reserved": 0, "fusion_lon": 0.0, "lat": 38.90997316666667, "rental_uris": {"ios": "https://dc.lft.to/lastmile_qr_scan", "android": "https://dc.lft.to/lastmile_qr_scan"}, "bike_id": "0507bacf805fa1b9a2f2588cf0bf219a", "fusion_lat": 0.0}, {"lon": -77.03944766666666, "name": "7dcd9ca51648098a44b6ec9e1037be2b", "is_disabled": 0, "type": "electric_scooter", "is_reserved": 0, "fusion_lon": 0.0, "lat": 38.898525166666666, "rental_uris": {"ios": "https://dc.lft.to/lastmile_qr_scan", "android": "https://dc.lft.to/lastmile_qr_scan"}, "bike_id": "7dcd9ca51648098a44b6ec9e1037be2b", "fusion_lat": 0.0}, {"lon": -77.03182633333333, "name": "1e90478292cccbef857233caec3de5d6", "is_disabled": 0, "type": "electric_scooter", "is_reserved": 0, "fusion_lon": 0.0, "lat": 38.8924595, "rental_uris": {"ios": "https://dc.lft.to/lastmile_qr_scan", "android": "https://dc.lft.to/lastmile_qr_scan"}, "bike_id": "1e90478292cccbef857233caec3de5d6", "fusion_lat": 0.0}, {"lon": -77.036622, "name": "e663b809b379e19a62229e8b77ebfd04", "is_disabled": 0, "type": "electric_scooter", "is_reserved": 0, "fusion_lon": 0.0, "lat": 38.93209683333333, "rental_uris": {"ios": "https://dc.lft.to/lastmile_qr_scan", "android": "https://dc.lft.to/lastmile_qr_scan"}, "bike_id": "e663b809b379e19a62229e8b77ebfd04", "fusion_lat": 0.0}, {"lon": -77.040219, "name": "2a1c0f6b04eb2d5e3bd269a707ccc546", "is_disabled": 0, "type": "electric_scooter", "is_reserved": 0, "fusion_lon": 0.0, "lat": 38.90388, "rental_uris": {"ios": "https://dc.lft.to/lastmile_qr_scan", "android": "https://dc.lft.to/lastmile_qr_scan"}, "bike_id": "2a1c0f6b04eb2d5e3bd269a707ccc546", "fusion_lat": 0.0}, {"lon": -77.0904995, "name": "cebc63ec5b8a5750096fe575b4fec36f", "is_disabled": 0, "type": "electric_scooter", "is_reserved": 0, "fusion_lon": 0.0, "lat": 38.917588333333335, "rental_uris": {"ios": "https://dc.lft.to/lastmile_qr_scan", "android": "https://dc.lft.to/lastmile_qr_scan"}, "bike_id": "cebc63ec5b8a5750096fe575b4fec36f", "fusion_lat": 0.0}, {"lon": -77.022047, "name": "4ea616c3062268652f75080d2f527c80", "is_disabled": 0, "type": "electric_scooter", "is_reserved": 0, "fusion_lon": 0.0, "lat": 38.90577366666667, "rental_uris": {"ios": "https://dc.lft.to/lastmile_qr_scan", "android": "https://dc.lft.to/lastmile_qr_scan"}, "bike_id": "4ea616c3062268652f75080d2f527c80", "fusion_lat": 0.0}, {"lon": -76.97744783333333, "name": "0bbf93a893b4d84a26f72d118b3fb58d", "is_disabled": 0, "type": "electric_bike", "is_reserved": 0, "fusion_lon": 0.0, "lat": 38.8649175, "rental_uris": {"ios": "https://dc.lft.to/lastmile_qr_scan", "android": "https://dc.lft.to/lastmile_qr_scan"}, "bike_id": "0bbf93a893b4d84a26f72d118b3fb58d", "fusion_lat": 0.0}, {"lon": -76.99148033333333, "name": "ca100675ffb65643fabae3b93aa98237", "is_disabled": 0, "type": "electric_scooter", "is_reserved": 0, "fusion_lon": 0.0, "lat": 38.891649, "rental_uris": {"ios": "https://dc.lft.to/lastmile_qr_scan", "android": "https://dc.lft.to/lastmile_qr_scan"}, "bike_id": "ca100675ffb65643fabae3b93aa98237", "fusion_lat": 0.0}, {"lon": -77.04618816666667, "name": "7ca586560e8c421bc7337acaff8e9550", "is_disabled": 0, "type": "electric_scooter", "is_reserved": 0, "fusion_lon": 0.0, "lat": 38.916183333333336, "rental_uris": {"ios": "https://dc.lft.to/lastmile_qr_scan", "android": "https://dc.lft.to/lastmile_qr_scan"}, "bike_id": "7ca586560e8c421bc7337acaff8e9550", "fusion_lat": 0.0}, {"lon": -77.01839116666666, "name": "2795ae1ec27ca7e508b78e178f72deab", "is_disabled": 0, "type": "electric_scooter", "is_reserved": 0, "fusion_lon": 0.0, "lat": 38.90864916666666, "rental_uris": {"ios": "https://dc.lft.to/lastmile_qr_scan", "android": "https://dc.lft.to/lastmile_qr_scan"}, "bike_id": "2795ae1ec27ca7e508b78e178f72deab", "fusion_lat": 0.0}, {"lon": -77.001374, "name": "5e53e7c728a8742ba6c24f2a5fdbb6f7", "is_disabled": 0, "type": "electric_scooter", "is_reserved": 0, "fusion_lon": 0.0, "lat": 38.8843495, "rental_uris": {"ios": "https://dc.lft.to/lastmile_qr_scan", "android": "https://dc.lft.to/lastmile_qr_scan"}, "bike_id": "5e53e7c728a8742ba6c24f2a5fdbb6f7", "fusion_lat": 0.0}, {"lon": -76.98099016666667, "name": "7ab2225fe0973e5f0acb8e76a5f4528a", "is_disabled": 0, "type": "electric_bike", "is_reserved": 0, "fusion_lon": 0.0, "lat": 38.953636833333334, "rental_uris": {"ios": "https://dc.lft.to/lastmile_qr_scan", "android": "https://dc.lft.to/lastmile_qr_scan"}, "bike_id": "7ab2225fe0973e5f0acb8e76a5f4528a", "fusion_lat": 0.0}, {"lon": -77.05746316666666, "name": "3d36ce79b28300ebc238645d249dfc30", "is_disabled": 0, "type": "electric_scooter", "is_reserved": 0, "fusion_lon": 0.0, "lat": 38.933449333333336, "rental_uris": {"ios": "https://dc.lft.to/lastmile_qr_scan", "android": "https://dc.lft.to/lastmile_qr_scan"}, "bike_id": "3d36ce79b28300ebc238645d249dfc30", "fusion_lat": 0.0}, {"lon": -77.018556, "name": "4d51c8a02f5a3f42f019f96d76da8db6", "is_disabled": 0, "type": "electric_scooter", "is_reserved": 0, "fusion_lon": 0.0, "lat": 38.87457166666667, "rental_uris": {"ios": "https://dc.lft.to/lastmile_qr_scan", "android": "https://dc.lft.to/lastmile_qr_scan"}, "bike_id": "4d51c8a02f5a3f42f019f96d76da8db6", "fusion_lat": 0.0}, {"lon": -77.0504335, "name": "b8d4e1e83c62f82ca97e914eff621b72", "is_disabled": 0, "type": "electric_scooter", "is_reserved": 0, "fusion_lon": 0.0, "lat": 38.89287566666667, "rental_uris": {"ios": "https://dc.lft.to/lastmile_qr_scan", "android": "https://dc.lft.to/lastmile_qr_scan"}, "bike_id": "b8d4e1e83c62f82ca97e914eff621b72", "fusion_lat": 0.0}, {"lon": -77.009836, "name": "03f77b22003bfdecd7b77ff8eb01bb0a", "is_disabled": 0, "type": "electric_scooter", "is_reserved": 0, "fusion_lon": 0.0, "lat": 38.90372883333333, "rental_uris": {"ios": "https://dc.lft.to/lastmile_qr_scan", "android": "https://dc.lft.to/lastmile_qr_scan"}, "bike_id": "03f77b22003bfdecd7b77ff8eb01bb0a", "fusion_lat": 0.0}, {"lon": -77.00402316666667, "name": "224ead9347fcbe5f047ff210dcff07a4", "is_disabled": 0, "type": "electric_bike", "is_reserved": 0, "fusion_lon": 0.0, "lat": 38.98558516666667, "rental_uris": {"ios": "https://dc.lft.to/lastmile_qr_scan", "android": "https://dc.lft.to/lastmile_qr_scan"}, "bike_id": "224ead9347fcbe5f047ff210dcff07a4", "fusion_lat": 0.0}, {"lon": -77.01671116666667, "name": "d69fb5a04746c78966d217e678660167", "is_disabled": 0, "type": "electric_scooter", "is_reserved": 0, "fusion_lon": 0.0, "lat": 38.9206295, "rental_uris": {"ios": "https://dc.lft.to/lastmile_qr_scan", "android": "https://dc.lft.to/lastmile_qr_scan"}, "bike_id": "d69fb5a04746c78966d217e678660167", "fusion_lat": 0.0}, {"lon": -77.229891, "name": "522c50162174cb50e32e9e5e30572d4b", "is_disabled": 0, "type": "electric_bike", "is_reserved": 0, "fusion_lon": 0.0, "lat": 38.87151083333333, "rental_uris": {"ios": "https://dc.lft.to/lastmile_qr_scan", "android": "https://dc.lft.to/lastmile_qr_scan"}, "bike_id": "522c50162174cb50e32e9e5e30572d4b", "fusion_lat": 0.0}, {"lon": -76.97268366666667, "name": "eb6c270021f6b318c7b18642c4520aeb", "is_disabled": 0, "type": "electric_bike", "is_reserved": 0, "fusion_lon": 0.0, "lat": 38.8559995, "rental_uris": {"ios": "https://dc.lft.to/lastmile_qr_scan", "android": "https://dc.lft.to/lastmile_qr_scan"}, "bike_id": "eb6c270021f6b318c7b18642c4520aeb", "fusion_lat": 0.0}, {"lon": -77.01875783333334, "name": "528b63b6b3f0cb931586c5da8b6a6a77", "is_disabled": 0, "type": "electric_scooter", "is_reserved": 0, "fusion_lon": 0.0, "lat": 38.88126966666667, "rental_uris": {"ios": "https://dc.lft.to/lastmile_qr_scan", "android": "https://dc.lft.to/lastmile_qr_scan"}, "bike_id": "528b63b6b3f0cb931586c5da8b6a6a77", "fusion_lat": 0.0}, {"lon": -77.01836983333334, "name": "5a93680113a4ac4280353192b8cc73a7", "is_disabled": 0, "type": "electric_scooter", "is_reserved": 0, "fusion_lon": 0.0, "lat": 38.907290333333336, "rental_uris": {"ios": "https://dc.lft.to/lastmile_qr_scan", "android": "https://dc.lft.to/lastmile_qr_scan"}, "bike_id": "5a93680113a4ac4280353192b8cc73a7", "fusion_lat": 0.0}, {"lon": -77.13332516666667, "name": "bff02c4eeaac17f3cc3e702042884fe7", "is_disabled": 0, "type": "electric_bike", "is_reserved": 0, "fusion_lon": 0.0, "lat": 39.06039283333333, "rental_uris": {"ios": "https://dc.lft.to/lastmile_qr_scan", "android": "https://dc.lft.to/lastmile_qr_scan"}, "bike_id": "bff02c4eeaac17f3cc3e702042884fe7", "fusion_lat": 0.0}, {"lon": -77.0157135, "name": "72cccede2bdc630c1bf1c672c8a16da7", "is_disabled": 0, "type": "electric_scooter", "is_reserved": 0, "fusion_lon": 0.0, "lat": 38.92688583333333, "rental_uris": {"ios": "https://dc.lft.to/lastmile_qr_scan", "android": "https://dc.lft.to/lastmile_qr_scan"}, "bike_id": "72cccede2bdc630c1bf1c672c8a16da7", "fusion_lat": 0.0}, {"lon": -77.0447575, "name": "41cb222b2e212656be6c9277cd90da93", "is_disabled": 0, "type": "electric_scooter", "is_reserved": 0, "fusion_lon": 0.0, "lat": 38.89363433333333, "rental_uris": {"ios": "https://dc.lft.to/lastmile_qr_scan", "android": "https://dc.lft.to/lastmile_qr_scan"}, "bike_id": "41cb222b2e212656be6c9277cd90da93", "fusion_lat": 0.0}, {"lon": -77.02287383333334, "name": "2933741c4498db8754b4437ea6323b28", "is_disabled": 0, "type": "electric_scooter", "is_reserved": 0, "fusion_lon": 0.0, "lat": 38.91666566666667, "rental_uris": {"ios": "https://dc.lft.to/lastmile_qr_scan", "android": "https://dc.lft.to/lastmile_qr_scan"}, "bike_id": "2933741c4498db8754b4437ea6323b28", "fusion_lat": 0.0}, {"lon": -77.005745, "name": "9cf1f3365f324589314435ee3e1a5c7d", "is_disabled": 0, "type": "electric_scooter", "is_reserved": 0, "fusion_lon": 0.0, "lat": 38.87212533333334, "rental_uris": {"ios": "https://dc.lft.to/lastmile_qr_scan", "android": "https://dc.lft.to/lastmile_qr_scan"}, "bike_id": "9cf1f3365f324589314435ee3e1a5c7d", "fusion_lat": 0.0}, {"lon": -77.07870666666666, "name": "79ce143284254210e71759468b023855", "is_disabled": 0, "type": "electric_scooter", "is_reserved": 0, "fusion_lon": 0.0, "lat": 38.919587, "rental_uris": {"ios": "https://dc.lft.to/lastmile_qr_scan", "android": "https://dc.lft.to/lastmile_qr_scan"}, "bike_id": "79ce143284254210e71759468b023855", "fusion_lat": 0.0}, {"lon": -77.01840416666667, "name": "ab540fe86bf07a165d31fa9ad6c215a1", "is_disabled": 0, "type": "electric_scooter", "is_reserved": 0, "fusion_lon": 0.0, "lat": 38.89741716666666, "rental_uris": {"ios": "https://dc.lft.to/lastmile_qr_scan", "android": "https://dc.lft.to/lastmile_qr_scan"}, "bike_id": "ab540fe86bf07a165d31fa9ad6c215a1", "fusion_lat": 0.0}, {"lon": -77.02639816666667, "name": "3721cb4afd1d2e187853a3cf01f9b0c6", "is_disabled": 0, "type": "electric_scooter", "is_reserved": 0, "fusion_lon": 0.0, "lat": 38.911050333333336, "rental_uris": {"ios": "https://dc.lft.to/lastmile_qr_scan", "android": "https://dc.lft.to/lastmile_qr_scan"}, "bike_id": "3721cb4afd1d2e187853a3cf01f9b0c6", "fusion_lat": 0.0}, {"lon": -77.049987, "name": "f6f4e211f43028de2a24efee6e134244", "is_disabled": 0, "type": "electric_scooter", "is_reserved": 0, "fusion_lon": 0.0, "lat": 38.892328166666665, "rental_uris": {"ios": "https://dc.lft.to/lastmile_qr_scan", "android": "https://dc.lft.to/lastmile_qr_scan"}, "bike_id": "f6f4e211f43028de2a24efee6e134244", "fusion_lat": 0.0}, {"lon": -77.06143366666667, "name": "b615270a98b3a61cd9eb5e91c50bf1ae", "is_disabled": 0, "type": "electric_scooter", "is_reserved": 0, "fusion_lon": 0.0, "lat": 38.94111766666666, "rental_uris": {"ios": "https://dc.lft.to/lastmile_qr_scan", "android": "https://dc.lft.to/lastmile_qr_scan"}, "bike_id": "b615270a98b3a61cd9eb5e91c50bf1ae", "fusion_lat": 0.0}, {"lon": -77.0469685, "name": "bdab5e467ec65df2c72e46e18639066e", "is_disabled": 0, "type": "electric_scooter", "is_reserved": 0, "fusion_lon": 0.0, "lat": 38.921623833333335, "rental_uris": {"ios": "https://dc.lft.to/lastmile_qr_scan", "android": "https://dc.lft.to/lastmile_qr_scan"}, "bike_id": "bdab5e467ec65df2c72e46e18639066e", "fusion_lat": 0.0}, {"lon": -77.018775, "name": "f077be4bca3ce7994d011f7c49ad88b9", "is_disabled": 0, "type": "electric_scooter", "is_reserved": 0, "fusion_lon": 0.0, "lat": 38.91937633333333, "rental_uris": {"ios": "https://dc.lft.to/lastmile_qr_scan", "android": "https://dc.lft.to/lastmile_qr_scan"}, "bike_id": "f077be4bca3ce7994d011f7c49ad88b9", "fusion_lat": 0.0}, {"lon": -77.01726233333333, "name": "3a1ce5f491d3b21fd8aff0c871b58d36", "is_disabled": 0, "type": "electric_scooter", "is_reserved": 0, "fusion_lon": 0.0, "lat": 38.91369366666667, "rental_uris": {"ios": "https://dc.lft.to/lastmile_qr_scan", "android": "https://dc.lft.to/lastmile_qr_scan"}, "bike_id": "3a1ce5f491d3b21fd8aff0c871b58d36", "fusion_lat": 0.0}, {"lon": -77.0295105, "name": "6df0fab5920030825847a6a933d4c9d7", "is_disabled": 0, "type": "electric_scooter", "is_reserved": 0, "fusion_lon": 0.0, "lat": 38.92778933333334, "rental_uris": {"ios": "https://dc.lft.to/lastmile_qr_scan", "android": "https://dc.lft.to/lastmile_qr_scan"}, "bike_id": "6df0fab5920030825847a6a933d4c9d7", "fusion_lat": 0.0}, {"lon": -77.0018265, "name": "9239b6523c10c53bd2365ce05b25c680", "is_disabled": 0, "type": "electric_scooter", "is_reserved": 0, "fusion_lon": 0.0, "lat": 38.8886095, "rental_uris": {"ios": "https://dc.lft.to/lastmile_qr_scan", "android": "https://dc.lft.to/lastmile_qr_scan"}, "bike_id": "9239b6523c10c53bd2365ce05b25c680", "fusion_lat": 0.0}, {"lon": -76.99838733333333, "name": "bc3f7e3f400c84f611a557c0b2f387c1", "is_disabled": 0, "type": "electric_scooter", "is_reserved": 0, "fusion_lon": 0.0, "lat": 38.90004966666667, "rental_uris": {"ios": "https://dc.lft.to/lastmile_qr_scan", "android": "https://dc.lft.to/lastmile_qr_scan"}, "bike_id": "bc3f7e3f400c84f611a557c0b2f387c1", "fusion_lat": 0.0}, {"lon": -76.93940366666666, "name": "675dc58ea191cb42053f320e96dcb5d8", "is_disabled": 0, "type": "electric_scooter", "is_reserved": 0, "fusion_lon": 0.0, "lat": 38.90862033333333, "rental_uris": {"ios": "https://dc.lft.to/lastmile_qr_scan", "android": "https://dc.lft.to/lastmile_qr_scan"}, "bike_id": "675dc58ea191cb42053f320e96dcb5d8", "fusion_lat": 0.0}, {"lon": -77.0317515, "name": "96f0207034c7c8d285f9c9782cf20ffb", "is_disabled": 0, "type": "electric_scooter", "is_reserved": 0, "fusion_lon": 0.0, "lat": 38.91614283333333, "rental_uris": {"ios": "https://dc.lft.to/lastmile_qr_scan", "android": "https://dc.lft.to/lastmile_qr_scan"}, "bike_id": "96f0207034c7c8d285f9c9782cf20ffb", "fusion_lat": 0.0}, {"lon": -77.03219083333333, "name": "dd2ab121e0258b2c8940a8bd322ffc6d", "is_disabled": 0, "type": "electric_scooter", "is_reserved": 0, "fusion_lon": 0.0, "lat": 38.89223633333334, "rental_uris": {"ios": "https://dc.lft.to/lastmile_qr_scan", "android": "https://dc.lft.to/lastmile_qr_scan"}, "bike_id": "dd2ab121e0258b2c8940a8bd322ffc6d", "fusion_lat": 0.0}, {"lon": -77.02903716666667, "name": "905f7a1cea909806a8ddec7a7e0bd3d0", "is_disabled": 0, "type": "electric_bike", "is_reserved": 0, "fusion_lon": 0.0, "lat": 38.940633166666665, "rental_uris": {"ios": "https://dc.lft.to/lastmile_qr_scan", "android": "https://dc.lft.to/lastmile_qr_scan"}, "bike_id": "905f7a1cea909806a8ddec7a7e0bd3d0", "fusion_lat": 0.0}, {"lon": -76.98825983333333, "name": "263883597dd6da2af0c982d2a78238ba", "is_disabled": 0, "type": "electric_scooter", "is_reserved": 0, "fusion_lon": 0.0, "lat": 38.89079816666667, "rental_uris": {"ios": "https://dc.lft.to/lastmile_qr_scan", "android": "https://dc.lft.to/lastmile_qr_scan"}, "bike_id": "263883597dd6da2af0c982d2a78238ba", "fusion_lat": 0.0}, {"lon": -77.01887166666667, "name": "ac60a106fef407f48b49ad89779f8ca7", "is_disabled": 0, "type": "electric_scooter", "is_reserved": 0, "fusion_lon": 0.0, "lat": 38.919549, "rental_uris": {"ios": "https://dc.lft.to/lastmile_qr_scan", "android": "https://dc.lft.to/lastmile_qr_scan"}, "bike_id": "ac60a106fef407f48b49ad89779f8ca7", "fusion_lat": 0.0}, {"lon": -77.0229325, "name": "536ac75d60c6668d0f247ae2326b980d", "is_disabled": 0, "type": "electric_scooter", "is_reserved": 0, "fusion_lon": 0.0, "lat": 38.926550666666664, "rental_uris": {"ios": "https://dc.lft.to/lastmile_qr_scan", "android": "https://dc.lft.to/lastmile_qr_scan"}, "bike_id": "536ac75d60c6668d0f247ae2326b980d", "fusion_lat": 0.0}, {"lon": -77.0369305, "name": "399dfe3c468c12f06ac5ab4254c1f052", "is_disabled": 0, "type": "electric_scooter", "is_reserved": 0, "fusion_lon": 0.0, "lat": 38.926419833333334, "rental_uris": {"ios": "https://dc.lft.to/lastmile_qr_scan", "android": "https://dc.lft.to/lastmile_qr_scan"}, "bike_id": "399dfe3c468c12f06ac5ab4254c1f052", "fusion_lat": 0.0}, {"lon": -77.00137316666667, "name": "e4074c9a13865ae9568ec0f94af8aaa9", "is_disabled": 0, "type": "electric_bike", "is_reserved": 0, "fusion_lon": 0.0, "lat": 38.995049333333334, "rental_uris": {"ios": "https://dc.lft.to/lastmile_qr_scan", "android": "https://dc.lft.to/lastmile_qr_scan"}, "bike_id": "e4074c9a13865ae9568ec0f94af8aaa9", "fusion_lat": 0.0}, {"lon": -77.01997333333334, "name": "eefd9683ce7e9567e95219933e284285", "is_disabled": 0, "type": "electric_bike", "is_reserved": 0, "fusion_lon": 0.0, "lat": 38.960241333333336, "rental_uris": {"ios": "https://dc.lft.to/lastmile_qr_scan", "android": "https://dc.lft.to/lastmile_qr_scan"}, "bike_id": "eefd9683ce7e9567e95219933e284285", "fusion_lat": 0.0}, {"lon": -76.96263483333334, "name": "21aeba3444ae1d6b746f36c312452be9", "is_disabled": 0, "type": "electric_bike", "is_reserved": 0, "fusion_lon": 0.0, "lat": 38.8824435, "rental_uris": {"ios": "https://dc.lft.to/lastmile_qr_scan", "android": "https://dc.lft.to/lastmile_qr_scan"}, "bike_id": "21aeba3444ae1d6b746f36c312452be9", "fusion_lat": 0.0}, {"lon": -77.02573616666666, "name": "4f0e2874429fbea2faa237ebc7af2905", "is_disabled": 0, "type": "electric_scooter", "is_reserved": 0, "fusion_lon": 0.0, "lat": 38.90416966666667, "rental_uris": {"ios": "https://dc.lft.to/lastmile_qr_scan", "android": "https://dc.lft.to/lastmile_qr_scan"}, "bike_id": "4f0e2874429fbea2faa237ebc7af2905", "fusion_lat": 0.0}, {"lon": -76.98937216666667, "name": "d0da1a36e23c36be99b938d946ceb303", "is_disabled": 0, "type": "electric_scooter", "is_reserved": 0, "fusion_lon": 0.0, "lat": 38.90007383333333, "rental_uris": {"ios": "https://dc.lft.to/lastmile_qr_scan", "android": "https://dc.lft.to/lastmile_qr_scan"}, "bike_id": "d0da1a36e23c36be99b938d946ceb303", "fusion_lat": 0.0}, {"lon": -77.005364, "name": "e2cea9be008a03643a88699efa00c7e7", "is_disabled": 0, "type": "electric_scooter", "is_reserved": 0, "fusion_lon": 0.0, "lat": 38.875470166666666, "rental_uris": {"ios": "https://dc.lft.to/lastmile_qr_scan", "android": "https://dc.lft.to/lastmile_qr_scan"}, "bike_id": "e2cea9be008a03643a88699efa00c7e7", "fusion_lat": 0.0}, {"lon": -77.017349, "name": "57381ce8a65a028d2b844b1cbc62276f", "is_disabled": 0, "type": "electric_scooter", "is_reserved": 0, "fusion_lon": 0.0, "lat": 38.877067333333336, "rental_uris": {"ios": "https://dc.lft.to/lastmile_qr_scan", "android": "https://dc.lft.to/lastmile_qr_scan"}, "bike_id": "57381ce8a65a028d2b844b1cbc62276f", "fusion_lat": 0.0}, {"lon": -76.94852166666666, "name": "c98e09b0d20575c3447c96cfdd4c2270", "is_disabled": 0, "type": "electric_scooter", "is_reserved": 0, "fusion_lon": 0.0, "lat": 38.896070333333334, "rental_uris": {"ios": "https://dc.lft.to/lastmile_qr_scan", "android": "https://dc.lft.to/lastmile_qr_scan"}, "bike_id": "c98e09b0d20575c3447c96cfdd4c2270", "fusion_lat": 0.0}, {"lon": -77.03138516666667, "name": "c0a893e6603e795c22528460fcc8f38e", "is_disabled": 0, "type": "electric_scooter", "is_reserved": 0, "fusion_lon": 0.0, "lat": 38.94200816666667, "rental_uris": {"ios": "https://dc.lft.to/lastmile_qr_scan", "android": "https://dc.lft.to/lastmile_qr_scan"}, "bike_id": "c0a893e6603e795c22528460fcc8f38e", "fusion_lat": 0.0}, {"lon": -77.06411166666666, "name": "a5d9dd014af98c10b93040c0c3e55e1b", "is_disabled": 0, "type": "electric_bike", "is_reserved": 0, "fusion_lon": 0.0, "lat": 38.9801415, "rental_uris": {"ios": "https://dc.lft.to/lastmile_qr_scan", "android": "https://dc.lft.to/lastmile_qr_scan"}, "bike_id": "a5d9dd014af98c10b93040c0c3e55e1b", "fusion_lat": 0.0}, {"lon": -77.04506633333334, "name": "2572e7615569f02e5f5494fd363f904f", "is_disabled": 0, "type": "electric_scooter", "is_reserved": 0, "fusion_lon": 0.0, "lat": 38.9127765, "rental_uris": {"ios": "https://dc.lft.to/lastmile_qr_scan", "android": "https://dc.lft.to/lastmile_qr_scan"}, "bike_id": "2572e7615569f02e5f5494fd363f904f", "fusion_lat": 0.0}, {"lon": -77.02513533333334, "name": "98f396cb544d8edbfc19e5b02f2efd7a", "is_disabled": 0, "type": "electric_scooter", "is_reserved": 0, "fusion_lon": 0.0, "lat": 38.9074125, "rental_uris": {"ios": "https://dc.lft.to/lastmile_qr_scan", "android": "https://dc.lft.to/lastmile_qr_scan"}, "bike_id": "98f396cb544d8edbfc19e5b02f2efd7a", "fusion_lat": 0.0}, {"lon": -77.01399633333334, "name": "a94618a6e1600a34288c6ff3272fc929", "is_disabled": 0, "type": "electric_scooter", "is_reserved": 0, "fusion_lon": 0.0, "lat": 38.9109995, "rental_uris": {"ios": "https://dc.lft.to/lastmile_qr_scan", "android": "https://dc.lft.to/lastmile_qr_scan"}, "bike_id": "a94618a6e1600a34288c6ff3272fc929", "fusion_lat": 0.0}, {"lon": -77.098781, "name": "8c6378ed6e05355d4a90afe096179440", "is_disabled": 0, "type": "electric_bike", "is_reserved": 0, "fusion_lon": 0.0, "lat": 38.94719883333333, "rental_uris": {"ios": "https://dc.lft.to/lastmile_qr_scan", "android": "https://dc.lft.to/lastmile_qr_scan"}, "bike_id": "8c6378ed6e05355d4a90afe096179440", "fusion_lat": 0.0}, {"lon": -76.98764366666667, "name": "6c89703b76efd3394e6ab46364919e43", "is_disabled": 0, "type": "electric_bike", "is_reserved": 0, "fusion_lon": 0.0, "lat": 38.85791483333333, "rental_uris": {"ios": "https://dc.lft.to/lastmile_qr_scan", "android": "https://dc.lft.to/lastmile_qr_scan"}, "bike_id": "6c89703b76efd3394e6ab46364919e43", "fusion_lat": 0.0}, {"lon": -77.0019075, "name": "2388dc9125364f9afdad57f65e40179d", "is_disabled": 0, "type": "electric_scooter", "is_reserved": 0, "fusion_lon": 0.0, "lat": 38.8948195, "rental_uris": {"ios": "https://dc.lft.to/lastmile_qr_scan", "android": "https://dc.lft.to/lastmile_qr_scan"}, "bike_id": "2388dc9125364f9afdad57f65e40179d", "fusion_lat": 0.0}, {"lon": -76.975608, "name": "ac4bf61111c6f3f328691096976de55d", "is_disabled": 0, "type": "electric_bike", "is_reserved": 0, "fusion_lon": 0.0, "lat": 38.9245495, "rental_uris": {"ios": "https://dc.lft.to/lastmile_qr_scan", "android": "https://dc.lft.to/lastmile_qr_scan"}, "bike_id": "ac4bf61111c6f3f328691096976de55d", "fusion_lat": 0.0}, {"lon": -77.03290016666666, "name": "dd2dea7e7e04848a997a5279276d3fbf", "is_disabled": 0, "type": "electric_scooter", "is_reserved": 0, "fusion_lon": 0.0, "lat": 38.93514583333334, "rental_uris": {"ios": "https://dc.lft.to/lastmile_qr_scan", "android": "https://dc.lft.to/lastmile_qr_scan"}, "bike_id": "dd2dea7e7e04848a997a5279276d3fbf", "fusion_lat": 0.0}, {"lon": -76.94731683333333, "name": "c7beb1aaebcef2cc967d9ea18736dbab", "is_disabled": 0, "type": "electric_bike", "is_reserved": 0, "fusion_lon": 0.0, "lat": 38.98386266666667, "rental_uris": {"ios": "https://dc.lft.to/lastmile_qr_scan", "android": "https://dc.lft.to/lastmile_qr_scan"}, "bike_id": "c7beb1aaebcef2cc967d9ea18736dbab", "fusion_lat": 0.0}, {"lon": -77.0387605, "name": "fb533cfa201c567332d81e206c0ae572", "is_disabled": 0, "type": "electric_scooter", "is_reserved": 0, "fusion_lon": 0.0, "lat": 38.917593833333335, "rental_uris": {"ios": "https://dc.lft.to/lastmile_qr_scan", "android": "https://dc.lft.to/lastmile_qr_scan"}, "bike_id": "fb533cfa201c567332d81e206c0ae572", "fusion_lat": 0.0}, {"lon": -77.07642083333333, "name": "4f0e757a2de5b1c5b89c2e0870a9066f", "is_disabled": 0, "type": "electric_scooter", "is_reserved": 0, "fusion_lon": 0.0, "lat": 38.92367483333334, "rental_uris": {"ios": "https://dc.lft.to/lastmile_qr_scan", "android": "https://dc.lft.to/lastmile_qr_scan"}, "bike_id": "4f0e757a2de5b1c5b89c2e0870a9066f", "fusion_lat": 0.0}, {"lon": -77.0021475, "name": "0467b765f2a80e904977a54f2c4129ab", "is_disabled": 0, "type": "electric_scooter", "is_reserved": 0, "fusion_lon": 0.0, "lat": 38.905125166666664, "rental_uris": {"ios": "https://dc.lft.to/lastmile_qr_scan", "android": "https://dc.lft.to/lastmile_qr_scan"}, "bike_id": "0467b765f2a80e904977a54f2c4129ab", "fusion_lat": 0.0}, {"lon": -77.012501, "name": "511b294fa992562b67768fe31dce91bb", "is_disabled": 0, "type": "electric_scooter", "is_reserved": 0, "fusion_lon": 0.0, "lat": 38.915757666666664, "rental_uris": {"ios": "https://dc.lft.to/lastmile_qr_scan", "android": "https://dc.lft.to/lastmile_qr_scan"}, "bike_id": "511b294fa992562b67768fe31dce91bb", "fusion_lat": 0.0}, {"lon": -77.007522, "name": "da6390ac34caea35cf3b5697f00bbbe5", "is_disabled": 0, "type": "electric_scooter", "is_reserved": 0, "fusion_lon": 0.0, "lat": 38.90968933333333, "rental_uris": {"ios": "https://dc.lft.to/lastmile_qr_scan", "android": "https://dc.lft.to/lastmile_qr_scan"}, "bike_id": "da6390ac34caea35cf3b5697f00bbbe5", "fusion_lat": 0.0}, {"lon": -77.002125, "name": "c8d002cb7adc673ee55ac735e82957be", "is_disabled": 0, "type": "electric_scooter", "is_reserved": 0, "fusion_lon": 0.0, "lat": 38.92453233333333, "rental_uris": {"ios": "https://dc.lft.to/lastmile_qr_scan", "android": "https://dc.lft.to/lastmile_qr_scan"}, "bike_id": "c8d002cb7adc673ee55ac735e82957be", "fusion_lat": 0.0}, {"lon": -76.99508716666666, "name": "46736b67566a8a2787527a96254ab6da", "is_disabled": 0, "type": "electric_scooter", "is_reserved": 0, "fusion_lon": 0.0, "lat": 38.88006416666666, "rental_uris": {"ios": "https://dc.lft.to/lastmile_qr_scan", "android": "https://dc.lft.to/lastmile_qr_scan"}, "bike_id": "46736b67566a8a2787527a96254ab6da", "fusion_lat": 0.0}, {"lon": -77.04688583333333, "name": "e334c9fcc9d0547a63c97eda8d9c887d", "is_disabled": 0, "type": "electric_scooter", "is_reserved": 0, "fusion_lon": 0.0, "lat": 38.89223033333333, "rental_uris": {"ios": "https://dc.lft.to/lastmile_qr_scan", "android": "https://dc.lft.to/lastmile_qr_scan"}, "bike_id": "e334c9fcc9d0547a63c97eda8d9c887d", "fusion_lat": 0.0}, {"lon": -77.0817245, "name": "83be25035212d8dedfa0dc16c853010c", "is_disabled": 0, "type": "electric_bike", "is_reserved": 0, "fusion_lon": 0.0, "lat": 38.907791833333334, "rental_uris": {"ios": "https://dc.lft.to/lastmile_qr_scan", "android": "https://dc.lft.to/lastmile_qr_scan"}, "bike_id": "83be25035212d8dedfa0dc16c853010c", "fusion_lat": 0.0}, {"lon": -77.02385633333333, "name": "d57cc07bd4eb1232625269ba85a6a9a9", "is_disabled": 0, "type": "electric_scooter", "is_reserved": 0, "fusion_lon": 0.0, "lat": 38.927017666666664, "rental_uris": {"ios": "https://dc.lft.to/lastmile_qr_scan", "android": "https://dc.lft.to/lastmile_qr_scan"}, "bike_id": "d57cc07bd4eb1232625269ba85a6a9a9", "fusion_lat": 0.0}, {"lon": -77.02765783333334, "name": "594392a24d61a285aae6f236138db632", "is_disabled": 0, "type": "electric_scooter", "is_reserved": 0, "fusion_lon": 0.0, "lat": 38.898579166666664, "rental_uris": {"ios": "https://dc.lft.to/lastmile_qr_scan", "android": "https://dc.lft.to/lastmile_qr_scan"}, "bike_id": "594392a24d61a285aae6f236138db632", "fusion_lat": 0.0}, {"lon": -77.010876, "name": "537c50ff8e3966bf2d659a915e57e19d", "is_disabled": 0, "type": "electric_scooter", "is_reserved": 0, "fusion_lon": 0.0, "lat": 38.903351, "rental_uris": {"ios": "https://dc.lft.to/lastmile_qr_scan", "android": "https://dc.lft.to/lastmile_qr_scan"}, "bike_id": "537c50ff8e3966bf2d659a915e57e19d", "fusion_lat": 0.0}, {"lon": -76.9816945, "name": "62f6f311b0734d2412e576325d4efe89", "is_disabled": 0, "type": "electric_bike", "is_reserved": 0, "fusion_lon": 0.0, "lat": 38.925939, "rental_uris": {"ios": "https://dc.lft.to/lastmile_qr_scan", "android": "https://dc.lft.to/lastmile_qr_scan"}, "bike_id": "62f6f311b0734d2412e576325d4efe89", "fusion_lat": 0.0}, {"lon": -77.00509383333333, "name": "8511eece288285fb9a84332b9145fd78", "is_disabled": 0, "type": "electric_scooter", "is_reserved": 0, "fusion_lon": 0.0, "lat": 38.905716, "rental_uris": {"ios": "https://dc.lft.to/lastmile_qr_scan", "android": "https://dc.lft.to/lastmile_qr_scan"}, "bike_id": "8511eece288285fb9a84332b9145fd78", "fusion_lat": 0.0}, {"lon": -77.03201733333333, "name": "d38621bdfdc1d24ad2ab28f83e283457", "is_disabled": 0, "type": "electric_scooter", "is_reserved": 0, "fusion_lon": 0.0, "lat": 38.9163705, "rental_uris": {"ios": "https://dc.lft.to/lastmile_qr_scan", "android": "https://dc.lft.to/lastmile_qr_scan"}, "bike_id": "d38621bdfdc1d24ad2ab28f83e283457", "fusion_lat": 0.0}, {"lon": -77.23176166666667, "name": "db4fb82302d786ddebfc40d5181396c7", "is_disabled": 0, "type": "electric_bike", "is_reserved": 0, "fusion_lon": 0.0, "lat": 38.9289575, "rental_uris": {"ios": "https://dc.lft.to/lastmile_qr_scan", "android": "https://dc.lft.to/lastmile_qr_scan"}, "bike_id": "db4fb82302d786ddebfc40d5181396c7", "fusion_lat": 0.0}, {"lon": -77.04899283333333, "name": "7e02c264a6fa5da4f374c906de71a05c", "is_disabled": 0, "type": "electric_scooter", "is_reserved": 0, "fusion_lon": 0.0, "lat": 38.90068466666666, "rental_uris": {"ios": "https://dc.lft.to/lastmile_qr_scan", "android": "https://dc.lft.to/lastmile_qr_scan"}, "bike_id": "7e02c264a6fa5da4f374c906de71a05c", "fusion_lat": 0.0}, {"lon": -77.027606, "name": "3a3d738545065083e2f4afc7c342c015", "is_disabled": 0, "type": "electric_scooter", "is_reserved": 0, "fusion_lon": 0.0, "lat": 38.927731333333334, "rental_uris": {"ios": "https://dc.lft.to/lastmile_qr_scan", "android": "https://dc.lft.to/lastmile_qr_scan"}, "bike_id": "3a3d738545065083e2f4afc7c342c015", "fusion_lat": 0.0}, {"lon": -77.01197683333334, "name": "b476e4fce12eefcbaa552a235edc559f", "is_disabled": 0, "type": "electric_scooter", "is_reserved": 0, "fusion_lon": 0.0, "lat": 38.9169925, "rental_uris": {"ios": "https://dc.lft.to/lastmile_qr_scan", "android": "https://dc.lft.to/lastmile_qr_scan"}, "bike_id": "b476e4fce12eefcbaa552a235edc559f", "fusion_lat": 0.0}, {"lon": -77.02142233333333, "name": "49ead7b2c0131914aa7d8ffd1a43876f", "is_disabled": 0, "type": "electric_scooter", "is_reserved": 0, "fusion_lon": 0.0, "lat": 38.93301916666667, "rental_uris": {"ios": "https://dc.lft.to/lastmile_qr_scan", "android": "https://dc.lft.to/lastmile_qr_scan"}, "bike_id": "49ead7b2c0131914aa7d8ffd1a43876f", "fusion_lat": 0.0}, {"lon": -77.01511716666667, "name": "3e10de164c809e47ceea31b190ed10fc", "is_disabled": 0, "type": "electric_scooter", "is_reserved": 0, "fusion_lon": 0.0, "lat": 38.910024, "rental_uris": {"ios": "https://dc.lft.to/lastmile_qr_scan", "android": "https://dc.lft.to/lastmile_qr_scan"}, "bike_id": "3e10de164c809e47ceea31b190ed10fc", "fusion_lat": 0.0}, {"lon": -77.03173133333334, "name": "3b996859be9b8a31b94211565226e583", "is_disabled": 0, "type": "electric_scooter", "is_reserved": 0, "fusion_lon": 0.0, "lat": 38.892293333333335, "rental_uris": {"ios": "https://dc.lft.to/lastmile_qr_scan", "android": "https://dc.lft.to/lastmile_qr_scan"}, "bike_id": "3b996859be9b8a31b94211565226e583", "fusion_lat": 0.0}, {"lon": -77.02390616666666, "name": "dd69fa9293b9e74dcddbb88add5c5a00", "is_disabled": 0, "type": "electric_scooter", "is_reserved": 0, "fusion_lon": 0.0, "lat": 38.91661333333333, "rental_uris": {"ios": "https://dc.lft.to/lastmile_qr_scan", "android": "https://dc.lft.to/lastmile_qr_scan"}, "bike_id": "dd69fa9293b9e74dcddbb88add5c5a00", "fusion_lat": 0.0}, {"lon": -77.02195116666667, "name": "e5771261457b679429884e3b23748967", "is_disabled": 0, "type": "electric_scooter", "is_reserved": 0, "fusion_lon": 0.0, "lat": 38.9147705, "rental_uris": {"ios": "https://dc.lft.to/lastmile_qr_scan", "android": "https://dc.lft.to/lastmile_qr_scan"}, "bike_id": "e5771261457b679429884e3b23748967", "fusion_lat": 0.0}, {"lon": -77.113241, "name": "295f5d969b2b9ecf65c90a80b96b570a", "is_disabled": 0, "type": "electric_bike", "is_reserved": 0, "fusion_lon": 0.0, "lat": 38.831423, "rental_uris": {"ios": "https://dc.lft.to/lastmile_qr_scan", "android": "https://dc.lft.to/lastmile_qr_scan"}, "bike_id": "295f5d969b2b9ecf65c90a80b96b570a", "fusion_lat": 0.0}, {"lon": -77.046148, "name": "2716d15c14898957a7cae2e8cf21edd6", "is_disabled": 0, "type": "electric_scooter", "is_reserved": 0, "fusion_lon": 0.0, "lat": 38.923325, "rental_uris": {"ios": "https://dc.lft.to/lastmile_qr_scan", "android": "https://dc.lft.to/lastmile_qr_scan"}, "bike_id": "2716d15c14898957a7cae2e8cf21edd6", "fusion_lat": 0.0}, {"lon": -77.0438435, "name": "631db3a37b563bbd41beb335f6a68a1a", "is_disabled": 0, "type": "electric_scooter", "is_reserved": 0, "fusion_lon": 0.0, "lat": 38.9236085, "rental_uris": {"ios": "https://dc.lft.to/lastmile_qr_scan", "android": "https://dc.lft.to/lastmile_qr_scan"}, "bike_id": "631db3a37b563bbd41beb335f6a68a1a", "fusion_lat": 0.0}, {"lon": -77.0207975, "name": "6779914d8abf48cc708c54337fc05233", "is_disabled": 0, "type": "electric_scooter", "is_reserved": 0, "fusion_lon": 0.0, "lat": 38.927180666666665, "rental_uris": {"ios": "https://dc.lft.to/lastmile_qr_scan", "android": "https://dc.lft.to/lastmile_qr_scan"}, "bike_id": "6779914d8abf48cc708c54337fc05233", "fusion_lat": 0.0}, {"lon": -77.00368666666667, "name": "3f8440b5517dda1cd08f87df7f65bae7", "is_disabled": 0, "type": "electric_scooter", "is_reserved": 0, "fusion_lon": 0.0, "lat": 38.9111, "rental_uris": {"ios": "https://dc.lft.to/lastmile_qr_scan", "android": "https://dc.lft.to/lastmile_qr_scan"}, "bike_id": "3f8440b5517dda1cd08f87df7f65bae7", "fusion_lat": 0.0}, {"lon": -77.02710616666667, "name": "06a7753db49674a67eac859d076775ca", "is_disabled": 0, "type": "electric_scooter", "is_reserved": 0, "fusion_lon": 0.0, "lat": 38.918896, "rental_uris": {"ios": "https://dc.lft.to/lastmile_qr_scan", "android": "https://dc.lft.to/lastmile_qr_scan"}, "bike_id": "06a7753db49674a67eac859d076775ca", "fusion_lat": 0.0}, {"lon": -77.04518716666666, "name": "73fd935459eeef532f52918dd743f197", "is_disabled": 0, "type": "electric_scooter", "is_reserved": 0, "fusion_lon": 0.0, "lat": 38.91967283333334, "rental_uris": {"ios": "https://dc.lft.to/lastmile_qr_scan", "android": "https://dc.lft.to/lastmile_qr_scan"}, "bike_id": "73fd935459eeef532f52918dd743f197", "fusion_lat": 0.0}, {"lon": -77.02704966666667, "name": "c508f4216273c6642eba8a76bd475b61", "is_disabled": 0, "type": "electric_scooter", "is_reserved": 0, "fusion_lon": 0.0, "lat": 38.90577483333333, "rental_uris": {"ios": "https://dc.lft.to/lastmile_qr_scan", "android": "https://dc.lft.to/lastmile_qr_scan"}, "bike_id": "c508f4216273c6642eba8a76bd475b61", "fusion_lat": 0.0}, {"lon": -77.07916333333333, "name": "6385a861bc4b7d26e251818a8c610968", "is_disabled": 0, "type": "electric_bike", "is_reserved": 0, "fusion_lon": 0.0, "lat": 38.83830116666667, "rental_uris": {"ios": "https://dc.lft.to/lastmile_qr_scan", "android": "https://dc.lft.to/lastmile_qr_scan"}, "bike_id": "6385a861bc4b7d26e251818a8c610968", "fusion_lat": 0.0}, {"lon": -77.0145115, "name": "67f0d1f787f8ed4d5f5938a6b239fd1e", "is_disabled": 0, "type": "electric_scooter", "is_reserved": 0, "fusion_lon": 0.0, "lat": 38.95815416666667, "rental_uris": {"ios": "https://dc.lft.to/lastmile_qr_scan", "android": "https://dc.lft.to/lastmile_qr_scan"}, "bike_id": "67f0d1f787f8ed4d5f5938a6b239fd1e", "fusion_lat": 0.0}, {"lon": -76.93464133333333, "name": "b46fc28cbeeb221d117c1beae6ab2f38", "is_disabled": 0, "type": "electric_scooter", "is_reserved": 0, "fusion_lon": 0.0, "lat": 38.901862, "rental_uris": {"ios": "https://dc.lft.to/lastmile_qr_scan", "android": "https://dc.lft.to/lastmile_qr_scan"}, "bike_id": "b46fc28cbeeb221d117c1beae6ab2f38", "fusion_lat": 0.0}, {"lon": -77.01946733333334, "name": "d2491f31fb8ee3b3ae2f2802862ce641", "is_disabled": 0, "type": "electric_scooter", "is_reserved": 0, "fusion_lon": 0.0, "lat": 38.92418583333333, "rental_uris": {"ios": "https://dc.lft.to/lastmile_qr_scan", "android": "https://dc.lft.to/lastmile_qr_scan"}, "bike_id": "d2491f31fb8ee3b3ae2f2802862ce641", "fusion_lat": 0.0}, {"lon": -77.04162016666666, "name": "8e78e0e73757eb4e444f70c342ae8c20", "is_disabled": 0, "type": "electric_scooter", "is_reserved": 0, "fusion_lon": 0.0, "lat": 38.91651983333333, "rental_uris": {"ios": "https://dc.lft.to/lastmile_qr_scan", "android": "https://dc.lft.to/lastmile_qr_scan"}, "bike_id": "8e78e0e73757eb4e444f70c342ae8c20", "fusion_lat": 0.0}, {"lon": -77.00410483333333, "name": "ac627515ae23e35e67f7133387d7a4c4", "is_disabled": 0, "type": "electric_bike", "is_reserved": 0, "fusion_lon": 0.0, "lat": 38.985294, "rental_uris": {"ios": "https://dc.lft.to/lastmile_qr_scan", "android": "https://dc.lft.to/lastmile_qr_scan"}, "bike_id": "ac627515ae23e35e67f7133387d7a4c4", "fusion_lat": 0.0}, {"lon": -77.024109, "name": "350e1645bf7353bea2da6700fd2fc4f5", "is_disabled": 0, "type": "electric_scooter", "is_reserved": 0, "fusion_lon": 0.0, "lat": 38.920911, "rental_uris": {"ios": "https://dc.lft.to/lastmile_qr_scan", "android": "https://dc.lft.to/lastmile_qr_scan"}, "bike_id": "350e1645bf7353bea2da6700fd2fc4f5", "fusion_lat": 0.0}, {"lon": -76.93210816666667, "name": "bc798e4ccec6dfa8c8aef960116b27e5", "is_disabled": 0, "type": "electric_scooter", "is_reserved": 0, "fusion_lon": 0.0, "lat": 38.8967005, "rental_uris": {"ios": "https://dc.lft.to/lastmile_qr_scan", "android": "https://dc.lft.to/lastmile_qr_scan"}, "bike_id": "bc798e4ccec6dfa8c8aef960116b27e5", "fusion_lat": 0.0}, {"lon": -77.031787, "name": "36b074051088a8eca167863b09a70c4e", "is_disabled": 0, "type": "electric_scooter", "is_reserved": 0, "fusion_lon": 0.0, "lat": 38.90997983333333, "rental_uris": {"ios": "https://dc.lft.to/lastmile_qr_scan", "android": "https://dc.lft.to/lastmile_qr_scan"}, "bike_id": "36b074051088a8eca167863b09a70c4e", "fusion_lat": 0.0}, {"lon": -77.04891733333334, "name": "1cd5626a10d4f26a19b8d1a6a2886cbc", "is_disabled": 0, "type": "electric_scooter", "is_reserved": 0, "fusion_lon": 0.0, "lat": 38.9159545, "rental_uris": {"ios": "https://dc.lft.to/lastmile_qr_scan", "android": "https://dc.lft.to/lastmile_qr_scan"}, "bike_id": "1cd5626a10d4f26a19b8d1a6a2886cbc", "fusion_lat": 0.0}, {"lon": -77.03178516666667, "name": "f5828cf9b31f069a3232694708d706bb", "is_disabled": 0, "type": "electric_scooter", "is_reserved": 0, "fusion_lon": 0.0, "lat": 38.89226083333333, "rental_uris": {"ios": "https://dc.lft.to/lastmile_qr_scan", "android": "https://dc.lft.to/lastmile_qr_scan"}, "bike_id": "f5828cf9b31f069a3232694708d706bb", "fusion_lat": 0.0}, {"lon": -77.00706816666667, "name": "46d9614b00c7274930b7aacaa8df4a4b", "is_disabled": 0, "type": "electric_scooter", "is_reserved": 0, "fusion_lon": 0.0, "lat": 38.907333666666666, "rental_uris": {"ios": "https://dc.lft.to/lastmile_qr_scan", "android": "https://dc.lft.to/lastmile_qr_scan"}, "bike_id": "46d9614b00c7274930b7aacaa8df4a4b", "fusion_lat": 0.0}, {"lon": -76.9576655, "name": "7f4e414ecb929098d3abb19b3b56bfe1", "is_disabled": 0, "type": "electric_scooter", "is_reserved": 0, "fusion_lon": 0.0, "lat": 38.88357883333333, "rental_uris": {"ios": "https://dc.lft.to/lastmile_qr_scan", "android": "https://dc.lft.to/lastmile_qr_scan"}, "bike_id": "7f4e414ecb929098d3abb19b3b56bfe1", "fusion_lat": 0.0}, {"lon": -77.0229915, "name": "e627165863fa1b930279f5add6199046", "is_disabled": 0, "type": "electric_scooter", "is_reserved": 0, "fusion_lon": 0.0, "lat": 38.91792616666667, "rental_uris": {"ios": "https://dc.lft.to/lastmile_qr_scan", "android": "https://dc.lft.to/lastmile_qr_scan"}, "bike_id": "e627165863fa1b930279f5add6199046", "fusion_lat": 0.0}, {"lon": -77.007867, "name": "ab43d107fb3c1a268c7a985e3b378e97", "is_disabled": 0, "type": "electric_scooter", "is_reserved": 0, "fusion_lon": 0.0, "lat": 38.926703333333336, "rental_uris": {"ios": "https://dc.lft.to/lastmile_qr_scan", "android": "https://dc.lft.to/lastmile_qr_scan"}, "bike_id": "ab43d107fb3c1a268c7a985e3b378e97", "fusion_lat": 0.0}, {"lon": -77.02795616666667, "name": "a71e07ebf5d31af781f402777159ebec", "is_disabled": 0, "type": "electric_scooter", "is_reserved": 0, "fusion_lon": 0.0, "lat": 38.941801833333336, "rental_uris": {"ios": "https://dc.lft.to/lastmile_qr_scan", "android": "https://dc.lft.to/lastmile_qr_scan"}, "bike_id": "a71e07ebf5d31af781f402777159ebec", "fusion_lat": 0.0}, {"lon": -77.03875766666667, "name": "0ba55a28c5c91c3c9ff031a0c5db4c27", "is_disabled": 0, "type": "electric_scooter", "is_reserved": 0, "fusion_lon": 0.0, "lat": 38.9312695, "rental_uris": {"ios": "https://dc.lft.to/lastmile_qr_scan", "android": "https://dc.lft.to/lastmile_qr_scan"}, "bike_id": "0ba55a28c5c91c3c9ff031a0c5db4c27", "fusion_lat": 0.0}, {"lon": -77.00491516666666, "name": "19b12a3d96127bcf3a161b6c59a119e2", "is_disabled": 0, "type": "electric_scooter", "is_reserved": 0, "fusion_lon": 0.0, "lat": 38.91695883333333, "rental_uris": {"ios": "https://dc.lft.to/lastmile_qr_scan", "android": "https://dc.lft.to/lastmile_qr_scan"}, "bike_id": "19b12a3d96127bcf3a161b6c59a119e2", "fusion_lat": 0.0}, {"lon": -77.02951066666667, "name": "0e4184006823cb55a71aa3ad93a7dbcb", "is_disabled": 0, "type": "electric_scooter", "is_reserved": 0, "fusion_lon": 0.0, "lat": 38.905035166666664, "rental_uris": {"ios": "https://dc.lft.to/lastmile_qr_scan", "android": "https://dc.lft.to/lastmile_qr_scan"}, "bike_id": "0e4184006823cb55a71aa3ad93a7dbcb", "fusion_lat": 0.0}, {"lon": -77.02057366666666, "name": "5d382fda977ed36528f4ca5c033d860c", "is_disabled": 0, "type": "electric_scooter", "is_reserved": 0, "fusion_lon": 0.0, "lat": 38.9237285, "rental_uris": {"ios": "https://dc.lft.to/lastmile_qr_scan", "android": "https://dc.lft.to/lastmile_qr_scan"}, "bike_id": "5d382fda977ed36528f4ca5c033d860c", "fusion_lat": 0.0}, {"lon": -76.91722466666667, "name": "cb8026eb5d90e67eccb27f657a4aeb81", "is_disabled": 0, "type": "electric_bike", "is_reserved": 0, "fusion_lon": 0.0, "lat": 38.88028, "rental_uris": {"ios": "https://dc.lft.to/lastmile_qr_scan", "android": "https://dc.lft.to/lastmile_qr_scan"}, "bike_id": "cb8026eb5d90e67eccb27f657a4aeb81", "fusion_lat": 0.0}, {"lon": -77.07219916666666, "name": "e2ca0bce805abc67db31294cd2f67141", "is_disabled": 0, "type": "electric_scooter", "is_reserved": 0, "fusion_lon": 0.0, "lat": 38.9136555, "rental_uris": {"ios": "https://dc.lft.to/lastmile_qr_scan", "android": "https://dc.lft.to/lastmile_qr_scan"}, "bike_id": "e2ca0bce805abc67db31294cd2f67141", "fusion_lat": 0.0}, {"lon": -77.02781616666667, "name": "93dbb0212cad5b22eb6790ee955159f7", "is_disabled": 0, "type": "electric_scooter", "is_reserved": 0, "fusion_lon": 0.0, "lat": 38.955463333333334, "rental_uris": {"ios": "https://dc.lft.to/lastmile_qr_scan", "android": "https://dc.lft.to/lastmile_qr_scan"}, "bike_id": "93dbb0212cad5b22eb6790ee955159f7", "fusion_lat": 0.0}, {"lon": -76.94881583333333, "name": "23e7db8c3a29c7ac908bd5f7d174608e", "is_disabled": 0, "type": "electric_scooter", "is_reserved": 0, "fusion_lon": 0.0, "lat": 38.895088, "rental_uris": {"ios": "https://dc.lft.to/lastmile_qr_scan", "android": "https://dc.lft.to/lastmile_qr_scan"}, "bike_id": "23e7db8c3a29c7ac908bd5f7d174608e", "fusion_lat": 0.0}, {"lon": -77.02591916666667, "name": "6ca55149100aaacc347f1b0f296a384c", "is_disabled": 0, "type": "electric_scooter", "is_reserved": 0, "fusion_lon": 0.0, "lat": 38.963949, "rental_uris": {"ios": "https://dc.lft.to/lastmile_qr_scan", "android": "https://dc.lft.to/lastmile_qr_scan"}, "bike_id": "6ca55149100aaacc347f1b0f296a384c", "fusion_lat": 0.0}, {"lon": -77.03667916666667, "name": "bcc1123c28471214a5b9cc284cb5dab3", "is_disabled": 0, "type": "electric_scooter", "is_reserved": 0, "fusion_lon": 0.0, "lat": 38.9363445, "rental_uris": {"ios": "https://dc.lft.to/lastmile_qr_scan", "android": "https://dc.lft.to/lastmile_qr_scan"}, "bike_id": "bcc1123c28471214a5b9cc284cb5dab3", "fusion_lat": 0.0}, {"lon": -77.09689216666666, "name": "09aec3d89917e088237ec120f0bd3095", "is_disabled": 0, "type": "electric_bike", "is_reserved": 0, "fusion_lon": 0.0, "lat": 38.80741883333334, "rental_uris": {"ios": "https://dc.lft.to/lastmile_qr_scan", "android": "https://dc.lft.to/lastmile_qr_scan"}, "bike_id": "09aec3d89917e088237ec120f0bd3095", "fusion_lat": 0.0}, {"lon": -77.23395516666666, "name": "ed7d008efc02f81be823baccb4d8c543", "is_disabled": 0, "type": "electric_bike", "is_reserved": 0, "fusion_lon": 0.0, "lat": 38.871781, "rental_uris": {"ios": "https://dc.lft.to/lastmile_qr_scan", "android": "https://dc.lft.to/lastmile_qr_scan"}, "bike_id": "ed7d008efc02f81be823baccb4d8c543", "fusion_lat": 0.0}, {"lon": -77.03203383333333, "name": "d5c25de010582e58e6f32d1f8995001a", "is_disabled": 0, "type": "electric_scooter", "is_reserved": 0, "fusion_lon": 0.0, "lat": 38.91611433333333, "rental_uris": {"ios": "https://dc.lft.to/lastmile_qr_scan", "android": "https://dc.lft.to/lastmile_qr_scan"}, "bike_id": "d5c25de010582e58e6f32d1f8995001a", "fusion_lat": 0.0}, {"lon": -77.0200005, "name": "b51507c5303e88a495a4342b8cfdb4b8", "is_disabled": 0, "type": "electric_scooter", "is_reserved": 0, "fusion_lon": 0.0, "lat": 38.901511, "rental_uris": {"ios": "https://dc.lft.to/lastmile_qr_scan", "android": "https://dc.lft.to/lastmile_qr_scan"}, "bike_id": "b51507c5303e88a495a4342b8cfdb4b8", "fusion_lat": 0.0}, {"lon": -76.99909816666667, "name": "8482bd711bb1d044b1498d34111a0471", "is_disabled": 0, "type": "electric_scooter", "is_reserved": 0, "fusion_lon": 0.0, "lat": 38.92457683333333, "rental_uris": {"ios": "https://dc.lft.to/lastmile_qr_scan", "android": "https://dc.lft.to/lastmile_qr_scan"}, "bike_id": "8482bd711bb1d044b1498d34111a0471", "fusion_lat": 0.0}, {"lon": -77.07150716666666, "name": "69fbb4fa9675880f9ca7ee9debde39ae", "is_disabled": 0, "type": "electric_scooter", "is_reserved": 0, "fusion_lon": 0.0, "lat": 38.90869716666667, "rental_uris": {"ios": "https://dc.lft.to/lastmile_qr_scan", "android": "https://dc.lft.to/lastmile_qr_scan"}, "bike_id": "69fbb4fa9675880f9ca7ee9debde39ae", "fusion_lat": 0.0}, {"lon": -76.99276166666667, "name": "019e4ac9b5bc838a999bda6bf845d34d", "is_disabled": 0, "type": "electric_scooter", "is_reserved": 0, "fusion_lon": 0.0, "lat": 38.90316133333334, "rental_uris": {"ios": "https://dc.lft.to/lastmile_qr_scan", "android": "https://dc.lft.to/lastmile_qr_scan"}, "bike_id": "019e4ac9b5bc838a999bda6bf845d34d", "fusion_lat": 0.0}, {"lon": -77.0113215, "name": "82e7677ab22494d691a72a105cf5e3f6", "is_disabled": 0, "type": "electric_scooter", "is_reserved": 0, "fusion_lon": 0.0, "lat": 38.9073325, "rental_uris": {"ios": "https://dc.lft.to/lastmile_qr_scan", "android": "https://dc.lft.to/lastmile_qr_scan"}, "bike_id": "82e7677ab22494d691a72a105cf5e3f6", "fusion_lat": 0.0}, {"lon": -77.015256, "name": "e8ed249570acf6fad0a8041ea06c71ee", "is_disabled": 0, "type": "electric_scooter", "is_reserved": 0, "fusion_lon": 0.0, "lat": 38.87279266666667, "rental_uris": {"ios": "https://dc.lft.to/lastmile_qr_scan", "android": "https://dc.lft.to/lastmile_qr_scan"}, "bike_id": "e8ed249570acf6fad0a8041ea06c71ee", "fusion_lat": 0.0}, {"lon": -77.09402666666666, "name": "d325b240a2b3d6318143bd624e0c7d1c", "is_disabled": 0, "type": "electric_bike", "is_reserved": 0, "fusion_lon": 0.0, "lat": 38.9781205, "rental_uris": {"ios": "https://dc.lft.to/lastmile_qr_scan", "android": "https://dc.lft.to/lastmile_qr_scan"}, "bike_id": "d325b240a2b3d6318143bd624e0c7d1c", "fusion_lat": 0.0}, {"lon": -77.021253, "name": "0faee6b7fe4f97b61809cee94f8d5918", "is_disabled": 0, "type": "electric_scooter", "is_reserved": 0, "fusion_lon": 0.0, "lat": 38.921242666666664, "rental_uris": {"ios": "https://dc.lft.to/lastmile_qr_scan", "android": "https://dc.lft.to/lastmile_qr_scan"}, "bike_id": "0faee6b7fe4f97b61809cee94f8d5918", "fusion_lat": 0.0}, {"lon": -77.018933, "name": "2f398c760be30aa19d5807c37b622d71", "is_disabled": 0, "type": "electric_scooter", "is_reserved": 0, "fusion_lon": 0.0, "lat": 38.9138565, "rental_uris": {"ios": "https://dc.lft.to/lastmile_qr_scan", "android": "https://dc.lft.to/lastmile_qr_scan"}, "bike_id": "2f398c760be30aa19d5807c37b622d71", "fusion_lat": 0.0}, {"lon": -76.99235816666666, "name": "5d9bb93b1f84fa2ff2574008b20b145b", "is_disabled": 0, "type": "electric_scooter", "is_reserved": 0, "fusion_lon": 0.0, "lat": 38.9021265, "rental_uris": {"ios": "https://dc.lft.to/lastmile_qr_scan", "android": "https://dc.lft.to/lastmile_qr_scan"}, "bike_id": "5d9bb93b1f84fa2ff2574008b20b145b", "fusion_lat": 0.0}, {"lon": -77.02518933333333, "name": "2833919fd519ec9d48dabaf01ccd28ba", "is_disabled": 0, "type": "electric_scooter", "is_reserved": 0, "fusion_lon": 0.0, "lat": 38.9456795, "rental_uris": {"ios": "https://dc.lft.to/lastmile_qr_scan", "android": "https://dc.lft.to/lastmile_qr_scan"}, "bike_id": "2833919fd519ec9d48dabaf01ccd28ba", "fusion_lat": 0.0}, {"lon": -77.019502, "name": "f3c0e7423dfab75b13161dbdd062b574", "is_disabled": 0, "type": "electric_scooter", "is_reserved": 0, "fusion_lon": 0.0, "lat": 38.9242065, "rental_uris": {"ios": "https://dc.lft.to/lastmile_qr_scan", "android": "https://dc.lft.to/lastmile_qr_scan"}, "bike_id": "f3c0e7423dfab75b13161dbdd062b574", "fusion_lat": 0.0}, {"lon": -77.0215285, "name": "1cea0054c75e4f5147d379f1bb7d6ad1", "is_disabled": 0, "type": "electric_scooter", "is_reserved": 0, "fusion_lon": 0.0, "lat": 38.926069166666665, "rental_uris": {"ios": "https://dc.lft.to/lastmile_qr_scan", "android": "https://dc.lft.to/lastmile_qr_scan"}, "bike_id": "1cea0054c75e4f5147d379f1bb7d6ad1", "fusion_lat": 0.0}, {"lon": -77.012232, "name": "00808b084c8660f22f67ef77f5048423", "is_disabled": 0, "type": "electric_scooter", "is_reserved": 0, "fusion_lon": 0.0, "lat": 38.914528, "rental_uris": {"ios": "https://dc.lft.to/lastmile_qr_scan", "android": "https://dc.lft.to/lastmile_qr_scan"}, "bike_id": "00808b084c8660f22f67ef77f5048423", "fusion_lat": 0.0}, {"lon": -77.003378, "name": "fc786237b8b6af58c489b282c1f75095", "is_disabled": 0, "type": "electric_bike", "is_reserved": 0, "fusion_lon": 0.0, "lat": 38.920219333333335, "rental_uris": {"ios": "https://dc.lft.to/lastmile_qr_scan", "android": "https://dc.lft.to/lastmile_qr_scan"}, "bike_id": "fc786237b8b6af58c489b282c1f75095", "fusion_lat": 0.0}, {"lon": -77.04999283333333, "name": "206dba29ca1e807fad74a09b1d0f3dda", "is_disabled": 0, "type": "electric_scooter", "is_reserved": 0, "fusion_lon": 0.0, "lat": 38.892297, "rental_uris": {"ios": "https://dc.lft.to/lastmile_qr_scan", "android": "https://dc.lft.to/lastmile_qr_scan"}, "bike_id": "206dba29ca1e807fad74a09b1d0f3dda", "fusion_lat": 0.0}, {"lon": -77.05749033333333, "name": "2394eda5d19aab34f9ed01e447208baf", "is_disabled": 0, "type": "electric_scooter", "is_reserved": 0, "fusion_lon": 0.0, "lat": 38.92483683333333, "rental_uris": {"ios": "https://dc.lft.to/lastmile_qr_scan", "android": "https://dc.lft.to/lastmile_qr_scan"}, "bike_id": "2394eda5d19aab34f9ed01e447208baf", "fusion_lat": 0.0}, {"lon": -77.04472133333333, "name": "e6d35ab6eedd1c440f0197cc719f4358", "is_disabled": 0, "type": "electric_scooter", "is_reserved": 0, "fusion_lon": 0.0, "lat": 38.9153555, "rental_uris": {"ios": "https://dc.lft.to/lastmile_qr_scan", "android": "https://dc.lft.to/lastmile_qr_scan"}, "bike_id": "e6d35ab6eedd1c440f0197cc719f4358", "fusion_lat": 0.0}, {"lon": -76.99069683333333, "name": "c0be33f1a28523c5cc6e261e33f5e73f", "is_disabled": 0, "type": "electric_bike", "is_reserved": 0, "fusion_lon": 0.0, "lat": 38.89817383333333, "rental_uris": {"ios": "https://dc.lft.to/lastmile_qr_scan", "android": "https://dc.lft.to/lastmile_qr_scan"}, "bike_id": "c0be33f1a28523c5cc6e261e33f5e73f", "fusion_lat": 0.0}, {"lon": -77.0164945, "name": "65b5f900170d8287b94f8452718e9251", "is_disabled": 0, "type": "electric_scooter", "is_reserved": 0, "fusion_lon": 0.0, "lat": 38.9038675, "rental_uris": {"ios": "https://dc.lft.to/lastmile_qr_scan", "android": "https://dc.lft.to/lastmile_qr_scan"}, "bike_id": "65b5f900170d8287b94f8452718e9251", "fusion_lat": 0.0}, {"lon": -77.05708783333333, "name": "9b427b9cc58a559a5506d6fcee2ae075", "is_disabled": 0, "type": "electric_scooter", "is_reserved": 0, "fusion_lon": 0.0, "lat": 38.926131166666664, "rental_uris": {"ios": "https://dc.lft.to/lastmile_qr_scan", "android": "https://dc.lft.to/lastmile_qr_scan"}, "bike_id": "9b427b9cc58a559a5506d6fcee2ae075", "fusion_lat": 0.0}, {"lon": -77.0315215, "name": "bbe2f16558596e202f5364fea1eef0b3", "is_disabled": 0, "type": "electric_scooter", "is_reserved": 0, "fusion_lon": 0.0, "lat": 38.95933433333333, "rental_uris": {"ios": "https://dc.lft.to/lastmile_qr_scan", "android": "https://dc.lft.to/lastmile_qr_scan"}, "bike_id": "bbe2f16558596e202f5364fea1eef0b3", "fusion_lat": 0.0}, {"lon": -77.02401633333334, "name": "34dabfc9fe252d99e8f8d00c553265d3", "is_disabled": 0, "type": "electric_scooter", "is_reserved": 0, "fusion_lon": 0.0, "lat": 38.91624816666667, "rental_uris": {"ios": "https://dc.lft.to/lastmile_qr_scan", "android": "https://dc.lft.to/lastmile_qr_scan"}, "bike_id": "34dabfc9fe252d99e8f8d00c553265d3", "fusion_lat": 0.0}, {"lon": -77.041585, "name": "4643046a5cf08464b4e8c98ffd42f3e8", "is_disabled": 0, "type": "electric_scooter", "is_reserved": 0, "fusion_lon": 0.0, "lat": 38.90735383333333, "rental_uris": {"ios": "https://dc.lft.to/lastmile_qr_scan", "android": "https://dc.lft.to/lastmile_qr_scan"}, "bike_id": "4643046a5cf08464b4e8c98ffd42f3e8", "fusion_lat": 0.0}, {"lon": -77.03582816666666, "name": "090051408936456f253dc535d2182a01", "is_disabled": 0, "type": "electric_scooter", "is_reserved": 0, "fusion_lon": 0.0, "lat": 38.92695633333334, "rental_uris": {"ios": "https://dc.lft.to/lastmile_qr_scan", "android": "https://dc.lft.to/lastmile_qr_scan"}, "bike_id": "090051408936456f253dc535d2182a01", "fusion_lat": 0.0}, {"lon": -77.00211566666667, "name": "abd295451e80183c1b5703cefbe06670", "is_disabled": 0, "type": "electric_scooter", "is_reserved": 0, "fusion_lon": 0.0, "lat": 38.914741166666666, "rental_uris": {"ios": "https://dc.lft.to/lastmile_qr_scan", "android": "https://dc.lft.to/lastmile_qr_scan"}, "bike_id": "abd295451e80183c1b5703cefbe06670", "fusion_lat": 0.0}, {"lon": -77.04283066666666, "name": "a10d69784fae07b4070efc984571e1a9", "is_disabled": 0, "type": "electric_scooter", "is_reserved": 0, "fusion_lon": 0.0, "lat": 38.92254633333334, "rental_uris": {"ios": "https://dc.lft.to/lastmile_qr_scan", "android": "https://dc.lft.to/lastmile_qr_scan"}, "bike_id": "a10d69784fae07b4070efc984571e1a9", "fusion_lat": 0.0}, {"lon": -77.03661566666666, "name": "661e93704a6f84cc5af6635440206292", "is_disabled": 0, "type": "electric_scooter", "is_reserved": 0, "fusion_lon": 0.0, "lat": 38.92290716666667, "rental_uris": {"ios": "https://dc.lft.to/lastmile_qr_scan", "android": "https://dc.lft.to/lastmile_qr_scan"}, "bike_id": "661e93704a6f84cc5af6635440206292", "fusion_lat": 0.0}, {"lon": -77.04803033333333, "name": "b8952294cae649aba6f973a884d57797", "is_disabled": 0, "type": "electric_scooter", "is_reserved": 0, "fusion_lon": 0.0, "lat": 38.8973455, "rental_uris": {"ios": "https://dc.lft.to/lastmile_qr_scan", "android": "https://dc.lft.to/lastmile_qr_scan"}, "bike_id": "b8952294cae649aba6f973a884d57797", "fusion_lat": 0.0}, {"lon": -76.95159183333334, "name": "893f469f44405a933bc623a3aea4cd78", "is_disabled": 0, "type": "electric_bike", "is_reserved": 0, "fusion_lon": 0.0, "lat": 39.084354, "rental_uris": {"ios": "https://dc.lft.to/lastmile_qr_scan", "android": "https://dc.lft.to/lastmile_qr_scan"}, "bike_id": "893f469f44405a933bc623a3aea4cd78", "fusion_lat": 0.0}, {"lon": -77.01303433333334, "name": "26f8f6d29a0374585cb29c37784b6c0a", "is_disabled": 0, "type": "electric_bike", "is_reserved": 0, "fusion_lon": 0.0, "lat": 38.881489, "rental_uris": {"ios": "https://dc.lft.to/lastmile_qr_scan", "android": "https://dc.lft.to/lastmile_qr_scan"}, "bike_id": "26f8f6d29a0374585cb29c37784b6c0a", "fusion_lat": 0.0}, {"lon": -76.93593783333333, "name": "6bedf16bba0c5fda58af58e7ec5f5d6b", "is_disabled": 0, "type": "electric_scooter", "is_reserved": 0, "fusion_lon": 0.0, "lat": 38.909496833333336, "rental_uris": {"ios": "https://dc.lft.to/lastmile_qr_scan", "android": "https://dc.lft.to/lastmile_qr_scan"}, "bike_id": "6bedf16bba0c5fda58af58e7ec5f5d6b", "fusion_lat": 0.0}, {"lon": -77.01953616666667, "name": "6ab8e782f5c8e20504d649dc5d024f88", "is_disabled": 0, "type": "electric_scooter", "is_reserved": 0, "fusion_lon": 0.0, "lat": 38.922687, "rental_uris": {"ios": "https://dc.lft.to/lastmile_qr_scan", "android": "https://dc.lft.to/lastmile_qr_scan"}, "bike_id": "6ab8e782f5c8e20504d649dc5d024f88", "fusion_lat": 0.0}, {"lon": -77.03663283333333, "name": "2922b916505c5e12222f1e5d0a3e3539", "is_disabled": 0, "type": "electric_scooter", "is_reserved": 0, "fusion_lon": 0.0, "lat": 38.923854, "rental_uris": {"ios": "https://dc.lft.to/lastmile_qr_scan", "android": "https://dc.lft.to/lastmile_qr_scan"}, "bike_id": "2922b916505c5e12222f1e5d0a3e3539", "fusion_lat": 0.0}, {"lon": -77.0479305, "name": "33c9072d33de83f794d68fd854cee9eb", "is_disabled": 0, "type": "electric_scooter", "is_reserved": 0, "fusion_lon": 0.0, "lat": 38.899201833333336, "rental_uris": {"ios": "https://dc.lft.to/lastmile_qr_scan", "android": "https://dc.lft.to/lastmile_qr_scan"}, "bike_id": "33c9072d33de83f794d68fd854cee9eb", "fusion_lat": 0.0}, {"lon": -77.02904433333333, "name": "ba88252c6ca9f81633ec0fdc8868c8d5", "is_disabled": 0, "type": "electric_scooter", "is_reserved": 0, "fusion_lon": 0.0, "lat": 38.923182, "rental_uris": {"ios": "https://dc.lft.to/lastmile_qr_scan", "android": "https://dc.lft.to/lastmile_qr_scan"}, "bike_id": "ba88252c6ca9f81633ec0fdc8868c8d5", "fusion_lat": 0.0}, {"lon": -77.021422, "name": "119d4b46354180d8339ac438bc72a06c", "is_disabled": 0, "type": "electric_scooter", "is_reserved": 0, "fusion_lon": 0.0, "lat": 38.924108833333335, "rental_uris": {"ios": "https://dc.lft.to/lastmile_qr_scan", "android": "https://dc.lft.to/lastmile_qr_scan"}, "bike_id": "119d4b46354180d8339ac438bc72a06c", "fusion_lat": 0.0}, {"lon": -76.97966216666667, "name": "a84eafd21b876013e7a65054204c0b28", "is_disabled": 0, "type": "electric_scooter", "is_reserved": 0, "fusion_lon": 0.0, "lat": 38.8865765, "rental_uris": {"ios": "https://dc.lft.to/lastmile_qr_scan", "android": "https://dc.lft.to/lastmile_qr_scan"}, "bike_id": "a84eafd21b876013e7a65054204c0b28", "fusion_lat": 0.0}, {"lon": -77.04320366666667, "name": "16c3ad7147ac00a9fefd8777158b60ee", "is_disabled": 0, "type": "electric_scooter", "is_reserved": 0, "fusion_lon": 0.0, "lat": 38.923747166666665, "rental_uris": {"ios": "https://dc.lft.to/lastmile_qr_scan", "android": "https://dc.lft.to/lastmile_qr_scan"}, "bike_id": "16c3ad7147ac00a9fefd8777158b60ee", "fusion_lat": 0.0}, {"lon": -76.9782275, "name": "97634ae1b083a581600fee34a5689e42", "is_disabled": 0, "type": "electric_scooter", "is_reserved": 0, "fusion_lon": 0.0, "lat": 38.89397533333333, "rental_uris": {"ios": "https://dc.lft.to/lastmile_qr_scan", "android": "https://dc.lft.to/lastmile_qr_scan"}, "bike_id": "97634ae1b083a581600fee34a5689e42", "fusion_lat": 0.0}, {"lon": -77.0127095, "name": "3c643a2b8e073d90d29381016b69692f", "is_disabled": 0, "type": "electric_scooter", "is_reserved": 0, "fusion_lon": 0.0, "lat": 38.89826166666667, "rental_uris": {"ios": "https://dc.lft.to/lastmile_qr_scan", "android": "https://dc.lft.to/lastmile_qr_scan"}, "bike_id": "3c643a2b8e073d90d29381016b69692f", "fusion_lat": 0.0}, {"lon": -77.04048516666667, "name": "d3ce9bc47aab1019a744ceb1e23a6715", "is_disabled": 0, "type": "electric_scooter", "is_reserved": 0, "fusion_lon": 0.0, "lat": 38.90874633333333, "rental_uris": {"ios": "https://dc.lft.to/lastmile_qr_scan", "android": "https://dc.lft.to/lastmile_qr_scan"}, "bike_id": "d3ce9bc47aab1019a744ceb1e23a6715", "fusion_lat": 0.0}, {"lon": -77.07662533333334, "name": "4daa24273c07aa3a6d157b9914e1df2e", "is_disabled": 0, "type": "electric_bike", "is_reserved": 0, "fusion_lon": 0.0, "lat": 38.80981216666667, "rental_uris": {"ios": "https://dc.lft.to/lastmile_qr_scan", "android": "https://dc.lft.to/lastmile_qr_scan"}, "bike_id": "4daa24273c07aa3a6d157b9914e1df2e", "fusion_lat": 0.0}, {"lon": -77.05876083333334, "name": "f41da052297cec1ca523214e57b51b2f", "is_disabled": 0, "type": "electric_bike", "is_reserved": 0, "fusion_lon": 0.0, "lat": 38.943185666666665, "rental_uris": {"ios": "https://dc.lft.to/lastmile_qr_scan", "android": "https://dc.lft.to/lastmile_qr_scan"}, "bike_id": "f41da052297cec1ca523214e57b51b2f", "fusion_lat": 0.0}, {"lon": -77.02791633333334, "name": "6dac94b2b5ef7d0e7f5259f4b5316f35", "is_disabled": 0, "type": "electric_scooter", "is_reserved": 0, "fusion_lon": 0.0, "lat": 38.926788333333334, "rental_uris": {"ios": "https://dc.lft.to/lastmile_qr_scan", "android": "https://dc.lft.to/lastmile_qr_scan"}, "bike_id": "6dac94b2b5ef7d0e7f5259f4b5316f35", "fusion_lat": 0.0}, {"lon": -77.03965266666667, "name": "e466801e81c1cd86feb8ec2e44e513bf", "is_disabled": 0, "type": "electric_scooter", "is_reserved": 0, "fusion_lon": 0.0, "lat": 38.898630833333335, "rental_uris": {"ios": "https://dc.lft.to/lastmile_qr_scan", "android": "https://dc.lft.to/lastmile_qr_scan"}, "bike_id": "e466801e81c1cd86feb8ec2e44e513bf", "fusion_lat": 0.0}, {"lon": -76.99016683333333, "name": "bcd1a58aceac7e3c78c687fe7074af44", "is_disabled": 0, "type": "electric_scooter", "is_reserved": 0, "fusion_lon": 0.0, "lat": 38.865164, "rental_uris": {"ios": "https://dc.lft.to/lastmile_qr_scan", "android": "https://dc.lft.to/lastmile_qr_scan"}, "bike_id": "bcd1a58aceac7e3c78c687fe7074af44", "fusion_lat": 0.0}, {"lon": -77.01376466666666, "name": "7a9c4f07855ed930191943a154331bae", "is_disabled": 0, "type": "electric_scooter", "is_reserved": 0, "fusion_lon": 0.0, "lat": 38.910465333333335, "rental_uris": {"ios": "https://dc.lft.to/lastmile_qr_scan", "android": "https://dc.lft.to/lastmile_qr_scan"}, "bike_id": "7a9c4f07855ed930191943a154331bae", "fusion_lat": 0.0}, {"lon": -77.003802, "name": "e25f615569452225c5570907a2106283", "is_disabled": 0, "type": "electric_bike", "is_reserved": 0, "fusion_lon": 0.0, "lat": 38.836025, "rental_uris": {"ios": "https://dc.lft.to/lastmile_qr_scan", "android": "https://dc.lft.to/lastmile_qr_scan"}, "bike_id": "e25f615569452225c5570907a2106283", "fusion_lat": 0.0}, {"lon": -76.99005383333333, "name": "ddc0d3ddb2c035b01fad8661115226fd", "is_disabled": 0, "type": "electric_scooter", "is_reserved": 0, "fusion_lon": 0.0, "lat": 38.90390166666667, "rental_uris": {"ios": "https://dc.lft.to/lastmile_qr_scan", "android": "https://dc.lft.to/lastmile_qr_scan"}, "bike_id": "ddc0d3ddb2c035b01fad8661115226fd", "fusion_lat": 0.0}, {"lon": -77.04721283333333, "name": "7342b0c1915be3c31f028fdd7a34a1a8", "is_disabled": 0, "type": "electric_scooter", "is_reserved": 0, "fusion_lon": 0.0, "lat": 38.89963483333333, "rental_uris": {"ios": "https://dc.lft.to/lastmile_qr_scan", "android": "https://dc.lft.to/lastmile_qr_scan"}, "bike_id": "7342b0c1915be3c31f028fdd7a34a1a8", "fusion_lat": 0.0}, {"lon": -77.023723, "name": "715dc2f726193cd24090d1ec3f03296a", "is_disabled": 0, "type": "electric_scooter", "is_reserved": 0, "fusion_lon": 0.0, "lat": 38.947408, "rental_uris": {"ios": "https://dc.lft.to/lastmile_qr_scan", "android": "https://dc.lft.to/lastmile_qr_scan"}, "bike_id": "715dc2f726193cd24090d1ec3f03296a", "fusion_lat": 0.0}, {"lon": -77.02797933333333, "name": "0b4411bd7d5387e6bd4b87b99c387b09", "is_disabled": 0, "type": "electric_scooter", "is_reserved": 0, "fusion_lon": 0.0, "lat": 38.9308535, "rental_uris": {"ios": "https://dc.lft.to/lastmile_qr_scan", "android": "https://dc.lft.to/lastmile_qr_scan"}, "bike_id": "0b4411bd7d5387e6bd4b87b99c387b09", "fusion_lat": 0.0}, {"lon": -77.0402115, "name": "0efa9a735a9ac2254c24861c59b05b7f", "is_disabled": 0, "type": "electric_scooter", "is_reserved": 0, "fusion_lon": 0.0, "lat": 38.92162283333333, "rental_uris": {"ios": "https://dc.lft.to/lastmile_qr_scan", "android": "https://dc.lft.to/lastmile_qr_scan"}, "bike_id": "0efa9a735a9ac2254c24861c59b05b7f", "fusion_lat": 0.0}, {"lon": -77.00890983333333, "name": "6e5cfbb3123d392a90a87b234fc22e5b", "is_disabled": 0, "type": "electric_scooter", "is_reserved": 0, "fusion_lon": 0.0, "lat": 38.909499, "rental_uris": {"ios": "https://dc.lft.to/lastmile_qr_scan", "android": "https://dc.lft.to/lastmile_qr_scan"}, "bike_id": "6e5cfbb3123d392a90a87b234fc22e5b", "fusion_lat": 0.0}, {"lon": -77.0275405, "name": "4e36579c56a7c2527cf594fd99db8115", "is_disabled": 0, "type": "electric_scooter", "is_reserved": 0, "fusion_lon": 0.0, "lat": 38.966534333333335, "rental_uris": {"ios": "https://dc.lft.to/lastmile_qr_scan", "android": "https://dc.lft.to/lastmile_qr_scan"}, "bike_id": "4e36579c56a7c2527cf594fd99db8115", "fusion_lat": 0.0}, {"lon": -77.04159583333333, "name": "6c0e11ae111fa446decec2c8dc788c09", "is_disabled": 0, "type": "electric_scooter", "is_reserved": 0, "fusion_lon": 0.0, "lat": 38.900507, "rental_uris": {"ios": "https://dc.lft.to/lastmile_qr_scan", "android": "https://dc.lft.to/lastmile_qr_scan"}, "bike_id": "6c0e11ae111fa446decec2c8dc788c09", "fusion_lat": 0.0}, {"lon": -77.032954, "name": "9ede0bd98b8e743cc5a770a432760efd", "is_disabled": 0, "type": "electric_scooter", "is_reserved": 0, "fusion_lon": 0.0, "lat": 38.92070866666667, "rental_uris": {"ios": "https://dc.lft.to/lastmile_qr_scan", "android": "https://dc.lft.to/lastmile_qr_scan"}, "bike_id": "9ede0bd98b8e743cc5a770a432760efd", "fusion_lat": 0.0}, {"lon": -77.03586416666667, "name": "e6c3fdef0636643eb0f0aa078beb5b6f", "is_disabled": 0, "type": "electric_bike", "is_reserved": 0, "fusion_lon": 0.0, "lat": 38.992307, "rental_uris": {"ios": "https://dc.lft.to/lastmile_qr_scan", "android": "https://dc.lft.to/lastmile_qr_scan"}, "bike_id": "e6c3fdef0636643eb0f0aa078beb5b6f", "fusion_lat": 0.0}, {"lon": -77.02365083333333, "name": "8ec0b0bc4a35591391ccd7e2182a3294", "is_disabled": 0, "type": "electric_scooter", "is_reserved": 0, "fusion_lon": 0.0, "lat": 38.908724666666664, "rental_uris": {"ios": "https://dc.lft.to/lastmile_qr_scan", "android": "https://dc.lft.to/lastmile_qr_scan"}, "bike_id": "8ec0b0bc4a35591391ccd7e2182a3294", "fusion_lat": 0.0}, {"lon": -77.04907033333333, "name": "290ebcf561905cd2856437fad3c9ec63", "is_disabled": 0, "type": "electric_scooter", "is_reserved": 0, "fusion_lon": 0.0, "lat": 38.916061666666664, "rental_uris": {"ios": "https://dc.lft.to/lastmile_qr_scan", "android": "https://dc.lft.to/lastmile_qr_scan"}, "bike_id": "290ebcf561905cd2856437fad3c9ec63", "fusion_lat": 0.0}, {"lon": -77.00768783333334, "name": "beeeb8ed43cfe65bb3cc6aab0bd7ed80", "is_disabled": 0, "type": "electric_scooter", "is_reserved": 0, "fusion_lon": 0.0, "lat": 38.9048565, "rental_uris": {"ios": "https://dc.lft.to/lastmile_qr_scan", "android": "https://dc.lft.to/lastmile_qr_scan"}, "bike_id": "beeeb8ed43cfe65bb3cc6aab0bd7ed80", "fusion_lat": 0.0}, {"lon": -77.025542, "name": "4e7aa8eb744a61f20056bb4c9dd9f04d", "is_disabled": 0, "type": "electric_scooter", "is_reserved": 0, "fusion_lon": 0.0, "lat": 38.89609766666667, "rental_uris": {"ios": "https://dc.lft.to/lastmile_qr_scan", "android": "https://dc.lft.to/lastmile_qr_scan"}, "bike_id": "4e7aa8eb744a61f20056bb4c9dd9f04d", "fusion_lat": 0.0}, {"lon": -77.01535683333333, "name": "ff5b34677d6a1f113850572f7fd62e49", "is_disabled": 0, "type": "electric_scooter", "is_reserved": 0, "fusion_lon": 0.0, "lat": 38.92060716666667, "rental_uris": {"ios": "https://dc.lft.to/lastmile_qr_scan", "android": "https://dc.lft.to/lastmile_qr_scan"}, "bike_id": "ff5b34677d6a1f113850572f7fd62e49", "fusion_lat": 0.0}, {"lon": -77.00331033333333, "name": "1f36366a67eaad49afb0b209880dcade", "is_disabled": 0, "type": "electric_scooter", "is_reserved": 0, "fusion_lon": 0.0, "lat": 38.893648166666665, "rental_uris": {"ios": "https://dc.lft.to/lastmile_qr_scan", "android": "https://dc.lft.to/lastmile_qr_scan"}, "bike_id": "1f36366a67eaad49afb0b209880dcade", "fusion_lat": 0.0}, {"lon": -77.04146366666667, "name": "a7827b47bcdfb1ba8944ee5cfb2b7967", "is_disabled": 0, "type": "electric_scooter", "is_reserved": 0, "fusion_lon": 0.0, "lat": 38.92357633333334, "rental_uris": {"ios": "https://dc.lft.to/lastmile_qr_scan", "android": "https://dc.lft.to/lastmile_qr_scan"}, "bike_id": "a7827b47bcdfb1ba8944ee5cfb2b7967", "fusion_lat": 0.0}, {"lon": -77.053145, "name": "aeb9af8706e2f96a812de597e56f4abe", "is_disabled": 0, "type": "electric_scooter", "is_reserved": 0, "fusion_lon": 0.0, "lat": 38.93457866666667, "rental_uris": {"ios": "https://dc.lft.to/lastmile_qr_scan", "android": "https://dc.lft.to/lastmile_qr_scan"}, "bike_id": "aeb9af8706e2f96a812de597e56f4abe", "fusion_lat": 0.0}, {"lon": -77.00217033333334, "name": "189965f16a5e9db61e746570efa992a4", "is_disabled": 0, "type": "electric_scooter", "is_reserved": 0, "fusion_lon": 0.0, "lat": 38.87401116666667, "rental_uris": {"ios": "https://dc.lft.to/lastmile_qr_scan", "android": "https://dc.lft.to/lastmile_qr_scan"}, "bike_id": "189965f16a5e9db61e746570efa992a4", "fusion_lat": 0.0}, {"lon": -77.00066416666667, "name": "a2f2045a01124fb3662abeda05c21278", "is_disabled": 0, "type": "electric_scooter", "is_reserved": 0, "fusion_lon": 0.0, "lat": 38.924433, "rental_uris": {"ios": "https://dc.lft.to/lastmile_qr_scan", "android": "https://dc.lft.to/lastmile_qr_scan"}, "bike_id": "a2f2045a01124fb3662abeda05c21278", "fusion_lat": 0.0}, {"lon": -77.033595, "name": "695b821942a09b161428a7dfb14085cd", "is_disabled": 0, "type": "electric_scooter", "is_reserved": 0, "fusion_lon": 0.0, "lat": 38.93077483333333, "rental_uris": {"ios": "https://dc.lft.to/lastmile_qr_scan", "android": "https://dc.lft.to/lastmile_qr_scan"}, "bike_id": "695b821942a09b161428a7dfb14085cd", "fusion_lat": 0.0}, {"lon": -77.03684966666667, "name": "49e1933bdc19e4dbe0395c6dd4518c6d", "is_disabled": 0, "type": "electric_scooter", "is_reserved": 0, "fusion_lon": 0.0, "lat": 38.926444333333336, "rental_uris": {"ios": "https://dc.lft.to/lastmile_qr_scan", "android": "https://dc.lft.to/lastmile_qr_scan"}, "bike_id": "49e1933bdc19e4dbe0395c6dd4518c6d", "fusion_lat": 0.0}, {"lon": -77.02787866666667, "name": "5cd95e73ab8dd53932ca4a5d0843d8ab", "is_disabled": 0, "type": "electric_scooter", "is_reserved": 0, "fusion_lon": 0.0, "lat": 38.931894166666666, "rental_uris": {"ios": "https://dc.lft.to/lastmile_qr_scan", "android": "https://dc.lft.to/lastmile_qr_scan"}, "bike_id": "5cd95e73ab8dd53932ca4a5d0843d8ab", "fusion_lat": 0.0}, {"lon": -77.02304633333334, "name": "26e994a95d3b3fd3a4a4256a801de3a8", "is_disabled": 0, "type": "electric_scooter", "is_reserved": 0, "fusion_lon": 0.0, "lat": 38.91794516666667, "rental_uris": {"ios": "https://dc.lft.to/lastmile_qr_scan", "android": "https://dc.lft.to/lastmile_qr_scan"}, "bike_id": "26e994a95d3b3fd3a4a4256a801de3a8", "fusion_lat": 0.0}, {"lon": -77.022102, "name": "96bf1dee61c1ad8c0ff246679ce7069a", "is_disabled": 0, "type": "electric_scooter", "is_reserved": 0, "fusion_lon": 0.0, "lat": 38.924536, "rental_uris": {"ios": "https://dc.lft.to/lastmile_qr_scan", "android": "https://dc.lft.to/lastmile_qr_scan"}, "bike_id": "96bf1dee61c1ad8c0ff246679ce7069a", "fusion_lat": 0.0}, {"lon": -76.9856605, "name": "ab5e6d3af373eb64bda135a7c9e0ef93", "is_disabled": 0, "type": "electric_scooter", "is_reserved": 0, "fusion_lon": 0.0, "lat": 38.91272633333333, "rental_uris": {"ios": "https://dc.lft.to/lastmile_qr_scan", "android": "https://dc.lft.to/lastmile_qr_scan"}, "bike_id": "ab5e6d3af373eb64bda135a7c9e0ef93", "fusion_lat": 0.0}, {"lon": -77.08407683333333, "name": "105850c00ca7dfa983ea922411af31b1", "is_disabled": 0, "type": "electric_bike", "is_reserved": 0, "fusion_lon": 0.0, "lat": 38.832905833333335, "rental_uris": {"ios": "https://dc.lft.to/lastmile_qr_scan", "android": "https://dc.lft.to/lastmile_qr_scan"}, "bike_id": "105850c00ca7dfa983ea922411af31b1", "fusion_lat": 0.0}, {"lon": -76.98554266666666, "name": "e3d46144e113493659bbaebd7b2016c9", "is_disabled": 0, "type": "electric_scooter", "is_reserved": 0, "fusion_lon": 0.0, "lat": 38.89766133333333, "rental_uris": {"ios": "https://dc.lft.to/lastmile_qr_scan", "android": "https://dc.lft.to/lastmile_qr_scan"}, "bike_id": "e3d46144e113493659bbaebd7b2016c9", "fusion_lat": 0.0}, {"lon": -77.07722183333334, "name": "9f64576cf914f6a851163f88982807f3", "is_disabled": 0, "type": "electric_scooter", "is_reserved": 0, "fusion_lon": 0.0, "lat": 38.922595666666666, "rental_uris": {"ios": "https://dc.lft.to/lastmile_qr_scan", "android": "https://dc.lft.to/lastmile_qr_scan"}, "bike_id": "9f64576cf914f6a851163f88982807f3", "fusion_lat": 0.0}, {"lon": -77.023011, "name": "47661c66d67374c60a524c15851e1b86", "is_disabled": 0, "type": "electric_scooter", "is_reserved": 0, "fusion_lon": 0.0, "lat": 38.932116666666666, "rental_uris": {"ios": "https://dc.lft.to/lastmile_qr_scan", "android": "https://dc.lft.to/lastmile_qr_scan"}, "bike_id": "47661c66d67374c60a524c15851e1b86", "fusion_lat": 0.0}, {"lon": -77.03339166666666, "name": "0e50729679b3a0c5650882ceec10d30a", "is_disabled": 0, "type": "electric_scooter", "is_reserved": 0, "fusion_lon": 0.0, "lat": 38.90024533333333, "rental_uris": {"ios": "https://dc.lft.to/lastmile_qr_scan", "android": "https://dc.lft.to/lastmile_qr_scan"}, "bike_id": "0e50729679b3a0c5650882ceec10d30a", "fusion_lat": 0.0}, {"lon": -77.01768916666667, "name": "76bd8590bc429bdd4f03399558c80336", "is_disabled": 0, "type": "electric_scooter", "is_reserved": 0, "fusion_lon": 0.0, "lat": 38.90269766666667, "rental_uris": {"ios": "https://dc.lft.to/lastmile_qr_scan", "android": "https://dc.lft.to/lastmile_qr_scan"}, "bike_id": "76bd8590bc429bdd4f03399558c80336", "fusion_lat": 0.0}, {"lon": -77.03644416666667, "name": "4ceb46492078ddb38c57555c29c2d2a3", "is_disabled": 0, "type": "electric_scooter", "is_reserved": 0, "fusion_lon": 0.0, "lat": 38.9274355, "rental_uris": {"ios": "https://dc.lft.to/lastmile_qr_scan", "android": "https://dc.lft.to/lastmile_qr_scan"}, "bike_id": "4ceb46492078ddb38c57555c29c2d2a3", "fusion_lat": 0.0}, {"lon": -77.0325265, "name": "ddafadebb5932858fd5237c2e7436669", "is_disabled": 0, "type": "electric_scooter", "is_reserved": 0, "fusion_lon": 0.0, "lat": 38.93254133333333, "rental_uris": {"ios": "https://dc.lft.to/lastmile_qr_scan", "android": "https://dc.lft.to/lastmile_qr_scan"}, "bike_id": "ddafadebb5932858fd5237c2e7436669", "fusion_lat": 0.0}, {"lon": -77.03210083333333, "name": "307f4112de592afb505a0b0ff3caae9d", "is_disabled": 0, "type": "electric_scooter", "is_reserved": 0, "fusion_lon": 0.0, "lat": 38.916199166666665, "rental_uris": {"ios": "https://dc.lft.to/lastmile_qr_scan", "android": "https://dc.lft.to/lastmile_qr_scan"}, "bike_id": "307f4112de592afb505a0b0ff3caae9d", "fusion_lat": 0.0}, {"lon": -76.99904466666666, "name": "ab00c046453b37eccec0f0184495b3e1", "is_disabled": 0, "type": "electric_scooter", "is_reserved": 0, "fusion_lon": 0.0, "lat": 38.896077, "rental_uris": {"ios": "https://dc.lft.to/lastmile_qr_scan", "android": "https://dc.lft.to/lastmile_qr_scan"}, "bike_id": "ab00c046453b37eccec0f0184495b3e1", "fusion_lat": 0.0}, {"lon": -77.039057, "name": "bf874aa175e37921242603562546c3d4", "is_disabled": 0, "type": "electric_scooter", "is_reserved": 0, "fusion_lon": 0.0, "lat": 38.9223895, "rental_uris": {"ios": "https://dc.lft.to/lastmile_qr_scan", "android": "https://dc.lft.to/lastmile_qr_scan"}, "bike_id": "bf874aa175e37921242603562546c3d4", "fusion_lat": 0.0}, {"lon": -77.03216216666667, "name": "23de563c14c45526818b8415a17ac9f7", "is_disabled": 0, "type": "electric_scooter", "is_reserved": 0, "fusion_lon": 0.0, "lat": 38.917125, "rental_uris": {"ios": "https://dc.lft.to/lastmile_qr_scan", "android": "https://dc.lft.to/lastmile_qr_scan"}, "bike_id": "23de563c14c45526818b8415a17ac9f7", "fusion_lat": 0.0}, {"lon": -76.92933483333333, "name": "1460f6a40bf5dbfea00df6f37041d09c", "is_disabled": 0, "type": "electric_scooter", "is_reserved": 0, "fusion_lon": 0.0, "lat": 38.90100783333333, "rental_uris": {"ios": "https://dc.lft.to/lastmile_qr_scan", "android": "https://dc.lft.to/lastmile_qr_scan"}, "bike_id": "1460f6a40bf5dbfea00df6f37041d09c", "fusion_lat": 0.0},