{"data": {"bikes": [{"lon": -77.02806666666666, "bike_id": "e2ad40426ba8f90ba00576207667c2e3", "lat": 38.8818065, "fusion_lon": 0.0, "fusion_lat": 0.0, "type": "electric_scooter", "name": "e2ad40426ba8f90ba00576207667c2e3", "is_disabled": 0, "rental_uris": {"ios": "https://dc.lft.to/lastmile_qr_scan", "android": "https://dc.lft.to/lastmile_qr_scan"}, "is_reserved": 0}, {"lon": -76.99705266666666, "bike_id": "5d3b1e1137ca3951dc08f875c63efafc", "lat": 38.91099116666667, "fusion_lon": 0.0, "fusion_lat": 0.0, "type": "electric_scooter", "name": "5d3b1e1137ca3951dc08f875c63efafc", "is_disabled": 0, "rental_uris": {"ios": "https://dc.lft.to/lastmile_qr_scan", "android": "https://dc.lft.to/lastmile_qr_scan"}, "is_reserved": 0}, {"lon": -77.08570933333333, "bike_id": "bc68205d6dbbcdfba639eb13d73d4a2c", "lat": 38.933513833333336, "fusion_lon": 0.0, "fusion_lat": 0.0, "type": "electric_scooter", "name": "bc68205d6dbbcdfba639eb13d73d4a2c", "is_disabled": 0, "rental_uris": {"ios": "https://dc.lft.to/lastmile_qr_scan", "android": "https://dc.lft.to/lastmile_qr_scan"}, "is_reserved": 0}, {"lon": -77.00832016666666, "bike_id": "826f2740e2f059ea7f3468d35b472ee3", "lat": 38.91305283333333, "fusion_lon": 0.0, "fusion_lat": 0.0, "type": "electric_scooter", "name": "826f2740e2f059ea7f3468d35b472ee3", "is_disabled": 0, "rental_uris": {"ios": "https://dc.lft.to/lastmile_qr_scan", "android": "https://dc.lft.to/lastmile_qr_scan"}, "is_reserved": 0}, {"lon": -76.92997266666667, "bike_id": "db52454a07d4b74b100c349a4b4a58d2", "lat": 38.901889, "fusion_lon": 0.0, "fusion_lat": 0.0, "type": "electric_scooter", "name": "db52454a07d4b74b100c349a4b4a58d2", "is_disabled": 0, "rental_uris": {"ios": "https://dc.lft.to/lastmile_qr_scan", "android": "https://dc.lft.to/lastmile_qr_scan"}, "is_reserved": 0}, {"lon": -77.05936766666666, "bike_id": "1b1aff10c9b016e9f46b0dd9fc249434", "lat": 38.912396666666666, "fusion_lon": 0.0, "fusion_lat": 0.0, "type": "electric_scooter", "name": "1b1aff10c9b016e9f46b0dd9fc249434", "is_disabled": 0, "rental_uris": {"ios": "https://dc.lft.to/lastmile_qr_scan", "android": "https://dc.lft.to/lastmile_qr_scan"}, "is_reserved": 0}, {"lon": -77.05983983333333, "bike_id": "484fc6e748543cdcbbfcc88c5d03c7d1", "lat": 38.86201666666667, "fusion_lon": 0.0, "fusion_lat": 0.0, "type": "electric_bike", "name": "484fc6e748543cdcbbfcc88c5d03c7d1", "is_disabled": 0, "rental_uris": {"ios": "https://dc.lft.to/lastmile_qr_scan", "android": "https://dc.lft.to/lastmile_qr_scan"}, "is_reserved": 0}, {"lon": -77.03873766666666, "bike_id": "a223fda56fd7db98ef914c1517962e12", "lat": 38.909646, "fusion_lon": 0.0, "fusion_lat": 0.0, "type": "electric_scooter", "name": "a223fda56fd7db98ef914c1517962e12", "is_disabled": 0, "rental_uris": {"ios": "https://dc.lft.to/lastmile_qr_scan", "android": "https://dc.lft.to/lastmile_qr_scan"}, "is_reserved": 0}, {"lon": -77.0111705, "bike_id": "706a4261b2b5ccfdcd4a108451808e65", "lat": 38.8854895, "fusion_lon": 0.0, "fusion_lat": 0.0, "type": "electric_scooter", "name": "706a4261b2b5ccfdcd4a108451808e65", "is_disabled": 0, "rental_uris": {"ios": "https://dc.lft.to/lastmile_qr_scan", "android": "https://dc.lft.to/lastmile_qr_scan"}, "is_reserved": 0}, {"lon": -77.0430505, "bike_id": "788309eb93086da1e178cdf41814a49f", "lat": 38.910262833333334, "fusion_lon": 0.0, "fusion_lat": 0.0, "type": "electric_scooter", "name": "788309eb93086da1e178cdf41814a49f", "is_disabled": 0, "rental_uris": {"ios": "https://dc.lft.to/lastmile_qr_scan", "android": "https://dc.lft.to/lastmile_qr_scan"}, "is_reserved": 0}, {"lon": -77.01412783333333, "bike_id": "08484f8643e041016c97cd14e1e195af", "lat": 38.92869433333333, "fusion_lon": 0.0, "fusion_lat": 0.0, "type": "electric_scooter", "name": "08484f8643e041016c97cd14e1e195af", "is_disabled": 0, "rental_uris": {"ios": "https://dc.lft.to/lastmile_qr_scan", "android": "https://dc.lft.to/lastmile_qr_scan"}, "is_reserved": 0}, {"lon": -77.02114266666666, "bike_id": "7dc93b3b28a6bca3768172154c0cd583", "lat": 38.9173595, "fusion_lon": 0.0, "fusion_lat": 0.0, "type": "electric_scooter", "name": "7dc93b3b28a6bca3768172154c0cd583", "is_disabled": 0, "rental_uris": {"ios": "https://dc.lft.to/lastmile_qr_scan", "android": "https://dc.lft.to/lastmile_qr_scan"}, "is_reserved": 0}, {"lon": -77.041789, "bike_id": "e155810ce099c6bf8bb9f3ab79b245dc", "lat": 38.90381716666667, "fusion_lon": 0.0, "fusion_lat": 0.0, "type": "electric_scooter", "name": "e155810ce099c6bf8bb9f3ab79b245dc", "is_disabled": 0, "rental_uris": {"ios": "https://dc.lft.to/lastmile_qr_scan", "android": "https://dc.lft.to/lastmile_qr_scan"}, "is_reserved": 0}, {"lon": -77.04585883333333, "bike_id": "9690586c678cd5c9731004a4ab3408b0", "lat": 38.903637333333336, "fusion_lon": 0.0, "fusion_lat": 0.0, "type": "electric_scooter", "name": "9690586c678cd5c9731004a4ab3408b0", "is_disabled": 0, "rental_uris": {"ios": "https://dc.lft.to/lastmile_qr_scan", "android": "https://dc.lft.to/lastmile_qr_scan"}, "is_reserved": 0}, {"lon": -77.10913483333333, "bike_id": "d8a006e7cf6c89df051f030b5fdf3c93", "lat": 39.05205683333333, "fusion_lon": 0.0, "fusion_lat": 0.0, "type": "electric_bike", "name": "d8a006e7cf6c89df051f030b5fdf3c93", "is_disabled": 0, "rental_uris": {"ios": "https://dc.lft.to/lastmile_qr_scan", "android": "https://dc.lft.to/lastmile_qr_scan"}, "is_reserved": 0}, {"lon": -76.99165616666667, "bike_id": "bae92fffb2f7786fb9968e6d44687a82", "lat": 38.90965083333333, "fusion_lon": 0.0, "fusion_lat": 0.0, "type": "electric_scooter", "name": "bae92fffb2f7786fb9968e6d44687a82", "is_disabled": 0, "rental_uris": {"ios": "https://dc.lft.to/lastmile_qr_scan", "android": "https://dc.lft.to/lastmile_qr_scan"}, "is_reserved": 0}, {"lon": -77.178395, "bike_id": "983b712229a31e8372d93199a5224164", "lat": 39.088558666666664, "fusion_lon": 0.0, "fusion_lat": 0.0, "type": "electric_bike", "name": "983b712229a31e8372d93199a5224164", "is_disabled": 0, "rental_uris": {"ios": "https://dc.lft.to/lastmile_qr_scan", "android": "https://dc.lft.to/lastmile_qr_scan"}, "is_reserved": 0}, {"lon": -77.02614383333334, "bike_id": "3885d8e8b1c1fdc67d191e4254d5739a", "lat": 38.90274616666667, "fusion_lon": 0.0, "fusion_lat": 0.0, "type": "electric_scooter", "name": "3885d8e8b1c1fdc67d191e4254d5739a", "is_disabled": 0, "rental_uris": {"ios": "https://dc.lft.to/lastmile_qr_scan", "android": "https://dc.lft.to/lastmile_qr_scan"}, "is_reserved": 0}, {"lon": -77.07336483333333, "bike_id": "9a5fef64c46302d89b552dcca29c09f7", "lat": 38.93493683333333, "fusion_lon": 0.0, "fusion_lat": 0.0, "type": "electric_scooter", "name": "9a5fef64c46302d89b552dcca29c09f7", "is_disabled": 0, "rental_uris": {"ios": "https://dc.lft.to/lastmile_qr_scan", "android": "https://dc.lft.to/lastmile_qr_scan"}, "is_reserved": 0}, {"lon": -77.00063416666667, "bike_id": "b9c09f869b1d7e7f8b5fc2e890ac0f31", "lat": 38.89652916666667, "fusion_lon": 0.0, "fusion_lat": 0.0, "type": "electric_scooter", "name": "b9c09f869b1d7e7f8b5fc2e890ac0f31", "is_disabled": 0, "rental_uris": {"ios": "https://dc.lft.to/lastmile_qr_scan", "android": "https://dc.lft.to/lastmile_qr_scan"}, "is_reserved": 0}, {"lon": -76.95649116666667, "bike_id": "fb991bb817813e12a704f5e8a514896c", "lat": 38.895516666666666, "fusion_lon": 0.0, "fusion_lat": 0.0, "type": "electric_scooter", "name": "fb991bb817813e12a704f5e8a514896c", "is_disabled": 0, "rental_uris": {"ios": "https://dc.lft.to/lastmile_qr_scan", "android": "https://dc.lft.to/lastmile_qr_scan"}, "is_reserved": 0}, {"lon": -77.03282433333334, "bike_id": "55cf89b022f3d57c9d2225794ce3d75f", "lat": 38.936430666666666, "fusion_lon": 0.0, "fusion_lat": 0.0, "type": "electric_scooter", "name": "55cf89b022f3d57c9d2225794ce3d75f", "is_disabled": 0, "rental_uris": {"ios": "https://dc.lft.to/lastmile_qr_scan", "android": "https://dc.lft.to/lastmile_qr_scan"}, "is_reserved": 0}, {"lon": -77.0517455, "bike_id": "9e14d9f2f06336c17c2ebaa441c287df", "lat": 38.842894666666666, "fusion_lon": 0.0, "fusion_lat": 0.0, "type": "electric_bike", "name": "9e14d9f2f06336c17c2ebaa441c287df", "is_disabled": 0, "rental_uris": {"ios": "https://dc.lft.to/lastmile_qr_scan", "android": "https://dc.lft.to/lastmile_qr_scan"}, "is_reserved": 0}, {"lon": -77.05935316666667, "bike_id": "0a0211e9985c7044457e83dfe023dd10", "lat": 38.9118895, "fusion_lon": 0.0, "fusion_lat": 0.0, "type": "electric_bike", "name": "0a0211e9985c7044457e83dfe023dd10", "is_disabled": 0, "rental_uris": {"ios": "https://dc.lft.to/lastmile_qr_scan", "android": "https://dc.lft.to/lastmile_qr_scan"}, "is_reserved": 0}, {"lon": -76.99555383333333, "bike_id": "c50044393584ba1ed61c540aa6130a54", "lat": 38.861921, "fusion_lon": 0.0, "fusion_lat": 0.0, "type": "electric_scooter", "name": "c50044393584ba1ed61c540aa6130a54", "is_disabled": 0, "rental_uris": {"ios": "https://dc.lft.to/lastmile_qr_scan", "android": "https://dc.lft.to/lastmile_qr_scan"}, "is_reserved": 0}, {"lon": -76.9720575, "bike_id": "f7135dbfa38bffa2f05a8ea9e9835808", "lat": 38.89290283333333, "fusion_lon": 0.0, "fusion_lat": 0.0, "type": "electric_bike", "name": "f7135dbfa38bffa2f05a8ea9e9835808", "is_disabled": 0, "rental_uris": {"ios": "https://dc.lft.to/lastmile_qr_scan", "android": "https://dc.lft.to/lastmile_qr_scan"}, "is_reserved": 0}, {"lon": -77.03426866666666, "bike_id": "6eb0e81186e83ec6e34915bb3a1bd3e6", "lat": 38.965332333333336, "fusion_lon": 0.0, "fusion_lat": 0.0, "type": "electric_bike", "name": "6eb0e81186e83ec6e34915bb3a1bd3e6", "is_disabled": 0, "rental_uris": {"ios": "https://dc.lft.to/lastmile_qr_scan", "android": "https://dc.lft.to/lastmile_qr_scan"}, "is_reserved": 0}, {"lon": -76.98231266666667, "bike_id": "94324bd7649239f70d26e5dcdce79e03", "lat": 38.864718333333336, "fusion_lon": 0.0, "fusion_lat": 0.0, "type": "electric_scooter", "name": "94324bd7649239f70d26e5dcdce79e03", "is_disabled": 0, "rental_uris": {"ios": "https://dc.lft.to/lastmile_qr_scan", "android": "https://dc.lft.to/lastmile_qr_scan"}, "is_reserved": 0}, {"lon": -77.010589, "bike_id": "a91b9e6167932553fe28cc14f28683ca", "lat": 38.899567166666664, "fusion_lon": 0.0, "fusion_lat": 0.0, "type": "electric_scooter", "name": "a91b9e6167932553fe28cc14f28683ca", "is_disabled": 0, "rental_uris": {"ios": "https://dc.lft.to/lastmile_qr_scan", "android": "https://dc.lft.to/lastmile_qr_scan"}, "is_reserved": 0}, {"lon": -77.05568783333334, "bike_id": "b42d6481680b200bf6a28a87a3a71000", "lat": 38.897265166666664, "fusion_lon": 0.0, "fusion_lat": 0.0, "type": "electric_scooter", "name": "b42d6481680b200bf6a28a87a3a71000", "is_disabled": 0, "rental_uris": {"ios": "https://dc.lft.to/lastmile_qr_scan", "android": "https://dc.lft.to/lastmile_qr_scan"}, "is_reserved": 0}, {"lon": -77.03462133333333, "bike_id": "96fa363245d9bacfcc05869ac554f8e6", "lat": 38.905757333333334, "fusion_lon": 0.0, "fusion_lat": 0.0, "type": "electric_scooter", "name": "96fa363245d9bacfcc05869ac554f8e6", "is_disabled": 0, "rental_uris": {"ios": "https://dc.lft.to/lastmile_qr_scan", "android": "https://dc.lft.to/lastmile_qr_scan"}, "is_reserved": 0}, {"lon": -77.02160016666667, "bike_id": "238eeab3f24d3af78a838108bdd3fe8b", "lat": 38.926118, "fusion_lon": 0.0, "fusion_lat": 0.0, "type": "electric_scooter", "name": "238eeab3f24d3af78a838108bdd3fe8b", "is_disabled": 0, "rental_uris": {"ios": "https://dc.lft.to/lastmile_qr_scan", "android": "https://dc.lft.to/lastmile_qr_scan"}, "is_reserved": 0}, {"lon": -77.04903416666667, "bike_id": "9c79675f56caf522b935c2a8f5559d75", "lat": 38.915986833333335, "fusion_lon": 0.0, "fusion_lat": 0.0, "type": "electric_scooter", "name": "9c79675f56caf522b935c2a8f5559d75", "is_disabled": 0, "rental_uris": {"ios": "https://dc.lft.to/lastmile_qr_scan", "android": "https://dc.lft.to/lastmile_qr_scan"}, "is_reserved": 0}, {"lon": -77.0423715, "bike_id": "5764a759d025e76cde3b686554173311", "lat": 38.921849, "fusion_lon": 0.0, "fusion_lat": 0.0, "type": "electric_scooter", "name": "5764a759d025e76cde3b686554173311", "is_disabled": 0, "rental_uris": {"ios": "https://dc.lft.to/lastmile_qr_scan", "android": "https://dc.lft.to/lastmile_qr_scan"}, "is_reserved": 0}, {"lon": -77.13929116666667, "bike_id": "389b1ad9344a2ef01b891cd91763953d", "lat": 38.87299183333333, "fusion_lon": 0.0, "fusion_lat": 0.0, "type": "electric_bike", "name": "389b1ad9344a2ef01b891cd91763953d", "is_disabled": 0, "rental_uris": {"ios": "https://dc.lft.to/lastmile_qr_scan", "android": "https://dc.lft.to/lastmile_qr_scan"}, "is_reserved": 0}, {"lon": -77.01862766666666, "bike_id": "405db779304aecfaac2e65a1f3cd5f0b", "lat": 38.90263483333333, "fusion_lon": 0.0, "fusion_lat": 0.0, "type": "electric_scooter", "name": "405db779304aecfaac2e65a1f3cd5f0b", "is_disabled": 0, "rental_uris": {"ios": "https://dc.lft.to/lastmile_qr_scan", "android": "https://dc.lft.to/lastmile_qr_scan"}, "is_reserved": 0}, {"lon": -76.94650316666667, "bike_id": "5a877f4ff92306a46375197df061ba8d", "lat": 38.898231333333335, "fusion_lon": 0.0, "fusion_lat": 0.0, "type": "electric_scooter", "name": "5a877f4ff92306a46375197df061ba8d", "is_disabled": 0, "rental_uris": {"ios": "https://dc.lft.to/lastmile_qr_scan", "android": "https://dc.lft.to/lastmile_qr_scan"}, "is_reserved": 0}, {"lon": -77.0254715, "bike_id": "0534c11cf88417c2ebcbe2f8cc22029d", "lat": 38.92473583333334, "fusion_lon": 0.0, "fusion_lat": 0.0, "type": "electric_scooter", "name": "0534c11cf88417c2ebcbe2f8cc22029d", "is_disabled": 0, "rental_uris": {"ios": "https://dc.lft.to/lastmile_qr_scan", "android": "https://dc.lft.to/lastmile_qr_scan"}, "is_reserved": 0}, {"lon": -77.09864116666667, "bike_id": "b45544b8bad2a26dbeeacbd7fb0dbd0a", "lat": 38.94964066666667, "fusion_lon": 0.0, "fusion_lat": 0.0, "type": "electric_scooter", "name": "b45544b8bad2a26dbeeacbd7fb0dbd0a", "is_disabled": 0, "rental_uris": {"ios": "https://dc.lft.to/lastmile_qr_scan", "android": "https://dc.lft.to/lastmile_qr_scan"}, "is_reserved": 0}, {"lon": -77.00837383333334, "bike_id": "882c77ca02f9bcf743d4bfae6cbbf8bf", "lat": 38.915629833333334, "fusion_lon": 0.0, "fusion_lat": 0.0, "type": "electric_scooter", "name": "882c77ca02f9bcf743d4bfae6cbbf8bf", "is_disabled": 0, "rental_uris": {"ios": "https://dc.lft.to/lastmile_qr_scan", "android": "https://dc.lft.to/lastmile_qr_scan"}, "is_reserved": 0}, {"lon": -77.00864066666666, "bike_id": "58c49e83d98b8ba3a5c38ef8403305a6", "lat": 38.90660033333333, "fusion_lon": 0.0, "fusion_lat": 0.0, "type": "electric_scooter", "name": "58c49e83d98b8ba3a5c38ef8403305a6", "is_disabled": 0, "rental_uris": {"ios": "https://dc.lft.to/lastmile_qr_scan", "android": "https://dc.lft.to/lastmile_qr_scan"}, "is_reserved": 0}, {"lon": -76.994505, "bike_id": "e4a946b90df53132dfefe9a6bd44f29b", "lat": 38.96617116666667, "fusion_lon": 0.0, "fusion_lat": 0.0, "type": "electric_bike", "name": "e4a946b90df53132dfefe9a6bd44f29b", "is_disabled": 0, "rental_uris": {"ios": "https://dc.lft.to/lastmile_qr_scan", "android": "https://dc.lft.to/lastmile_qr_scan"}, "is_reserved": 0}, {"lon": -77.005963, "bike_id": "f1b38c818ef416b4aaa3e9a25439f8c7", "lat": 38.876209333333335, "fusion_lon": 0.0, "fusion_lat": 0.0, "type": "electric_scooter", "name": "f1b38c818ef416b4aaa3e9a25439f8c7", "is_disabled": 0, "rental_uris": {"ios": "https://dc.lft.to/lastmile_qr_scan", "android": "https://dc.lft.to/lastmile_qr_scan"}, "is_reserved": 0}, {"lon": -77.04583566666666, "bike_id": "92897398cbb12fe36f1e61dabcccff46", "lat": 38.92123683333333, "fusion_lon": 0.0, "fusion_lat": 0.0, "type": "electric_scooter", "name": "92897398cbb12fe36f1e61dabcccff46", "is_disabled": 0, "rental_uris": {"ios": "https://dc.lft.to/lastmile_qr_scan", "android": "https://dc.lft.to/lastmile_qr_scan"}, "is_reserved": 0}, {"lon": -76.99543066666666, "bike_id": "ec6639a9bd0d900c78d3349e3c3ab7aa", "lat": 38.862565000000004, "fusion_lon": 0.0, "fusion_lat": 0.0, "type": "electric_scooter", "name": "ec6639a9bd0d900c78d3349e3c3ab7aa", "is_disabled": 0, "rental_uris": {"ios": "https://dc.lft.to/lastmile_qr_scan", "android": "https://dc.lft.to/lastmile_qr_scan"}, "is_reserved": 0}, {"lon": -77.05024116666667, "bike_id": "d8ab42e748325662f9969bbae83962d5", "lat": 38.89674216666667, "fusion_lon": 0.0, "fusion_lat": 0.0, "type": "electric_scooter", "name": "d8ab42e748325662f9969bbae83962d5", "is_disabled": 0, "rental_uris": {"ios": "https://dc.lft.to/lastmile_qr_scan", "android": "https://dc.lft.to/lastmile_qr_scan"}, "is_reserved": 0}, {"lon": -77.00691133333333, "bike_id": "fa7a9d8f45c5c4e6e24543fa1f1e5c50", "lat": 38.87653483333333, "fusion_lon": 0.0, "fusion_lat": 0.0, "type": "electric_scooter", "name": "fa7a9d8f45c5c4e6e24543fa1f1e5c50", "is_disabled": 0, "rental_uris": {"ios": "https://dc.lft.to/lastmile_qr_scan", "android": "https://dc.lft.to/lastmile_qr_scan"}, "is_reserved": 0}, {"lon": -77.0037315, "bike_id": "9a9db3fb5280bb66ae0592261d3b96e8", "lat": 38.897309166666666, "fusion_lon": 0.0, "fusion_lat": 0.0, "type": "electric_scooter", "name": "9a9db3fb5280bb66ae0592261d3b96e8", "is_disabled": 0, "rental_uris": {"ios": "https://dc.lft.to/lastmile_qr_scan", "android": "https://dc.lft.to/lastmile_qr_scan"}, "is_reserved": 0}, {"lon": -77.00045116666666, "bike_id": "01771ad52be40d29ced6fbb83a779b03", "lat": 38.896468666666664, "fusion_lon": 0.0, "fusion_lat": 0.0, "type": "electric_scooter", "name": "01771ad52be40d29ced6fbb83a779b03", "is_disabled": 0, "rental_uris": {"ios": "https://dc.lft.to/lastmile_qr_scan", "android": "https://dc.lft.to/lastmile_qr_scan"}, "is_reserved": 0}, {"lon": -77.03554733333333, "bike_id": "1fdcc30861286b3a9e9142f4cac46317", "lat": 38.917085666666665, "fusion_lon": 0.0, "fusion_lat": 0.0, "type": "electric_scooter", "name": "1fdcc30861286b3a9e9142f4cac46317", "is_disabled": 0, "rental_uris": {"ios": "https://dc.lft.to/lastmile_qr_scan", "android": "https://dc.lft.to/lastmile_qr_scan"}, "is_reserved": 0}, {"lon": -77.03437166666667, "bike_id": "e595db610808b068cbd384b715c4465b", "lat": 38.90744383333333, "fusion_lon": 0.0, "fusion_lat": 0.0, "type": "electric_scooter", "name": "e595db610808b068cbd384b715c4465b", "is_disabled": 0, "rental_uris": {"ios": "https://dc.lft.to/lastmile_qr_scan", "android": "https://dc.lft.to/lastmile_qr_scan"}, "is_reserved": 0}, {"lon": -77.0343335, "bike_id": "3fb01315092a9c064ed40263ef1942a1", "lat": 38.910331166666666, "fusion_lon": 0.0, "fusion_lat": 0.0, "type": "electric_scooter", "name": "3fb01315092a9c064ed40263ef1942a1", "is_disabled": 0, "rental_uris": {"ios": "https://dc.lft.to/lastmile_qr_scan", "android": "https://dc.lft.to/lastmile_qr_scan"}, "is_reserved": 0}, {"lon": -77.01321266666666, "bike_id": "36122e20c5ceec86efce2d6ce51c7f90", "lat": 38.871555666666666, "fusion_lon": 0.0, "fusion_lat": 0.0, "type": "electric_scooter", "name": "36122e20c5ceec86efce2d6ce51c7f90", "is_disabled": 0, "rental_uris": {"ios": "https://dc.lft.to/lastmile_qr_scan", "android": "https://dc.lft.to/lastmile_qr_scan"}, "is_reserved": 0}, {"lon": -77.0629115, "bike_id": "08e2ed947c1c0c703203dfa884aac775", "lat": 38.903592333333336, "fusion_lon": 0.0, "fusion_lat": 0.0, "type": "electric_scooter", "name": "08e2ed947c1c0c703203dfa884aac775", "is_disabled": 0, "rental_uris": {"ios": "https://dc.lft.to/lastmile_qr_scan", "android": "https://dc.lft.to/lastmile_qr_scan"}, "is_reserved": 0}, {"lon": -77.04155616666667, "bike_id": "e5dfa89a5e65d5d08b53647d1af4c156", "lat": 38.918655666666666, "fusion_lon": 0.0, "fusion_lat": 0.0, "type": "electric_scooter", "name": "e5dfa89a5e65d5d08b53647d1af4c156", "is_disabled": 0, "rental_uris": {"ios": "https://dc.lft.to/lastmile_qr_scan", "android": "https://dc.lft.to/lastmile_qr_scan"}, "is_reserved": 0}, {"lon": -77.019477, "bike_id": "dc26741b493e13b5fab36a3451b95d7c", "lat": 38.90092116666667, "fusion_lon": 0.0, "fusion_lat": 0.0, "type": "electric_scooter", "name": "dc26741b493e13b5fab36a3451b95d7c", "is_disabled": 0, "rental_uris": {"ios": "https://dc.lft.to/lastmile_qr_scan", "android": "https://dc.lft.to/lastmile_qr_scan"}, "is_reserved": 0}, {"lon": -77.03180133333333, "bike_id": "11d1f7f28eb509abda57a13808d801e3", "lat": 38.919221666666665, "fusion_lon": 0.0, "fusion_lat": 0.0, "type": "electric_scooter", "name": "11d1f7f28eb509abda57a13808d801e3", "is_disabled": 0, "rental_uris": {"ios": "https://dc.lft.to/lastmile_qr_scan", "android": "https://dc.lft.to/lastmile_qr_scan"}, "is_reserved": 0}, {"lon": -76.98464366666667, "bike_id": "27788a746a3433be4594abb0aae7ffd9", "lat": 38.90395616666667, "fusion_lon": 0.0, "fusion_lat": 0.0, "type": "electric_scooter", "name": "27788a746a3433be4594abb0aae7ffd9", "is_disabled": 0, "rental_uris": {"ios": "https://dc.lft.to/lastmile_qr_scan", "android": "https://dc.lft.to/lastmile_qr_scan"}, "is_reserved": 0}, {"lon": -77.02807033333333, "bike_id": "337eb87ee8496a43d6325d89b7b8de9c", "lat": 38.8818185, "fusion_lon": 0.0, "fusion_lat": 0.0, "type": "electric_scooter", "name": "337eb87ee8496a43d6325d89b7b8de9c", "is_disabled": 0, "rental_uris": {"ios": "https://dc.lft.to/lastmile_qr_scan", "android": "https://dc.lft.to/lastmile_qr_scan"}, "is_reserved": 0}, {"lon": -76.9974395, "bike_id": "99197336bc3095949eda7fa3e657b62b", "lat": 38.90044816666666, "fusion_lon": 0.0, "fusion_lat": 0.0, "type": "electric_scooter", "name": "99197336bc3095949eda7fa3e657b62b", "is_disabled": 0, "rental_uris": {"ios": "https://dc.lft.to/lastmile_qr_scan", "android": "https://dc.lft.to/lastmile_qr_scan"}, "is_reserved": 0}, {"lon": -76.994567, "bike_id": "807d6bdfffd92fb6b0ff9c4c0fc91583", "lat": 38.862171833333335, "fusion_lon": 0.0, "fusion_lat": 0.0, "type": "electric_scooter", "name": "807d6bdfffd92fb6b0ff9c4c0fc91583", "is_disabled": 0, "rental_uris": {"ios": "https://dc.lft.to/lastmile_qr_scan", "android": "https://dc.lft.to/lastmile_qr_scan"}, "is_reserved": 0}, {"lon": -77.01486433333334, "bike_id": "fdfc15ef83d11205f95dfe3b109ae9d9", "lat": 38.927377666666665, "fusion_lon": 0.0, "fusion_lat": 0.0, "type": "electric_scooter", "name": "fdfc15ef83d11205f95dfe3b109ae9d9", "is_disabled": 0, "rental_uris": {"ios": "https://dc.lft.to/lastmile_qr_scan", "android": "https://dc.lft.to/lastmile_qr_scan"}, "is_reserved": 0}, {"lon": -77.021984, "bike_id": "5784afdb95e13fd34eeeb1fd62147fbe", "lat": 38.9054255, "fusion_lon": 0.0, "fusion_lat": 0.0, "type": "electric_scooter", "name": "5784afdb95e13fd34eeeb1fd62147fbe", "is_disabled": 0, "rental_uris": {"ios": "https://dc.lft.to/lastmile_qr_scan", "android": "https://dc.lft.to/lastmile_qr_scan"}, "is_reserved": 0}, {"lon": -77.04203866666667, "bike_id": "72349e6410e29028100662550b39c4da", "lat": 38.9231985, "fusion_lon": 0.0, "fusion_lat": 0.0, "type": "electric_scooter", "name": "72349e6410e29028100662550b39c4da", "is_disabled": 0, "rental_uris": {"ios": "https://dc.lft.to/lastmile_qr_scan", "android": "https://dc.lft.to/lastmile_qr_scan"}, "is_reserved": 0}, {"lon": -77.02760766666667, "bike_id": "9c5bc2971fe2185ddb454d36fa1596a1", "lat": 38.95427383333333, "fusion_lon": 0.0, "fusion_lat": 0.0, "type": "electric_scooter", "name": "9c5bc2971fe2185ddb454d36fa1596a1", "is_disabled": 0, "rental_uris": {"ios": "https://dc.lft.to/lastmile_qr_scan", "android": "https://dc.lft.to/lastmile_qr_scan"}, "is_reserved": 0}, {"lon": -77.00050566666667, "bike_id": "c8fb36c1f516ff38946e5f1d94ee0885", "lat": 38.87441466666667, "fusion_lon": 0.0, "fusion_lat": 0.0, "type": "electric_scooter", "name": "c8fb36c1f516ff38946e5f1d94ee0885", "is_disabled": 0, "rental_uris": {"ios": "https://dc.lft.to/lastmile_qr_scan", "android": "https://dc.lft.to/lastmile_qr_scan"}, "is_reserved": 0}, {"lon": -76.9791565, "bike_id": "53f50073be99343aed00fdec838cdf75", "lat": 38.86346866666667, "fusion_lon": 0.0, "fusion_lat": 0.0, "type": "electric_scooter", "name": "53f50073be99343aed00fdec838cdf75", "is_disabled": 0, "rental_uris": {"ios": "https://dc.lft.to/lastmile_qr_scan", "android": "https://dc.lft.to/lastmile_qr_scan"}, "is_reserved": 0}, {"lon": -77.04863316666666, "bike_id": "081824222e9588fb65b7dc691e162d35", "lat": 38.8922205, "fusion_lon": 0.0, "fusion_lat": 0.0, "type": "electric_scooter", "name": "081824222e9588fb65b7dc691e162d35", "is_disabled": 0, "rental_uris": {"ios": "https://dc.lft.to/lastmile_qr_scan", "android": "https://dc.lft.to/lastmile_qr_scan"}, "is_reserved": 0}, {"lon": -77.01997883333334, "bike_id": "57a01dbe398c4aa96b0ad32aab85eea8", "lat": 38.96626583333333, "fusion_lon": 0.0, "fusion_lat": 0.0, "type": "electric_scooter", "name": "57a01dbe398c4aa96b0ad32aab85eea8", "is_disabled": 0, "rental_uris": {"ios": "https://dc.lft.to/lastmile_qr_scan", "android": "https://dc.lft.to/lastmile_qr_scan"}, "is_reserved": 0}, {"lon": -77.027125, "bike_id": "5c7661e032998ca2ed67f309339655cc", "lat": 38.90078833333333, "fusion_lon": 0.0, "fusion_lat": 0.0, "type": "electric_scooter", "name": "5c7661e032998ca2ed67f309339655cc", "is_disabled": 0, "rental_uris": {"ios": "https://dc.lft.to/lastmile_qr_scan", "android": "https://dc.lft.to/lastmile_qr_scan"}, "is_reserved": 0}, {"lon": -77.0223345, "bike_id": "22ce86e1c72ff3dacac4857ba4cd89b9", "lat": 38.87815466666667, "fusion_lon": 0.0, "fusion_lat": 0.0, "type": "electric_scooter", "name": "22ce86e1c72ff3dacac4857ba4cd89b9", "is_disabled": 0, "rental_uris": {"ios": "https://dc.lft.to/lastmile_qr_scan", "android": "https://dc.lft.to/lastmile_qr_scan"}, "is_reserved": 0}, {"lon": -77.03622533333333, "bike_id": "46858af4654a8e31ba4adf258212f144", "lat": 38.936799, "fusion_lon": 0.0, "fusion_lat": 0.0, "type": "electric_scooter", "name": "46858af4654a8e31ba4adf258212f144", "is_disabled": 0, "rental_uris": {"ios": "https://dc.lft.to/lastmile_qr_scan", "android": "https://dc.lft.to/lastmile_qr_scan"}, "is_reserved": 0}, {"lon": -77.07326816666667, "bike_id": "a6c6fb2bf609e9e03c0c1f4080b64a7d", "lat": 38.91401466666667, "fusion_lon": 0.0, "fusion_lat": 0.0, "type": "electric_scooter", "name": "a6c6fb2bf609e9e03c0c1f4080b64a7d", "is_disabled": 0, "rental_uris": {"ios": "https://dc.lft.to/lastmile_qr_scan", "android": "https://dc.lft.to/lastmile_qr_scan"}, "is_reserved": 0}, {"lon": -77.041549, "bike_id": "8efd9aa918cf31d4c82fb1c26e349f3e", "lat": 38.91808366666667, "fusion_lon": 0.0, "fusion_lat": 0.0, "type": "electric_scooter", "name": "8efd9aa918cf31d4c82fb1c26e349f3e", "is_disabled": 0, "rental_uris": {"ios": "https://dc.lft.to/lastmile_qr_scan", "android": "https://dc.lft.to/lastmile_qr_scan"}, "is_reserved": 0}, {"lon": -77.04462733333334, "bike_id": "a15e54242857692d157a4608d60aab68", "lat": 38.91895916666667, "fusion_lon": 0.0, "fusion_lat": 0.0, "type": "electric_scooter", "name": "a15e54242857692d157a4608d60aab68", "is_disabled": 0, "rental_uris": {"ios": "https://dc.lft.to/lastmile_qr_scan", "android": "https://dc.lft.to/lastmile_qr_scan"}, "is_reserved": 0}, {"lon": -77.03328583333334, "bike_id": "b126e26afc8b3c94ebb7f36df1f03c8f", "lat": 38.9390155, "fusion_lon": 0.0, "fusion_lat": 0.0, "type": "electric_scooter", "name": "b126e26afc8b3c94ebb7f36df1f03c8f", "is_disabled": 0, "rental_uris": {"ios": "https://dc.lft.to/lastmile_qr_scan", "android": "https://dc.lft.to/lastmile_qr_scan"}, "is_reserved": 0}, {"lon": -77.0234, "bike_id": "cf81988ea268438cc6f05159e24fb900", "lat": 38.9176735, "fusion_lon": 0.0, "fusion_lat": 0.0, "type": "electric_scooter", "name": "cf81988ea268438cc6f05159e24fb900", "is_disabled": 0, "rental_uris": {"ios": "https://dc.lft.to/lastmile_qr_scan", "android": "https://dc.lft.to/lastmile_qr_scan"}, "is_reserved": 0}, {"lon": -76.96218916666666, "bike_id": "8e7f63b1883fd974d5f651b8aa6ae64d", "lat": 38.877821, "fusion_lon": 0.0, "fusion_lat": 0.0, "type": "electric_scooter", "name": "8e7f63b1883fd974d5f651b8aa6ae64d", "is_disabled": 0, "rental_uris": {"ios": "https://dc.lft.to/lastmile_qr_scan", "android": "https://dc.lft.to/lastmile_qr_scan"}, "is_reserved": 0}, {"lon": -77.04537233333333, "bike_id": "fd0601c83c9e7c9b12608c25f9ef0664", "lat": 38.9340335, "fusion_lon": 0.0, "fusion_lat": 0.0, "type": "electric_scooter", "name": "fd0601c83c9e7c9b12608c25f9ef0664", "is_disabled": 0, "rental_uris": {"ios": "https://dc.lft.to/lastmile_qr_scan", "android": "https://dc.lft.to/lastmile_qr_scan"}, "is_reserved": 0}, {"lon": -77.03030433333333, "bike_id": "ba908934da61c98d16ddec01bd00c0a5", "lat": 38.905725, "fusion_lon": 0.0, "fusion_lat": 0.0, "type": "electric_scooter", "name": "ba908934da61c98d16ddec01bd00c0a5", "is_disabled": 0, "rental_uris": {"ios": "https://dc.lft.to/lastmile_qr_scan", "android": "https://dc.lft.to/lastmile_qr_scan"}, "is_reserved": 0}, {"lon": -77.0393675, "bike_id": "585204246a5bf539a547694abf443a5d", "lat": 38.917559, "fusion_lon": 0.0, "fusion_lat": 0.0, "type": "electric_scooter", "name": "585204246a5bf539a547694abf443a5d", "is_disabled": 0, "rental_uris": {"ios": "https://dc.lft.to/lastmile_qr_scan", "android": "https://dc.lft.to/lastmile_qr_scan"}, "is_reserved": 0}, {"lon": -77.02123983333334, "bike_id": "cb721176618f010efec1c0d7813c4c41", "lat": 38.924778, "fusion_lon": 0.0, "fusion_lat": 0.0, "type": "electric_scooter", "name": "cb721176618f010efec1c0d7813c4c41", "is_disabled": 0, "rental_uris": {"ios": "https://dc.lft.to/lastmile_qr_scan", "android": "https://dc.lft.to/lastmile_qr_scan"}, "is_reserved": 0}, {"lon": -77.0361565, "bike_id": "6b9b1cb81741b1f4ff4a37c784832b48", "lat": 38.917205333333335, "fusion_lon": 0.0, "fusion_lat": 0.0, "type": "electric_scooter", "name": "6b9b1cb81741b1f4ff4a37c784832b48", "is_disabled": 0, "rental_uris": {"ios": "https://dc.lft.to/lastmile_qr_scan", "android": "https://dc.lft.to/lastmile_qr_scan"}, "is_reserved": 0}, {"lon": -77.02929583333334, "bike_id": "40a162bc1c6669d8be7a9cf2960c77da", "lat": 38.93462266666667, "fusion_lon": 0.0, "fusion_lat": 0.0, "type": "electric_scooter", "name": "40a162bc1c6669d8be7a9cf2960c77da", "is_disabled": 0, "rental_uris": {"ios": "https://dc.lft.to/lastmile_qr_scan", "android": "https://dc.lft.to/lastmile_qr_scan"}, "is_reserved": 0}, {"lon": -77.026155, "bike_id": "e72a643eee4eb1cb37d51418b7ca4b7e", "lat": 38.90562533333333, "fusion_lon": 0.0, "fusion_lat": 0.0, "type": "electric_scooter", "name": "e72a643eee4eb1cb37d51418b7ca4b7e", "is_disabled": 0, "rental_uris": {"ios": "https://dc.lft.to/lastmile_qr_scan", "android": "https://dc.lft.to/lastmile_qr_scan"}, "is_reserved": 0}, {"lon": -76.99013983333333, "bike_id": "10d51e21b9e66cd81305239df5eecc6a", "lat": 38.894175, "fusion_lon": 0.0, "fusion_lat": 0.0, "type": "electric_scooter", "name": "10d51e21b9e66cd81305239df5eecc6a", "is_disabled": 0, "rental_uris": {"ios": "https://dc.lft.to/lastmile_qr_scan", "android": "https://dc.lft.to/lastmile_qr_scan"}, "is_reserved": 0}, {"lon": -77.03103733333333, "bike_id": "1b0e97ebf556597d6a26e1feb1d54685", "lat": 38.89721016666667, "fusion_lon": 0.0, "fusion_lat": 0.0, "type": "electric_scooter", "name": "1b0e97ebf556597d6a26e1feb1d54685", "is_disabled": 0, "rental_uris": {"ios": "https://dc.lft.to/lastmile_qr_scan", "android": "https://dc.lft.to/lastmile_qr_scan"}, "is_reserved": 0}, {"lon": -77.00246416666667, "bike_id": "7fc661ba029bd5ea358cf12760531633", "lat": 38.90241666666667, "fusion_lon": 0.0, "fusion_lat": 0.0, "type": "electric_scooter", "name": "7fc661ba029bd5ea358cf12760531633", "is_disabled": 0, "rental_uris": {"ios": "https://dc.lft.to/lastmile_qr_scan", "android": "https://dc.lft.to/lastmile_qr_scan"}, "is_reserved": 0}, {"lon": -77.04170583333334, "bike_id": "3003e774289b79783dd3f8c89f9cc1f7", "lat": 38.905314, "fusion_lon": 0.0, "fusion_lat": 0.0, "type": "electric_scooter", "name": "3003e774289b79783dd3f8c89f9cc1f7", "is_disabled": 0, "rental_uris": {"ios": "https://dc.lft.to/lastmile_qr_scan", "android": "https://dc.lft.to/lastmile_qr_scan"}, "is_reserved": 0}, {"lon": -77.0462585, "bike_id": "fb59aec33e6d5404d694ced19c2f3382", "lat": 38.919106, "fusion_lon": 0.0, "fusion_lat": 0.0, "type": "electric_scooter", "name": "fb59aec33e6d5404d694ced19c2f3382", "is_disabled": 0, "rental_uris": {"ios": "https://dc.lft.to/lastmile_qr_scan", "android": "https://dc.lft.to/lastmile_qr_scan"}, "is_reserved": 0}, {"lon": -77.0526645, "bike_id": "ba9338fc711370701d989838f314fc6d", "lat": 38.9277285, "fusion_lon": 0.0, "fusion_lat": 0.0, "type": "electric_scooter", "name": "ba9338fc711370701d989838f314fc6d", "is_disabled": 0, "rental_uris": {"ios": "https://dc.lft.to/lastmile_qr_scan", "android": "https://dc.lft.to/lastmile_qr_scan"}, "is_reserved": 0}, {"lon": -77.05919233333333, "bike_id": "53ef64d0f1d85bea5c390e3461e37daa", "lat": 38.86249133333333, "fusion_lon": 0.0, "fusion_lat": 0.0, "type": "electric_scooter", "name": "53ef64d0f1d85bea5c390e3461e37daa", "is_disabled": 0, "rental_uris": {"ios": "https://dc.lft.to/lastmile_qr_scan", "android": "https://dc.lft.to/lastmile_qr_scan"}, "is_reserved": 0}, {"lon": -76.94402816666667, "bike_id": "6b3e24aa642da6c97d98eb5a67a7b223", "lat": 38.881416333333334, "fusion_lon": 0.0, "fusion_lat": 0.0, "type": "electric_scooter", "name": "6b3e24aa642da6c97d98eb5a67a7b223", "is_disabled": 0, "rental_uris": {"ios": "https://dc.lft.to/lastmile_qr_scan", "android": "https://dc.lft.to/lastmile_qr_scan"}, "is_reserved": 0}, {"lon": -77.03302816666667, "bike_id": "07a6193809bc53ee22210462e636d897", "lat": 38.92357483333333, "fusion_lon": 0.0, "fusion_lat": 0.0, "type": "electric_scooter", "name": "07a6193809bc53ee22210462e636d897", "is_disabled": 0, "rental_uris": {"ios": "https://dc.lft.to/lastmile_qr_scan", "android": "https://dc.lft.to/lastmile_qr_scan"}, "is_reserved": 0}, {"lon": -77.00656983333333, "bike_id": "b968004ffa39c92f4491fceb2832d0ef", "lat": 38.9003195, "fusion_lon": 0.0, "fusion_lat": 0.0, "type": "electric_scooter", "name": "b968004ffa39c92f4491fceb2832d0ef", "is_disabled": 0, "rental_uris": {"ios": "https://dc.lft.to/lastmile_qr_scan", "android": "https://dc.lft.to/lastmile_qr_scan"}, "is_reserved": 0}, {"lon": -76.99509866666666, "bike_id": "9add9de9d844030dc2b06d4e19f46266", "lat": 38.88348916666666, "fusion_lon": 0.0, "fusion_lat": 0.0, "type": "electric_scooter", "name": "9add9de9d844030dc2b06d4e19f46266", "is_disabled": 0, "rental_uris": {"ios": "https://dc.lft.to/lastmile_qr_scan", "android": "https://dc.lft.to/lastmile_qr_scan"}, "is_reserved": 0}, {"lon": -77.04575733333333, "bike_id": "7af50fda1d5f116034088505009462b6", "lat": 38.921222666666665, "fusion_lon": 0.0, "fusion_lat": 0.0, "type": "electric_scooter", "name": "7af50fda1d5f116034088505009462b6", "is_disabled": 0, "rental_uris": {"ios": "https://dc.lft.to/lastmile_qr_scan", "android": "https://dc.lft.to/lastmile_qr_scan"}, "is_reserved": 0}, {"lon": -77.0227445, "bike_id": "8050cad0b3b2798433a6c095ac632522", "lat": 38.92726, "fusion_lon": 0.0, "fusion_lat": 0.0, "type": "electric_scooter", "name": "8050cad0b3b2798433a6c095ac632522", "is_disabled": 0, "rental_uris": {"ios": "https://dc.lft.to/lastmile_qr_scan", "android": "https://dc.lft.to/lastmile_qr_scan"}, "is_reserved": 0}, {"lon": -76.993534, "bike_id": "0ed52d9b654bcb08f974d622f394b340", "lat": 38.8450665, "fusion_lon": 0.0, "fusion_lat": 0.0, "type": "electric_bike", "name": "0ed52d9b654bcb08f974d622f394b340", "is_disabled": 0, "rental_uris": {"ios": "https://dc.lft.to/lastmile_qr_scan", "android": "https://dc.lft.to/lastmile_qr_scan"}, "is_reserved": 0}, {"lon": -77.02799766666666, "bike_id": "d7c1d3e91e6314f56a51640600ff2b15", "lat": 38.929716166666665, "fusion_lon": 0.0, "fusion_lat": 0.0, "type": "electric_scooter", "name": "d7c1d3e91e6314f56a51640600ff2b15", "is_disabled": 0, "rental_uris": {"ios": "https://dc.lft.to/lastmile_qr_scan", "android": "https://dc.lft.to/lastmile_qr_scan"}, "is_reserved": 0}, {"lon": -76.99533483333333, "bike_id": "b9a262e31e06092f3c53e17ba47f497b", "lat": 38.9266755, "fusion_lon": 0.0, "fusion_lat": 0.0, "type": "electric_scooter", "name": "b9a262e31e06092f3c53e17ba47f497b", "is_disabled": 0, "rental_uris": {"ios": "https://dc.lft.to/lastmile_qr_scan", "android": "https://dc.lft.to/lastmile_qr_scan"}, "is_reserved": 0}, {"lon": -77.026121, "bike_id": "a888ff840eb96a7d0faf320998a78247", "lat": 38.89617366666667, "fusion_lon": 0.0, "fusion_lat": 0.0, "type": "electric_scooter", "name": "a888ff840eb96a7d0faf320998a78247", "is_disabled": 0, "rental_uris": {"ios": "https://dc.lft.to/lastmile_qr_scan", "android": "https://dc.lft.to/lastmile_qr_scan"}, "is_reserved": 0}, {"lon": -76.99547833333334, "bike_id": "d496d5a63da323fb7b05377ceb9994e8", "lat": 38.862602333333335, "fusion_lon": 0.0, "fusion_lat": 0.0, "type": "electric_scooter", "name": "d496d5a63da323fb7b05377ceb9994e8", "is_disabled": 0, "rental_uris": {"ios": "https://dc.lft.to/lastmile_qr_scan", "android": "https://dc.lft.to/lastmile_qr_scan"}, "is_reserved": 0}, {"lon": -77.03163616666667, "bike_id": "79b88f848f057f4129de1abfb54de485", "lat": 38.89206883333333, "fusion_lon": 0.0, "fusion_lat": 0.0, "type": "electric_scooter", "name": "79b88f848f057f4129de1abfb54de485", "is_disabled": 0, "rental_uris": {"ios": "https://dc.lft.to/lastmile_qr_scan", "android": "https://dc.lft.to/lastmile_qr_scan"}, "is_reserved": 0}, {"lon": -77.016248, "bike_id": "32005297da1b4112b9d3455733b27f33", "lat": 38.92895566666667, "fusion_lon": 0.0, "fusion_lat": 0.0, "type": "electric_scooter", "name": "32005297da1b4112b9d3455733b27f33", "is_disabled": 0, "rental_uris": {"ios": "https://dc.lft.to/lastmile_qr_scan", "android": "https://dc.lft.to/lastmile_qr_scan"}, "is_reserved": 0}, {"lon": -76.93127733333333, "bike_id": "f963a2ca085c81289be717d1c5e72604", "lat": 38.876098166666665, "fusion_lon": 0.0, "fusion_lat": 0.0, "type": "electric_scooter", "name": "f963a2ca085c81289be717d1c5e72604", "is_disabled": 0, "rental_uris": {"ios": "https://dc.lft.to/lastmile_qr_scan", "android": "https://dc.lft.to/lastmile_qr_scan"}, "is_reserved": 0}, {"lon": -77.023502, "bike_id": "1b3013904efc93fd52b5a2d8709b9417", "lat": 38.935329333333335, "fusion_lon": 0.0, "fusion_lat": 0.0, "type": "electric_scooter", "name": "1b3013904efc93fd52b5a2d8709b9417", "is_disabled": 0, "rental_uris": {"ios": "https://dc.lft.to/lastmile_qr_scan", "android": "https://dc.lft.to/lastmile_qr_scan"}, "is_reserved": 0}, {"lon": -77.018488, "bike_id": "eba6ad928ff40506f4868f1a037fd45c", "lat": 38.914921, "fusion_lon": 0.0, "fusion_lat": 0.0, "type": "electric_scooter", "name": "eba6ad928ff40506f4868f1a037fd45c", "is_disabled": 0, "rental_uris": {"ios": "https://dc.lft.to/lastmile_qr_scan", "android": "https://dc.lft.to/lastmile_qr_scan"}, "is_reserved": 0}, {"lon": -77.04181133333333, "bike_id": "b572607dee77caa9a1bc7256dae42227", "lat": 38.92034733333333, "fusion_lon": 0.0, "fusion_lat": 0.0, "type": "electric_scooter", "name": "b572607dee77caa9a1bc7256dae42227", "is_disabled": 0, "rental_uris": {"ios": "https://dc.lft.to/lastmile_qr_scan", "android": "https://dc.lft.to/lastmile_qr_scan"}, "is_reserved": 0}, {"lon": -77.02475533333333, "bike_id": "353bc7ef5c0ceacf2ed429eee05fc2fd", "lat": 38.918185, "fusion_lon": 0.0, "fusion_lat": 0.0, "type": "electric_scooter", "name": "353bc7ef5c0ceacf2ed429eee05fc2fd", "is_disabled": 0, "rental_uris": {"ios": "https://dc.lft.to/lastmile_qr_scan", "android": "https://dc.lft.to/lastmile_qr_scan"}, "is_reserved": 0}, {"lon": -77.03282, "bike_id": "f0f13769a9bebe530ebdc9ce16ea50b3", "lat": 38.93643466666666, "fusion_lon": 0.0, "fusion_lat": 0.0, "type": "electric_scooter", "name": "f0f13769a9bebe530ebdc9ce16ea50b3", "is_disabled": 0, "rental_uris": {"ios": "https://dc.lft.to/lastmile_qr_scan", "android": "https://dc.lft.to/lastmile_qr_scan"}, "is_reserved": 0}, {"lon": -77.03355383333333, "bike_id": "eab4a4d4e30d24d2d183fc94cdf96bff", "lat": 38.92873816666667, "fusion_lon": 0.0, "fusion_lat": 0.0, "type": "electric_scooter", "name": "eab4a4d4e30d24d2d183fc94cdf96bff", "is_disabled": 0, "rental_uris": {"ios": "https://dc.lft.to/lastmile_qr_scan", "android": "https://dc.lft.to/lastmile_qr_scan"}, "is_reserved": 0}, {"lon": -77.05211916666667, "bike_id": "062a72dd76640b1eb3fe71b20891c0a6", "lat": 38.9156325, "fusion_lon": 0.0, "fusion_lat": 0.0, "type": "electric_scooter", "name": "062a72dd76640b1eb3fe71b20891c0a6", "is_disabled": 0, "rental_uris": {"ios": "https://dc.lft.to/lastmile_qr_scan", "android": "https://dc.lft.to/lastmile_qr_scan"}, "is_reserved": 0}, {"lon": -77.0386325, "bike_id": "7810b6247396b0a0ac224d3935c08af2", "lat": 38.91710033333333, "fusion_lon": 0.0, "fusion_lat": 0.0, "type": "electric_scooter", "name": "7810b6247396b0a0ac224d3935c08af2", "is_disabled": 0, "rental_uris": {"ios": "https://dc.lft.to/lastmile_qr_scan", "android": "https://dc.lft.to/lastmile_qr_scan"}, "is_reserved": 0}, {"lon": -77.034319, "bike_id": "a9d3f8e9897c5e58637bb7f4787703f9", "lat": 38.90963133333333, "fusion_lon": 0.0, "fusion_lat": 0.0, "type": "electric_scooter", "name": "a9d3f8e9897c5e58637bb7f4787703f9", "is_disabled": 0, "rental_uris": {"ios": "https://dc.lft.to/lastmile_qr_scan", "android": "https://dc.lft.to/lastmile_qr_scan"}, "is_reserved": 0}, {"lon": -76.93720116666667, "bike_id": "6e6fe1b63fb2728031da1fb4e455b7d9", "lat": 38.88658983333333, "fusion_lon": 0.0, "fusion_lat": 0.0, "type": "electric_scooter", "name": "6e6fe1b63fb2728031da1fb4e455b7d9", "is_disabled": 0, "rental_uris": {"ios": "https://dc.lft.to/lastmile_qr_scan", "android": "https://dc.lft.to/lastmile_qr_scan"}, "is_reserved": 0}, {"lon": -77.04044983333333, "bike_id": "c8006a65dccee38d678cdebe4f7de1d6", "lat": 38.923197, "fusion_lon": 0.0, "fusion_lat": 0.0, "type": "electric_scooter", "name": "c8006a65dccee38d678cdebe4f7de1d6", "is_disabled": 0, "rental_uris": {"ios": "https://dc.lft.to/lastmile_qr_scan", "android": "https://dc.lft.to/lastmile_qr_scan"}, "is_reserved": 0}, {"lon": -77.02356566666667, "bike_id": "6ad49dcda365184a93853ac62c9ad285", "lat": 38.892188, "fusion_lon": 0.0, "fusion_lat": 0.0, "type": "electric_scooter", "name": "6ad49dcda365184a93853ac62c9ad285", "is_disabled": 0, "rental_uris": {"ios": "https://dc.lft.to/lastmile_qr_scan", "android": "https://dc.lft.to/lastmile_qr_scan"}, "is_reserved": 0}, {"lon": -77.04367983333333, "bike_id": "5b39c36badaed7228c0aac1f6b62ca70", "lat": 38.89849316666667, "fusion_lon": 0.0, "fusion_lat": 0.0, "type": "electric_scooter", "name": "5b39c36badaed7228c0aac1f6b62ca70", "is_disabled": 0, "rental_uris": {"ios": "https://dc.lft.to/lastmile_qr_scan", "android": "https://dc.lft.to/lastmile_qr_scan"}, "is_reserved": 0}, {"lon": -77.00427883333333, "bike_id": "e4adb182eb78cc35c9fe8cccf71b57aa", "lat": 38.913340833333336, "fusion_lon": 0.0, "fusion_lat": 0.0, "type": "electric_scooter", "name": "e4adb182eb78cc35c9fe8cccf71b57aa", "is_disabled": 0, "rental_uris": {"ios": "https://dc.lft.to/lastmile_qr_scan", "android": "https://dc.lft.to/lastmile_qr_scan"}, "is_reserved": 0}, {"lon": -77.038341, "bike_id": "0ca88eebc0db3bd920c77fbacb9dbaba", "lat": 38.91093566666667, "fusion_lon": 0.0, "fusion_lat": 0.0, "type": "electric_scooter", "name": "0ca88eebc0db3bd920c77fbacb9dbaba", "is_disabled": 0, "rental_uris": {"ios": "https://dc.lft.to/lastmile_qr_scan", "android": "https://dc.lft.to/lastmile_qr_scan"}, "is_reserved": 0}, {"lon": -76.94632716666666, "bike_id": "580f36cad3b76810f322bb194932555c", "lat": 38.898307, "fusion_lon": 0.0, "fusion_lat": 0.0, "type": "electric_scooter", "name": "580f36cad3b76810f322bb194932555c", "is_disabled": 0, "rental_uris": {"ios": "https://dc.lft.to/lastmile_qr_scan", "android": "https://dc.lft.to/lastmile_qr_scan"}, "is_reserved": 0}, {"lon": -76.98497433333333, "bike_id": "24dbc2fa14a7fbba970686ab79f0d72d", "lat": 38.87838516666667, "fusion_lon": 0.0, "fusion_lat": 0.0, "type": "electric_scooter", "name": "24dbc2fa14a7fbba970686ab79f0d72d", "is_disabled": 0, "rental_uris": {"ios": "https://dc.lft.to/lastmile_qr_scan", "android": "https://dc.lft.to/lastmile_qr_scan"}, "is_reserved": 0}, {"lon": -77.049415, "bike_id": "1c792bbc1cb144bff2e894e1258d81fd", "lat": 38.908452, "fusion_lon": 0.0, "fusion_lat": 0.0, "type": "electric_scooter", "name": "1c792bbc1cb144bff2e894e1258d81fd", "is_disabled": 0, "rental_uris": {"ios": "https://dc.lft.to/lastmile_qr_scan", "android": "https://dc.lft.to/lastmile_qr_scan"}, "is_reserved": 0}, {"lon": -77.04498183333334, "bike_id": "202b9bc1f267c2bf78255771e61ab3bd", "lat": 38.892363, "fusion_lon": 0.0, "fusion_lat": 0.0, "type": "electric_scooter", "name": "202b9bc1f267c2bf78255771e61ab3bd", "is_disabled": 0, "rental_uris": {"ios": "https://dc.lft.to/lastmile_qr_scan", "android": "https://dc.lft.to/lastmile_qr_scan"}, "is_reserved": 0}, {"lon": -77.07096516666667, "bike_id": "d4c40236543469226985693792e87891", "lat": 38.922498166666664, "fusion_lon": 0.0, "fusion_lat": 0.0, "type": "electric_scooter", "name": "d4c40236543469226985693792e87891", "is_disabled": 0, "rental_uris": {"ios": "https://dc.lft.to/lastmile_qr_scan", "android": "https://dc.lft.to/lastmile_qr_scan"}, "is_reserved": 0}, {"lon": -77.01625316666667, "bike_id": "70ffcb4946e2a80b339256b7ef4fb756", "lat": 38.906583499999996, "fusion_lon": 0.0, "fusion_lat": 0.0, "type": "electric_scooter", "name": "70ffcb4946e2a80b339256b7ef4fb756", "is_disabled": 0, "rental_uris": {"ios": "https://dc.lft.to/lastmile_qr_scan", "android": "https://dc.lft.to/lastmile_qr_scan"}, "is_reserved": 0}, {"lon": -77.03215916666667, "bike_id": "67f7433978ead8538638f8968f7ff8b1", "lat": 38.918738166666664, "fusion_lon": 0.0, "fusion_lat": 0.0, "type": "electric_scooter", "name": "67f7433978ead8538638f8968f7ff8b1", "is_disabled": 0, "rental_uris": {"ios": "https://dc.lft.to/lastmile_qr_scan", "android": "https://dc.lft.to/lastmile_qr_scan"}, "is_reserved": 0}, {"lon": -77.02236983333333, "bike_id": "0d085a57456f10a8713bc6af839db283", "lat": 38.922652666666664, "fusion_lon": 0.0, "fusion_lat": 0.0, "type": "electric_scooter", "name": "0d085a57456f10a8713bc6af839db283", "is_disabled": 0, "rental_uris": {"ios": "https://dc.lft.to/lastmile_qr_scan", "android": "https://dc.lft.to/lastmile_qr_scan"}, "is_reserved": 0}, {"lon": -77.03059383333333, "bike_id": "cd77baefdd9d500bc3c6d0cdbc509465", "lat": 38.886040666666666, "fusion_lon": 0.0, "fusion_lat": 0.0, "type": "electric_scooter", "name": "cd77baefdd9d500bc3c6d0cdbc509465", "is_disabled": 0, "rental_uris": {"ios": "https://dc.lft.to/lastmile_qr_scan", "android": "https://dc.lft.to/lastmile_qr_scan"}, "is_reserved": 0}, {"lon": -77.02990216666667, "bike_id": "829d22b763ea6bde2bfcb34eb95f54c3", "lat": 38.97441883333333, "fusion_lon": 0.0, "fusion_lat": 0.0, "type": "electric_bike", "name": "829d22b763ea6bde2bfcb34eb95f54c3", "is_disabled": 0, "rental_uris": {"ios": "https://dc.lft.to/lastmile_qr_scan", "android": "https://dc.lft.to/lastmile_qr_scan"}, "is_reserved": 0}, {"lon": -77.04865916666667, "bike_id": "af401990c6126981672dd1aa23334748", "lat": 38.89222, "fusion_lon": 0.0, "fusion_lat": 0.0, "type": "electric_scooter", "name": "af401990c6126981672dd1aa23334748", "is_disabled": 0, "rental_uris": {"ios": "https://dc.lft.to/lastmile_qr_scan", "android": "https://dc.lft.to/lastmile_qr_scan"}, "is_reserved": 0}, {"lon": -77.0033605, "bike_id": "e317f7addc506b795a9ab3cf618f838d", "lat": 38.89518833333333, "fusion_lon": 0.0, "fusion_lat": 0.0, "type": "electric_scooter", "name": "e317f7addc506b795a9ab3cf618f838d", "is_disabled": 0, "rental_uris": {"ios": "https://dc.lft.to/lastmile_qr_scan", "android": "https://dc.lft.to/lastmile_qr_scan"}, "is_reserved": 0}, {"lon": -77.00048533333333, "bike_id": "03b78a29630c9ca6a31c7e4bc405ab72", "lat": 38.90011583333333, "fusion_lon": 0.0, "fusion_lat": 0.0, "type": "electric_scooter", "name": "03b78a29630c9ca6a31c7e4bc405ab72", "is_disabled": 0, "rental_uris": {"ios": "https://dc.lft.to/lastmile_qr_scan", "android": "https://dc.lft.to/lastmile_qr_scan"}, "is_reserved": 0}, {"lon": -77.01996516666667, "bike_id": "5099c09c2d30d14f60fe6ec7513a5816", "lat": 38.90398833333333, "fusion_lon": 0.0, "fusion_lat": 0.0, "type": "electric_scooter", "name": "5099c09c2d30d14f60fe6ec7513a5816", "is_disabled": 0, "rental_uris": {"ios": "https://dc.lft.to/lastmile_qr_scan", "android": "https://dc.lft.to/lastmile_qr_scan"}, "is_reserved": 0}, {"lon": -77.0325485, "bike_id": "6aaadab2ff1ba69260c295d689cefe75", "lat": 38.9388755, "fusion_lon": 0.0, "fusion_lat": 0.0, "type": "electric_scooter", "name": "6aaadab2ff1ba69260c295d689cefe75", "is_disabled": 0, "rental_uris": {"ios": "https://dc.lft.to/lastmile_qr_scan", "android": "https://dc.lft.to/lastmile_qr_scan"}, "is_reserved": 0}, {"lon": -77.04729416666666, "bike_id": "d10e141b881304ca416598de09c57de6", "lat": 38.90970016666667, "fusion_lon": 0.0, "fusion_lat": 0.0, "type": "electric_scooter", "name": "d10e141b881304ca416598de09c57de6", "is_disabled": 0, "rental_uris": {"ios": "https://dc.lft.to/lastmile_qr_scan", "android": "https://dc.lft.to/lastmile_qr_scan"}, "is_reserved": 0}, {"lon": -77.01881483333334, "bike_id": "61f0883b70882afb64f3b08920f54430", "lat": 38.91485433333333, "fusion_lon": 0.0, "fusion_lat": 0.0, "type": "electric_scooter", "name": "61f0883b70882afb64f3b08920f54430", "is_disabled": 0, "rental_uris": {"ios": "https://dc.lft.to/lastmile_qr_scan", "android": "https://dc.lft.to/lastmile_qr_scan"}, "is_reserved": 0}, {"lon": -76.99765433333333, "bike_id": "21c85110e4f68a3ddf84b886aa124d1a", "lat": 38.92443733333333, "fusion_lon": 0.0, "fusion_lat": 0.0, "type": "electric_scooter", "name": "21c85110e4f68a3ddf84b886aa124d1a", "is_disabled": 0, "rental_uris": {"ios": "https://dc.lft.to/lastmile_qr_scan", "android": "https://dc.lft.to/lastmile_qr_scan"}, "is_reserved": 0}, {"lon": -77.03061633333333, "bike_id": "ef7009649c96e7f9ba621dcd57033157", "lat": 38.90970466666667, "fusion_lon": 0.0, "fusion_lat": 0.0, "type": "electric_scooter", "name": "ef7009649c96e7f9ba621dcd57033157", "is_disabled": 0, "rental_uris": {"ios": "https://dc.lft.to/lastmile_qr_scan", "android": "https://dc.lft.to/lastmile_qr_scan"}, "is_reserved": 0}, {"lon": -77.03698283333334, "bike_id": "4a5b3143a117f2370feb9841c6ee8ba7", "lat": 38.9306005, "fusion_lon": 0.0, "fusion_lat": 0.0, "type": "electric_bike", "name": "4a5b3143a117f2370feb9841c6ee8ba7", "is_disabled": 0, "rental_uris": {"ios": "https://dc.lft.to/lastmile_qr_scan", "android": "https://dc.lft.to/lastmile_qr_scan"}, "is_reserved": 0}, {"lon": -77.01978983333333, "bike_id": "a5dde883836d1ecd30ea515ad83e7dc2", "lat": 38.875819, "fusion_lon": 0.0, "fusion_lat": 0.0, "type": "electric_scooter", "name": "a5dde883836d1ecd30ea515ad83e7dc2", "is_disabled": 0, "rental_uris": {"ios": "https://dc.lft.to/lastmile_qr_scan", "android": "https://dc.lft.to/lastmile_qr_scan"}, "is_reserved": 0}, {"lon": -77.03070966666667, "bike_id": "d4f7735a360cf738aa9166bd59a02c5e", "lat": 38.92246083333333, "fusion_lon": 0.0, "fusion_lat": 0.0, "type": "electric_scooter", "name": "d4f7735a360cf738aa9166bd59a02c5e", "is_disabled": 0, "rental_uris": {"ios": "https://dc.lft.to/lastmile_qr_scan", "android": "https://dc.lft.to/lastmile_qr_scan"}, "is_reserved": 0}, {"lon": -77.03173683333333, "bike_id": "d3c19b4ec3e6001ddc2b7bcc35459e0a", "lat": 38.905123, "fusion_lon": 0.0, "fusion_lat": 0.0, "type": "electric_scooter", "name": "d3c19b4ec3e6001ddc2b7bcc35459e0a", "is_disabled": 0, "rental_uris": {"ios": "https://dc.lft.to/lastmile_qr_scan", "android": "https://dc.lft.to/lastmile_qr_scan"}, "is_reserved": 0}, {"lon": -76.98742066666667, "bike_id": "f088e8e7b20ac0595f39ce78e0730ec5", "lat": 38.88614716666667, "fusion_lon": 0.0, "fusion_lat": 0.0, "type": "electric_scooter", "name": "f088e8e7b20ac0595f39ce78e0730ec5", "is_disabled": 0, "rental_uris": {"ios": "https://dc.lft.to/lastmile_qr_scan", "android": "https://dc.lft.to/lastmile_qr_scan"}, "is_reserved": 0}, {"lon": -77.02979166666667, "bike_id": "5328cac8f6b20a40642537c9fd1dae8b", "lat": 38.930658, "fusion_lon": 0.0, "fusion_lat": 0.0, "type": "electric_scooter", "name": "5328cac8f6b20a40642537c9fd1dae8b", "is_disabled": 0, "rental_uris": {"ios": "https://dc.lft.to/lastmile_qr_scan", "android": "https://dc.lft.to/lastmile_qr_scan"}, "is_reserved": 0}, {"lon": -77.042929, "bike_id": "69dc08d27d8ec5c0a9d185fa3f660f71", "lat": 38.907359666666665, "fusion_lon": 0.0, "fusion_lat": 0.0, "type": "electric_scooter", "name": "69dc08d27d8ec5c0a9d185fa3f660f71", "is_disabled": 0, "rental_uris": {"ios": "https://dc.lft.to/lastmile_qr_scan", "android": "https://dc.lft.to/lastmile_qr_scan"}, "is_reserved": 0}, {"lon": -77.04495916666667, "bike_id": "b24b29c4c628b5b7f9959d3a20c3f037", "lat": 38.9094265, "fusion_lon": 0.0, "fusion_lat": 0.0, "type": "electric_scooter", "name": "b24b29c4c628b5b7f9959d3a20c3f037", "is_disabled": 0, "rental_uris": {"ios": "https://dc.lft.to/lastmile_qr_scan", "android": "https://dc.lft.to/lastmile_qr_scan"}, "is_reserved": 0}, {"lon": -77.03822766666667, "bike_id": "9956d822f570ce348853952be8b4d738", "lat": 38.916881000000004, "fusion_lon": 0.0, "fusion_lat": 0.0, "type": "electric_scooter", "name": "9956d822f570ce348853952be8b4d738", "is_disabled": 0, "rental_uris": {"ios": "https://dc.lft.to/lastmile_qr_scan", "android": "https://dc.lft.to/lastmile_qr_scan"}, "is_reserved": 0}, {"lon": -76.98882766666667, "bike_id": "26246c51e362586e43959f217c894ede", "lat": 38.866606833333336, "fusion_lon": 0.0, "fusion_lat": 0.0, "type": "electric_scooter", "name": "26246c51e362586e43959f217c894ede", "is_disabled": 0, "rental_uris": {"ios": "https://dc.lft.to/lastmile_qr_scan", "android": "https://dc.lft.to/lastmile_qr_scan"}, "is_reserved": 0}, {"lon": -77.02982816666666, "bike_id": "0f8d5ee2ac2f5b56bd5b82d0010c6895", "lat": 38.907328, "fusion_lon": 0.0, "fusion_lat": 0.0, "type": "electric_scooter", "name": "0f8d5ee2ac2f5b56bd5b82d0010c6895", "is_disabled": 0, "rental_uris": {"ios": "https://dc.lft.to/lastmile_qr_scan", "android": "https://dc.lft.to/lastmile_qr_scan"}, "is_reserved": 0}, {"lon": -77.020769, "bike_id": "08446949b7eea776c514f33f3bb8f896", "lat": 38.936322833333335, "fusion_lon": 0.0, "fusion_lat": 0.0, "type": "electric_scooter", "name": "08446949b7eea776c514f33f3bb8f896", "is_disabled": 0, "rental_uris": {"ios": "https://dc.lft.to/lastmile_qr_scan", "android": "https://dc.lft.to/lastmile_qr_scan"}, "is_reserved": 0}, {"lon": -77.02406566666667, "bike_id": "f4d2b44de26f541d7265739f566ed460", "lat": 38.90948933333333, "fusion_lon": 0.0, "fusion_lat": 0.0, "type": "electric_scooter", "name": "f4d2b44de26f541d7265739f566ed460", "is_disabled": 0, "rental_uris": {"ios": "https://dc.lft.to/lastmile_qr_scan", "android": "https://dc.lft.to/lastmile_qr_scan"}, "is_reserved": 0}, {"lon": -77.0003305, "bike_id": "6b331b9c7153f2afc2f198a891bd6143", "lat": 38.967825500000004, "fusion_lon": 0.0, "fusion_lat": 0.0, "type": "electric_bike", "name": "6b331b9c7153f2afc2f198a891bd6143", "is_disabled": 0, "rental_uris": {"ios": "https://dc.lft.to/lastmile_qr_scan", "android": "https://dc.lft.to/lastmile_qr_scan"}, "is_reserved": 0}, {"lon": -77.05410366666666, "bike_id": "34fcbdbaf59e7ec4e6a0708372052137", "lat": 38.90144133333333, "fusion_lon": 0.0, "fusion_lat": 0.0, "type": "electric_scooter", "name": "34fcbdbaf59e7ec4e6a0708372052137", "is_disabled": 0, "rental_uris": {"ios": "https://dc.lft.to/lastmile_qr_scan", "android": "https://dc.lft.to/lastmile_qr_scan"}, "is_reserved": 0}, {"lon": -77.04020916666667, "bike_id": "bf09ba8eaa7ea2b450178104a9ead733", "lat": 38.9037805, "fusion_lon": 0.0, "fusion_lat": 0.0, "type": "electric_scooter", "name": "bf09ba8eaa7ea2b450178104a9ead733", "is_disabled": 0, "rental_uris": {"ios": "https://dc.lft.to/lastmile_qr_scan", "android": "https://dc.lft.to/lastmile_qr_scan"}, "is_reserved": 0}, {"lon": -77.03729166666666, "bike_id": "22b033b59c4803c9f1590bff044b16c9", "lat": 38.91705733333333, "fusion_lon": 0.0, "fusion_lat": 0.0, "type": "electric_scooter", "name": "22b033b59c4803c9f1590bff044b16c9", "is_disabled": 0, "rental_uris": {"ios": "https://dc.lft.to/lastmile_qr_scan", "android": "https://dc.lft.to/lastmile_qr_scan"}, "is_reserved": 0}, {"lon": -77.038436, "bike_id": "14c9dc0d2747893729e8e6921a1b8129", "lat": 38.91092116666667, "fusion_lon": 0.0, "fusion_lat": 0.0, "type": "electric_scooter", "name": "14c9dc0d2747893729e8e6921a1b8129", "is_disabled": 0, "rental_uris": {"ios": "https://dc.lft.to/lastmile_qr_scan", "android": "https://dc.lft.to/lastmile_qr_scan"}, "is_reserved": 0}, {"lon": -77.055889, "bike_id": "564b9f8a958fb05a4a2088d131676861", "lat": 38.91614033333333, "fusion_lon": 0.0, "fusion_lat": 0.0, "type": "electric_scooter", "name": "564b9f8a958fb05a4a2088d131676861", "is_disabled": 0, "rental_uris": {"ios": "https://dc.lft.to/lastmile_qr_scan", "android": "https://dc.lft.to/lastmile_qr_scan"}, "is_reserved": 0}, {"lon": -77.0216435, "bike_id": "5f2bcdf948cf7ab8f8174ecd2e967b13", "lat": 38.89220316666667, "fusion_lon": 0.0, "fusion_lat": 0.0, "type": "electric_scooter", "name": "5f2bcdf948cf7ab8f8174ecd2e967b13", "is_disabled": 0, "rental_uris": {"ios": "https://dc.lft.to/lastmile_qr_scan", "android": "https://dc.lft.to/lastmile_qr_scan"}, "is_reserved": 0}, {"lon": -77.03136366666666, "bike_id": "9f9bdb5606b533e8dfc657cc62734275", "lat": 38.920156, "fusion_lon": 0.0, "fusion_lat": 0.0, "type": "electric_scooter", "name": "9f9bdb5606b533e8dfc657cc62734275", "is_disabled": 0, "rental_uris": {"ios": "https://dc.lft.to/lastmile_qr_scan", "android": "https://dc.lft.to/lastmile_qr_scan"}, "is_reserved": 0}, {"lon": -77.019763, "bike_id": "81cf0abc563b988e841d175baae4ced1", "lat": 38.914980166666666, "fusion_lon": 0.0, "fusion_lat": 0.0, "type": "electric_scooter", "name": "81cf0abc563b988e841d175baae4ced1", "is_disabled": 0, "rental_uris": {"ios": "https://dc.lft.to/lastmile_qr_scan", "android": "https://dc.lft.to/lastmile_qr_scan"}, "is_reserved": 0}, {"lon": -77.0613845, "bike_id": "f4b34ae8fb8719d50bb06e633eef0eb8", "lat": 38.905267333333335, "fusion_lon": 0.0, "fusion_lat": 0.0, "type": "electric_scooter", "name": "f4b34ae8fb8719d50bb06e633eef0eb8", "is_disabled": 0, "rental_uris": {"ios": "https://dc.lft.to/lastmile_qr_scan", "android": "https://dc.lft.to/lastmile_qr_scan"}, "is_reserved": 0}, {"lon": -77.02726983333334, "bike_id": "0e0982af5afd32925a57e8f9e056df3a", "lat": 38.94088766666667, "fusion_lon": 0.0, "fusion_lat": 0.0, "type": "electric_scooter", "name": "0e0982af5afd32925a57e8f9e056df3a", "is_disabled": 0, "rental_uris": {"ios": "https://dc.lft.to/lastmile_qr_scan", "android": "https://dc.lft.to/lastmile_qr_scan"}, "is_reserved": 0}, {"lon": -77.07478416666666, "bike_id": "37c07ac00714da1b062d53833aa66e78", "lat": 38.963148, "fusion_lon": 0.0, "fusion_lat": 0.0, "type": "electric_scooter", "name": "37c07ac00714da1b062d53833aa66e78", "is_disabled": 0, "rental_uris": {"ios": "https://dc.lft.to/lastmile_qr_scan", "android": "https://dc.lft.to/lastmile_qr_scan"}, "is_reserved": 0}, {"lon": -77.02476966666667, "bike_id": "fc4ca4b168e036bfcfd39b276c7d6388", "lat": 38.91815166666667, "fusion_lon": 0.0, "fusion_lat": 0.0, "type": "electric_scooter", "name": "fc4ca4b168e036bfcfd39b276c7d6388", "is_disabled": 0, "rental_uris": {"ios": "https://dc.lft.to/lastmile_qr_scan", "android": "https://dc.lft.to/lastmile_qr_scan"}, "is_reserved": 0}, {"lon": -77.01868666666667, "bike_id": "dfa9ec0b7aec9032e31bfbd70e5b2dd9", "lat": 38.900378, "fusion_lon": 0.0, "fusion_lat": 0.0, "type": "electric_scooter", "name": "dfa9ec0b7aec9032e31bfbd70e5b2dd9", "is_disabled": 0, "rental_uris": {"ios": "https://dc.lft.to/lastmile_qr_scan", "android": "https://dc.lft.to/lastmile_qr_scan"}, "is_reserved": 0}, {"lon": -77.03546083333333, "bike_id": "9f840d1be5e5dbcc75d3cd2aa78d4d7a", "lat": 38.918297, "fusion_lon": 0.0, "fusion_lat": 0.0, "type": "electric_scooter", "name": "9f840d1be5e5dbcc75d3cd2aa78d4d7a", "is_disabled": 0, "rental_uris": {"ios": "https://dc.lft.to/lastmile_qr_scan", "android": "https://dc.lft.to/lastmile_qr_scan"}, "is_reserved": 0}, {"lon": -76.97806216666666, "bike_id": "13a4c711b2934487fcaa06150a0e14be", "lat": 38.906726666666664, "fusion_lon": 0.0, "fusion_lat": 0.0, "type": "electric_scooter", "name": "13a4c711b2934487fcaa06150a0e14be", "is_disabled": 0, "rental_uris": {"ios": "https://dc.lft.to/lastmile_qr_scan", "android": "https://dc.lft.to/lastmile_qr_scan"}, "is_reserved": 0}, {"lon": -77.00107683333333, "bike_id": "d5c0124bc4ace7a26b058f10549c1ee3", "lat": 38.917039333333335, "fusion_lon": 0.0, "fusion_lat": 0.0, "type": "electric_scooter", "name": "d5c0124bc4ace7a26b058f10549c1ee3", "is_disabled": 0, "rental_uris": {"ios": "https://dc.lft.to/lastmile_qr_scan", "android": "https://dc.lft.to/lastmile_qr_scan"}, "is_reserved": 0}, {"lon": -77.09468866666667, "bike_id": "476021b7886871a53e5d8c6af41644f8", "lat": 38.8075975, "fusion_lon": 0.0, "fusion_lat": 0.0, "type": "electric_bike", "name": "476021b7886871a53e5d8c6af41644f8", "is_disabled": 0, "rental_uris": {"ios": "https://dc.lft.to/lastmile_qr_scan", "android": "https://dc.lft.to/lastmile_qr_scan"}, "is_reserved": 0}, {"lon": -76.8953275, "bike_id": "7d84f4725fc7a3c364a0c3a0074e8152", "lat": 38.945475333333334, "fusion_lon": 0.0, "fusion_lat": 0.0, "type": "electric_bike", "name": "7d84f4725fc7a3c364a0c3a0074e8152", "is_disabled": 0, "rental_uris": {"ios": "https://dc.lft.to/lastmile_qr_scan", "android": "https://dc.lft.to/lastmile_qr_scan"}, "is_reserved": 0}, {"lon": -77.0283435, "bike_id": "920e0166c7d4830373c135b936e7ed03", "lat": 38.887687166666666, "fusion_lon": 0.0, "fusion_lat": 0.0, "type": "electric_scooter", "name": "920e0166c7d4830373c135b936e7ed03", "is_disabled": 0, "rental_uris": {"ios": "https://dc.lft.to/lastmile_qr_scan", "android": "https://dc.lft.to/lastmile_qr_scan"}, "is_reserved": 0}, {"lon": -77.00211183333333, "bike_id": "8d529e8e61892f829499ff8c51a25726", "lat": 38.914434, "fusion_lon": 0.0, "fusion_lat": 0.0, "type": "electric_scooter", "name": "8d529e8e61892f829499ff8c51a25726", "is_disabled": 0, "rental_uris": {"ios": "https://dc.lft.to/lastmile_qr_scan", "android": "https://dc.lft.to/lastmile_qr_scan"}, "is_reserved": 0}, {"lon": -77.00929566666667, "bike_id": "e7218159ee62bc101116daf2a31d7625", "lat": 38.89600566666667, "fusion_lon": 0.0, "fusion_lat": 0.0, "type": "electric_scooter", "name": "e7218159ee62bc101116daf2a31d7625", "is_disabled": 0, "rental_uris": {"ios": "https://dc.lft.to/lastmile_qr_scan", "android": "https://dc.lft.to/lastmile_qr_scan"}, "is_reserved": 0}, {"lon": -77.0216155, "bike_id": "c95c50e617e9a64a36d86c579f900e12", "lat": 38.924961, "fusion_lon": 0.0, "fusion_lat": 0.0, "type": "electric_scooter", "name": "c95c50e617e9a64a36d86c579f900e12", "is_disabled": 0, "rental_uris": {"ios": "https://dc.lft.to/lastmile_qr_scan", "android": "https://dc.lft.to/lastmile_qr_scan"}, "is_reserved": 0}, {"lon": -77.009743, "bike_id": "c9a1c879843246b71b9bcfd7350a665c", "lat": 38.911833666666666, "fusion_lon": 0.0, "fusion_lat": 0.0, "type": "electric_scooter", "name": "c9a1c879843246b71b9bcfd7350a665c", "is_disabled": 0, "rental_uris": {"ios": "https://dc.lft.to/lastmile_qr_scan", "android": "https://dc.lft.to/lastmile_qr_scan"}, "is_reserved": 0}, {"lon": -77.04014, "bike_id": "899cea4a695cb5e48bd8296539fa6fbc", "lat": 38.90362966666667, "fusion_lon": 0.0, "fusion_lat": 0.0, "type": "electric_scooter", "name": "899cea4a695cb5e48bd8296539fa6fbc", "is_disabled": 0, "rental_uris": {"ios": "https://dc.lft.to/lastmile_qr_scan", "android": "https://dc.lft.to/lastmile_qr_scan"}, "is_reserved": 0}, {"lon": -77.033403, "bike_id": "a75ab9413ec93f2fa4ae4f7f6a0ad791", "lat": 38.92894, "fusion_lon": 0.0, "fusion_lat": 0.0, "type": "electric_scooter", "name": "a75ab9413ec93f2fa4ae4f7f6a0ad791", "is_disabled": 0, "rental_uris": {"ios": "https://dc.lft.to/lastmile_qr_scan", "android": "https://dc.lft.to/lastmile_qr_scan"}, "is_reserved": 0}, {"lon": -77.01937583333333, "bike_id": "103ac5af7aa9b2c4c59069d7c19b147f", "lat": 38.89827416666667, "fusion_lon": 0.0, "fusion_lat": 0.0, "type": "electric_scooter", "name": "103ac5af7aa9b2c4c59069d7c19b147f", "is_disabled": 0, "rental_uris": {"ios": "https://dc.lft.to/lastmile_qr_scan", "android": "https://dc.lft.to/lastmile_qr_scan"}, "is_reserved": 0}, {"lon": -76.984446, "bike_id": "d8de38fd2798417f43da3b12ade17120", "lat": 38.91442933333333, "fusion_lon": 0.0, "fusion_lat": 0.0, "type": "electric_scooter", "name": "d8de38fd2798417f43da3b12ade17120", "is_disabled": 0, "rental_uris": {"ios": "https://dc.lft.to/lastmile_qr_scan", "android": "https://dc.lft.to/lastmile_qr_scan"}, "is_reserved": 0}, {"lon": -77.045531, "bike_id": "e693227a67971ed768006c5fbf951aad", "lat": 38.912632, "fusion_lon": 0.0, "fusion_lat": 0.0, "type": "electric_scooter", "name": "e693227a67971ed768006c5fbf951aad", "is_disabled": 0, "rental_uris": {"ios": "https://dc.lft.to/lastmile_qr_scan", "android": "https://dc.lft.to/lastmile_qr_scan"}, "is_reserved": 0}, {"lon": -77.007453, "bike_id": "d240b23ed803f204cca9a2d076c20933", "lat": 38.90064533333333, "fusion_lon": 0.0, "fusion_lat": 0.0, "type": "electric_scooter", "name": "d240b23ed803f204cca9a2d076c20933", "is_disabled": 0, "rental_uris": {"ios": "https://dc.lft.to/lastmile_qr_scan", "android": "https://dc.lft.to/lastmile_qr_scan"}, "is_reserved": 0}, {"lon": -76.99642366666667, "bike_id": "f98f699e5e9b09fade20571e1738e9fd", "lat": 38.98823083333333, "fusion_lon": 0.0, "fusion_lat": 0.0, "type": "electric_bike", "name": "f98f699e5e9b09fade20571e1738e9fd", "is_disabled": 0, "rental_uris": {"ios": "https://dc.lft.to/lastmile_qr_scan", "android": "https://dc.lft.to/lastmile_qr_scan"}, "is_reserved": 0}, {"lon": -77.049823, "bike_id": "2b23d0eb02a5725749ebb9dd2822f094", "lat": 38.896088, "fusion_lon": 0.0, "fusion_lat": 0.0, "type": "electric_scooter", "name": "2b23d0eb02a5725749ebb9dd2822f094", "is_disabled": 0, "rental_uris": {"ios": "https://dc.lft.to/lastmile_qr_scan", "android": "https://dc.lft.to/lastmile_qr_scan"}, "is_reserved": 0}, {"lon": -76.99174033333334, "bike_id": "868c7a74670017ff39edb1433296b5c9", "lat": 38.889898333333335, "fusion_lon": 0.0, "fusion_lat": 0.0, "type": "electric_scooter", "name": "868c7a74670017ff39edb1433296b5c9", "is_disabled": 0, "rental_uris": {"ios": "https://dc.lft.to/lastmile_qr_scan", "android": "https://dc.lft.to/lastmile_qr_scan"}, "is_reserved": 0}, {"lon": -77.03250783333333, "bike_id": "3fdec7734df093f7d11854338891ce6b", "lat": 38.90964533333333, "fusion_lon": 0.0, "fusion_lat": 0.0, "type": "electric_scooter", "name": "3fdec7734df093f7d11854338891ce6b", "is_disabled": 0, "rental_uris": {"ios": "https://dc.lft.to/lastmile_qr_scan", "android": "https://dc.lft.to/lastmile_qr_scan"}, "is_reserved": 0}, {"lon": -77.04007483333334, "bike_id": "6fcd13a2b13b6ba8e45971b1c05673fe", "lat": 38.910003333333336, "fusion_lon": 0.0, "fusion_lat": 0.0, "type": "electric_scooter", "name": "6fcd13a2b13b6ba8e45971b1c05673fe", "is_disabled": 0, "rental_uris": {"ios": "https://dc.lft.to/lastmile_qr_scan", "android": "https://dc.lft.to/lastmile_qr_scan"}, "is_reserved": 0}, {"lon": -77.05906783333333, "bike_id": "24b9af3a1133d7c7de73670bfeebf036", "lat": 38.8624085, "fusion_lon": 0.0, "fusion_lat": 0.0, "type": "electric_scooter", "name": "24b9af3a1133d7c7de73670bfeebf036", "is_disabled": 0, "rental_uris": {"ios": "https://dc.lft.to/lastmile_qr_scan", "android": "https://dc.lft.to/lastmile_qr_scan"}, "is_reserved": 0}, {"lon": -77.05020716666667, "bike_id": "59954c2e942329d746688bc63eaa1e62", "lat": 38.90531933333333, "fusion_lon": 0.0, "fusion_lat": 0.0, "type": "electric_scooter", "name": "59954c2e942329d746688bc63eaa1e62", "is_disabled": 0, "rental_uris": {"ios": "https://dc.lft.to/lastmile_qr_scan", "android": "https://dc.lft.to/lastmile_qr_scan"}, "is_reserved": 0}, {"lon": -77.023841, "bike_id": "a740d49cee3c995622ae485d68dac87d", "lat": 38.91651133333333, "fusion_lon": 0.0, "fusion_lat": 0.0, "type": "electric_scooter", "name": "a740d49cee3c995622ae485d68dac87d", "is_disabled": 0, "rental_uris": {"ios": "https://dc.lft.to/lastmile_qr_scan", "android": "https://dc.lft.to/lastmile_qr_scan"}, "is_reserved": 0}, {"lon": -77.04604566666667, "bike_id": "881368f94ae80dc54fc8a24016b8ecd4", "lat": 38.916118, "fusion_lon": 0.0, "fusion_lat": 0.0, "type": "electric_scooter", "name": "881368f94ae80dc54fc8a24016b8ecd4", "is_disabled": 0, "rental_uris": {"ios": "https://dc.lft.to/lastmile_qr_scan", "android": "https://dc.lft.to/lastmile_qr_scan"}, "is_reserved": 0}, {"lon": -77.02419966666666, "bike_id": "566a01ef87dda28337ea5389ed3f29dd", "lat": 38.91399716666667, "fusion_lon": 0.0, "fusion_lat": 0.0, "type": "electric_scooter", "name": "566a01ef87dda28337ea5389ed3f29dd", "is_disabled": 0, "rental_uris": {"ios": "https://dc.lft.to/lastmile_qr_scan", "android": "https://dc.lft.to/lastmile_qr_scan"}, "is_reserved": 0}, {"lon": -77.02735, "bike_id": "81fb0185a75dc2bd3dfdb2fe8c18b1ae", "lat": 38.9338175, "fusion_lon": 0.0, "fusion_lat": 0.0, "type": "electric_scooter", "name": "81fb0185a75dc2bd3dfdb2fe8c18b1ae", "is_disabled": 0, "rental_uris": {"ios": "https://dc.lft.to/lastmile_qr_scan", "android": "https://dc.lft.to/lastmile_qr_scan"}, "is_reserved": 0}, {"lon": -77.04221433333333, "bike_id": "25727e97990db3e8cc22110c09cb1572", "lat": 38.905522, "fusion_lon": 0.0, "fusion_lat": 0.0, "type": "electric_scooter", "name": "25727e97990db3e8cc22110c09cb1572", "is_disabled": 0, "rental_uris": {"ios": "https://dc.lft.to/lastmile_qr_scan", "android": "https://dc.lft.to/lastmile_qr_scan"}, "is_reserved": 0}, {"lon": -77.03443233333333, "bike_id": "dde348be09e937055344e57268a0ddc3", "lat": 38.912771666666664, "fusion_lon": 0.0, "fusion_lat": 0.0, "type": "electric_scooter", "name": "dde348be09e937055344e57268a0ddc3", "is_disabled": 0, "rental_uris": {"ios": "https://dc.lft.to/lastmile_qr_scan", "android": "https://dc.lft.to/lastmile_qr_scan"}, "is_reserved": 0}, {"lon": -77.02653733333334, "bike_id": "592fb1f4840c30a70efe52b674e85f61", "lat": 38.97569816666667, "fusion_lon": 0.0, "fusion_lat": 0.0, "type": "electric_scooter", "name": "592fb1f4840c30a70efe52b674e85f61", "is_disabled": 0, "rental_uris": {"ios": "https://dc.lft.to/lastmile_qr_scan", "android": "https://dc.lft.to/lastmile_qr_scan"}, "is_reserved": 0}, {"lon": -77.017215, "bike_id": "5dc30ed38a2e9d39a7b7a174946a3330", "lat": 38.91435933333333, "fusion_lon": 0.0, "fusion_lat": 0.0, "type": "electric_scooter", "name": "5dc30ed38a2e9d39a7b7a174946a3330", "is_disabled": 0, "rental_uris": {"ios": "https://dc.lft.to/lastmile_qr_scan", "android": "https://dc.lft.to/lastmile_qr_scan"}, "is_reserved": 0}, {"lon": -77.015098, "bike_id": "a2a84008ac96af6fe02c632fbc776107", "lat": 38.88661966666667, "fusion_lon": 0.0, "fusion_lat": 0.0, "type": "electric_scooter", "name": "a2a84008ac96af6fe02c632fbc776107", "is_disabled": 0, "rental_uris": {"ios": "https://dc.lft.to/lastmile_qr_scan", "android": "https://dc.lft.to/lastmile_qr_scan"}, "is_reserved": 0}, {"lon": -77.06163066666667, "bike_id": "4f11503b3059237ba270972c93cc784e", "lat": 38.902606166666665, "fusion_lon": 0.0, "fusion_lat": 0.0, "type": "electric_scooter", "name": "4f11503b3059237ba270972c93cc784e", "is_disabled": 0, "rental_uris": {"ios": "https://dc.lft.to/lastmile_qr_scan", "android": "https://dc.lft.to/lastmile_qr_scan"}, "is_reserved": 0}, {"lon": -77.03787833333334, "bike_id": "25cc23cc9036590230debaa4d39385e6", "lat": 38.91538716666667, "fusion_lon": 0.0, "fusion_lat": 0.0, "type": "electric_scooter", "name": "25cc23cc9036590230debaa4d39385e6", "is_disabled": 0, "rental_uris": {"ios": "https://dc.lft.to/lastmile_qr_scan", "android": "https://dc.lft.to/lastmile_qr_scan"}, "is_reserved": 0}, {"lon": -77.02209266666667, "bike_id": "bba6961d3f25d2f6727d29b69dc3eb16", "lat": 38.8948775, "fusion_lon": 0.0, "fusion_lat": 0.0, "type": "electric_scooter", "name": "bba6961d3f25d2f6727d29b69dc3eb16", "is_disabled": 0, "rental_uris": {"ios": "https://dc.lft.to/lastmile_qr_scan", "android": "https://dc.lft.to/lastmile_qr_scan"}, "is_reserved": 0}, {"lon": -77.00837116666666, "bike_id": "d00ec99f6e1d9639fdfe2d03fc7ab519", "lat": 38.916215333333334, "fusion_lon": 0.0, "fusion_lat": 0.0, "type": "electric_scooter", "name": "d00ec99f6e1d9639fdfe2d03fc7ab519", "is_disabled": 0, "rental_uris": {"ios": "https://dc.lft.to/lastmile_qr_scan", "android": "https://dc.lft.to/lastmile_qr_scan"}, "is_reserved": 0}, {"lon": -77.034652, "bike_id": "3e8cd6253e08947decb2dfb95b373b7b", "lat": 38.90680033333334, "fusion_lon": 0.0, "fusion_lat": 0.0, "type": "electric_scooter", "name": "3e8cd6253e08947decb2dfb95b373b7b", "is_disabled": 0, "rental_uris": {"ios": "https://dc.lft.to/lastmile_qr_scan", "android": "https://dc.lft.to/lastmile_qr_scan"}, "is_reserved": 0}, {"lon": -77.0241145, "bike_id": "02768207df6cc499b5a2f3a7add6722b", "lat": 38.900999166666665, "fusion_lon": 0.0, "fusion_lat": 0.0, "type": "electric_scooter", "name": "02768207df6cc499b5a2f3a7add6722b", "is_disabled": 0, "rental_uris": {"ios": "https://dc.lft.to/lastmile_qr_scan", "android": "https://dc.lft.to/lastmile_qr_scan"}, "is_reserved": 0}, {"lon": -77.0346625, "bike_id": "e890f727d23ddb1bca5c9a6cd923cd02", "lat": 38.9187045, "fusion_lon": 0.0, "fusion_lat": 0.0, "type": "electric_scooter", "name": "e890f727d23ddb1bca5c9a6cd923cd02", "is_disabled": 0, "rental_uris": {"ios": "https://dc.lft.to/lastmile_qr_scan", "android": "https://dc.lft.to/lastmile_qr_scan"}, "is_reserved": 0}, {"lon": -77.018479, "bike_id": "7686654fc5cfde777d937851a5376e18", "lat": 38.95427933333333, "fusion_lon": 0.0, "fusion_lat": 0.0, "type": "electric_scooter", "name": "7686654fc5cfde777d937851a5376e18", "is_disabled": 0, "rental_uris": {"ios": "https://dc.lft.to/lastmile_qr_scan", "android": "https://dc.lft.to/lastmile_qr_scan"}, "is_reserved": 0}, {"lon": -77.0906295, "bike_id": "cf202426d8130a370afef4b3c3c3bce7", "lat": 38.862572166666666, "fusion_lon": 0.0, "fusion_lat": 0.0, "type": "electric_bike", "name": "cf202426d8130a370afef4b3c3c3bce7", "is_disabled": 0, "rental_uris": {"ios": "https://dc.lft.to/lastmile_qr_scan", "android": "https://dc.lft.to/lastmile_qr_scan"}, "is_reserved": 0}, {"lon": -76.98270333333333, "bike_id": "28063d8aba5ffcc4f7ad9cf2d9424331", "lat": 38.901379166666665, "fusion_lon": 0.0, "fusion_lat": 0.0, "type": "electric_scooter", "name": "28063d8aba5ffcc4f7ad9cf2d9424331", "is_disabled": 0, "rental_uris": {"ios": "https://dc.lft.to/lastmile_qr_scan", "android": "https://dc.lft.to/lastmile_qr_scan"}, "is_reserved": 0}, {"lon": -76.9782825, "bike_id": "42d8469c4ebdb6138410b8bbfa21f13f", "lat": 38.8436505, "fusion_lon": 0.0, "fusion_lat": 0.0, "type": "electric_bike", "name": "42d8469c4ebdb6138410b8bbfa21f13f", "is_disabled": 0, "rental_uris": {"ios": "https://dc.lft.to/lastmile_qr_scan", "android": "https://dc.lft.to/lastmile_qr_scan"}, "is_reserved": 0}, {"lon": -77.03234216666667, "bike_id": "029a262e3282b981c6e699d28231eedc", "lat": 38.915598833333334, "fusion_lon": 0.0, "fusion_lat": 0.0, "type": "electric_scooter", "name": "029a262e3282b981c6e699d28231eedc", "is_disabled": 0, "rental_uris": {"ios": "https://dc.lft.to/lastmile_qr_scan", "android": "https://dc.lft.to/lastmile_qr_scan"}, "is_reserved": 0}, {"lon": -77.03211266666666, "bike_id": "5949ded72bf2e1c28c1cf433b4e16744", "lat": 38.91687183333333, "fusion_lon": 0.0, "fusion_lat": 0.0, "type": "electric_scooter", "name": "5949ded72bf2e1c28c1cf433b4e16744", "is_disabled": 0, "rental_uris": {"ios": "https://dc.lft.to/lastmile_qr_scan", "android": "https://dc.lft.to/lastmile_qr_scan"}, "is_reserved": 0}, {"lon": -76.97424733333334, "bike_id": "f1b795d49f436bbc5b885649c04ce157", "lat": 38.904008, "fusion_lon": 0.0, "fusion_lat": 0.0, "type": "electric_scooter", "name": "f1b795d49f436bbc5b885649c04ce157", "is_disabled": 0, "rental_uris": {"ios": "https://dc.lft.to/lastmile_qr_scan", "android": "https://dc.lft.to/lastmile_qr_scan"}, "is_reserved": 0}, {"lon": -76.94382066666667, "bike_id": "555d722e825ea5f3d23e21be1a7ad3c6", "lat": 38.893245, "fusion_lon": 0.0, "fusion_lat": 0.0, "type": "electric_scooter", "name": "555d722e825ea5f3d23e21be1a7ad3c6", "is_disabled": 0, "rental_uris": {"ios": "https://dc.lft.to/lastmile_qr_scan", "android": "https://dc.lft.to/lastmile_qr_scan"}, "is_reserved": 0}, {"lon": -77.02495883333333, "bike_id": "5ce150f1f61212aaea3eed48549a58bb", "lat": 38.92587916666667, "fusion_lon": 0.0, "fusion_lat": 0.0, "type": "electric_scooter", "name": "5ce150f1f61212aaea3eed48549a58bb", "is_disabled": 0, "rental_uris": {"ios": "https://dc.lft.to/lastmile_qr_scan", "android": "https://dc.lft.to/lastmile_qr_scan"}, "is_reserved": 0}, {"lon": -77.045917, "bike_id": "e0d1f65ea21ef7fe1f73ad643c9b61dd", "lat": 38.90763233333333, "fusion_lon": 0.0, "fusion_lat": 0.0, "type": "electric_scooter", "name": "e0d1f65ea21ef7fe1f73ad643c9b61dd", "is_disabled": 0, "rental_uris": {"ios": "https://dc.lft.to/lastmile_qr_scan", "android": "https://dc.lft.to/lastmile_qr_scan"}, "is_reserved": 0}, {"lon": -77.00927766666666, "bike_id": "75b45fe070cc5601934a01c30d4412f2", "lat": 38.89614383333333, "fusion_lon": 0.0, "fusion_lat": 0.0, "type": "electric_scooter", "name": "75b45fe070cc5601934a01c30d4412f2", "is_disabled": 0, "rental_uris": {"ios": "https://dc.lft.to/lastmile_qr_scan", "android": "https://dc.lft.to/lastmile_qr_scan"}, "is_reserved": 0}, {"lon": -76.98654166666667, "bike_id": "464af403ab083a3b20b141a5bee3da1c", "lat": 38.8672505, "fusion_lon": 0.0, "fusion_lat": 0.0, "type": "electric_scooter", "name": "464af403ab083a3b20b141a5bee3da1c", "is_disabled": 0, "rental_uris": {"ios": "https://dc.lft.to/lastmile_qr_scan", "android": "https://dc.lft.to/lastmile_qr_scan"}, "is_reserved": 0}, {"lon": -77.04758983333333, "bike_id": "c44e3a60c14dbe460b085592518d53e9", "lat": 38.895920333333336, "fusion_lon": 0.0, "fusion_lat": 0.0, "type": "electric_scooter", "name": "c44e3a60c14dbe460b085592518d53e9", "is_disabled": 0, "rental_uris": {"ios": "https://dc.lft.to/lastmile_qr_scan", "android": "https://dc.lft.to/lastmile_qr_scan"}, "is_reserved": 0}, {"lon": -77.02125733333334, "bike_id": "0a3ced8eb0709904af30545a8fa043cc", "lat": 38.916023333333335, "fusion_lon": 0.0, "fusion_lat": 0.0, "type": "electric_scooter", "name": "0a3ced8eb0709904af30545a8fa043cc", "is_disabled": 0, "rental_uris": {"ios": "https://dc.lft.to/lastmile_qr_scan", "android": "https://dc.lft.to/lastmile_qr_scan"}, "is_reserved": 0}, {"lon": -77.0055605, "bike_id": "22b36ee3683d359949f800edb464c058", "lat": 38.8747025, "fusion_lon": 0.0, "fusion_lat": 0.0, "type": "electric_scooter", "name": "22b36ee3683d359949f800edb464c058", "is_disabled": 0, "rental_uris": {"ios": "https://dc.lft.to/lastmile_qr_scan", "android": "https://dc.lft.to/lastmile_qr_scan"}, "is_reserved": 0}, {"lon": -77.04257083333333, "bike_id": "c9310fc11e23daaed012611ec5bf03c2", "lat": 38.92056783333334, "fusion_lon": 0.0, "fusion_lat": 0.0, "type": "electric_scooter", "name": "c9310fc11e23daaed012611ec5bf03c2", "is_disabled": 0, "rental_uris": {"ios": "https://dc.lft.to/lastmile_qr_scan", "android": "https://dc.lft.to/lastmile_qr_scan"}, "is_reserved": 0}, {"lon": -77.032827, "bike_id": "e7a086f783e5752e3fe619a3023d1476", "lat": 38.934544, "fusion_lon": 0.0, "fusion_lat": 0.0, "type": "electric_scooter", "name": "e7a086f783e5752e3fe619a3023d1476", "is_disabled": 0, "rental_uris": {"ios": "https://dc.lft.to/lastmile_qr_scan", "android": "https://dc.lft.to/lastmile_qr_scan"}, "is_reserved": 0}, {"lon": -77.03369533333333, "bike_id": "05986acde6869b547b996e5ca7cb6c43", "lat": 38.909674833333334, "fusion_lon": 0.0, "fusion_lat": 0.0, "type": "electric_scooter", "name": "05986acde6869b547b996e5ca7cb6c43", "is_disabled": 0, "rental_uris": {"ios": "https://dc.lft.to/lastmile_qr_scan", "android": "https://dc.lft.to/lastmile_qr_scan"}, "is_reserved": 0}, {"lon": -77.02162216666666, "bike_id": "c3a0a848f9e166711a29ee77103a9ec6", "lat": 38.909718, "fusion_lon": 0.0, "fusion_lat": 0.0, "type": "electric_scooter", "name": "c3a0a848f9e166711a29ee77103a9ec6", "is_disabled": 0, "rental_uris": {"ios": "https://dc.lft.to/lastmile_qr_scan", "android": "https://dc.lft.to/lastmile_qr_scan"}, "is_reserved": 0}, {"lon": -76.954737, "bike_id": "eac515c327130e032c2746717fbd552c", "lat": 38.88656833333334, "fusion_lon": 0.0, "fusion_lat": 0.0, "type": "electric_scooter", "name": "eac515c327130e032c2746717fbd552c", "is_disabled": 0, "rental_uris": {"ios": "https://dc.lft.to/lastmile_qr_scan", "android": "https://dc.lft.to/lastmile_qr_scan"}, "is_reserved": 0}, {"lon": -77.01104, "bike_id": "66d49118acfd3238ecd25cc94ccd51d9", "lat": 38.903664166666665, "fusion_lon": 0.0, "fusion_lat": 0.0, "type": "electric_scooter", "name": "66d49118acfd3238ecd25cc94ccd51d9", "is_disabled": 0, "rental_uris": {"ios": "https://dc.lft.to/lastmile_qr_scan", "android": "https://dc.lft.to/lastmile_qr_scan"}, "is_reserved": 0}, {"lon": -76.99608416666666, "bike_id": "75b17e55f4e8f28b40136cfca8a7da9e", "lat": 38.92549866666667, "fusion_lon": 0.0, "fusion_lat": 0.0, "type": "electric_scooter", "name": "75b17e55f4e8f28b40136cfca8a7da9e", "is_disabled": 0, "rental_uris": {"ios": "https://dc.lft.to/lastmile_qr_scan", "android": "https://dc.lft.to/lastmile_qr_scan"}, "is_reserved": 0}, {"lon": -77.03222833333334, "bike_id": "0578582ddf176b98c4b45837018d2e86", "lat": 38.9043585, "fusion_lon": 0.0, "fusion_lat": 0.0, "type": "electric_scooter", "name": "0578582ddf176b98c4b45837018d2e86", "is_disabled": 0, "rental_uris": {"ios": "https://dc.lft.to/lastmile_qr_scan", "android": "https://dc.lft.to/lastmile_qr_scan"}, "is_reserved": 0}, {"lon": -76.9846655, "bike_id": "69960786f996a42fbacb40ab8ba98f6e", "lat": 38.90970933333333, "fusion_lon": 0.0, "fusion_lat": 0.0, "type": "electric_bike", "name": "69960786f996a42fbacb40ab8ba98f6e", "is_disabled": 0, "rental_uris": {"ios": "https://dc.lft.to/lastmile_qr_scan", "android": "https://dc.lft.to/lastmile_qr_scan"}, "is_reserved": 0}, {"lon": -77.0237755, "bike_id": "ce4f12ee4ea1d41c1dda2945feda3814", "lat": 38.92657233333333, "fusion_lon": 0.0, "fusion_lat": 0.0, "type": "electric_scooter", "name": "ce4f12ee4ea1d41c1dda2945feda3814", "is_disabled": 0, "rental_uris": {"ios": "https://dc.lft.to/lastmile_qr_scan", "android": "https://dc.lft.to/lastmile_qr_scan"}, "is_reserved": 0}, {"lon": -77.045647, "bike_id": "ba3bf982fa1c0b280b2d21381b29fb96", "lat": 38.8960915, "fusion_lon": 0.0, "fusion_lat": 0.0, "type": "electric_scooter", "name": "ba3bf982fa1c0b280b2d21381b29fb96", "is_disabled": 0, "rental_uris": {"ios": "https://dc.lft.to/lastmile_qr_scan", "android": "https://dc.lft.to/lastmile_qr_scan"}, "is_reserved": 0}, {"lon": -77.04398583333334, "bike_id": "899a0e9baf2c20f229a9f9d187c95954", "lat": 38.89627466666666, "fusion_lon": 0.0, "fusion_lat": 0.0, "type": "electric_scooter", "name": "899a0e9baf2c20f229a9f9d187c95954", "is_disabled": 0, "rental_uris": {"ios": "https://dc.lft.to/lastmile_qr_scan", "android": "https://dc.lft.to/lastmile_qr_scan"}, "is_reserved": 0}, {"lon": -77.02720183333334, "bike_id": "53d07932119184ad11bf3bdb16a0b2af", "lat": 38.911857499999996, "fusion_lon": 0.0, "fusion_lat": 0.0, "type": "electric_scooter", "name": "53d07932119184ad11bf3bdb16a0b2af", "is_disabled": 0, "rental_uris": {"ios": "https://dc.lft.to/lastmile_qr_scan", "android": "https://dc.lft.to/lastmile_qr_scan"}, "is_reserved": 0}, {"lon": -77.0386375, "bike_id": "fdc8a5496ed63a97d99b99769c8fa471", "lat": 38.923181666666665, "fusion_lon": 0.0, "fusion_lat": 0.0, "type": "electric_scooter", "name": "fdc8a5496ed63a97d99b99769c8fa471", "is_disabled": 0, "rental_uris": {"ios": "https://dc.lft.to/lastmile_qr_scan", "android": "https://dc.lft.to/lastmile_qr_scan"}, "is_reserved": 0}, {"lon": -77.02777033333334, "bike_id": "6959c89604b0140976ae37cdea11b4ef", "lat": 38.91702816666667, "fusion_lon": 0.0, "fusion_lat": 0.0, "type": "electric_scooter", "name": "6959c89604b0140976ae37cdea11b4ef", "is_disabled": 0, "rental_uris": {"ios": "https://dc.lft.to/lastmile_qr_scan", "android": "https://dc.lft.to/lastmile_qr_scan"}, "is_reserved": 0}, {"lon": -77.013015, "bike_id": "afbf87d12e101c79527b6f98583cc6e1", "lat": 38.92998933333333, "fusion_lon": 0.0, "fusion_lat": 0.0, "type": "electric_scooter", "name": "afbf87d12e101c79527b6f98583cc6e1", "is_disabled": 0, "rental_uris": {"ios": "https://dc.lft.to/lastmile_qr_scan", "android": "https://dc.lft.to/lastmile_qr_scan"}, "is_reserved": 0}, {"lon": -77.0489365, "bike_id": "58aff4ad9d29696c4a725ee35330fd12", "lat": 38.89238683333333, "fusion_lon": 0.0, "fusion_lat": 0.0, "type": "electric_scooter", "name": "58aff4ad9d29696c4a725ee35330fd12", "is_disabled": 0, "rental_uris": {"ios": "https://dc.lft.to/lastmile_qr_scan", "android": "https://dc.lft.to/lastmile_qr_scan"}, "is_reserved": 0}, {"lon": -77.00632283333333, "bike_id": "49e7da13d4a2f06ad7e8047a8b6c3d60", "lat": 38.9559915, "fusion_lon": 0.0, "fusion_lat": 0.0, "type": "electric_scooter", "name": "49e7da13d4a2f06ad7e8047a8b6c3d60", "is_disabled": 0, "rental_uris": {"ios": "https://dc.lft.to/lastmile_qr_scan", "android": "https://dc.lft.to/lastmile_qr_scan"}, "is_reserved": 0}, {"lon": -77.02778066666667, "bike_id": "0b363152e985fe66dab8a2974eb87ff4", "lat": 38.897524833333335, "fusion_lon": 0.0, "fusion_lat": 0.0, "type": "electric_scooter", "name": "0b363152e985fe66dab8a2974eb87ff4", "is_disabled": 0, "rental_uris": {"ios": "https://dc.lft.to/lastmile_qr_scan", "android": "https://dc.lft.to/lastmile_qr_scan"}, "is_reserved": 0}, {"lon": -77.036387, "bike_id": "31002296e6a8f6561ad95ae6fc0cdd11", "lat": 38.924615333333335, "fusion_lon": 0.0, "fusion_lat": 0.0, "type": "electric_scooter", "name": "31002296e6a8f6561ad95ae6fc0cdd11", "is_disabled": 0, "rental_uris": {"ios": "https://dc.lft.to/lastmile_qr_scan", "android": "https://dc.lft.to/lastmile_qr_scan"}, "is_reserved": 0}, {"lon": -76.9817495, "bike_id": "e908baf10c298032e0e15aa0ca2bd31d", "lat": 38.8957655, "fusion_lon": 0.0, "fusion_lat": 0.0, "type": "electric_scooter", "name": "e908baf10c298032e0e15aa0ca2bd31d", "is_disabled": 0, "rental_uris": {"ios": "https://dc.lft.to/lastmile_qr_scan", "android": "https://dc.lft.to/lastmile_qr_scan"}, "is_reserved": 0}, {"lon": -77.02676883333334, "bike_id": "3821d1eaedf459e0e148fc7ca3c2c5ba", "lat": 38.904317666666664, "fusion_lon": 0.0, "fusion_lat": 0.0, "type": "electric_scooter", "name": "3821d1eaedf459e0e148fc7ca3c2c5ba", "is_disabled": 0, "rental_uris": {"ios": "https://dc.lft.to/lastmile_qr_scan", "android": "https://dc.lft.to/lastmile_qr_scan"}, "is_reserved": 0}, {"lon": -77.02165616666667, "bike_id": "efdaa4e2444b3a88b0738a1c93f31f23", "lat": 38.89210033333333, "fusion_lon": 0.0, "fusion_lat": 0.0, "type": "electric_scooter", "name": "efdaa4e2444b3a88b0738a1c93f31f23", "is_disabled": 0, "rental_uris": {"ios": "https://dc.lft.to/lastmile_qr_scan", "android": "https://dc.lft.to/lastmile_qr_scan"}, "is_reserved": 0}, {"lon": -77.02511983333333, "bike_id": "367fd64d0578640c3356cb492bc89f39", "lat": 38.904221, "fusion_lon": 0.0, "fusion_lat": 0.0, "type": "electric_scooter", "name": "367fd64d0578640c3356cb492bc89f39", "is_disabled": 0, "rental_uris": {"ios": "https://dc.lft.to/lastmile_qr_scan", "android": "https://dc.lft.to/lastmile_qr_scan"}, "is_reserved": 0}, {"lon": -77.03243533333334, "bike_id": "eff2c6041785c010028b0a7b0af682df", "lat": 38.929360333333335, "fusion_lon": 0.0, "fusion_lat": 0.0, "type": "electric_scooter", "name": "eff2c6041785c010028b0a7b0af682df", "is_disabled": 0, "rental_uris": {"ios": "https://dc.lft.to/lastmile_qr_scan", "android": "https://dc.lft.to/lastmile_qr_scan"}, "is_reserved": 0}, {"lon": -76.933654, "bike_id": "653db7b91a9b9cc4971c8e45503a6aa1", "lat": 38.89915383333334, "fusion_lon": 0.0, "fusion_lat": 0.0, "type": "electric_scooter", "name": "653db7b91a9b9cc4971c8e45503a6aa1", "is_disabled": 0, "rental_uris": {"ios": "https://dc.lft.to/lastmile_qr_scan", "android": "https://dc.lft.to/lastmile_qr_scan"}, "is_reserved": 0}, {"lon": -77.0318965, "bike_id": "edb9836099a9e04bcf043fc41d265d33", "lat": 38.91221483333333, "fusion_lon": 0.0, "fusion_lat": 0.0, "type": "electric_scooter", "name": "edb9836099a9e04bcf043fc41d265d33", "is_disabled": 0, "rental_uris": {"ios": "https://dc.lft.to/lastmile_qr_scan", "android": "https://dc.lft.to/lastmile_qr_scan"}, "is_reserved": 0}, {"lon": -77.02415433333333, "bike_id": "b4876bb9b17a55a8376724a048bc4ffb", "lat": 38.91915483333333, "fusion_lon": 0.0, "fusion_lat": 0.0, "type": "electric_scooter", "name": "b4876bb9b17a55a8376724a048bc4ffb", "is_disabled": 0, "rental_uris": {"ios": "https://dc.lft.to/lastmile_qr_scan", "android": "https://dc.lft.to/lastmile_qr_scan"}, "is_reserved": 0}, {"lon": -77.036225, "bike_id": "ee00d1eaad392ff0947c9184123372e3", "lat": 38.936787333333335, "fusion_lon": 0.0, "fusion_lat": 0.0, "type": "electric_scooter", "name": "ee00d1eaad392ff0947c9184123372e3", "is_disabled": 0, "rental_uris": {"ios": "https://dc.lft.to/lastmile_qr_scan", "android": "https://dc.lft.to/lastmile_qr_scan"}, "is_reserved": 0}, {"lon": -77.04150483333333, "bike_id": "6bbb9940b049eac6653f5a7eef2ebd4d", "lat": 38.916782, "fusion_lon": 0.0, "fusion_lat": 0.0, "type": "electric_scooter", "name": "6bbb9940b049eac6653f5a7eef2ebd4d", "is_disabled": 0, "rental_uris": {"ios": "https://dc.lft.to/lastmile_qr_scan", "android": "https://dc.lft.to/lastmile_qr_scan"}, "is_reserved": 0}, {"lon": -76.98017233333333, "bike_id": "3a51b4516769382fe3f96b4d4231aad7", "lat": 38.8885975, "fusion_lon": 0.0, "fusion_lat": 0.0, "type": "electric_scooter", "name": "3a51b4516769382fe3f96b4d4231aad7", "is_disabled": 0, "rental_uris": {"ios": "https://dc.lft.to/lastmile_qr_scan", "android": "https://dc.lft.to/lastmile_qr_scan"}, "is_reserved": 0}, {"lon": -77.11576333333333, "bike_id": "fd455458ae284a24ea600b8d7d439a30", "lat": 38.9934245, "fusion_lon": 0.0, "fusion_lat": 0.0, "type": "electric_bike", "name": "fd455458ae284a24ea600b8d7d439a30", "is_disabled": 0, "rental_uris": {"ios": "https://dc.lft.to/lastmile_qr_scan", "android": "https://dc.lft.to/lastmile_qr_scan"}, "is_reserved": 0}, {"lon": -77.05910116666666, "bike_id": "ce15f084557ab40096800be704652c25", "lat": 38.90383216666667, "fusion_lon": 0.0, "fusion_lat": 0.0, "type": "electric_scooter", "name": "ce15f084557ab40096800be704652c25", "is_disabled": 0, "rental_uris": {"ios": "https://dc.lft.to/lastmile_qr_scan", "android": "https://dc.lft.to/lastmile_qr_scan"}, "is_reserved": 0}, {"lon": -77.0270045, "bike_id": "8d7e0d3980e4caa2c2f15ec0e07878c7", "lat": 38.915225, "fusion_lon": 0.0, "fusion_lat": 0.0, "type": "electric_scooter", "name": "8d7e0d3980e4caa2c2f15ec0e07878c7", "is_disabled": 0, "rental_uris": {"ios": "https://dc.lft.to/lastmile_qr_scan", "android": "https://dc.lft.to/lastmile_qr_scan"}, "is_reserved": 0}, {"lon": -77.02964266666666, "bike_id": "ee99dcc2655a134ab2e741a79ee2d4eb", "lat": 38.917283166666664, "fusion_lon": 0.0, "fusion_lat": 0.0, "type": "electric_scooter", "name": "ee99dcc2655a134ab2e741a79ee2d4eb", "is_disabled": 0, "rental_uris": {"ios": "https://dc.lft.to/lastmile_qr_scan", "android": "https://dc.lft.to/lastmile_qr_scan"}, "is_reserved": 0}, {"lon": -77.13901683333333, "bike_id": "7ed1f98af26e637f2c23b805b8c85bd2", "lat": 38.896729, "fusion_lon": 0.0, "fusion_lat": 0.0, "type": "electric_bike", "name": "7ed1f98af26e637f2c23b805b8c85bd2", "is_disabled": 0, "rental_uris": {"ios": "https://dc.lft.to/lastmile_qr_scan", "android": "https://dc.lft.to/lastmile_qr_scan"}, "is_reserved": 0}, {"lon": -77.01964216666667, "bike_id": "f9f5b8fe3b34e2a2cd0573608db1609b", "lat": 38.95652316666666, "fusion_lon": 0.0, "fusion_lat": 0.0, "type": "electric_scooter", "name": "f9f5b8fe3b34e2a2cd0573608db1609b", "is_disabled": 0, "rental_uris": {"ios": "https://dc.lft.to/lastmile_qr_scan", "android": "https://dc.lft.to/lastmile_qr_scan"}, "is_reserved": 0}, {"lon": -77.01480766666667, "bike_id": "558f9c759d9bf4b9aedb0fe9e7791c28", "lat": 38.9586925, "fusion_lon": 0.0, "fusion_lat": 0.0, "type": "electric_scooter", "name": "558f9c759d9bf4b9aedb0fe9e7791c28", "is_disabled": 0, "rental_uris": {"ios": "https://dc.lft.to/lastmile_qr_scan", "android": "https://dc.lft.to/lastmile_qr_scan"}, "is_reserved": 0}, {"lon": -77.044162, "bike_id": "da01b35d6fabaa9f61fe6e4008bbadb3", "lat": 38.9211865, "fusion_lon": 0.0, "fusion_lat": 0.0, "type": "electric_scooter", "name": "da01b35d6fabaa9f61fe6e4008bbadb3", "is_disabled": 0, "rental_uris": {"ios": "https://dc.lft.to/lastmile_qr_scan", "android": "https://dc.lft.to/lastmile_qr_scan"}, "is_reserved": 0}, {"lon": -77.02680916666667, "bike_id": "2840f418905e5034eae2cad9526887d1", "lat": 38.89925133333333, "fusion_lon": 0.0, "fusion_lat": 0.0, "type": "electric_scooter", "name": "2840f418905e5034eae2cad9526887d1", "is_disabled": 0, "rental_uris": {"ios": "https://dc.lft.to/lastmile_qr_scan", "android": "https://dc.lft.to/lastmile_qr_scan"}, "is_reserved": 0}, {"lon": -77.05143283333334, "bike_id": "735185214b13bf202de7a2c1c1a98ad3", "lat": 38.8986165, "fusion_lon": 0.0, "fusion_lat": 0.0, "type": "electric_scooter", "name": "735185214b13bf202de7a2c1c1a98ad3", "is_disabled": 0, "rental_uris": {"ios": "https://dc.lft.to/lastmile_qr_scan", "android": "https://dc.lft.to/lastmile_qr_scan"}, "is_reserved": 0}, {"lon": -77.025877, "bike_id": "4da0c7966f511b1d7543360d286d29ad", "lat": 38.904986, "fusion_lon": 0.0, "fusion_lat": 0.0, "type": "electric_scooter", "name": "4da0c7966f511b1d7543360d286d29ad", "is_disabled": 0, "rental_uris": {"ios": "https://dc.lft.to/lastmile_qr_scan", "android": "https://dc.lft.to/lastmile_qr_scan"}, "is_reserved": 0}, {"lon": -77.02148683333333, "bike_id": "78623e8c4a05fe20a3bca9f978b2f041", "lat": 38.894209833333335, "fusion_lon": 0.0, "fusion_lat": 0.0, "type": "electric_scooter", "name": "78623e8c4a05fe20a3bca9f978b2f041", "is_disabled": 0, "rental_uris": {"ios": "https://dc.lft.to/lastmile_qr_scan", "android": "https://dc.lft.to/lastmile_qr_scan"}, "is_reserved": 0}, {"lon": -76.9892805, "bike_id": "19d2ad10e1607083dcdc720dec8204f5", "lat": 38.91835066666667, "fusion_lon": 0.0, "fusion_lat": 0.0, "type": "electric_scooter", "name": "19d2ad10e1607083dcdc720dec8204f5", "is_disabled": 0, "rental_uris": {"ios": "https://dc.lft.to/lastmile_qr_scan", "android": "https://dc.lft.to/lastmile_qr_scan"}, "is_reserved": 0}, {"lon": -77.033587, "bike_id": "7956dc800b758de9551fa4b43b35900e", "lat": 38.90971566666666, "fusion_lon": 0.0, "fusion_lat": 0.0, "type": "electric_scooter", "name": "7956dc800b758de9551fa4b43b35900e", "is_disabled": 0, "rental_uris": {"ios": "https://dc.lft.to/lastmile_qr_scan", "android": "https://dc.lft.to/lastmile_qr_scan"}, "is_reserved": 0}, {"lon": -77.0128775, "bike_id": "7276ac04d96050e987987ac0607153c1", "lat": 38.910387166666666, "fusion_lon": 0.0, "fusion_lat": 0.0, "type": "electric_scooter", "name": "7276ac04d96050e987987ac0607153c1", "is_disabled": 0, "rental_uris": {"ios": "https://dc.lft.to/lastmile_qr_scan", "android": "https://dc.lft.to/lastmile_qr_scan"}, "is_reserved": 0}, {"lon": -77.03875066666667, "bike_id": "be16f080b4f5e4638314899cd930d410", "lat": 38.9322435, "fusion_lon": 0.0, "fusion_lat": 0.0, "type": "electric_scooter", "name": "be16f080b4f5e4638314899cd930d410", "is_disabled": 0, "rental_uris": {"ios": "https://dc.lft.to/lastmile_qr_scan", "android": "https://dc.lft.to/lastmile_qr_scan"}, "is_reserved": 0}, {"lon": -77.05010583333333, "bike_id": "56da3297808689dbd3584bd753f47bba", "lat": 38.89455933333333, "fusion_lon": 0.0, "fusion_lat": 0.0, "type": "electric_scooter", "name": "56da3297808689dbd3584bd753f47bba", "is_disabled": 0, "rental_uris": {"ios": "https://dc.lft.to/lastmile_qr_scan", "android": "https://dc.lft.to/lastmile_qr_scan"}, "is_reserved": 0}, {"lon": -77.03545416666667, "bike_id": "0188d415856208b5648c5b0a4396ef86", "lat": 38.923457166666665, "fusion_lon": 0.0, "fusion_lat": 0.0, "type": "electric_scooter", "name": "0188d415856208b5648c5b0a4396ef86", "is_disabled": 0, "rental_uris": {"ios": "https://dc.lft.to/lastmile_qr_scan", "android": "https://dc.lft.to/lastmile_qr_scan"}, "is_reserved": 0}, {"lon": -76.98065366666667, "bike_id": "981475b2bcf8afe1d8261431934bf25a", "lat": 38.88492033333333, "fusion_lon": 0.0, "fusion_lat": 0.0, "type": "electric_scooter", "name": "981475b2bcf8afe1d8261431934bf25a", "is_disabled": 0, "rental_uris": {"ios": "https://dc.lft.to/lastmile_qr_scan", "android": "https://dc.lft.to/lastmile_qr_scan"}, "is_reserved": 0}, {"lon": -76.98069683333334, "bike_id": "f151c0dcc209df8fdacd7cb9e745f8f7", "lat": 38.9015665, "fusion_lon": 0.0, "fusion_lat": 0.0, "type": "electric_scooter", "name": "f151c0dcc209df8fdacd7cb9e745f8f7", "is_disabled": 0, "rental_uris": {"ios": "https://dc.lft.to/lastmile_qr_scan", "android": "https://dc.lft.to/lastmile_qr_scan"}, "is_reserved": 0}, {"lon": -76.97394833333334, "bike_id": "7ae6cac4f6b965c7689273a6fb1da50c", "lat": 38.90298083333333, "fusion_lon": 0.0, "fusion_lat": 0.0, "type": "electric_scooter", "name": "7ae6cac4f6b965c7689273a6fb1da50c", "is_disabled": 0, "rental_uris": {"ios": "https://dc.lft.to/lastmile_qr_scan", "android": "https://dc.lft.to/lastmile_qr_scan"}, "is_reserved": 0}, {"lon": -77.021927, "bike_id": "a73da46f54ebea9fb54a6816ed1f2209", "lat": 38.9113335, "fusion_lon": 0.0, "fusion_lat": 0.0, "type": "electric_scooter", "name": "a73da46f54ebea9fb54a6816ed1f2209", "is_disabled": 0, "rental_uris": {"ios": "https://dc.lft.to/lastmile_qr_scan", "android": "https://dc.lft.to/lastmile_qr_scan"}, "is_reserved": 0}, {"lon": -77.02465666666667, "bike_id": "4893dd8d748dfab871beacc36429e41e", "lat": 38.9371015, "fusion_lon": 0.0, "fusion_lat": 0.0, "type": "electric_scooter", "name": "4893dd8d748dfab871beacc36429e41e", "is_disabled": 0, "rental_uris": {"ios": "https://dc.lft.to/lastmile_qr_scan", "android": "https://dc.lft.to/lastmile_qr_scan"}, "is_reserved": 0}, {"lon": -77.09039, "bike_id": "641f3ecc2471216b4a1d8d6cfc79cc9b", "lat": 38.849688666666665, "fusion_lon": 0.0, "fusion_lat": 0.0, "type": "electric_bike", "name": "641f3ecc2471216b4a1d8d6cfc79cc9b", "is_disabled": 0, "rental_uris": {"ios": "https://dc.lft.to/lastmile_qr_scan", "android": "https://dc.lft.to/lastmile_qr_scan"}, "is_reserved": 0}, {"lon": -77.01810533333334, "bike_id": "f88c8b3b628e12e59a4b02bf65549ec3", "lat": 38.93042466666667, "fusion_lon": 0.0, "fusion_lat": 0.0, "type": "electric_scooter", "name": "f88c8b3b628e12e59a4b02bf65549ec3", "is_disabled": 0, "rental_uris": {"ios": "https://dc.lft.to/lastmile_qr_scan", "android": "https://dc.lft.to/lastmile_qr_scan"}, "is_reserved": 0}, {"lon": -77.03940483333334, "bike_id": "13cc54b74f53ea51ffae6831c3598c77", "lat": 38.915699333333336, "fusion_lon": 0.0, "fusion_lat": 0.0, "type": "electric_scooter", "name": "13cc54b74f53ea51ffae6831c3598c77", "is_disabled": 0, "rental_uris": {"ios": "https://dc.lft.to/lastmile_qr_scan", "android": "https://dc.lft.to/lastmile_qr_scan"}, "is_reserved": 0}, {"lon": -77.074086, "bike_id": "d99e61faccc102bbdc94bf79a9f95b3a", "lat": 38.92887783333333, "fusion_lon": 0.0, "fusion_lat": 0.0, "type": "electric_scooter", "name": "d99e61faccc102bbdc94bf79a9f95b3a", "is_disabled": 0, "rental_uris": {"ios": "https://dc.lft.to/lastmile_qr_scan", "android": "https://dc.lft.to/lastmile_qr_scan"}, "is_reserved": 0}, {"lon": -77.002921, "bike_id": "68810476e06d789ca721f28f3b823db5", "lat": 38.9090905, "fusion_lon": 0.0, "fusion_lat": 0.0, "type": "electric_scooter", "name": "68810476e06d789ca721f28f3b823db5", "is_disabled": 0, "rental_uris": {"ios": "https://dc.lft.to/lastmile_qr_scan", "android": "https://dc.lft.to/lastmile_qr_scan"}, "is_reserved": 0}, {"lon": -77.04293216666667, "bike_id": "9078bb29f1b5bb0e41a5f7fbc7614e8f", "lat": 38.905468, "fusion_lon": 0.0, "fusion_lat": 0.0, "type": "electric_scooter", "name": "9078bb29f1b5bb0e41a5f7fbc7614e8f", "is_disabled": 0, "rental_uris": {"ios": "https://dc.lft.to/lastmile_qr_scan", "android": "https://dc.lft.to/lastmile_qr_scan"}, "is_reserved": 0}, {"lon": -76.98918766666667, "bike_id": "b3cf6d18ac89235f14b8a99f217a47c7", "lat": 38.864914666666664, "fusion_lon": 0.0, "fusion_lat": 0.0, "type": "electric_scooter", "name": "b3cf6d18ac89235f14b8a99f217a47c7", "is_disabled": 0, "rental_uris": {"ios": "https://dc.lft.to/lastmile_qr_scan", "android": "https://dc.lft.to/lastmile_qr_scan"}, "is_reserved": 0},