{"data": {"bikes": [{"name": "9131d8560e5a530cfa1166e6d244f475", "fusion_lat": 0.0, "type": "electric_scooter", "lat": 38.917011, "is_reserved": 0, "is_disabled": 0, "fusion_lon": 0.0, "bike_id": "9131d8560e5a530cfa1166e6d244f475", "lon": -77.01258183333333, "rental_uris": {"ios": "https://dc.lft.to/lastmile_qr_scan", "android": "https://dc.lft.to/lastmile_qr_scan"}}, {"name": "39f52a79ea9deac9999fd11fc34019c3", "fusion_lat": 0.0, "type": "electric_scooter", "lat": 38.91594666666667, "is_reserved": 0, "is_disabled": 0, "fusion_lon": 0.0, "bike_id": "39f52a79ea9deac9999fd11fc34019c3", "lon": -77.03178966666667, "rental_uris": {"ios": "https://dc.lft.to/lastmile_qr_scan", "android": "https://dc.lft.to/lastmile_qr_scan"}}, {"name": "633781333b380a64c8c3dab896145da3", "fusion_lat": 0.0, "type": "electric_scooter", "lat": 38.90275666666667, "is_reserved": 0, "is_disabled": 0, "fusion_lon": 0.0, "bike_id": "633781333b380a64c8c3dab896145da3", "lon": -77.062585, "rental_uris": {"ios": "https://dc.lft.to/lastmile_qr_scan", "android": "https://dc.lft.to/lastmile_qr_scan"}}, {"name": "3b473f59286b01f3873f4fb60102e172", "fusion_lat": 0.0, "type": "electric_scooter", "lat": 38.900401333333335, "is_reserved": 0, "is_disabled": 0, "fusion_lon": 0.0, "bike_id": "3b473f59286b01f3873f4fb60102e172", "lon": -77.00197383333334, "rental_uris": {"ios": "https://dc.lft.to/lastmile_qr_scan", "android": "https://dc.lft.to/lastmile_qr_scan"}}, {"name": "bad703bce6c94745a150981bb96959ab", "fusion_lat": 0.0, "type": "electric_scooter", "lat": 38.89359016666667, "is_reserved": 0, "is_disabled": 0, "fusion_lon": 0.0, "bike_id": "bad703bce6c94745a150981bb96959ab", "lon": -77.00331283333334, "rental_uris": {"ios": "https://dc.lft.to/lastmile_qr_scan", "android": "https://dc.lft.to/lastmile_qr_scan"}}, {"name": "300b16f0dcf8c7e97161277395924ea1", "fusion_lat": 0.0, "type": "electric_scooter", "lat": 38.93558066666667, "is_reserved": 0, "is_disabled": 0, "fusion_lon": 0.0, "bike_id": "300b16f0dcf8c7e97161277395924ea1", "lon": -77.0326625, "rental_uris": {"ios": "https://dc.lft.to/lastmile_qr_scan", "android": "https://dc.lft.to/lastmile_qr_scan"}}, {"name": "ecbe171d252bd0bf8c2c47acc6b16478", "fusion_lat": 0.0, "type": "electric_scooter", "lat": 38.87754833333334, "is_reserved": 0, "is_disabled": 0, "fusion_lon": 0.0, "bike_id": "ecbe171d252bd0bf8c2c47acc6b16478", "lon": -77.02002933333333, "rental_uris": {"ios": "https://dc.lft.to/lastmile_qr_scan", "android": "https://dc.lft.to/lastmile_qr_scan"}}, {"name": "b5b9a4f5e364d6363ff6cfe3ac3f62ff", "fusion_lat": 0.0, "type": "electric_scooter", "lat": 38.945799, "is_reserved": 0, "is_disabled": 0, "fusion_lon": 0.0, "bike_id": "b5b9a4f5e364d6363ff6cfe3ac3f62ff", "lon": -77.07790466666667, "rental_uris": {"ios": "https://dc.lft.to/lastmile_qr_scan", "android": "https://dc.lft.to/lastmile_qr_scan"}}, {"name": "d9d8a931eb56396e33ced45aae4d5c23", "fusion_lat": 0.0, "type": "electric_scooter", "lat": 38.88046683333334, "is_reserved": 0, "is_disabled": 0, "fusion_lon": 0.0, "bike_id": "d9d8a931eb56396e33ced45aae4d5c23", "lon": -77.00472933333333, "rental_uris": {"ios": "https://dc.lft.to/lastmile_qr_scan", "android": "https://dc.lft.to/lastmile_qr_scan"}}, {"name": "d9591859b979e4a317102efa466a1878", "fusion_lat": 0.0, "type": "electric_scooter", "lat": 38.89222183333333, "is_reserved": 0, "is_disabled": 0, "fusion_lon": 0.0, "bike_id": "d9591859b979e4a317102efa466a1878", "lon": -77.05007083333334, "rental_uris": {"ios": "https://dc.lft.to/lastmile_qr_scan", "android": "https://dc.lft.to/lastmile_qr_scan"}}, {"name": "d32ce4430abc24212f44d8ce61f36d0f", "fusion_lat": 0.0, "type": "electric_scooter", "lat": 38.918173, "is_reserved": 0, "is_disabled": 0, "fusion_lon": 0.0, "bike_id": "d32ce4430abc24212f44d8ce61f36d0f", "lon": -77.04000666666667, "rental_uris": {"ios": "https://dc.lft.to/lastmile_qr_scan", "android": "https://dc.lft.to/lastmile_qr_scan"}}, {"name": "b584d576411c37d506a7c172201c3173", "fusion_lat": 0.0, "type": "electric_scooter", "lat": 38.89482, "is_reserved": 0, "is_disabled": 0, "fusion_lon": 0.0, "bike_id": "b584d576411c37d506a7c172201c3173", "lon": -77.02569183333334, "rental_uris": {"ios": "https://dc.lft.to/lastmile_qr_scan", "android": "https://dc.lft.to/lastmile_qr_scan"}}, {"name": "3d5cddf5b7d471d090a74cb1f08887c1", "fusion_lat": 0.0, "type": "electric_scooter", "lat": 38.84684516666667, "is_reserved": 0, "is_disabled": 0, "fusion_lon": 0.0, "bike_id": "3d5cddf5b7d471d090a74cb1f08887c1", "lon": -76.992012, "rental_uris": {"ios": "https://dc.lft.to/lastmile_qr_scan", "android": "https://dc.lft.to/lastmile_qr_scan"}}, {"name": "e5bea39fbefa23fdc36cb53d6311ab7b", "fusion_lat": 0.0, "type": "electric_scooter", "lat": 38.85714466666667, "is_reserved": 0, "is_disabled": 0, "fusion_lon": 0.0, "bike_id": "e5bea39fbefa23fdc36cb53d6311ab7b", "lon": -76.98084183333333, "rental_uris": {"ios": "https://dc.lft.to/lastmile_qr_scan", "android": "https://dc.lft.to/lastmile_qr_scan"}}, {"name": "96b4a84debc17778b776ed418796cca7", "fusion_lat": 0.0, "type": "electric_scooter", "lat": 38.905926666666666, "is_reserved": 0, "is_disabled": 0, "fusion_lon": 0.0, "bike_id": "96b4a84debc17778b776ed418796cca7", "lon": -77.01610766666667, "rental_uris": {"ios": "https://dc.lft.to/lastmile_qr_scan", "android": "https://dc.lft.to/lastmile_qr_scan"}}, {"name": "5ee4e16c9a195d4eb51bf505247d17f3", "fusion_lat": 0.0, "type": "electric_scooter", "lat": 38.975083166666664, "is_reserved": 0, "is_disabled": 0, "fusion_lon": 0.0, "bike_id": "5ee4e16c9a195d4eb51bf505247d17f3", "lon": -77.01724333333334, "rental_uris": {"ios": "https://dc.lft.to/lastmile_qr_scan", "android": "https://dc.lft.to/lastmile_qr_scan"}}, {"name": "8199e081de5918617c21944fe93d9496", "fusion_lat": 0.0, "type": "electric_scooter", "lat": 38.90256633333333, "is_reserved": 0, "is_disabled": 0, "fusion_lon": 0.0, "bike_id": "8199e081de5918617c21944fe93d9496", "lon": -77.04362533333334, "rental_uris": {"ios": "https://dc.lft.to/lastmile_qr_scan", "android": "https://dc.lft.to/lastmile_qr_scan"}}, {"name": "80f985954272cedc461b4c8d0f2a5b15", "fusion_lat": 0.0, "type": "electric_bike", "lat": 38.990663166666664, "is_reserved": 0, "is_disabled": 0, "fusion_lon": 0.0, "bike_id": "80f985954272cedc461b4c8d0f2a5b15", "lon": -77.10029483333334, "rental_uris": {"ios": "https://dc.lft.to/lastmile_qr_scan", "android": "https://dc.lft.to/lastmile_qr_scan"}}, {"name": "fbf2d1e5ba9d1c51d60cd1da5bee008b", "fusion_lat": 0.0, "type": "electric_scooter", "lat": 38.93264083333333, "is_reserved": 0, "is_disabled": 0, "fusion_lon": 0.0, "bike_id": "fbf2d1e5ba9d1c51d60cd1da5bee008b", "lon": -77.038865, "rental_uris": {"ios": "https://dc.lft.to/lastmile_qr_scan", "android": "https://dc.lft.to/lastmile_qr_scan"}}, {"name": "d883b3097fd574b192ea5843b8e5170f", "fusion_lat": 0.0, "type": "electric_scooter", "lat": 38.858013666666665, "is_reserved": 0, "is_disabled": 0, "fusion_lon": 0.0, "bike_id": "d883b3097fd574b192ea5843b8e5170f", "lon": -76.98643866666667, "rental_uris": {"ios": "https://dc.lft.to/lastmile_qr_scan", "android": "https://dc.lft.to/lastmile_qr_scan"}}, {"name": "1f727b78a665d373bc70a52eb2d8e90a", "fusion_lat": 0.0, "type": "electric_scooter", "lat": 38.885008666666664, "is_reserved": 0, "is_disabled": 0, "fusion_lon": 0.0, "bike_id": "1f727b78a665d373bc70a52eb2d8e90a", "lon": -77.01583033333333, "rental_uris": {"ios": "https://dc.lft.to/lastmile_qr_scan", "android": "https://dc.lft.to/lastmile_qr_scan"}}, {"name": "282f6cb22609b303054759959f8464bf", "fusion_lat": 0.0, "type": "electric_scooter", "lat": 38.93824733333334, "is_reserved": 0, "is_disabled": 0, "fusion_lon": 0.0, "bike_id": "282f6cb22609b303054759959f8464bf", "lon": -77.02472, "rental_uris": {"ios": "https://dc.lft.to/lastmile_qr_scan", "android": "https://dc.lft.to/lastmile_qr_scan"}}, {"name": "d391b718b963b593557391d50bca70a9", "fusion_lat": 0.0, "type": "electric_scooter", "lat": 38.92207066666667, "is_reserved": 0, "is_disabled": 0, "fusion_lon": 0.0, "bike_id": "d391b718b963b593557391d50bca70a9", "lon": -77.04248666666666, "rental_uris": {"ios": "https://dc.lft.to/lastmile_qr_scan", "android": "https://dc.lft.to/lastmile_qr_scan"}}, {"name": "c82b081f49a89e0b4460c5b4fde3dff7", "fusion_lat": 0.0, "type": "electric_scooter", "lat": 38.901094, "is_reserved": 0, "is_disabled": 0, "fusion_lon": 0.0, "bike_id": "c82b081f49a89e0b4460c5b4fde3dff7", "lon": -77.04981933333333, "rental_uris": {"ios": "https://dc.lft.to/lastmile_qr_scan", "android": "https://dc.lft.to/lastmile_qr_scan"}}, {"name": "d76e1e7516160f5d098a074fceda16a7", "fusion_lat": 0.0, "type": "electric_scooter", "lat": 38.84632966666667, "is_reserved": 0, "is_disabled": 0, "fusion_lon": 0.0, "bike_id": "d76e1e7516160f5d098a074fceda16a7", "lon": -76.984458, "rental_uris": {"ios": "https://dc.lft.to/lastmile_qr_scan", "android": "https://dc.lft.to/lastmile_qr_scan"}}, {"name": "d59b7709bd8f997eb980929b35dd773c", "fusion_lat": 0.0, "type": "electric_scooter", "lat": 38.906611, "is_reserved": 0, "is_disabled": 0, "fusion_lon": 0.0, "bike_id": "d59b7709bd8f997eb980929b35dd773c", "lon": -77.03818633333333, "rental_uris": {"ios": "https://dc.lft.to/lastmile_qr_scan", "android": "https://dc.lft.to/lastmile_qr_scan"}}, {"name": "9d74b9132cf587daf2c12a732ff143bc", "fusion_lat": 0.0, "type": "electric_scooter", "lat": 38.88317383333333, "is_reserved": 0, "is_disabled": 0, "fusion_lon": 0.0, "bike_id": "9d74b9132cf587daf2c12a732ff143bc", "lon": -77.016636, "rental_uris": {"ios": "https://dc.lft.to/lastmile_qr_scan", "android": "https://dc.lft.to/lastmile_qr_scan"}}, {"name": "e539c421e7a4b8271abb15171e7d3a09", "fusion_lat": 0.0, "type": "electric_scooter", "lat": 38.898559166666665, "is_reserved": 0, "is_disabled": 0, "fusion_lon": 0.0, "bike_id": "e539c421e7a4b8271abb15171e7d3a09", "lon": -76.97664533333334, "rental_uris": {"ios": "https://dc.lft.to/lastmile_qr_scan", "android": "https://dc.lft.to/lastmile_qr_scan"}}, {"name": "927e762aa25ac088a66a157f9a59c065", "fusion_lat": 0.0, "type": "electric_scooter", "lat": 38.90119766666667, "is_reserved": 0, "is_disabled": 0, "fusion_lon": 0.0, "bike_id": "927e762aa25ac088a66a157f9a59c065", "lon": -77.02997183333333, "rental_uris": {"ios": "https://dc.lft.to/lastmile_qr_scan", "android": "https://dc.lft.to/lastmile_qr_scan"}}, {"name": "8a60482c21edcc26c2f0efd4e5e6ea9c", "fusion_lat": 0.0, "type": "electric_scooter", "lat": 38.90552016666667, "is_reserved": 0, "is_disabled": 0, "fusion_lon": 0.0, "bike_id": "8a60482c21edcc26c2f0efd4e5e6ea9c", "lon": -77.02817616666667, "rental_uris": {"ios": "https://dc.lft.to/lastmile_qr_scan", "android": "https://dc.lft.to/lastmile_qr_scan"}}, {"name": "35034b28f69e16218431bbac5b9e8d95", "fusion_lat": 0.0, "type": "electric_scooter", "lat": 38.899729666666666, "is_reserved": 0, "is_disabled": 0, "fusion_lon": 0.0, "bike_id": "35034b28f69e16218431bbac5b9e8d95", "lon": -77.02941433333334, "rental_uris": {"ios": "https://dc.lft.to/lastmile_qr_scan", "android": "https://dc.lft.to/lastmile_qr_scan"}}, {"name": "4f26c95e996c0c9e7050b8ee0151fffb", "fusion_lat": 0.0, "type": "electric_scooter", "lat": 38.9257395, "is_reserved": 0, "is_disabled": 0, "fusion_lon": 0.0, "bike_id": "4f26c95e996c0c9e7050b8ee0151fffb", "lon": -77.02848133333333, "rental_uris": {"ios": "https://dc.lft.to/lastmile_qr_scan", "android": "https://dc.lft.to/lastmile_qr_scan"}}, {"name": "a63555926062a09ce32b7f47206d88db", "fusion_lat": 0.0, "type": "electric_bike", "lat": 38.96497333333333, "is_reserved": 0, "is_disabled": 0, "fusion_lon": 0.0, "bike_id": "a63555926062a09ce32b7f47206d88db", "lon": -77.06495183333334, "rental_uris": {"ios": "https://dc.lft.to/lastmile_qr_scan", "android": "https://dc.lft.to/lastmile_qr_scan"}}, {"name": "cad9e83fb70af9815074d4157aacd298", "fusion_lat": 0.0, "type": "electric_scooter", "lat": 38.902742333333336, "is_reserved": 0, "is_disabled": 0, "fusion_lon": 0.0, "bike_id": "cad9e83fb70af9815074d4157aacd298", "lon": -76.99862333333333, "rental_uris": {"ios": "https://dc.lft.to/lastmile_qr_scan", "android": "https://dc.lft.to/lastmile_qr_scan"}}, {"name": "42e20260b7d889bdf31154258b28cf2d", "fusion_lat": 0.0, "type": "electric_scooter", "lat": 38.906863666666666, "is_reserved": 0, "is_disabled": 0, "fusion_lon": 0.0, "bike_id": "42e20260b7d889bdf31154258b28cf2d", "lon": -77.04158066666666, "rental_uris": {"ios": "https://dc.lft.to/lastmile_qr_scan", "android": "https://dc.lft.to/lastmile_qr_scan"}}, {"name": "284558ac8936140da1127cc301ba0bfe", "fusion_lat": 0.0, "type": "electric_scooter", "lat": 38.9058195, "is_reserved": 0, "is_disabled": 0, "fusion_lon": 0.0, "bike_id": "284558ac8936140da1127cc301ba0bfe", "lon": -77.04445083333333, "rental_uris": {"ios": "https://dc.lft.to/lastmile_qr_scan", "android": "https://dc.lft.to/lastmile_qr_scan"}}, {"name": "ae8a335910acc8a145343cafae37b861", "fusion_lat": 0.0, "type": "electric_scooter", "lat": 38.93290916666667, "is_reserved": 0, "is_disabled": 0, "fusion_lon": 0.0, "bike_id": "ae8a335910acc8a145343cafae37b861", "lon": -77.02331266666667, "rental_uris": {"ios": "https://dc.lft.to/lastmile_qr_scan", "android": "https://dc.lft.to/lastmile_qr_scan"}}, {"name": "17075d2b276c4202fdf153fab056933e", "fusion_lat": 0.0, "type": "electric_scooter", "lat": 38.91237, "is_reserved": 0, "is_disabled": 0, "fusion_lon": 0.0, "bike_id": "17075d2b276c4202fdf153fab056933e", "lon": -77.009234, "rental_uris": {"ios": "https://dc.lft.to/lastmile_qr_scan", "android": "https://dc.lft.to/lastmile_qr_scan"}}, {"name": "4c873fed46f467a9183922f5724842ff", "fusion_lat": 0.0, "type": "electric_scooter", "lat": 38.8979515, "is_reserved": 0, "is_disabled": 0, "fusion_lon": 0.0, "bike_id": "4c873fed46f467a9183922f5724842ff", "lon": -76.94419616666667, "rental_uris": {"ios": "https://dc.lft.to/lastmile_qr_scan", "android": "https://dc.lft.to/lastmile_qr_scan"}}, {"name": "b1ef145295be1d9606121aa1558be630", "fusion_lat": 0.0, "type": "electric_scooter", "lat": 38.92487083333333, "is_reserved": 0, "is_disabled": 0, "fusion_lon": 0.0, "bike_id": "b1ef145295be1d9606121aa1558be630", "lon": -77.03940733333333, "rental_uris": {"ios": "https://dc.lft.to/lastmile_qr_scan", "android": "https://dc.lft.to/lastmile_qr_scan"}}, {"name": "8a950d48cb0770b7219e30b7f9c3539a", "fusion_lat": 0.0, "type": "electric_scooter", "lat": 38.905082166666666, "is_reserved": 0, "is_disabled": 0, "fusion_lon": 0.0, "bike_id": "8a950d48cb0770b7219e30b7f9c3539a", "lon": -77.061313, "rental_uris": {"ios": "https://dc.lft.to/lastmile_qr_scan", "android": "https://dc.lft.to/lastmile_qr_scan"}}, {"name": "894d2c50d2877d1ea72ee3d2411fe2b7", "fusion_lat": 0.0, "type": "electric_scooter", "lat": 38.916155333333336, "is_reserved": 0, "is_disabled": 0, "fusion_lon": 0.0, "bike_id": "894d2c50d2877d1ea72ee3d2411fe2b7", "lon": -77.04286916666666, "rental_uris": {"ios": "https://dc.lft.to/lastmile_qr_scan", "android": "https://dc.lft.to/lastmile_qr_scan"}}, {"name": "6025f95ad77d0a7acb26a39bc48befef", "fusion_lat": 0.0, "type": "electric_scooter", "lat": 38.934536, "is_reserved": 0, "is_disabled": 0, "fusion_lon": 0.0, "bike_id": "6025f95ad77d0a7acb26a39bc48befef", "lon": -77.0321685, "rental_uris": {"ios": "https://dc.lft.to/lastmile_qr_scan", "android": "https://dc.lft.to/lastmile_qr_scan"}}, {"name": "f5fecc08d4840113dcfef99469306ab8", "fusion_lat": 0.0, "type": "electric_scooter", "lat": 38.9193765, "is_reserved": 0, "is_disabled": 0, "fusion_lon": 0.0, "bike_id": "f5fecc08d4840113dcfef99469306ab8", "lon": -77.041766, "rental_uris": {"ios": "https://dc.lft.to/lastmile_qr_scan", "android": "https://dc.lft.to/lastmile_qr_scan"}}, {"name": "44d2a9c067a02f533c8adbc8f18ff498", "fusion_lat": 0.0, "type": "electric_scooter", "lat": 38.883627833333335, "is_reserved": 0, "is_disabled": 0, "fusion_lon": 0.0, "bike_id": "44d2a9c067a02f533c8adbc8f18ff498", "lon": -77.03169733333333, "rental_uris": {"ios": "https://dc.lft.to/lastmile_qr_scan", "android": "https://dc.lft.to/lastmile_qr_scan"}}, {"name": "67726f50dca4b3371f5c0eb4814b9c64", "fusion_lat": 0.0, "type": "electric_scooter", "lat": 38.91260033333333, "is_reserved": 0, "is_disabled": 0, "fusion_lon": 0.0, "bike_id": "67726f50dca4b3371f5c0eb4814b9c64", "lon": -77.0095605, "rental_uris": {"ios": "https://dc.lft.to/lastmile_qr_scan", "android": "https://dc.lft.to/lastmile_qr_scan"}}, {"name": "e53808c7a34d3807f6e45d9b097f3779", "fusion_lat": 0.0, "type": "electric_bike", "lat": 38.8935, "is_reserved": 0, "is_disabled": 0, "fusion_lon": 0.0, "bike_id": "e53808c7a34d3807f6e45d9b097f3779", "lon": -77.18738516666667, "rental_uris": {"ios": "https://dc.lft.to/lastmile_qr_scan", "android": "https://dc.lft.to/lastmile_qr_scan"}}, {"name": "66b117656e4f8fdd9528c956c356cf54", "fusion_lat": 0.0, "type": "electric_scooter", "lat": 38.928571, "is_reserved": 0, "is_disabled": 0, "fusion_lon": 0.0, "bike_id": "66b117656e4f8fdd9528c956c356cf54", "lon": -77.01392483333333, "rental_uris": {"ios": "https://dc.lft.to/lastmile_qr_scan", "android": "https://dc.lft.to/lastmile_qr_scan"}}, {"name": "70b97cb872d106d3eb3642231020b725", "fusion_lat": 0.0, "type": "electric_scooter", "lat": 38.910353666666666, "is_reserved": 0, "is_disabled": 0, "fusion_lon": 0.0, "bike_id": "70b97cb872d106d3eb3642231020b725", "lon": -77.0379765, "rental_uris": {"ios": "https://dc.lft.to/lastmile_qr_scan", "android": "https://dc.lft.to/lastmile_qr_scan"}}, {"name": "384d2a3e3b3cd8627ed0eb1843f51dce", "fusion_lat": 0.0, "type": "electric_scooter", "lat": 38.9028295, "is_reserved": 0, "is_disabled": 0, "fusion_lon": 0.0, "bike_id": "384d2a3e3b3cd8627ed0eb1843f51dce", "lon": -77.03641966666666, "rental_uris": {"ios": "https://dc.lft.to/lastmile_qr_scan", "android": "https://dc.lft.to/lastmile_qr_scan"}}, {"name": "8954894d752af171ba4ea599fda9c767", "fusion_lat": 0.0, "type": "electric_scooter", "lat": 38.891850833333336, "is_reserved": 0, "is_disabled": 0, "fusion_lon": 0.0, "bike_id": "8954894d752af171ba4ea599fda9c767", "lon": -77.00332233333333, "rental_uris": {"ios": "https://dc.lft.to/lastmile_qr_scan", "android": "https://dc.lft.to/lastmile_qr_scan"}}, {"name": "60e822e0d16352a6c2323254a87c7a49", "fusion_lat": 0.0, "type": "electric_scooter", "lat": 38.9178235, "is_reserved": 0, "is_disabled": 0, "fusion_lon": 0.0, "bike_id": "60e822e0d16352a6c2323254a87c7a49", "lon": -77.03451166666666, "rental_uris": {"ios": "https://dc.lft.to/lastmile_qr_scan", "android": "https://dc.lft.to/lastmile_qr_scan"}}, {"name": "37060a51f24ceb6a1de0b54882324ca6", "fusion_lat": 0.0, "type": "electric_scooter", "lat": 38.887617, "is_reserved": 0, "is_disabled": 0, "fusion_lon": 0.0, "bike_id": "37060a51f24ceb6a1de0b54882324ca6", "lon": -76.956027, "rental_uris": {"ios": "https://dc.lft.to/lastmile_qr_scan", "android": "https://dc.lft.to/lastmile_qr_scan"}}, {"name": "268209bf279ee7e1e78698b67fcf5f44", "fusion_lat": 0.0, "type": "electric_scooter", "lat": 38.890925833333334, "is_reserved": 0, "is_disabled": 0, "fusion_lon": 0.0, "bike_id": "268209bf279ee7e1e78698b67fcf5f44", "lon": -76.9873275, "rental_uris": {"ios": "https://dc.lft.to/lastmile_qr_scan", "android": "https://dc.lft.to/lastmile_qr_scan"}}, {"name": "c79c701a61b0baaded26e0872be2d6de", "fusion_lat": 0.0, "type": "electric_scooter", "lat": 38.905049, "is_reserved": 0, "is_disabled": 0, "fusion_lon": 0.0, "bike_id": "c79c701a61b0baaded26e0872be2d6de", "lon": -77.04470816666667, "rental_uris": {"ios": "https://dc.lft.to/lastmile_qr_scan", "android": "https://dc.lft.to/lastmile_qr_scan"}}, {"name": "4df5c2edd3325ac47cf63b7afb34a329", "fusion_lat": 0.0, "type": "electric_scooter", "lat": 38.936131833333334, "is_reserved": 0, "is_disabled": 0, "fusion_lon": 0.0, "bike_id": "4df5c2edd3325ac47cf63b7afb34a329", "lon": -77.03214983333334, "rental_uris": {"ios": "https://dc.lft.to/lastmile_qr_scan", "android": "https://dc.lft.to/lastmile_qr_scan"}}, {"name": "64d2cc8959b8bd72130e39c439aff2b8", "fusion_lat": 0.0, "type": "electric_scooter", "lat": 38.9117595, "is_reserved": 0, "is_disabled": 0, "fusion_lon": 0.0, "bike_id": "64d2cc8959b8bd72130e39c439aff2b8", "lon": -77.011239, "rental_uris": {"ios": "https://dc.lft.to/lastmile_qr_scan", "android": "https://dc.lft.to/lastmile_qr_scan"}}, {"name": "817cf9a19b716ffc5ee9676b9d24d420", "fusion_lat": 0.0, "type": "electric_scooter", "lat": 38.93592483333333, "is_reserved": 0, "is_disabled": 0, "fusion_lon": 0.0, "bike_id": "817cf9a19b716ffc5ee9676b9d24d420", "lon": -76.9912095, "rental_uris": {"ios": "https://dc.lft.to/lastmile_qr_scan", "android": "https://dc.lft.to/lastmile_qr_scan"}}, {"name": "66ab2d2dca68a9e29776f33421fb2e12", "fusion_lat": 0.0, "type": "electric_scooter", "lat": 38.9325585, "is_reserved": 0, "is_disabled": 0, "fusion_lon": 0.0, "bike_id": "66ab2d2dca68a9e29776f33421fb2e12", "lon": -77.0401065, "rental_uris": {"ios": "https://dc.lft.to/lastmile_qr_scan", "android": "https://dc.lft.to/lastmile_qr_scan"}}, {"name": "afb22554f406edc759bb009b79bb193d", "fusion_lat": 0.0, "type": "electric_scooter", "lat": 38.9069925, "is_reserved": 0, "is_disabled": 0, "fusion_lon": 0.0, "bike_id": "afb22554f406edc759bb009b79bb193d", "lon": -77.02398716666667, "rental_uris": {"ios": "https://dc.lft.to/lastmile_qr_scan", "android": "https://dc.lft.to/lastmile_qr_scan"}}, {"name": "027ca032ea2969597bf7294ba9c4305d", "fusion_lat": 0.0, "type": "electric_scooter", "lat": 38.912709666666665, "is_reserved": 0, "is_disabled": 0, "fusion_lon": 0.0, "bike_id": "027ca032ea2969597bf7294ba9c4305d", "lon": -77.03875783333334, "rental_uris": {"ios": "https://dc.lft.to/lastmile_qr_scan", "android": "https://dc.lft.to/lastmile_qr_scan"}}, {"name": "0db93c22517bfef559c6b59bc00b0f00", "fusion_lat": 0.0, "type": "electric_scooter", "lat": 38.91658916666667, "is_reserved": 0, "is_disabled": 0, "fusion_lon": 0.0, "bike_id": "0db93c22517bfef559c6b59bc00b0f00", "lon": -77.03707683333333, "rental_uris": {"ios": "https://dc.lft.to/lastmile_qr_scan", "android": "https://dc.lft.to/lastmile_qr_scan"}}, {"name": "9b32c53b644fa91c7a049b87e3292cc1", "fusion_lat": 0.0, "type": "electric_bike", "lat": 38.9073595, "is_reserved": 0, "is_disabled": 0, "fusion_lon": 0.0, "bike_id": "9b32c53b644fa91c7a049b87e3292cc1", "lon": -77.00596066666667, "rental_uris": {"ios": "https://dc.lft.to/lastmile_qr_scan", "android": "https://dc.lft.to/lastmile_qr_scan"}}, {"name": "5126e1eec4df86929cbb5b8b8896c270", "fusion_lat": 0.0, "type": "electric_scooter", "lat": 38.921240833333336, "is_reserved": 0, "is_disabled": 0, "fusion_lon": 0.0, "bike_id": "5126e1eec4df86929cbb5b8b8896c270", "lon": -77.04219333333333, "rental_uris": {"ios": "https://dc.lft.to/lastmile_qr_scan", "android": "https://dc.lft.to/lastmile_qr_scan"}}, {"name": "d8d5e5da10f92b0f008f5864bbc7b2c2", "fusion_lat": 0.0, "type": "electric_scooter", "lat": 38.89849016666667, "is_reserved": 0, "is_disabled": 0, "fusion_lon": 0.0, "bike_id": "d8d5e5da10f92b0f008f5864bbc7b2c2", "lon": -77.02582233333334, "rental_uris": {"ios": "https://dc.lft.to/lastmile_qr_scan", "android": "https://dc.lft.to/lastmile_qr_scan"}}, {"name": "a6dd1320c754b1183ebb7861433fd329", "fusion_lat": 0.0, "type": "electric_scooter", "lat": 38.91045233333333, "is_reserved": 0, "is_disabled": 0, "fusion_lon": 0.0, "bike_id": "a6dd1320c754b1183ebb7861433fd329", "lon": -77.04359583333333, "rental_uris": {"ios": "https://dc.lft.to/lastmile_qr_scan", "android": "https://dc.lft.to/lastmile_qr_scan"}}, {"name": "1b31e21cedc1ff3d85d086750660c779", "fusion_lat": 0.0, "type": "electric_bike", "lat": 38.9595865, "is_reserved": 0, "is_disabled": 0, "fusion_lon": 0.0, "bike_id": "1b31e21cedc1ff3d85d086750660c779", "lon": -77.100857, "rental_uris": {"ios": "https://dc.lft.to/lastmile_qr_scan", "android": "https://dc.lft.to/lastmile_qr_scan"}}, {"name": "fd5757521390232791d856724f6af940", "fusion_lat": 0.0, "type": "electric_scooter", "lat": 38.918348, "is_reserved": 0, "is_disabled": 0, "fusion_lon": 0.0, "bike_id": "fd5757521390232791d856724f6af940", "lon": -77.02695, "rental_uris": {"ios": "https://dc.lft.to/lastmile_qr_scan", "android": "https://dc.lft.to/lastmile_qr_scan"}}, {"name": "26a49c197b8366f127985c22d8ddfa89", "fusion_lat": 0.0, "type": "electric_scooter", "lat": 38.90417166666667, "is_reserved": 0, "is_disabled": 0, "fusion_lon": 0.0, "bike_id": "26a49c197b8366f127985c22d8ddfa89", "lon": -76.9788965, "rental_uris": {"ios": "https://dc.lft.to/lastmile_qr_scan", "android": "https://dc.lft.to/lastmile_qr_scan"}}, {"name": "2f6ff84cfb3e75600de0f4c84117d46a", "fusion_lat": 0.0, "type": "electric_scooter", "lat": 38.918501, "is_reserved": 0, "is_disabled": 0, "fusion_lon": 0.0, "bike_id": "2f6ff84cfb3e75600de0f4c84117d46a", "lon": -77.025993, "rental_uris": {"ios": "https://dc.lft.to/lastmile_qr_scan", "android": "https://dc.lft.to/lastmile_qr_scan"}}, {"name": "a7d9d107e9dcf9886bb762a25c9e045d", "fusion_lat": 0.0, "type": "electric_scooter", "lat": 38.89511016666667, "is_reserved": 0, "is_disabled": 0, "fusion_lon": 0.0, "bike_id": "a7d9d107e9dcf9886bb762a25c9e045d", "lon": -76.99155016666667, "rental_uris": {"ios": "https://dc.lft.to/lastmile_qr_scan", "android": "https://dc.lft.to/lastmile_qr_scan"}}, {"name": "43638aa72cbb8fdda0addc0f8aa4ccf8", "fusion_lat": 0.0, "type": "electric_scooter", "lat": 38.90710966666666, "is_reserved": 0, "is_disabled": 0, "fusion_lon": 0.0, "bike_id": "43638aa72cbb8fdda0addc0f8aa4ccf8", "lon": -77.005425, "rental_uris": {"ios": "https://dc.lft.to/lastmile_qr_scan", "android": "https://dc.lft.to/lastmile_qr_scan"}}, {"name": "c3c70ea745afbb74d04ea024467591b0", "fusion_lat": 0.0, "type": "electric_scooter", "lat": 38.89223633333334, "is_reserved": 0, "is_disabled": 0, "fusion_lon": 0.0, "bike_id": "c3c70ea745afbb74d04ea024467591b0", "lon": -77.0398335, "rental_uris": {"ios": "https://dc.lft.to/lastmile_qr_scan", "android": "https://dc.lft.to/lastmile_qr_scan"}}, {"name": "dedca5fe3777860aa06feb4cf56ecf73", "fusion_lat": 0.0, "type": "electric_scooter", "lat": 38.88503716666666, "is_reserved": 0, "is_disabled": 0, "fusion_lon": 0.0, "bike_id": "dedca5fe3777860aa06feb4cf56ecf73", "lon": -77.01725483333334, "rental_uris": {"ios": "https://dc.lft.to/lastmile_qr_scan", "android": "https://dc.lft.to/lastmile_qr_scan"}}, {"name": "a752bdd185a9f122d0217b66e74c8887", "fusion_lat": 0.0, "type": "electric_scooter", "lat": 38.916192, "is_reserved": 0, "is_disabled": 0, "fusion_lon": 0.0, "bike_id": "a752bdd185a9f122d0217b66e74c8887", "lon": -77.0216175, "rental_uris": {"ios": "https://dc.lft.to/lastmile_qr_scan", "android": "https://dc.lft.to/lastmile_qr_scan"}}, {"name": "aa62b14cbbbc2fbb3cabd5646814c1bd", "fusion_lat": 0.0, "type": "electric_scooter", "lat": 38.916362166666666, "is_reserved": 0, "is_disabled": 0, "fusion_lon": 0.0, "bike_id": "aa62b14cbbbc2fbb3cabd5646814c1bd", "lon": -77.00106666666667, "rental_uris": {"ios": "https://dc.lft.to/lastmile_qr_scan", "android": "https://dc.lft.to/lastmile_qr_scan"}}, {"name": "d944da32714496b9c04c8d9af1e654e3", "fusion_lat": 0.0, "type": "electric_scooter", "lat": 38.90116116666667, "is_reserved": 0, "is_disabled": 0, "fusion_lon": 0.0, "bike_id": "d944da32714496b9c04c8d9af1e654e3", "lon": -77.03170483333334, "rental_uris": {"ios": "https://dc.lft.to/lastmile_qr_scan", "android": "https://dc.lft.to/lastmile_qr_scan"}}, {"name": "d9d6f9cfe2a6201e277895593f528e49", "fusion_lat": 0.0, "type": "electric_scooter", "lat": 38.9126625, "is_reserved": 0, "is_disabled": 0, "fusion_lon": 0.0, "bike_id": "d9d6f9cfe2a6201e277895593f528e49", "lon": -77.00921933333333, "rental_uris": {"ios": "https://dc.lft.to/lastmile_qr_scan", "android": "https://dc.lft.to/lastmile_qr_scan"}}, {"name": "16090a0c9f5cb60d8a585ab286380278", "fusion_lat": 0.0, "type": "electric_scooter", "lat": 38.90661566666667, "is_reserved": 0, "is_disabled": 0, "fusion_lon": 0.0, "bike_id": "16090a0c9f5cb60d8a585ab286380278", "lon": -77.03816566666667, "rental_uris": {"ios": "https://dc.lft.to/lastmile_qr_scan", "android": "https://dc.lft.to/lastmile_qr_scan"}}, {"name": "082412846d71322e003ffd1443f3e4d9", "fusion_lat": 0.0, "type": "electric_scooter", "lat": 38.913296333333335, "is_reserved": 0, "is_disabled": 0, "fusion_lon": 0.0, "bike_id": "082412846d71322e003ffd1443f3e4d9", "lon": -77.04532683333333, "rental_uris": {"ios": "https://dc.lft.to/lastmile_qr_scan", "android": "https://dc.lft.to/lastmile_qr_scan"}}, {"name": "4a16ff86eec29731aa3b8e11178bb31c", "fusion_lat": 0.0, "type": "electric_scooter", "lat": 38.9251585, "is_reserved": 0, "is_disabled": 0, "fusion_lon": 0.0, "bike_id": "4a16ff86eec29731aa3b8e11178bb31c", "lon": -77.00174166666666, "rental_uris": {"ios": "https://dc.lft.to/lastmile_qr_scan", "android": "https://dc.lft.to/lastmile_qr_scan"}}, {"name": "d9e0e44c71df9b6037f201ba265083a8", "fusion_lat": 0.0, "type": "electric_scooter", "lat": 38.916972666666666, "is_reserved": 0, "is_disabled": 0, "fusion_lon": 0.0, "bike_id": "d9e0e44c71df9b6037f201ba265083a8", "lon": -77.01874433333333, "rental_uris": {"ios": "https://dc.lft.to/lastmile_qr_scan", "android": "https://dc.lft.to/lastmile_qr_scan"}}, {"name": "615a4f38a98003f54f47539676a2a1a4", "fusion_lat": 0.0, "type": "electric_scooter", "lat": 38.924906666666665, "is_reserved": 0, "is_disabled": 0, "fusion_lon": 0.0, "bike_id": "615a4f38a98003f54f47539676a2a1a4", "lon": -77.02710883333333, "rental_uris": {"ios": "https://dc.lft.to/lastmile_qr_scan", "android": "https://dc.lft.to/lastmile_qr_scan"}}, {"name": "d25f2b210b39187fed4e512986a4cd22", "fusion_lat": 0.0, "type": "electric_scooter", "lat": 38.929682166666666, "is_reserved": 0, "is_disabled": 0, "fusion_lon": 0.0, "bike_id": "d25f2b210b39187fed4e512986a4cd22", "lon": -77.0411135, "rental_uris": {"ios": "https://dc.lft.to/lastmile_qr_scan", "android": "https://dc.lft.to/lastmile_qr_scan"}}, {"name": "338f692a7e192900597b78913057eb1a", "fusion_lat": 0.0, "type": "electric_scooter", "lat": 38.917694833333336, "is_reserved": 0, "is_disabled": 0, "fusion_lon": 0.0, "bike_id": "338f692a7e192900597b78913057eb1a", "lon": -77.0967215, "rental_uris": {"ios": "https://dc.lft.to/lastmile_qr_scan", "android": "https://dc.lft.to/lastmile_qr_scan"}}, {"name": "3bade632382f0d160dde937de13a4c72", "fusion_lat": 0.0, "type": "electric_scooter", "lat": 38.932490333333334, "is_reserved": 0, "is_disabled": 0, "fusion_lon": 0.0, "bike_id": "3bade632382f0d160dde937de13a4c72", "lon": -77.0384675, "rental_uris": {"ios": "https://dc.lft.to/lastmile_qr_scan", "android": "https://dc.lft.to/lastmile_qr_scan"}}, {"name": "7e661da62c009636a5d10b94c5c817b8", "fusion_lat": 0.0, "type": "electric_scooter", "lat": 38.89550766666667, "is_reserved": 0, "is_disabled": 0, "fusion_lon": 0.0, "bike_id": "7e661da62c009636a5d10b94c5c817b8", "lon": -76.94873683333333, "rental_uris": {"ios": "https://dc.lft.to/lastmile_qr_scan", "android": "https://dc.lft.to/lastmile_qr_scan"}}, {"name": "f17b0163ccc49e4eaf8620f635735431", "fusion_lat": 0.0, "type": "electric_scooter", "lat": 38.86659183333333, "is_reserved": 0, "is_disabled": 0, "fusion_lon": 0.0, "bike_id": "f17b0163ccc49e4eaf8620f635735431", "lon": -76.98882333333333, "rental_uris": {"ios": "https://dc.lft.to/lastmile_qr_scan", "android": "https://dc.lft.to/lastmile_qr_scan"}}, {"name": "6ce4b5b814ca89821808bdf49250584d", "fusion_lat": 0.0, "type": "electric_scooter", "lat": 38.91984683333333, "is_reserved": 0, "is_disabled": 0, "fusion_lon": 0.0, "bike_id": "6ce4b5b814ca89821808bdf49250584d", "lon": -77.0249245, "rental_uris": {"ios": "https://dc.lft.to/lastmile_qr_scan", "android": "https://dc.lft.to/lastmile_qr_scan"}}, {"name": "cbf579e5cf30aee1dd86c12602172e3e", "fusion_lat": 0.0, "type": "electric_scooter", "lat": 38.911062666666666, "is_reserved": 0, "is_disabled": 0, "fusion_lon": 0.0, "bike_id": "cbf579e5cf30aee1dd86c12602172e3e", "lon": -77.02458283333333, "rental_uris": {"ios": "https://dc.lft.to/lastmile_qr_scan", "android": "https://dc.lft.to/lastmile_qr_scan"}}, {"name": "03688192f1062dbc2495410606e6f15e", "fusion_lat": 0.0, "type": "electric_scooter", "lat": 38.907426666666666, "is_reserved": 0, "is_disabled": 0, "fusion_lon": 0.0, "bike_id": "03688192f1062dbc2495410606e6f15e", "lon": -77.04669766666666, "rental_uris": {"ios": "https://dc.lft.to/lastmile_qr_scan", "android": "https://dc.lft.to/lastmile_qr_scan"}}, {"name": "8cf41d3b723804938dc0111ea0f48f48", "fusion_lat": 0.0, "type": "electric_scooter", "lat": 38.89621366666667, "is_reserved": 0, "is_disabled": 0, "fusion_lon": 0.0, "bike_id": "8cf41d3b723804938dc0111ea0f48f48", "lon": -77.04456333333333, "rental_uris": {"ios": "https://dc.lft.to/lastmile_qr_scan", "android": "https://dc.lft.to/lastmile_qr_scan"}}, {"name": "416e6fd6e6f8470d7972d7739bc1213c", "fusion_lat": 0.0, "type": "electric_scooter", "lat": 38.90799333333333, "is_reserved": 0, "is_disabled": 0, "fusion_lon": 0.0, "bike_id": "416e6fd6e6f8470d7972d7739bc1213c", "lon": -77.01814633333333, "rental_uris": {"ios": "https://dc.lft.to/lastmile_qr_scan", "android": "https://dc.lft.to/lastmile_qr_scan"}}, {"name": "055e4230de385d71b58f39d711aa2233", "fusion_lat": 0.0, "type": "electric_scooter", "lat": 38.87580583333333, "is_reserved": 0, "is_disabled": 0, "fusion_lon": 0.0, "bike_id": "055e4230de385d71b58f39d711aa2233", "lon": -77.010645, "rental_uris": {"ios": "https://dc.lft.to/lastmile_qr_scan", "android": "https://dc.lft.to/lastmile_qr_scan"}}, {"name": "eb0aceb2a23e1e99fcc66a8662f521c8", "fusion_lat": 0.0, "type": "electric_scooter", "lat": 38.909873833333336, "is_reserved": 0, "is_disabled": 0, "fusion_lon": 0.0, "bike_id": "eb0aceb2a23e1e99fcc66a8662f521c8", "lon": -77.04258616666667, "rental_uris": {"ios": "https://dc.lft.to/lastmile_qr_scan", "android": "https://dc.lft.to/lastmile_qr_scan"}}, {"name": "d4e12413bbb353d90a2f97fa48e81b2b", "fusion_lat": 0.0, "type": "electric_scooter", "lat": 38.902562833333334, "is_reserved": 0, "is_disabled": 0, "fusion_lon": 0.0, "bike_id": "d4e12413bbb353d90a2f97fa48e81b2b", "lon": -76.97703916666667, "rental_uris": {"ios": "https://dc.lft.to/lastmile_qr_scan", "android": "https://dc.lft.to/lastmile_qr_scan"}}, {"name": "287ac2c1ec0283eaca992288fbc581c0", "fusion_lat": 0.0, "type": "electric_scooter", "lat": 38.89509866666667, "is_reserved": 0, "is_disabled": 0, "fusion_lon": 0.0, "bike_id": "287ac2c1ec0283eaca992288fbc581c0", "lon": -77.01099083333334, "rental_uris": {"ios": "https://dc.lft.to/lastmile_qr_scan", "android": "https://dc.lft.to/lastmile_qr_scan"}}, {"name": "e9ddb66fa3a2fb8440e4c571c0c1d3bf", "fusion_lat": 0.0, "type": "electric_scooter", "lat": 38.912888333333335, "is_reserved": 0, "is_disabled": 0, "fusion_lon": 0.0, "bike_id": "e9ddb66fa3a2fb8440e4c571c0c1d3bf", "lon": -76.93744666666667, "rental_uris": {"ios": "https://dc.lft.to/lastmile_qr_scan", "android": "https://dc.lft.to/lastmile_qr_scan"}}, {"name": "241bc7a90bb07e3bbf09f6d3f0120e6c", "fusion_lat": 0.0, "type": "electric_scooter", "lat": 38.92644216666667, "is_reserved": 0, "is_disabled": 0, "fusion_lon": 0.0, "bike_id": "241bc7a90bb07e3bbf09f6d3f0120e6c", "lon": -77.0369225, "rental_uris": {"ios": "https://dc.lft.to/lastmile_qr_scan", "android": "https://dc.lft.to/lastmile_qr_scan"}}, {"name": "ecaefc78d414ba9eaa442e956386099e", "fusion_lat": 0.0, "type": "electric_scooter", "lat": 38.905696666666664, "is_reserved": 0, "is_disabled": 0, "fusion_lon": 0.0, "bike_id": "ecaefc78d414ba9eaa442e956386099e", "lon": -77.02209033333334, "rental_uris": {"ios": "https://dc.lft.to/lastmile_qr_scan", "android": "https://dc.lft.to/lastmile_qr_scan"}}, {"name": "5f70e44ed03dc8eafaee171c89bb8c0a", "fusion_lat": 0.0, "type": "electric_scooter", "lat": 38.899002333333335, "is_reserved": 0, "is_disabled": 0, "fusion_lon": 0.0, "bike_id": "5f70e44ed03dc8eafaee171c89bb8c0a", "lon": -77.02164216666667, "rental_uris": {"ios": "https://dc.lft.to/lastmile_qr_scan", "android": "https://dc.lft.to/lastmile_qr_scan"}}, {"name": "bc6f21ccb24f7cec0c4ba9e24b4047fb", "fusion_lat": 0.0, "type": "electric_scooter", "lat": 38.91195616666667, "is_reserved": 0, "is_disabled": 0, "fusion_lon": 0.0, "bike_id": "bc6f21ccb24f7cec0c4ba9e24b4047fb", "lon": -77.017841, "rental_uris": {"ios": "https://dc.lft.to/lastmile_qr_scan", "android": "https://dc.lft.to/lastmile_qr_scan"}}, {"name": "dc6b423cb999969c03ded7ac3dd331d2", "fusion_lat": 0.0, "type": "electric_scooter", "lat": 38.90975066666667, "is_reserved": 0, "is_disabled": 0, "fusion_lon": 0.0, "bike_id": "dc6b423cb999969c03ded7ac3dd331d2", "lon": -77.03887016666667, "rental_uris": {"ios": "https://dc.lft.to/lastmile_qr_scan", "android": "https://dc.lft.to/lastmile_qr_scan"}}, {"name": "fbece2d0d89319f32172dff50ff29f2a", "fusion_lat": 0.0, "type": "electric_scooter", "lat": 38.921162333333335, "is_reserved": 0, "is_disabled": 0, "fusion_lon": 0.0, "bike_id": "fbece2d0d89319f32172dff50ff29f2a", "lon": -77.04389633333334, "rental_uris": {"ios": "https://dc.lft.to/lastmile_qr_scan", "android": "https://dc.lft.to/lastmile_qr_scan"}}, {"name": "a33a50268ce3e003ea12ddce411c2194", "fusion_lat": 0.0, "type": "electric_scooter", "lat": 38.934983, "is_reserved": 0, "is_disabled": 0, "fusion_lon": 0.0, "bike_id": "a33a50268ce3e003ea12ddce411c2194", "lon": -77.0254075, "rental_uris": {"ios": "https://dc.lft.to/lastmile_qr_scan", "android": "https://dc.lft.to/lastmile_qr_scan"}}, {"name": "47235c758d1b553363817295742435c7", "fusion_lat": 0.0, "type": "electric_scooter", "lat": 38.934652166666666, "is_reserved": 0, "is_disabled": 0, "fusion_lon": 0.0, "bike_id": "47235c758d1b553363817295742435c7", "lon": -77.02841816666667, "rental_uris": {"ios": "https://dc.lft.to/lastmile_qr_scan", "android": "https://dc.lft.to/lastmile_qr_scan"}}, {"name": "f7fee67c36b959d56c14e2dd3fd1f1bc", "fusion_lat": 0.0, "type": "electric_scooter", "lat": 38.9061055, "is_reserved": 0, "is_disabled": 0, "fusion_lon": 0.0, "bike_id": "f7fee67c36b959d56c14e2dd3fd1f1bc", "lon": -77.04042366666667, "rental_uris": {"ios": "https://dc.lft.to/lastmile_qr_scan", "android": "https://dc.lft.to/lastmile_qr_scan"}}, {"name": "dd50001a15d7ca9dd5d39af180d39aa8", "fusion_lat": 0.0, "type": "electric_scooter", "lat": 38.889153666666665, "is_reserved": 0, "is_disabled": 0, "fusion_lon": 0.0, "bike_id": "dd50001a15d7ca9dd5d39af180d39aa8", "lon": -76.95370233333334, "rental_uris": {"ios": "https://dc.lft.to/lastmile_qr_scan", "android": "https://dc.lft.to/lastmile_qr_scan"}}, {"name": "c3eb78e1309c92f0410ac809ddf94376", "fusion_lat": 0.0, "type": "electric_scooter", "lat": 38.92890333333333, "is_reserved": 0, "is_disabled": 0, "fusion_lon": 0.0, "bike_id": "c3eb78e1309c92f0410ac809ddf94376", "lon": -77.02310433333334, "rental_uris": {"ios": "https://dc.lft.to/lastmile_qr_scan", "android": "https://dc.lft.to/lastmile_qr_scan"}}, {"name": "a3da8f19fcb5875eaa5f43253101d7e5", "fusion_lat": 0.0, "type": "electric_scooter", "lat": 38.934895166666664, "is_reserved": 0, "is_disabled": 0, "fusion_lon": 0.0, "bike_id": "a3da8f19fcb5875eaa5f43253101d7e5", "lon": -77.07272483333334, "rental_uris": {"ios": "https://dc.lft.to/lastmile_qr_scan", "android": "https://dc.lft.to/lastmile_qr_scan"}}, {"name": "694b20d76aa3b789b70b79ab5dfadf30", "fusion_lat": 0.0, "type": "electric_bike", "lat": 38.8869295, "is_reserved": 0, "is_disabled": 0, "fusion_lon": 0.0, "bike_id": "694b20d76aa3b789b70b79ab5dfadf30", "lon": -77.00203166666667, "rental_uris": {"ios": "https://dc.lft.to/lastmile_qr_scan", "android": "https://dc.lft.to/lastmile_qr_scan"}}, {"name": "1ed6f372a3b276f2f81d4fb31efdc960", "fusion_lat": 0.0, "type": "electric_bike", "lat": 38.819417666666666, "is_reserved": 0, "is_disabled": 0, "fusion_lon": 0.0, "bike_id": "1ed6f372a3b276f2f81d4fb31efdc960", "lon": -77.00206816666666, "rental_uris": {"ios": "https://dc.lft.to/lastmile_qr_scan", "android": "https://dc.lft.to/lastmile_qr_scan"}}, {"name": "db3fdb96b50ef91f5adf1858b0e6a94c", "fusion_lat": 0.0, "type": "electric_scooter", "lat": 38.926803166666666, "is_reserved": 0, "is_disabled": 0, "fusion_lon": 0.0, "bike_id": "db3fdb96b50ef91f5adf1858b0e6a94c", "lon": -77.01453333333333, "rental_uris": {"ios": "https://dc.lft.to/lastmile_qr_scan", "android": "https://dc.lft.to/lastmile_qr_scan"}}, {"name": "a312b9351d92ef15a6fa5a8baad30a00", "fusion_lat": 0.0, "type": "electric_scooter", "lat": 38.92603166666667, "is_reserved": 0, "is_disabled": 0, "fusion_lon": 0.0, "bike_id": "a312b9351d92ef15a6fa5a8baad30a00", "lon": -77.02149033333333, "rental_uris": {"ios": "https://dc.lft.to/lastmile_qr_scan", "android": "https://dc.lft.to/lastmile_qr_scan"}}, {"name": "6413db0b28d27b090501988c953b34f2", "fusion_lat": 0.0, "type": "electric_bike", "lat": 38.96540383333333, "is_reserved": 0, "is_disabled": 0, "fusion_lon": 0.0, "bike_id": "6413db0b28d27b090501988c953b34f2", "lon": -77.03519566666667, "rental_uris": {"ios": "https://dc.lft.to/lastmile_qr_scan", "android": "https://dc.lft.to/lastmile_qr_scan"}}, {"name": "8d0ed56ff568e3f09f9a1e74ac9f0bfe", "fusion_lat": 0.0, "type": "electric_scooter", "lat": 38.885061666666665, "is_reserved": 0, "is_disabled": 0, "fusion_lon": 0.0, "bike_id": "8d0ed56ff568e3f09f9a1e74ac9f0bfe", "lon": -77.00568583333333, "rental_uris": {"ios": "https://dc.lft.to/lastmile_qr_scan", "android": "https://dc.lft.to/lastmile_qr_scan"}}, {"name": "e38e6117f4aee1c4f338743cee1adf64", "fusion_lat": 0.0, "type": "electric_scooter", "lat": 38.915585, "is_reserved": 0, "is_disabled": 0, "fusion_lon": 0.0, "bike_id": "e38e6117f4aee1c4f338743cee1adf64", "lon": -77.04283816666667, "rental_uris": {"ios": "https://dc.lft.to/lastmile_qr_scan", "android": "https://dc.lft.to/lastmile_qr_scan"}}, {"name": "7be16e464287fde5bf1538561704088e", "fusion_lat": 0.0, "type": "electric_scooter", "lat": 38.89480866666667, "is_reserved": 0, "is_disabled": 0, "fusion_lon": 0.0, "bike_id": "7be16e464287fde5bf1538561704088e", "lon": -77.01015333333334, "rental_uris": {"ios": "https://dc.lft.to/lastmile_qr_scan", "android": "https://dc.lft.to/lastmile_qr_scan"}}, {"name": "48ea2b37aa45d221512bfaddd115e656", "fusion_lat": 0.0, "type": "electric_scooter", "lat": 38.90325566666667, "is_reserved": 0, "is_disabled": 0, "fusion_lon": 0.0, "bike_id": "48ea2b37aa45d221512bfaddd115e656", "lon": -77.05338733333333, "rental_uris": {"ios": "https://dc.lft.to/lastmile_qr_scan", "android": "https://dc.lft.to/lastmile_qr_scan"}}, {"name": "1a3ca9dc8496916c384d732f2f667dbc", "fusion_lat": 0.0, "type": "electric_scooter", "lat": 38.90270983333333, "is_reserved": 0, "is_disabled": 0, "fusion_lon": 0.0, "bike_id": "1a3ca9dc8496916c384d732f2f667dbc", "lon": -77.04050216666667, "rental_uris": {"ios": "https://dc.lft.to/lastmile_qr_scan", "android": "https://dc.lft.to/lastmile_qr_scan"}}, {"name": "acb9a82bd7c85284c17210c32ae50125", "fusion_lat": 0.0, "type": "electric_scooter", "lat": 38.9075295, "is_reserved": 0, "is_disabled": 0, "fusion_lon": 0.0, "bike_id": "acb9a82bd7c85284c17210c32ae50125", "lon": -77.03439266666666, "rental_uris": {"ios": "https://dc.lft.to/lastmile_qr_scan", "android": "https://dc.lft.to/lastmile_qr_scan"}}, {"name": "1f055d31321b6659de3c2742e201166c", "fusion_lat": 0.0, "type": "electric_scooter", "lat": 38.90972816666667, "is_reserved": 0, "is_disabled": 0, "fusion_lon": 0.0, "bike_id": "1f055d31321b6659de3c2742e201166c", "lon": -77.03378333333333, "rental_uris": {"ios": "https://dc.lft.to/lastmile_qr_scan", "android": "https://dc.lft.to/lastmile_qr_scan"}}, {"name": "f6bc4f467aa806af1cd984e692d094ae", "fusion_lat": 0.0, "type": "electric_scooter", "lat": 38.9070155, "is_reserved": 0, "is_disabled": 0, "fusion_lon": 0.0, "bike_id": "f6bc4f467aa806af1cd984e692d094ae", "lon": -76.98697066666666, "rental_uris": {"ios": "https://dc.lft.to/lastmile_qr_scan", "android": "https://dc.lft.to/lastmile_qr_scan"}}, {"name": "f5598d4b281646150cfefbb7208ad9f1", "fusion_lat": 0.0, "type": "electric_scooter", "lat": 38.90263866666667, "is_reserved": 0, "is_disabled": 0, "fusion_lon": 0.0, "bike_id": "f5598d4b281646150cfefbb7208ad9f1", "lon": -77.00332366666666, "rental_uris": {"ios": "https://dc.lft.to/lastmile_qr_scan", "android": "https://dc.lft.to/lastmile_qr_scan"}}, {"name": "01cfe259a9488a7cbbc012db01012e24", "fusion_lat": 0.0, "type": "electric_scooter", "lat": 38.87633783333333, "is_reserved": 0, "is_disabled": 0, "fusion_lon": 0.0, "bike_id": "01cfe259a9488a7cbbc012db01012e24", "lon": -76.96533866666667, "rental_uris": {"ios": "https://dc.lft.to/lastmile_qr_scan", "android": "https://dc.lft.to/lastmile_qr_scan"}}, {"name": "1c6e382dee1c3b61f23b3ea6e2e321c3", "fusion_lat": 0.0, "type": "electric_scooter", "lat": 38.90624066666667, "is_reserved": 0, "is_disabled": 0, "fusion_lon": 0.0, "bike_id": "1c6e382dee1c3b61f23b3ea6e2e321c3", "lon": -77.00600483333334, "rental_uris": {"ios": "https://dc.lft.to/lastmile_qr_scan", "android": "https://dc.lft.to/lastmile_qr_scan"}}, {"name": "43dfcfb296b34fe187325803f9172743", "fusion_lat": 0.0, "type": "electric_scooter", "lat": 38.922873833333334, "is_reserved": 0, "is_disabled": 0, "fusion_lon": 0.0, "bike_id": "43dfcfb296b34fe187325803f9172743", "lon": -77.02967233333334, "rental_uris": {"ios": "https://dc.lft.to/lastmile_qr_scan", "android": "https://dc.lft.to/lastmile_qr_scan"}}, {"name": "34911add1e82fe6321c2f35625c0fc64", "fusion_lat": 0.0, "type": "electric_scooter", "lat": 38.8750175, "is_reserved": 0, "is_disabled": 0, "fusion_lon": 0.0, "bike_id": "34911add1e82fe6321c2f35625c0fc64", "lon": -76.99792483333333, "rental_uris": {"ios": "https://dc.lft.to/lastmile_qr_scan", "android": "https://dc.lft.to/lastmile_qr_scan"}}, {"name": "ba6c5bc3474f1dcd0fc48cd1a44790c5", "fusion_lat": 0.0, "type": "electric_scooter", "lat": 38.90034166666667, "is_reserved": 0, "is_disabled": 0, "fusion_lon": 0.0, "bike_id": "ba6c5bc3474f1dcd0fc48cd1a44790c5", "lon": -77.00223066666666, "rental_uris": {"ios": "https://dc.lft.to/lastmile_qr_scan", "android": "https://dc.lft.to/lastmile_qr_scan"}}, {"name": "50ea96c125c85260820a4f4510bb4cd3", "fusion_lat": 0.0, "type": "electric_scooter", "lat": 38.87326, "is_reserved": 0, "is_disabled": 0, "fusion_lon": 0.0, "bike_id": "50ea96c125c85260820a4f4510bb4cd3", "lon": -77.00112233333333, "rental_uris": {"ios": "https://dc.lft.to/lastmile_qr_scan", "android": "https://dc.lft.to/lastmile_qr_scan"}}, {"name": "07078533dd4cdacfedd4dff52d3a75d2", "fusion_lat": 0.0, "type": "electric_scooter", "lat": 38.903863666666666, "is_reserved": 0, "is_disabled": 0, "fusion_lon": 0.0, "bike_id": "07078533dd4cdacfedd4dff52d3a75d2", "lon": -77.0481705, "rental_uris": {"ios": "https://dc.lft.to/lastmile_qr_scan", "android": "https://dc.lft.to/lastmile_qr_scan"}}, {"name": "234434497db64037ec5f9b1a9e1b9825", "fusion_lat": 0.0, "type": "electric_bike", "lat": 38.951880833333334, "is_reserved": 0, "is_disabled": 0, "fusion_lon": 0.0, "bike_id": "234434497db64037ec5f9b1a9e1b9825", "lon": -76.93539816666667, "rental_uris": {"ios": "https://dc.lft.to/lastmile_qr_scan", "android": "https://dc.lft.to/lastmile_qr_scan"}}, {"name": "e3bbf978d9f3c00c3d2dc00bc26179d9", "fusion_lat": 0.0, "type": "electric_scooter", "lat": 38.89851566666667, "is_reserved": 0, "is_disabled": 0, "fusion_lon": 0.0, "bike_id": "e3bbf978d9f3c00c3d2dc00bc26179d9", "lon": -77.0407555, "rental_uris": {"ios": "https://dc.lft.to/lastmile_qr_scan", "android": "https://dc.lft.to/lastmile_qr_scan"}}, {"name": "7c115408679a87d990cc1a6f4395b0e6", "fusion_lat": 0.0, "type": "electric_scooter", "lat": 38.90481916666667, "is_reserved": 0, "is_disabled": 0, "fusion_lon": 0.0, "bike_id": "7c115408679a87d990cc1a6f4395b0e6", "lon": -76.97332483333334, "rental_uris": {"ios": "https://dc.lft.to/lastmile_qr_scan", "android": "https://dc.lft.to/lastmile_qr_scan"}}, {"name": "3a70d4f4390137b5ce4631cca0161fa3", "fusion_lat": 0.0, "type": "electric_scooter", "lat": 38.906717666666665, "is_reserved": 0, "is_disabled": 0, "fusion_lon": 0.0, "bike_id": "3a70d4f4390137b5ce4631cca0161fa3", "lon": -77.04326016666667, "rental_uris": {"ios": "https://dc.lft.to/lastmile_qr_scan", "android": "https://dc.lft.to/lastmile_qr_scan"}}, {"name": "e6206e316f27d5f1f0a43181736ccc4a", "fusion_lat": 0.0, "type": "electric_scooter", "lat": 38.899057666666664, "is_reserved": 0, "is_disabled": 0, "fusion_lon": 0.0, "bike_id": "e6206e316f27d5f1f0a43181736ccc4a", "lon": -77.0216825, "rental_uris": {"ios": "https://dc.lft.to/lastmile_qr_scan", "android": "https://dc.lft.to/lastmile_qr_scan"}}, {"name": "009d4e8fa57d202f37f26fbf5928a1fb", "fusion_lat": 0.0, "type": "electric_scooter", "lat": 38.909582666666665, "is_reserved": 0, "is_disabled": 0, "fusion_lon": 0.0, "bike_id": "009d4e8fa57d202f37f26fbf5928a1fb", "lon": -77.0486745, "rental_uris": {"ios": "https://dc.lft.to/lastmile_qr_scan", "android": "https://dc.lft.to/lastmile_qr_scan"}}, {"name": "50db005bcf15a790f760e162bd4cb94a", "fusion_lat": 0.0, "type": "electric_scooter", "lat": 38.91703916666667, "is_reserved": 0, "is_disabled": 0, "fusion_lon": 0.0, "bike_id": "50db005bcf15a790f760e162bd4cb94a", "lon": -77.03099183333333, "rental_uris": {"ios": "https://dc.lft.to/lastmile_qr_scan", "android": "https://dc.lft.to/lastmile_qr_scan"}}, {"name": "965f243f93b02dd4f9b330896e264a43", "fusion_lat": 0.0, "type": "electric_scooter", "lat": 38.875218833333335, "is_reserved": 0, "is_disabled": 0, "fusion_lon": 0.0, "bike_id": "965f243f93b02dd4f9b330896e264a43", "lon": -77.0176605, "rental_uris": {"ios": "https://dc.lft.to/lastmile_qr_scan", "android": "https://dc.lft.to/lastmile_qr_scan"}}, {"name": "ed260086c649e0711b124e8563f7ef55", "fusion_lat": 0.0, "type": "electric_scooter", "lat": 38.866585, "is_reserved": 0, "is_disabled": 0, "fusion_lon": 0.0, "bike_id": "ed260086c649e0711b124e8563f7ef55", "lon": -76.9888495, "rental_uris": {"ios": "https://dc.lft.to/lastmile_qr_scan", "android": "https://dc.lft.to/lastmile_qr_scan"}}, {"name": "378e3a3f868cf08db0d3800612aa57dc", "fusion_lat": 0.0, "type": "electric_scooter", "lat": 38.89956166666666, "is_reserved": 0, "is_disabled": 0, "fusion_lon": 0.0, "bike_id": "378e3a3f868cf08db0d3800612aa57dc", "lon": -77.00919816666666, "rental_uris": {"ios": "https://dc.lft.to/lastmile_qr_scan", "android": "https://dc.lft.to/lastmile_qr_scan"}}, {"name": "843d05221609d5e4c212d7d0163e1c7c", "fusion_lat": 0.0, "type": "electric_bike", "lat": 38.88866, "is_reserved": 0, "is_disabled": 0, "fusion_lon": 0.0, "bike_id": "843d05221609d5e4c212d7d0163e1c7c", "lon": -76.99478666666667, "rental_uris": {"ios": "https://dc.lft.to/lastmile_qr_scan", "android": "https://dc.lft.to/lastmile_qr_scan"}}, {"name": "a85f6256ea27953a2fe507aa0f4cf5e4", "fusion_lat": 0.0, "type": "electric_scooter", "lat": 38.8850235, "is_reserved": 0, "is_disabled": 0, "fusion_lon": 0.0, "bike_id": "a85f6256ea27953a2fe507aa0f4cf5e4", "lon": -77.02089133333334, "rental_uris": {"ios": "https://dc.lft.to/lastmile_qr_scan", "android": "https://dc.lft.to/lastmile_qr_scan"}}, {"name": "f8e9f9d9c5f9199972095038f6ce7dd7", "fusion_lat": 0.0, "type": "electric_scooter", "lat": 38.924386, "is_reserved": 0, "is_disabled": 0, "fusion_lon": 0.0, "bike_id": "f8e9f9d9c5f9199972095038f6ce7dd7", "lon": -77.04212433333333, "rental_uris": {"ios": "https://dc.lft.to/lastmile_qr_scan", "android": "https://dc.lft.to/lastmile_qr_scan"}}, {"name": "e47a6f351ddce140643466293f93f35a", "fusion_lat": 0.0, "type": "electric_scooter", "lat": 38.92146133333333, "is_reserved": 0, "is_disabled": 0, "fusion_lon": 0.0, "bike_id": "e47a6f351ddce140643466293f93f35a", "lon": -77.0350865, "rental_uris": {"ios": "https://dc.lft.to/lastmile_qr_scan", "android": "https://dc.lft.to/lastmile_qr_scan"}}, {"name": "c1eba6cd1312327ed99cb3828c7a0a39", "fusion_lat": 0.0, "type": "electric_scooter", "lat": 38.94124, "is_reserved": 0, "is_disabled": 0, "fusion_lon": 0.0, "bike_id": "c1eba6cd1312327ed99cb3828c7a0a39", "lon": -77.02051366666667, "rental_uris": {"ios": "https://dc.lft.to/lastmile_qr_scan", "android": "https://dc.lft.to/lastmile_qr_scan"}}, {"name": "580f9fb68b5a0299fb310b591f5ff0f2", "fusion_lat": 0.0, "type": "electric_scooter", "lat": 38.90221583333334, "is_reserved": 0, "is_disabled": 0, "fusion_lon": 0.0, "bike_id": "580f9fb68b5a0299fb310b591f5ff0f2", "lon": -77.02333566666667, "rental_uris": {"ios": "https://dc.lft.to/lastmile_qr_scan", "android": "https://dc.lft.to/lastmile_qr_scan"}}, {"name": "dd6999d8c5974b88ecc4627bef45a5d0", "fusion_lat": 0.0, "type": "electric_scooter", "lat": 38.91231833333333, "is_reserved": 0, "is_disabled": 0, "fusion_lon": 0.0, "bike_id": "dd6999d8c5974b88ecc4627bef45a5d0", "lon": -77.03837116666666, "rental_uris": {"ios": "https://dc.lft.to/lastmile_qr_scan", "android": "https://dc.lft.to/lastmile_qr_scan"}}, {"name": "f097df9d9988b162ddb985c4ce299ff7", "fusion_lat": 0.0, "type": "electric_scooter", "lat": 38.8635675, "is_reserved": 0, "is_disabled": 0, "fusion_lon": 0.0, "bike_id": "f097df9d9988b162ddb985c4ce299ff7", "lon": -76.99061133333333, "rental_uris": {"ios": "https://dc.lft.to/lastmile_qr_scan", "android": "https://dc.lft.to/lastmile_qr_scan"}}, {"name": "827073b75d5429f936607e277bc3e684", "fusion_lat": 0.0, "type": "electric_scooter", "lat": 38.90269033333333, "is_reserved": 0, "is_disabled": 0, "fusion_lon": 0.0, "bike_id": "827073b75d5429f936607e277bc3e684", "lon": -77.0460795, "rental_uris": {"ios": "https://dc.lft.to/lastmile_qr_scan", "android": "https://dc.lft.to/lastmile_qr_scan"}}, {"name": "39151874be5c1be2bb1d6b8177e838c2", "fusion_lat": 0.0, "type": "electric_scooter", "lat": 38.9103525, "is_reserved": 0, "is_disabled": 0, "fusion_lon": 0.0, "bike_id": "39151874be5c1be2bb1d6b8177e838c2", "lon": -77.04839516666667, "rental_uris": {"ios": "https://dc.lft.to/lastmile_qr_scan", "android": "https://dc.lft.to/lastmile_qr_scan"}}, {"name": "8f1b62eae17928d6681598cf3482cd58", "fusion_lat": 0.0, "type": "electric_scooter", "lat": 38.9170285, "is_reserved": 0, "is_disabled": 0, "fusion_lon": 0.0, "bike_id": "8f1b62eae17928d6681598cf3482cd58", "lon": -77.02893266666666, "rental_uris": {"ios": "https://dc.lft.to/lastmile_qr_scan", "android": "https://dc.lft.to/lastmile_qr_scan"}}, {"name": "4eb4011754740d7290445ba218be09d4", "fusion_lat": 0.0, "type": "electric_scooter", "lat": 38.92911733333333, "is_reserved": 0, "is_disabled": 0, "fusion_lon": 0.0, "bike_id": "4eb4011754740d7290445ba218be09d4", "lon": -77.019588, "rental_uris": {"ios": "https://dc.lft.to/lastmile_qr_scan", "android": "https://dc.lft.to/lastmile_qr_scan"}}, {"name": "6e10aa6bebcd1cc51469e5b0b0cf3539", "fusion_lat": 0.0, "type": "electric_scooter", "lat": 38.91712166666667, "is_reserved": 0, "is_disabled": 0, "fusion_lon": 0.0, "bike_id": "6e10aa6bebcd1cc51469e5b0b0cf3539", "lon": -77.03548333333333, "rental_uris": {"ios": "https://dc.lft.to/lastmile_qr_scan", "android": "https://dc.lft.to/lastmile_qr_scan"}}, {"name": "8b334143554511de066abf571aeafd5f", "fusion_lat": 0.0, "type": "electric_scooter", "lat": 38.917741, "is_reserved": 0, "is_disabled": 0, "fusion_lon": 0.0, "bike_id": "8b334143554511de066abf571aeafd5f", "lon": -77.04750916666667, "rental_uris": {"ios": "https://dc.lft.to/lastmile_qr_scan", "android": "https://dc.lft.to/lastmile_qr_scan"}}, {"name": "fe6f9ac10b4b99cf401388e1cadc88ee", "fusion_lat": 0.0, "type": "electric_scooter", "lat": 38.903919, "is_reserved": 0, "is_disabled": 0, "fusion_lon": 0.0, "bike_id": "fe6f9ac10b4b99cf401388e1cadc88ee", "lon": -77.0433295, "rental_uris": {"ios": "https://dc.lft.to/lastmile_qr_scan", "android": "https://dc.lft.to/lastmile_qr_scan"}}, {"name": "0d2bf0fa6fdfc80e873b02ff83705d4c", "fusion_lat": 0.0, "type": "electric_scooter", "lat": 38.915540166666666, "is_reserved": 0, "is_disabled": 0, "fusion_lon": 0.0, "bike_id": "0d2bf0fa6fdfc80e873b02ff83705d4c", "lon": -77.03323816666666, "rental_uris": {"ios": "https://dc.lft.to/lastmile_qr_scan", "android": "https://dc.lft.to/lastmile_qr_scan"}}, {"name": "7f1c2eb03f0a9d54f28fdf6bb473fd98", "fusion_lat": 0.0, "type": "electric_scooter", "lat": 38.878138, "is_reserved": 0, "is_disabled": 0, "fusion_lon": 0.0, "bike_id": "7f1c2eb03f0a9d54f28fdf6bb473fd98", "lon": -77.0034845, "rental_uris": {"ios": "https://dc.lft.to/lastmile_qr_scan", "android": "https://dc.lft.to/lastmile_qr_scan"}}, {"name": "768d354018409956ae19c356ea8ac605", "fusion_lat": 0.0, "type": "electric_scooter", "lat": 38.906382666666666, "is_reserved": 0, "is_disabled": 0, "fusion_lon": 0.0, "bike_id": "768d354018409956ae19c356ea8ac605", "lon": -77.00587216666666, "rental_uris": {"ios": "https://dc.lft.to/lastmile_qr_scan", "android": "https://dc.lft.to/lastmile_qr_scan"}}, {"name": "02fc3ac6f039253e9d145096fb2cc6f7", "fusion_lat": 0.0, "type": "electric_bike", "lat": 38.886932333333334, "is_reserved": 0, "is_disabled": 0, "fusion_lon": 0.0, "bike_id": "02fc3ac6f039253e9d145096fb2cc6f7", "lon": -77.09682533333333, "rental_uris": {"ios": "https://dc.lft.to/lastmile_qr_scan", "android": "https://dc.lft.to/lastmile_qr_scan"}}, {"name": "df4b4694bde9ea69c2ec5511b80f5d78", "fusion_lat": 0.0, "type": "electric_scooter", "lat": 38.892416, "is_reserved": 0, "is_disabled": 0, "fusion_lon": 0.0, "bike_id": "df4b4694bde9ea69c2ec5511b80f5d78", "lon": -77.01354866666667, "rental_uris": {"ios": "https://dc.lft.to/lastmile_qr_scan", "android": "https://dc.lft.to/lastmile_qr_scan"}}, {"name": "1a8ae5132e7e9c5a4fc9539ce7c62fca", "fusion_lat": 0.0, "type": "electric_scooter", "lat": 38.905734833333334, "is_reserved": 0, "is_disabled": 0, "fusion_lon": 0.0, "bike_id": "1a8ae5132e7e9c5a4fc9539ce7c62fca", "lon": -77.02531383333333, "rental_uris": {"ios": "https://dc.lft.to/lastmile_qr_scan", "android": "https://dc.lft.to/lastmile_qr_scan"}}, {"name": "de899ca4aa378784f7a41d05c048ded3", "fusion_lat": 0.0, "type": "electric_bike", "lat": 38.813073333333335, "is_reserved": 0, "is_disabled": 0, "fusion_lon": 0.0, "bike_id": "de899ca4aa378784f7a41d05c048ded3", "lon": -77.11197616666666, "rental_uris": {"ios": "https://dc.lft.to/lastmile_qr_scan", "android": "https://dc.lft.to/lastmile_qr_scan"}}, {"name": "ee68ccf3960d1908e84378c49ddb8f0e", "fusion_lat": 0.0, "type": "electric_bike", "lat": 38.89190133333334, "is_reserved": 0, "is_disabled": 0, "fusion_lon": 0.0, "bike_id": "ee68ccf3960d1908e84378c49ddb8f0e", "lon": -77.12256016666667, "rental_uris": {"ios": "https://dc.lft.to/lastmile_qr_scan", "android": "https://dc.lft.to/lastmile_qr_scan"}}, {"name": "26ef855fa86fed1940cfa53a603cb259", "fusion_lat": 0.0, "type": "electric_scooter", "lat": 38.906727833333335, "is_reserved": 0, "is_disabled": 0, "fusion_lon": 0.0, "bike_id": "26ef855fa86fed1940cfa53a603cb259", "lon": -76.97810833333334, "rental_uris": {"ios": "https://dc.lft.to/lastmile_qr_scan", "android": "https://dc.lft.to/lastmile_qr_scan"}}, {"name": "25c500e92ffc0fbe9ab35037eab66a8d", "fusion_lat": 0.0, "type": "electric_scooter", "lat": 38.910635166666665, "is_reserved": 0, "is_disabled": 0, "fusion_lon": 0.0, "bike_id": "25c500e92ffc0fbe9ab35037eab66a8d", "lon": -77.05320566666667, "rental_uris": {"ios": "https://dc.lft.to/lastmile_qr_scan", "android": "https://dc.lft.to/lastmile_qr_scan"}}, {"name": "8ebae574012913a8b8c534fe197a987f", "fusion_lat": 0.0, "type": "electric_scooter", "lat": 38.892327333333334, "is_reserved": 0, "is_disabled": 0, "fusion_lon": 0.0, "bike_id": "8ebae574012913a8b8c534fe197a987f", "lon": -77.050053, "rental_uris": {"ios": "https://dc.lft.to/lastmile_qr_scan", "android": "https://dc.lft.to/lastmile_qr_scan"}}, {"name": "726e36a9fe8376b46b44a66df6ff6a69", "fusion_lat": 0.0, "type": "electric_bike", "lat": 38.929907666666665, "is_reserved": 0, "is_disabled": 0, "fusion_lon": 0.0, "bike_id": "726e36a9fe8376b46b44a66df6ff6a69", "lon": -77.22593916666666, "rental_uris": {"ios": "https://dc.lft.to/lastmile_qr_scan", "android": "https://dc.lft.to/lastmile_qr_scan"}}, {"name": "4d7e73b4fe7e5e86c60f491bfa39553d", "fusion_lat": 0.0, "type": "electric_scooter", "lat": 38.89260216666667, "is_reserved": 0, "is_disabled": 0, "fusion_lon": 0.0, "bike_id": "4d7e73b4fe7e5e86c60f491bfa39553d", "lon": -77.0241335, "rental_uris": {"ios": "https://dc.lft.to/lastmile_qr_scan", "android": "https://dc.lft.to/lastmile_qr_scan"}}, {"name": "cc77ceb8fc9a34058536c8d93ed658f0", "fusion_lat": 0.0, "type": "electric_scooter", "lat": 38.917202, "is_reserved": 0, "is_disabled": 0, "fusion_lon": 0.0, "bike_id": "cc77ceb8fc9a34058536c8d93ed658f0", "lon": -77.02891666666666, "rental_uris": {"ios": "https://dc.lft.to/lastmile_qr_scan", "android": "https://dc.lft.to/lastmile_qr_scan"}}, {"name": "6b7e8ad6b1c350b3d0dd6a4d5d283a9f", "fusion_lat": 0.0, "type": "electric_scooter", "lat": 38.89609316666667, "is_reserved": 0, "is_disabled": 0, "fusion_lon": 0.0, "bike_id": "6b7e8ad6b1c350b3d0dd6a4d5d283a9f", "lon": -77.046868, "rental_uris": {"ios": "https://dc.lft.to/lastmile_qr_scan", "android": "https://dc.lft.to/lastmile_qr_scan"}}, {"name": "5ed0d8a9b804614d86556b2657c04c65", "fusion_lat": 0.0, "type": "electric_bike", "lat": 38.831950666666664, "is_reserved": 0, "is_disabled": 0, "fusion_lon": 0.0, "bike_id": "5ed0d8a9b804614d86556b2657c04c65", "lon": -77.07685016666667, "rental_uris": {"ios": "https://dc.lft.to/lastmile_qr_scan", "android": "https://dc.lft.to/lastmile_qr_scan"}}, {"name": "f8eac42815edca2790b1765c4ddd33f9", "fusion_lat": 0.0, "type": "electric_scooter", "lat": 38.92183283333333, "is_reserved": 0, "is_disabled": 0, "fusion_lon": 0.0, "bike_id": "f8eac42815edca2790b1765c4ddd33f9", "lon": -77.04256016666666, "rental_uris": {"ios": "https://dc.lft.to/lastmile_qr_scan", "android": "https://dc.lft.to/lastmile_qr_scan"}}, {"name": "b54ad264e8a99e77c50640f477d9c74e", "fusion_lat": 0.0, "type": "electric_scooter", "lat": 38.9225075, "is_reserved": 0, "is_disabled": 0, "fusion_lon": 0.0, "bike_id": "b54ad264e8a99e77c50640f477d9c74e", "lon": -77.0194905, "rental_uris": {"ios": "https://dc.lft.to/lastmile_qr_scan", "android": "https://dc.lft.to/lastmile_qr_scan"}}, {"name": "11dd345fc4112ae110ac3f5193a2a665", "fusion_lat": 0.0, "type": "electric_bike", "lat": 38.95554683333334, "is_reserved": 0, "is_disabled": 0, "fusion_lon": 0.0, "bike_id": "11dd345fc4112ae110ac3f5193a2a665", "lon": -76.9355095, "rental_uris": {"ios": "https://dc.lft.to/lastmile_qr_scan", "android": "https://dc.lft.to/lastmile_qr_scan"}}, {"name": "19e68b2af36f0bfb5869ad19bf8f98ca", "fusion_lat": 0.0, "type": "electric_scooter", "lat": 38.912302333333336, "is_reserved": 0, "is_disabled": 0, "fusion_lon": 0.0, "bike_id": "19e68b2af36f0bfb5869ad19bf8f98ca", "lon": -77.03837983333334, "rental_uris": {"ios": "https://dc.lft.to/lastmile_qr_scan", "android": "https://dc.lft.to/lastmile_qr_scan"}}, {"name": "d34f9dc020d1ec376b0bda800981bb9a", "fusion_lat": 0.0, "type": "electric_scooter", "lat": 38.9336235, "is_reserved": 0, "is_disabled": 0, "fusion_lon": 0.0, "bike_id": "d34f9dc020d1ec376b0bda800981bb9a", "lon": -77.03726216666666, "rental_uris": {"ios": "https://dc.lft.to/lastmile_qr_scan", "android": "https://dc.lft.to/lastmile_qr_scan"}}, {"name": "f575573e1c3a3280749555a8d6298049", "fusion_lat": 0.0, "type": "electric_scooter", "lat": 38.900127166666664, "is_reserved": 0, "is_disabled": 0, "fusion_lon": 0.0, "bike_id": "f575573e1c3a3280749555a8d6298049", "lon": -77.04504916666667, "rental_uris": {"ios": "https://dc.lft.to/lastmile_qr_scan", "android": "https://dc.lft.to/lastmile_qr_scan"}}, {"name": "c46de0bfd2ea7500904e3d90873cc68a", "fusion_lat": 0.0, "type": "electric_scooter", "lat": 38.9047045, "is_reserved": 0, "is_disabled": 0, "fusion_lon": 0.0, "bike_id": "c46de0bfd2ea7500904e3d90873cc68a", "lon": -77.03849016666666, "rental_uris": {"ios": "https://dc.lft.to/lastmile_qr_scan", "android": "https://dc.lft.to/lastmile_qr_scan"}}, {"name": "bf3943b637eb43d7bd79014deb2333b9", "fusion_lat": 0.0, "type": "electric_scooter", "lat": 38.87085866666666, "is_reserved": 0, "is_disabled": 0, "fusion_lon": 0.0, "bike_id": "bf3943b637eb43d7bd79014deb2333b9", "lon": -77.01376416666666, "rental_uris": {"ios": "https://dc.lft.to/lastmile_qr_scan", "android": "https://dc.lft.to/lastmile_qr_scan"}}, {"name": "ee37062704ae13ba554942ab16e540cb", "fusion_lat": 0.0, "type": "electric_scooter", "lat": 38.92824533333334, "is_reserved": 0, "is_disabled": 0, "fusion_lon": 0.0, "bike_id": "ee37062704ae13ba554942ab16e540cb", "lon": -77.02257816666666, "rental_uris": {"ios": "https://dc.lft.to/lastmile_qr_scan", "android": "https://dc.lft.to/lastmile_qr_scan"}}, {"name": "111e342c3aea3d9f21e15ada7256eb18", "fusion_lat": 0.0, "type": "electric_scooter", "lat": 38.89555033333333, "is_reserved": 0, "is_disabled": 0, "fusion_lon": 0.0, "bike_id": "111e342c3aea3d9f21e15ada7256eb18", "lon": -76.9487645, "rental_uris": {"ios": "https://dc.lft.to/lastmile_qr_scan", "android": "https://dc.lft.to/lastmile_qr_scan"}}, {"name": "6ca7a58e05da962ea18e4c970eebf41e", "fusion_lat": 0.0, "type": "electric_bike", "lat": 38.95930383333334, "is_reserved": 0, "is_disabled": 0, "fusion_lon": 0.0, "bike_id": "6ca7a58e05da962ea18e4c970eebf41e", "lon": -76.92532116666666, "rental_uris": {"ios": "https://dc.lft.to/lastmile_qr_scan", "android": "https://dc.lft.to/lastmile_qr_scan"}}, {"name": "3b68a561f08eced4634ecec697a79a7b", "fusion_lat": 0.0, "type": "electric_scooter", "lat": 38.913262, "is_reserved": 0, "is_disabled": 0, "fusion_lon": 0.0, "bike_id": "3b68a561f08eced4634ecec697a79a7b", "lon": -77.03181116666667, "rental_uris": {"ios": "https://dc.lft.to/lastmile_qr_scan", "android": "https://dc.lft.to/lastmile_qr_scan"}}, {"name": "dcddf74668f184530ad96e07e9483723", "fusion_lat": 0.0, "type": "electric_scooter", "lat": 38.9078005, "is_reserved": 0, "is_disabled": 0, "fusion_lon": 0.0, "bike_id": "dcddf74668f184530ad96e07e9483723", "lon": -77.07250133333334, "rental_uris": {"ios": "https://dc.lft.to/lastmile_qr_scan", "android": "https://dc.lft.to/lastmile_qr_scan"}}, {"name": "8ad980855ef713ed3130dfc9a502d0d9", "fusion_lat": 0.0, "type": "electric_scooter", "lat": 38.906801, "is_reserved": 0, "is_disabled": 0, "fusion_lon": 0.0, "bike_id": "8ad980855ef713ed3130dfc9a502d0d9", "lon": -77.04331733333333, "rental_uris": {"ios": "https://dc.lft.to/lastmile_qr_scan", "android": "https://dc.lft.to/lastmile_qr_scan"}}, {"name": "a57d8f5a00a0de995dcad31d5d603c76", "fusion_lat": 0.0, "type": "electric_bike", "lat": 38.9269525, "is_reserved": 0, "is_disabled": 0, "fusion_lon": 0.0, "bike_id": "a57d8f5a00a0de995dcad31d5d603c76", "lon": -77.00789416666667, "rental_uris": {"ios": "https://dc.lft.to/lastmile_qr_scan", "android": "https://dc.lft.to/lastmile_qr_scan"}}, {"name": "54677d1cb8fe480fe02adf11ae91623e", "fusion_lat": 0.0, "type": "electric_bike", "lat": 38.939564, "is_reserved": 0, "is_disabled": 0, "fusion_lon": 0.0, "bike_id": "54677d1cb8fe480fe02adf11ae91623e", "lon": -77.3609765, "rental_uris": {"ios": "https://dc.lft.to/lastmile_qr_scan", "android": "https://dc.lft.to/lastmile_qr_scan"}}, {"name": "97470834d0d3f2a3e68fa37b084b7ccb", "fusion_lat": 0.0, "type": "electric_scooter", "lat": 38.912361, "is_reserved": 0, "is_disabled": 0, "fusion_lon": 0.0, "bike_id": "97470834d0d3f2a3e68fa37b084b7ccb", "lon": -77.048753, "rental_uris": {"ios": "https://dc.lft.to/lastmile_qr_scan", "android": "https://dc.lft.to/lastmile_qr_scan"}}, {"name": "a117e9af68472715521ffb017981928c", "fusion_lat": 0.0, "type": "electric_scooter", "lat": 38.893599, "is_reserved": 0, "is_disabled": 0, "fusion_lon": 0.0, "bike_id": "a117e9af68472715521ffb017981928c", "lon": -77.00338016666667, "rental_uris": {"ios": "https://dc.lft.to/lastmile_qr_scan", "android": "https://dc.lft.to/lastmile_qr_scan"}}, {"name": "dd48afe113f7a064c8c496db298e167a", "fusion_lat": 0.0, "type": "electric_bike", "lat": 38.87756016666667, "is_reserved": 0, "is_disabled": 0, "fusion_lon": 0.0, "bike_id": "dd48afe113f7a064c8c496db298e167a", "lon": -76.97983, "rental_uris": {"ios": "https://dc.lft.to/lastmile_qr_scan", "android": "https://dc.lft.to/lastmile_qr_scan"}}, {"name": "f014254954fc33b3c4f6ffc73f274b02", "fusion_lat": 0.0, "type": "electric_scooter", "lat": 38.9000575, "is_reserved": 0, "is_disabled": 0, "fusion_lon": 0.0, "bike_id": "f014254954fc33b3c4f6ffc73f274b02", "lon": -77.05333783333333, "rental_uris": {"ios": "https://dc.lft.to/lastmile_qr_scan", "android": "https://dc.lft.to/lastmile_qr_scan"}}, {"name": "3dbde0de4f05f3321c1e358b62c00fe7", "fusion_lat": 0.0, "type": "electric_bike", "lat": 38.84596416666667, "is_reserved": 0, "is_disabled": 0, "fusion_lon": 0.0, "bike_id": "3dbde0de4f05f3321c1e358b62c00fe7", "lon": -76.968765, "rental_uris": {"ios": "https://dc.lft.to/lastmile_qr_scan", "android": "https://dc.lft.to/lastmile_qr_scan"}}, {"name": "34b987d41a52e4e8a76676eca094e69b", "fusion_lat": 0.0, "type": "electric_scooter", "lat": 38.924126333333334, "is_reserved": 0, "is_disabled": 0, "fusion_lon": 0.0, "bike_id": "34b987d41a52e4e8a76676eca094e69b", "lon": -77.051785, "rental_uris": {"ios": "https://dc.lft.to/lastmile_qr_scan", "android": "https://dc.lft.to/lastmile_qr_scan"}}, {"name": "ae0f943a0c540edfc82ffd20ff6e6796", "fusion_lat": 0.0, "type": "electric_scooter", "lat": 38.92651866666667, "is_reserved": 0, "is_disabled": 0, "fusion_lon": 0.0, "bike_id": "ae0f943a0c540edfc82ffd20ff6e6796", "lon": -77.03729633333333, "rental_uris": {"ios": "https://dc.lft.to/lastmile_qr_scan", "android": "https://dc.lft.to/lastmile_qr_scan"}}, {"name": "3ca8b35168d403797aa2b51c3239856b", "fusion_lat": 0.0, "type": "electric_scooter", "lat": 38.90965116666667, "is_reserved": 0, "is_disabled": 0, "fusion_lon": 0.0, "bike_id": "3ca8b35168d403797aa2b51c3239856b", "lon": -77.0342745, "rental_uris": {"ios": "https://dc.lft.to/lastmile_qr_scan", "android": "https://dc.lft.to/lastmile_qr_scan"}}, {"name": "c35477a826e6d9ee3f8412e93d1fa4d2", "fusion_lat": 0.0, "type": "electric_scooter", "lat": 38.920581166666665, "is_reserved": 0, "is_disabled": 0, "fusion_lon": 0.0, "bike_id": "c35477a826e6d9ee3f8412e93d1fa4d2", "lon": -77.03354633333333, "rental_uris": {"ios": "https://dc.lft.to/lastmile_qr_scan", "android": "https://dc.lft.to/lastmile_qr_scan"}}, {"name": "a8b7c13c3d69663e5fa71ab8dc847058", "fusion_lat": 0.0, "type": "electric_scooter", "lat": 38.897619666666664, "is_reserved": 0, "is_disabled": 0, "fusion_lon": 0.0, "bike_id": "a8b7c13c3d69663e5fa71ab8dc847058", "lon": -77.02018933333333, "rental_uris": {"ios": "https://dc.lft.to/lastmile_qr_scan", "android": "https://dc.lft.to/lastmile_qr_scan"}}, {"name": "20d3e5fc40903bc2d60f71c5deeb3bff", "fusion_lat": 0.0, "type": "electric_bike", "lat": 39.0388045, "is_reserved": 0, "is_disabled": 0, "fusion_lon": 0.0, "bike_id": "20d3e5fc40903bc2d60f71c5deeb3bff", "lon": -76.990392, "rental_uris": {"ios": "https://dc.lft.to/lastmile_qr_scan", "android": "https://dc.lft.to/lastmile_qr_scan"}}, {"name": "cf5cb5417cb6bbae135624559c18fec4", "fusion_lat": 0.0, "type": "electric_scooter", "lat": 38.9161225, "is_reserved": 0, "is_disabled": 0, "fusion_lon": 0.0, "bike_id": "cf5cb5417cb6bbae135624559c18fec4", "lon": -77.03213233333334, "rental_uris": {"ios": "https://dc.lft.to/lastmile_qr_scan", "android": "https://dc.lft.to/lastmile_qr_scan"}}, {"name": "964b476ce9948028e1db34fbf0795eb9", "fusion_lat": 0.0, "type": "electric_scooter", "lat": 38.89758466666667, "is_reserved": 0, "is_disabled": 0, "fusion_lon": 0.0, "bike_id": "964b476ce9948028e1db34fbf0795eb9", "lon": -77.031374, "rental_uris": {"ios": "https://dc.lft.to/lastmile_qr_scan", "android": "https://dc.lft.to/lastmile_qr_scan"}}, {"name": "ac15066e8cae6bd97af61825d2dd8abb", "fusion_lat": 0.0, "type": "electric_scooter", "lat": 38.944011333333336, "is_reserved": 0, "is_disabled": 0, "fusion_lon": 0.0, "bike_id": "ac15066e8cae6bd97af61825d2dd8abb", "lon": -77.06324866666667, "rental_uris": {"ios": "https://dc.lft.to/lastmile_qr_scan", "android": "https://dc.lft.to/lastmile_qr_scan"}}, {"name": "755ef4a0ef5342dce6fbe8a49950364d", "fusion_lat": 0.0, "type": "electric_scooter", "lat": 38.9042185, "is_reserved": 0, "is_disabled": 0, "fusion_lon": 0.0, "bike_id": "755ef4a0ef5342dce6fbe8a49950364d", "lon": -77.03433333333334, "rental_uris": {"ios": "https://dc.lft.to/lastmile_qr_scan", "android": "https://dc.lft.to/lastmile_qr_scan"}}, {"name": "a708eb79904e081a3a50dc3dbae91ae1", "fusion_lat": 0.0, "type": "electric_scooter", "lat": 38.936452333333335, "is_reserved": 0, "is_disabled": 0, "fusion_lon": 0.0, "bike_id": "a708eb79904e081a3a50dc3dbae91ae1", "lon": -77.0345925, "rental_uris": {"ios": "https://dc.lft.to/lastmile_qr_scan", "android": "https://dc.lft.to/lastmile_qr_scan"}}, {"name": "a41ca6c44ae54d921abc11721e458650", "fusion_lat": 0.0, "type": "electric_scooter", "lat": 38.89894966666667, "is_reserved": 0, "is_disabled": 0, "fusion_lon": 0.0, "bike_id": "a41ca6c44ae54d921abc11721e458650", "lon": -77.00362083333333, "rental_uris": {"ios": "https://dc.lft.to/lastmile_qr_scan", "android": "https://dc.lft.to/lastmile_qr_scan"}}, {"name": "55f4d97b4d9178ae8355e70345606d11", "fusion_lat": 0.0, "type": "electric_bike", "lat": 38.9327235, "is_reserved": 0, "is_disabled": 0, "fusion_lon": 0.0, "bike_id": "55f4d97b4d9178ae8355e70345606d11", "lon": -76.99502866666667, "rental_uris": {"ios": "https://dc.lft.to/lastmile_qr_scan", "android": "https://dc.lft.to/lastmile_qr_scan"}}, {"name": "f1af47db352d3d1c1026524bde66c7a6", "fusion_lat": 0.0, "type": "electric_scooter", "lat": 38.975069166666664, "is_reserved": 0, "is_disabled": 0, "fusion_lon": 0.0, "bike_id": "f1af47db352d3d1c1026524bde66c7a6", "lon": -77.0172195, "rental_uris": {"ios": "https://dc.lft.to/lastmile_qr_scan", "android": "https://dc.lft.to/lastmile_qr_scan"}}, {"name": "935b440d2d1bf7e77186e9cfb2f4f314", "fusion_lat": 0.0, "type": "electric_scooter", "lat": 38.93197516666667, "is_reserved": 0, "is_disabled": 0, "fusion_lon": 0.0, "bike_id": "935b440d2d1bf7e77186e9cfb2f4f314", "lon": -77.02767566666667, "rental_uris": {"ios": "https://dc.lft.to/lastmile_qr_scan", "android": "https://dc.lft.to/lastmile_qr_scan"}}, {"name": "f5c52d83f2aef191663e738a4b558d26", "fusion_lat": 0.0, "type": "electric_scooter", "lat": 38.88619683333334, "is_reserved": 0, "is_disabled": 0, "fusion_lon": 0.0, "bike_id": "f5c52d83f2aef191663e738a4b558d26", "lon": -76.97818483333333, "rental_uris": {"ios": "https://dc.lft.to/lastmile_qr_scan", "android": "https://dc.lft.to/lastmile_qr_scan"}}, {"name": "8c959fe640bf90e65b7c81b664b866e4", "fusion_lat": 0.0, "type": "electric_scooter", "lat": 38.9126255, "is_reserved": 0, "is_disabled": 0, "fusion_lon": 0.0, "bike_id": "8c959fe640bf90e65b7c81b664b866e4", "lon": -77.03590333333334, "rental_uris": {"ios": "https://dc.lft.to/lastmile_qr_scan", "android": "https://dc.lft.to/lastmile_qr_scan"}}, {"name": "828b1ef909705bc771b7f4a68973c567", "fusion_lat": 0.0, "type": "electric_scooter", "lat": 38.904185, "is_reserved": 0, "is_disabled": 0, "fusion_lon": 0.0, "bike_id": "828b1ef909705bc771b7f4a68973c567", "lon": -77.01740566666666, "rental_uris": {"ios": "https://dc.lft.to/lastmile_qr_scan", "android": "https://dc.lft.to/lastmile_qr_scan"}}, {"name": "566afaef36be59658b0cd38331266453", "fusion_lat": 0.0, "type": "electric_bike", "lat": 38.88640766666666, "is_reserved": 0, "is_disabled": 0, "fusion_lon": 0.0, "bike_id": "566afaef36be59658b0cd38331266453", "lon": -76.9546555, "rental_uris": {"ios": "https://dc.lft.to/lastmile_qr_scan", "android": "https://dc.lft.to/lastmile_qr_scan"}}, {"name": "6f6d64772470b8fbcb73b301044d3d68", "fusion_lat": 0.0, "type": "electric_scooter", "lat": 38.8947455, "is_reserved": 0, "is_disabled": 0, "fusion_lon": 0.0, "bike_id": "6f6d64772470b8fbcb73b301044d3d68", "lon": -77.02258566666667, "rental_uris": {"ios": "https://dc.lft.to/lastmile_qr_scan", "android": "https://dc.lft.to/lastmile_qr_scan"}}, {"name": "dfca5f070eafa44466d800092d044c38", "fusion_lat": 0.0, "type": "electric_scooter", "lat": 38.89527366666667, "is_reserved": 0, "is_disabled": 0, "fusion_lon": 0.0, "bike_id": "dfca5f070eafa44466d800092d044c38", "lon": -77.00340683333333, "rental_uris": {"ios": "https://dc.lft.to/lastmile_qr_scan", "android": "https://dc.lft.to/lastmile_qr_scan"}}, {"name": "896d9c1fbce1c37cfa57872ed5a7ac6f", "fusion_lat": 0.0, "type": "electric_scooter", "lat": 38.925671333333334, "is_reserved": 0, "is_disabled": 0, "fusion_lon": 0.0, "bike_id": "896d9c1fbce1c37cfa57872ed5a7ac6f", "lon": -77.02962416666666, "rental_uris": {"ios": "https://dc.lft.to/lastmile_qr_scan", "android": "https://dc.lft.to/lastmile_qr_scan"}}, {"name": "168cb7651ef2eed1df8de8267e800c02", "fusion_lat": 0.0, "type": "electric_scooter", "lat": 38.887413333333335, "is_reserved": 0, "is_disabled": 0, "fusion_lon": 0.0, "bike_id": "168cb7651ef2eed1df8de8267e800c02", "lon": -77.0153225, "rental_uris": {"ios": "https://dc.lft.to/lastmile_qr_scan", "android": "https://dc.lft.to/lastmile_qr_scan"}}, {"name": "f04dbf79c9f6c5359af5606a794eccaf", "fusion_lat": 0.0, "type": "electric_bike", "lat": 38.898378666666666, "is_reserved": 0, "is_disabled": 0, "fusion_lon": 0.0, "bike_id": "f04dbf79c9f6c5359af5606a794eccaf", "lon": -77.11798116666667, "rental_uris": {"ios": "https://dc.lft.to/lastmile_qr_scan", "android": "https://dc.lft.to/lastmile_qr_scan"}}, {"name": "8c63cd0a521c48c0c1f6c755b8849d2c", "fusion_lat": 0.0, "type": "electric_scooter", "lat": 38.91850083333333, "is_reserved": 0, "is_disabled": 0, "fusion_lon": 0.0, "bike_id": "8c63cd0a521c48c0c1f6c755b8849d2c", "lon": -77.00174966666667, "rental_uris": {"ios": "https://dc.lft.to/lastmile_qr_scan", "android": "https://dc.lft.to/lastmile_qr_scan"}}, {"name": "f0227e91804bac21cfe0cb2dc5b6225c", "fusion_lat": 0.0, "type": "electric_scooter", "lat": 38.905388333333335, "is_reserved": 0, "is_disabled": 0, "fusion_lon": 0.0, "bike_id": "f0227e91804bac21cfe0cb2dc5b6225c", "lon": -77.0627815, "rental_uris": {"ios": "https://dc.lft.to/lastmile_qr_scan", "android": "https://dc.lft.to/lastmile_qr_scan"}}, {"name": "1034322c20d910e36edeb2c3466ebf02", "fusion_lat": 0.0, "type": "electric_scooter", "lat": 38.935530166666666, "is_reserved": 0, "is_disabled": 0, "fusion_lon": 0.0, "bike_id": "1034322c20d910e36edeb2c3466ebf02", "lon": -77.05982216666666, "rental_uris": {"ios": "https://dc.lft.to/lastmile_qr_scan", "android": "https://dc.lft.to/lastmile_qr_scan"}}, {"name": "41f09af3e46ec63efbb4e22be29c29f7", "fusion_lat": 0.0, "type": "electric_scooter", "lat": 38.9121455, "is_reserved": 0, "is_disabled": 0, "fusion_lon": 0.0, "bike_id": "41f09af3e46ec63efbb4e22be29c29f7", "lon": -77.075918, "rental_uris": {"ios": "https://dc.lft.to/lastmile_qr_scan", "android": "https://dc.lft.to/lastmile_qr_scan"}}, {"name": "f68b1e13c92faa7be6ad65deb5298738", "fusion_lat": 0.0, "type": "electric_bike", "lat": 38.920092833333335, "is_reserved": 0, "is_disabled": 0, "fusion_lon": 0.0, "bike_id": "f68b1e13c92faa7be6ad65deb5298738", "lon": -76.97490116666667, "rental_uris": {"ios": "https://dc.lft.to/lastmile_qr_scan", "android": "https://dc.lft.to/lastmile_qr_scan"}}, {"name": "33f5cd1abab4a1992354d24bce22b5e0", "fusion_lat": 0.0, "type": "electric_scooter", "lat": 38.89590666666667, "is_reserved": 0, "is_disabled": 0, "fusion_lon": 0.0, "bike_id": "33f5cd1abab4a1992354d24bce22b5e0", "lon": -76.93720216666667, "rental_uris": {"ios": "https://dc.lft.to/lastmile_qr_scan", "android": "https://dc.lft.to/lastmile_qr_scan"}}, {"name": "574a051c3ff73d6d5a53127e5d364139", "fusion_lat": 0.0, "type": "electric_scooter", "lat": 38.8849635, "is_reserved": 0, "is_disabled": 0, "fusion_lon": 0.0, "bike_id": "574a051c3ff73d6d5a53127e5d364139", "lon": -77.02200483333333, "rental_uris": {"ios": "https://dc.lft.to/lastmile_qr_scan", "android": "https://dc.lft.to/lastmile_qr_scan"}}, {"name": "f7a98bec6cfa4b975b9b32e6a1ac0052", "fusion_lat": 0.0, "type": "electric_scooter", "lat": 38.906748, "is_reserved": 0, "is_disabled": 0, "fusion_lon": 0.0, "bike_id": "f7a98bec6cfa4b975b9b32e6a1ac0052", "lon": -77.020707, "rental_uris": {"ios": "https://dc.lft.to/lastmile_qr_scan", "android": "https://dc.lft.to/lastmile_qr_scan"}}, {"name": "7ddc8ab02f09678558e5320a25eaabd8", "fusion_lat": 0.0, "type": "electric_scooter", "lat": 38.88169216666667, "is_reserved": 0, "is_disabled": 0, "fusion_lon": 0.0, "bike_id": "7ddc8ab02f09678558e5320a25eaabd8", "lon": -77.02829516666667, "rental_uris": {"ios": "https://dc.lft.to/lastmile_qr_scan", "android": "https://dc.lft.to/lastmile_qr_scan"}}, {"name": "ab0859fd805fb807c7dc2b41dd994b3b", "fusion_lat": 0.0, "type": "electric_bike", "lat": 38.92735833333333, "is_reserved": 0, "is_disabled": 0, "fusion_lon": 0.0, "bike_id": "ab0859fd805fb807c7dc2b41dd994b3b", "lon": -77.01350616666667, "rental_uris": {"ios": "https://dc.lft.to/lastmile_qr_scan", "android": "https://dc.lft.to/lastmile_qr_scan"}}, {"name": "0eb2163dda41728918e29f88ac42183a", "fusion_lat": 0.0, "type": "electric_scooter", "lat": 38.89194616666666, "is_reserved": 0, "is_disabled": 0, "fusion_lon": 0.0, "bike_id": "0eb2163dda41728918e29f88ac42183a", "lon": -77.00338633333334, "rental_uris": {"ios": "https://dc.lft.to/lastmile_qr_scan", "android": "https://dc.lft.to/lastmile_qr_scan"}}, {"name": "68f9b6e4440048fa80f20c3deae50d39", "fusion_lat": 0.0, "type": "electric_scooter", "lat": 38.90386633333333, "is_reserved": 0, "is_disabled": 0, "fusion_lon": 0.0, "bike_id": "68f9b6e4440048fa80f20c3deae50d39", "lon": -77.03942066666667, "rental_uris": {"ios": "https://dc.lft.to/lastmile_qr_scan", "android": "https://dc.lft.to/lastmile_qr_scan"}}, {"name": "c88fcaa4497e79681b986cee814d9601", "fusion_lat": 0.0, "type": "electric_scooter", "lat": 38.912708333333335, "is_reserved": 0, "is_disabled": 0, "fusion_lon": 0.0, "bike_id": "c88fcaa4497e79681b986cee814d9601", "lon": -77.060866, "rental_uris": {"ios": "https://dc.lft.to/lastmile_qr_scan", "android": "https://dc.lft.to/lastmile_qr_scan"}}, {"name": "bcbccbd85925eb946b374793d0f0dcb4", "fusion_lat": 0.0, "type": "electric_scooter", "lat": 38.903951666666664, "is_reserved": 0, "is_disabled": 0, "fusion_lon": 0.0, "bike_id": "bcbccbd85925eb946b374793d0f0dcb4", "lon": -77.038653, "rental_uris": {"ios": "https://dc.lft.to/lastmile_qr_scan", "android": "https://dc.lft.to/lastmile_qr_scan"}}, {"name": "7112f1c3e3b50d2340c0272eefa7968e", "fusion_lat": 0.0, "type": "electric_scooter", "lat": 38.906491, "is_reserved": 0, "is_disabled": 0, "fusion_lon": 0.0, "bike_id": "7112f1c3e3b50d2340c0272eefa7968e", "lon": -77.00600466666667, "rental_uris": {"ios": "https://dc.lft.to/lastmile_qr_scan", "android": "https://dc.lft.to/lastmile_qr_scan"}}, {"name": "09769bd45e6f25beb1d570f539595d8d", "fusion_lat": 0.0, "type": "electric_scooter", "lat": 38.91420433333333, "is_reserved": 0, "is_disabled": 0, "fusion_lon": 0.0, "bike_id": "09769bd45e6f25beb1d570f539595d8d", "lon": -77.00891666666666, "rental_uris": {"ios": "https://dc.lft.to/lastmile_qr_scan", "android": "https://dc.lft.to/lastmile_qr_scan"}}, {"name": "d745ae4c6a37e0198138ad6e70f581af", "fusion_lat": 0.0, "type": "electric_scooter", "lat": 38.897992333333335, "is_reserved": 0, "is_disabled": 0, "fusion_lon": 0.0, "bike_id": "d745ae4c6a37e0198138ad6e70f581af", "lon": -77.02800833333333, "rental_uris": {"ios": "https://dc.lft.to/lastmile_qr_scan", "android": "https://dc.lft.to/lastmile_qr_scan"}}, {"name": "98c493dc86fd4a6a4d16d363dded1859", "fusion_lat": 0.0, "type": "electric_scooter", "lat": 38.91635083333333, "is_reserved": 0, "is_disabled": 0, "fusion_lon": 0.0, "bike_id": "98c493dc86fd4a6a4d16d363dded1859", "lon": -77.01087266666667, "rental_uris": {"ios": "https://dc.lft.to/lastmile_qr_scan", "android": "https://dc.lft.to/lastmile_qr_scan"}}, {"name": "5a544402a7c140ba70baec9f9bc887e2", "fusion_lat": 0.0, "type": "electric_scooter", "lat": 38.88069183333333, "is_reserved": 0, "is_disabled": 0, "fusion_lon": 0.0, "bike_id": "5a544402a7c140ba70baec9f9bc887e2", "lon": -76.93531583333333, "rental_uris": {"ios": "https://dc.lft.to/lastmile_qr_scan", "android": "https://dc.lft.to/lastmile_qr_scan"}}, {"name": "2f1350c5d8a9cad9a8600e4c6db5190d", "fusion_lat": 0.0, "type": "electric_scooter", "lat": 38.8923115, "is_reserved": 0, "is_disabled": 0, "fusion_lon": 0.0, "bike_id": "2f1350c5d8a9cad9a8600e4c6db5190d", "lon": -77.02826116666667, "rental_uris": {"ios": "https://dc.lft.to/lastmile_qr_scan", "android": "https://dc.lft.to/lastmile_qr_scan"}}, {"name": "8e63fa2c8cbde44f76372e8f31492e36", "fusion_lat": 0.0, "type": "electric_scooter", "lat": 38.90747983333333, "is_reserved": 0, "is_disabled": 0, "fusion_lon": 0.0, "bike_id": "8e63fa2c8cbde44f76372e8f31492e36", "lon": -77.00139566666667, "rental_uris": {"ios": "https://dc.lft.to/lastmile_qr_scan", "android": "https://dc.lft.to/lastmile_qr_scan"}}, {"name": "ea60bd4b596fabddc51e4dc124540e09", "fusion_lat": 0.0, "type": "electric_scooter", "lat": 38.89891316666667, "is_reserved": 0, "is_disabled": 0, "fusion_lon": 0.0, "bike_id": "ea60bd4b596fabddc51e4dc124540e09", "lon": -77.03283533333334, "rental_uris": {"ios": "https://dc.lft.to/lastmile_qr_scan", "android": "https://dc.lft.to/lastmile_qr_scan"}}, {"name": "4af34a030ba14af6c89165a2973a28e7", "fusion_lat": 0.0, "type": "electric_scooter", "lat": 38.91157116666667, "is_reserved": 0, "is_disabled": 0, "fusion_lon": 0.0, "bike_id": "4af34a030ba14af6c89165a2973a28e7", "lon": -77.03211616666667, "rental_uris": {"ios": "https://dc.lft.to/lastmile_qr_scan", "android": "https://dc.lft.to/lastmile_qr_scan"}}, {"name": "80d73b0bb73b436e04384937d421212d", "fusion_lat": 0.0, "type": "electric_scooter", "lat": 38.90039933333333, "is_reserved": 0, "is_disabled": 0, "fusion_lon": 0.0, "bike_id": "80d73b0bb73b436e04384937d421212d", "lon": -77.04688966666667, "rental_uris": {"ios": "https://dc.lft.to/lastmile_qr_scan", "android": "https://dc.lft.to/lastmile_qr_scan"}}, {"name": "9ce4eb646aae561b1e15540b92f5209b", "fusion_lat": 0.0, "type": "electric_scooter", "lat": 38.92254483333333, "is_reserved": 0, "is_disabled": 0, "fusion_lon": 0.0, "bike_id": "9ce4eb646aae561b1e15540b92f5209b", "lon": -77.04138533333334, "rental_uris": {"ios": "https://dc.lft.to/lastmile_qr_scan", "android": "https://dc.lft.to/lastmile_qr_scan"}}, {"name": "c7ed6e6f4f164ca033062b2a0c5b6a28", "fusion_lat": 0.0, "type": "electric_scooter", "lat": 38.90039066666667, "is_reserved": 0, "is_disabled": 0, "fusion_lon": 0.0, "bike_id": "c7ed6e6f4f164ca033062b2a0c5b6a28", "lon": -76.996525, "rental_uris": {"ios": "https://dc.lft.to/lastmile_qr_scan", "android": "https://dc.lft.to/lastmile_qr_scan"}}, {"name": "a8582d745cc7550cca546124c938f901", "fusion_lat": 0.0, "type": "electric_scooter", "lat": 38.89801533333333, "is_reserved": 0, "is_disabled": 0, "fusion_lon": 0.0, "bike_id": "a8582d745cc7550cca546124c938f901", "lon": -76.9916185, "rental_uris": {"ios": "https://dc.lft.to/lastmile_qr_scan", "android": "https://dc.lft.to/lastmile_qr_scan"}}, {"name": "8818936c13af60fd01775e3d2fe07f3c", "fusion_lat": 0.0, "type": "electric_scooter", "lat": 38.9119605, "is_reserved": 0, "is_disabled": 0, "fusion_lon": 0.0, "bike_id": "8818936c13af60fd01775e3d2fe07f3c", "lon": -77.03848083333334, "rental_uris": {"ios": "https://dc.lft.to/lastmile_qr_scan", "android": "https://dc.lft.to/lastmile_qr_scan"}}, {"name": "f93e6488815c33b2ddde7d4df831608b", "fusion_lat": 0.0, "type": "electric_scooter", "lat": 38.911281, "is_reserved": 0, "is_disabled": 0, "fusion_lon": 0.0, "bike_id": "f93e6488815c33b2ddde7d4df831608b", "lon": -77.022003, "rental_uris": {"ios": "https://dc.lft.to/lastmile_qr_scan", "android": "https://dc.lft.to/lastmile_qr_scan"}}, {"name": "ef73041f910a48081cf3ad7f071784e8", "fusion_lat": 0.0, "type": "electric_scooter", "lat": 38.8786615, "is_reserved": 0, "is_disabled": 0, "fusion_lon": 0.0, "bike_id": "ef73041f910a48081cf3ad7f071784e8", "lon": -76.96521316666667, "rental_uris": {"ios": "https://dc.lft.to/lastmile_qr_scan", "android": "https://dc.lft.to/lastmile_qr_scan"}}, {"name": "c8ff629b6177de1f9c62cbff34822fd3", "fusion_lat": 0.0, "type": "electric_scooter", "lat": 38.918069, "is_reserved": 0, "is_disabled": 0, "fusion_lon": 0.0, "bike_id": "c8ff629b6177de1f9c62cbff34822fd3", "lon": -77.02492433333333, "rental_uris": {"ios": "https://dc.lft.to/lastmile_qr_scan", "android": "https://dc.lft.to/lastmile_qr_scan"}}, {"name": "9b3252e9a783ed5b336d6a05a27fa282", "fusion_lat": 0.0, "type": "electric_scooter", "lat": 38.903415333333335, "is_reserved": 0, "is_disabled": 0, "fusion_lon": 0.0, "bike_id": "9b3252e9a783ed5b336d6a05a27fa282", "lon": -77.05440133333333, "rental_uris": {"ios": "https://dc.lft.to/lastmile_qr_scan", "android": "https://dc.lft.to/lastmile_qr_scan"}}, {"name": "80f686aa1f0cde0f8a180a257667f6c2", "fusion_lat": 0.0, "type": "electric_scooter", "lat": 38.895178333333334, "is_reserved": 0, "is_disabled": 0, "fusion_lon": 0.0, "bike_id": "80f686aa1f0cde0f8a180a257667f6c2", "lon": -76.99210683333334, "rental_uris": {"ios": "https://dc.lft.to/lastmile_qr_scan", "android": "https://dc.lft.to/lastmile_qr_scan"}}, {"name": "96df5fd36eef62c80652fd4bbe59765f", "fusion_lat": 0.0, "type": "electric_scooter", "lat": 38.90325283333333, "is_reserved": 0, "is_disabled": 0, "fusion_lon": 0.0, "bike_id": "96df5fd36eef62c80652fd4bbe59765f", "lon": -77.03645383333334, "rental_uris": {"ios": "https://dc.lft.to/lastmile_qr_scan", "android": "https://dc.lft.to/lastmile_qr_scan"}}, {"name": "30009d213687630ede7c3fcc26a3da24", "fusion_lat": 0.0, "type": "electric_scooter", "lat": 38.93124483333333, "is_reserved": 0, "is_disabled": 0, "fusion_lon": 0.0, "bike_id": "30009d213687630ede7c3fcc26a3da24", "lon": -77.03601833333333, "rental_uris": {"ios": "https://dc.lft.to/lastmile_qr_scan", "android": "https://dc.lft.to/lastmile_qr_scan"}}, {"name": "7b623cd341a7c5fef2eca1bb9ca21b1e", "fusion_lat": 0.0, "type": "electric_scooter", "lat": 38.866573333333335, "is_reserved": 0, "is_disabled": 0, "fusion_lon": 0.0, "bike_id": "7b623cd341a7c5fef2eca1bb9ca21b1e", "lon": -76.98884066666666, "rental_uris": {"ios": "https://dc.lft.to/lastmile_qr_scan", "android": "https://dc.lft.to/lastmile_qr_scan"}}, {"name": "f78f5bebdff8b90623db500a08cb1bdd", "fusion_lat": 0.0, "type": "electric_bike", "lat": 38.907910666666666, "is_reserved": 0, "is_disabled": 0, "fusion_lon": 0.0, "bike_id": "f78f5bebdff8b90623db500a08cb1bdd", "lon": -76.9970225, "rental_uris": {"ios": "https://dc.lft.to/lastmile_qr_scan", "android": "https://dc.lft.to/lastmile_qr_scan"}}, {"name": "ca336d5f6d72026419e77e93aaed1129", "fusion_lat": 0.0, "type": "electric_scooter", "lat": 38.902402, "is_reserved": 0, "is_disabled": 0, "fusion_lon": 0.0, "bike_id": "ca336d5f6d72026419e77e93aaed1129", "lon": -77.01501766666667, "rental_uris": {"ios": "https://dc.lft.to/lastmile_qr_scan", "android": "https://dc.lft.to/lastmile_qr_scan"}}, {"name": "d1f1808215798ef9da0da430f8440b5d", "fusion_lat": 0.0, "type": "electric_scooter", "lat": 38.897181833333335, "is_reserved": 0, "is_disabled": 0, "fusion_lon": 0.0, "bike_id": "d1f1808215798ef9da0da430f8440b5d", "lon": -77.0079555, "rental_uris": {"ios": "https://dc.lft.to/lastmile_qr_scan", "android": "https://dc.lft.to/lastmile_qr_scan"}}, {"name": "aa343492fec6b7f84c05edac9355e15e", "fusion_lat": 0.0, "type": "electric_bike", "lat": 38.856201, "is_reserved": 0, "is_disabled": 0, "fusion_lon": 0.0, "bike_id": "aa343492fec6b7f84c05edac9355e15e", "lon": -77.0854425, "rental_uris": {"ios": "https://dc.lft.to/lastmile_qr_scan", "android": "https://dc.lft.to/lastmile_qr_scan"}}, {"name": "271567f2c144d9a3b830b04925789fdc", "fusion_lat": 0.0, "type": "electric_scooter", "lat": 38.912594666666664, "is_reserved": 0, "is_disabled": 0, "fusion_lon": 0.0, "bike_id": "271567f2c144d9a3b830b04925789fdc", "lon": -77.0386675, "rental_uris": {"ios": "https://dc.lft.to/lastmile_qr_scan", "android": "https://dc.lft.to/lastmile_qr_scan"}}, {"name": "a0607243c758b5da9d3475fc79bd62c9", "fusion_lat": 0.0, "type": "electric_scooter", "lat": 38.91429516666667, "is_reserved": 0, "is_disabled": 0, "fusion_lon": 0.0, "bike_id": "a0607243c758b5da9d3475fc79bd62c9", "lon": -77.0449795, "rental_uris": {"ios": "https://dc.lft.to/lastmile_qr_scan", "android": "https://dc.lft.to/lastmile_qr_scan"}}, {"name": "aade9d9781145c1e39d90ffd02d4873c", "fusion_lat": 0.0, "type": "electric_scooter", "lat": 38.93081083333333, "is_reserved": 0, "is_disabled": 0, "fusion_lon": 0.0, "bike_id": "aade9d9781145c1e39d90ffd02d4873c", "lon": -77.0279415, "rental_uris": {"ios": "https://dc.lft.to/lastmile_qr_scan", "android": "https://dc.lft.to/lastmile_qr_scan"}}, {"name": "0994586a02d220daaf3d00b288d5cf31", "fusion_lat": 0.0, "type": "electric_scooter", "lat": 38.9090455, "is_reserved": 0, "is_disabled": 0, "fusion_lon": 0.0, "bike_id": "0994586a02d220daaf3d00b288d5cf31", "lon": -77.04215183333334, "rental_uris": {"ios": "https://dc.lft.to/lastmile_qr_scan", "android": "https://dc.lft.to/lastmile_qr_scan"}}, {"name": "6fb632b05dd58ee5d7dac3aed7a74564", "fusion_lat": 0.0, "type": "electric_scooter", "lat": 38.9003555, "is_reserved": 0, "is_disabled": 0, "fusion_lon": 0.0, "bike_id": "6fb632b05dd58ee5d7dac3aed7a74564", "lon": -77.00203383333333, "rental_uris": {"ios": "https://dc.lft.to/lastmile_qr_scan", "android": "https://dc.lft.to/lastmile_qr_scan"}}, {"name": "8eef48a7219ff6a7e38595a69e08cc91", "fusion_lat": 0.0, "type": "electric_scooter", "lat": 38.90965766666667, "is_reserved": 0, "is_disabled": 0, "fusion_lon": 0.0, "bike_id": "8eef48a7219ff6a7e38595a69e08cc91", "lon": -77.01140783333334, "rental_uris": {"ios": "https://dc.lft.to/lastmile_qr_scan", "android": "https://dc.lft.to/lastmile_qr_scan"}}, {"name": "49c00ae5377297893ebaf4e807a1c46b", "fusion_lat": 0.0, "type": "electric_scooter", "lat": 38.923315833333334, "is_reserved": 0, "is_disabled": 0, "fusion_lon": 0.0, "bike_id": "49c00ae5377297893ebaf4e807a1c46b", "lon": -77.0361955, "rental_uris": {"ios": "https://dc.lft.to/lastmile_qr_scan", "android": "https://dc.lft.to/lastmile_qr_scan"}}, {"name": "1cdef8650f318cc72853d47ccef33433", "fusion_lat": 0.0, "type": "electric_scooter", "lat": 38.89608466666667, "is_reserved": 0, "is_disabled": 0, "fusion_lon": 0.0, "bike_id": "1cdef8650f318cc72853d47ccef33433", "lon": -77.05433616666667, "rental_uris": {"ios": "https://dc.lft.to/lastmile_qr_scan", "android": "https://dc.lft.to/lastmile_qr_scan"}}, {"name": "d9ed30c39b745b88c14770f9c23cc665", "fusion_lat": 0.0, "type": "electric_bike", "lat": 38.862891, "is_reserved": 0, "is_disabled": 0, "fusion_lon": 0.0, "bike_id": "d9ed30c39b745b88c14770f9c23cc665", "lon": -76.98001083333334, "rental_uris": {"ios": "https://dc.lft.to/lastmile_qr_scan", "android": "https://dc.lft.to/lastmile_qr_scan"}}, {"name": "9c3ec4e44016c4145f78753803f5eb6a", "fusion_lat": 0.0, "type": "electric_scooter", "lat": 38.91560783333333, "is_reserved": 0, "is_disabled": 0, "fusion_lon": 0.0, "bike_id": "9c3ec4e44016c4145f78753803f5eb6a", "lon": -77.014145, "rental_uris": {"ios": "https://dc.lft.to/lastmile_qr_scan", "android": "https://dc.lft.to/lastmile_qr_scan"}}, {"name": "686b5034f67133e98366d61d49cf9b10", "fusion_lat": 0.0, "type": "electric_bike", "lat": 38.897680333333334, "is_reserved": 0, "is_disabled": 0, "fusion_lon": 0.0, "bike_id": "686b5034f67133e98366d61d49cf9b10", "lon": -77.03163066666667, "rental_uris": {"ios": "https://dc.lft.to/lastmile_qr_scan", "android": "https://dc.lft.to/lastmile_qr_scan"}}, {"name": "76a9c15b890f7b2ffc16617366090b83", "fusion_lat": 0.0, "type": "electric_scooter", "lat": 38.921485833333335, "is_reserved": 0, "is_disabled": 0, "fusion_lon": 0.0, "bike_id": "76a9c15b890f7b2ffc16617366090b83", "lon": -77.03871416666667, "rental_uris": {"ios": "https://dc.lft.to/lastmile_qr_scan", "android": "https://dc.lft.to/lastmile_qr_scan"}}, {"name": "1cbae46f0908116834abb1eb5bea9348", "fusion_lat": 0.0, "type": "electric_scooter", "lat": 38.93700066666667, "is_reserved": 0, "is_disabled": 0, "fusion_lon": 0.0, "bike_id": "1cbae46f0908116834abb1eb5bea9348", "lon": -77.0239745, "rental_uris": {"ios": "https://dc.lft.to/lastmile_qr_scan", "android": "https://dc.lft.to/lastmile_qr_scan"}}, {"name": "04595b3334c2a06def79d5c24c1ecaa2", "fusion_lat": 0.0, "type": "electric_scooter", "lat": 38.916461, "is_reserved": 0, "is_disabled": 0, "fusion_lon": 0.0, "bike_id": "04595b3334c2a06def79d5c24c1ecaa2", "lon": -77.0159015, "rental_uris": {"ios": "https://dc.lft.to/lastmile_qr_scan", "android": "https://dc.lft.to/lastmile_qr_scan"}}, {"name": "fd45e3d0f6e49ffd0ba09dd36e51392b", "fusion_lat": 0.0, "type": "electric_scooter", "lat": 38.900566833333336, "is_reserved": 0, "is_disabled": 0, "fusion_lon": 0.0, "bike_id": "fd45e3d0f6e49ffd0ba09dd36e51392b", "lon": -77.00745783333333, "rental_uris": {"ios": "https://dc.lft.to/lastmile_qr_scan", "android": "https://dc.lft.to/lastmile_qr_scan"}}, {"name": "f3c606ef80555d6373506dbcbe823dd8", "fusion_lat": 0.0, "type": "electric_scooter", "lat": 38.907179666666664, "is_reserved": 0, "is_disabled": 0, "fusion_lon": 0.0, "bike_id": "f3c606ef80555d6373506dbcbe823dd8", "lon": -77.04493066666667, "rental_uris": {"ios": "https://dc.lft.to/lastmile_qr_scan", "android": "https://dc.lft.to/lastmile_qr_scan"}}, {"name": "8e98539a30f027976580ab83cc5a846d", "fusion_lat": 0.0, "type": "electric_scooter", "lat": 38.876691, "is_reserved": 0, "is_disabled": 0, "fusion_lon": 0.0, "bike_id": "8e98539a30f027976580ab83cc5a846d", "lon": -77.00438683333333, "rental_uris": {"ios": "https://dc.lft.to/lastmile_qr_scan", "android": "https://dc.lft.to/lastmile_qr_scan"}}, {"name": "250b0274fab84f1c7a3db11999c17b64", "fusion_lat": 0.0, "type": "electric_scooter", "lat": 38.86509516666667, "is_reserved": 0, "is_disabled": 0, "fusion_lon": 0.0, "bike_id": "250b0274fab84f1c7a3db11999c17b64", "lon": -76.99010166666666, "rental_uris": {"ios": "https://dc.lft.to/lastmile_qr_scan", "android": "https://dc.lft.to/lastmile_qr_scan"}}, {"name": "f242ccfe57f667732ef9d02abcf74313", "fusion_lat": 0.0, "type": "electric_scooter", "lat": 38.93100833333333, "is_reserved": 0, "is_disabled": 0, "fusion_lon": 0.0, "bike_id": "f242ccfe57f667732ef9d02abcf74313", "lon": -77.02473883333333, "rental_uris": {"ios": "https://dc.lft.to/lastmile_qr_scan", "android": "https://dc.lft.to/lastmile_qr_scan"}}, {"name": "75e1b3016fb88c6d17279b8ecfad2a53", "fusion_lat": 0.0, "type": "electric_scooter", "lat": 38.902672833333334, "is_reserved": 0, "is_disabled": 0, "fusion_lon": 0.0, "bike_id": "75e1b3016fb88c6d17279b8ecfad2a53", "lon": -77.00923333333333, "rental_uris": {"ios": "https://dc.lft.to/lastmile_qr_scan", "android": "https://dc.lft.to/lastmile_qr_scan"}}, {"name": "a42ebd8583b9219a16eb641874664ab9", "fusion_lat": 0.0, "type": "electric_scooter", "lat": 38.911275333333336, "is_reserved": 0, "is_disabled": 0, "fusion_lon": 0.0, "bike_id": "a42ebd8583b9219a16eb641874664ab9", "lon": -77.02201, "rental_uris": {"ios": "https://dc.lft.to/lastmile_qr_scan", "android": "https://dc.lft.to/lastmile_qr_scan"}}, {"name": "683f0ce357157ab4c818b65c141738e7", "fusion_lat": 0.0, "type": "electric_scooter", "lat": 38.90210316666667, "is_reserved": 0, "is_disabled": 0, "fusion_lon": 0.0, "bike_id": "683f0ce357157ab4c818b65c141738e7", "lon": -77.05031116666666, "rental_uris": {"ios": "https://dc.lft.to/lastmile_qr_scan", "android": "https://dc.lft.to/lastmile_qr_scan"}}, {"name": "9f4f0eca003743843a28a186c17df201", "fusion_lat": 0.0, "type": "electric_scooter", "lat": 38.8765035, "is_reserved": 0, "is_disabled": 0, "fusion_lon": 0.0, "bike_id": "9f4f0eca003743843a28a186c17df201", "lon": -77.01566216666667, "rental_uris": {"ios": "https://dc.lft.to/lastmile_qr_scan", "android": "https://dc.lft.to/lastmile_qr_scan"}}, {"name": "4d1a1f4a5f1aa7b3581d4b3f99288f75", "fusion_lat": 0.0, "type": "electric_scooter", "lat": 38.89742833333333, "is_reserved": 0, "is_disabled": 0, "fusion_lon": 0.0, "bike_id": "4d1a1f4a5f1aa7b3581d4b3f99288f75", "lon": -77.019746, "rental_uris": {"ios": "https://dc.lft.to/lastmile_qr_scan", "android": "https://dc.lft.to/lastmile_qr_scan"}},