{"data": {"bikes": [{"lon": -77.02400233333333, "bike_id": "e02f5499b03eaac7bcc58cb4c31aaebb", "lat": 38.91990283333333, "fusion_lon": 0.0, "fusion_lat": 0.0, "type": "electric_scooter", "name": "e02f5499b03eaac7bcc58cb4c31aaebb", "is_disabled": 0, "rental_uris": {"ios": "https://dc.lft.to/lastmile_qr_scan", "android": "https://dc.lft.to/lastmile_qr_scan"}, "is_reserved": 0}, {"lon": -77.039965, "bike_id": "d40c369f3883ed138507dd4edbac5b28", "lat": 38.9343235, "fusion_lon": 0.0, "fusion_lat": 0.0, "type": "electric_scooter", "name": "d40c369f3883ed138507dd4edbac5b28", "is_disabled": 0, "rental_uris": {"ios": "https://dc.lft.to/lastmile_qr_scan", "android": "https://dc.lft.to/lastmile_qr_scan"}, "is_reserved": 0}, {"lon": -77.0421205, "bike_id": "c6ca0462afe43b51ce782de54190a0ac", "lat": 38.911220166666666, "fusion_lon": 0.0, "fusion_lat": 0.0, "type": "electric_scooter", "name": "c6ca0462afe43b51ce782de54190a0ac", "is_disabled": 0, "rental_uris": {"ios": "https://dc.lft.to/lastmile_qr_scan", "android": "https://dc.lft.to/lastmile_qr_scan"}, "is_reserved": 0}, {"lon": -76.9739505, "bike_id": "398feeaa23f664101a16d80d0fb09151", "lat": 38.902949666666665, "fusion_lon": 0.0, "fusion_lat": 0.0, "type": "electric_scooter", "name": "398feeaa23f664101a16d80d0fb09151", "is_disabled": 0, "rental_uris": {"ios": "https://dc.lft.to/lastmile_qr_scan", "android": "https://dc.lft.to/lastmile_qr_scan"}, "is_reserved": 0}, {"lon": -77.03035516666667, "bike_id": "c43c5de68defecf4915b70033d9fad0a", "lat": 38.937145, "fusion_lon": 0.0, "fusion_lat": 0.0, "type": "electric_scooter", "name": "c43c5de68defecf4915b70033d9fad0a", "is_disabled": 0, "rental_uris": {"ios": "https://dc.lft.to/lastmile_qr_scan", "android": "https://dc.lft.to/lastmile_qr_scan"}, "is_reserved": 0}, {"lon": -77.027149, "bike_id": "45c97c1bca62406877825f3b4819a693", "lat": 38.92465883333333, "fusion_lon": 0.0, "fusion_lat": 0.0, "type": "electric_scooter", "name": "45c97c1bca62406877825f3b4819a693", "is_disabled": 0, "rental_uris": {"ios": "https://dc.lft.to/lastmile_qr_scan", "android": "https://dc.lft.to/lastmile_qr_scan"}, "is_reserved": 0}, {"lon": -76.98924133333334, "bike_id": "417c46312555fb05ceadf2f3762dee7f", "lat": 38.8649235, "fusion_lon": 0.0, "fusion_lat": 0.0, "type": "electric_scooter", "name": "417c46312555fb05ceadf2f3762dee7f", "is_disabled": 0, "rental_uris": {"ios": "https://dc.lft.to/lastmile_qr_scan", "android": "https://dc.lft.to/lastmile_qr_scan"}, "is_reserved": 0}, {"lon": -77.02719783333333, "bike_id": "5ee437a467e8ef47f7ab9654a2b5c21a", "lat": 38.922878, "fusion_lon": 0.0, "fusion_lat": 0.0, "type": "electric_scooter", "name": "5ee437a467e8ef47f7ab9654a2b5c21a", "is_disabled": 0, "rental_uris": {"ios": "https://dc.lft.to/lastmile_qr_scan", "android": "https://dc.lft.to/lastmile_qr_scan"}, "is_reserved": 0}, {"lon": -77.04334483333334, "bike_id": "24b73f854757405dcfe0676fc74b2689", "lat": 38.9222045, "fusion_lon": 0.0, "fusion_lat": 0.0, "type": "electric_scooter", "name": "24b73f854757405dcfe0676fc74b2689", "is_disabled": 0, "rental_uris": {"ios": "https://dc.lft.to/lastmile_qr_scan", "android": "https://dc.lft.to/lastmile_qr_scan"}, "is_reserved": 0}, {"lon": -77.0282325, "bike_id": "e687e088459abc4d43c3fd42a0c39e04", "lat": 38.89534066666667, "fusion_lon": 0.0, "fusion_lat": 0.0, "type": "electric_scooter", "name": "e687e088459abc4d43c3fd42a0c39e04", "is_disabled": 0, "rental_uris": {"ios": "https://dc.lft.to/lastmile_qr_scan", "android": "https://dc.lft.to/lastmile_qr_scan"}, "is_reserved": 0}, {"lon": -77.038291, "bike_id": "453e9e03e376fcdae2b605deebdf0a12", "lat": 38.90978, "fusion_lon": 0.0, "fusion_lat": 0.0, "type": "electric_scooter", "name": "453e9e03e376fcdae2b605deebdf0a12", "is_disabled": 0, "rental_uris": {"ios": "https://dc.lft.to/lastmile_qr_scan", "android": "https://dc.lft.to/lastmile_qr_scan"}, "is_reserved": 0}, {"lon": -77.047226, "bike_id": "3c8390c4b278cbf354628012d67dec0c", "lat": 38.902867, "fusion_lon": 0.0, "fusion_lat": 0.0, "type": "electric_scooter", "name": "3c8390c4b278cbf354628012d67dec0c", "is_disabled": 0, "rental_uris": {"ios": "https://dc.lft.to/lastmile_qr_scan", "android": "https://dc.lft.to/lastmile_qr_scan"}, "is_reserved": 0}, {"lon": -77.044565, "bike_id": "b44eae2912c5f4570bcd95def8786672", "lat": 38.92437366666667, "fusion_lon": 0.0, "fusion_lat": 0.0, "type": "electric_scooter", "name": "b44eae2912c5f4570bcd95def8786672", "is_disabled": 0, "rental_uris": {"ios": "https://dc.lft.to/lastmile_qr_scan", "android": "https://dc.lft.to/lastmile_qr_scan"}, "is_reserved": 0}, {"lon": -77.08491733333334, "bike_id": "dcee3a4606a027b1772b7d88df31d5ad", "lat": 38.84846433333333, "fusion_lon": 0.0, "fusion_lat": 0.0, "type": "electric_bike", "name": "dcee3a4606a027b1772b7d88df31d5ad", "is_disabled": 0, "rental_uris": {"ios": "https://dc.lft.to/lastmile_qr_scan", "android": "https://dc.lft.to/lastmile_qr_scan"}, "is_reserved": 0}, {"lon": -77.02693183333334, "bike_id": "b191ae838ea110af591c68815354f3c4", "lat": 38.904261166666664, "fusion_lon": 0.0, "fusion_lat": 0.0, "type": "electric_scooter", "name": "b191ae838ea110af591c68815354f3c4", "is_disabled": 0, "rental_uris": {"ios": "https://dc.lft.to/lastmile_qr_scan", "android": "https://dc.lft.to/lastmile_qr_scan"}, "is_reserved": 0}, {"lon": -77.03509816666667, "bike_id": "59c86705944f8e398f3423887608016a", "lat": 38.9234125, "fusion_lon": 0.0, "fusion_lat": 0.0, "type": "electric_scooter", "name": "59c86705944f8e398f3423887608016a", "is_disabled": 0, "rental_uris": {"ios": "https://dc.lft.to/lastmile_qr_scan", "android": "https://dc.lft.to/lastmile_qr_scan"}, "is_reserved": 0}, {"lon": -76.9459075, "bike_id": "8f0a1ce1b9287cc73c1a0ab8ed89b347", "lat": 38.901496333333334, "fusion_lon": 0.0, "fusion_lat": 0.0, "type": "electric_scooter", "name": "8f0a1ce1b9287cc73c1a0ab8ed89b347", "is_disabled": 0, "rental_uris": {"ios": "https://dc.lft.to/lastmile_qr_scan", "android": "https://dc.lft.to/lastmile_qr_scan"}, "is_reserved": 0}, {"lon": -76.931895, "bike_id": "c1251b28f023f5e6e73fbe41fc3972d7", "lat": 38.89877216666667, "fusion_lon": 0.0, "fusion_lat": 0.0, "type": "electric_scooter", "name": "c1251b28f023f5e6e73fbe41fc3972d7", "is_disabled": 0, "rental_uris": {"ios": "https://dc.lft.to/lastmile_qr_scan", "android": "https://dc.lft.to/lastmile_qr_scan"}, "is_reserved": 0}, {"lon": -76.96550666666667, "bike_id": "205f943481b872d93cd42605367ae565", "lat": 38.918623333333336, "fusion_lon": 0.0, "fusion_lat": 0.0, "type": "electric_scooter", "name": "205f943481b872d93cd42605367ae565", "is_disabled": 0, "rental_uris": {"ios": "https://dc.lft.to/lastmile_qr_scan", "android": "https://dc.lft.to/lastmile_qr_scan"}, "is_reserved": 0}, {"lon": -77.02178883333333, "bike_id": "96e36929cce73cc311bd339b6a8e2ce3", "lat": 38.89738766666667, "fusion_lon": 0.0, "fusion_lat": 0.0, "type": "electric_scooter", "name": "96e36929cce73cc311bd339b6a8e2ce3", "is_disabled": 0, "rental_uris": {"ios": "https://dc.lft.to/lastmile_qr_scan", "android": "https://dc.lft.to/lastmile_qr_scan"}, "is_reserved": 0}, {"lon": -77.03854116666666, "bike_id": "94452696cbe58ff6b3e4fe7fdd697dd3", "lat": 38.91661233333333, "fusion_lon": 0.0, "fusion_lat": 0.0, "type": "electric_scooter", "name": "94452696cbe58ff6b3e4fe7fdd697dd3", "is_disabled": 0, "rental_uris": {"ios": "https://dc.lft.to/lastmile_qr_scan", "android": "https://dc.lft.to/lastmile_qr_scan"}, "is_reserved": 0}, {"lon": -77.03443633333333, "bike_id": "d30d6de1f41ebc757869b6d1e3f94edd", "lat": 38.9149605, "fusion_lon": 0.0, "fusion_lat": 0.0, "type": "electric_scooter", "name": "d30d6de1f41ebc757869b6d1e3f94edd", "is_disabled": 0, "rental_uris": {"ios": "https://dc.lft.to/lastmile_qr_scan", "android": "https://dc.lft.to/lastmile_qr_scan"}, "is_reserved": 0}, {"lon": -77.0382835, "bike_id": "76a57f334e07f66f84c0f39c7fb8a7a1", "lat": 38.90675316666667, "fusion_lon": 0.0, "fusion_lat": 0.0, "type": "electric_scooter", "name": "76a57f334e07f66f84c0f39c7fb8a7a1", "is_disabled": 0, "rental_uris": {"ios": "https://dc.lft.to/lastmile_qr_scan", "android": "https://dc.lft.to/lastmile_qr_scan"}, "is_reserved": 0}, {"lon": -76.98895416666667, "bike_id": "7499e9cc860d680415d27757cc340f7f", "lat": 38.91343366666667, "fusion_lon": 0.0, "fusion_lat": 0.0, "type": "electric_scooter", "name": "7499e9cc860d680415d27757cc340f7f", "is_disabled": 0, "rental_uris": {"ios": "https://dc.lft.to/lastmile_qr_scan", "android": "https://dc.lft.to/lastmile_qr_scan"}, "is_reserved": 0}, {"lon": -77.00841383333334, "bike_id": "95d1e8f6b4de5bb73235fc8dbaf3cf9c", "lat": 38.916248, "fusion_lon": 0.0, "fusion_lat": 0.0, "type": "electric_scooter", "name": "95d1e8f6b4de5bb73235fc8dbaf3cf9c", "is_disabled": 0, "rental_uris": {"ios": "https://dc.lft.to/lastmile_qr_scan", "android": "https://dc.lft.to/lastmile_qr_scan"}, "is_reserved": 0}, {"lon": -77.02711416666666, "bike_id": "49a357c8cffa00ebadc61f19c5d227a5", "lat": 38.912186, "fusion_lon": 0.0, "fusion_lat": 0.0, "type": "electric_scooter", "name": "49a357c8cffa00ebadc61f19c5d227a5", "is_disabled": 0, "rental_uris": {"ios": "https://dc.lft.to/lastmile_qr_scan", "android": "https://dc.lft.to/lastmile_qr_scan"}, "is_reserved": 0}, {"lon": -77.05894733333334, "bike_id": "0878aab9b99945f4054a7cb6785b7387", "lat": 38.86259183333333, "fusion_lon": 0.0, "fusion_lat": 0.0, "type": "electric_scooter", "name": "0878aab9b99945f4054a7cb6785b7387", "is_disabled": 0, "rental_uris": {"ios": "https://dc.lft.to/lastmile_qr_scan", "android": "https://dc.lft.to/lastmile_qr_scan"}, "is_reserved": 0}, {"lon": -77.00543666666667, "bike_id": "de58a6c81c8cb09e8ba5549716e22094", "lat": 38.90034266666667, "fusion_lon": 0.0, "fusion_lat": 0.0, "type": "electric_scooter", "name": "de58a6c81c8cb09e8ba5549716e22094", "is_disabled": 0, "rental_uris": {"ios": "https://dc.lft.to/lastmile_qr_scan", "android": "https://dc.lft.to/lastmile_qr_scan"}, "is_reserved": 0}, {"lon": -77.04414416666667, "bike_id": "71458791e081bc07d91a75800331a725", "lat": 38.917522, "fusion_lon": 0.0, "fusion_lat": 0.0, "type": "electric_scooter", "name": "71458791e081bc07d91a75800331a725", "is_disabled": 0, "rental_uris": {"ios": "https://dc.lft.to/lastmile_qr_scan", "android": "https://dc.lft.to/lastmile_qr_scan"}, "is_reserved": 0}, {"lon": -77.01977283333333, "bike_id": "9ba43702f73c0bab5207fadcc7622adc", "lat": 38.901533, "fusion_lon": 0.0, "fusion_lat": 0.0, "type": "electric_scooter", "name": "9ba43702f73c0bab5207fadcc7622adc", "is_disabled": 0, "rental_uris": {"ios": "https://dc.lft.to/lastmile_qr_scan", "android": "https://dc.lft.to/lastmile_qr_scan"}, "is_reserved": 0}, {"lon": -77.05334783333333, "bike_id": "90458091dcb01eea5ebc7963dd7847c6", "lat": 38.902081333333335, "fusion_lon": 0.0, "fusion_lat": 0.0, "type": "electric_scooter", "name": "90458091dcb01eea5ebc7963dd7847c6", "is_disabled": 0, "rental_uris": {"ios": "https://dc.lft.to/lastmile_qr_scan", "android": "https://dc.lft.to/lastmile_qr_scan"}, "is_reserved": 0}, {"lon": -77.0344675, "bike_id": "4b48b1554feb17495a9dba4d5b6183b0", "lat": 38.90979133333333, "fusion_lon": 0.0, "fusion_lat": 0.0, "type": "electric_scooter", "name": "4b48b1554feb17495a9dba4d5b6183b0", "is_disabled": 0, "rental_uris": {"ios": "https://dc.lft.to/lastmile_qr_scan", "android": "https://dc.lft.to/lastmile_qr_scan"}, "is_reserved": 0}, {"lon": -77.005051, "bike_id": "ec9a271fa6aae73054e63009f5c3919b", "lat": 38.905535, "fusion_lon": 0.0, "fusion_lat": 0.0, "type": "electric_scooter", "name": "ec9a271fa6aae73054e63009f5c3919b", "is_disabled": 0, "rental_uris": {"ios": "https://dc.lft.to/lastmile_qr_scan", "android": "https://dc.lft.to/lastmile_qr_scan"}, "is_reserved": 0}, {"lon": -77.015207, "bike_id": "5d673593fa41373d841b7ef3c43e4074", "lat": 38.900276166666664, "fusion_lon": 0.0, "fusion_lat": 0.0, "type": "electric_scooter", "name": "5d673593fa41373d841b7ef3c43e4074", "is_disabled": 0, "rental_uris": {"ios": "https://dc.lft.to/lastmile_qr_scan", "android": "https://dc.lft.to/lastmile_qr_scan"}, "is_reserved": 0}, {"lon": -77.04106566666667, "bike_id": "966f19977a5d1800d770e4d308b3d8ab", "lat": 38.90870433333333, "fusion_lon": 0.0, "fusion_lat": 0.0, "type": "electric_scooter", "name": "966f19977a5d1800d770e4d308b3d8ab", "is_disabled": 0, "rental_uris": {"ios": "https://dc.lft.to/lastmile_qr_scan", "android": "https://dc.lft.to/lastmile_qr_scan"}, "is_reserved": 0}, {"lon": -77.0360725, "bike_id": "9de14da195eb98ffaacdbd7ef93f972f", "lat": 38.931537666666664, "fusion_lon": 0.0, "fusion_lat": 0.0, "type": "electric_scooter", "name": "9de14da195eb98ffaacdbd7ef93f972f", "is_disabled": 0, "rental_uris": {"ios": "https://dc.lft.to/lastmile_qr_scan", "android": "https://dc.lft.to/lastmile_qr_scan"}, "is_reserved": 0}, {"lon": -77.02345633333333, "bike_id": "4fb5dfa24e2f51e6039b7fc90a9906c5", "lat": 38.922480666666665, "fusion_lon": 0.0, "fusion_lat": 0.0, "type": "electric_scooter", "name": "4fb5dfa24e2f51e6039b7fc90a9906c5", "is_disabled": 0, "rental_uris": {"ios": "https://dc.lft.to/lastmile_qr_scan", "android": "https://dc.lft.to/lastmile_qr_scan"}, "is_reserved": 0}, {"lon": -76.9868755, "bike_id": "dcfdcf171900790356b6efcc137dc0bd", "lat": 38.91218966666667, "fusion_lon": 0.0, "fusion_lat": 0.0, "type": "electric_scooter", "name": "dcfdcf171900790356b6efcc137dc0bd", "is_disabled": 0, "rental_uris": {"ios": "https://dc.lft.to/lastmile_qr_scan", "android": "https://dc.lft.to/lastmile_qr_scan"}, "is_reserved": 0}, {"lon": -77.05212583333333, "bike_id": "cdd81e02e6cd0fb62bcc3cd7b04d8310", "lat": 38.90077316666667, "fusion_lon": 0.0, "fusion_lat": 0.0, "type": "electric_scooter", "name": "cdd81e02e6cd0fb62bcc3cd7b04d8310", "is_disabled": 0, "rental_uris": {"ios": "https://dc.lft.to/lastmile_qr_scan", "android": "https://dc.lft.to/lastmile_qr_scan"}, "is_reserved": 0}, {"lon": -77.0462655, "bike_id": "9895682cbea2331b1ab2352fd98d2f86", "lat": 38.91564833333333, "fusion_lon": 0.0, "fusion_lat": 0.0, "type": "electric_scooter", "name": "9895682cbea2331b1ab2352fd98d2f86", "is_disabled": 0, "rental_uris": {"ios": "https://dc.lft.to/lastmile_qr_scan", "android": "https://dc.lft.to/lastmile_qr_scan"}, "is_reserved": 0}, {"lon": -77.046502, "bike_id": "4a2fd913947c3be1d79b9d7ee2063bc4", "lat": 38.905518, "fusion_lon": 0.0, "fusion_lat": 0.0, "type": "electric_scooter", "name": "4a2fd913947c3be1d79b9d7ee2063bc4", "is_disabled": 0, "rental_uris": {"ios": "https://dc.lft.to/lastmile_qr_scan", "android": "https://dc.lft.to/lastmile_qr_scan"}, "is_reserved": 0}, {"lon": -77.032346, "bike_id": "19f5f4ea1ed592da91f7368a80ac8d79", "lat": 38.9287555, "fusion_lon": 0.0, "fusion_lat": 0.0, "type": "electric_scooter", "name": "19f5f4ea1ed592da91f7368a80ac8d79", "is_disabled": 0, "rental_uris": {"ios": "https://dc.lft.to/lastmile_qr_scan", "android": "https://dc.lft.to/lastmile_qr_scan"}, "is_reserved": 0}, {"lon": -76.96539616666666, "bike_id": "16fe07500a771a3bfdca0ac7570014a2", "lat": 38.918604, "fusion_lon": 0.0, "fusion_lat": 0.0, "type": "electric_scooter", "name": "16fe07500a771a3bfdca0ac7570014a2", "is_disabled": 0, "rental_uris": {"ios": "https://dc.lft.to/lastmile_qr_scan", "android": "https://dc.lft.to/lastmile_qr_scan"}, "is_reserved": 0}, {"lon": -77.0033445, "bike_id": "504eb65262a97c8dc127176aaa82ae86", "lat": 38.89188716666666, "fusion_lon": 0.0, "fusion_lat": 0.0, "type": "electric_scooter", "name": "504eb65262a97c8dc127176aaa82ae86", "is_disabled": 0, "rental_uris": {"ios": "https://dc.lft.to/lastmile_qr_scan", "android": "https://dc.lft.to/lastmile_qr_scan"}, "is_reserved": 0}, {"lon": -77.00696333333333, "bike_id": "931c6b36692a96faf80f8d8db352920f", "lat": 38.917416333333335, "fusion_lon": 0.0, "fusion_lat": 0.0, "type": "electric_scooter", "name": "931c6b36692a96faf80f8d8db352920f", "is_disabled": 0, "rental_uris": {"ios": "https://dc.lft.to/lastmile_qr_scan", "android": "https://dc.lft.to/lastmile_qr_scan"}, "is_reserved": 0}, {"lon": -77.00679283333334, "bike_id": "7018adfd8cd632ed0d210f263ea56e10", "lat": 38.905649833333335, "fusion_lon": 0.0, "fusion_lat": 0.0, "type": "electric_scooter", "name": "7018adfd8cd632ed0d210f263ea56e10", "is_disabled": 0, "rental_uris": {"ios": "https://dc.lft.to/lastmile_qr_scan", "android": "https://dc.lft.to/lastmile_qr_scan"}, "is_reserved": 0}, {"lon": -77.031833, "bike_id": "3f0ebb50ed242067c9faf13b92f47bc7", "lat": 38.91923083333333, "fusion_lon": 0.0, "fusion_lat": 0.0, "type": "electric_scooter", "name": "3f0ebb50ed242067c9faf13b92f47bc7", "is_disabled": 0, "rental_uris": {"ios": "https://dc.lft.to/lastmile_qr_scan", "android": "https://dc.lft.to/lastmile_qr_scan"}, "is_reserved": 0}, {"lon": -77.02392433333333, "bike_id": "abcd9139354be66ed09ce8024febb6ed", "lat": 38.9198635, "fusion_lon": 0.0, "fusion_lat": 0.0, "type": "electric_scooter", "name": "abcd9139354be66ed09ce8024febb6ed", "is_disabled": 0, "rental_uris": {"ios": "https://dc.lft.to/lastmile_qr_scan", "android": "https://dc.lft.to/lastmile_qr_scan"}, "is_reserved": 0}, {"lon": -77.021179, "bike_id": "32dec1daed20f226d7160e7333e737bb", "lat": 38.93702033333334, "fusion_lon": 0.0, "fusion_lat": 0.0, "type": "electric_scooter", "name": "32dec1daed20f226d7160e7333e737bb", "is_disabled": 0, "rental_uris": {"ios": "https://dc.lft.to/lastmile_qr_scan", "android": "https://dc.lft.to/lastmile_qr_scan"}, "is_reserved": 0}, {"lon": -77.024455, "bike_id": "c213b82abea49a447be09f05fad4a2db", "lat": 38.9141785, "fusion_lon": 0.0, "fusion_lat": 0.0, "type": "electric_scooter", "name": "c213b82abea49a447be09f05fad4a2db", "is_disabled": 0, "rental_uris": {"ios": "https://dc.lft.to/lastmile_qr_scan", "android": "https://dc.lft.to/lastmile_qr_scan"}, "is_reserved": 0}, {"lon": -77.04457616666667, "bike_id": "58b6152ba455421c6ca8964f59c28fd8", "lat": 38.89733966666667, "fusion_lon": 0.0, "fusion_lat": 0.0, "type": "electric_scooter", "name": "58b6152ba455421c6ca8964f59c28fd8", "is_disabled": 0, "rental_uris": {"ios": "https://dc.lft.to/lastmile_qr_scan", "android": "https://dc.lft.to/lastmile_qr_scan"}, "is_reserved": 0}, {"lon": -77.05421233333334, "bike_id": "45b78c716a35e2dc1e0b3c3a0dfdda6c", "lat": 38.92838316666667, "fusion_lon": 0.0, "fusion_lat": 0.0, "type": "electric_scooter", "name": "45b78c716a35e2dc1e0b3c3a0dfdda6c", "is_disabled": 0, "rental_uris": {"ios": "https://dc.lft.to/lastmile_qr_scan", "android": "https://dc.lft.to/lastmile_qr_scan"}, "is_reserved": 0}, {"lon": -77.00369266666667, "bike_id": "d1fc5563d39309a689fc14b5e0de5131", "lat": 38.8972975, "fusion_lon": 0.0, "fusion_lat": 0.0, "type": "electric_scooter", "name": "d1fc5563d39309a689fc14b5e0de5131", "is_disabled": 0, "rental_uris": {"ios": "https://dc.lft.to/lastmile_qr_scan", "android": "https://dc.lft.to/lastmile_qr_scan"}, "is_reserved": 0}, {"lon": -76.98014666666667, "bike_id": "b37c794021433998649cb36fff391c5a", "lat": 38.9033635, "fusion_lon": 0.0, "fusion_lat": 0.0, "type": "electric_scooter", "name": "b37c794021433998649cb36fff391c5a", "is_disabled": 0, "rental_uris": {"ios": "https://dc.lft.to/lastmile_qr_scan", "android": "https://dc.lft.to/lastmile_qr_scan"}, "is_reserved": 0}, {"lon": -77.02625, "bike_id": "d567b8e55a92d7939238caf36a43caea", "lat": 38.91709016666667, "fusion_lon": 0.0, "fusion_lat": 0.0, "type": "electric_scooter", "name": "d567b8e55a92d7939238caf36a43caea", "is_disabled": 0, "rental_uris": {"ios": "https://dc.lft.to/lastmile_qr_scan", "android": "https://dc.lft.to/lastmile_qr_scan"}, "is_reserved": 0}, {"lon": -77.01928516666666, "bike_id": "9eb6786979d4c4b7b64022db601942bc", "lat": 38.922213166666666, "fusion_lon": 0.0, "fusion_lat": 0.0, "type": "electric_scooter", "name": "9eb6786979d4c4b7b64022db601942bc", "is_disabled": 0, "rental_uris": {"ios": "https://dc.lft.to/lastmile_qr_scan", "android": "https://dc.lft.to/lastmile_qr_scan"}, "is_reserved": 0}, {"lon": -77.02116733333334, "bike_id": "2dd3602d90e0995a9e9b0684a56c10be", "lat": 38.914178666666665, "fusion_lon": 0.0, "fusion_lat": 0.0, "type": "electric_scooter", "name": "2dd3602d90e0995a9e9b0684a56c10be", "is_disabled": 0, "rental_uris": {"ios": "https://dc.lft.to/lastmile_qr_scan", "android": "https://dc.lft.to/lastmile_qr_scan"}, "is_reserved": 0}, {"lon": -77.003533, "bike_id": "5f4437d51d2cb728b677ae6df98a16e6", "lat": 38.887179, "fusion_lon": 0.0, "fusion_lat": 0.0, "type": "electric_scooter", "name": "5f4437d51d2cb728b677ae6df98a16e6", "is_disabled": 0, "rental_uris": {"ios": "https://dc.lft.to/lastmile_qr_scan", "android": "https://dc.lft.to/lastmile_qr_scan"}, "is_reserved": 0}, {"lon": -77.050618, "bike_id": "c60e925860b40e8ed50f5f5491537eb8", "lat": 38.90066133333333, "fusion_lon": 0.0, "fusion_lat": 0.0, "type": "electric_scooter", "name": "c60e925860b40e8ed50f5f5491537eb8", "is_disabled": 0, "rental_uris": {"ios": "https://dc.lft.to/lastmile_qr_scan", "android": "https://dc.lft.to/lastmile_qr_scan"}, "is_reserved": 0}, {"lon": -77.03298333333333, "bike_id": "4b7022cf71fa0ed4a6b13886b08b2fbd", "lat": 38.909590666666666, "fusion_lon": 0.0, "fusion_lat": 0.0, "type": "electric_scooter", "name": "4b7022cf71fa0ed4a6b13886b08b2fbd", "is_disabled": 0, "rental_uris": {"ios": "https://dc.lft.to/lastmile_qr_scan", "android": "https://dc.lft.to/lastmile_qr_scan"}, "is_reserved": 0}, {"lon": -77.13101083333333, "bike_id": "8bb6f7422927739de72c004822aaa885", "lat": 39.02438383333333, "fusion_lon": 0.0, "fusion_lat": 0.0, "type": "electric_bike", "name": "8bb6f7422927739de72c004822aaa885", "is_disabled": 0, "rental_uris": {"ios": "https://dc.lft.to/lastmile_qr_scan", "android": "https://dc.lft.to/lastmile_qr_scan"}, "is_reserved": 0}, {"lon": -77.029187, "bike_id": "c7a4ca00358cdc9bad7cf31b89ea8109", "lat": 38.944401166666665, "fusion_lon": 0.0, "fusion_lat": 0.0, "type": "electric_scooter", "name": "c7a4ca00358cdc9bad7cf31b89ea8109", "is_disabled": 0, "rental_uris": {"ios": "https://dc.lft.to/lastmile_qr_scan", "android": "https://dc.lft.to/lastmile_qr_scan"}, "is_reserved": 0}, {"lon": -76.988837, "bike_id": "c44be938115a4bfb6a9a603374b3041e", "lat": 38.866602666666665, "fusion_lon": 0.0, "fusion_lat": 0.0, "type": "electric_scooter", "name": "c44be938115a4bfb6a9a603374b3041e", "is_disabled": 0, "rental_uris": {"ios": "https://dc.lft.to/lastmile_qr_scan", "android": "https://dc.lft.to/lastmile_qr_scan"}, "is_reserved": 0}, {"lon": -77.03180433333333, "bike_id": "32d57fb76d8fee37387502343f1dae9a", "lat": 38.89767116666667, "fusion_lon": 0.0, "fusion_lat": 0.0, "type": "electric_scooter", "name": "32d57fb76d8fee37387502343f1dae9a", "is_disabled": 0, "rental_uris": {"ios": "https://dc.lft.to/lastmile_qr_scan", "android": "https://dc.lft.to/lastmile_qr_scan"}, "is_reserved": 0}, {"lon": -76.97667866666667, "bike_id": "25b3cf61380ca1717982a7e2961ed884", "lat": 38.9452025, "fusion_lon": 0.0, "fusion_lat": 0.0, "type": "electric_bike", "name": "25b3cf61380ca1717982a7e2961ed884", "is_disabled": 0, "rental_uris": {"ios": "https://dc.lft.to/lastmile_qr_scan", "android": "https://dc.lft.to/lastmile_qr_scan"}, "is_reserved": 0}, {"lon": -76.96558283333333, "bike_id": "57b3f7b1c15d79c9441edeade5f98a4d", "lat": 38.91864433333333, "fusion_lon": 0.0, "fusion_lat": 0.0, "type": "electric_scooter", "name": "57b3f7b1c15d79c9441edeade5f98a4d", "is_disabled": 0, "rental_uris": {"ios": "https://dc.lft.to/lastmile_qr_scan", "android": "https://dc.lft.to/lastmile_qr_scan"}, "is_reserved": 0}, {"lon": -77.022913, "bike_id": "77cd6780b1b724d4d74e3246b782580a", "lat": 38.916773666666664, "fusion_lon": 0.0, "fusion_lat": 0.0, "type": "electric_scooter", "name": "77cd6780b1b724d4d74e3246b782580a", "is_disabled": 0, "rental_uris": {"ios": "https://dc.lft.to/lastmile_qr_scan", "android": "https://dc.lft.to/lastmile_qr_scan"}, "is_reserved": 0}, {"lon": -77.02203733333333, "bike_id": "8f59b3457777843f8e6af85f22dabef0", "lat": 38.89502616666667, "fusion_lon": 0.0, "fusion_lat": 0.0, "type": "electric_scooter", "name": "8f59b3457777843f8e6af85f22dabef0", "is_disabled": 0, "rental_uris": {"ios": "https://dc.lft.to/lastmile_qr_scan", "android": "https://dc.lft.to/lastmile_qr_scan"}, "is_reserved": 0}, {"lon": -77.01371566666667, "bike_id": "8cb0de8e4a400d2e2156a5c1918ec02e", "lat": 38.90592816666667, "fusion_lon": 0.0, "fusion_lat": 0.0, "type": "electric_bike", "name": "8cb0de8e4a400d2e2156a5c1918ec02e", "is_disabled": 0, "rental_uris": {"ios": "https://dc.lft.to/lastmile_qr_scan", "android": "https://dc.lft.to/lastmile_qr_scan"}, "is_reserved": 0}, {"lon": -76.987103, "bike_id": "de3969f2e9b33f3b335d18760b9ffd84", "lat": 38.866991666666664, "fusion_lon": 0.0, "fusion_lat": 0.0, "type": "electric_scooter", "name": "de3969f2e9b33f3b335d18760b9ffd84", "is_disabled": 0, "rental_uris": {"ios": "https://dc.lft.to/lastmile_qr_scan", "android": "https://dc.lft.to/lastmile_qr_scan"}, "is_reserved": 0}, {"lon": -77.017387, "bike_id": "3f27ef129f82287e1aa62eb8f107926c", "lat": 38.902531, "fusion_lon": 0.0, "fusion_lat": 0.0, "type": "electric_scooter", "name": "3f27ef129f82287e1aa62eb8f107926c", "is_disabled": 0, "rental_uris": {"ios": "https://dc.lft.to/lastmile_qr_scan", "android": "https://dc.lft.to/lastmile_qr_scan"}, "is_reserved": 0}, {"lon": -77.0385285, "bike_id": "324a85b3eeb303e12db99f40929e3457", "lat": 38.90354833333333, "fusion_lon": 0.0, "fusion_lat": 0.0, "type": "electric_scooter", "name": "324a85b3eeb303e12db99f40929e3457", "is_disabled": 0, "rental_uris": {"ios": "https://dc.lft.to/lastmile_qr_scan", "android": "https://dc.lft.to/lastmile_qr_scan"}, "is_reserved": 0}, {"lon": -77.04496266666666, "bike_id": "f761b594c244506fdcdd91d0dfd7be26", "lat": 38.90721533333333, "fusion_lon": 0.0, "fusion_lat": 0.0, "type": "electric_scooter", "name": "f761b594c244506fdcdd91d0dfd7be26", "is_disabled": 0, "rental_uris": {"ios": "https://dc.lft.to/lastmile_qr_scan", "android": "https://dc.lft.to/lastmile_qr_scan"}, "is_reserved": 0}, {"lon": -77.03185016666667, "bike_id": "010f71b943cd262b069149aad0c6b8f7", "lat": 38.9210455, "fusion_lon": 0.0, "fusion_lat": 0.0, "type": "electric_scooter", "name": "010f71b943cd262b069149aad0c6b8f7", "is_disabled": 0, "rental_uris": {"ios": "https://dc.lft.to/lastmile_qr_scan", "android": "https://dc.lft.to/lastmile_qr_scan"}, "is_reserved": 0}, {"lon": -77.0184015, "bike_id": "45cf1d95df9e2a7d7b1dd420df3e2013", "lat": 38.9096005, "fusion_lon": 0.0, "fusion_lat": 0.0, "type": "electric_scooter", "name": "45cf1d95df9e2a7d7b1dd420df3e2013", "is_disabled": 0, "rental_uris": {"ios": "https://dc.lft.to/lastmile_qr_scan", "android": "https://dc.lft.to/lastmile_qr_scan"}, "is_reserved": 0}, {"lon": -77.01838633333334, "bike_id": "fec6de8fd6d285dd2e3acba978d91d27", "lat": 38.909332, "fusion_lon": 0.0, "fusion_lat": 0.0, "type": "electric_scooter", "name": "fec6de8fd6d285dd2e3acba978d91d27", "is_disabled": 0, "rental_uris": {"ios": "https://dc.lft.to/lastmile_qr_scan", "android": "https://dc.lft.to/lastmile_qr_scan"}, "is_reserved": 0}, {"lon": -77.0377205, "bike_id": "045d421f02109d5b3d58580620febac3", "lat": 38.92564466666666, "fusion_lon": 0.0, "fusion_lat": 0.0, "type": "electric_scooter", "name": "045d421f02109d5b3d58580620febac3", "is_disabled": 0, "rental_uris": {"ios": "https://dc.lft.to/lastmile_qr_scan", "android": "https://dc.lft.to/lastmile_qr_scan"}, "is_reserved": 0}, {"lon": -77.017002, "bike_id": "e502722f5ff64ed992e5e7be48e1d368", "lat": 38.904462, "fusion_lon": 0.0, "fusion_lat": 0.0, "type": "electric_scooter", "name": "e502722f5ff64ed992e5e7be48e1d368", "is_disabled": 0, "rental_uris": {"ios": "https://dc.lft.to/lastmile_qr_scan", "android": "https://dc.lft.to/lastmile_qr_scan"}, "is_reserved": 0}, {"lon": -76.99072333333334, "bike_id": "120d4f7aefa19df0df4f7fa79824a242", "lat": 38.8981895, "fusion_lon": 0.0, "fusion_lat": 0.0, "type": "electric_bike", "name": "120d4f7aefa19df0df4f7fa79824a242", "is_disabled": 0, "rental_uris": {"ios": "https://dc.lft.to/lastmile_qr_scan", "android": "https://dc.lft.to/lastmile_qr_scan"}, "is_reserved": 0}, {"lon": -77.01986933333333, "bike_id": "0d1876a0aecd49ebb094d0fbf1589088", "lat": 38.885791, "fusion_lon": 0.0, "fusion_lat": 0.0, "type": "electric_scooter", "name": "0d1876a0aecd49ebb094d0fbf1589088", "is_disabled": 0, "rental_uris": {"ios": "https://dc.lft.to/lastmile_qr_scan", "android": "https://dc.lft.to/lastmile_qr_scan"}, "is_reserved": 0}, {"lon": -76.98335816666666, "bike_id": "4d794843dd8c4ed30bccfdff323ee126", "lat": 38.89545433333333, "fusion_lon": 0.0, "fusion_lat": 0.0, "type": "electric_scooter", "name": "4d794843dd8c4ed30bccfdff323ee126", "is_disabled": 0, "rental_uris": {"ios": "https://dc.lft.to/lastmile_qr_scan", "android": "https://dc.lft.to/lastmile_qr_scan"}, "is_reserved": 0}, {"lon": -76.99938633333333, "bike_id": "b4816ae3de1e162c998e6ccbc0bcfd2f", "lat": 38.907720833333336, "fusion_lon": 0.0, "fusion_lat": 0.0, "type": "electric_scooter", "name": "b4816ae3de1e162c998e6ccbc0bcfd2f", "is_disabled": 0, "rental_uris": {"ios": "https://dc.lft.to/lastmile_qr_scan", "android": "https://dc.lft.to/lastmile_qr_scan"}, "is_reserved": 0}, {"lon": -76.997097, "bike_id": "3b7f7a08796b41d0a448baf0de589ff7", "lat": 38.892563833333334, "fusion_lon": 0.0, "fusion_lat": 0.0, "type": "electric_scooter", "name": "3b7f7a08796b41d0a448baf0de589ff7", "is_disabled": 0, "rental_uris": {"ios": "https://dc.lft.to/lastmile_qr_scan", "android": "https://dc.lft.to/lastmile_qr_scan"}, "is_reserved": 0}, {"lon": -77.01514366666666, "bike_id": "24f1fb295b58bc1cad7099b4378b3334", "lat": 38.9186795, "fusion_lon": 0.0, "fusion_lat": 0.0, "type": "electric_scooter", "name": "24f1fb295b58bc1cad7099b4378b3334", "is_disabled": 0, "rental_uris": {"ios": "https://dc.lft.to/lastmile_qr_scan", "android": "https://dc.lft.to/lastmile_qr_scan"}, "is_reserved": 0}, {"lon": -76.97245083333334, "bike_id": "53d54268730ce08513373ba98c51848f", "lat": 38.90345216666667, "fusion_lon": 0.0, "fusion_lat": 0.0, "type": "electric_scooter", "name": "53d54268730ce08513373ba98c51848f", "is_disabled": 0, "rental_uris": {"ios": "https://dc.lft.to/lastmile_qr_scan", "android": "https://dc.lft.to/lastmile_qr_scan"}, "is_reserved": 0}, {"lon": -77.01015466666666, "bike_id": "4d5a34f84cd8cc74ad3d563950a91577", "lat": 38.8947405, "fusion_lon": 0.0, "fusion_lat": 0.0, "type": "electric_scooter", "name": "4d5a34f84cd8cc74ad3d563950a91577", "is_disabled": 0, "rental_uris": {"ios": "https://dc.lft.to/lastmile_qr_scan", "android": "https://dc.lft.to/lastmile_qr_scan"}, "is_reserved": 0}, {"lon": -77.04223633333334, "bike_id": "ae65febc582e62d019994c86adf63e6b", "lat": 38.91705566666667, "fusion_lon": 0.0, "fusion_lat": 0.0, "type": "electric_scooter", "name": "ae65febc582e62d019994c86adf63e6b", "is_disabled": 0, "rental_uris": {"ios": "https://dc.lft.to/lastmile_qr_scan", "android": "https://dc.lft.to/lastmile_qr_scan"}, "is_reserved": 0}, {"lon": -77.03184083333333, "bike_id": "6a33a9db3f6b3efc45c110eef53621eb", "lat": 38.892263666666665, "fusion_lon": 0.0, "fusion_lat": 0.0, "type": "electric_scooter", "name": "6a33a9db3f6b3efc45c110eef53621eb", "is_disabled": 0, "rental_uris": {"ios": "https://dc.lft.to/lastmile_qr_scan", "android": "https://dc.lft.to/lastmile_qr_scan"}, "is_reserved": 0}, {"lon": -77.01915066666666, "bike_id": "f14ed1057e54b003739b69fcd889e5db", "lat": 38.886311, "fusion_lon": 0.0, "fusion_lat": 0.0, "type": "electric_scooter", "name": "f14ed1057e54b003739b69fcd889e5db", "is_disabled": 0, "rental_uris": {"ios": "https://dc.lft.to/lastmile_qr_scan", "android": "https://dc.lft.to/lastmile_qr_scan"}, "is_reserved": 0}, {"lon": -76.9953315, "bike_id": "632a622a43b6522eee381558c1130c2a", "lat": 38.883688166666666, "fusion_lon": 0.0, "fusion_lat": 0.0, "type": "electric_scooter", "name": "632a622a43b6522eee381558c1130c2a", "is_disabled": 0, "rental_uris": {"ios": "https://dc.lft.to/lastmile_qr_scan", "android": "https://dc.lft.to/lastmile_qr_scan"}, "is_reserved": 0}, {"lon": -77.0262975, "bike_id": "59ecbf76fe060390837ae22be79addf5", "lat": 38.96228333333333, "fusion_lon": 0.0, "fusion_lat": 0.0, "type": "electric_bike", "name": "59ecbf76fe060390837ae22be79addf5", "is_disabled": 0, "rental_uris": {"ios": "https://dc.lft.to/lastmile_qr_scan", "android": "https://dc.lft.to/lastmile_qr_scan"}, "is_reserved": 0}, {"lon": -77.0342615, "bike_id": "3633bc12cd0afb3374c0f6326388c3e1", "lat": 38.9192965, "fusion_lon": 0.0, "fusion_lat": 0.0, "type": "electric_scooter", "name": "3633bc12cd0afb3374c0f6326388c3e1", "is_disabled": 0, "rental_uris": {"ios": "https://dc.lft.to/lastmile_qr_scan", "android": "https://dc.lft.to/lastmile_qr_scan"}, "is_reserved": 0}, {"lon": -77.02537683333334, "bike_id": "afe3332b58bab056efb5d9b3f298481e", "lat": 38.927474833333335, "fusion_lon": 0.0, "fusion_lat": 0.0, "type": "electric_scooter", "name": "afe3332b58bab056efb5d9b3f298481e", "is_disabled": 0, "rental_uris": {"ios": "https://dc.lft.to/lastmile_qr_scan", "android": "https://dc.lft.to/lastmile_qr_scan"}, "is_reserved": 0}, {"lon": -77.02492616666666, "bike_id": "3e88a5c64aa92023c936c348744e6207", "lat": 38.919341, "fusion_lon": 0.0, "fusion_lat": 0.0, "type": "electric_scooter", "name": "3e88a5c64aa92023c936c348744e6207", "is_disabled": 0, "rental_uris": {"ios": "https://dc.lft.to/lastmile_qr_scan", "android": "https://dc.lft.to/lastmile_qr_scan"}, "is_reserved": 0}, {"lon": -77.05306566666667, "bike_id": "53dea28dabaa5a8a3a29239e816ba177", "lat": 38.8988955, "fusion_lon": 0.0, "fusion_lat": 0.0, "type": "electric_scooter", "name": "53dea28dabaa5a8a3a29239e816ba177", "is_disabled": 0, "rental_uris": {"ios": "https://dc.lft.to/lastmile_qr_scan", "android": "https://dc.lft.to/lastmile_qr_scan"}, "is_reserved": 0}, {"lon": -77.02372283333334, "bike_id": "ccdcdbec01fac4a75d49d208c0956e06", "lat": 38.9021335, "fusion_lon": 0.0, "fusion_lat": 0.0, "type": "electric_scooter", "name": "ccdcdbec01fac4a75d49d208c0956e06", "is_disabled": 0, "rental_uris": {"ios": "https://dc.lft.to/lastmile_qr_scan", "android": "https://dc.lft.to/lastmile_qr_scan"}, "is_reserved": 0}, {"lon": -77.0268455, "bike_id": "ae02530ef71bc38c6c468ddc216d0855", "lat": 38.89974383333333, "fusion_lon": 0.0, "fusion_lat": 0.0, "type": "electric_scooter", "name": "ae02530ef71bc38c6c468ddc216d0855", "is_disabled": 0, "rental_uris": {"ios": "https://dc.lft.to/lastmile_qr_scan", "android": "https://dc.lft.to/lastmile_qr_scan"}, "is_reserved": 0}, {"lon": -76.97701383333333, "bike_id": "06ab9e011f68894bb6d65e3bc1324dcd", "lat": 38.94917483333333, "fusion_lon": 0.0, "fusion_lat": 0.0, "type": "electric_bike", "name": "06ab9e011f68894bb6d65e3bc1324dcd", "is_disabled": 0, "rental_uris": {"ios": "https://dc.lft.to/lastmile_qr_scan", "android": "https://dc.lft.to/lastmile_qr_scan"}, "is_reserved": 0}, {"lon": -76.947258, "bike_id": "fe31a76c7262ccbaccab8c985386cef5", "lat": 38.8973595, "fusion_lon": 0.0, "fusion_lat": 0.0, "type": "electric_scooter", "name": "fe31a76c7262ccbaccab8c985386cef5", "is_disabled": 0, "rental_uris": {"ios": "https://dc.lft.to/lastmile_qr_scan", "android": "https://dc.lft.to/lastmile_qr_scan"}, "is_reserved": 0}, {"lon": -77.02699566666666, "bike_id": "e3d325c7809f27a2ada65797545894fc", "lat": 38.906698, "fusion_lon": 0.0, "fusion_lat": 0.0, "type": "electric_scooter", "name": "e3d325c7809f27a2ada65797545894fc", "is_disabled": 0, "rental_uris": {"ios": "https://dc.lft.to/lastmile_qr_scan", "android": "https://dc.lft.to/lastmile_qr_scan"}, "is_reserved": 0}, {"lon": -76.9046685, "bike_id": "17915f940b98b3bea584758d6ad07101", "lat": 39.0029915, "fusion_lon": 0.0, "fusion_lat": 0.0, "type": "electric_bike", "name": "17915f940b98b3bea584758d6ad07101", "is_disabled": 0, "rental_uris": {"ios": "https://dc.lft.to/lastmile_qr_scan", "android": "https://dc.lft.to/lastmile_qr_scan"}, "is_reserved": 0}, {"lon": -77.01625733333333, "bike_id": "2d91a7ec16519c8ae19e4870bf03ffc9", "lat": 38.965751833333336, "fusion_lon": 0.0, "fusion_lat": 0.0, "type": "electric_scooter", "name": "2d91a7ec16519c8ae19e4870bf03ffc9", "is_disabled": 0, "rental_uris": {"ios": "https://dc.lft.to/lastmile_qr_scan", "android": "https://dc.lft.to/lastmile_qr_scan"}, "is_reserved": 0}, {"lon": -77.03280416666666, "bike_id": "55f451fe651760530c4dcc59c61b0e5f", "lat": 38.9320495, "fusion_lon": 0.0, "fusion_lat": 0.0, "type": "electric_scooter", "name": "55f451fe651760530c4dcc59c61b0e5f", "is_disabled": 0, "rental_uris": {"ios": "https://dc.lft.to/lastmile_qr_scan", "android": "https://dc.lft.to/lastmile_qr_scan"}, "is_reserved": 0}, {"lon": -77.0120595, "bike_id": "6e5d879d5661478b480eaff2b2790b54", "lat": 38.88551316666667, "fusion_lon": 0.0, "fusion_lat": 0.0, "type": "electric_scooter", "name": "6e5d879d5661478b480eaff2b2790b54", "is_disabled": 0, "rental_uris": {"ios": "https://dc.lft.to/lastmile_qr_scan", "android": "https://dc.lft.to/lastmile_qr_scan"}, "is_reserved": 0}, {"lon": -77.36091533333334, "bike_id": "999afd0ef559389b48c071d8b25de91e", "lat": 38.9396235, "fusion_lon": 0.0, "fusion_lat": 0.0, "type": "electric_bike", "name": "999afd0ef559389b48c071d8b25de91e", "is_disabled": 0, "rental_uris": {"ios": "https://dc.lft.to/lastmile_qr_scan", "android": "https://dc.lft.to/lastmile_qr_scan"}, "is_reserved": 0}, {"lon": -77.06520633333334, "bike_id": "03fd5afbf1eac31adabebd28acec80a0", "lat": 38.905446, "fusion_lon": 0.0, "fusion_lat": 0.0, "type": "electric_bike", "name": "03fd5afbf1eac31adabebd28acec80a0", "is_disabled": 0, "rental_uris": {"ios": "https://dc.lft.to/lastmile_qr_scan", "android": "https://dc.lft.to/lastmile_qr_scan"}, "is_reserved": 0}, {"lon": -77.02011083333333, "bike_id": "5716c20cd2f0c2469edb8f9d6b91bb3e", "lat": 38.92411033333333, "fusion_lon": 0.0, "fusion_lat": 0.0, "type": "electric_scooter", "name": "5716c20cd2f0c2469edb8f9d6b91bb3e", "is_disabled": 0, "rental_uris": {"ios": "https://dc.lft.to/lastmile_qr_scan", "android": "https://dc.lft.to/lastmile_qr_scan"}, "is_reserved": 0}, {"lon": -77.03277366666667, "bike_id": "3a0a553789597802c8aa2ba8748abd7c", "lat": 38.93975783333333, "fusion_lon": 0.0, "fusion_lat": 0.0, "type": "electric_scooter", "name": "3a0a553789597802c8aa2ba8748abd7c", "is_disabled": 0, "rental_uris": {"ios": "https://dc.lft.to/lastmile_qr_scan", "android": "https://dc.lft.to/lastmile_qr_scan"}, "is_reserved": 0}, {"lon": -77.02221633333333, "bike_id": "841697d8a51e1daa611c469717240fe4", "lat": 38.89219216666667, "fusion_lon": 0.0, "fusion_lat": 0.0, "type": "electric_scooter", "name": "841697d8a51e1daa611c469717240fe4", "is_disabled": 0, "rental_uris": {"ios": "https://dc.lft.to/lastmile_qr_scan", "android": "https://dc.lft.to/lastmile_qr_scan"}, "is_reserved": 0}, {"lon": -77.01758016666666, "bike_id": "78ecbc7b3f4bf06539d2fd0d9433dc22", "lat": 38.880576, "fusion_lon": 0.0, "fusion_lat": 0.0, "type": "electric_scooter", "name": "78ecbc7b3f4bf06539d2fd0d9433dc22", "is_disabled": 0, "rental_uris": {"ios": "https://dc.lft.to/lastmile_qr_scan", "android": "https://dc.lft.to/lastmile_qr_scan"}, "is_reserved": 0}, {"lon": -77.085957, "bike_id": "7ef79d8d5af802e2b2d26e9109f820a2", "lat": 38.90872233333333, "fusion_lon": 0.0, "fusion_lat": 0.0, "type": "electric_scooter", "name": "7ef79d8d5af802e2b2d26e9109f820a2", "is_disabled": 0, "rental_uris": {"ios": "https://dc.lft.to/lastmile_qr_scan", "android": "https://dc.lft.to/lastmile_qr_scan"}, "is_reserved": 0}, {"lon": -77.02181916666666, "bike_id": "f5508155dc8eb53c89b289c65c7d144e", "lat": 38.91418916666667, "fusion_lon": 0.0, "fusion_lat": 0.0, "type": "electric_scooter", "name": "f5508155dc8eb53c89b289c65c7d144e", "is_disabled": 0, "rental_uris": {"ios": "https://dc.lft.to/lastmile_qr_scan", "android": "https://dc.lft.to/lastmile_qr_scan"}, "is_reserved": 0}, {"lon": -77.017465, "bike_id": "4dd330399d0dd1585d683299f13faf58", "lat": 38.881222666666666, "fusion_lon": 0.0, "fusion_lat": 0.0, "type": "electric_scooter", "name": "4dd330399d0dd1585d683299f13faf58", "is_disabled": 0, "rental_uris": {"ios": "https://dc.lft.to/lastmile_qr_scan", "android": "https://dc.lft.to/lastmile_qr_scan"}, "is_reserved": 0}, {"lon": -77.03161066666667, "bike_id": "2d4a1c7c6b236541e78fbc28dcae9034", "lat": 38.903500333333334, "fusion_lon": 0.0, "fusion_lat": 0.0, "type": "electric_scooter", "name": "2d4a1c7c6b236541e78fbc28dcae9034", "is_disabled": 0, "rental_uris": {"ios": "https://dc.lft.to/lastmile_qr_scan", "android": "https://dc.lft.to/lastmile_qr_scan"}, "is_reserved": 0}, {"lon": -77.03413166666667, "bike_id": "35b693eaf6279bfb40e57843518b8c3a", "lat": 38.9179285, "fusion_lon": 0.0, "fusion_lat": 0.0, "type": "electric_scooter", "name": "35b693eaf6279bfb40e57843518b8c3a", "is_disabled": 0, "rental_uris": {"ios": "https://dc.lft.to/lastmile_qr_scan", "android": "https://dc.lft.to/lastmile_qr_scan"}, "is_reserved": 0}, {"lon": -76.946361, "bike_id": "b6acb7de853b5c5729a7b71f80ed15cb", "lat": 38.89833016666667, "fusion_lon": 0.0, "fusion_lat": 0.0, "type": "electric_scooter", "name": "b6acb7de853b5c5729a7b71f80ed15cb", "is_disabled": 0, "rental_uris": {"ios": "https://dc.lft.to/lastmile_qr_scan", "android": "https://dc.lft.to/lastmile_qr_scan"}, "is_reserved": 0}, {"lon": -76.99063866666667, "bike_id": "ef36e26ae66d14e0e35ef9b117d7ae47", "lat": 38.900308333333335, "fusion_lon": 0.0, "fusion_lat": 0.0, "type": "electric_scooter", "name": "ef36e26ae66d14e0e35ef9b117d7ae47", "is_disabled": 0, "rental_uris": {"ios": "https://dc.lft.to/lastmile_qr_scan", "android": "https://dc.lft.to/lastmile_qr_scan"}, "is_reserved": 0}, {"lon": -77.0092275, "bike_id": "1f6d6f47a14d21894df0363cff7df43e", "lat": 38.91101616666667, "fusion_lon": 0.0, "fusion_lat": 0.0, "type": "electric_scooter", "name": "1f6d6f47a14d21894df0363cff7df43e", "is_disabled": 0, "rental_uris": {"ios": "https://dc.lft.to/lastmile_qr_scan", "android": "https://dc.lft.to/lastmile_qr_scan"}, "is_reserved": 0}, {"lon": -76.9896105, "bike_id": "abb1e7c4ef2bcbb2a392315bd87135d0", "lat": 38.90128516666667, "fusion_lon": 0.0, "fusion_lat": 0.0, "type": "electric_scooter", "name": "abb1e7c4ef2bcbb2a392315bd87135d0", "is_disabled": 0, "rental_uris": {"ios": "https://dc.lft.to/lastmile_qr_scan", "android": "https://dc.lft.to/lastmile_qr_scan"}, "is_reserved": 0}, {"lon": -77.01368316666667, "bike_id": "d40f61656cef7e7fd837e8afbcdefec1", "lat": 38.9061605, "fusion_lon": 0.0, "fusion_lat": 0.0, "type": "electric_scooter", "name": "d40f61656cef7e7fd837e8afbcdefec1", "is_disabled": 0, "rental_uris": {"ios": "https://dc.lft.to/lastmile_qr_scan", "android": "https://dc.lft.to/lastmile_qr_scan"}, "is_reserved": 0}, {"lon": -76.99201366666667, "bike_id": "8baeb95e10ed760f216cee9113ddd0b8", "lat": 38.8982585, "fusion_lon": 0.0, "fusion_lat": 0.0, "type": "electric_scooter", "name": "8baeb95e10ed760f216cee9113ddd0b8", "is_disabled": 0, "rental_uris": {"ios": "https://dc.lft.to/lastmile_qr_scan", "android": "https://dc.lft.to/lastmile_qr_scan"}, "is_reserved": 0}, {"lon": -77.02246683333334, "bike_id": "1e2b330e9c130ef4cd3248dd5e461a46", "lat": 38.928974, "fusion_lon": 0.0, "fusion_lat": 0.0, "type": "electric_scooter", "name": "1e2b330e9c130ef4cd3248dd5e461a46", "is_disabled": 0, "rental_uris": {"ios": "https://dc.lft.to/lastmile_qr_scan", "android": "https://dc.lft.to/lastmile_qr_scan"}, "is_reserved": 0}, {"lon": -77.07299433333333, "bike_id": "dbc059a5cbbfd27cbd676a5001b2dd61", "lat": 38.93056983333334, "fusion_lon": 0.0, "fusion_lat": 0.0, "type": "electric_scooter", "name": "dbc059a5cbbfd27cbd676a5001b2dd61", "is_disabled": 0, "rental_uris": {"ios": "https://dc.lft.to/lastmile_qr_scan", "android": "https://dc.lft.to/lastmile_qr_scan"}, "is_reserved": 0}, {"lon": -77.03850783333333, "bike_id": "0001a3c7f54077ef60149e2903e13b92", "lat": 38.91173283333333, "fusion_lon": 0.0, "fusion_lat": 0.0, "type": "electric_scooter", "name": "0001a3c7f54077ef60149e2903e13b92", "is_disabled": 0, "rental_uris": {"ios": "https://dc.lft.to/lastmile_qr_scan", "android": "https://dc.lft.to/lastmile_qr_scan"}, "is_reserved": 0}, {"lon": -77.0318325, "bike_id": "6f1f6f4b08adbfb236aae4e5760b1ee4", "lat": 38.89236366666667, "fusion_lon": 0.0, "fusion_lat": 0.0, "type": "electric_scooter", "name": "6f1f6f4b08adbfb236aae4e5760b1ee4", "is_disabled": 0, "rental_uris": {"ios": "https://dc.lft.to/lastmile_qr_scan", "android": "https://dc.lft.to/lastmile_qr_scan"}, "is_reserved": 0}, {"lon": -77.0256235, "bike_id": "78d40c494e651e19d7215cf374114286", "lat": 38.933515166666666, "fusion_lon": 0.0, "fusion_lat": 0.0, "type": "electric_scooter", "name": "78d40c494e651e19d7215cf374114286", "is_disabled": 0, "rental_uris": {"ios": "https://dc.lft.to/lastmile_qr_scan", "android": "https://dc.lft.to/lastmile_qr_scan"}, "is_reserved": 0}, {"lon": -76.96524483333333, "bike_id": "231ce2614c3cbc0db82008458d9d8cd6", "lat": 38.8748065, "fusion_lon": 0.0, "fusion_lat": 0.0, "type": "electric_scooter", "name": "231ce2614c3cbc0db82008458d9d8cd6", "is_disabled": 0, "rental_uris": {"ios": "https://dc.lft.to/lastmile_qr_scan", "android": "https://dc.lft.to/lastmile_qr_scan"}, "is_reserved": 0}, {"lon": -77.02172866666666, "bike_id": "96249479e350d10369e2f22d1d287d31", "lat": 38.94293533333333, "fusion_lon": 0.0, "fusion_lat": 0.0, "type": "electric_scooter", "name": "96249479e350d10369e2f22d1d287d31", "is_disabled": 0, "rental_uris": {"ios": "https://dc.lft.to/lastmile_qr_scan", "android": "https://dc.lft.to/lastmile_qr_scan"}, "is_reserved": 0}, {"lon": -77.00055566666667, "bike_id": "fce2ac93827fa27174530641ae0d4c8c", "lat": 38.87393983333333, "fusion_lon": 0.0, "fusion_lat": 0.0, "type": "electric_scooter", "name": "fce2ac93827fa27174530641ae0d4c8c", "is_disabled": 0, "rental_uris": {"ios": "https://dc.lft.to/lastmile_qr_scan", "android": "https://dc.lft.to/lastmile_qr_scan"}, "is_reserved": 0}, {"lon": -77.03346433333333, "bike_id": "43b38aee6ddb26db81226f75ed624f56", "lat": 38.89838616666667, "fusion_lon": 0.0, "fusion_lat": 0.0, "type": "electric_scooter", "name": "43b38aee6ddb26db81226f75ed624f56", "is_disabled": 0, "rental_uris": {"ios": "https://dc.lft.to/lastmile_qr_scan", "android": "https://dc.lft.to/lastmile_qr_scan"}, "is_reserved": 0}, {"lon": -77.02052433333333, "bike_id": "e56794ee1b134e65c9219260f83cb2f2", "lat": 38.923882, "fusion_lon": 0.0, "fusion_lat": 0.0, "type": "electric_scooter", "name": "e56794ee1b134e65c9219260f83cb2f2", "is_disabled": 0, "rental_uris": {"ios": "https://dc.lft.to/lastmile_qr_scan", "android": "https://dc.lft.to/lastmile_qr_scan"}, "is_reserved": 0}, {"lon": -77.03278383333334, "bike_id": "c691822f235a9bd8267496cfaf59ed89", "lat": 38.928906, "fusion_lon": 0.0, "fusion_lat": 0.0, "type": "electric_scooter", "name": "c691822f235a9bd8267496cfaf59ed89", "is_disabled": 0, "rental_uris": {"ios": "https://dc.lft.to/lastmile_qr_scan", "android": "https://dc.lft.to/lastmile_qr_scan"}, "is_reserved": 0}, {"lon": -76.94632883333334, "bike_id": "b3231d155e53e3e1c37ddb236a91b296", "lat": 38.898312833333335, "fusion_lon": 0.0, "fusion_lat": 0.0, "type": "electric_scooter", "name": "b3231d155e53e3e1c37ddb236a91b296", "is_disabled": 0, "rental_uris": {"ios": "https://dc.lft.to/lastmile_qr_scan", "android": "https://dc.lft.to/lastmile_qr_scan"}, "is_reserved": 0}, {"lon": -77.031989, "bike_id": "47c1f1134e34cd3bffdfe1b7f3750353", "lat": 38.918323666666666, "fusion_lon": 0.0, "fusion_lat": 0.0, "type": "electric_scooter", "name": "47c1f1134e34cd3bffdfe1b7f3750353", "is_disabled": 0, "rental_uris": {"ios": "https://dc.lft.to/lastmile_qr_scan", "android": "https://dc.lft.to/lastmile_qr_scan"}, "is_reserved": 0}, {"lon": -77.0214425, "bike_id": "c72b55311b86f88ceecedfa391e2d10d", "lat": 38.89507616666667, "fusion_lon": 0.0, "fusion_lat": 0.0, "type": "electric_scooter", "name": "c72b55311b86f88ceecedfa391e2d10d", "is_disabled": 0, "rental_uris": {"ios": "https://dc.lft.to/lastmile_qr_scan", "android": "https://dc.lft.to/lastmile_qr_scan"}, "is_reserved": 0}, {"lon": -77.03645183333333, "bike_id": "6a9ce2217f57126a2bb669e261807299", "lat": 38.90277533333333, "fusion_lon": 0.0, "fusion_lat": 0.0, "type": "electric_scooter", "name": "6a9ce2217f57126a2bb669e261807299", "is_disabled": 0, "rental_uris": {"ios": "https://dc.lft.to/lastmile_qr_scan", "android": "https://dc.lft.to/lastmile_qr_scan"}, "is_reserved": 0}, {"lon": -77.11591866666667, "bike_id": "5d08f99fe1a77b161a6800c18854542a", "lat": 39.0749485, "fusion_lon": 0.0, "fusion_lat": 0.0, "type": "electric_bike", "name": "5d08f99fe1a77b161a6800c18854542a", "is_disabled": 0, "rental_uris": {"ios": "https://dc.lft.to/lastmile_qr_scan", "android": "https://dc.lft.to/lastmile_qr_scan"}, "is_reserved": 0}, {"lon": -77.02658333333333, "bike_id": "09018d6957f079ab1b6d9b774cc1e759", "lat": 38.92581, "fusion_lon": 0.0, "fusion_lat": 0.0, "type": "electric_scooter", "name": "09018d6957f079ab1b6d9b774cc1e759", "is_disabled": 0, "rental_uris": {"ios": "https://dc.lft.to/lastmile_qr_scan", "android": "https://dc.lft.to/lastmile_qr_scan"}, "is_reserved": 0}, {"lon": -76.96909616666667, "bike_id": "4f31f026bab1810fdfb942afa093c38f", "lat": 38.84611783333333, "fusion_lon": 0.0, "fusion_lat": 0.0, "type": "electric_bike", "name": "4f31f026bab1810fdfb942afa093c38f", "is_disabled": 0, "rental_uris": {"ios": "https://dc.lft.to/lastmile_qr_scan", "android": "https://dc.lft.to/lastmile_qr_scan"}, "is_reserved": 0}, {"lon": -77.0384325, "bike_id": "866b8f779a48ca7cee4a63349f62d80e", "lat": 38.903546666666664, "fusion_lon": 0.0, "fusion_lat": 0.0, "type": "electric_scooter", "name": "866b8f779a48ca7cee4a63349f62d80e", "is_disabled": 0, "rental_uris": {"ios": "https://dc.lft.to/lastmile_qr_scan", "android": "https://dc.lft.to/lastmile_qr_scan"}, "is_reserved": 0}, {"lon": -77.02813783333333, "bike_id": "6c73e022a3bcac683ae2ac24c2d4a6a3", "lat": 38.90579416666667, "fusion_lon": 0.0, "fusion_lat": 0.0, "type": "electric_scooter", "name": "6c73e022a3bcac683ae2ac24c2d4a6a3", "is_disabled": 0, "rental_uris": {"ios": "https://dc.lft.to/lastmile_qr_scan", "android": "https://dc.lft.to/lastmile_qr_scan"}, "is_reserved": 0}, {"lon": -77.02699316666667, "bike_id": "f901b6c86deaa9f6309bd787c3dff6c0", "lat": 38.8997695, "fusion_lon": 0.0, "fusion_lat": 0.0, "type": "electric_scooter", "name": "f901b6c86deaa9f6309bd787c3dff6c0", "is_disabled": 0, "rental_uris": {"ios": "https://dc.lft.to/lastmile_qr_scan", "android": "https://dc.lft.to/lastmile_qr_scan"}, "is_reserved": 0}, {"lon": -76.999326, "bike_id": "93cf745a041ed9c9549cf13440262654", "lat": 38.843158333333335, "fusion_lon": 0.0, "fusion_lat": 0.0, "type": "electric_scooter", "name": "93cf745a041ed9c9549cf13440262654", "is_disabled": 0, "rental_uris": {"ios": "https://dc.lft.to/lastmile_qr_scan", "android": "https://dc.lft.to/lastmile_qr_scan"}, "is_reserved": 0}, {"lon": -76.99055516666667, "bike_id": "feacb7a7ae7648577bf740b06d510a8e", "lat": 38.8637955, "fusion_lon": 0.0, "fusion_lat": 0.0, "type": "electric_scooter", "name": "feacb7a7ae7648577bf740b06d510a8e", "is_disabled": 0, "rental_uris": {"ios": "https://dc.lft.to/lastmile_qr_scan", "android": "https://dc.lft.to/lastmile_qr_scan"}, "is_reserved": 0}, {"lon": -76.99074183333333, "bike_id": "50cb71f30cdc4e968436235974c40cfd", "lat": 38.927477833333334, "fusion_lon": 0.0, "fusion_lat": 0.0, "type": "electric_scooter", "name": "50cb71f30cdc4e968436235974c40cfd", "is_disabled": 0, "rental_uris": {"ios": "https://dc.lft.to/lastmile_qr_scan", "android": "https://dc.lft.to/lastmile_qr_scan"}, "is_reserved": 0}, {"lon": -77.01260116666667, "bike_id": "c8487ecb90d31dd69e9916d7633e78d0", "lat": 38.914909, "fusion_lon": 0.0, "fusion_lat": 0.0, "type": "electric_scooter", "name": "c8487ecb90d31dd69e9916d7633e78d0", "is_disabled": 0, "rental_uris": {"ios": "https://dc.lft.to/lastmile_qr_scan", "android": "https://dc.lft.to/lastmile_qr_scan"}, "is_reserved": 0}, {"lon": -77.03259133333333, "bike_id": "980c1cbcf01986cff1923e21d1511e85", "lat": 38.93202616666667, "fusion_lon": 0.0, "fusion_lat": 0.0, "type": "electric_scooter", "name": "980c1cbcf01986cff1923e21d1511e85", "is_disabled": 0, "rental_uris": {"ios": "https://dc.lft.to/lastmile_qr_scan", "android": "https://dc.lft.to/lastmile_qr_scan"}, "is_reserved": 0}, {"lon": -77.03179733333333, "bike_id": "65cd818fe359615a401d448fdfc2d8ab", "lat": 38.9129485, "fusion_lon": 0.0, "fusion_lat": 0.0, "type": "electric_scooter", "name": "65cd818fe359615a401d448fdfc2d8ab", "is_disabled": 0, "rental_uris": {"ios": "https://dc.lft.to/lastmile_qr_scan", "android": "https://dc.lft.to/lastmile_qr_scan"}, "is_reserved": 0}, {"lon": -77.021004, "bike_id": "215d98437c05aab4d618fe2839d8d8ae", "lat": 38.931171666666664, "fusion_lon": 0.0, "fusion_lat": 0.0, "type": "electric_scooter", "name": "215d98437c05aab4d618fe2839d8d8ae", "is_disabled": 0, "rental_uris": {"ios": "https://dc.lft.to/lastmile_qr_scan", "android": "https://dc.lft.to/lastmile_qr_scan"}, "is_reserved": 0}, {"lon": -77.03404983333333, "bike_id": "79c2575335783e4ed731a3fbad37b52a", "lat": 38.96028033333333, "fusion_lon": 0.0, "fusion_lat": 0.0, "type": "electric_bike", "name": "79c2575335783e4ed731a3fbad37b52a", "is_disabled": 0, "rental_uris": {"ios": "https://dc.lft.to/lastmile_qr_scan", "android": "https://dc.lft.to/lastmile_qr_scan"}, "is_reserved": 0}, {"lon": -77.02710616666667, "bike_id": "a34828391dafe40968d7caa7929cb9dc", "lat": 38.93475383333333, "fusion_lon": 0.0, "fusion_lat": 0.0, "type": "electric_scooter", "name": "a34828391dafe40968d7caa7929cb9dc", "is_disabled": 0, "rental_uris": {"ios": "https://dc.lft.to/lastmile_qr_scan", "android": "https://dc.lft.to/lastmile_qr_scan"}, "is_reserved": 0}, {"lon": -76.96582033333334, "bike_id": "c25242e5590fcb7de64eb68d28b1bfa3", "lat": 38.87135966666666, "fusion_lon": 0.0, "fusion_lat": 0.0, "type": "electric_scooter", "name": "c25242e5590fcb7de64eb68d28b1bfa3", "is_disabled": 0, "rental_uris": {"ios": "https://dc.lft.to/lastmile_qr_scan", "android": "https://dc.lft.to/lastmile_qr_scan"}, "is_reserved": 0}, {"lon": -77.04308816666666, "bike_id": "3cea1477f8a34afb1dc8f0f432512b1c", "lat": 38.9233245, "fusion_lon": 0.0, "fusion_lat": 0.0, "type": "electric_scooter", "name": "3cea1477f8a34afb1dc8f0f432512b1c", "is_disabled": 0, "rental_uris": {"ios": "https://dc.lft.to/lastmile_qr_scan", "android": "https://dc.lft.to/lastmile_qr_scan"}, "is_reserved": 0}, {"lon": -77.043176, "bike_id": "113d91e07310d2d0a3a5e38f6422d81a", "lat": 38.9187855, "fusion_lon": 0.0, "fusion_lat": 0.0, "type": "electric_scooter", "name": "113d91e07310d2d0a3a5e38f6422d81a", "is_disabled": 0, "rental_uris": {"ios": "https://dc.lft.to/lastmile_qr_scan", "android": "https://dc.lft.to/lastmile_qr_scan"}, "is_reserved": 0}, {"lon": -77.124842, "bike_id": "968c363ae6e71048cccd69bb81bdef1e", "lat": 38.827818666666666, "fusion_lon": 0.0, "fusion_lat": 0.0, "type": "electric_bike", "name": "968c363ae6e71048cccd69bb81bdef1e", "is_disabled": 0, "rental_uris": {"ios": "https://dc.lft.to/lastmile_qr_scan", "android": "https://dc.lft.to/lastmile_qr_scan"}, "is_reserved": 0}, {"lon": -77.06425233333333, "bike_id": "d8a5ecdfde53558d164044f9eb37a6bb", "lat": 38.90890133333333, "fusion_lon": 0.0, "fusion_lat": 0.0, "type": "electric_scooter", "name": "d8a5ecdfde53558d164044f9eb37a6bb", "is_disabled": 0, "rental_uris": {"ios": "https://dc.lft.to/lastmile_qr_scan", "android": "https://dc.lft.to/lastmile_qr_scan"}, "is_reserved": 0}, {"lon": -77.04498666666667, "bike_id": "91209d0444c84d74af5d3433b5a3a8f4", "lat": 38.911125, "fusion_lon": 0.0, "fusion_lat": 0.0, "type": "electric_scooter", "name": "91209d0444c84d74af5d3433b5a3a8f4", "is_disabled": 0, "rental_uris": {"ios": "https://dc.lft.to/lastmile_qr_scan", "android": "https://dc.lft.to/lastmile_qr_scan"}, "is_reserved": 0}, {"lon": -76.998529, "bike_id": "d440bc039afc6d46c2ad7f0449ea40ae", "lat": 38.84162583333333, "fusion_lon": 0.0, "fusion_lat": 0.0, "type": "electric_scooter", "name": "d440bc039afc6d46c2ad7f0449ea40ae", "is_disabled": 0, "rental_uris": {"ios": "https://dc.lft.to/lastmile_qr_scan", "android": "https://dc.lft.to/lastmile_qr_scan"}, "is_reserved": 0}, {"lon": -77.00282166666666, "bike_id": "50483999bfe55abe8df3221d27e77f75", "lat": 38.957112333333335, "fusion_lon": 0.0, "fusion_lat": 0.0, "type": "electric_bike", "name": "50483999bfe55abe8df3221d27e77f75", "is_disabled": 0, "rental_uris": {"ios": "https://dc.lft.to/lastmile_qr_scan", "android": "https://dc.lft.to/lastmile_qr_scan"}, "is_reserved": 0}, {"lon": -77.05766033333333, "bike_id": "3a83eb5d13e3f7fc9b646f24f8156774", "lat": 38.936219333333334, "fusion_lon": 0.0, "fusion_lat": 0.0, "type": "electric_scooter", "name": "3a83eb5d13e3f7fc9b646f24f8156774", "is_disabled": 0, "rental_uris": {"ios": "https://dc.lft.to/lastmile_qr_scan", "android": "https://dc.lft.to/lastmile_qr_scan"}, "is_reserved": 0}, {"lon": -77.03415166666667, "bike_id": "d3d7e892768c6d2866687b125df54338", "lat": 38.9274305, "fusion_lon": 0.0, "fusion_lat": 0.0, "type": "electric_scooter", "name": "d3d7e892768c6d2866687b125df54338", "is_disabled": 0, "rental_uris": {"ios": "https://dc.lft.to/lastmile_qr_scan", "android": "https://dc.lft.to/lastmile_qr_scan"}, "is_reserved": 0}, {"lon": -76.9961445, "bike_id": "80fb89afb76fab9fc2a26a954620b1a7", "lat": 38.887123833333334, "fusion_lon": 0.0, "fusion_lat": 0.0, "type": "electric_scooter", "name": "80fb89afb76fab9fc2a26a954620b1a7", "is_disabled": 0, "rental_uris": {"ios": "https://dc.lft.to/lastmile_qr_scan", "android": "https://dc.lft.to/lastmile_qr_scan"}, "is_reserved": 0}, {"lon": -77.02212333333334, "bike_id": "e296975bbfd8fb0936ea389cd6180d58", "lat": 38.914154333333336, "fusion_lon": 0.0, "fusion_lat": 0.0, "type": "electric_scooter", "name": "e296975bbfd8fb0936ea389cd6180d58", "is_disabled": 0, "rental_uris": {"ios": "https://dc.lft.to/lastmile_qr_scan", "android": "https://dc.lft.to/lastmile_qr_scan"}, "is_reserved": 0}, {"lon": -77.00326783333334, "bike_id": "39e871e97d67e9ee3d6e48f616a75d32", "lat": 38.902685, "fusion_lon": 0.0, "fusion_lat": 0.0, "type": "electric_scooter", "name": "39e871e97d67e9ee3d6e48f616a75d32", "is_disabled": 0, "rental_uris": {"ios": "https://dc.lft.to/lastmile_qr_scan", "android": "https://dc.lft.to/lastmile_qr_scan"}, "is_reserved": 0}, {"lon": -77.03209683333333, "bike_id": "9cef8a8fdbf910f9b0f437b51f27777e", "lat": 38.936126333333334, "fusion_lon": 0.0, "fusion_lat": 0.0, "type": "electric_scooter", "name": "9cef8a8fdbf910f9b0f437b51f27777e", "is_disabled": 0, "rental_uris": {"ios": "https://dc.lft.to/lastmile_qr_scan", "android": "https://dc.lft.to/lastmile_qr_scan"}, "is_reserved": 0}, {"lon": -77.05597466666667, "bike_id": "0f6d86f0c94dc359752e223ad21eeca1", "lat": 38.937012333333335, "fusion_lon": 0.0, "fusion_lat": 0.0, "type": "electric_scooter", "name": "0f6d86f0c94dc359752e223ad21eeca1", "is_disabled": 0, "rental_uris": {"ios": "https://dc.lft.to/lastmile_qr_scan", "android": "https://dc.lft.to/lastmile_qr_scan"}, "is_reserved": 0}, {"lon": -76.9327375, "bike_id": "c8402ea6be69ce7a2d7d31122df21ad9", "lat": 38.9541995, "fusion_lon": 0.0, "fusion_lat": 0.0, "type": "electric_bike", "name": "c8402ea6be69ce7a2d7d31122df21ad9", "is_disabled": 0, "rental_uris": {"ios": "https://dc.lft.to/lastmile_qr_scan", "android": "https://dc.lft.to/lastmile_qr_scan"}, "is_reserved": 0}, {"lon": -77.0177595, "bike_id": "3c3810cc255b1f4270dea8e0a3d68f60", "lat": 38.903793, "fusion_lon": 0.0, "fusion_lat": 0.0, "type": "electric_scooter", "name": "3c3810cc255b1f4270dea8e0a3d68f60", "is_disabled": 0, "rental_uris": {"ios": "https://dc.lft.to/lastmile_qr_scan", "android": "https://dc.lft.to/lastmile_qr_scan"}, "is_reserved": 0}, {"lon": -77.02295966666667, "bike_id": "905bae6353bd10d3821cefd1a1a7c6f6", "lat": 38.91677133333334, "fusion_lon": 0.0, "fusion_lat": 0.0, "type": "electric_scooter", "name": "905bae6353bd10d3821cefd1a1a7c6f6", "is_disabled": 0, "rental_uris": {"ios": "https://dc.lft.to/lastmile_qr_scan", "android": "https://dc.lft.to/lastmile_qr_scan"}, "is_reserved": 0}, {"lon": -77.03632466666667, "bike_id": "131b2ba0d7abb0b1b69a34cf02d2610d", "lat": 38.915553, "fusion_lon": 0.0, "fusion_lat": 0.0, "type": "electric_scooter", "name": "131b2ba0d7abb0b1b69a34cf02d2610d", "is_disabled": 0, "rental_uris": {"ios": "https://dc.lft.to/lastmile_qr_scan", "android": "https://dc.lft.to/lastmile_qr_scan"}, "is_reserved": 0}, {"lon": -77.01649833333333, "bike_id": "1e53241580ccd78a9667d46b28f21aff", "lat": 38.89985166666666, "fusion_lon": 0.0, "fusion_lat": 0.0, "type": "electric_scooter", "name": "1e53241580ccd78a9667d46b28f21aff", "is_disabled": 0, "rental_uris": {"ios": "https://dc.lft.to/lastmile_qr_scan", "android": "https://dc.lft.to/lastmile_qr_scan"}, "is_reserved": 0}, {"lon": -77.02955716666666, "bike_id": "6e0d3df23f302e74cb908f2ff9172cb4", "lat": 38.8963775, "fusion_lon": 0.0, "fusion_lat": 0.0, "type": "electric_scooter", "name": "6e0d3df23f302e74cb908f2ff9172cb4", "is_disabled": 0, "rental_uris": {"ios": "https://dc.lft.to/lastmile_qr_scan", "android": "https://dc.lft.to/lastmile_qr_scan"}, "is_reserved": 0}, {"lon": -77.00535933333333, "bike_id": "334927685ab774cd3afa7674472c9d87", "lat": 38.87545516666667, "fusion_lon": 0.0, "fusion_lat": 0.0, "type": "electric_scooter", "name": "334927685ab774cd3afa7674472c9d87", "is_disabled": 0, "rental_uris": {"ios": "https://dc.lft.to/lastmile_qr_scan", "android": "https://dc.lft.to/lastmile_qr_scan"}, "is_reserved": 0}, {"lon": -77.00128766666667, "bike_id": "808b6aee6ab4c58d2f2a93963a154dcd", "lat": 38.878192166666665, "fusion_lon": 0.0, "fusion_lat": 0.0, "type": "electric_scooter", "name": "808b6aee6ab4c58d2f2a93963a154dcd", "is_disabled": 0, "rental_uris": {"ios": "https://dc.lft.to/lastmile_qr_scan", "android": "https://dc.lft.to/lastmile_qr_scan"}, "is_reserved": 0}, {"lon": -77.03221466666666, "bike_id": "07a30e5c582ebcb907c1f5a4675f7aec", "lat": 38.909708333333334, "fusion_lon": 0.0, "fusion_lat": 0.0, "type": "electric_scooter", "name": "07a30e5c582ebcb907c1f5a4675f7aec", "is_disabled": 0, "rental_uris": {"ios": "https://dc.lft.to/lastmile_qr_scan", "android": "https://dc.lft.to/lastmile_qr_scan"}, "is_reserved": 0}, {"lon": -77.02383633333334, "bike_id": "3df5c16fe91acc0c6f08597b2ec6bc09", "lat": 38.906291833333334, "fusion_lon": 0.0, "fusion_lat": 0.0, "type": "electric_scooter", "name": "3df5c16fe91acc0c6f08597b2ec6bc09", "is_disabled": 0, "rental_uris": {"ios": "https://dc.lft.to/lastmile_qr_scan", "android": "https://dc.lft.to/lastmile_qr_scan"}, "is_reserved": 0}, {"lon": -77.04492583333334, "bike_id": "3ca393a7117fac3d137c10cba569de24", "lat": 38.911122166666665, "fusion_lon": 0.0, "fusion_lat": 0.0, "type": "electric_scooter", "name": "3ca393a7117fac3d137c10cba569de24", "is_disabled": 0, "rental_uris": {"ios": "https://dc.lft.to/lastmile_qr_scan", "android": "https://dc.lft.to/lastmile_qr_scan"}, "is_reserved": 0}, {"lon": -77.03503666666667, "bike_id": "78bd01c6946f57dbbc133b7924fdafd7", "lat": 38.9118375, "fusion_lon": 0.0, "fusion_lat": 0.0, "type": "electric_scooter", "name": "78bd01c6946f57dbbc133b7924fdafd7", "is_disabled": 0, "rental_uris": {"ios": "https://dc.lft.to/lastmile_qr_scan", "android": "https://dc.lft.to/lastmile_qr_scan"}, "is_reserved": 0}, {"lon": -77.02096333333333, "bike_id": "80e81ab3250b2badf2ef0a17a3ad0972", "lat": 38.929179166666664, "fusion_lon": 0.0, "fusion_lat": 0.0, "type": "electric_scooter", "name": "80e81ab3250b2badf2ef0a17a3ad0972", "is_disabled": 0, "rental_uris": {"ios": "https://dc.lft.to/lastmile_qr_scan", "android": "https://dc.lft.to/lastmile_qr_scan"}, "is_reserved": 0}, {"lon": -77.046993, "bike_id": "f459dd1f3c4bc4f57c96776f193700bd", "lat": 38.916714166666665, "fusion_lon": 0.0, "fusion_lat": 0.0, "type": "electric_bike", "name": "f459dd1f3c4bc4f57c96776f193700bd", "is_disabled": 0, "rental_uris": {"ios": "https://dc.lft.to/lastmile_qr_scan", "android": "https://dc.lft.to/lastmile_qr_scan"}, "is_reserved": 0}, {"lon": -77.06122316666666, "bike_id": "13f996fb9e278e5d9ab323d199e3db23", "lat": 38.904833833333335, "fusion_lon": 0.0, "fusion_lat": 0.0, "type": "electric_scooter", "name": "13f996fb9e278e5d9ab323d199e3db23", "is_disabled": 0, "rental_uris": {"ios": "https://dc.lft.to/lastmile_qr_scan", "android": "https://dc.lft.to/lastmile_qr_scan"}, "is_reserved": 0}, {"lon": -77.0882075, "bike_id": "358af663abdd0c497ca0c9be0d7fff74", "lat": 38.909772333333336, "fusion_lon": 0.0, "fusion_lat": 0.0, "type": "electric_scooter", "name": "358af663abdd0c497ca0c9be0d7fff74", "is_disabled": 0, "rental_uris": {"ios": "https://dc.lft.to/lastmile_qr_scan", "android": "https://dc.lft.to/lastmile_qr_scan"}, "is_reserved": 0}, {"lon": -76.98854583333333, "bike_id": "623709a7e6610d1a6733f7069e362703", "lat": 38.90029333333333, "fusion_lon": 0.0, "fusion_lat": 0.0, "type": "electric_scooter", "name": "623709a7e6610d1a6733f7069e362703", "is_disabled": 0, "rental_uris": {"ios": "https://dc.lft.to/lastmile_qr_scan", "android": "https://dc.lft.to/lastmile_qr_scan"}, "is_reserved": 0}, {"lon": -77.00204833333333, "bike_id": "c6441c9c9155145a54eacda84cf260b4", "lat": 38.90040916666667, "fusion_lon": 0.0, "fusion_lat": 0.0, "type": "electric_scooter", "name": "c6441c9c9155145a54eacda84cf260b4", "is_disabled": 0, "rental_uris": {"ios": "https://dc.lft.to/lastmile_qr_scan", "android": "https://dc.lft.to/lastmile_qr_scan"}, "is_reserved": 0}, {"lon": -77.023826, "bike_id": "5c8e83f3c548852eae35238b0da6a71d", "lat": 38.909830666666664, "fusion_lon": 0.0, "fusion_lat": 0.0, "type": "electric_scooter", "name": "5c8e83f3c548852eae35238b0da6a71d", "is_disabled": 0, "rental_uris": {"ios": "https://dc.lft.to/lastmile_qr_scan", "android": "https://dc.lft.to/lastmile_qr_scan"}, "is_reserved": 0}, {"lon": -76.99271083333333, "bike_id": "d1498e21cc131995be6dbbd76b53c6be", "lat": 38.897716333333335, "fusion_lon": 0.0, "fusion_lat": 0.0, "type": "electric_scooter", "name": "d1498e21cc131995be6dbbd76b53c6be", "is_disabled": 0, "rental_uris": {"ios": "https://dc.lft.to/lastmile_qr_scan", "android": "https://dc.lft.to/lastmile_qr_scan"}, "is_reserved": 0}, {"lon": -76.98334116666666, "bike_id": "1b48435a52c5b79364218bab1cb8bfa6", "lat": 38.90090683333333, "fusion_lon": 0.0, "fusion_lat": 0.0, "type": "electric_scooter", "name": "1b48435a52c5b79364218bab1cb8bfa6", "is_disabled": 0, "rental_uris": {"ios": "https://dc.lft.to/lastmile_qr_scan", "android": "https://dc.lft.to/lastmile_qr_scan"}, "is_reserved": 0}, {"lon": -76.94892816666666, "bike_id": "360d5283768ceca0bfddf40b20ef1098", "lat": 38.8953055, "fusion_lon": 0.0, "fusion_lat": 0.0, "type": "electric_scooter", "name": "360d5283768ceca0bfddf40b20ef1098", "is_disabled": 0, "rental_uris": {"ios": "https://dc.lft.to/lastmile_qr_scan", "android": "https://dc.lft.to/lastmile_qr_scan"}, "is_reserved": 0}, {"lon": -77.03192316666667, "bike_id": "90b8c948c6ee79c36de7737d76b1bf94", "lat": 38.91908083333333, "fusion_lon": 0.0, "fusion_lat": 0.0, "type": "electric_scooter", "name": "90b8c948c6ee79c36de7737d76b1bf94", "is_disabled": 0, "rental_uris": {"ios": "https://dc.lft.to/lastmile_qr_scan", "android": "https://dc.lft.to/lastmile_qr_scan"}, "is_reserved": 0}, {"lon": -77.00281116666666, "bike_id": "8994267f2cc3a4997b750fbefc83e598", "lat": 38.952161833333335, "fusion_lon": 0.0, "fusion_lat": 0.0, "type": "electric_bike", "name": "8994267f2cc3a4997b750fbefc83e598", "is_disabled": 0, "rental_uris": {"ios": "https://dc.lft.to/lastmile_qr_scan", "android": "https://dc.lft.to/lastmile_qr_scan"}, "is_reserved": 0}, {"lon": -77.01839033333333, "bike_id": "44f9bfd2a6716f14202bb9941feda0a8", "lat": 38.90148466666667, "fusion_lon": 0.0, "fusion_lat": 0.0, "type": "electric_scooter", "name": "44f9bfd2a6716f14202bb9941feda0a8", "is_disabled": 0, "rental_uris": {"ios": "https://dc.lft.to/lastmile_qr_scan", "android": "https://dc.lft.to/lastmile_qr_scan"}, "is_reserved": 0}, {"lon": -77.03429116666666, "bike_id": "cf734f9a8f57873a1758f33b54965ec7", "lat": 38.902384, "fusion_lon": 0.0, "fusion_lat": 0.0, "type": "electric_scooter", "name": "cf734f9a8f57873a1758f33b54965ec7", "is_disabled": 0, "rental_uris": {"ios": "https://dc.lft.to/lastmile_qr_scan", "android": "https://dc.lft.to/lastmile_qr_scan"}, "is_reserved": 0}, {"lon": -77.01103616666667, "bike_id": "aaf0d2dedb42c46bb5c4c99c4b81e082", "lat": 38.90365033333333, "fusion_lon": 0.0, "fusion_lat": 0.0, "type": "electric_scooter", "name": "aaf0d2dedb42c46bb5c4c99c4b81e082", "is_disabled": 0, "rental_uris": {"ios": "https://dc.lft.to/lastmile_qr_scan", "android": "https://dc.lft.to/lastmile_qr_scan"}, "is_reserved": 0}, {"lon": -77.04381933333333, "bike_id": "b9fd8530a425854f8c2238f59ba618a4", "lat": 38.91875316666667, "fusion_lon": 0.0, "fusion_lat": 0.0, "type": "electric_scooter", "name": "b9fd8530a425854f8c2238f59ba618a4", "is_disabled": 0, "rental_uris": {"ios": "https://dc.lft.to/lastmile_qr_scan", "android": "https://dc.lft.to/lastmile_qr_scan"}, "is_reserved": 0}, {"lon": -77.01847633333334, "bike_id": "5fa53b465fab9fa7116861634cdd9c93", "lat": 38.9125775, "fusion_lon": 0.0, "fusion_lat": 0.0, "type": "electric_scooter", "name": "5fa53b465fab9fa7116861634cdd9c93", "is_disabled": 0, "rental_uris": {"ios": "https://dc.lft.to/lastmile_qr_scan", "android": "https://dc.lft.to/lastmile_qr_scan"}, "is_reserved": 0}, {"lon": -76.98605433333333, "bike_id": "2f45c93da01b6ea7fc4deea992eee87f", "lat": 38.90622066666667, "fusion_lon": 0.0, "fusion_lat": 0.0, "type": "electric_bike", "name": "2f45c93da01b6ea7fc4deea992eee87f", "is_disabled": 0, "rental_uris": {"ios": "https://dc.lft.to/lastmile_qr_scan", "android": "https://dc.lft.to/lastmile_qr_scan"}, "is_reserved": 0}, {"lon": -77.04184, "bike_id": "82165d8235dec7334ac77b3b2dacd67f", "lat": 38.9111855, "fusion_lon": 0.0, "fusion_lat": 0.0, "type": "electric_scooter", "name": "82165d8235dec7334ac77b3b2dacd67f", "is_disabled": 0, "rental_uris": {"ios": "https://dc.lft.to/lastmile_qr_scan", "android": "https://dc.lft.to/lastmile_qr_scan"}, "is_reserved": 0}, {"lon": -77.03192583333333, "bike_id": "798a4c30420c046e645389a14e07d85d", "lat": 38.917441, "fusion_lon": 0.0, "fusion_lat": 0.0, "type": "electric_scooter", "name": "798a4c30420c046e645389a14e07d85d", "is_disabled": 0, "rental_uris": {"ios": "https://dc.lft.to/lastmile_qr_scan", "android": "https://dc.lft.to/lastmile_qr_scan"}, "is_reserved": 0}, {"lon": -77.00063516666667, "bike_id": "450cc8189f92989679f4a87ac0b3cc0e", "lat": 38.899935, "fusion_lon": 0.0, "fusion_lat": 0.0, "type": "electric_scooter", "name": "450cc8189f92989679f4a87ac0b3cc0e", "is_disabled": 0, "rental_uris": {"ios": "https://dc.lft.to/lastmile_qr_scan", "android": "https://dc.lft.to/lastmile_qr_scan"}, "is_reserved": 0}, {"lon": -77.0239795, "bike_id": "888e9b48c56ce605671c80b33f4909eb", "lat": 38.920895, "fusion_lon": 0.0, "fusion_lat": 0.0, "type": "electric_scooter", "name": "888e9b48c56ce605671c80b33f4909eb", "is_disabled": 0, "rental_uris": {"ios": "https://dc.lft.to/lastmile_qr_scan", "android": "https://dc.lft.to/lastmile_qr_scan"}, "is_reserved": 0}, {"lon": -77.05427983333334, "bike_id": "21edf741de43dfc925743a9315558b38", "lat": 38.928593166666666, "fusion_lon": 0.0, "fusion_lat": 0.0, "type": "electric_scooter", "name": "21edf741de43dfc925743a9315558b38", "is_disabled": 0, "rental_uris": {"ios": "https://dc.lft.to/lastmile_qr_scan", "android": "https://dc.lft.to/lastmile_qr_scan"}, "is_reserved": 0}, {"lon": -77.0352115, "bike_id": "1688f49fc539350b52f0b273df7506bc", "lat": 38.92201133333333, "fusion_lon": 0.0, "fusion_lat": 0.0, "type": "electric_scooter", "name": "1688f49fc539350b52f0b273df7506bc", "is_disabled": 0, "rental_uris": {"ios": "https://dc.lft.to/lastmile_qr_scan", "android": "https://dc.lft.to/lastmile_qr_scan"}, "is_reserved": 0}, {"lon": -77.0745325, "bike_id": "a02b875004ea78bee1e0ba3d8cec4abc", "lat": 38.94510116666667, "fusion_lon": 0.0, "fusion_lat": 0.0, "type": "electric_scooter", "name": "a02b875004ea78bee1e0ba3d8cec4abc", "is_disabled": 0, "rental_uris": {"ios": "https://dc.lft.to/lastmile_qr_scan", "android": "https://dc.lft.to/lastmile_qr_scan"}, "is_reserved": 0}, {"lon": -77.03438383333334, "bike_id": "15a308cf1cec6d86e8280de148340fab", "lat": 38.9097885, "fusion_lon": 0.0, "fusion_lat": 0.0, "type": "electric_scooter", "name": "15a308cf1cec6d86e8280de148340fab", "is_disabled": 0, "rental_uris": {"ios": "https://dc.lft.to/lastmile_qr_scan", "android": "https://dc.lft.to/lastmile_qr_scan"}, "is_reserved": 0}, {"lon": -76.99934, "bike_id": "083670c56732ff1fdf7f35d1b0047648", "lat": 38.84316366666667, "fusion_lon": 0.0, "fusion_lat": 0.0, "type": "electric_scooter", "name": "083670c56732ff1fdf7f35d1b0047648", "is_disabled": 0, "rental_uris": {"ios": "https://dc.lft.to/lastmile_qr_scan", "android": "https://dc.lft.to/lastmile_qr_scan"}, "is_reserved": 0}, {"lon": -77.02703416666667, "bike_id": "76aee6eb294992d20b9d28f946b3f3ce", "lat": 38.90673316666667, "fusion_lon": 0.0, "fusion_lat": 0.0, "type": "electric_scooter", "name": "76aee6eb294992d20b9d28f946b3f3ce", "is_disabled": 0, "rental_uris": {"ios": "https://dc.lft.to/lastmile_qr_scan", "android": "https://dc.lft.to/lastmile_qr_scan"}, "is_reserved": 0}, {"lon": -77.01743083333334, "bike_id": "0ffe11e8b5c8b5c2f288aaef374588de", "lat": 38.94205483333333, "fusion_lon": 0.0, "fusion_lat": 0.0, "type": "electric_scooter", "name": "0ffe11e8b5c8b5c2f288aaef374588de", "is_disabled": 0, "rental_uris": {"ios": "https://dc.lft.to/lastmile_qr_scan", "android": "https://dc.lft.to/lastmile_qr_scan"}, "is_reserved": 0}, {"lon": -77.02852383333334, "bike_id": "12d1e9d243d3f2470d80c01805d212af", "lat": 38.887496, "fusion_lon": 0.0, "fusion_lat": 0.0, "type": "electric_scooter", "name": "12d1e9d243d3f2470d80c01805d212af", "is_disabled": 0, "rental_uris": {"ios": "https://dc.lft.to/lastmile_qr_scan", "android": "https://dc.lft.to/lastmile_qr_scan"}, "is_reserved": 0}, {"lon": -77.02698433333333, "bike_id": "933e24f9a7e1b958a41280bcd524f7fe", "lat": 38.917775666666664, "fusion_lon": 0.0, "fusion_lat": 0.0, "type": "electric_scooter", "name": "933e24f9a7e1b958a41280bcd524f7fe", "is_disabled": 0, "rental_uris": {"ios": "https://dc.lft.to/lastmile_qr_scan", "android": "https://dc.lft.to/lastmile_qr_scan"}, "is_reserved": 0}, {"lon": -77.02148633333333, "bike_id": "d5f8c4c6b52eec163181144c78705005", "lat": 38.89702783333333, "fusion_lon": 0.0, "fusion_lat": 0.0, "type": "electric_scooter", "name": "d5f8c4c6b52eec163181144c78705005", "is_disabled": 0, "rental_uris": {"ios": "https://dc.lft.to/lastmile_qr_scan", "android": "https://dc.lft.to/lastmile_qr_scan"}, "is_reserved": 0}, {"lon": -77.0282185, "bike_id": "98d98360e94ca6edf04102dda4ff32d2", "lat": 38.89517983333333, "fusion_lon": 0.0, "fusion_lat": 0.0, "type": "electric_scooter", "name": "98d98360e94ca6edf04102dda4ff32d2", "is_disabled": 0, "rental_uris": {"ios": "https://dc.lft.to/lastmile_qr_scan", "android": "https://dc.lft.to/lastmile_qr_scan"}, "is_reserved": 0}, {"lon": -77.02227633333334, "bike_id": "a3599165a04ef2450bf7ccd50197f8f3", "lat": 38.96206133333333, "fusion_lon": 0.0, "fusion_lat": 0.0, "type": "electric_scooter", "name": "a3599165a04ef2450bf7ccd50197f8f3", "is_disabled": 0, "rental_uris": {"ios": "https://dc.lft.to/lastmile_qr_scan", "android": "https://dc.lft.to/lastmile_qr_scan"}, "is_reserved": 0}, {"lon": -77.02952183333333, "bike_id": "0faa8ee1249f6041b1a8bcbad13e7284", "lat": 38.90644416666667, "fusion_lon": 0.0, "fusion_lat": 0.0, "type": "electric_scooter", "name": "0faa8ee1249f6041b1a8bcbad13e7284", "is_disabled": 0, "rental_uris": {"ios": "https://dc.lft.to/lastmile_qr_scan", "android": "https://dc.lft.to/lastmile_qr_scan"}, "is_reserved": 0}, {"lon": -76.99226483333334, "bike_id": "ed462ca8ad3b2163a3975691f8d4a6c1", "lat": 38.92211116666667, "fusion_lon": 0.0, "fusion_lat": 0.0, "type": "electric_scooter", "name": "ed462ca8ad3b2163a3975691f8d4a6c1", "is_disabled": 0, "rental_uris": {"ios": "https://dc.lft.to/lastmile_qr_scan", "android": "https://dc.lft.to/lastmile_qr_scan"}, "is_reserved": 0}, {"lon": -77.03846633333333, "bike_id": "7bfa241914847a413ef92f245143f5f7", "lat": 38.903626, "fusion_lon": 0.0, "fusion_lat": 0.0, "type": "electric_scooter", "name": "7bfa241914847a413ef92f245143f5f7", "is_disabled": 0, "rental_uris": {"ios": "https://dc.lft.to/lastmile_qr_scan", "android": "https://dc.lft.to/lastmile_qr_scan"}, "is_reserved": 0}, {"lon": -77.04480233333334, "bike_id": "d541cb1f66c2abf149517ea8860f5997", "lat": 38.904325666666665, "fusion_lon": 0.0, "fusion_lat": 0.0, "type": "electric_scooter", "name": "d541cb1f66c2abf149517ea8860f5997", "is_disabled": 0, "rental_uris": {"ios": "https://dc.lft.to/lastmile_qr_scan", "android": "https://dc.lft.to/lastmile_qr_scan"}, "is_reserved": 0}, {"lon": -77.048749, "bike_id": "7b6b162ff2b2bf8a563f68ad5a7e4b7b", "lat": 38.89234166666667, "fusion_lon": 0.0, "fusion_lat": 0.0, "type": "electric_scooter", "name": "7b6b162ff2b2bf8a563f68ad5a7e4b7b", "is_disabled": 0, "rental_uris": {"ios": "https://dc.lft.to/lastmile_qr_scan", "android": "https://dc.lft.to/lastmile_qr_scan"}, "is_reserved": 0}, {"lon": -77.03423666666667, "bike_id": "f0926c8e077be42b0b0c790146f7eaf7", "lat": 38.90241966666667, "fusion_lon": 0.0, "fusion_lat": 0.0, "type": "electric_scooter", "name": "f0926c8e077be42b0b0c790146f7eaf7", "is_disabled": 0, "rental_uris": {"ios": "https://dc.lft.to/lastmile_qr_scan", "android": "https://dc.lft.to/lastmile_qr_scan"}, "is_reserved": 0}, {"lon": -77.03863116666666, "bike_id": "ee4a99acd4a8fe1231798538c628b2e0", "lat": 38.94502333333333, "fusion_lon": 0.0, "fusion_lat": 0.0, "type": "electric_scooter", "name": "ee4a99acd4a8fe1231798538c628b2e0", "is_disabled": 0, "rental_uris": {"ios": "https://dc.lft.to/lastmile_qr_scan", "android": "https://dc.lft.to/lastmile_qr_scan"}, "is_reserved": 0}, {"lon": -76.93532516666667, "bike_id": "f2dd7f21b53b3c176850b2caa80d65d7", "lat": 38.8968295, "fusion_lon": 0.0, "fusion_lat": 0.0, "type": "electric_scooter", "name": "f2dd7f21b53b3c176850b2caa80d65d7", "is_disabled": 0, "rental_uris": {"ios": "https://dc.lft.to/lastmile_qr_scan", "android": "https://dc.lft.to/lastmile_qr_scan"}, "is_reserved": 0}, {"lon": -76.980997, "bike_id": "e441dd0ea8ccf1bb5c2e4d20d0c825cb", "lat": 38.895507, "fusion_lon": 0.0, "fusion_lat": 0.0, "type": "electric_scooter", "name": "e441dd0ea8ccf1bb5c2e4d20d0c825cb", "is_disabled": 0, "rental_uris": {"ios": "https://dc.lft.to/lastmile_qr_scan", "android": "https://dc.lft.to/lastmile_qr_scan"}, "is_reserved": 0}, {"lon": -77.02713266666666, "bike_id": "92b3fab595cba09eba155a220e628d69", "lat": 38.924665, "fusion_lon": 0.0, "fusion_lat": 0.0, "type": "electric_scooter", "name": "92b3fab595cba09eba155a220e628d69", "is_disabled": 0, "rental_uris": {"ios": "https://dc.lft.to/lastmile_qr_scan", "android": "https://dc.lft.to/lastmile_qr_scan"}, "is_reserved": 0}, {"lon": -77.0081285, "bike_id": "7178e8a9475072854f1f942abe9998c4", "lat": 38.905626833333336, "fusion_lon": 0.0, "fusion_lat": 0.0, "type": "electric_scooter", "name": "7178e8a9475072854f1f942abe9998c4", "is_disabled": 0, "rental_uris": {"ios": "https://dc.lft.to/lastmile_qr_scan", "android": "https://dc.lft.to/lastmile_qr_scan"}, "is_reserved": 0}, {"lon": -76.961535, "bike_id": "acb448fe547de65dc1927e25ce001dc9", "lat": 38.883563333333335, "fusion_lon": 0.0, "fusion_lat": 0.0, "type": "electric_scooter", "name": "acb448fe547de65dc1927e25ce001dc9", "is_disabled": 0, "rental_uris": {"ios": "https://dc.lft.to/lastmile_qr_scan", "android": "https://dc.lft.to/lastmile_qr_scan"}, "is_reserved": 0}, {"lon": -76.96785216666666, "bike_id": "ef5eab68254e2e774bfae85036f997e8", "lat": 38.868424833333336, "fusion_lon": 0.0, "fusion_lat": 0.0, "type": "electric_scooter", "name": "ef5eab68254e2e774bfae85036f997e8", "is_disabled": 0, "rental_uris": {"ios": "https://dc.lft.to/lastmile_qr_scan", "android": "https://dc.lft.to/lastmile_qr_scan"}, "is_reserved": 0}, {"lon": -76.99050316666667, "bike_id": "6ef3bab5cb5b7f81ee860e2e71b7e124", "lat": 38.8876195, "fusion_lon": 0.0, "fusion_lat": 0.0, "type": "electric_scooter", "name": "6ef3bab5cb5b7f81ee860e2e71b7e124", "is_disabled": 0, "rental_uris": {"ios": "https://dc.lft.to/lastmile_qr_scan", "android": "https://dc.lft.to/lastmile_qr_scan"}, "is_reserved": 0}, {"lon": -77.026252, "bike_id": "d2976ae9e5904a90fa724a3f99eebd7f", "lat": 38.91711083333333, "fusion_lon": 0.0, "fusion_lat": 0.0, "type": "electric_scooter", "name": "d2976ae9e5904a90fa724a3f99eebd7f", "is_disabled": 0, "rental_uris": {"ios": "https://dc.lft.to/lastmile_qr_scan", "android": "https://dc.lft.to/lastmile_qr_scan"}, "is_reserved": 0}, {"lon": -77.02873566666666, "bike_id": "55efaf943820d8349f4db1d179548cdf", "lat": 38.898408333333336, "fusion_lon": 0.0, "fusion_lat": 0.0, "type": "electric_scooter", "name": "55efaf943820d8349f4db1d179548cdf", "is_disabled": 0, "rental_uris": {"ios": "https://dc.lft.to/lastmile_qr_scan", "android": "https://dc.lft.to/lastmile_qr_scan"}, "is_reserved": 0}, {"lon": -77.00220916666666, "bike_id": "77f807486affb71dc06cdeb50d293738", "lat": 38.900273166666665, "fusion_lon": 0.0, "fusion_lat": 0.0, "type": "electric_scooter", "name": "77f807486affb71dc06cdeb50d293738", "is_disabled": 0, "rental_uris": {"ios": "https://dc.lft.to/lastmile_qr_scan", "android": "https://dc.lft.to/lastmile_qr_scan"}, "is_reserved": 0}, {"lon": -77.03344733333333, "bike_id": "7a770a19cc9d166281eac6b71387ba46", "lat": 38.907176166666666, "fusion_lon": 0.0, "fusion_lat": 0.0, "type": "electric_scooter", "name": "7a770a19cc9d166281eac6b71387ba46", "is_disabled": 0, "rental_uris": {"ios": "https://dc.lft.to/lastmile_qr_scan", "android": "https://dc.lft.to/lastmile_qr_scan"}, "is_reserved": 0}, {"lon": -77.03174133333333, "bike_id": "0c863b372fb3319b5905cffd29836023", "lat": 38.90292483333333, "fusion_lon": 0.0, "fusion_lat": 0.0, "type": "electric_scooter", "name": "0c863b372fb3319b5905cffd29836023", "is_disabled": 0, "rental_uris": {"ios": "https://dc.lft.to/lastmile_qr_scan", "android": "https://dc.lft.to/lastmile_qr_scan"}, "is_reserved": 0}, {"lon": -76.9742765, "bike_id": "ce0fbb80b1b986f7c232a9297d6b5cdf", "lat": 38.903997, "fusion_lon": 0.0, "fusion_lat": 0.0, "type": "electric_scooter", "name": "ce0fbb80b1b986f7c232a9297d6b5cdf", "is_disabled": 0, "rental_uris": {"ios": "https://dc.lft.to/lastmile_qr_scan", "android": "https://dc.lft.to/lastmile_qr_scan"}, "is_reserved": 0}, {"lon": -77.03218216666667, "bike_id": "f11c50058d0104ee45ec90ad19b30485", "lat": 38.89221933333334, "fusion_lon": 0.0, "fusion_lat": 0.0, "type": "electric_scooter", "name": "f11c50058d0104ee45ec90ad19b30485", "is_disabled": 0, "rental_uris": {"ios": "https://dc.lft.to/lastmile_qr_scan", "android": "https://dc.lft.to/lastmile_qr_scan"}, "is_reserved": 0}, {"lon": -77.10806416666667, "bike_id": "70f535db1caccdb046e6436942d36d50", "lat": 38.812030666666665, "fusion_lon": 0.0, "fusion_lat": 0.0, "type": "electric_bike", "name": "70f535db1caccdb046e6436942d36d50", "is_disabled": 0, "rental_uris": {"ios": "https://dc.lft.to/lastmile_qr_scan", "android": "https://dc.lft.to/lastmile_qr_scan"}, "is_reserved": 0}, {"lon": -77.04173316666666, "bike_id": "66bd88abcd1e1d006d8bc8a5c788527c", "lat": 38.905431166666666, "fusion_lon": 0.0, "fusion_lat": 0.0, "type": "electric_scooter", "name": "66bd88abcd1e1d006d8bc8a5c788527c", "is_disabled": 0, "rental_uris": {"ios": "https://dc.lft.to/lastmile_qr_scan", "android": "https://dc.lft.to/lastmile_qr_scan"}, "is_reserved": 0}, {"lon": -77.0151605, "bike_id": "be10788418d6936d7d82ee7d3e219f25", "lat": 38.88503166666667, "fusion_lon": 0.0, "fusion_lat": 0.0, "type": "electric_scooter", "name": "be10788418d6936d7d82ee7d3e219f25", "is_disabled": 0, "rental_uris": {"ios": "https://dc.lft.to/lastmile_qr_scan", "android": "https://dc.lft.to/lastmile_qr_scan"}, "is_reserved": 0}, {"lon": -77.035105, "bike_id": "23578c04ee1472223081f18344244323", "lat": 38.921529666666665, "fusion_lon": 0.0, "fusion_lat": 0.0, "type": "electric_scooter", "name": "23578c04ee1472223081f18344244323", "is_disabled": 0, "rental_uris": {"ios": "https://dc.lft.to/lastmile_qr_scan", "android": "https://dc.lft.to/lastmile_qr_scan"}, "is_reserved": 0}, {"lon": -77.0459175, "bike_id": "bc2a550e569e2e64c987d387c3903eab", "lat": 38.913547666666666, "fusion_lon": 0.0, "fusion_lat": 0.0, "type": "electric_scooter", "name": "bc2a550e569e2e64c987d387c3903eab", "is_disabled": 0, "rental_uris": {"ios": "https://dc.lft.to/lastmile_qr_scan", "android": "https://dc.lft.to/lastmile_qr_scan"}, "is_reserved": 0}, {"lon": -77.023937, "bike_id": "6425f2c0cd7a02d8864c3906feaa9846", "lat": 38.92086033333333, "fusion_lon": 0.0, "fusion_lat": 0.0, "type": "electric_scooter", "name": "6425f2c0cd7a02d8864c3906feaa9846", "is_disabled": 0, "rental_uris": {"ios": "https://dc.lft.to/lastmile_qr_scan", "android": "https://dc.lft.to/lastmile_qr_scan"}, "is_reserved": 0}, {"lon": -77.02179066666666, "bike_id": "71ae90ad9d4d85bc6ba157049d3e4716", "lat": 38.893573, "fusion_lon": 0.0, "fusion_lat": 0.0, "type": "electric_scooter", "name": "71ae90ad9d4d85bc6ba157049d3e4716", "is_disabled": 0, "rental_uris": {"ios": "https://dc.lft.to/lastmile_qr_scan", "android": "https://dc.lft.to/lastmile_qr_scan"}, "is_reserved": 0}, {"lon": -76.981949, "bike_id": "db500798cce06e1c0855d12293ccf00f", "lat": 38.8994485, "fusion_lon": 0.0, "fusion_lat": 0.0, "type": "electric_scooter", "name": "db500798cce06e1c0855d12293ccf00f", "is_disabled": 0, "rental_uris": {"ios": "https://dc.lft.to/lastmile_qr_scan", "android": "https://dc.lft.to/lastmile_qr_scan"}, "is_reserved": 0}, {"lon": -77.06359916666666, "bike_id": "29ec1d6fe5b61df4ac3d54232cee2f32", "lat": 38.908494166666664, "fusion_lon": 0.0, "fusion_lat": 0.0, "type": "electric_bike", "name": "29ec1d6fe5b61df4ac3d54232cee2f32", "is_disabled": 0, "rental_uris": {"ios": "https://dc.lft.to/lastmile_qr_scan", "android": "https://dc.lft.to/lastmile_qr_scan"}, "is_reserved": 0}, {"lon": -77.01951866666667, "bike_id": "7e707ce675684802b306747d252f83d7", "lat": 38.92251783333333, "fusion_lon": 0.0, "fusion_lat": 0.0, "type": "electric_scooter", "name": "7e707ce675684802b306747d252f83d7", "is_disabled": 0, "rental_uris": {"ios": "https://dc.lft.to/lastmile_qr_scan", "android": "https://dc.lft.to/lastmile_qr_scan"}, "is_reserved": 0}, {"lon": -77.027984, "bike_id": "5c60f238d0eeebe6f1e4ed1d71fdd43e", "lat": 38.929602833333334, "fusion_lon": 0.0, "fusion_lat": 0.0, "type": "electric_scooter", "name": "5c60f238d0eeebe6f1e4ed1d71fdd43e", "is_disabled": 0, "rental_uris": {"ios": "https://dc.lft.to/lastmile_qr_scan", "android": "https://dc.lft.to/lastmile_qr_scan"}, "is_reserved": 0}, {"lon": -76.982642, "bike_id": "ae75fe277bf2f7aa8a8701134035cc37", "lat": 38.908584833333336, "fusion_lon": 0.0, "fusion_lat": 0.0, "type": "electric_scooter", "name": "ae75fe277bf2f7aa8a8701134035cc37", "is_disabled": 0, "rental_uris": {"ios": "https://dc.lft.to/lastmile_qr_scan", "android": "https://dc.lft.to/lastmile_qr_scan"}, "is_reserved": 0}, {"lon": -77.02682483333334, "bike_id": "0657b8ddc6af71872a489276b19ee498", "lat": 38.90950083333333, "fusion_lon": 0.0, "fusion_lat": 0.0, "type": "electric_scooter", "name": "0657b8ddc6af71872a489276b19ee498", "is_disabled": 0, "rental_uris": {"ios": "https://dc.lft.to/lastmile_qr_scan", "android": "https://dc.lft.to/lastmile_qr_scan"}, "is_reserved": 0}, {"lon": -77.03842833333333, "bike_id": "1a463ff7c802d0cc098a7c8e76051b29", "lat": 38.916858166666664, "fusion_lon": 0.0, "fusion_lat": 0.0, "type": "electric_scooter", "name": "1a463ff7c802d0cc098a7c8e76051b29", "is_disabled": 0, "rental_uris": {"ios": "https://dc.lft.to/lastmile_qr_scan", "android": "https://dc.lft.to/lastmile_qr_scan"}, "is_reserved": 0}, {"lon": -76.979987, "bike_id": "c2810c72d24c56b7c004e9d3695622c4", "lat": 38.90679133333333, "fusion_lon": 0.0, "fusion_lat": 0.0, "type": "electric_scooter", "name": "c2810c72d24c56b7c004e9d3695622c4", "is_disabled": 0, "rental_uris": {"ios": "https://dc.lft.to/lastmile_qr_scan", "android": "https://dc.lft.to/lastmile_qr_scan"}, "is_reserved": 0}, {"lon": -77.03578, "bike_id": "dc8c886b80434702591400297538ea33", "lat": 38.93678216666667, "fusion_lon": 0.0, "fusion_lat": 0.0, "type": "electric_scooter", "name": "dc8c886b80434702591400297538ea33", "is_disabled": 0, "rental_uris": {"ios": "https://dc.lft.to/lastmile_qr_scan", "android": "https://dc.lft.to/lastmile_qr_scan"}, "is_reserved": 0}, {"lon": -76.98714216666667, "bike_id": "7ab64cacc1fe978214428707c035be1a", "lat": 38.86627466666667, "fusion_lon": 0.0, "fusion_lat": 0.0, "type": "electric_scooter", "name": "7ab64cacc1fe978214428707c035be1a", "is_disabled": 0, "rental_uris": {"ios": "https://dc.lft.to/lastmile_qr_scan", "android": "https://dc.lft.to/lastmile_qr_scan"}, "is_reserved": 0}, {"lon": -77.02723433333334, "bike_id": "e9967ec4656158dad9da0d336d306b57", "lat": 38.91336, "fusion_lon": 0.0, "fusion_lat": 0.0, "type": "electric_scooter", "name": "e9967ec4656158dad9da0d336d306b57", "is_disabled": 0, "rental_uris": {"ios": "https://dc.lft.to/lastmile_qr_scan", "android": "https://dc.lft.to/lastmile_qr_scan"}, "is_reserved": 0}, {"lon": -76.9518615, "bike_id": "8ed72f7f67a073c1955309a659365695", "lat": 38.907402833333336, "fusion_lon": 0.0, "fusion_lat": 0.0, "type": "electric_scooter", "name": "8ed72f7f67a073c1955309a659365695", "is_disabled": 0, "rental_uris": {"ios": "https://dc.lft.to/lastmile_qr_scan", "android": "https://dc.lft.to/lastmile_qr_scan"}, "is_reserved": 0}, {"lon": -77.02282333333333, "bike_id": "ac19e797e6d8a2a2e13f9c85e302b358", "lat": 38.909612333333335, "fusion_lon": 0.0, "fusion_lat": 0.0, "type": "electric_scooter", "name": "ac19e797e6d8a2a2e13f9c85e302b358", "is_disabled": 0, "rental_uris": {"ios": "https://dc.lft.to/lastmile_qr_scan", "android": "https://dc.lft.to/lastmile_qr_scan"}, "is_reserved": 0}, {"lon": -76.993726, "bike_id": "f34cfe36d535709e27cc2c0640d288d2", "lat": 38.92395483333333, "fusion_lon": 0.0, "fusion_lat": 0.0, "type": "electric_scooter", "name": "f34cfe36d535709e27cc2c0640d288d2", "is_disabled": 0, "rental_uris": {"ios": "https://dc.lft.to/lastmile_qr_scan", "android": "https://dc.lft.to/lastmile_qr_scan"}, "is_reserved": 0}, {"lon": -77.029566, "bike_id": "e09f8af9a6ff86485d2cf7bdedf427b4", "lat": 38.9049425, "fusion_lon": 0.0, "fusion_lat": 0.0, "type": "electric_scooter", "name": "e09f8af9a6ff86485d2cf7bdedf427b4", "is_disabled": 0, "rental_uris": {"ios": "https://dc.lft.to/lastmile_qr_scan", "android": "https://dc.lft.to/lastmile_qr_scan"}, "is_reserved": 0}, {"lon": -77.03405333333333, "bike_id": "a0e9317658c55f744a7ef7645131387b", "lat": 38.905514, "fusion_lon": 0.0, "fusion_lat": 0.0, "type": "electric_scooter", "name": "a0e9317658c55f744a7ef7645131387b", "is_disabled": 0, "rental_uris": {"ios": "https://dc.lft.to/lastmile_qr_scan", "android": "https://dc.lft.to/lastmile_qr_scan"}, "is_reserved": 0}, {"lon": -77.0332525, "bike_id": "9a4eba6d42bcbf0232e013c0abb7ef6f", "lat": 38.93895333333333, "fusion_lon": 0.0, "fusion_lat": 0.0, "type": "electric_scooter", "name": "9a4eba6d42bcbf0232e013c0abb7ef6f", "is_disabled": 0, "rental_uris": {"ios": "https://dc.lft.to/lastmile_qr_scan", "android": "https://dc.lft.to/lastmile_qr_scan"}, "is_reserved": 0}, {"lon": -77.023032, "bike_id": "37f844ed6572df8815ba4cfb8348dbbe", "lat": 38.909163666666664, "fusion_lon": 0.0, "fusion_lat": 0.0, "type": "electric_bike", "name": "37f844ed6572df8815ba4cfb8348dbbe", "is_disabled": 0, "rental_uris": {"ios": "https://dc.lft.to/lastmile_qr_scan", "android": "https://dc.lft.to/lastmile_qr_scan"}, "is_reserved": 0}, {"lon": -77.032721, "bike_id": "9ec65ee783762d6a03fe2df9a3583f2c", "lat": 38.928458666666664, "fusion_lon": 0.0, "fusion_lat": 0.0, "type": "electric_scooter", "name": "9ec65ee783762d6a03fe2df9a3583f2c", "is_disabled": 0, "rental_uris": {"ios": "https://dc.lft.to/lastmile_qr_scan", "android": "https://dc.lft.to/lastmile_qr_scan"}, "is_reserved": 0}, {"lon": -77.021347, "bike_id": "5e277d45ae00035ec32d92352f2b3bce", "lat": 38.91546366666667, "fusion_lon": 0.0, "fusion_lat": 0.0, "type": "electric_scooter", "name": "5e277d45ae00035ec32d92352f2b3bce", "is_disabled": 0, "rental_uris": {"ios": "https://dc.lft.to/lastmile_qr_scan", "android": "https://dc.lft.to/lastmile_qr_scan"}, "is_reserved": 0}, {"lon": -77.04489416666667, "bike_id": "51f75509e7b02d784f26c41d22183189", "lat": 38.919313333333335, "fusion_lon": 0.0, "fusion_lat": 0.0, "type": "electric_scooter", "name": "51f75509e7b02d784f26c41d22183189", "is_disabled": 0, "rental_uris": {"ios": "https://dc.lft.to/lastmile_qr_scan", "android": "https://dc.lft.to/lastmile_qr_scan"}, "is_reserved": 0}, {"lon": -77.04656116666666, "bike_id": "5d963aa785301b364323c03b009917ad", "lat": 38.913635, "fusion_lon": 0.0, "fusion_lat": 0.0, "type": "electric_scooter", "name": "5d963aa785301b364323c03b009917ad", "is_disabled": 0, "rental_uris": {"ios": "https://dc.lft.to/lastmile_qr_scan", "android": "https://dc.lft.to/lastmile_qr_scan"}, "is_reserved": 0}, {"lon": -77.052014, "bike_id": "a7c4815c63a617d05cab4a3dbcbb7ed4", "lat": 38.899575666666664, "fusion_lon": 0.0, "fusion_lat": 0.0, "type": "electric_scooter", "name": "a7c4815c63a617d05cab4a3dbcbb7ed4", "is_disabled": 0, "rental_uris": {"ios": "https://dc.lft.to/lastmile_qr_scan", "android": "https://dc.lft.to/lastmile_qr_scan"}, "is_reserved": 0}, {"lon": -77.044812, "bike_id": "6b7859d11f0d7403c530cad77a4d46ec", "lat": 38.92426566666666, "fusion_lon": 0.0, "fusion_lat": 0.0, "type": "electric_scooter", "name": "6b7859d11f0d7403c530cad77a4d46ec", "is_disabled": 0, "rental_uris": {"ios": "https://dc.lft.to/lastmile_qr_scan", "android": "https://dc.lft.to/lastmile_qr_scan"}, "is_reserved": 0}, {"lon": -77.03239866666667, "bike_id": "2b447226c9e2bd45ee074e8d94c039c6", "lat": 38.91488366666667, "fusion_lon": 0.0, "fusion_lat": 0.0, "type": "electric_scooter", "name": "2b447226c9e2bd45ee074e8d94c039c6", "is_disabled": 0, "rental_uris": {"ios": "https://dc.lft.to/lastmile_qr_scan", "android": "https://dc.lft.to/lastmile_qr_scan"}, "is_reserved": 0}, {"lon": -77.02747333333333, "bike_id": "51f6b7b34bdfbae8d3f5ea01a2c73c2c", "lat": 38.94182033333333, "fusion_lon": 0.0, "fusion_lat": 0.0, "type": "electric_scooter", "name": "51f6b7b34bdfbae8d3f5ea01a2c73c2c", "is_disabled": 0, "rental_uris": {"ios": "https://dc.lft.to/lastmile_qr_scan", "android": "https://dc.lft.to/lastmile_qr_scan"}, "is_reserved": 0}, {"lon": -77.03183933333334, "bike_id": "78e37fb6d4d2b6d640240c3acafcbcfb", "lat": 38.899604833333335, "fusion_lon": 0.0, "fusion_lat": 0.0, "type": "electric_scooter", "name": "78e37fb6d4d2b6d640240c3acafcbcfb", "is_disabled": 0, "rental_uris": {"ios": "https://dc.lft.to/lastmile_qr_scan", "android": "https://dc.lft.to/lastmile_qr_scan"}, "is_reserved": 0}, {"lon": -77.00206133333333, "bike_id": "7d2cb3e3e846f842aaf341b435be75e3", "lat": 38.90241983333333, "fusion_lon": 0.0, "fusion_lat": 0.0, "type": "electric_scooter", "name": "7d2cb3e3e846f842aaf341b435be75e3", "is_disabled": 0, "rental_uris": {"ios": "https://dc.lft.to/lastmile_qr_scan", "android": "https://dc.lft.to/lastmile_qr_scan"}, "is_reserved": 0}, {"lon": -77.02496983333333, "bike_id": "015b1355c04a279ec4194de991fedf14", "lat": 38.920708166666664, "fusion_lon": 0.0, "fusion_lat": 0.0, "type": "electric_scooter", "name": "015b1355c04a279ec4194de991fedf14", "is_disabled": 0, "rental_uris": {"ios": "https://dc.lft.to/lastmile_qr_scan", "android": "https://dc.lft.to/lastmile_qr_scan"}, "is_reserved": 0}, {"lon": -76.98405333333334, "bike_id": "d606bf5a785a78e9f9cc1eb791df1545", "lat": 38.9063355, "fusion_lon": 0.0, "fusion_lat": 0.0, "type": "electric_scooter", "name": "d606bf5a785a78e9f9cc1eb791df1545", "is_disabled": 0, "rental_uris": {"ios": "https://dc.lft.to/lastmile_qr_scan", "android": "https://dc.lft.to/lastmile_qr_scan"}, "is_reserved": 0}, {"lon": -77.04033583333333, "bike_id": "750dfb9aa6799452ec454791631a7486", "lat": 38.903901, "fusion_lon": 0.0, "fusion_lat": 0.0, "type": "electric_scooter", "name": "750dfb9aa6799452ec454791631a7486", "is_disabled": 0, "rental_uris": {"ios": "https://dc.lft.to/lastmile_qr_scan", "android": "https://dc.lft.to/lastmile_qr_scan"}, "is_reserved": 0}, {"lon": -76.98771416666666, "bike_id": "2f25a1cbc7e5307396b46bea0eb6b89d", "lat": 38.8660935, "fusion_lon": 0.0, "fusion_lat": 0.0, "type": "electric_bike", "name": "2f25a1cbc7e5307396b46bea0eb6b89d", "is_disabled": 0, "rental_uris": {"ios": "https://dc.lft.to/lastmile_qr_scan", "android": "https://dc.lft.to/lastmile_qr_scan"}, "is_reserved": 0}, {"lon": -77.03768683333334, "bike_id": "9ce0e53bf6267fc2765030ab8f8e7885", "lat": 38.9296925, "fusion_lon": 0.0, "fusion_lat": 0.0, "type": "electric_scooter", "name": "9ce0e53bf6267fc2765030ab8f8e7885", "is_disabled": 0, "rental_uris": {"ios": "https://dc.lft.to/lastmile_qr_scan", "android": "https://dc.lft.to/lastmile_qr_scan"}, "is_reserved": 0}, {"lon": -76.989374, "bike_id": "11d859c534cc5cf99b756c7577bddf63", "lat": 38.91835283333333, "fusion_lon": 0.0, "fusion_lat": 0.0, "type": "electric_scooter", "name": "11d859c534cc5cf99b756c7577bddf63", "is_disabled": 0, "rental_uris": {"ios": "https://dc.lft.to/lastmile_qr_scan", "android": "https://dc.lft.to/lastmile_qr_scan"}, "is_reserved": 0}, {"lon": -77.0299255, "bike_id": "b784c118c7b1e55cd8460c7952796531", "lat": 38.912531666666666, "fusion_lon": 0.0, "fusion_lat": 0.0, "type": "electric_scooter", "name": "b784c118c7b1e55cd8460c7952796531", "is_disabled": 0, "rental_uris": {"ios": "https://dc.lft.to/lastmile_qr_scan", "android": "https://dc.lft.to/lastmile_qr_scan"}, "is_reserved": 0}, {"lon": -77.03700916666666, "bike_id": "bf5c736f1318d9d41b0ba89287302399", "lat": 38.93523016666666, "fusion_lon": 0.0, "fusion_lat": 0.0, "type": "electric_scooter", "name": "bf5c736f1318d9d41b0ba89287302399", "is_disabled": 0, "rental_uris": {"ios": "https://dc.lft.to/lastmile_qr_scan", "android": "https://dc.lft.to/lastmile_qr_scan"}, "is_reserved": 0}, {"lon": -77.02565966666667, "bike_id": "0975322531612371355536ab28959008", "lat": 38.91339516666667, "fusion_lon": 0.0, "fusion_lat": 0.0, "type": "electric_scooter", "name": "0975322531612371355536ab28959008", "is_disabled": 0, "rental_uris": {"ios": "https://dc.lft.to/lastmile_qr_scan", "android": "https://dc.lft.to/lastmile_qr_scan"}, "is_reserved": 0}, {"lon": -77.026902, "bike_id": "b3b2f127db328d44a03089c5240a08bb", "lat": 38.90674883333333, "fusion_lon": 0.0, "fusion_lat": 0.0, "type": "electric_scooter", "name": "b3b2f127db328d44a03089c5240a08bb", "is_disabled": 0, "rental_uris": {"ios": "https://dc.lft.to/lastmile_qr_scan", "android": "https://dc.lft.to/lastmile_qr_scan"}, "is_reserved": 0}, {"lon": -77.03262716666667, "bike_id": "9f7273f2fb7aa3dd7d41217d750b7544", "lat": 38.932579, "fusion_lon": 0.0, "fusion_lat": 0.0, "type": "electric_scooter", "name": "9f7273f2fb7aa3dd7d41217d750b7544", "is_disabled": 0, "rental_uris": {"ios": "https://dc.lft.to/lastmile_qr_scan", "android": "https://dc.lft.to/lastmile_qr_scan"}, "is_reserved": 0}, {"lon": -77.01893983333333, "bike_id": "6c7323bbc1f216665ee442a3e6811b63", "lat": 38.87466533333333, "fusion_lon": 0.0, "fusion_lat": 0.0, "type": "electric_scooter", "name": "6c7323bbc1f216665ee442a3e6811b63", "is_disabled": 0, "rental_uris": {"ios": "https://dc.lft.to/lastmile_qr_scan", "android": "https://dc.lft.to/lastmile_qr_scan"}, "is_reserved": 0}, {"lon": -77.0371585, "bike_id": "fe81ec3fe735eb018487efa6c8a8d496", "lat": 38.914832, "fusion_lon": 0.0, "fusion_lat": 0.0, "type": "electric_scooter", "name": "fe81ec3fe735eb018487efa6c8a8d496", "is_disabled": 0, "rental_uris": {"ios": "https://dc.lft.to/lastmile_qr_scan", "android": "https://dc.lft.to/lastmile_qr_scan"}, "is_reserved": 0}, {"lon": -77.034294, "bike_id": "1557c90ccc8f9bab0c2eacbedbdfefbb", "lat": 38.9097885, "fusion_lon": 0.0, "fusion_lat": 0.0, "type": "electric_scooter", "name": "1557c90ccc8f9bab0c2eacbedbdfefbb", "is_disabled": 0, "rental_uris": {"ios": "https://dc.lft.to/lastmile_qr_scan", "android": "https://dc.lft.to/lastmile_qr_scan"}, "is_reserved": 0},