{"data": {"bikes": [{"fusion_lat": 0.0, "name": "e07fd6148a2a23d3b2f634c3be26b4b7", "is_disabled": 0, "rental_uris": {"android": "https://dc.lft.to/lastmile_qr_scan", "ios": "https://dc.lft.to/lastmile_qr_scan"}, "fusion_lon": 0.0, "lat": 38.90974333333333, "bike_id": "e07fd6148a2a23d3b2f634c3be26b4b7", "type": "electric_scooter", "is_reserved": 0, "lon": -77.03186733333334}, {"fusion_lat": 0.0, "name": "9c7772620cf40a62008a6e504c38db0a", "is_disabled": 0, "rental_uris": {"android": "https://dc.lft.to/lastmile_qr_scan", "ios": "https://dc.lft.to/lastmile_qr_scan"}, "fusion_lon": 0.0, "lat": 38.92530383333333, "bike_id": "9c7772620cf40a62008a6e504c38db0a", "type": "electric_scooter", "is_reserved": 0, "lon": -77.0348865}, {"fusion_lat": 0.0, "name": "afebfa631877662803b1c71c1fabae57", "is_disabled": 0, "rental_uris": {"android": "https://dc.lft.to/lastmile_qr_scan", "ios": "https://dc.lft.to/lastmile_qr_scan"}, "fusion_lon": 0.0, "lat": 38.90251383333333, "bike_id": "afebfa631877662803b1c71c1fabae57", "type": "electric_scooter", "is_reserved": 0, "lon": -77.01712566666667}, {"fusion_lat": 0.0, "name": "9b4572710bf2375094166205d5153d66", "is_disabled": 0, "rental_uris": {"android": "https://dc.lft.to/lastmile_qr_scan", "ios": "https://dc.lft.to/lastmile_qr_scan"}, "fusion_lon": 0.0, "lat": 38.9120575, "bike_id": "9b4572710bf2375094166205d5153d66", "type": "electric_scooter", "is_reserved": 0, "lon": -77.03209416666667}, {"fusion_lat": 0.0, "name": "cf904f1b809c5bb1b54d9c784f0a7520", "is_disabled": 0, "rental_uris": {"android": "https://dc.lft.to/lastmile_qr_scan", "ios": "https://dc.lft.to/lastmile_qr_scan"}, "fusion_lon": 0.0, "lat": 38.92235733333333, "bike_id": "cf904f1b809c5bb1b54d9c784f0a7520", "type": "electric_scooter", "is_reserved": 0, "lon": -77.035197}, {"fusion_lat": 0.0, "name": "84f37deb3526b1847d93d64d9f420678", "is_disabled": 0, "rental_uris": {"android": "https://dc.lft.to/lastmile_qr_scan", "ios": "https://dc.lft.to/lastmile_qr_scan"}, "fusion_lon": 0.0, "lat": 38.93198733333333, "bike_id": "84f37deb3526b1847d93d64d9f420678", "type": "electric_scooter", "is_reserved": 0, "lon": -77.03649016666667}, {"fusion_lat": 0.0, "name": "4ba5edb109c2559de01351c9f27cd12a", "is_disabled": 0, "rental_uris": {"android": "https://dc.lft.to/lastmile_qr_scan", "ios": "https://dc.lft.to/lastmile_qr_scan"}, "fusion_lon": 0.0, "lat": 38.892217, "bike_id": "4ba5edb109c2559de01351c9f27cd12a", "type": "electric_scooter", "is_reserved": 0, "lon": -77.04865416666667}, {"fusion_lat": 0.0, "name": "4c18a48cacf74c5b64397462144bc9b7", "is_disabled": 0, "rental_uris": {"android": "https://dc.lft.to/lastmile_qr_scan", "ios": "https://dc.lft.to/lastmile_qr_scan"}, "fusion_lon": 0.0, "lat": 38.91705416666667, "bike_id": "4c18a48cacf74c5b64397462144bc9b7", "type": "electric_scooter", "is_reserved": 0, "lon": -77.04205566666667}, {"fusion_lat": 0.0, "name": "172e037477e1f14b29a4be1ec6fd2ee1", "is_disabled": 0, "rental_uris": {"android": "https://dc.lft.to/lastmile_qr_scan", "ios": "https://dc.lft.to/lastmile_qr_scan"}, "fusion_lon": 0.0, "lat": 38.8954605, "bike_id": "172e037477e1f14b29a4be1ec6fd2ee1", "type": "electric_scooter", "is_reserved": 0, "lon": -76.98337}, {"fusion_lat": 0.0, "name": "6924ba9a3603f53d5655028e38a19de5", "is_disabled": 0, "rental_uris": {"android": "https://dc.lft.to/lastmile_qr_scan", "ios": "https://dc.lft.to/lastmile_qr_scan"}, "fusion_lon": 0.0, "lat": 38.88706366666667, "bike_id": "6924ba9a3603f53d5655028e38a19de5", "type": "electric_scooter", "is_reserved": 0, "lon": -76.99673516666667}, {"fusion_lat": 0.0, "name": "5537e4fcd8b17f8741b709e58f0f61cb", "is_disabled": 0, "rental_uris": {"android": "https://dc.lft.to/lastmile_qr_scan", "ios": "https://dc.lft.to/lastmile_qr_scan"}, "fusion_lon": 0.0, "lat": 38.93443383333333, "bike_id": "5537e4fcd8b17f8741b709e58f0f61cb", "type": "electric_scooter", "is_reserved": 0, "lon": -77.03866316666667}, {"fusion_lat": 0.0, "name": "ff749a3ddacb509515fc5e3efb097a69", "is_disabled": 0, "rental_uris": {"android": "https://dc.lft.to/lastmile_qr_scan", "ios": "https://dc.lft.to/lastmile_qr_scan"}, "fusion_lon": 0.0, "lat": 38.90263133333333, "bike_id": "ff749a3ddacb509515fc5e3efb097a69", "type": "electric_scooter", "is_reserved": 0, "lon": -77.00328783333333}, {"fusion_lat": 0.0, "name": "9550cc7fa4798221cf70a558364ae52f", "is_disabled": 0, "rental_uris": {"android": "https://dc.lft.to/lastmile_qr_scan", "ios": "https://dc.lft.to/lastmile_qr_scan"}, "fusion_lon": 0.0, "lat": 38.9055185, "bike_id": "9550cc7fa4798221cf70a558364ae52f", "type": "electric_scooter", "is_reserved": 0, "lon": -77.00710783333334}, {"fusion_lat": 0.0, "name": "52df6236a9d3bd874e829940d6b2abd7", "is_disabled": 0, "rental_uris": {"android": "https://dc.lft.to/lastmile_qr_scan", "ios": "https://dc.lft.to/lastmile_qr_scan"}, "fusion_lon": 0.0, "lat": 38.88306466666667, "bike_id": "52df6236a9d3bd874e829940d6b2abd7", "type": "electric_scooter", "is_reserved": 0, "lon": -77.0138755}, {"fusion_lat": 0.0, "name": "fc1394bf7da8edbf01980ad372eeb6da", "is_disabled": 0, "rental_uris": {"android": "https://dc.lft.to/lastmile_qr_scan", "ios": "https://dc.lft.to/lastmile_qr_scan"}, "fusion_lon": 0.0, "lat": 38.89218366666667, "bike_id": "fc1394bf7da8edbf01980ad372eeb6da", "type": "electric_scooter", "is_reserved": 0, "lon": -77.03220766666666}, {"fusion_lat": 0.0, "name": "28311f3a6b01ffbbf7dffd7e80239fc0", "is_disabled": 0, "rental_uris": {"android": "https://dc.lft.to/lastmile_qr_scan", "ios": "https://dc.lft.to/lastmile_qr_scan"}, "fusion_lon": 0.0, "lat": 38.902739, "bike_id": "28311f3a6b01ffbbf7dffd7e80239fc0", "type": "electric_scooter", "is_reserved": 0, "lon": -77.03374383333333}, {"fusion_lat": 0.0, "name": "61bfd8054f6439b3fbd48a59f051a853", "is_disabled": 0, "rental_uris": {"android": "https://dc.lft.to/lastmile_qr_scan", "ios": "https://dc.lft.to/lastmile_qr_scan"}, "fusion_lon": 0.0, "lat": 38.92446666666667, "bike_id": "61bfd8054f6439b3fbd48a59f051a853", "type": "electric_scooter", "is_reserved": 0, "lon": -77.008771}, {"fusion_lat": 0.0, "name": "056b91dbe0125aa2bb31a7d6696ca65c", "is_disabled": 0, "rental_uris": {"android": "https://dc.lft.to/lastmile_qr_scan", "ios": "https://dc.lft.to/lastmile_qr_scan"}, "fusion_lon": 0.0, "lat": 38.88987633333333, "bike_id": "056b91dbe0125aa2bb31a7d6696ca65c", "type": "electric_scooter", "is_reserved": 0, "lon": -77.00338183333334}, {"fusion_lat": 0.0, "name": "4ad014291d6d920004d10f8751ab82e4", "is_disabled": 0, "rental_uris": {"android": "https://dc.lft.to/lastmile_qr_scan", "ios": "https://dc.lft.to/lastmile_qr_scan"}, "fusion_lon": 0.0, "lat": 38.9083305, "bike_id": "4ad014291d6d920004d10f8751ab82e4", "type": "electric_bike", "is_reserved": 0, "lon": -77.043424}, {"fusion_lat": 0.0, "name": "ed607fcadf933fbaaa2d59a2370b0ac9", "is_disabled": 0, "rental_uris": {"android": "https://dc.lft.to/lastmile_qr_scan", "ios": "https://dc.lft.to/lastmile_qr_scan"}, "fusion_lon": 0.0, "lat": 38.922432, "bike_id": "ed607fcadf933fbaaa2d59a2370b0ac9", "type": "electric_scooter", "is_reserved": 0, "lon": -77.03090083333333}, {"fusion_lat": 0.0, "name": "ae261a6c83cdc52a92c8dfd8d8f0a4f1", "is_disabled": 0, "rental_uris": {"android": "https://dc.lft.to/lastmile_qr_scan", "ios": "https://dc.lft.to/lastmile_qr_scan"}, "fusion_lon": 0.0, "lat": 38.907236, "bike_id": "ae261a6c83cdc52a92c8dfd8d8f0a4f1", "type": "electric_scooter", "is_reserved": 0, "lon": -77.02797333333334}, {"fusion_lat": 0.0, "name": "8a7c3bb191accfc3bb6990bd6e8532c2", "is_disabled": 0, "rental_uris": {"android": "https://dc.lft.to/lastmile_qr_scan", "ios": "https://dc.lft.to/lastmile_qr_scan"}, "fusion_lon": 0.0, "lat": 38.90622166666667, "bike_id": "8a7c3bb191accfc3bb6990bd6e8532c2", "type": "electric_scooter", "is_reserved": 0, "lon": -77.02526283333333}, {"fusion_lat": 0.0, "name": "0f89710f48ea2b6c1d3024953334f9ad", "is_disabled": 0, "rental_uris": {"android": "https://dc.lft.to/lastmile_qr_scan", "ios": "https://dc.lft.to/lastmile_qr_scan"}, "fusion_lon": 0.0, "lat": 38.9358755, "bike_id": "0f89710f48ea2b6c1d3024953334f9ad", "type": "electric_scooter", "is_reserved": 0, "lon": -77.03343383333333}, {"fusion_lat": 0.0, "name": "8477aa64287f45116b13bb51276abea7", "is_disabled": 0, "rental_uris": {"android": "https://dc.lft.to/lastmile_qr_scan", "ios": "https://dc.lft.to/lastmile_qr_scan"}, "fusion_lon": 0.0, "lat": 38.92284266666667, "bike_id": "8477aa64287f45116b13bb51276abea7", "type": "electric_scooter", "is_reserved": 0, "lon": -77.0233055}, {"fusion_lat": 0.0, "name": "23354d719ddf4ff40870fc170225100b", "is_disabled": 0, "rental_uris": {"android": "https://dc.lft.to/lastmile_qr_scan", "ios": "https://dc.lft.to/lastmile_qr_scan"}, "fusion_lon": 0.0, "lat": 38.887445666666665, "bike_id": "23354d719ddf4ff40870fc170225100b", "type": "electric_scooter", "is_reserved": 0, "lon": -77.02226366666666}, {"fusion_lat": 0.0, "name": "bb9959b6b0754dd9d9912e69a364a0f7", "is_disabled": 0, "rental_uris": {"android": "https://dc.lft.to/lastmile_qr_scan", "ios": "https://dc.lft.to/lastmile_qr_scan"}, "fusion_lon": 0.0, "lat": 38.9170925, "bike_id": "bb9959b6b0754dd9d9912e69a364a0f7", "type": "electric_scooter", "is_reserved": 0, "lon": -77.038692}, {"fusion_lat": 0.0, "name": "a29350347422f6333c3a97ec664b4ad5", "is_disabled": 0, "rental_uris": {"android": "https://dc.lft.to/lastmile_qr_scan", "ios": "https://dc.lft.to/lastmile_qr_scan"}, "fusion_lon": 0.0, "lat": 38.90533883333333, "bike_id": "a29350347422f6333c3a97ec664b4ad5", "type": "electric_bike", "is_reserved": 0, "lon": -77.059112}, {"fusion_lat": 0.0, "name": "9abd258a7772db9d62c223dc2a8383d3", "is_disabled": 0, "rental_uris": {"android": "https://dc.lft.to/lastmile_qr_scan", "ios": "https://dc.lft.to/lastmile_qr_scan"}, "fusion_lon": 0.0, "lat": 38.917062666666666, "bike_id": "9abd258a7772db9d62c223dc2a8383d3", "type": "electric_scooter", "is_reserved": 0, "lon": -77.03211233333333}, {"fusion_lat": 0.0, "name": "0671a86c3c9c37266ac08a25b4c0afba", "is_disabled": 0, "rental_uris": {"android": "https://dc.lft.to/lastmile_qr_scan", "ios": "https://dc.lft.to/lastmile_qr_scan"}, "fusion_lon": 0.0, "lat": 38.878235, "bike_id": "0671a86c3c9c37266ac08a25b4c0afba", "type": "electric_scooter", "is_reserved": 0, "lon": -77.00131216666666}, {"fusion_lat": 0.0, "name": "b97a7e11c1ec9db1e00bc816a99d4f1c", "is_disabled": 0, "rental_uris": {"android": "https://dc.lft.to/lastmile_qr_scan", "ios": "https://dc.lft.to/lastmile_qr_scan"}, "fusion_lon": 0.0, "lat": 38.9281155, "bike_id": "b97a7e11c1ec9db1e00bc816a99d4f1c", "type": "electric_scooter", "is_reserved": 0, "lon": -77.04361733333333}, {"fusion_lat": 0.0, "name": "90c47ebafc3e104879c9b4a834f2b3cc", "is_disabled": 0, "rental_uris": {"android": "https://dc.lft.to/lastmile_qr_scan", "ios": "https://dc.lft.to/lastmile_qr_scan"}, "fusion_lon": 0.0, "lat": 38.9192925, "bike_id": "90c47ebafc3e104879c9b4a834f2b3cc", "type": "electric_scooter", "is_reserved": 0, "lon": -77.03180916666666}, {"fusion_lat": 0.0, "name": "3272ee4387053ca2f8f495ae8b5be4cc", "is_disabled": 0, "rental_uris": {"android": "https://dc.lft.to/lastmile_qr_scan", "ios": "https://dc.lft.to/lastmile_qr_scan"}, "fusion_lon": 0.0, "lat": 38.84912283333333, "bike_id": "3272ee4387053ca2f8f495ae8b5be4cc", "type": "electric_bike", "is_reserved": 0, "lon": -77.0997995}, {"fusion_lat": 0.0, "name": "751aa32a7ae9543d2da4f5793646ef93", "is_disabled": 0, "rental_uris": {"android": "https://dc.lft.to/lastmile_qr_scan", "ios": "https://dc.lft.to/lastmile_qr_scan"}, "fusion_lon": 0.0, "lat": 38.90767066666667, "bike_id": "751aa32a7ae9543d2da4f5793646ef93", "type": "electric_scooter", "is_reserved": 0, "lon": -77.0357465}, {"fusion_lat": 0.0, "name": "dda99be6a0c503248576f87d145a04df", "is_disabled": 0, "rental_uris": {"android": "https://dc.lft.to/lastmile_qr_scan", "ios": "https://dc.lft.to/lastmile_qr_scan"}, "fusion_lon": 0.0, "lat": 38.914848, "bike_id": "dda99be6a0c503248576f87d145a04df", "type": "electric_scooter", "is_reserved": 0, "lon": -77.02191816666667}, {"fusion_lat": 0.0, "name": "909b5ceabbd733da89f3b075f3ed9763", "is_disabled": 0, "rental_uris": {"android": "https://dc.lft.to/lastmile_qr_scan", "ios": "https://dc.lft.to/lastmile_qr_scan"}, "fusion_lon": 0.0, "lat": 38.91771, "bike_id": "909b5ceabbd733da89f3b075f3ed9763", "type": "electric_scooter", "is_reserved": 0, "lon": -77.02302666666667}, {"fusion_lat": 0.0, "name": "4c3716e72ed8c305cc77811ad9307e28", "is_disabled": 0, "rental_uris": {"android": "https://dc.lft.to/lastmile_qr_scan", "ios": "https://dc.lft.to/lastmile_qr_scan"}, "fusion_lon": 0.0, "lat": 38.885835166666666, "bike_id": "4c3716e72ed8c305cc77811ad9307e28", "type": "electric_scooter", "is_reserved": 0, "lon": -76.99606283333334}, {"fusion_lat": 0.0, "name": "03eba131162f5ee4b8d53876fa2e16ae", "is_disabled": 0, "rental_uris": {"android": "https://dc.lft.to/lastmile_qr_scan", "ios": "https://dc.lft.to/lastmile_qr_scan"}, "fusion_lon": 0.0, "lat": 38.9121725, "bike_id": "03eba131162f5ee4b8d53876fa2e16ae", "type": "electric_scooter", "is_reserved": 0, "lon": -77.03186916666667}, {"fusion_lat": 0.0, "name": "2e694c5cd3a26303bdc0d044bc6d4b67", "is_disabled": 0, "rental_uris": {"android": "https://dc.lft.to/lastmile_qr_scan", "ios": "https://dc.lft.to/lastmile_qr_scan"}, "fusion_lon": 0.0, "lat": 38.916598666666665, "bike_id": "2e694c5cd3a26303bdc0d044bc6d4b67", "type": "electric_scooter", "is_reserved": 0, "lon": -77.0385185}, {"fusion_lat": 0.0, "name": "b6edb8ee5e7924a69ac47beb725eed8a", "is_disabled": 0, "rental_uris": {"android": "https://dc.lft.to/lastmile_qr_scan", "ios": "https://dc.lft.to/lastmile_qr_scan"}, "fusion_lon": 0.0, "lat": 38.865136166666666, "bike_id": "b6edb8ee5e7924a69ac47beb725eed8a", "type": "electric_bike", "is_reserved": 0, "lon": -76.9733235}, {"fusion_lat": 0.0, "name": "9e6327dec597f6cd2ae550b55ae1602d", "is_disabled": 0, "rental_uris": {"android": "https://dc.lft.to/lastmile_qr_scan", "ios": "https://dc.lft.to/lastmile_qr_scan"}, "fusion_lon": 0.0, "lat": 38.90722, "bike_id": "9e6327dec597f6cd2ae550b55ae1602d", "type": "electric_scooter", "is_reserved": 0, "lon": -77.04994616666667}, {"fusion_lat": 0.0, "name": "8dc0459de2f92b958b0b44a8db190dd8", "is_disabled": 0, "rental_uris": {"android": "https://dc.lft.to/lastmile_qr_scan", "ios": "https://dc.lft.to/lastmile_qr_scan"}, "fusion_lon": 0.0, "lat": 38.911009666666665, "bike_id": "8dc0459de2f92b958b0b44a8db190dd8", "type": "electric_scooter", "is_reserved": 0, "lon": -77.021981}, {"fusion_lat": 0.0, "name": "1a3b65f3852ce612ee9012dcafe81616", "is_disabled": 0, "rental_uris": {"android": "https://dc.lft.to/lastmile_qr_scan", "ios": "https://dc.lft.to/lastmile_qr_scan"}, "fusion_lon": 0.0, "lat": 38.918203, "bike_id": "1a3b65f3852ce612ee9012dcafe81616", "type": "electric_scooter", "is_reserved": 0, "lon": -77.03673316666666}, {"fusion_lat": 0.0, "name": "9c7db1be5582cf97985f2be6f1d6290c", "is_disabled": 0, "rental_uris": {"android": "https://dc.lft.to/lastmile_qr_scan", "ios": "https://dc.lft.to/lastmile_qr_scan"}, "fusion_lon": 0.0, "lat": 38.92561366666666, "bike_id": "9c7db1be5582cf97985f2be6f1d6290c", "type": "electric_scooter", "is_reserved": 0, "lon": -77.04375516666667}, {"fusion_lat": 0.0, "name": "428fd4a2695a4c30ac8297500f5dca2d", "is_disabled": 0, "rental_uris": {"android": "https://dc.lft.to/lastmile_qr_scan", "ios": "https://dc.lft.to/lastmile_qr_scan"}, "fusion_lon": 0.0, "lat": 38.89223483333333, "bike_id": "428fd4a2695a4c30ac8297500f5dca2d", "type": "electric_scooter", "is_reserved": 0, "lon": -77.046582}, {"fusion_lat": 0.0, "name": "de69e08c7a2e98b405be0d4d99f77cd3", "is_disabled": 0, "rental_uris": {"android": "https://dc.lft.to/lastmile_qr_scan", "ios": "https://dc.lft.to/lastmile_qr_scan"}, "fusion_lon": 0.0, "lat": 38.91327483333333, "bike_id": "de69e08c7a2e98b405be0d4d99f77cd3", "type": "electric_scooter", "is_reserved": 0, "lon": -77.03168316666667}, {"fusion_lat": 0.0, "name": "3275fd63a39b618803e74cedddaa4584", "is_disabled": 0, "rental_uris": {"android": "https://dc.lft.to/lastmile_qr_scan", "ios": "https://dc.lft.to/lastmile_qr_scan"}, "fusion_lon": 0.0, "lat": 38.80759583333333, "bike_id": "3275fd63a39b618803e74cedddaa4584", "type": "electric_bike", "is_reserved": 0, "lon": -77.09464233333334}, {"fusion_lat": 0.0, "name": "ee4c9fb206273305e48378b8618a00ac", "is_disabled": 0, "rental_uris": {"android": "https://dc.lft.to/lastmile_qr_scan", "ios": "https://dc.lft.to/lastmile_qr_scan"}, "fusion_lon": 0.0, "lat": 38.9040715, "bike_id": "ee4c9fb206273305e48378b8618a00ac", "type": "electric_scooter", "is_reserved": 0, "lon": -76.97332783333333}, {"fusion_lat": 0.0, "name": "483e0454fd3f3bf93c3f70088bb93a8b", "is_disabled": 0, "rental_uris": {"android": "https://dc.lft.to/lastmile_qr_scan", "ios": "https://dc.lft.to/lastmile_qr_scan"}, "fusion_lon": 0.0, "lat": 38.89547816666666, "bike_id": "483e0454fd3f3bf93c3f70088bb93a8b", "type": "electric_scooter", "is_reserved": 0, "lon": -77.0109545}, {"fusion_lat": 0.0, "name": "65ce6c79564195e96dddc83b81fe2764", "is_disabled": 0, "rental_uris": {"android": "https://dc.lft.to/lastmile_qr_scan", "ios": "https://dc.lft.to/lastmile_qr_scan"}, "fusion_lon": 0.0, "lat": 38.905821, "bike_id": "65ce6c79564195e96dddc83b81fe2764", "type": "electric_scooter", "is_reserved": 0, "lon": -77.04557783333334}, {"fusion_lat": 0.0, "name": "bd4afc60b9e9080b04c8a799da56dc0f", "is_disabled": 0, "rental_uris": {"android": "https://dc.lft.to/lastmile_qr_scan", "ios": "https://dc.lft.to/lastmile_qr_scan"}, "fusion_lon": 0.0, "lat": 38.997724, "bike_id": "bd4afc60b9e9080b04c8a799da56dc0f", "type": "electric_bike", "is_reserved": 0, "lon": -77.04711583333334}, {"fusion_lat": 0.0, "name": "99fdde0166a35803bc1d9c895695949b", "is_disabled": 0, "rental_uris": {"android": "https://dc.lft.to/lastmile_qr_scan", "ios": "https://dc.lft.to/lastmile_qr_scan"}, "fusion_lon": 0.0, "lat": 38.92074133333333, "bike_id": "99fdde0166a35803bc1d9c895695949b", "type": "electric_scooter", "is_reserved": 0, "lon": -77.0410605}, {"fusion_lat": 0.0, "name": "06e14df1e36cdda56a5458b78fe4385e", "is_disabled": 0, "rental_uris": {"android": "https://dc.lft.to/lastmile_qr_scan", "ios": "https://dc.lft.to/lastmile_qr_scan"}, "fusion_lon": 0.0, "lat": 38.916608333333336, "bike_id": "06e14df1e36cdda56a5458b78fe4385e", "type": "electric_scooter", "is_reserved": 0, "lon": -77.03853016666666}, {"fusion_lat": 0.0, "name": "4ef61e9da14d3c519f29b55c05e4f8da", "is_disabled": 0, "rental_uris": {"android": "https://dc.lft.to/lastmile_qr_scan", "ios": "https://dc.lft.to/lastmile_qr_scan"}, "fusion_lon": 0.0, "lat": 38.90012183333333, "bike_id": "4ef61e9da14d3c519f29b55c05e4f8da", "type": "electric_scooter", "is_reserved": 0, "lon": -77.02212433333334}, {"fusion_lat": 0.0, "name": "db507aeefe515fe875157c50f1c13805", "is_disabled": 0, "rental_uris": {"android": "https://dc.lft.to/lastmile_qr_scan", "ios": "https://dc.lft.to/lastmile_qr_scan"}, "fusion_lon": 0.0, "lat": 38.9155195, "bike_id": "db507aeefe515fe875157c50f1c13805", "type": "electric_scooter", "is_reserved": 0, "lon": -77.03861766666667}, {"fusion_lat": 0.0, "name": "8cf8eed61273c2016055f4ce0eb2b694", "is_disabled": 0, "rental_uris": {"android": "https://dc.lft.to/lastmile_qr_scan", "ios": "https://dc.lft.to/lastmile_qr_scan"}, "fusion_lon": 0.0, "lat": 38.919661833333336, "bike_id": "8cf8eed61273c2016055f4ce0eb2b694", "type": "electric_scooter", "is_reserved": 0, "lon": -77.023753}, {"fusion_lat": 0.0, "name": "6ba1063cdd910641bcd0e4e308db28ba", "is_disabled": 0, "rental_uris": {"android": "https://dc.lft.to/lastmile_qr_scan", "ios": "https://dc.lft.to/lastmile_qr_scan"}, "fusion_lon": 0.0, "lat": 38.8984575, "bike_id": "6ba1063cdd910641bcd0e4e308db28ba", "type": "electric_scooter", "is_reserved": 0, "lon": -77.0393145}, {"fusion_lat": 0.0, "name": "1f1228dcf4f260925e1711d3071e2353", "is_disabled": 0, "rental_uris": {"android": "https://dc.lft.to/lastmile_qr_scan", "ios": "https://dc.lft.to/lastmile_qr_scan"}, "fusion_lon": 0.0, "lat": 38.915612333333335, "bike_id": "1f1228dcf4f260925e1711d3071e2353", "type": "electric_scooter", "is_reserved": 0, "lon": -77.03140416666666}, {"fusion_lat": 0.0, "name": "c22f3700121d860bcf118c93f9cd9eac", "is_disabled": 0, "rental_uris": {"android": "https://dc.lft.to/lastmile_qr_scan", "ios": "https://dc.lft.to/lastmile_qr_scan"}, "fusion_lon": 0.0, "lat": 38.90382433333333, "bike_id": "c22f3700121d860bcf118c93f9cd9eac", "type": "electric_scooter", "is_reserved": 0, "lon": -77.04823866666666}, {"fusion_lat": 0.0, "name": "a8cd9470ae02634b3b810399fb7c50b8", "is_disabled": 0, "rental_uris": {"android": "https://dc.lft.to/lastmile_qr_scan", "ios": "https://dc.lft.to/lastmile_qr_scan"}, "fusion_lon": 0.0, "lat": 38.898601666666664, "bike_id": "a8cd9470ae02634b3b810399fb7c50b8", "type": "electric_scooter", "is_reserved": 0, "lon": -77.03946716666667}, {"fusion_lat": 0.0, "name": "d237f0bc4d546c3466e15e60625bdd87", "is_disabled": 0, "rental_uris": {"android": "https://dc.lft.to/lastmile_qr_scan", "ios": "https://dc.lft.to/lastmile_qr_scan"}, "fusion_lon": 0.0, "lat": 38.9203955, "bike_id": "d237f0bc4d546c3466e15e60625bdd87", "type": "electric_scooter", "is_reserved": 0, "lon": -77.02587116666666}, {"fusion_lat": 0.0, "name": "6d09dc3f1d3ad184511e25c1a9936391", "is_disabled": 0, "rental_uris": {"android": "https://dc.lft.to/lastmile_qr_scan", "ios": "https://dc.lft.to/lastmile_qr_scan"}, "fusion_lon": 0.0, "lat": 38.905508, "bike_id": "6d09dc3f1d3ad184511e25c1a9936391", "type": "electric_scooter", "is_reserved": 0, "lon": -77.00645383333334}, {"fusion_lat": 0.0, "name": "a46b74e110afffdc679a9b5e26745117", "is_disabled": 0, "rental_uris": {"android": "https://dc.lft.to/lastmile_qr_scan", "ios": "https://dc.lft.to/lastmile_qr_scan"}, "fusion_lon": 0.0, "lat": 38.94630033333333, "bike_id": "a46b74e110afffdc679a9b5e26745117", "type": "electric_scooter", "is_reserved": 0, "lon": -77.0184515}, {"fusion_lat": 0.0, "name": "37b3ca67198c3e8ade274e3d73391325", "is_disabled": 0, "rental_uris": {"android": "https://dc.lft.to/lastmile_qr_scan", "ios": "https://dc.lft.to/lastmile_qr_scan"}, "fusion_lon": 0.0, "lat": 38.90058283333333, "bike_id": "37b3ca67198c3e8ade274e3d73391325", "type": "electric_scooter", "is_reserved": 0, "lon": -77.00217816666667}, {"fusion_lat": 0.0, "name": "61164bb94f6e4370ce008890e3ca0e6c", "is_disabled": 0, "rental_uris": {"android": "https://dc.lft.to/lastmile_qr_scan", "ios": "https://dc.lft.to/lastmile_qr_scan"}, "fusion_lon": 0.0, "lat": 38.96674016666667, "bike_id": "61164bb94f6e4370ce008890e3ca0e6c", "type": "electric_bike", "is_reserved": 0, "lon": -77.02161983333333}, {"fusion_lat": 0.0, "name": "c46f07588f90e6e600af9721e385d939", "is_disabled": 0, "rental_uris": {"android": "https://dc.lft.to/lastmile_qr_scan", "ios": "https://dc.lft.to/lastmile_qr_scan"}, "fusion_lon": 0.0, "lat": 38.918811833333336, "bike_id": "c46f07588f90e6e600af9721e385d939", "type": "electric_scooter", "is_reserved": 0, "lon": -77.0348925}, {"fusion_lat": 0.0, "name": "88bc28622e5fd6d24ac45c3c44c98752", "is_disabled": 0, "rental_uris": {"android": "https://dc.lft.to/lastmile_qr_scan", "ios": "https://dc.lft.to/lastmile_qr_scan"}, "fusion_lon": 0.0, "lat": 38.90271283333333, "bike_id": "88bc28622e5fd6d24ac45c3c44c98752", "type": "electric_scooter", "is_reserved": 0, "lon": -77.03380183333333}, {"fusion_lat": 0.0, "name": "3d805a0addef7452251453aab484f04c", "is_disabled": 0, "rental_uris": {"android": "https://dc.lft.to/lastmile_qr_scan", "ios": "https://dc.lft.to/lastmile_qr_scan"}, "fusion_lon": 0.0, "lat": 38.92083216666666, "bike_id": "3d805a0addef7452251453aab484f04c", "type": "electric_scooter", "is_reserved": 0, "lon": -77.022852}, {"fusion_lat": 0.0, "name": "d7d02063be951dcf086ff5cee2577614", "is_disabled": 0, "rental_uris": {"android": "https://dc.lft.to/lastmile_qr_scan", "ios": "https://dc.lft.to/lastmile_qr_scan"}, "fusion_lon": 0.0, "lat": 38.91099366666667, "bike_id": "d7d02063be951dcf086ff5cee2577614", "type": "electric_scooter", "is_reserved": 0, "lon": -77.01148033333334}, {"fusion_lat": 0.0, "name": "fa55346bedc0c9d413ff26c0a6c149b2", "is_disabled": 0, "rental_uris": {"android": "https://dc.lft.to/lastmile_qr_scan", "ios": "https://dc.lft.to/lastmile_qr_scan"}, "fusion_lon": 0.0, "lat": 38.89821833333333, "bike_id": "fa55346bedc0c9d413ff26c0a6c149b2", "type": "electric_scooter", "is_reserved": 0, "lon": -77.02983433333333}, {"fusion_lat": 0.0, "name": "2325bfdb499779ab379e72f7917ab184", "is_disabled": 0, "rental_uris": {"android": "https://dc.lft.to/lastmile_qr_scan", "ios": "https://dc.lft.to/lastmile_qr_scan"}, "fusion_lon": 0.0, "lat": 38.928655166666665, "bike_id": "2325bfdb499779ab379e72f7917ab184", "type": "electric_scooter", "is_reserved": 0, "lon": -77.02730933333333}, {"fusion_lat": 0.0, "name": "c3a2dbabdb3922f0ae33e4d03ea0b638", "is_disabled": 0, "rental_uris": {"android": "https://dc.lft.to/lastmile_qr_scan", "ios": "https://dc.lft.to/lastmile_qr_scan"}, "fusion_lon": 0.0, "lat": 38.87172483333333, "bike_id": "c3a2dbabdb3922f0ae33e4d03ea0b638", "type": "electric_scooter", "is_reserved": 0, "lon": -77.00914816666666}, {"fusion_lat": 0.0, "name": "90a3b0be66ebbc208af39054b33b00a0", "is_disabled": 0, "rental_uris": {"android": "https://dc.lft.to/lastmile_qr_scan", "ios": "https://dc.lft.to/lastmile_qr_scan"}, "fusion_lon": 0.0, "lat": 38.904611333333335, "bike_id": "90a3b0be66ebbc208af39054b33b00a0", "type": "electric_scooter", "is_reserved": 0, "lon": -77.05336466666667}, {"fusion_lat": 0.0, "name": "3a66b6a1836f8704324e1084364d5a01", "is_disabled": 0, "rental_uris": {"android": "https://dc.lft.to/lastmile_qr_scan", "ios": "https://dc.lft.to/lastmile_qr_scan"}, "fusion_lon": 0.0, "lat": 38.88250083333333, "bike_id": "3a66b6a1836f8704324e1084364d5a01", "type": "electric_scooter", "is_reserved": 0, "lon": -77.00359916666666}, {"fusion_lat": 0.0, "name": "8dfa88266bb69ebdd08572b66c86b890", "is_disabled": 0, "rental_uris": {"android": "https://dc.lft.to/lastmile_qr_scan", "ios": "https://dc.lft.to/lastmile_qr_scan"}, "fusion_lon": 0.0, "lat": 38.89477883333333, "bike_id": "8dfa88266bb69ebdd08572b66c86b890", "type": "electric_scooter", "is_reserved": 0, "lon": -77.01088216666666}, {"fusion_lat": 0.0, "name": "96632c5d5baf062088330f0c1fc55567", "is_disabled": 0, "rental_uris": {"android": "https://dc.lft.to/lastmile_qr_scan", "ios": "https://dc.lft.to/lastmile_qr_scan"}, "fusion_lon": 0.0, "lat": 38.922096333333336, "bike_id": "96632c5d5baf062088330f0c1fc55567", "type": "electric_scooter", "is_reserved": 0, "lon": -77.02013333333333}, {"fusion_lat": 0.0, "name": "e967b15f2d517d91d1476900125476bb", "is_disabled": 0, "rental_uris": {"android": "https://dc.lft.to/lastmile_qr_scan", "ios": "https://dc.lft.to/lastmile_qr_scan"}, "fusion_lon": 0.0, "lat": 38.8871035, "bike_id": "e967b15f2d517d91d1476900125476bb", "type": "electric_scooter", "is_reserved": 0, "lon": -77.0258045}, {"fusion_lat": 0.0, "name": "2b2091dfd4919ca23d4c430e09cffb15", "is_disabled": 0, "rental_uris": {"android": "https://dc.lft.to/lastmile_qr_scan", "ios": "https://dc.lft.to/lastmile_qr_scan"}, "fusion_lon": 0.0, "lat": 38.89015166666667, "bike_id": "2b2091dfd4919ca23d4c430e09cffb15", "type": "electric_scooter", "is_reserved": 0, "lon": -76.93735416666667}, {"fusion_lat": 0.0, "name": "e685c5c86f7518a4cc90b4f3afee08d2", "is_disabled": 0, "rental_uris": {"android": "https://dc.lft.to/lastmile_qr_scan", "ios": "https://dc.lft.to/lastmile_qr_scan"}, "fusion_lon": 0.0, "lat": 38.902074166666665, "bike_id": "e685c5c86f7518a4cc90b4f3afee08d2", "type": "electric_scooter", "is_reserved": 0, "lon": -77.0188275}, {"fusion_lat": 0.0, "name": "57f967241798b5c6d6f97840ab42e5a0", "is_disabled": 0, "rental_uris": {"android": "https://dc.lft.to/lastmile_qr_scan", "ios": "https://dc.lft.to/lastmile_qr_scan"}, "fusion_lon": 0.0, "lat": 38.8766085, "bike_id": "57f967241798b5c6d6f97840ab42e5a0", "type": "electric_scooter", "is_reserved": 0, "lon": -77.00062133333333}, {"fusion_lat": 0.0, "name": "a4c98e405ffd3fa12dc2c05bbca946bd", "is_disabled": 0, "rental_uris": {"android": "https://dc.lft.to/lastmile_qr_scan", "ios": "https://dc.lft.to/lastmile_qr_scan"}, "fusion_lon": 0.0, "lat": 38.9057145, "bike_id": "a4c98e405ffd3fa12dc2c05bbca946bd", "type": "electric_scooter", "is_reserved": 0, "lon": -77.024167}, {"fusion_lat": 0.0, "name": "96dfdf9bbd1d2476fa217e544a53dcb1", "is_disabled": 0, "rental_uris": {"android": "https://dc.lft.to/lastmile_qr_scan", "ios": "https://dc.lft.to/lastmile_qr_scan"}, "fusion_lon": 0.0, "lat": 38.9046265, "bike_id": "96dfdf9bbd1d2476fa217e544a53dcb1", "type": "electric_scooter", "is_reserved": 0, "lon": -77.0532945}, {"fusion_lat": 0.0, "name": "3bb0ce12fad2e5c6e98436e716eef107", "is_disabled": 0, "rental_uris": {"android": "https://dc.lft.to/lastmile_qr_scan", "ios": "https://dc.lft.to/lastmile_qr_scan"}, "fusion_lon": 0.0, "lat": 38.95283116666667, "bike_id": "3bb0ce12fad2e5c6e98436e716eef107", "type": "electric_scooter", "is_reserved": 0, "lon": -77.06878916666666}, {"fusion_lat": 0.0, "name": "8bebb60d9a94fa01437d1684ecfda51c", "is_disabled": 0, "rental_uris": {"android": "https://dc.lft.to/lastmile_qr_scan", "ios": "https://dc.lft.to/lastmile_qr_scan"}, "fusion_lon": 0.0, "lat": 38.91589416666667, "bike_id": "8bebb60d9a94fa01437d1684ecfda51c", "type": "electric_scooter", "is_reserved": 0, "lon": -77.04335833333333}, {"fusion_lat": 0.0, "name": "1093acc7e7914b045c1f9281bc842c82", "is_disabled": 0, "rental_uris": {"android": "https://dc.lft.to/lastmile_qr_scan", "ios": "https://dc.lft.to/lastmile_qr_scan"}, "fusion_lon": 0.0, "lat": 38.891959666666665, "bike_id": "1093acc7e7914b045c1f9281bc842c82", "type": "electric_scooter", "is_reserved": 0, "lon": -77.0225705}, {"fusion_lat": 0.0, "name": "9d59d96580aad1db870a65831a7cbee7", "is_disabled": 0, "rental_uris": {"android": "https://dc.lft.to/lastmile_qr_scan", "ios": "https://dc.lft.to/lastmile_qr_scan"}, "fusion_lon": 0.0, "lat": 38.916505666666666, "bike_id": "9d59d96580aad1db870a65831a7cbee7", "type": "electric_bike", "is_reserved": 0, "lon": -76.98226483333333}, {"fusion_lat": 0.0, "name": "150120ea868f8ff52eaa1d47f186d80c", "is_disabled": 0, "rental_uris": {"android": "https://dc.lft.to/lastmile_qr_scan", "ios": "https://dc.lft.to/lastmile_qr_scan"}, "fusion_lon": 0.0, "lat": 38.92370616666667, "bike_id": "150120ea868f8ff52eaa1d47f186d80c", "type": "electric_scooter", "is_reserved": 0, "lon": -77.05143533333333}, {"fusion_lat": 0.0, "name": "edb5a2d82b0c88d1bcec349166c70aeb", "is_disabled": 0, "rental_uris": {"android": "https://dc.lft.to/lastmile_qr_scan", "ios": "https://dc.lft.to/lastmile_qr_scan"}, "fusion_lon": 0.0, "lat": 38.884882, "bike_id": "edb5a2d82b0c88d1bcec349166c70aeb", "type": "electric_scooter", "is_reserved": 0, "lon": -77.01460866666666}, {"fusion_lat": 0.0, "name": "672a4dcaa139d4a5682a8308778c32f0", "is_disabled": 0, "rental_uris": {"android": "https://dc.lft.to/lastmile_qr_scan", "ios": "https://dc.lft.to/lastmile_qr_scan"}, "fusion_lon": 0.0, "lat": 38.950869, "bike_id": "672a4dcaa139d4a5682a8308778c32f0", "type": "electric_scooter", "is_reserved": 0, "lon": -77.02714716666667}, {"fusion_lat": 0.0, "name": "70c95d5386addf6681dd08682dda5a25", "is_disabled": 0, "rental_uris": {"android": "https://dc.lft.to/lastmile_qr_scan", "ios": "https://dc.lft.to/lastmile_qr_scan"}, "fusion_lon": 0.0, "lat": 38.910091666666666, "bike_id": "70c95d5386addf6681dd08682dda5a25", "type": "electric_scooter", "is_reserved": 0, "lon": -77.016163}, {"fusion_lat": 0.0, "name": "5a1de61345b95c7aaa20156c7a6493ab", "is_disabled": 0, "rental_uris": {"android": "https://dc.lft.to/lastmile_qr_scan", "ios": "https://dc.lft.to/lastmile_qr_scan"}, "fusion_lon": 0.0, "lat": 38.945069, "bike_id": "5a1de61345b95c7aaa20156c7a6493ab", "type": "electric_bike", "is_reserved": 0, "lon": -77.00672816666666}, {"fusion_lat": 0.0, "name": "cb8f71399334abddc824b4dcca74b8f0", "is_disabled": 0, "rental_uris": {"android": "https://dc.lft.to/lastmile_qr_scan", "ios": "https://dc.lft.to/lastmile_qr_scan"}, "fusion_lon": 0.0, "lat": 38.90181066666667, "bike_id": "cb8f71399334abddc824b4dcca74b8f0", "type": "electric_scooter", "is_reserved": 0, "lon": -77.0229585}, {"fusion_lat": 0.0, "name": "70958c0b4308b1f3e72e6e202649036f", "is_disabled": 0, "rental_uris": {"android": "https://dc.lft.to/lastmile_qr_scan", "ios": "https://dc.lft.to/lastmile_qr_scan"}, "fusion_lon": 0.0, "lat": 38.928893, "bike_id": "70958c0b4308b1f3e72e6e202649036f", "type": "electric_scooter", "is_reserved": 0, "lon": -77.03253216666667}, {"fusion_lat": 0.0, "name": "bbb1009a38d85d2a00b09f7f0ce4f941", "is_disabled": 0, "rental_uris": {"android": "https://dc.lft.to/lastmile_qr_scan", "ios": "https://dc.lft.to/lastmile_qr_scan"}, "fusion_lon": 0.0, "lat": 38.916895333333336, "bike_id": "bbb1009a38d85d2a00b09f7f0ce4f941", "type": "electric_scooter", "is_reserved": 0, "lon": -77.02598683333333}, {"fusion_lat": 0.0, "name": "8375aac4d15fe48f167fd5e225f8726d", "is_disabled": 0, "rental_uris": {"android": "https://dc.lft.to/lastmile_qr_scan", "ios": "https://dc.lft.to/lastmile_qr_scan"}, "fusion_lon": 0.0, "lat": 38.94494233333333, "bike_id": "8375aac4d15fe48f167fd5e225f8726d", "type": "electric_scooter", "is_reserved": 0, "lon": -77.03876166666667}, {"fusion_lat": 0.0, "name": "bedabbfe8621672395026708273f22c0", "is_disabled": 0, "rental_uris": {"android": "https://dc.lft.to/lastmile_qr_scan", "ios": "https://dc.lft.to/lastmile_qr_scan"}, "fusion_lon": 0.0, "lat": 38.917335666666666, "bike_id": "bedabbfe8621672395026708273f22c0", "type": "electric_scooter", "is_reserved": 0, "lon": -77.03661833333334}, {"fusion_lat": 0.0, "name": "d3772757be3c59576b9b5dbe443eed74", "is_disabled": 0, "rental_uris": {"android": "https://dc.lft.to/lastmile_qr_scan", "ios": "https://dc.lft.to/lastmile_qr_scan"}, "fusion_lon": 0.0, "lat": 38.963852833333334, "bike_id": "d3772757be3c59576b9b5dbe443eed74", "type": "electric_bike", "is_reserved": 0, "lon": -76.95037333333333}, {"fusion_lat": 0.0, "name": "2a4545b322d525e16cda2175c7bb5bdb", "is_disabled": 0, "rental_uris": {"android": "https://dc.lft.to/lastmile_qr_scan", "ios": "https://dc.lft.to/lastmile_qr_scan"}, "fusion_lon": 0.0, "lat": 38.91403616666667, "bike_id": "2a4545b322d525e16cda2175c7bb5bdb", "type": "electric_scooter", "is_reserved": 0, "lon": -77.03261533333334}, {"fusion_lat": 0.0, "name": "1dc905ebadc8d3122d7ca8bf73214c73", "is_disabled": 0, "rental_uris": {"android": "https://dc.lft.to/lastmile_qr_scan", "ios": "https://dc.lft.to/lastmile_qr_scan"}, "fusion_lon": 0.0, "lat": 38.8954335, "bike_id": "1dc905ebadc8d3122d7ca8bf73214c73", "type": "electric_scooter", "is_reserved": 0, "lon": -76.983391}, {"fusion_lat": 0.0, "name": "449b56433b2eacf4c7cdb5bd77467d23", "is_disabled": 0, "rental_uris": {"android": "https://dc.lft.to/lastmile_qr_scan", "ios": "https://dc.lft.to/lastmile_qr_scan"}, "fusion_lon": 0.0, "lat": 38.919269, "bike_id": "449b56433b2eacf4c7cdb5bd77467d23", "type": "electric_scooter", "is_reserved": 0, "lon": -77.04153266666667}, {"fusion_lat": 0.0, "name": "a2d2e3fb1fd4ae7be0f0fbe2aa74715e", "is_disabled": 0, "rental_uris": {"android": "https://dc.lft.to/lastmile_qr_scan", "ios": "https://dc.lft.to/lastmile_qr_scan"}, "fusion_lon": 0.0, "lat": 38.93354433333333, "bike_id": "a2d2e3fb1fd4ae7be0f0fbe2aa74715e", "type": "electric_scooter", "is_reserved": 0, "lon": -77.07306133333333}, {"fusion_lat": 0.0, "name": "516872bb6c3998304303c7a994ece008", "is_disabled": 0, "rental_uris": {"android": "https://dc.lft.to/lastmile_qr_scan", "ios": "https://dc.lft.to/lastmile_qr_scan"}, "fusion_lon": 0.0, "lat": 38.89217983333333, "bike_id": "516872bb6c3998304303c7a994ece008", "type": "electric_scooter", "is_reserved": 0, "lon": -76.95739533333334}, {"fusion_lat": 0.0, "name": "a39ca54a1a1e34f87874ff92e86584a7", "is_disabled": 0, "rental_uris": {"android": "https://dc.lft.to/lastmile_qr_scan", "ios": "https://dc.lft.to/lastmile_qr_scan"}, "fusion_lon": 0.0, "lat": 38.89573816666667, "bike_id": "a39ca54a1a1e34f87874ff92e86584a7", "type": "electric_scooter", "is_reserved": 0, "lon": -76.94882966666667}, {"fusion_lat": 0.0, "name": "d5d9d91cfe2d4054c300f19123ebbff5", "is_disabled": 0, "rental_uris": {"android": "https://dc.lft.to/lastmile_qr_scan", "ios": "https://dc.lft.to/lastmile_qr_scan"}, "fusion_lon": 0.0, "lat": 38.91697416666667, "bike_id": "d5d9d91cfe2d4054c300f19123ebbff5", "type": "electric_scooter", "is_reserved": 0, "lon": -77.023961}, {"fusion_lat": 0.0, "name": "49df9d7e52aa2a2a21cf3daaac02f95a", "is_disabled": 0, "rental_uris": {"android": "https://dc.lft.to/lastmile_qr_scan", "ios": "https://dc.lft.to/lastmile_qr_scan"}, "fusion_lon": 0.0, "lat": 38.91773533333333, "bike_id": "49df9d7e52aa2a2a21cf3daaac02f95a", "type": "electric_scooter", "is_reserved": 0, "lon": -77.04099966666666}, {"fusion_lat": 0.0, "name": "f328168332fb4c118e79f39d55359d9f", "is_disabled": 0, "rental_uris": {"android": "https://dc.lft.to/lastmile_qr_scan", "ios": "https://dc.lft.to/lastmile_qr_scan"}, "fusion_lon": 0.0, "lat": 38.911626, "bike_id": "f328168332fb4c118e79f39d55359d9f", "type": "electric_scooter", "is_reserved": 0, "lon": -77.04348766666666}, {"fusion_lat": 0.0, "name": "d9701d4f93e34134c735c7445ac3b555", "is_disabled": 0, "rental_uris": {"android": "https://dc.lft.to/lastmile_qr_scan", "ios": "https://dc.lft.to/lastmile_qr_scan"}, "fusion_lon": 0.0, "lat": 38.904841833333336, "bike_id": "d9701d4f93e34134c735c7445ac3b555", "type": "electric_scooter", "is_reserved": 0, "lon": -76.94949233333334}, {"fusion_lat": 0.0, "name": "00408742bc8ccc94c00e8b8d918b04e6", "is_disabled": 0, "rental_uris": {"android": "https://dc.lft.to/lastmile_qr_scan", "ios": "https://dc.lft.to/lastmile_qr_scan"}, "fusion_lon": 0.0, "lat": 38.90894683333333, "bike_id": "00408742bc8ccc94c00e8b8d918b04e6", "type": "electric_scooter", "is_reserved": 0, "lon": -77.0439315}, {"fusion_lat": 0.0, "name": "6827271f1bb336df5831126aa34b7d7a", "is_disabled": 0, "rental_uris": {"android": "https://dc.lft.to/lastmile_qr_scan", "ios": "https://dc.lft.to/lastmile_qr_scan"}, "fusion_lon": 0.0, "lat": 38.898873333333334, "bike_id": "6827271f1bb336df5831126aa34b7d7a", "type": "electric_scooter", "is_reserved": 0, "lon": -77.00148466666667}, {"fusion_lat": 0.0, "name": "1d7ec3e062080ac3f60a987009a68a68", "is_disabled": 0, "rental_uris": {"android": "https://dc.lft.to/lastmile_qr_scan", "ios": "https://dc.lft.to/lastmile_qr_scan"}, "fusion_lon": 0.0, "lat": 38.93183333333333, "bike_id": "1d7ec3e062080ac3f60a987009a68a68", "type": "electric_scooter", "is_reserved": 0, "lon": -77.03296266666666}, {"fusion_lat": 0.0, "name": "3e8e0a36690ad1b190c3d368d4f4d0c4", "is_disabled": 0, "rental_uris": {"android": "https://dc.lft.to/lastmile_qr_scan", "ios": "https://dc.lft.to/lastmile_qr_scan"}, "fusion_lon": 0.0, "lat": 38.89348783333333, "bike_id": "3e8e0a36690ad1b190c3d368d4f4d0c4", "type": "electric_scooter", "is_reserved": 0, "lon": -76.98654833333333}, {"fusion_lat": 0.0, "name": "777105922fd22ce3ae052237bfe9b251", "is_disabled": 0, "rental_uris": {"android": "https://dc.lft.to/lastmile_qr_scan", "ios": "https://dc.lft.to/lastmile_qr_scan"}, "fusion_lon": 0.0, "lat": 38.90552533333333, "bike_id": "777105922fd22ce3ae052237bfe9b251", "type": "electric_scooter", "is_reserved": 0, "lon": -77.04671516666667}, {"fusion_lat": 0.0, "name": "163f75f4a36311abcfb751660a0e8a09", "is_disabled": 0, "rental_uris": {"android": "https://dc.lft.to/lastmile_qr_scan", "ios": "https://dc.lft.to/lastmile_qr_scan"}, "fusion_lon": 0.0, "lat": 38.92020083333333, "bike_id": "163f75f4a36311abcfb751660a0e8a09", "type": "electric_scooter", "is_reserved": 0, "lon": -77.0271495}, {"fusion_lat": 0.0, "name": "6af2347aa9d193cf607d49c7e371089f", "is_disabled": 0, "rental_uris": {"android": "https://dc.lft.to/lastmile_qr_scan", "ios": "https://dc.lft.to/lastmile_qr_scan"}, "fusion_lon": 0.0, "lat": 38.93413, "bike_id": "6af2347aa9d193cf607d49c7e371089f", "type": "electric_scooter", "is_reserved": 0, "lon": -77.02206116666666}, {"fusion_lat": 0.0, "name": "f54e3c12fe1320f166f57f3d2ba119d0", "is_disabled": 0, "rental_uris": {"android": "https://dc.lft.to/lastmile_qr_scan", "ios": "https://dc.lft.to/lastmile_qr_scan"}, "fusion_lon": 0.0, "lat": 38.930671833333335, "bike_id": "f54e3c12fe1320f166f57f3d2ba119d0", "type": "electric_scooter", "is_reserved": 0, "lon": -77.03943866666667}, {"fusion_lat": 0.0, "name": "f8afac745888898fe884e3fd5f583b66", "is_disabled": 0, "rental_uris": {"android": "https://dc.lft.to/lastmile_qr_scan", "ios": "https://dc.lft.to/lastmile_qr_scan"}, "fusion_lon": 0.0, "lat": 38.901816, "bike_id": "f8afac745888898fe884e3fd5f583b66", "type": "electric_scooter", "is_reserved": 0, "lon": -77.02596316666667}, {"fusion_lat": 0.0, "name": "da3e8c7f84415c6b8ba1af2c3bf45e22", "is_disabled": 0, "rental_uris": {"android": "https://dc.lft.to/lastmile_qr_scan", "ios": "https://dc.lft.to/lastmile_qr_scan"}, "fusion_lon": 0.0, "lat": 38.891937166666665, "bike_id": "da3e8c7f84415c6b8ba1af2c3bf45e22", "type": "electric_scooter", "is_reserved": 0, "lon": -77.0225595}, {"fusion_lat": 0.0, "name": "e25796aa8bffadad85262408b14ae3bf", "is_disabled": 0, "rental_uris": {"android": "https://dc.lft.to/lastmile_qr_scan", "ios": "https://dc.lft.to/lastmile_qr_scan"}, "fusion_lon": 0.0, "lat": 38.921238833333334, "bike_id": "e25796aa8bffadad85262408b14ae3bf", "type": "electric_scooter", "is_reserved": 0, "lon": -77.0180155}, {"fusion_lat": 0.0, "name": "60491c32810ce26ea3bcd6cea57554b5", "is_disabled": 0, "rental_uris": {"android": "https://dc.lft.to/lastmile_qr_scan", "ios": "https://dc.lft.to/lastmile_qr_scan"}, "fusion_lon": 0.0, "lat": 38.90901366666667, "bike_id": "60491c32810ce26ea3bcd6cea57554b5", "type": "electric_scooter", "is_reserved": 0, "lon": -77.0260155}, {"fusion_lat": 0.0, "name": "40b7f6c5b8757863e6c76054cfe8897a", "is_disabled": 0, "rental_uris": {"android": "https://dc.lft.to/lastmile_qr_scan", "ios": "https://dc.lft.to/lastmile_qr_scan"}, "fusion_lon": 0.0, "lat": 38.905042, "bike_id": "40b7f6c5b8757863e6c76054cfe8897a", "type": "electric_scooter", "is_reserved": 0, "lon": -77.04821116666666}, {"fusion_lat": 0.0, "name": "13a86d28cca9e8cb5a34da3a7990dffb", "is_disabled": 0, "rental_uris": {"android": "https://dc.lft.to/lastmile_qr_scan", "ios": "https://dc.lft.to/lastmile_qr_scan"}, "fusion_lon": 0.0, "lat": 38.89803216666667, "bike_id": "13a86d28cca9e8cb5a34da3a7990dffb", "type": "electric_scooter", "is_reserved": 0, "lon": -77.02195133333333}, {"fusion_lat": 0.0, "name": "e6fc7a2b174d4eb9bda9d2a14db6d5d9", "is_disabled": 0, "rental_uris": {"android": "https://dc.lft.to/lastmile_qr_scan", "ios": "https://dc.lft.to/lastmile_qr_scan"}, "fusion_lon": 0.0, "lat": 38.901933166666666, "bike_id": "e6fc7a2b174d4eb9bda9d2a14db6d5d9", "type": "electric_scooter", "is_reserved": 0, "lon": -77.023716}, {"fusion_lat": 0.0, "name": "b6ebebb8547eca321e03ef28a80e7c59", "is_disabled": 0, "rental_uris": {"android": "https://dc.lft.to/lastmile_qr_scan", "ios": "https://dc.lft.to/lastmile_qr_scan"}, "fusion_lon": 0.0, "lat": 38.940857333333334, "bike_id": "b6ebebb8547eca321e03ef28a80e7c59", "type": "electric_scooter", "is_reserved": 0, "lon": -77.0618315}, {"fusion_lat": 0.0, "name": "32128756a25e5395a256de1e26cee9f1", "is_disabled": 0, "rental_uris": {"android": "https://dc.lft.to/lastmile_qr_scan", "ios": "https://dc.lft.to/lastmile_qr_scan"}, "fusion_lon": 0.0, "lat": 38.8985815, "bike_id": "32128756a25e5395a256de1e26cee9f1", "type": "electric_bike", "is_reserved": 0, "lon": -76.93190133333333}, {"fusion_lat": 0.0, "name": "e13e490c34cf22ef8559483f18b38473", "is_disabled": 0, "rental_uris": {"android": "https://dc.lft.to/lastmile_qr_scan", "ios": "https://dc.lft.to/lastmile_qr_scan"}, "fusion_lon": 0.0, "lat": 38.909702333333335, "bike_id": "e13e490c34cf22ef8559483f18b38473", "type": "electric_scooter", "is_reserved": 0, "lon": -77.020797}, {"fusion_lat": 0.0, "name": "77410c77ae2e998046385863b9b5d195", "is_disabled": 0, "rental_uris": {"android": "https://dc.lft.to/lastmile_qr_scan", "ios": "https://dc.lft.to/lastmile_qr_scan"}, "fusion_lon": 0.0, "lat": 38.898370166666666, "bike_id": "77410c77ae2e998046385863b9b5d195", "type": "electric_scooter", "is_reserved": 0, "lon": -77.0263195}, {"fusion_lat": 0.0, "name": "3cff3f7d9db92f7197db7199cd1d6c93", "is_disabled": 0, "rental_uris": {"android": "https://dc.lft.to/lastmile_qr_scan", "ios": "https://dc.lft.to/lastmile_qr_scan"}, "fusion_lon": 0.0, "lat": 38.883931, "bike_id": "3cff3f7d9db92f7197db7199cd1d6c93", "type": "electric_scooter", "is_reserved": 0, "lon": -76.930439}, {"fusion_lat": 0.0, "name": "17468f475ee2ebf2145a24b20b0f8e41", "is_disabled": 0, "rental_uris": {"android": "https://dc.lft.to/lastmile_qr_scan", "ios": "https://dc.lft.to/lastmile_qr_scan"}, "fusion_lon": 0.0, "lat": 38.8972675, "bike_id": "17468f475ee2ebf2145a24b20b0f8e41", "type": "electric_scooter", "is_reserved": 0, "lon": -77.0552165}, {"fusion_lat": 0.0, "name": "a0dc1e1da028b22b200baba31f8fda03", "is_disabled": 0, "rental_uris": {"android": "https://dc.lft.to/lastmile_qr_scan", "ios": "https://dc.lft.to/lastmile_qr_scan"}, "fusion_lon": 0.0, "lat": 38.933834833333336, "bike_id": "a0dc1e1da028b22b200baba31f8fda03", "type": "electric_scooter", "is_reserved": 0, "lon": -77.03879666666667}, {"fusion_lat": 0.0, "name": "5746d1a44cf0c28f843aaa28d25a74e5", "is_disabled": 0, "rental_uris": {"android": "https://dc.lft.to/lastmile_qr_scan", "ios": "https://dc.lft.to/lastmile_qr_scan"}, "fusion_lon": 0.0, "lat": 38.9054725, "bike_id": "5746d1a44cf0c28f843aaa28d25a74e5", "type": "electric_scooter", "is_reserved": 0, "lon": -76.983299}, {"fusion_lat": 0.0, "name": "b569cec1b8247b624dad0a7eb4f841fc", "is_disabled": 0, "rental_uris": {"android": "https://dc.lft.to/lastmile_qr_scan", "ios": "https://dc.lft.to/lastmile_qr_scan"}, "fusion_lon": 0.0, "lat": 38.857640333333336, "bike_id": "b569cec1b8247b624dad0a7eb4f841fc", "type": "electric_bike", "is_reserved": 0, "lon": -76.9876215}, {"fusion_lat": 0.0, "name": "8b1dbe4106f036e66a8ea28bfbfe23d8", "is_disabled": 0, "rental_uris": {"android": "https://dc.lft.to/lastmile_qr_scan", "ios": "https://dc.lft.to/lastmile_qr_scan"}, "fusion_lon": 0.0, "lat": 38.90974966666667, "bike_id": "8b1dbe4106f036e66a8ea28bfbfe23d8", "type": "electric_scooter", "is_reserved": 0, "lon": -77.03446566666666}, {"fusion_lat": 0.0, "name": "c8250e89742a8219956024a18d71ba39", "is_disabled": 0, "rental_uris": {"android": "https://dc.lft.to/lastmile_qr_scan", "ios": "https://dc.lft.to/lastmile_qr_scan"}, "fusion_lon": 0.0, "lat": 38.91438266666667, "bike_id": "c8250e89742a8219956024a18d71ba39", "type": "electric_scooter", "is_reserved": 0, "lon": -77.022024}, {"fusion_lat": 0.0, "name": "e830adbcf346809e40340fb7a1cdbf5a", "is_disabled": 0, "rental_uris": {"android": "https://dc.lft.to/lastmile_qr_scan", "ios": "https://dc.lft.to/lastmile_qr_scan"}, "fusion_lon": 0.0, "lat": 38.904577833333335, "bike_id": "e830adbcf346809e40340fb7a1cdbf5a", "type": "electric_scooter", "is_reserved": 0, "lon": -77.0016965}, {"fusion_lat": 0.0, "name": "6453f9d9342d77afa1d5c46ef150f6ac", "is_disabled": 0, "rental_uris": {"android": "https://dc.lft.to/lastmile_qr_scan", "ios": "https://dc.lft.to/lastmile_qr_scan"}, "fusion_lon": 0.0, "lat": 38.91706583333333, "bike_id": "6453f9d9342d77afa1d5c46ef150f6ac", "type": "electric_scooter", "is_reserved": 0, "lon": -77.02414233333333}, {"fusion_lat": 0.0, "name": "4614a0f449138f06e0a05e42b6019775", "is_disabled": 0, "rental_uris": {"android": "https://dc.lft.to/lastmile_qr_scan", "ios": "https://dc.lft.to/lastmile_qr_scan"}, "fusion_lon": 0.0, "lat": 38.88533133333333, "bike_id": "4614a0f449138f06e0a05e42b6019775", "type": "electric_scooter", "is_reserved": 0, "lon": -77.00059316666666}, {"fusion_lat": 0.0, "name": "15df65851470246e4109f2bdfada4c34", "is_disabled": 0, "rental_uris": {"android": "https://dc.lft.to/lastmile_qr_scan", "ios": "https://dc.lft.to/lastmile_qr_scan"}, "fusion_lon": 0.0, "lat": 38.940667833333336, "bike_id": "15df65851470246e4109f2bdfada4c34", "type": "electric_scooter", "is_reserved": 0, "lon": -77.0239005}, {"fusion_lat": 0.0, "name": "6d77dba4588829c1532621dd5c79749c", "is_disabled": 0, "rental_uris": {"android": "https://dc.lft.to/lastmile_qr_scan", "ios": "https://dc.lft.to/lastmile_qr_scan"}, "fusion_lon": 0.0, "lat": 38.885351166666666, "bike_id": "6d77dba4588829c1532621dd5c79749c", "type": "electric_scooter", "is_reserved": 0, "lon": -77.00059883333333}, {"fusion_lat": 0.0, "name": "fec7bc60a6dd5cfe32b6cb48e69651b7", "is_disabled": 0, "rental_uris": {"android": "https://dc.lft.to/lastmile_qr_scan", "ios": "https://dc.lft.to/lastmile_qr_scan"}, "fusion_lon": 0.0, "lat": 38.90102066666667, "bike_id": "fec7bc60a6dd5cfe32b6cb48e69651b7", "type": "electric_scooter", "is_reserved": 0, "lon": -77.034349}, {"fusion_lat": 0.0, "name": "4db66a2a199d0a056c7fdd9bc1a1d906", "is_disabled": 0, "rental_uris": {"android": "https://dc.lft.to/lastmile_qr_scan", "ios": "https://dc.lft.to/lastmile_qr_scan"}, "fusion_lon": 0.0, "lat": 38.92613866666667, "bike_id": "4db66a2a199d0a056c7fdd9bc1a1d906", "type": "electric_scooter", "is_reserved": 0, "lon": -77.03959833333333}, {"fusion_lat": 0.0, "name": "fe360b5f8f9b90460397a53512e53ee1", "is_disabled": 0, "rental_uris": {"android": "https://dc.lft.to/lastmile_qr_scan", "ios": "https://dc.lft.to/lastmile_qr_scan"}, "fusion_lon": 0.0, "lat": 38.877355333333334, "bike_id": "fe360b5f8f9b90460397a53512e53ee1", "type": "electric_scooter", "is_reserved": 0, "lon": -76.99664016666667}, {"fusion_lat": 0.0, "name": "a2edbf41ac58fad9177028165db82ead", "is_disabled": 0, "rental_uris": {"android": "https://dc.lft.to/lastmile_qr_scan", "ios": "https://dc.lft.to/lastmile_qr_scan"}, "fusion_lon": 0.0, "lat": 38.908787833333335, "bike_id": "a2edbf41ac58fad9177028165db82ead", "type": "electric_scooter", "is_reserved": 0, "lon": -77.02389033333333}, {"fusion_lat": 0.0, "name": "62c49bf4203ab001197eef6e37e143fb", "is_disabled": 0, "rental_uris": {"android": "https://dc.lft.to/lastmile_qr_scan", "ios": "https://dc.lft.to/lastmile_qr_scan"}, "fusion_lon": 0.0, "lat": 38.941623666666665, "bike_id": "62c49bf4203ab001197eef6e37e143fb", "type": "electric_bike", "is_reserved": 0, "lon": -76.96646783333334}, {"fusion_lat": 0.0, "name": "f10ea68aff9fab2d2edccce8cc567da7", "is_disabled": 0, "rental_uris": {"android": "https://dc.lft.to/lastmile_qr_scan", "ios": "https://dc.lft.to/lastmile_qr_scan"}, "fusion_lon": 0.0, "lat": 38.90457166666667, "bike_id": "f10ea68aff9fab2d2edccce8cc567da7", "type": "electric_scooter", "is_reserved": 0, "lon": -77.05862916666666}, {"fusion_lat": 0.0, "name": "26600e363b927155fc856256c6e3407f", "is_disabled": 0, "rental_uris": {"android": "https://dc.lft.to/lastmile_qr_scan", "ios": "https://dc.lft.to/lastmile_qr_scan"}, "fusion_lon": 0.0, "lat": 38.98783783333333, "bike_id": "26600e363b927155fc856256c6e3407f", "type": "electric_bike", "is_reserved": 0, "lon": -77.14101366666667}, {"fusion_lat": 0.0, "name": "026f0ae1f436bea519368ede13282bea", "is_disabled": 0, "rental_uris": {"android": "https://dc.lft.to/lastmile_qr_scan", "ios": "https://dc.lft.to/lastmile_qr_scan"}, "fusion_lon": 0.0, "lat": 38.913229, "bike_id": "026f0ae1f436bea519368ede13282bea", "type": "electric_scooter", "is_reserved": 0, "lon": -77.012081}, {"fusion_lat": 0.0, "name": "8967468d89e0ebf0e7e50867e9897e12", "is_disabled": 0, "rental_uris": {"android": "https://dc.lft.to/lastmile_qr_scan", "ios": "https://dc.lft.to/lastmile_qr_scan"}, "fusion_lon": 0.0, "lat": 38.887136, "bike_id": "8967468d89e0ebf0e7e50867e9897e12", "type": "electric_scooter", "is_reserved": 0, "lon": -77.02579833333333}, {"fusion_lat": 0.0, "name": "3e0be7a74322c0d0ee7f9a0b83f1f5f8", "is_disabled": 0, "rental_uris": {"android": "https://dc.lft.to/lastmile_qr_scan", "ios": "https://dc.lft.to/lastmile_qr_scan"}, "fusion_lon": 0.0, "lat": 38.94154733333333, "bike_id": "3e0be7a74322c0d0ee7f9a0b83f1f5f8", "type": "electric_bike", "is_reserved": 0, "lon": -77.001931}, {"fusion_lat": 0.0, "name": "aa7e12b246d68ac3b7100c33e96f7164", "is_disabled": 0, "rental_uris": {"android": "https://dc.lft.to/lastmile_qr_scan", "ios": "https://dc.lft.to/lastmile_qr_scan"}, "fusion_lon": 0.0, "lat": 38.89556866666667, "bike_id": "aa7e12b246d68ac3b7100c33e96f7164", "type": "electric_scooter", "is_reserved": 0, "lon": -77.02395566666667}, {"fusion_lat": 0.0, "name": "9432b873a3800f981870634da4a5caa3", "is_disabled": 0, "rental_uris": {"android": "https://dc.lft.to/lastmile_qr_scan", "ios": "https://dc.lft.to/lastmile_qr_scan"}, "fusion_lon": 0.0, "lat": 38.9002685, "bike_id": "9432b873a3800f981870634da4a5caa3", "type": "electric_scooter", "is_reserved": 0, "lon": -77.02397133333334}, {"fusion_lat": 0.0, "name": "2141227466f4649b104bc70cac666c20", "is_disabled": 0, "rental_uris": {"android": "https://dc.lft.to/lastmile_qr_scan", "ios": "https://dc.lft.to/lastmile_qr_scan"}, "fusion_lon": 0.0, "lat": 38.928604166666666, "bike_id": "2141227466f4649b104bc70cac666c20", "type": "electric_scooter", "is_reserved": 0, "lon": -77.03428016666666}, {"fusion_lat": 0.0, "name": "f8bc2047b69502dafd4e7e7e22b7a88b", "is_disabled": 0, "rental_uris": {"android": "https://dc.lft.to/lastmile_qr_scan", "ios": "https://dc.lft.to/lastmile_qr_scan"}, "fusion_lon": 0.0, "lat": 38.88362683333333, "bike_id": "f8bc2047b69502dafd4e7e7e22b7a88b", "type": "electric_scooter", "is_reserved": 0, "lon": -77.0198815}, {"fusion_lat": 0.0, "name": "896e838eb8e5fe810338644bfdd368f9", "is_disabled": 0, "rental_uris": {"android": "https://dc.lft.to/lastmile_qr_scan", "ios": "https://dc.lft.to/lastmile_qr_scan"}, "fusion_lon": 0.0, "lat": 38.87365466666667, "bike_id": "896e838eb8e5fe810338644bfdd368f9", "type": "electric_scooter", "is_reserved": 0, "lon": -77.0012655}, {"fusion_lat": 0.0, "name": "999bdb445caa4ef56de97b40e21237b8", "is_disabled": 0, "rental_uris": {"android": "https://dc.lft.to/lastmile_qr_scan", "ios": "https://dc.lft.to/lastmile_qr_scan"}, "fusion_lon": 0.0, "lat": 38.854460333333336, "bike_id": "999bdb445caa4ef56de97b40e21237b8", "type": "electric_scooter", "is_reserved": 0, "lon": -76.98579566666666}, {"fusion_lat": 0.0, "name": "72938018335d3bff44cc7a9f56f35740", "is_disabled": 0, "rental_uris": {"android": "https://dc.lft.to/lastmile_qr_scan", "ios": "https://dc.lft.to/lastmile_qr_scan"}, "fusion_lon": 0.0, "lat": 38.913284833333336, "bike_id": "72938018335d3bff44cc7a9f56f35740", "type": "electric_scooter", "is_reserved": 0, "lon": -77.032006}, {"fusion_lat": 0.0, "name": "cb704f9dc85d3932fd140354799fcae9", "is_disabled": 0, "rental_uris": {"android": "https://dc.lft.to/lastmile_qr_scan", "ios": "https://dc.lft.to/lastmile_qr_scan"}, "fusion_lon": 0.0, "lat": 38.915589833333335, "bike_id": "cb704f9dc85d3932fd140354799fcae9", "type": "electric_scooter", "is_reserved": 0, "lon": -77.03860866666666}, {"fusion_lat": 0.0, "name": "84a9a599c34fd1ee846bd13b3b271b88", "is_disabled": 0, "rental_uris": {"android": "https://dc.lft.to/lastmile_qr_scan", "ios": "https://dc.lft.to/lastmile_qr_scan"}, "fusion_lon": 0.0, "lat": 38.920409166666666, "bike_id": "84a9a599c34fd1ee846bd13b3b271b88", "type": "electric_scooter", "is_reserved": 0, "lon": -77.01797283333333}, {"fusion_lat": 0.0, "name": "7026c92e73787a88452987121db07186", "is_disabled": 0, "rental_uris": {"android": "https://dc.lft.to/lastmile_qr_scan", "ios": "https://dc.lft.to/lastmile_qr_scan"}, "fusion_lon": 0.0, "lat": 38.9001055, "bike_id": "7026c92e73787a88452987121db07186", "type": "electric_scooter", "is_reserved": 0, "lon": -77.01194616666666}, {"fusion_lat": 0.0, "name": "01e3c17e6f2403212608b811002bfc47", "is_disabled": 0, "rental_uris": {"android": "https://dc.lft.to/lastmile_qr_scan", "ios": "https://dc.lft.to/lastmile_qr_scan"}, "fusion_lon": 0.0, "lat": 38.89695116666667, "bike_id": "01e3c17e6f2403212608b811002bfc47", "type": "electric_scooter", "is_reserved": 0, "lon": -77.01280583333333}, {"fusion_lat": 0.0, "name": "7d4fd0b95b6b821bab700b2e1d735bd7", "is_disabled": 0, "rental_uris": {"android": "https://dc.lft.to/lastmile_qr_scan", "ios": "https://dc.lft.to/lastmile_qr_scan"}, "fusion_lon": 0.0, "lat": 38.961822833333336, "bike_id": "7d4fd0b95b6b821bab700b2e1d735bd7", "type": "electric_bike", "is_reserved": 0, "lon": -77.05262133333333}, {"fusion_lat": 0.0, "name": "c912f78125d7c7d44493296f4ee1ec35", "is_disabled": 0, "rental_uris": {"android": "https://dc.lft.to/lastmile_qr_scan", "ios": "https://dc.lft.to/lastmile_qr_scan"}, "fusion_lon": 0.0, "lat": 38.92070616666667, "bike_id": "c912f78125d7c7d44493296f4ee1ec35", "type": "electric_scooter", "is_reserved": 0, "lon": -77.01476666666667}, {"fusion_lat": 0.0, "name": "2ee08965aca90ef9937c076a8abcac14", "is_disabled": 0, "rental_uris": {"android": "https://dc.lft.to/lastmile_qr_scan", "ios": "https://dc.lft.to/lastmile_qr_scan"}, "fusion_lon": 0.0, "lat": 38.90779416666667, "bike_id": "2ee08965aca90ef9937c076a8abcac14", "type": "electric_scooter", "is_reserved": 0, "lon": -77.03861116666667}, {"fusion_lat": 0.0, "name": "04059e2daacae937e80aaab60d277d02", "is_disabled": 0, "rental_uris": {"android": "https://dc.lft.to/lastmile_qr_scan", "ios": "https://dc.lft.to/lastmile_qr_scan"}, "fusion_lon": 0.0, "lat": 38.90268916666667, "bike_id": "04059e2daacae937e80aaab60d277d02", "type": "electric_scooter", "is_reserved": 0, "lon": -77.05328033333333}, {"fusion_lat": 0.0, "name": "da71791824016ad0b8ba4f8eb5efad43", "is_disabled": 0, "rental_uris": {"android": "https://dc.lft.to/lastmile_qr_scan", "ios": "https://dc.lft.to/lastmile_qr_scan"}, "fusion_lon": 0.0, "lat": 38.912607666666666, "bike_id": "da71791824016ad0b8ba4f8eb5efad43", "type": "electric_scooter", "is_reserved": 0, "lon": -77.038635}, {"fusion_lat": 0.0, "name": "e693b94344f3b25fafae3b9e92f159ff", "is_disabled": 0, "rental_uris": {"android": "https://dc.lft.to/lastmile_qr_scan", "ios": "https://dc.lft.to/lastmile_qr_scan"}, "fusion_lon": 0.0, "lat": 38.8988525, "bike_id": "e693b94344f3b25fafae3b9e92f159ff", "type": "electric_scooter", "is_reserved": 0, "lon": -77.03321783333334}, {"fusion_lat": 0.0, "name": "0261ac07fa4f0794992b2fecaa2fc891", "is_disabled": 0, "rental_uris": {"android": "https://dc.lft.to/lastmile_qr_scan", "ios": "https://dc.lft.to/lastmile_qr_scan"}, "fusion_lon": 0.0, "lat": 38.905086, "bike_id": "0261ac07fa4f0794992b2fecaa2fc891", "type": "electric_scooter", "is_reserved": 0, "lon": -77.03177483333333}, {"fusion_lat": 0.0, "name": "f1b530be3563188f487bc4a29eff87fd", "is_disabled": 0, "rental_uris": {"android": "https://dc.lft.to/lastmile_qr_scan", "ios": "https://dc.lft.to/lastmile_qr_scan"}, "fusion_lon": 0.0, "lat": 38.92433033333333, "bike_id": "f1b530be3563188f487bc4a29eff87fd", "type": "electric_scooter", "is_reserved": 0, "lon": -77.0446425}, {"fusion_lat": 0.0, "name": "7eb6f10744551d3ab220c066dda2f82f", "is_disabled": 0, "rental_uris": {"android": "https://dc.lft.to/lastmile_qr_scan", "ios": "https://dc.lft.to/lastmile_qr_scan"}, "fusion_lon": 0.0, "lat": 38.9267955, "bike_id": "7eb6f10744551d3ab220c066dda2f82f", "type": "electric_scooter", "is_reserved": 0, "lon": -77.02783083333334}, {"fusion_lat": 0.0, "name": "fd816c6d6cbfdf53aa6e9a9683fba431", "is_disabled": 0, "rental_uris": {"android": "https://dc.lft.to/lastmile_qr_scan", "ios": "https://dc.lft.to/lastmile_qr_scan"}, "fusion_lon": 0.0, "lat": 38.97285016666667, "bike_id": "fd816c6d6cbfdf53aa6e9a9683fba431", "type": "electric_scooter", "is_reserved": 0, "lon": -77.01159666666666}, {"fusion_lat": 0.0, "name": "7c0674910ba52edfe3dc0b6f0540bd0c", "is_disabled": 0, "rental_uris": {"android": "https://dc.lft.to/lastmile_qr_scan", "ios": "https://dc.lft.to/lastmile_qr_scan"}, "fusion_lon": 0.0, "lat": 38.7827045, "bike_id": "7c0674910ba52edfe3dc0b6f0540bd0c", "type": "electric_bike", "is_reserved": 0, "lon": -77.01598766666666}, {"fusion_lat": 0.0, "name": "2e5c3e5c4bfa320e801c89e6b4776549", "is_disabled": 0, "rental_uris": {"android": "https://dc.lft.to/lastmile_qr_scan", "ios": "https://dc.lft.to/lastmile_qr_scan"}, "fusion_lon": 0.0, "lat": 38.874546, "bike_id": "2e5c3e5c4bfa320e801c89e6b4776549", "type": "electric_scooter", "is_reserved": 0, "lon": -77.002968}, {"fusion_lat": 0.0, "name": "25f43b9912c39a56434aad9e32d29c79", "is_disabled": 0, "rental_uris": {"android": "https://dc.lft.to/lastmile_qr_scan", "ios": "https://dc.lft.to/lastmile_qr_scan"}, "fusion_lon": 0.0, "lat": 38.95234933333333, "bike_id": "25f43b9912c39a56434aad9e32d29c79", "type": "electric_scooter", "is_reserved": 0, "lon": -76.99064266666667}, {"fusion_lat": 0.0, "name": "19020e2403249a9dcf1328df9ceb891c", "is_disabled": 0, "rental_uris": {"android": "https://dc.lft.to/lastmile_qr_scan", "ios": "https://dc.lft.to/lastmile_qr_scan"}, "fusion_lon": 0.0, "lat": 38.932651, "bike_id": "19020e2403249a9dcf1328df9ceb891c", "type": "electric_scooter", "is_reserved": 0, "lon": -77.01918816666667}, {"fusion_lat": 0.0, "name": "075e2290cc034454a6b3657cad5546fe", "is_disabled": 0, "rental_uris": {"android": "https://dc.lft.to/lastmile_qr_scan", "ios": "https://dc.lft.to/lastmile_qr_scan"}, "fusion_lon": 0.0, "lat": 38.86015066666667, "bike_id": "075e2290cc034454a6b3657cad5546fe", "type": "electric_bike", "is_reserved": 0, "lon": -77.12806666666667}, {"fusion_lat": 0.0, "name": "d7289cc1f62fcfe47b2777133c0813db", "is_disabled": 0, "rental_uris": {"android": "https://dc.lft.to/lastmile_qr_scan", "ios": "https://dc.lft.to/lastmile_qr_scan"}, "fusion_lon": 0.0, "lat": 38.94095183333334, "bike_id": "d7289cc1f62fcfe47b2777133c0813db", "type": "electric_scooter", "is_reserved": 0, "lon": -77.03279366666666}, {"fusion_lat": 0.0, "name": "fd88cb67d6d8b79f8601823c903560b6", "is_disabled": 0, "rental_uris": {"android": "https://dc.lft.to/lastmile_qr_scan", "ios": "https://dc.lft.to/lastmile_qr_scan"}, "fusion_lon": 0.0, "lat": 38.920131166666664, "bike_id": "fd88cb67d6d8b79f8601823c903560b6", "type": "electric_scooter", "is_reserved": 0, "lon": -77.02518366666666}, {"fusion_lat": 0.0, "name": "3f0c98196012b8ecc52e81546b696a51", "is_disabled": 0, "rental_uris": {"android": "https://dc.lft.to/lastmile_qr_scan", "ios": "https://dc.lft.to/lastmile_qr_scan"}, "fusion_lon": 0.0, "lat": 38.92806316666667, "bike_id": "3f0c98196012b8ecc52e81546b696a51", "type": "electric_scooter", "is_reserved": 0, "lon": -77.01411066666667}, {"fusion_lat": 0.0, "name": "f62b7d97e60c1c79d31bfa1bbb5244b6", "is_disabled": 0, "rental_uris": {"android": "https://dc.lft.to/lastmile_qr_scan", "ios": "https://dc.lft.to/lastmile_qr_scan"}, "fusion_lon": 0.0, "lat": 38.930825, "bike_id": "f62b7d97e60c1c79d31bfa1bbb5244b6", "type": "electric_scooter", "is_reserved": 0, "lon": -77.01999783333333}, {"fusion_lat": 0.0, "name": "e67675452b217e0884d30c622503ae35", "is_disabled": 0, "rental_uris": {"android": "https://dc.lft.to/lastmile_qr_scan", "ios": "https://dc.lft.to/lastmile_qr_scan"}, "fusion_lon": 0.0, "lat": 38.9307585, "bike_id": "e67675452b217e0884d30c622503ae35", "type": "electric_scooter", "is_reserved": 0, "lon": -77.07760716666667}, {"fusion_lat": 0.0, "name": "f1cb51e9d380c628ff4db8992d428b44", "is_disabled": 0, "rental_uris": {"android": "https://dc.lft.to/lastmile_qr_scan", "ios": "https://dc.lft.to/lastmile_qr_scan"}, "fusion_lon": 0.0, "lat": 38.917267, "bike_id": "f1cb51e9d380c628ff4db8992d428b44", "type": "electric_scooter", "is_reserved": 0, "lon": -77.01912233333333}, {"fusion_lat": 0.0, "name": "aca77de90cc959ea866fea29c9196c66", "is_disabled": 0, "rental_uris": {"android": "https://dc.lft.to/lastmile_qr_scan", "ios": "https://dc.lft.to/lastmile_qr_scan"}, "fusion_lon": 0.0, "lat": 38.9092155, "bike_id": "aca77de90cc959ea866fea29c9196c66", "type": "electric_bike", "is_reserved": 0, "lon": -77.03199833333333}, {"fusion_lat": 0.0, "name": "4ce45efa7ed49a7aaa71500516043254", "is_disabled": 0, "rental_uris": {"android": "https://dc.lft.to/lastmile_qr_scan", "ios": "https://dc.lft.to/lastmile_qr_scan"}, "fusion_lon": 0.0, "lat": 38.935948833333335, "bike_id": "4ce45efa7ed49a7aaa71500516043254", "type": "electric_scooter", "is_reserved": 0, "lon": -77.036573}, {"fusion_lat": 0.0, "name": "3b10b69c9b7323326174e70cd4a1ba13", "is_disabled": 0, "rental_uris": {"android": "https://dc.lft.to/lastmile_qr_scan", "ios": "https://dc.lft.to/lastmile_qr_scan"}, "fusion_lon": 0.0, "lat": 38.90595833333333, "bike_id": "3b10b69c9b7323326174e70cd4a1ba13", "type": "electric_scooter", "is_reserved": 0, "lon": -77.02597616666667}, {"fusion_lat": 0.0, "name": "bfafb45249b9687114975bea7e9d41f9", "is_disabled": 0, "rental_uris": {"android": "https://dc.lft.to/lastmile_qr_scan", "ios": "https://dc.lft.to/lastmile_qr_scan"}, "fusion_lon": 0.0, "lat": 38.926431666666666, "bike_id": "bfafb45249b9687114975bea7e9d41f9", "type": "electric_scooter", "is_reserved": 0, "lon": -77.03702616666666}, {"fusion_lat": 0.0, "name": "7d1e94eb966cb001555f9d1577dd7b0e", "is_disabled": 0, "rental_uris": {"android": "https://dc.lft.to/lastmile_qr_scan", "ios": "https://dc.lft.to/lastmile_qr_scan"}, "fusion_lon": 0.0, "lat": 38.94837533333333, "bike_id": "7d1e94eb966cb001555f9d1577dd7b0e", "type": "electric_scooter", "is_reserved": 0, "lon": -77.02572183333334}, {"fusion_lat": 0.0, "name": "a317c1f7b802a44a81c224aa73ee4668", "is_disabled": 0, "rental_uris": {"android": "https://dc.lft.to/lastmile_qr_scan", "ios": "https://dc.lft.to/lastmile_qr_scan"}, "fusion_lon": 0.0, "lat": 38.920390166666664, "bike_id": "a317c1f7b802a44a81c224aa73ee4668", "type": "electric_scooter", "is_reserved": 0, "lon": -77.034105}, {"fusion_lat": 0.0, "name": "f0fc407b0f36c250b066b3bfb9a05662", "is_disabled": 0, "rental_uris": {"android": "https://dc.lft.to/lastmile_qr_scan", "ios": "https://dc.lft.to/lastmile_qr_scan"}, "fusion_lon": 0.0, "lat": 38.920321333333334, "bike_id": "f0fc407b0f36c250b066b3bfb9a05662", "type": "electric_scooter", "is_reserved": 0, "lon": -76.98995316666667}, {"fusion_lat": 0.0, "name": "8ad4f5ac104e596041d564daf849cccc", "is_disabled": 0, "rental_uris": {"android": "https://dc.lft.to/lastmile_qr_scan", "ios": "https://dc.lft.to/lastmile_qr_scan"}, "fusion_lon": 0.0, "lat": 38.903722, "bike_id": "8ad4f5ac104e596041d564daf849cccc", "type": "electric_scooter", "is_reserved": 0, "lon": -77.03783583333333}, {"fusion_lat": 0.0, "name": "0f5eb74ee8b434448235fa96c84321ab", "is_disabled": 0, "rental_uris": {"android": "https://dc.lft.to/lastmile_qr_scan", "ios": "https://dc.lft.to/lastmile_qr_scan"}, "fusion_lon": 0.0, "lat": 38.96231916666667, "bike_id": "0f5eb74ee8b434448235fa96c84321ab", "type": "electric_bike", "is_reserved": 0, "lon": -76.92795066666666}, {"fusion_lat": 0.0, "name": "fa5be16f958a7c9d884509f06d28d4ff", "is_disabled": 0, "rental_uris": {"android": "https://dc.lft.to/lastmile_qr_scan", "ios": "https://dc.lft.to/lastmile_qr_scan"}, "fusion_lon": 0.0, "lat": 38.90272783333333, "bike_id": "fa5be16f958a7c9d884509f06d28d4ff", "type": "electric_scooter", "is_reserved": 0, "lon": -77.03384783333334}, {"fusion_lat": 0.0, "name": "19993594b230fd64152787144855739a", "is_disabled": 0, "rental_uris": {"android": "https://dc.lft.to/lastmile_qr_scan", "ios": "https://dc.lft.to/lastmile_qr_scan"}, "fusion_lon": 0.0, "lat": 38.9070065, "bike_id": "19993594b230fd64152787144855739a", "type": "electric_scooter", "is_reserved": 0, "lon": -77.044905}, {"fusion_lat": 0.0, "name": "2be73bb10f074ec37eaa9f94a06129c5", "is_disabled": 0, "rental_uris": {"android": "https://dc.lft.to/lastmile_qr_scan", "ios": "https://dc.lft.to/lastmile_qr_scan"}, "fusion_lon": 0.0, "lat": 38.906045166666665, "bike_id": "2be73bb10f074ec37eaa9f94a06129c5", "type": "electric_scooter", "is_reserved": 0, "lon": -77.07153216666667}, {"fusion_lat": 0.0, "name": "552aacd6bff2ca348a086547726520b3", "is_disabled": 0, "rental_uris": {"android": "https://dc.lft.to/lastmile_qr_scan", "ios": "https://dc.lft.to/lastmile_qr_scan"}, "fusion_lon": 0.0, "lat": 38.9595695, "bike_id": "552aacd6bff2ca348a086547726520b3", "type": "electric_bike", "is_reserved": 0, "lon": -77.03055566666667}, {"fusion_lat": 0.0, "name": "39b0ba846ae18fe7210927c8185c416a", "is_disabled": 0, "rental_uris": {"android": "https://dc.lft.to/lastmile_qr_scan", "ios": "https://dc.lft.to/lastmile_qr_scan"}, "fusion_lon": 0.0, "lat": 38.934506666666664, "bike_id": "39b0ba846ae18fe7210927c8185c416a", "type": "electric_scooter", "is_reserved": 0, "lon": -77.03873033333333}, {"fusion_lat": 0.0, "name": "09791648e0d1f867be645b4076801fee", "is_disabled": 0, "rental_uris": {"android": "https://dc.lft.to/lastmile_qr_scan", "ios": "https://dc.lft.to/lastmile_qr_scan"}, "fusion_lon": 0.0, "lat": 38.9182085, "bike_id": "09791648e0d1f867be645b4076801fee", "type": "electric_scooter", "is_reserved": 0, "lon": -77.02715316666666}, {"fusion_lat": 0.0, "name": "980a7bff19ec0b1dd123ea22bb7133b5", "is_disabled": 0, "rental_uris": {"android": "https://dc.lft.to/lastmile_qr_scan", "ios": "https://dc.lft.to/lastmile_qr_scan"}, "fusion_lon": 0.0, "lat": 38.949769333333336, "bike_id": "980a7bff19ec0b1dd123ea22bb7133b5", "type": "electric_scooter", "is_reserved": 0, "lon": -77.0244685}, {"fusion_lat": 0.0, "name": "99d0ab79395453b6f0b7ede4a5142945", "is_disabled": 0, "rental_uris": {"android": "https://dc.lft.to/lastmile_qr_scan", "ios": "https://dc.lft.to/lastmile_qr_scan"}, "fusion_lon": 0.0, "lat": 38.90597016666667, "bike_id": "99d0ab79395453b6f0b7ede4a5142945", "type": "electric_scooter", "is_reserved": 0, "lon": -77.02603633333334}, {"fusion_lat": 0.0, "name": "7c9cb85b62e46ffc86f26cef5d9877bd", "is_disabled": 0, "rental_uris": {"android": "https://dc.lft.to/lastmile_qr_scan", "ios": "https://dc.lft.to/lastmile_qr_scan"}, "fusion_lon": 0.0, "lat": 38.8923205, "bike_id": "7c9cb85b62e46ffc86f26cef5d9877bd", "type": "electric_scooter", "is_reserved": 0, "lon": -77.0500195}, {"fusion_lat": 0.0, "name": "267e8014664547b35720b4505509e53d", "is_disabled": 0, "rental_uris": {"android": "https://dc.lft.to/lastmile_qr_scan", "ios": "https://dc.lft.to/lastmile_qr_scan"}, "fusion_lon": 0.0, "lat": 38.899946666666665, "bike_id": "267e8014664547b35720b4505509e53d", "type": "electric_scooter", "is_reserved": 0, "lon": -77.02296966666667}, {"fusion_lat": 0.0, "name": "949698f27423d47c72d0ef9a37303fef", "is_disabled": 0, "rental_uris": {"android": "https://dc.lft.to/lastmile_qr_scan", "ios": "https://dc.lft.to/lastmile_qr_scan"}, "fusion_lon": 0.0, "lat": 38.911172666666666, "bike_id": "949698f27423d47c72d0ef9a37303fef", "type": "electric_scooter", "is_reserved": 0, "lon": -77.03834266666667}, {"fusion_lat": 0.0, "name": "54816a245bdfe60fd179e0d864d8032a", "is_disabled": 0, "rental_uris": {"android": "https://dc.lft.to/lastmile_qr_scan", "ios": "https://dc.lft.to/lastmile_qr_scan"}, "fusion_lon": 0.0, "lat": 38.90151, "bike_id": "54816a245bdfe60fd179e0d864d8032a", "type": "electric_scooter", "is_reserved": 0, "lon": -77.04154066666666}, {"fusion_lat": 0.0, "name": "88fc258e57572caf4f37aa389a7aa6be", "is_disabled": 0, "rental_uris": {"android": "https://dc.lft.to/lastmile_qr_scan", "ios": "https://dc.lft.to/lastmile_qr_scan"}, "fusion_lon": 0.0, "lat": 38.89603266666667, "bike_id": "88fc258e57572caf4f37aa389a7aa6be", "type": "electric_scooter", "is_reserved": 0, "lon": -77.02138133333334}, {"fusion_lat": 0.0, "name": "9d0de68d5580c5cb16637087d997515b", "is_disabled": 0, "rental_uris": {"android": "https://dc.lft.to/lastmile_qr_scan", "ios": "https://dc.lft.to/lastmile_qr_scan"}, "fusion_lon": 0.0, "lat": 38.93870066666667, "bike_id": "9d0de68d5580c5cb16637087d997515b", "type": "electric_scooter", "is_reserved": 0, "lon": -77.029152}, {"fusion_lat": 0.0, "name": "9cfe6628fe69385674119424b79743cd", "is_disabled": 0, "rental_uris": {"android": "https://dc.lft.to/lastmile_qr_scan", "ios": "https://dc.lft.to/lastmile_qr_scan"}, "fusion_lon": 0.0, "lat": 38.94677683333333, "bike_id": "9cfe6628fe69385674119424b79743cd", "type": "electric_bike", "is_reserved": 0, "lon": -76.95670116666666}, {"fusion_lat": 0.0, "name": "9747b2df6af98bb855e2e63a353e82b3", "is_disabled": 0, "rental_uris": {"android": "https://dc.lft.to/lastmile_qr_scan", "ios": "https://dc.lft.to/lastmile_qr_scan"}, "fusion_lon": 0.0, "lat": 38.89233466666667, "bike_id": "9747b2df6af98bb855e2e63a353e82b3", "type": "electric_scooter", "is_reserved": 0, "lon": -77.03202566666667}, {"fusion_lat": 0.0, "name": "09685698669ffd548f6a25786447c814", "is_disabled": 0, "rental_uris": {"android": "https://dc.lft.to/lastmile_qr_scan", "ios": "https://dc.lft.to/lastmile_qr_scan"}, "fusion_lon": 0.0, "lat": 38.89219816666667, "bike_id": "09685698669ffd548f6a25786447c814", "type": "electric_scooter", "is_reserved": 0, "lon": -77.02225133333333}, {"fusion_lat": 0.0, "name": "f2ee0e5d7f30a0f918dbaf8ddf4d6e00", "is_disabled": 0, "rental_uris": {"android": "https://dc.lft.to/lastmile_qr_scan", "ios": "https://dc.lft.to/lastmile_qr_scan"}, "fusion_lon": 0.0, "lat": 38.924496166666664, "bike_id": "f2ee0e5d7f30a0f918dbaf8ddf4d6e00", "type": "electric_scooter", "is_reserved": 0, "lon": -76.9933325}, {"fusion_lat": 0.0, "name": "eadab73a65ab82f4601f62dd8522d21b", "is_disabled": 0, "rental_uris": {"android": "https://dc.lft.to/lastmile_qr_scan", "ios": "https://dc.lft.to/lastmile_qr_scan"}, "fusion_lon": 0.0, "lat": 38.89232583333333, "bike_id": "eadab73a65ab82f4601f62dd8522d21b", "type": "electric_scooter", "is_reserved": 0, "lon": -77.0488935}, {"fusion_lat": 0.0, "name": "fea8d311f07f1f0d93b80f308c3e1208", "is_disabled": 0, "rental_uris": {"android": "https://dc.lft.to/lastmile_qr_scan", "ios": "https://dc.lft.to/lastmile_qr_scan"}, "fusion_lon": 0.0, "lat": 38.910238166666666, "bike_id": "fea8d311f07f1f0d93b80f308c3e1208", "type": "electric_scooter", "is_reserved": 0, "lon": -77.00758316666666}, {"fusion_lat": 0.0, "name": "b03b16a2f30dac51e86e259bbc00edc3", "is_disabled": 0, "rental_uris": {"android": "https://dc.lft.to/lastmile_qr_scan", "ios": "https://dc.lft.to/lastmile_qr_scan"}, "fusion_lon": 0.0, "lat": 38.91976716666667, "bike_id": "b03b16a2f30dac51e86e259bbc00edc3", "type": "electric_scooter", "is_reserved": 0, "lon": -77.0408785}, {"fusion_lat": 0.0, "name": "a7656a199bcab5bcdafadbbb87c8226e", "is_disabled": 0, "rental_uris": {"android": "https://dc.lft.to/lastmile_qr_scan", "ios": "https://dc.lft.to/lastmile_qr_scan"}, "fusion_lon": 0.0, "lat": 38.9010425, "bike_id": "a7656a199bcab5bcdafadbbb87c8226e", "type": "electric_scooter", "is_reserved": 0, "lon": -77.01974216666666}, {"fusion_lat": 0.0, "name": "087e528539ff886f8a0dcd8127c556ac", "is_disabled": 0, "rental_uris": {"android": "https://dc.lft.to/lastmile_qr_scan", "ios": "https://dc.lft.to/lastmile_qr_scan"}, "fusion_lon": 0.0, "lat": 38.8624815, "bike_id": "087e528539ff886f8a0dcd8127c556ac", "type": "electric_bike", "is_reserved": 0, "lon": -76.98335133333333}, {"fusion_lat": 0.0, "name": "cbef1660ced1a3c3174343099fbd3bb4", "is_disabled": 0, "rental_uris": {"android": "https://dc.lft.to/lastmile_qr_scan", "ios": "https://dc.lft.to/lastmile_qr_scan"}, "fusion_lon": 0.0, "lat": 38.920611666666666, "bike_id": "cbef1660ced1a3c3174343099fbd3bb4", "type": "electric_scooter", "is_reserved": 0, "lon": -76.99862066666667}, {"fusion_lat": 0.0, "name": "4dd0c9bb5d6c952fb18484139829975e", "is_disabled": 0, "rental_uris": {"android": "https://dc.lft.to/lastmile_qr_scan", "ios": "https://dc.lft.to/lastmile_qr_scan"}, "fusion_lon": 0.0, "lat": 38.914312333333335, "bike_id": "4dd0c9bb5d6c952fb18484139829975e", "type": "electric_scooter", "is_reserved": 0, "lon": -77.044992}, {"fusion_lat": 0.0, "name": "81f7f9ca8150204ccde7f1d802c3ec51", "is_disabled": 0, "rental_uris": {"android": "https://dc.lft.to/lastmile_qr_scan", "ios": "https://dc.lft.to/lastmile_qr_scan"}, "fusion_lon": 0.0, "lat": 38.858012, "bike_id": "81f7f9ca8150204ccde7f1d802c3ec51", "type": "electric_bike", "is_reserved": 0, "lon": -76.98729083333333}, {"fusion_lat": 0.0, "name": "d3084e55ff1499ea6419cda0f000dfef", "is_disabled": 0, "rental_uris": {"android": "https://dc.lft.to/lastmile_qr_scan", "ios": "https://dc.lft.to/lastmile_qr_scan"}, "fusion_lon": 0.0, "lat": 38.888758333333335, "bike_id": "d3084e55ff1499ea6419cda0f000dfef", "type": "electric_scooter", "is_reserved": 0, "lon": -77.028551}, {"fusion_lat": 0.0, "name": "bfa52eeb42c46276a42b3d0b89902d0d", "is_disabled": 0, "rental_uris": {"android": "https://dc.lft.to/lastmile_qr_scan", "ios": "https://dc.lft.to/lastmile_qr_scan"}, "fusion_lon": 0.0, "lat": 38.94177783333333, "bike_id": "bfa52eeb42c46276a42b3d0b89902d0d", "type": "electric_scooter", "is_reserved": 0, "lon": -77.03653016666667}, {"fusion_lat": 0.0, "name": "2505065a64eda26d1c1c54643d1ca219", "is_disabled": 0, "rental_uris": {"android": "https://dc.lft.to/lastmile_qr_scan", "ios": "https://dc.lft.to/lastmile_qr_scan"}, "fusion_lon": 0.0, "lat": 38.917179833333336, "bike_id": "2505065a64eda26d1c1c54643d1ca219", "type": "electric_scooter", "is_reserved": 0, "lon": -77.00812516666667}, {"fusion_lat": 0.0, "name": "18c20febe7818c28f1de429ddec7f0ab", "is_disabled": 0, "rental_uris": {"android": "https://dc.lft.to/lastmile_qr_scan", "ios": "https://dc.lft.to/lastmile_qr_scan"}, "fusion_lon": 0.0, "lat": 38.923277, "bike_id": "18c20febe7818c28f1de429ddec7f0ab", "type": "electric_scooter", "is_reserved": 0, "lon": -77.035569}, {"fusion_lat": 0.0, "name": "791effce3a9f354043bd8c93bdb8549e", "is_disabled": 0, "rental_uris": {"android": "https://dc.lft.to/lastmile_qr_scan", "ios": "https://dc.lft.to/lastmile_qr_scan"}, "fusion_lon": 0.0, "lat": 38.902388333333334, "bike_id": "791effce3a9f354043bd8c93bdb8549e", "type": "electric_scooter", "is_reserved": 0, "lon": -77.00200083333333}, {"fusion_lat": 0.0, "name": "01d8cfd898081bd0f139803cbb0f4c18", "is_disabled": 0, "rental_uris": {"android": "https://dc.lft.to/lastmile_qr_scan", "ios": "https://dc.lft.to/lastmile_qr_scan"}, "fusion_lon": 0.0, "lat": 38.93205433333333, "bike_id": "01d8cfd898081bd0f139803cbb0f4c18", "type": "electric_scooter", "is_reserved": 0, "lon": -77.03654666666667}, {"fusion_lat": 0.0, "name": "d64dc1f0c6cea79a9d8d1a31f3889a85", "is_disabled": 0, "rental_uris": {"android": "https://dc.lft.to/lastmile_qr_scan", "ios": "https://dc.lft.to/lastmile_qr_scan"}, "fusion_lon": 0.0, "lat": 38.922395333333334, "bike_id": "d64dc1f0c6cea79a9d8d1a31f3889a85", "type": "electric_scooter", "is_reserved": 0, "lon": -77.029107}, {"fusion_lat": 0.0, "name": "57ba4f0175c1bc379c94e463df1a4d1f", "is_disabled": 0, "rental_uris": {"android": "https://dc.lft.to/lastmile_qr_scan", "ios": "https://dc.lft.to/lastmile_qr_scan"}, "fusion_lon": 0.0, "lat": 38.892293333333335, "bike_id": "57ba4f0175c1bc379c94e463df1a4d1f", "type": "electric_scooter", "is_reserved": 0, "lon": -76.988165}, {"fusion_lat": 0.0, "name": "42a0e429ed5c61e653e59785d175f84d", "is_disabled": 0, "rental_uris": {"android": "https://dc.lft.to/lastmile_qr_scan", "ios": "https://dc.lft.to/lastmile_qr_scan"}, "fusion_lon": 0.0, "lat": 38.898373666666664, "bike_id": "42a0e429ed5c61e653e59785d175f84d", "type": "electric_bike", "is_reserved": 0, "lon": -77.024654}, {"fusion_lat": 0.0, "name": "0de8fc9d1b508e5256daa0694605178b", "is_disabled": 0, "rental_uris": {"android": "https://dc.lft.to/lastmile_qr_scan", "ios": "https://dc.lft.to/lastmile_qr_scan"}, "fusion_lon": 0.0, "lat": 38.905624333333336, "bike_id": "0de8fc9d1b508e5256daa0694605178b", "type": "electric_scooter", "is_reserved": 0, "lon": -77.02101533333334}, {"fusion_lat": 0.0, "name": "a54b8091946ad05e704564a259972e2c", "is_disabled": 0, "rental_uris": {"android": "https://dc.lft.to/lastmile_qr_scan", "ios": "https://dc.lft.to/lastmile_qr_scan"}, "fusion_lon": 0.0, "lat": 38.93630816666666, "bike_id": "a54b8091946ad05e704564a259972e2c", "type": "electric_bike", "is_reserved": 0, "lon": -77.02110216666667}, {"fusion_lat": 0.0, "name": "2ff26aaae5483fba39cc89e3ab21d77c", "is_disabled": 0, "rental_uris": {"android": "https://dc.lft.to/lastmile_qr_scan", "ios": "https://dc.lft.to/lastmile_qr_scan"}, "fusion_lon": 0.0, "lat": 38.902162, "bike_id": "2ff26aaae5483fba39cc89e3ab21d77c", "type": "electric_scooter", "is_reserved": 0, "lon": -77.018832}, {"fusion_lat": 0.0, "name": "0a618a703fbeb33cbc76ab5bc9806183", "is_disabled": 0, "rental_uris": {"android": "https://dc.lft.to/lastmile_qr_scan", "ios": "https://dc.lft.to/lastmile_qr_scan"}, "fusion_lon": 0.0, "lat": 38.907301833333335, "bike_id": "0a618a703fbeb33cbc76ab5bc9806183", "type": "electric_scooter", "is_reserved": 0, "lon": -77.02358783333334}, {"fusion_lat": 0.0, "name": "e14d9547d23899ea768f8d2f962ff658", "is_disabled": 0, "rental_uris": {"android": "https://dc.lft.to/lastmile_qr_scan", "ios": "https://dc.lft.to/lastmile_qr_scan"}, "fusion_lon": 0.0, "lat": 38.9071065, "bike_id": "e14d9547d23899ea768f8d2f962ff658", "type": "electric_scooter", "is_reserved": 0, "lon": -77.05046333333334}, {"fusion_lat": 0.0, "name": "f26f53962a4d200fa706742efb2b7317", "is_disabled": 0, "rental_uris": {"android": "https://dc.lft.to/lastmile_qr_scan", "ios": "https://dc.lft.to/lastmile_qr_scan"}, "fusion_lon": 0.0, "lat": 38.9049145, "bike_id": "f26f53962a4d200fa706742efb2b7317", "type": "electric_scooter", "is_reserved": 0, "lon": -77.00914333333333}, {"fusion_lat": 0.0, "name": "b066801ea08c4a5be66727bcfe20691f", "is_disabled": 0, "rental_uris": {"android": "https://dc.lft.to/lastmile_qr_scan", "ios": "https://dc.lft.to/lastmile_qr_scan"}, "fusion_lon": 0.0, "lat": 38.871096666666666, "bike_id": "b066801ea08c4a5be66727bcfe20691f", "type": "electric_scooter", "is_reserved": 0, "lon": -77.005697}, {"fusion_lat": 0.0, "name": "c92d84aa798e1d53c0da6b53989ccfae", "is_disabled": 0, "rental_uris": {"android": "https://dc.lft.to/lastmile_qr_scan", "ios": "https://dc.lft.to/lastmile_qr_scan"}, "fusion_lon": 0.0, "lat": 38.92173, "bike_id": "c92d84aa798e1d53c0da6b53989ccfae", "type": "electric_scooter", "is_reserved": 0, "lon": -77.04025516666667}, {"fusion_lat": 0.0, "name": "72cc7f0845eb759561cfc7afb2d00665", "is_disabled": 0, "rental_uris": {"android": "https://dc.lft.to/lastmile_qr_scan", "ios": "https://dc.lft.to/lastmile_qr_scan"}, "fusion_lon": 0.0, "lat": 38.88735766666667, "bike_id": "72cc7f0845eb759561cfc7afb2d00665", "type": "electric_scooter", "is_reserved": 0, "lon": -77.01511}, {"fusion_lat": 0.0, "name": "d382d9ddac093064e53737fa8fb5f332", "is_disabled": 0, "rental_uris": {"android": "https://dc.lft.to/lastmile_qr_scan", "ios": "https://dc.lft.to/lastmile_qr_scan"}, "fusion_lon": 0.0, "lat": 38.901689833333336, "bike_id": "d382d9ddac093064e53737fa8fb5f332", "type": "electric_scooter", "is_reserved": 0, "lon": -76.99257083333333}, {"fusion_lat": 0.0, "name": "a0ac6be32fcbae80a9cc5ce163d01edf", "is_disabled": 0, "rental_uris": {"android": "https://dc.lft.to/lastmile_qr_scan", "ios": "https://dc.lft.to/lastmile_qr_scan"}, "fusion_lon": 0.0, "lat": 38.8066715, "bike_id": "a0ac6be32fcbae80a9cc5ce163d01edf", "type": "electric_bike", "is_reserved": 0, "lon": -77.06917266666666}, {"fusion_lat": 0.0, "name": "0622009caca2d3ef257708ea1eb4a6bf", "is_disabled": 0, "rental_uris": {"android": "https://dc.lft.to/lastmile_qr_scan", "ios": "https://dc.lft.to/lastmile_qr_scan"}, "fusion_lon": 0.0, "lat": 38.807093, "bike_id": "0622009caca2d3ef257708ea1eb4a6bf", "type": "electric_bike", "is_reserved": 0, "lon": -77.06170183333333}, {"fusion_lat": 0.0, "name": "ff348db9e61d842a6976d42e5bcb9009", "is_disabled": 0, "rental_uris": {"android": "https://dc.lft.to/lastmile_qr_scan", "ios": "https://dc.lft.to/lastmile_qr_scan"}, "fusion_lon": 0.0, "lat": 38.92535766666666, "bike_id": "ff348db9e61d842a6976d42e5bcb9009", "type": "electric_scooter", "is_reserved": 0, "lon": -77.007569}, {"fusion_lat": 0.0, "name": "d5f87493da4150448b23ca61728d856e", "is_disabled": 0, "rental_uris": {"android": "https://dc.lft.to/lastmile_qr_scan", "ios": "https://dc.lft.to/lastmile_qr_scan"}, "fusion_lon": 0.0, "lat": 38.9056165, "bike_id": "d5f87493da4150448b23ca61728d856e", "type": "electric_scooter", "is_reserved": 0, "lon": -77.02101666666667}, {"fusion_lat": 0.0, "name": "3d92361aee1d59abfd14f76f8cb2a7d6", "is_disabled": 0, "rental_uris": {"android": "https://dc.lft.to/lastmile_qr_scan", "ios": "https://dc.lft.to/lastmile_qr_scan"}, "fusion_lon": 0.0, "lat": 38.819092166666664, "bike_id": "3d92361aee1d59abfd14f76f8cb2a7d6", "type": "electric_bike", "is_reserved": 0, "lon": -77.04805316666666}, {"fusion_lat": 0.0, "name": "02d2caf4457d4a4d1a5240aecca037d1", "is_disabled": 0, "rental_uris": {"android": "https://dc.lft.to/lastmile_qr_scan", "ios": "https://dc.lft.to/lastmile_qr_scan"}, "fusion_lon": 0.0, "lat": 38.92050366666667, "bike_id": "02d2caf4457d4a4d1a5240aecca037d1", "type": "electric_scooter", "is_reserved": 0, "lon": -77.04199483333333}, {"fusion_lat": 0.0, "name": "80eee7a0a7f85823d64d297e6792cc9e", "is_disabled": 0, "rental_uris": {"android": "https://dc.lft.to/lastmile_qr_scan", "ios": "https://dc.lft.to/lastmile_qr_scan"}, "fusion_lon": 0.0, "lat": 38.89102716666667, "bike_id": "80eee7a0a7f85823d64d297e6792cc9e", "type": "electric_scooter", "is_reserved": 0, "lon": -76.99622516666666}, {"fusion_lat": 0.0, "name": "b93afd458894e3ba6b478b55d5f486b8", "is_disabled": 0, "rental_uris": {"android": "https://dc.lft.to/lastmile_qr_scan", "ios": "https://dc.lft.to/lastmile_qr_scan"}, "fusion_lon": 0.0, "lat": 38.883021166666666, "bike_id": "b93afd458894e3ba6b478b55d5f486b8", "type": "electric_scooter", "is_reserved": 0, "lon": -76.94858683333334}, {"fusion_lat": 0.0, "name": "d7df76d242384f4f0c8234c358438493", "is_disabled": 0, "rental_uris": {"android": "https://dc.lft.to/lastmile_qr_scan", "ios": "https://dc.lft.to/lastmile_qr_scan"}, "fusion_lon": 0.0, "lat": 38.812482, "bike_id": "d7df76d242384f4f0c8234c358438493", "type": "electric_bike", "is_reserved": 0, "lon": -77.11761666666666}, {"fusion_lat": 0.0, "name": "d79c863e38fcd695675d99fd62c9952c", "is_disabled": 0, "rental_uris": {"android": "https://dc.lft.to/lastmile_qr_scan", "ios": "https://dc.lft.to/lastmile_qr_scan"}, "fusion_lon": 0.0, "lat": 38.90399083333333, "bike_id": "d79c863e38fcd695675d99fd62c9952c", "type": "electric_scooter", "is_reserved": 0, "lon": -77.068054}, {"fusion_lat": 0.0, "name": "c930c481ae401a2e2ccb5ac8c7b48def", "is_disabled": 0, "rental_uris": {"android": "https://dc.lft.to/lastmile_qr_scan", "ios": "https://dc.lft.to/lastmile_qr_scan"}, "fusion_lon": 0.0, "lat": 38.9073195, "bike_id": "c930c481ae401a2e2ccb5ac8c7b48def", "type": "electric_scooter", "is_reserved": 0, "lon": -76.93545616666667}, {"fusion_lat": 0.0, "name": "345cc99ab621e4c03ac6e138dbfb6b32", "is_disabled": 0, "rental_uris": {"android": "https://dc.lft.to/lastmile_qr_scan", "ios": "https://dc.lft.to/lastmile_qr_scan"}, "fusion_lon": 0.0, "lat": 38.917074166666666, "bike_id": "345cc99ab621e4c03ac6e138dbfb6b32", "type": "electric_scooter", "is_reserved": 0, "lon": -77.03869683333333}, {"fusion_lat": 0.0, "name": "fa28a48ae4216219fc95f44bca94c526", "is_disabled": 0, "rental_uris": {"android": "https://dc.lft.to/lastmile_qr_scan", "ios": "https://dc.lft.to/lastmile_qr_scan"}, "fusion_lon": 0.0, "lat": 38.927218, "bike_id": "fa28a48ae4216219fc95f44bca94c526", "type": "electric_scooter", "is_reserved": 0, "lon": -77.030657}, {"fusion_lat": 0.0, "name": "eacd277f9560abf3a4955aad18e73a1e", "is_disabled": 0, "rental_uris": {"android": "https://dc.lft.to/lastmile_qr_scan", "ios": "https://dc.lft.to/lastmile_qr_scan"}, "fusion_lon": 0.0, "lat": 38.88772633333333, "bike_id": "eacd277f9560abf3a4955aad18e73a1e", "type": "electric_scooter", "is_reserved": 0, "lon": -77.0286335}, {"fusion_lat": 0.0, "name": "ad8fcdc40c2e846a72591338eeceee4a", "is_disabled": 0, "rental_uris": {"android": "https://dc.lft.to/lastmile_qr_scan", "ios": "https://dc.lft.to/lastmile_qr_scan"}, "fusion_lon": 0.0, "lat": 38.92295266666667, "bike_id": "ad8fcdc40c2e846a72591338eeceee4a", "type": "electric_scooter", "is_reserved": 0, "lon": -77.0420825}, {"fusion_lat": 0.0, "name": "4d67b7d08489e77849d25c105eede4cf", "is_disabled": 0, "rental_uris": {"android": "https://dc.lft.to/lastmile_qr_scan", "ios": "https://dc.lft.to/lastmile_qr_scan"}, "fusion_lon": 0.0, "lat": 38.90240583333333, "bike_id": "4d67b7d08489e77849d25c105eede4cf", "type": "electric_scooter", "is_reserved": 0, "lon": -77.00200233333334}, {"fusion_lat": 0.0, "name": "cc9fd7a97a4a6f6d113e85d26407b193", "is_disabled": 0, "rental_uris": {"android": "https://dc.lft.to/lastmile_qr_scan", "ios": "https://dc.lft.to/lastmile_qr_scan"}, "fusion_lon": 0.0, "lat": 38.926444000000004, "bike_id": "cc9fd7a97a4a6f6d113e85d26407b193", "type": "electric_scooter", "is_reserved": 0, "lon": -77.041395}, {"fusion_lat": 0.0, "name": "978de21ddacfef186aa8d0fe80b2f4f0", "is_disabled": 0, "rental_uris": {"android": "https://dc.lft.to/lastmile_qr_scan", "ios": "https://dc.lft.to/lastmile_qr_scan"}, "fusion_lon": 0.0, "lat": 38.87375566666667, "bike_id": "978de21ddacfef186aa8d0fe80b2f4f0", "type": "electric_scooter", "is_reserved": 0, "lon": -77.00064866666666}, {"fusion_lat": 0.0, "name": "4367d46013220ce8b4bc25adda83e224", "is_disabled": 0, "rental_uris": {"android": "https://dc.lft.to/lastmile_qr_scan", "ios": "https://dc.lft.to/lastmile_qr_scan"}, "fusion_lon": 0.0, "lat": 38.90976933333334, "bike_id": "4367d46013220ce8b4bc25adda83e224", "type": "electric_scooter", "is_reserved": 0, "lon": -77.03447983333334}, {"fusion_lat": 0.0, "name": "5ca1e6a949a8ffe4dc13a4799f5a6a6c", "is_disabled": 0, "rental_uris": {"android": "https://dc.lft.to/lastmile_qr_scan", "ios": "https://dc.lft.to/lastmile_qr_scan"}, "fusion_lon": 0.0, "lat": 38.894702, "bike_id": "5ca1e6a949a8ffe4dc13a4799f5a6a6c", "type": "electric_scooter", "is_reserved": 0, "lon": -77.017647}, {"fusion_lat": 0.0, "name": "83c368ddfbcdf768cf0c57fda6724386", "is_disabled": 0, "rental_uris": {"android": "https://dc.lft.to/lastmile_qr_scan", "ios": "https://dc.lft.to/lastmile_qr_scan"}, "fusion_lon": 0.0, "lat": 38.8874515, "bike_id": "83c368ddfbcdf768cf0c57fda6724386", "type": "electric_scooter", "is_reserved": 0, "lon": -77.0222685}, {"fusion_lat": 0.0, "name": "7dff8187a5988331b87e6a99b3068781", "is_disabled": 0, "rental_uris": {"android": "https://dc.lft.to/lastmile_qr_scan", "ios": "https://dc.lft.to/lastmile_qr_scan"}, "fusion_lon": 0.0, "lat": 38.923358666666665, "bike_id": "7dff8187a5988331b87e6a99b3068781", "type": "electric_scooter", "is_reserved": 0, "lon": -77.03617816666667}, {"fusion_lat": 0.0, "name": "9fde17dd378ddcd6353b604cec80e8ed", "is_disabled": 0, "rental_uris": {"android": "https://dc.lft.to/lastmile_qr_scan", "ios": "https://dc.lft.to/lastmile_qr_scan"}, "fusion_lon": 0.0, "lat": 38.907566833333334, "bike_id": "9fde17dd378ddcd6353b604cec80e8ed", "type": "electric_scooter", "is_reserved": 0, "lon": -77.03574983333333}, {"fusion_lat": 0.0, "name": "e7cd96df8c9100ff6902e1b98864d77a", "is_disabled": 0, "rental_uris": {"android": "https://dc.lft.to/lastmile_qr_scan", "ios": "https://dc.lft.to/lastmile_qr_scan"}, "fusion_lon": 0.0, "lat": 38.93532966666667, "bike_id": "e7cd96df8c9100ff6902e1b98864d77a", "type": "electric_scooter", "is_reserved": 0, "lon": -77.02351316666666}, {"fusion_lat": 0.0, "name": "997540fa3fb14c51352c0d749df63be4", "is_disabled": 0, "rental_uris": {"android": "https://dc.lft.to/lastmile_qr_scan", "ios": "https://dc.lft.to/lastmile_qr_scan"}, "fusion_lon": 0.0, "lat": 38.89288066666667, "bike_id": "997540fa3fb14c51352c0d749df63be4", "type": "electric_scooter", "is_reserved": 0, "lon": -77.03177283333333}, {"fusion_lat": 0.0, "name": "60d9cd7fe0e99301f6ea131859342905", "is_disabled": 0, "rental_uris": {"android": "https://dc.lft.to/lastmile_qr_scan", "ios": "https://dc.lft.to/lastmile_qr_scan"}, "fusion_lon": 0.0, "lat": 38.93149533333333, "bike_id": "60d9cd7fe0e99301f6ea131859342905", "type": "electric_scooter", "is_reserved": 0, "lon": -77.02142666666667}, {"fusion_lat": 0.0, "name": "16b27a8c5a813a4c9cc276712b618dcd", "is_disabled": 0, "rental_uris": {"android": "https://dc.lft.to/lastmile_qr_scan", "ios": "https://dc.lft.to/lastmile_qr_scan"}, "fusion_lon": 0.0, "lat": 38.897682, "bike_id": "16b27a8c5a813a4c9cc276712b618dcd", "type": "electric_scooter", "is_reserved": 0, "lon": -77.027172}, {"fusion_lat": 0.0, "name": "365a774dcc6f1f61a047f8845f3cada9", "is_disabled": 0, "rental_uris": {"android": "https://dc.lft.to/lastmile_qr_scan", "ios": "https://dc.lft.to/lastmile_qr_scan"}, "fusion_lon": 0.0, "lat": 38.88887533333333, "bike_id": "365a774dcc6f1f61a047f8845f3cada9", "type": "electric_bike", "is_reserved": 0, "lon": -77.11526066666667}, {"fusion_lat": 0.0, "name": "ddfb8942b60197d94f7e9f7fd5aa9617", "is_disabled": 0, "rental_uris": {"android": "https://dc.lft.to/lastmile_qr_scan", "ios": "https://dc.lft.to/lastmile_qr_scan"}, "fusion_lon": 0.0, "lat": 38.9341345, "bike_id": "ddfb8942b60197d94f7e9f7fd5aa9617", "type": "electric_scooter", "is_reserved": 0, "lon": -76.97960333333333}, {"fusion_lat": 0.0, "name": "c257175f02977ef2c2ab74c468f9dcbf", "is_disabled": 0, "rental_uris": {"android": "https://dc.lft.to/lastmile_qr_scan", "ios": "https://dc.lft.to/lastmile_qr_scan"}, "fusion_lon": 0.0, "lat": 38.904589, "bike_id": "c257175f02977ef2c2ab74c468f9dcbf", "type": "electric_scooter", "is_reserved": 0, "lon": -77.05340266666667}, {"fusion_lat": 0.0, "name": "5b1e9a675489f79c5f6c5b15265cdbb1", "is_disabled": 0, "rental_uris": {"android": "https://dc.lft.to/lastmile_qr_scan", "ios": "https://dc.lft.to/lastmile_qr_scan"}, "fusion_lon": 0.0, "lat": 38.926065666666666, "bike_id": "5b1e9a675489f79c5f6c5b15265cdbb1", "type": "electric_scooter", "is_reserved": 0, "lon": -77.03953566666667}, {"fusion_lat": 0.0, "name": "b960c677bf9e524954a3ddecd1f7e7fe", "is_disabled": 0, "rental_uris": {"android": "https://dc.lft.to/lastmile_qr_scan", "ios": "https://dc.lft.to/lastmile_qr_scan"}, "fusion_lon": 0.0, "lat": 38.912467166666666, "bike_id": "b960c677bf9e524954a3ddecd1f7e7fe", "type": "electric_scooter", "is_reserved": 0, "lon": -77.00670516666666}, {"fusion_lat": 0.0, "name": "01fe1c5100bf70ec24ab9d0624e36ebd", "is_disabled": 0, "rental_uris": {"android": "https://dc.lft.to/lastmile_qr_scan", "ios": "https://dc.lft.to/lastmile_qr_scan"}, "fusion_lon": 0.0, "lat": 38.90967283333333, "bike_id": "01fe1c5100bf70ec24ab9d0624e36ebd", "type": "electric_scooter", "is_reserved": 0, "lon": -77.03985916666667}, {"fusion_lat": 0.0, "name": "7b1634963c4b6c76075900bb3ddf1cd3", "is_disabled": 0, "rental_uris": {"android": "https://dc.lft.to/lastmile_qr_scan", "ios": "https://dc.lft.to/lastmile_qr_scan"}, "fusion_lon": 0.0, "lat": 38.84424633333333, "bike_id": "7b1634963c4b6c76075900bb3ddf1cd3", "type": "electric_scooter", "is_reserved": 0, "lon": -76.99783733333334}, {"fusion_lat": 0.0, "name": "eed3b84e96a6e753e80f0dab891885a8", "is_disabled": 0, "rental_uris": {"android": "https://dc.lft.to/lastmile_qr_scan", "ios": "https://dc.lft.to/lastmile_qr_scan"}, "fusion_lon": 0.0, "lat": 38.895273833333334, "bike_id": "eed3b84e96a6e753e80f0dab891885a8", "type": "electric_scooter", "is_reserved": 0, "lon": -77.03056183333334}, {"fusion_lat": 0.0, "name": "7f67aa189142da8b84e59e2c8cadc6b6", "is_disabled": 0, "rental_uris": {"android": "https://dc.lft.to/lastmile_qr_scan", "ios": "https://dc.lft.to/lastmile_qr_scan"}, "fusion_lon": 0.0, "lat": 38.920789, "bike_id": "7f67aa189142da8b84e59e2c8cadc6b6", "type": "electric_scooter", "is_reserved": 0, "lon": -77.02528483333333}, {"fusion_lat": 0.0, "name": "2fc8921cf7e186821e473da1c23912d8", "is_disabled": 0, "rental_uris": {"android": "https://dc.lft.to/lastmile_qr_scan", "ios": "https://dc.lft.to/lastmile_qr_scan"}, "fusion_lon": 0.0, "lat": 38.898459333333335, "bike_id": "2fc8921cf7e186821e473da1c23912d8", "type": "electric_scooter", "is_reserved": 0, "lon": -77.03935666666666}, {"fusion_lat": 0.0, "name": "493ec0401748e13af8cca8eac9970523", "is_disabled": 0, "rental_uris": {"android": "https://dc.lft.to/lastmile_qr_scan", "ios": "https://dc.lft.to/lastmile_qr_scan"}, "fusion_lon": 0.0, "lat": 38.877068666666666, "bike_id": "493ec0401748e13af8cca8eac9970523", "type": "electric_scooter", "is_reserved": 0, "lon": -77.01763483333333}, {"fusion_lat": 0.0, "name": "dc1ac4721c325ad495d8cbd515292a16", "is_disabled": 0, "rental_uris": {"android": "https://dc.lft.to/lastmile_qr_scan", "ios": "https://dc.lft.to/lastmile_qr_scan"}, "fusion_lon": 0.0, "lat": 38.954666, "bike_id": "dc1ac4721c325ad495d8cbd515292a16", "type": "electric_scooter", "is_reserved": 0, "lon": -77.00784716666666}, {"fusion_lat": 0.0, "name": "7408c80fd60c36924ca91c4f18194b29", "is_disabled": 0, "rental_uris": {"android": "https://dc.lft.to/lastmile_qr_scan", "ios": "https://dc.lft.to/lastmile_qr_scan"}, "fusion_lon": 0.0, "lat": 38.9204625, "bike_id": "7408c80fd60c36924ca91c4f18194b29", "type": "electric_scooter", "is_reserved": 0, "lon": -77.00339866666667}, {"fusion_lat": 0.0, "name": "75956c49e55cb7028ca2010ab3328f16", "is_disabled": 0, "rental_uris": {"android": "https://dc.lft.to/lastmile_qr_scan", "ios": "https://dc.lft.to/lastmile_qr_scan"}, "fusion_lon": 0.0, "lat": 38.923602833333334, "bike_id": "75956c49e55cb7028ca2010ab3328f16", "type": "electric_scooter", "is_reserved": 0, "lon": -77.0502685}, {"fusion_lat": 0.0, "name": "007f6bb5b167a6c3f527be808a440a8a", "is_disabled": 0, "rental_uris": {"android": "https://dc.lft.to/lastmile_qr_scan", "ios": "https://dc.lft.to/lastmile_qr_scan"}, "fusion_lon": 0.0, "lat": 38.920535, "bike_id": "007f6bb5b167a6c3f527be808a440a8a", "type": "electric_scooter", "is_reserved": 0, "lon": -77.04190566666666}, {"fusion_lat": 0.0, "name": "6e3c9a48e52ddc7bef0638af6ee3b9d0", "is_disabled": 0, "rental_uris": {"android": "https://dc.lft.to/lastmile_qr_scan", "ios": "https://dc.lft.to/lastmile_qr_scan"}, "fusion_lon": 0.0, "lat": 38.944317, "bike_id": "6e3c9a48e52ddc7bef0638af6ee3b9d0", "type": "electric_bike", "is_reserved": 0, "lon": -77.0260075}, {"fusion_lat": 0.0, "name": "92c2b103e9418447dbaceac40721dfec", "is_disabled": 0, "rental_uris": {"android": "https://dc.lft.to/lastmile_qr_scan", "ios": "https://dc.lft.to/lastmile_qr_scan"}, "fusion_lon": 0.0, "lat": 38.904930666666665, "bike_id": "92c2b103e9418447dbaceac40721dfec", "type": "electric_scooter", "is_reserved": 0, "lon": -77.02818383333333}, {"fusion_lat": 0.0, "name": "011a7a1fef540a75e2ba07626e767163", "is_disabled": 0, "rental_uris": {"android": "https://dc.lft.to/lastmile_qr_scan", "ios": "https://dc.lft.to/lastmile_qr_scan"}, "fusion_lon": 0.0, "lat": 38.9266905, "bike_id": "011a7a1fef540a75e2ba07626e767163", "type": "electric_scooter", "is_reserved": 0, "lon": -77.03049916666667}, {"fusion_lat": 0.0, "name": "f53ae8c8ba2e74f49820cb29037f8064", "is_disabled": 0, "rental_uris": {"android": "https://dc.lft.to/lastmile_qr_scan", "ios": "https://dc.lft.to/lastmile_qr_scan"}, "fusion_lon": 0.0, "lat": 38.89083483333334, "bike_id": "f53ae8c8ba2e74f49820cb29037f8064", "type": "electric_scooter", "is_reserved": 0, "lon": -76.91930166666667}, {"fusion_lat": 0.0, "name": "a613ebe3fd70d516144f96397e5abe99", "is_disabled": 0, "rental_uris": {"android": "https://dc.lft.to/lastmile_qr_scan", "ios": "https://dc.lft.to/lastmile_qr_scan"}, "fusion_lon": 0.0, "lat": 38.9050945, "bike_id": "a613ebe3fd70d516144f96397e5abe99", "type": "electric_scooter", "is_reserved": 0, "lon": -76.98484366666666}, {"fusion_lat": 0.0, "name": "355add2b65dc36fa0660475b70b6f278", "is_disabled": 0, "rental_uris": {"android": "https://dc.lft.to/lastmile_qr_scan", "ios": "https://dc.lft.to/lastmile_qr_scan"}, "fusion_lon": 0.0, "lat": 38.9154165, "bike_id": "355add2b65dc36fa0660475b70b6f278", "type": "electric_scooter", "is_reserved": 0, "lon": -77.0387205}, {"fusion_lat": 0.0, "name": "20ea76cb53091110ff9b9c778c8ea9cf", "is_disabled": 0, "rental_uris": {"android": "https://dc.lft.to/lastmile_qr_scan", "ios": "https://dc.lft.to/lastmile_qr_scan"}, "fusion_lon": 0.0, "lat": 38.9159525, "bike_id": "20ea76cb53091110ff9b9c778c8ea9cf", "type": "electric_scooter", "is_reserved": 0, "lon": -77.04555583333334},