{"data": {"bikes": [{"fusion_lat": 0.0, "lon": -77.00429816666667, "is_reserved": 0, "bike_id": "34bf7baf33e2fc2b91a5e34c659a7720", "fusion_lon": 0.0, "rental_uris": {"android": "https://dc.lft.to/lastmile_qr_scan", "ios": "https://dc.lft.to/lastmile_qr_scan"}, "name": "34bf7baf33e2fc2b91a5e34c659a7720", "type": "electric_scooter", "lat": 38.91328716666666, "is_disabled": 0}, {"fusion_lat": 0.0, "lon": -77.0521755, "is_reserved": 0, "bike_id": "e2c603233cf12a305bd235f1367997c5", "fusion_lon": 0.0, "rental_uris": {"android": "https://dc.lft.to/lastmile_qr_scan", "ios": "https://dc.lft.to/lastmile_qr_scan"}, "name": "e2c603233cf12a305bd235f1367997c5", "type": "electric_scooter", "lat": 38.92493316666667, "is_disabled": 0}, {"fusion_lat": 0.0, "lon": -77.04492866666666, "is_reserved": 0, "bike_id": "2185f224c0be613e45de090d26331e70", "fusion_lon": 0.0, "rental_uris": {"android": "https://dc.lft.to/lastmile_qr_scan", "ios": "https://dc.lft.to/lastmile_qr_scan"}, "name": "2185f224c0be613e45de090d26331e70", "type": "electric_scooter", "lat": 38.903777, "is_disabled": 0}, {"fusion_lat": 0.0, "lon": -76.9336205, "is_reserved": 0, "bike_id": "181a75e83dd1bb683d180cdd42c5e69d", "fusion_lon": 0.0, "rental_uris": {"android": "https://dc.lft.to/lastmile_qr_scan", "ios": "https://dc.lft.to/lastmile_qr_scan"}, "name": "181a75e83dd1bb683d180cdd42c5e69d", "type": "electric_scooter", "lat": 38.8879755, "is_disabled": 0}, {"fusion_lat": 0.0, "lon": -77.00343233333334, "is_reserved": 0, "bike_id": "8d16ddd73faca3e6c67d28e0ae9051f2", "fusion_lon": 0.0, "rental_uris": {"android": "https://dc.lft.to/lastmile_qr_scan", "ios": "https://dc.lft.to/lastmile_qr_scan"}, "name": "8d16ddd73faca3e6c67d28e0ae9051f2", "type": "electric_scooter", "lat": 38.89531366666667, "is_disabled": 0}, {"fusion_lat": 0.0, "lon": -77.05208816666666, "is_reserved": 0, "bike_id": "9d1e1df9244d4782e68581cacbccef7f", "fusion_lon": 0.0, "rental_uris": {"android": "https://dc.lft.to/lastmile_qr_scan", "ios": "https://dc.lft.to/lastmile_qr_scan"}, "name": "9d1e1df9244d4782e68581cacbccef7f", "type": "electric_scooter", "lat": 38.91559066666667, "is_disabled": 0}, {"fusion_lat": 0.0, "lon": -77.045052, "is_reserved": 0, "bike_id": "f82b609bf2523435c2319759ca3a835d", "fusion_lon": 0.0, "rental_uris": {"android": "https://dc.lft.to/lastmile_qr_scan", "ios": "https://dc.lft.to/lastmile_qr_scan"}, "name": "f82b609bf2523435c2319759ca3a835d", "type": "electric_scooter", "lat": 38.8923535, "is_disabled": 0}, {"fusion_lat": 0.0, "lon": -77.03635883333334, "is_reserved": 0, "bike_id": "02a844abae2e79e48083c05489068c19", "fusion_lon": 0.0, "rental_uris": {"android": "https://dc.lft.to/lastmile_qr_scan", "ios": "https://dc.lft.to/lastmile_qr_scan"}, "name": "02a844abae2e79e48083c05489068c19", "type": "electric_scooter", "lat": 38.90995916666667, "is_disabled": 0}, {"fusion_lat": 0.0, "lon": -77.0176745, "is_reserved": 0, "bike_id": "ba02252896c50cbaefe07b48d0b88865", "fusion_lon": 0.0, "rental_uris": {"android": "https://dc.lft.to/lastmile_qr_scan", "ios": "https://dc.lft.to/lastmile_qr_scan"}, "name": "ba02252896c50cbaefe07b48d0b88865", "type": "electric_scooter", "lat": 38.975966, "is_disabled": 0}, {"fusion_lat": 0.0, "lon": -77.02580216666667, "is_reserved": 0, "bike_id": "815da4061cac65ef4b78d8d60261941c", "fusion_lon": 0.0, "rental_uris": {"android": "https://dc.lft.to/lastmile_qr_scan", "ios": "https://dc.lft.to/lastmile_qr_scan"}, "name": "815da4061cac65ef4b78d8d60261941c", "type": "electric_scooter", "lat": 38.920500833333335, "is_disabled": 0}, {"fusion_lat": 0.0, "lon": -77.02716833333334, "is_reserved": 0, "bike_id": "fe45c0f427521bc81605cf66ee379542", "fusion_lon": 0.0, "rental_uris": {"android": "https://dc.lft.to/lastmile_qr_scan", "ios": "https://dc.lft.to/lastmile_qr_scan"}, "name": "fe45c0f427521bc81605cf66ee379542", "type": "electric_scooter", "lat": 38.94955866666667, "is_disabled": 0}, {"fusion_lat": 0.0, "lon": -77.04676483333333, "is_reserved": 0, "bike_id": "b2398428d7672c38c9625e8afe2cbd9d", "fusion_lon": 0.0, "rental_uris": {"android": "https://dc.lft.to/lastmile_qr_scan", "ios": "https://dc.lft.to/lastmile_qr_scan"}, "name": "b2398428d7672c38c9625e8afe2cbd9d", "type": "electric_scooter", "lat": 38.895528666666664, "is_disabled": 0}, {"fusion_lat": 0.0, "lon": -77.04362283333333, "is_reserved": 0, "bike_id": "76f59ce5940715fee0ce4e80a6181cca", "fusion_lon": 0.0, "rental_uris": {"android": "https://dc.lft.to/lastmile_qr_scan", "ios": "https://dc.lft.to/lastmile_qr_scan"}, "name": "76f59ce5940715fee0ce4e80a6181cca", "type": "electric_scooter", "lat": 38.898339666666665, "is_disabled": 0}, {"fusion_lat": 0.0, "lon": -77.025611, "is_reserved": 0, "bike_id": "27937f04be58f5f369831a72ef71cf1a", "fusion_lon": 0.0, "rental_uris": {"android": "https://dc.lft.to/lastmile_qr_scan", "ios": "https://dc.lft.to/lastmile_qr_scan"}, "name": "27937f04be58f5f369831a72ef71cf1a", "type": "electric_scooter", "lat": 38.938591833333334, "is_disabled": 0}, {"fusion_lat": 0.0, "lon": -76.98361133333333, "is_reserved": 0, "bike_id": "6f0cff1a227f96883c99fd16acf78a6b", "fusion_lon": 0.0, "rental_uris": {"android": "https://dc.lft.to/lastmile_qr_scan", "ios": "https://dc.lft.to/lastmile_qr_scan"}, "name": "6f0cff1a227f96883c99fd16acf78a6b", "type": "electric_scooter", "lat": 38.91498566666667, "is_disabled": 0}, {"fusion_lat": 0.0, "lon": -76.99605216666667, "is_reserved": 0, "bike_id": "198f53317ef23d7d724ca02769db93e0", "fusion_lon": 0.0, "rental_uris": {"android": "https://dc.lft.to/lastmile_qr_scan", "ios": "https://dc.lft.to/lastmile_qr_scan"}, "name": "198f53317ef23d7d724ca02769db93e0", "type": "electric_scooter", "lat": 38.89224316666667, "is_disabled": 0}, {"fusion_lat": 0.0, "lon": -77.0422245, "is_reserved": 0, "bike_id": "df40217529dc6c7a50405718a5bea6df", "fusion_lon": 0.0, "rental_uris": {"android": "https://dc.lft.to/lastmile_qr_scan", "ios": "https://dc.lft.to/lastmile_qr_scan"}, "name": "df40217529dc6c7a50405718a5bea6df", "type": "electric_scooter", "lat": 38.92171666666667, "is_disabled": 0}, {"fusion_lat": 0.0, "lon": -77.02692833333333, "is_reserved": 0, "bike_id": "9f6538da37a14efc8e7afb9cc0f91a1e", "fusion_lon": 0.0, "rental_uris": {"android": "https://dc.lft.to/lastmile_qr_scan", "ios": "https://dc.lft.to/lastmile_qr_scan"}, "name": "9f6538da37a14efc8e7afb9cc0f91a1e", "type": "electric_scooter", "lat": 38.909291833333334, "is_disabled": 0}, {"fusion_lat": 0.0, "lon": -77.023042, "is_reserved": 0, "bike_id": "4516dcbbcfa711d4dcd324346c082c07", "fusion_lon": 0.0, "rental_uris": {"android": "https://dc.lft.to/lastmile_qr_scan", "ios": "https://dc.lft.to/lastmile_qr_scan"}, "name": "4516dcbbcfa711d4dcd324346c082c07", "type": "electric_scooter", "lat": 38.92716866666667, "is_disabled": 0}, {"fusion_lat": 0.0, "lon": -77.08943766666667, "is_reserved": 0, "bike_id": "537a69184bfd50b392b1027e3e32b39d", "fusion_lon": 0.0, "rental_uris": {"android": "https://dc.lft.to/lastmile_qr_scan", "ios": "https://dc.lft.to/lastmile_qr_scan"}, "name": "537a69184bfd50b392b1027e3e32b39d", "type": "electric_bike", "lat": 38.840968, "is_disabled": 0}, {"fusion_lat": 0.0, "lon": -76.99507116666666, "is_reserved": 0, "bike_id": "378586bae7dfed684396e11b9a5a86f4", "fusion_lon": 0.0, "rental_uris": {"android": "https://dc.lft.to/lastmile_qr_scan", "ios": "https://dc.lft.to/lastmile_qr_scan"}, "name": "378586bae7dfed684396e11b9a5a86f4", "type": "electric_scooter", "lat": 38.90978966666667, "is_disabled": 0}, {"fusion_lat": 0.0, "lon": -77.04364066666666, "is_reserved": 0, "bike_id": "d2c7aff787584ba6ae10352d280e8ac0", "fusion_lon": 0.0, "rental_uris": {"android": "https://dc.lft.to/lastmile_qr_scan", "ios": "https://dc.lft.to/lastmile_qr_scan"}, "name": "d2c7aff787584ba6ae10352d280e8ac0", "type": "electric_scooter", "lat": 38.911182333333336, "is_disabled": 0}, {"fusion_lat": 0.0, "lon": -77.02559616666667, "is_reserved": 0, "bike_id": "075c795eeacca85b909a2c66400ec656", "fusion_lon": 0.0, "rental_uris": {"android": "https://dc.lft.to/lastmile_qr_scan", "ios": "https://dc.lft.to/lastmile_qr_scan"}, "name": "075c795eeacca85b909a2c66400ec656", "type": "electric_scooter", "lat": 38.9246755, "is_disabled": 0}, {"fusion_lat": 0.0, "lon": -77.03499133333334, "is_reserved": 0, "bike_id": "71b8d618187ca31265595665322d4a42", "fusion_lon": 0.0, "rental_uris": {"android": "https://dc.lft.to/lastmile_qr_scan", "ios": "https://dc.lft.to/lastmile_qr_scan"}, "name": "71b8d618187ca31265595665322d4a42", "type": "electric_scooter", "lat": 38.92346916666666, "is_disabled": 0}, {"fusion_lat": 0.0, "lon": -77.0215655, "is_reserved": 0, "bike_id": "c0e3b14b3046a6e21385202c477a8e30", "fusion_lon": 0.0, "rental_uris": {"android": "https://dc.lft.to/lastmile_qr_scan", "ios": "https://dc.lft.to/lastmile_qr_scan"}, "name": "c0e3b14b3046a6e21385202c477a8e30", "type": "electric_scooter", "lat": 38.926068666666666, "is_disabled": 0}, {"fusion_lat": 0.0, "lon": -76.93365533333333, "is_reserved": 0, "bike_id": "1d3edaeb1d9ae5db4b5b87d9a681c8d7", "fusion_lon": 0.0, "rental_uris": {"android": "https://dc.lft.to/lastmile_qr_scan", "ios": "https://dc.lft.to/lastmile_qr_scan"}, "name": "1d3edaeb1d9ae5db4b5b87d9a681c8d7", "type": "electric_scooter", "lat": 38.89911983333333, "is_disabled": 0}, {"fusion_lat": 0.0, "lon": -77.03834966666666, "is_reserved": 0, "bike_id": "6bfe57d246f92f5e0af2e4c238a93865", "fusion_lon": 0.0, "rental_uris": {"android": "https://dc.lft.to/lastmile_qr_scan", "ios": "https://dc.lft.to/lastmile_qr_scan"}, "name": "6bfe57d246f92f5e0af2e4c238a93865", "type": "electric_scooter", "lat": 38.90830883333334, "is_disabled": 0}, {"fusion_lat": 0.0, "lon": -76.99864633333334, "is_reserved": 0, "bike_id": "1f7146f38fd492a22862356a62b10073", "fusion_lon": 0.0, "rental_uris": {"android": "https://dc.lft.to/lastmile_qr_scan", "ios": "https://dc.lft.to/lastmile_qr_scan"}, "name": "1f7146f38fd492a22862356a62b10073", "type": "electric_scooter", "lat": 38.886349333333335, "is_disabled": 0}, {"fusion_lat": 0.0, "lon": -77.02976216666667, "is_reserved": 0, "bike_id": "c917019724fbe97961ca99be5930d70c", "fusion_lon": 0.0, "rental_uris": {"android": "https://dc.lft.to/lastmile_qr_scan", "ios": "https://dc.lft.to/lastmile_qr_scan"}, "name": "c917019724fbe97961ca99be5930d70c", "type": "electric_scooter", "lat": 38.932763666666666, "is_disabled": 0}, {"fusion_lat": 0.0, "lon": -77.050109, "is_reserved": 0, "bike_id": "a3536b9eda09b487fe361d60b3424066", "fusion_lon": 0.0, "rental_uris": {"android": "https://dc.lft.to/lastmile_qr_scan", "ios": "https://dc.lft.to/lastmile_qr_scan"}, "name": "a3536b9eda09b487fe361d60b3424066", "type": "electric_scooter", "lat": 38.90135866666667, "is_disabled": 0}, {"fusion_lat": 0.0, "lon": -77.02845283333333, "is_reserved": 0, "bike_id": "6ff978391669d173bc5d469220678275", "fusion_lon": 0.0, "rental_uris": {"android": "https://dc.lft.to/lastmile_qr_scan", "ios": "https://dc.lft.to/lastmile_qr_scan"}, "name": "6ff978391669d173bc5d469220678275", "type": "electric_scooter", "lat": 38.8874015, "is_disabled": 0}, {"fusion_lat": 0.0, "lon": -77.038817, "is_reserved": 0, "bike_id": "693077e18d669353a1b27572822c3676", "fusion_lon": 0.0, "rental_uris": {"android": "https://dc.lft.to/lastmile_qr_scan", "ios": "https://dc.lft.to/lastmile_qr_scan"}, "name": "693077e18d669353a1b27572822c3676", "type": "electric_scooter", "lat": 38.89198483333333, "is_disabled": 0}, {"fusion_lat": 0.0, "lon": -77.04673866666667, "is_reserved": 0, "bike_id": "4562d16108bbbc2c12b2ac8d45d4c650", "fusion_lon": 0.0, "rental_uris": {"android": "https://dc.lft.to/lastmile_qr_scan", "ios": "https://dc.lft.to/lastmile_qr_scan"}, "name": "4562d16108bbbc2c12b2ac8d45d4c650", "type": "electric_bike", "lat": 38.89451433333333, "is_disabled": 0}, {"fusion_lat": 0.0, "lon": -77.0441425, "is_reserved": 0, "bike_id": "0892e9b91ceea37683415dbec7d1d1e9", "fusion_lon": 0.0, "rental_uris": {"android": "https://dc.lft.to/lastmile_qr_scan", "ios": "https://dc.lft.to/lastmile_qr_scan"}, "name": "0892e9b91ceea37683415dbec7d1d1e9", "type": "electric_scooter", "lat": 38.909133833333335, "is_disabled": 0}, {"fusion_lat": 0.0, "lon": -77.04867816666666, "is_reserved": 0, "bike_id": "0871b660981d20e736248de4e75632be", "fusion_lon": 0.0, "rental_uris": {"android": "https://dc.lft.to/lastmile_qr_scan", "ios": "https://dc.lft.to/lastmile_qr_scan"}, "name": "0871b660981d20e736248de4e75632be", "type": "electric_scooter", "lat": 38.8921945, "is_disabled": 0}, {"fusion_lat": 0.0, "lon": -77.0287955, "is_reserved": 0, "bike_id": "1aeb4ae91ec99b77b17bca9532d238a5", "fusion_lon": 0.0, "rental_uris": {"android": "https://dc.lft.to/lastmile_qr_scan", "ios": "https://dc.lft.to/lastmile_qr_scan"}, "name": "1aeb4ae91ec99b77b17bca9532d238a5", "type": "electric_scooter", "lat": 38.912664166666666, "is_disabled": 0}, {"fusion_lat": 0.0, "lon": -77.07724516666667, "is_reserved": 0, "bike_id": "9b711d49029f0d68bf872756424a5798", "fusion_lon": 0.0, "rental_uris": {"android": "https://dc.lft.to/lastmile_qr_scan", "ios": "https://dc.lft.to/lastmile_qr_scan"}, "name": "9b711d49029f0d68bf872756424a5798", "type": "electric_bike", "lat": 38.8954, "is_disabled": 0}, {"fusion_lat": 0.0, "lon": -76.96781733333333, "is_reserved": 0, "bike_id": "7f817a0ae0b34c2419394c7168c42f2d", "fusion_lon": 0.0, "rental_uris": {"android": "https://dc.lft.to/lastmile_qr_scan", "ios": "https://dc.lft.to/lastmile_qr_scan"}, "name": "7f817a0ae0b34c2419394c7168c42f2d", "type": "electric_scooter", "lat": 38.8733815, "is_disabled": 0}, {"fusion_lat": 0.0, "lon": -77.0511, "is_reserved": 0, "bike_id": "388c21e506757fbae4ec207369c27249", "fusion_lon": 0.0, "rental_uris": {"android": "https://dc.lft.to/lastmile_qr_scan", "ios": "https://dc.lft.to/lastmile_qr_scan"}, "name": "388c21e506757fbae4ec207369c27249", "type": "electric_bike", "lat": 39.036665, "is_disabled": 0}, {"fusion_lat": 0.0, "lon": -76.99813866666666, "is_reserved": 0, "bike_id": "59cdf45c99619b5e6ecec470430c6d05", "fusion_lon": 0.0, "rental_uris": {"android": "https://dc.lft.to/lastmile_qr_scan", "ios": "https://dc.lft.to/lastmile_qr_scan"}, "name": "59cdf45c99619b5e6ecec470430c6d05", "type": "electric_scooter", "lat": 38.90704983333333, "is_disabled": 0}, {"fusion_lat": 0.0, "lon": -77.000511, "is_reserved": 0, "bike_id": "9ec902b1ae97381cef77dc32eb79a13d", "fusion_lon": 0.0, "rental_uris": {"android": "https://dc.lft.to/lastmile_qr_scan", "ios": "https://dc.lft.to/lastmile_qr_scan"}, "name": "9ec902b1ae97381cef77dc32eb79a13d", "type": "electric_scooter", "lat": 38.9246815, "is_disabled": 0}, {"fusion_lat": 0.0, "lon": -77.0639925, "is_reserved": 0, "bike_id": "5e5a9cedbb1a80b44669b89be7d03325", "fusion_lon": 0.0, "rental_uris": {"android": "https://dc.lft.to/lastmile_qr_scan", "ios": "https://dc.lft.to/lastmile_qr_scan"}, "name": "5e5a9cedbb1a80b44669b89be7d03325", "type": "electric_bike", "lat": 38.94479316666666, "is_disabled": 0}, {"fusion_lat": 0.0, "lon": -77.0637055, "is_reserved": 0, "bike_id": "bce597118ea9b538c165e6a287792013", "fusion_lon": 0.0, "rental_uris": {"android": "https://dc.lft.to/lastmile_qr_scan", "ios": "https://dc.lft.to/lastmile_qr_scan"}, "name": "bce597118ea9b538c165e6a287792013", "type": "electric_scooter", "lat": 38.90513983333334, "is_disabled": 0}, {"fusion_lat": 0.0, "lon": -77.0239625, "is_reserved": 0, "bike_id": "4b59643396b48b03b02ce419b1b08ec7", "fusion_lon": 0.0, "rental_uris": {"android": "https://dc.lft.to/lastmile_qr_scan", "ios": "https://dc.lft.to/lastmile_qr_scan"}, "name": "4b59643396b48b03b02ce419b1b08ec7", "type": "electric_scooter", "lat": 38.89614783333333, "is_disabled": 0}, {"fusion_lat": 0.0, "lon": -77.01886183333333, "is_reserved": 0, "bike_id": "c25a27670f3c0afdc87b6a4a029caa7d", "fusion_lon": 0.0, "rental_uris": {"android": "https://dc.lft.to/lastmile_qr_scan", "ios": "https://dc.lft.to/lastmile_qr_scan"}, "name": "c25a27670f3c0afdc87b6a4a029caa7d", "type": "electric_scooter", "lat": 38.923327, "is_disabled": 0}, {"fusion_lat": 0.0, "lon": -77.03800516666666, "is_reserved": 0, "bike_id": "a88e9858359660bc354b1b2d11d2650d", "fusion_lon": 0.0, "rental_uris": {"android": "https://dc.lft.to/lastmile_qr_scan", "ios": "https://dc.lft.to/lastmile_qr_scan"}, "name": "a88e9858359660bc354b1b2d11d2650d", "type": "electric_scooter", "lat": 38.930673, "is_disabled": 0}, {"fusion_lat": 0.0, "lon": -76.99759166666666, "is_reserved": 0, "bike_id": "35be0b89bb046dcfc49eb7c3474657b1", "fusion_lon": 0.0, "rental_uris": {"android": "https://dc.lft.to/lastmile_qr_scan", "ios": "https://dc.lft.to/lastmile_qr_scan"}, "name": "35be0b89bb046dcfc49eb7c3474657b1", "type": "electric_scooter", "lat": 38.88766833333333, "is_disabled": 0}, {"fusion_lat": 0.0, "lon": -77.021894, "is_reserved": 0, "bike_id": "faf7c17f8bd9b2df609cdd2cec834faa", "fusion_lon": 0.0, "rental_uris": {"android": "https://dc.lft.to/lastmile_qr_scan", "ios": "https://dc.lft.to/lastmile_qr_scan"}, "name": "faf7c17f8bd9b2df609cdd2cec834faa", "type": "electric_scooter", "lat": 38.905740333333334, "is_disabled": 0}, {"fusion_lat": 0.0, "lon": -76.9468265, "is_reserved": 0, "bike_id": "f3a956d92e5ec751b05fbe7fbe30480c", "fusion_lon": 0.0, "rental_uris": {"android": "https://dc.lft.to/lastmile_qr_scan", "ios": "https://dc.lft.to/lastmile_qr_scan"}, "name": "f3a956d92e5ec751b05fbe7fbe30480c", "type": "electric_scooter", "lat": 38.88623616666667, "is_disabled": 0}, {"fusion_lat": 0.0, "lon": -77.04357683333333, "is_reserved": 0, "bike_id": "03bbd7a01301b8263ac459c2e457c48f", "fusion_lon": 0.0, "rental_uris": {"android": "https://dc.lft.to/lastmile_qr_scan", "ios": "https://dc.lft.to/lastmile_qr_scan"}, "name": "03bbd7a01301b8263ac459c2e457c48f", "type": "electric_scooter", "lat": 38.89229066666667, "is_disabled": 0}, {"fusion_lat": 0.0, "lon": -77.003398, "is_reserved": 0, "bike_id": "dc3d608a86fc6ebb14fa8e8520795321", "fusion_lon": 0.0, "rental_uris": {"android": "https://dc.lft.to/lastmile_qr_scan", "ios": "https://dc.lft.to/lastmile_qr_scan"}, "name": "dc3d608a86fc6ebb14fa8e8520795321", "type": "electric_scooter", "lat": 38.90355983333333, "is_disabled": 0}, {"fusion_lat": 0.0, "lon": -77.0487445, "is_reserved": 0, "bike_id": "b5760f9ea2eb9c854a7f87b0e961a47e", "fusion_lon": 0.0, "rental_uris": {"android": "https://dc.lft.to/lastmile_qr_scan", "ios": "https://dc.lft.to/lastmile_qr_scan"}, "name": "b5760f9ea2eb9c854a7f87b0e961a47e", "type": "electric_scooter", "lat": 38.912076, "is_disabled": 0}, {"fusion_lat": 0.0, "lon": -77.0038225, "is_reserved": 0, "bike_id": "b12de09864d2fa6184153978d8061d25", "fusion_lon": 0.0, "rental_uris": {"android": "https://dc.lft.to/lastmile_qr_scan", "ios": "https://dc.lft.to/lastmile_qr_scan"}, "name": "b12de09864d2fa6184153978d8061d25", "type": "electric_scooter", "lat": 38.8763535, "is_disabled": 0}, {"fusion_lat": 0.0, "lon": -77.0449455, "is_reserved": 0, "bike_id": "23ab6bd40e099017f87c2245b19b2e2b", "fusion_lon": 0.0, "rental_uris": {"android": "https://dc.lft.to/lastmile_qr_scan", "ios": "https://dc.lft.to/lastmile_qr_scan"}, "name": "23ab6bd40e099017f87c2245b19b2e2b", "type": "electric_scooter", "lat": 38.90505116666667, "is_disabled": 0}, {"fusion_lat": 0.0, "lon": -76.94197233333334, "is_reserved": 0, "bike_id": "00d8fc5682c3ad0002c26de00bdc1183", "fusion_lon": 0.0, "rental_uris": {"android": "https://dc.lft.to/lastmile_qr_scan", "ios": "https://dc.lft.to/lastmile_qr_scan"}, "name": "00d8fc5682c3ad0002c26de00bdc1183", "type": "electric_scooter", "lat": 38.8937095, "is_disabled": 0}, {"fusion_lat": 0.0, "lon": -77.069082, "is_reserved": 0, "bike_id": "7b37fa0a5bd7bcd8c39d4afc940b79b4", "fusion_lon": 0.0, "rental_uris": {"android": "https://dc.lft.to/lastmile_qr_scan", "ios": "https://dc.lft.to/lastmile_qr_scan"}, "name": "7b37fa0a5bd7bcd8c39d4afc940b79b4", "type": "electric_bike", "lat": 38.90835283333333, "is_disabled": 0}, {"fusion_lat": 0.0, "lon": -77.02138116666667, "is_reserved": 0, "bike_id": "e775387c9783f76dc26bb4e1196ba743", "fusion_lon": 0.0, "rental_uris": {"android": "https://dc.lft.to/lastmile_qr_scan", "ios": "https://dc.lft.to/lastmile_qr_scan"}, "name": "e775387c9783f76dc26bb4e1196ba743", "type": "electric_scooter", "lat": 38.92460583333333, "is_disabled": 0}, {"fusion_lat": 0.0, "lon": -77.02956983333333, "is_reserved": 0, "bike_id": "be140f7334a63f54c99182a506b8603b", "fusion_lon": 0.0, "rental_uris": {"android": "https://dc.lft.to/lastmile_qr_scan", "ios": "https://dc.lft.to/lastmile_qr_scan"}, "name": "be140f7334a63f54c99182a506b8603b", "type": "electric_scooter", "lat": 38.897363666666664, "is_disabled": 0}, {"fusion_lat": 0.0, "lon": -76.94804566666667, "is_reserved": 0, "bike_id": "97719b5009b04ba2349df00cb975e959", "fusion_lon": 0.0, "rental_uris": {"android": "https://dc.lft.to/lastmile_qr_scan", "ios": "https://dc.lft.to/lastmile_qr_scan"}, "name": "97719b5009b04ba2349df00cb975e959", "type": "electric_bike", "lat": 38.86191266666667, "is_disabled": 0}, {"fusion_lat": 0.0, "lon": -77.04690216666667, "is_reserved": 0, "bike_id": "6022144c4a3758164311c92fcc07e6dd", "fusion_lon": 0.0, "rental_uris": {"android": "https://dc.lft.to/lastmile_qr_scan", "ios": "https://dc.lft.to/lastmile_qr_scan"}, "name": "6022144c4a3758164311c92fcc07e6dd", "type": "electric_scooter", "lat": 38.91575, "is_disabled": 0}, {"fusion_lat": 0.0, "lon": -77.04674733333333, "is_reserved": 0, "bike_id": "2097f1e5bbcc3de2e083fe80efa90033", "fusion_lon": 0.0, "rental_uris": {"android": "https://dc.lft.to/lastmile_qr_scan", "ios": "https://dc.lft.to/lastmile_qr_scan"}, "name": "2097f1e5bbcc3de2e083fe80efa90033", "type": "electric_scooter", "lat": 38.89553866666667, "is_disabled": 0}, {"fusion_lat": 0.0, "lon": -77.00420233333334, "is_reserved": 0, "bike_id": "9de9241c10ff5bf22acc46969a1e4342", "fusion_lon": 0.0, "rental_uris": {"android": "https://dc.lft.to/lastmile_qr_scan", "ios": "https://dc.lft.to/lastmile_qr_scan"}, "name": "9de9241c10ff5bf22acc46969a1e4342", "type": "electric_scooter", "lat": 38.90561233333333, "is_disabled": 0}, {"fusion_lat": 0.0, "lon": -77.03873183333333, "is_reserved": 0, "bike_id": "a11d82bb5abc4451d0a2536be87fb240", "fusion_lon": 0.0, "rental_uris": {"android": "https://dc.lft.to/lastmile_qr_scan", "ios": "https://dc.lft.to/lastmile_qr_scan"}, "name": "a11d82bb5abc4451d0a2536be87fb240", "type": "electric_scooter", "lat": 38.90287266666667, "is_disabled": 0}, {"fusion_lat": 0.0, "lon": -77.03377116666667, "is_reserved": 0, "bike_id": "69e39598f4cd25eb49839177ca69a711", "fusion_lon": 0.0, "rental_uris": {"android": "https://dc.lft.to/lastmile_qr_scan", "ios": "https://dc.lft.to/lastmile_qr_scan"}, "name": "69e39598f4cd25eb49839177ca69a711", "type": "electric_scooter", "lat": 38.938637666666665, "is_disabled": 0}, {"fusion_lat": 0.0, "lon": -77.01735, "is_reserved": 0, "bike_id": "559d1d009436a6bd57e3a4e7fac03106", "fusion_lon": 0.0, "rental_uris": {"android": "https://dc.lft.to/lastmile_qr_scan", "ios": "https://dc.lft.to/lastmile_qr_scan"}, "name": "559d1d009436a6bd57e3a4e7fac03106", "type": "electric_scooter", "lat": 38.885573666666666, "is_disabled": 0}, {"fusion_lat": 0.0, "lon": -77.033482, "is_reserved": 0, "bike_id": "9d74bf28abf0a1e47dbb2c0d7f9279be", "fusion_lon": 0.0, "rental_uris": {"android": "https://dc.lft.to/lastmile_qr_scan", "ios": "https://dc.lft.to/lastmile_qr_scan"}, "name": "9d74bf28abf0a1e47dbb2c0d7f9279be", "type": "electric_scooter", "lat": 38.89841466666667, "is_disabled": 0}, {"fusion_lat": 0.0, "lon": -76.99780883333334, "is_reserved": 0, "bike_id": "29cd54f108bf319ae98b56a1928d762e", "fusion_lon": 0.0, "rental_uris": {"android": "https://dc.lft.to/lastmile_qr_scan", "ios": "https://dc.lft.to/lastmile_qr_scan"}, "name": "29cd54f108bf319ae98b56a1928d762e", "type": "electric_scooter", "lat": 38.84429816666667, "is_disabled": 0}, {"fusion_lat": 0.0, "lon": -77.02937283333333, "is_reserved": 0, "bike_id": "34244f4dd06d5c71af7c53d5d0dfa866", "fusion_lon": 0.0, "rental_uris": {"android": "https://dc.lft.to/lastmile_qr_scan", "ios": "https://dc.lft.to/lastmile_qr_scan"}, "name": "34244f4dd06d5c71af7c53d5d0dfa866", "type": "electric_scooter", "lat": 38.895231833333334, "is_disabled": 0}, {"fusion_lat": 0.0, "lon": -76.93751083333333, "is_reserved": 0, "bike_id": "947a19b26d8a0d5f0857b85b003be8b8", "fusion_lon": 0.0, "rental_uris": {"android": "https://dc.lft.to/lastmile_qr_scan", "ios": "https://dc.lft.to/lastmile_qr_scan"}, "name": "947a19b26d8a0d5f0857b85b003be8b8", "type": "electric_scooter", "lat": 38.8904895, "is_disabled": 0}, {"fusion_lat": 0.0, "lon": -77.0224175, "is_reserved": 0, "bike_id": "81815e682247a6c01e41d89471bedb76", "fusion_lon": 0.0, "rental_uris": {"android": "https://dc.lft.to/lastmile_qr_scan", "ios": "https://dc.lft.to/lastmile_qr_scan"}, "name": "81815e682247a6c01e41d89471bedb76", "type": "electric_scooter", "lat": 38.92271383333333, "is_disabled": 0}, {"fusion_lat": 0.0, "lon": -77.04350083333334, "is_reserved": 0, "bike_id": "a7d69cc8b23eec91210942f1a6ac159e", "fusion_lon": 0.0, "rental_uris": {"android": "https://dc.lft.to/lastmile_qr_scan", "ios": "https://dc.lft.to/lastmile_qr_scan"}, "name": "a7d69cc8b23eec91210942f1a6ac159e", "type": "electric_scooter", "lat": 38.90436316666667, "is_disabled": 0}, {"fusion_lat": 0.0, "lon": -77.02408916666667, "is_reserved": 0, "bike_id": "3f276ad1b975f2036434006adb5c7565", "fusion_lon": 0.0, "rental_uris": {"android": "https://dc.lft.to/lastmile_qr_scan", "ios": "https://dc.lft.to/lastmile_qr_scan"}, "name": "3f276ad1b975f2036434006adb5c7565", "type": "electric_scooter", "lat": 38.90034166666667, "is_disabled": 0}, {"fusion_lat": 0.0, "lon": -77.02944416666666, "is_reserved": 0, "bike_id": "be3e19efa221a92ac793c31d394f1396", "fusion_lon": 0.0, "rental_uris": {"android": "https://dc.lft.to/lastmile_qr_scan", "ios": "https://dc.lft.to/lastmile_qr_scan"}, "name": "be3e19efa221a92ac793c31d394f1396", "type": "electric_scooter", "lat": 38.92075283333333, "is_disabled": 0}, {"fusion_lat": 0.0, "lon": -77.04525283333334, "is_reserved": 0, "bike_id": "b06ea89cda03011968582e78caf32d86", "fusion_lon": 0.0, "rental_uris": {"android": "https://dc.lft.to/lastmile_qr_scan", "ios": "https://dc.lft.to/lastmile_qr_scan"}, "name": "b06ea89cda03011968582e78caf32d86", "type": "electric_bike", "lat": 38.94190016666667, "is_disabled": 0}, {"fusion_lat": 0.0, "lon": -77.0033815, "is_reserved": 0, "bike_id": "8193ae92bd58ac33bc7012bb840b99d8", "fusion_lon": 0.0, "rental_uris": {"android": "https://dc.lft.to/lastmile_qr_scan", "ios": "https://dc.lft.to/lastmile_qr_scan"}, "name": "8193ae92bd58ac33bc7012bb840b99d8", "type": "electric_scooter", "lat": 38.889879, "is_disabled": 0}, {"fusion_lat": 0.0, "lon": -76.995178, "is_reserved": 0, "bike_id": "28961357da5cde6fbd0cd40e09462b4e", "fusion_lon": 0.0, "rental_uris": {"android": "https://dc.lft.to/lastmile_qr_scan", "ios": "https://dc.lft.to/lastmile_qr_scan"}, "name": "28961357da5cde6fbd0cd40e09462b4e", "type": "electric_scooter", "lat": 38.896054, "is_disabled": 0}, {"fusion_lat": 0.0, "lon": -77.04707516666667, "is_reserved": 0, "bike_id": "f6849d8878db8ebe71360f2162ed49e4", "fusion_lon": 0.0, "rental_uris": {"android": "https://dc.lft.to/lastmile_qr_scan", "ios": "https://dc.lft.to/lastmile_qr_scan"}, "name": "f6849d8878db8ebe71360f2162ed49e4", "type": "electric_scooter", "lat": 38.92194933333333, "is_disabled": 0}, {"fusion_lat": 0.0, "lon": -77.01761166666667, "is_reserved": 0, "bike_id": "a01203cf5ff0493e7bb759dbcf5a9971", "fusion_lon": 0.0, "rental_uris": {"android": "https://dc.lft.to/lastmile_qr_scan", "ios": "https://dc.lft.to/lastmile_qr_scan"}, "name": "a01203cf5ff0493e7bb759dbcf5a9971", "type": "electric_scooter", "lat": 38.876847166666664, "is_disabled": 0}, {"fusion_lat": 0.0, "lon": -77.0588015, "is_reserved": 0, "bike_id": "47d5c44ff745d4cdb42449d2b9193ac7", "fusion_lon": 0.0, "rental_uris": {"android": "https://dc.lft.to/lastmile_qr_scan", "ios": "https://dc.lft.to/lastmile_qr_scan"}, "name": "47d5c44ff745d4cdb42449d2b9193ac7", "type": "electric_scooter", "lat": 38.91823466666666, "is_disabled": 0}, {"fusion_lat": 0.0, "lon": -77.046551, "is_reserved": 0, "bike_id": "317664760215c306473bef1b8485b232", "fusion_lon": 0.0, "rental_uris": {"android": "https://dc.lft.to/lastmile_qr_scan", "ios": "https://dc.lft.to/lastmile_qr_scan"}, "name": "317664760215c306473bef1b8485b232", "type": "electric_scooter", "lat": 38.89827533333333, "is_disabled": 0}, {"fusion_lat": 0.0, "lon": -77.0438075, "is_reserved": 0, "bike_id": "2b9a9219fdf99796220d4aaceb1a2b48", "fusion_lon": 0.0, "rental_uris": {"android": "https://dc.lft.to/lastmile_qr_scan", "ios": "https://dc.lft.to/lastmile_qr_scan"}, "name": "2b9a9219fdf99796220d4aaceb1a2b48", "type": "electric_scooter", "lat": 38.892174, "is_disabled": 0}, {"fusion_lat": 0.0, "lon": -77.0096175, "is_reserved": 0, "bike_id": "35f1ee55d4bcecb1ae305e475691f5f5", "fusion_lon": 0.0, "rental_uris": {"android": "https://dc.lft.to/lastmile_qr_scan", "ios": "https://dc.lft.to/lastmile_qr_scan"}, "name": "35f1ee55d4bcecb1ae305e475691f5f5", "type": "electric_scooter", "lat": 38.916995166666666, "is_disabled": 0}, {"fusion_lat": 0.0, "lon": -77.03590733333333, "is_reserved": 0, "bike_id": "365ff6467b2d1ba401980f806eabd57a", "fusion_lon": 0.0, "rental_uris": {"android": "https://dc.lft.to/lastmile_qr_scan", "ios": "https://dc.lft.to/lastmile_qr_scan"}, "name": "365ff6467b2d1ba401980f806eabd57a", "type": "electric_scooter", "lat": 38.91700983333333, "is_disabled": 0}, {"fusion_lat": 0.0, "lon": -77.04692633333333, "is_reserved": 0, "bike_id": "71469d92d4d3c9710afd78e6607866df", "fusion_lon": 0.0, "rental_uris": {"android": "https://dc.lft.to/lastmile_qr_scan", "ios": "https://dc.lft.to/lastmile_qr_scan"}, "name": "71469d92d4d3c9710afd78e6607866df", "type": "electric_scooter", "lat": 38.9212875, "is_disabled": 0}, {"fusion_lat": 0.0, "lon": -76.98107066666667, "is_reserved": 0, "bike_id": "789deaa57c40bf5281cadc55afd418ed", "fusion_lon": 0.0, "rental_uris": {"android": "https://dc.lft.to/lastmile_qr_scan", "ios": "https://dc.lft.to/lastmile_qr_scan"}, "name": "789deaa57c40bf5281cadc55afd418ed", "type": "electric_scooter", "lat": 38.904062, "is_disabled": 0}, {"fusion_lat": 0.0, "lon": -77.05046133333333, "is_reserved": 0, "bike_id": "6e5c691611ef7e708e12e9aafb95cc03", "fusion_lon": 0.0, "rental_uris": {"android": "https://dc.lft.to/lastmile_qr_scan", "ios": "https://dc.lft.to/lastmile_qr_scan"}, "name": "6e5c691611ef7e708e12e9aafb95cc03", "type": "electric_scooter", "lat": 38.923827833333334, "is_disabled": 0}, {"fusion_lat": 0.0, "lon": -77.01724616666667, "is_reserved": 0, "bike_id": "df86d3ae13fce624b2c77c1bb8e2a5ef", "fusion_lon": 0.0, "rental_uris": {"android": "https://dc.lft.to/lastmile_qr_scan", "ios": "https://dc.lft.to/lastmile_qr_scan"}, "name": "df86d3ae13fce624b2c77c1bb8e2a5ef", "type": "electric_scooter", "lat": 38.974943333333336, "is_disabled": 0}, {"fusion_lat": 0.0, "lon": -77.03719833333334, "is_reserved": 0, "bike_id": "1ebfc93584b90c3fe44c6cb2b2524fde", "fusion_lon": 0.0, "rental_uris": {"android": "https://dc.lft.to/lastmile_qr_scan", "ios": "https://dc.lft.to/lastmile_qr_scan"}, "name": "1ebfc93584b90c3fe44c6cb2b2524fde", "type": "electric_scooter", "lat": 38.9328305, "is_disabled": 0}, {"fusion_lat": 0.0, "lon": -77.02737216666667, "is_reserved": 0, "bike_id": "4c6bdfcfdf2aa94ccf410f120a390386", "fusion_lon": 0.0, "rental_uris": {"android": "https://dc.lft.to/lastmile_qr_scan", "ios": "https://dc.lft.to/lastmile_qr_scan"}, "name": "4c6bdfcfdf2aa94ccf410f120a390386", "type": "electric_scooter", "lat": 38.927626833333335, "is_disabled": 0}, {"fusion_lat": 0.0, "lon": -77.041761, "is_reserved": 0, "bike_id": "82bc557bba94b5e3d13407fd5b23450d", "fusion_lon": 0.0, "rental_uris": {"android": "https://dc.lft.to/lastmile_qr_scan", "ios": "https://dc.lft.to/lastmile_qr_scan"}, "name": "82bc557bba94b5e3d13407fd5b23450d", "type": "electric_scooter", "lat": 38.91978816666666, "is_disabled": 0}, {"fusion_lat": 0.0, "lon": -77.04809966666667, "is_reserved": 0, "bike_id": "0ce38acbe3921de89b73d08a378cc045", "fusion_lon": 0.0, "rental_uris": {"android": "https://dc.lft.to/lastmile_qr_scan", "ios": "https://dc.lft.to/lastmile_qr_scan"}, "name": "0ce38acbe3921de89b73d08a378cc045", "type": "electric_scooter", "lat": 38.9103535, "is_disabled": 0}, {"fusion_lat": 0.0, "lon": -77.00581, "is_reserved": 0, "bike_id": "9e6b4c18c14c521ab46650c526929a9b", "fusion_lon": 0.0, "rental_uris": {"android": "https://dc.lft.to/lastmile_qr_scan", "ios": "https://dc.lft.to/lastmile_qr_scan"}, "name": "9e6b4c18c14c521ab46650c526929a9b", "type": "electric_scooter", "lat": 38.87532016666667, "is_disabled": 0}, {"fusion_lat": 0.0, "lon": -77.00208383333333, "is_reserved": 0, "bike_id": "45e197b8ef94cf8ad07dd9e9a4b7b231", "fusion_lon": 0.0, "rental_uris": {"android": "https://dc.lft.to/lastmile_qr_scan", "ios": "https://dc.lft.to/lastmile_qr_scan"}, "name": "45e197b8ef94cf8ad07dd9e9a4b7b231", "type": "electric_scooter", "lat": 38.900522, "is_disabled": 0}, {"fusion_lat": 0.0, "lon": -76.99572583333334, "is_reserved": 0, "bike_id": "7a349d0153d53971580ab307bc2c5bf8", "fusion_lon": 0.0, "rental_uris": {"android": "https://dc.lft.to/lastmile_qr_scan", "ios": "https://dc.lft.to/lastmile_qr_scan"}, "name": "7a349d0153d53971580ab307bc2c5bf8", "type": "electric_scooter", "lat": 38.884279666666664, "is_disabled": 0}, {"fusion_lat": 0.0, "lon": -77.020089, "is_reserved": 0, "bike_id": "8acdc19336e695045e7dabc145322823", "fusion_lon": 0.0, "rental_uris": {"android": "https://dc.lft.to/lastmile_qr_scan", "ios": "https://dc.lft.to/lastmile_qr_scan"}, "name": "8acdc19336e695045e7dabc145322823", "type": "electric_scooter", "lat": 38.895657666666665, "is_disabled": 0}, {"fusion_lat": 0.0, "lon": -76.9948595, "is_reserved": 0, "bike_id": "728b47a7010ebfdce6bd81290774fc72", "fusion_lon": 0.0, "rental_uris": {"android": "https://dc.lft.to/lastmile_qr_scan", "ios": "https://dc.lft.to/lastmile_qr_scan"}, "name": "728b47a7010ebfdce6bd81290774fc72", "type": "electric_scooter", "lat": 38.881506, "is_disabled": 0}, {"fusion_lat": 0.0, "lon": -77.009127, "is_reserved": 0, "bike_id": "19fec4c6472d397112b387fcfb10344b", "fusion_lon": 0.0, "rental_uris": {"android": "https://dc.lft.to/lastmile_qr_scan", "ios": "https://dc.lft.to/lastmile_qr_scan"}, "name": "19fec4c6472d397112b387fcfb10344b", "type": "electric_scooter", "lat": 38.89608233333333, "is_disabled": 0}, {"fusion_lat": 0.0, "lon": -77.019425, "is_reserved": 0, "bike_id": "e3afd999a1c482422b3e8c4cb1d5f5e3", "fusion_lon": 0.0, "rental_uris": {"android": "https://dc.lft.to/lastmile_qr_scan", "ios": "https://dc.lft.to/lastmile_qr_scan"}, "name": "e3afd999a1c482422b3e8c4cb1d5f5e3", "type": "electric_scooter", "lat": 38.92414816666667, "is_disabled": 0}, {"fusion_lat": 0.0, "lon": -77.02055683333333, "is_reserved": 0, "bike_id": "328bc031943e335086050be7b06137a2", "fusion_lon": 0.0, "rental_uris": {"android": "https://dc.lft.to/lastmile_qr_scan", "ios": "https://dc.lft.to/lastmile_qr_scan"}, "name": "328bc031943e335086050be7b06137a2", "type": "electric_bike", "lat": 38.95752233333333, "is_disabled": 0}, {"fusion_lat": 0.0, "lon": -76.99702333333333, "is_reserved": 0, "bike_id": "705d883f1f17554467b70f587a1182ff", "fusion_lon": 0.0, "rental_uris": {"android": "https://dc.lft.to/lastmile_qr_scan", "ios": "https://dc.lft.to/lastmile_qr_scan"}, "name": "705d883f1f17554467b70f587a1182ff", "type": "electric_scooter", "lat": 38.844255833333335, "is_disabled": 0}, {"fusion_lat": 0.0, "lon": -77.0761025, "is_reserved": 0, "bike_id": "77e3c5918482c2b9700c491840414e41", "fusion_lon": 0.0, "rental_uris": {"android": "https://dc.lft.to/lastmile_qr_scan", "ios": "https://dc.lft.to/lastmile_qr_scan"}, "name": "77e3c5918482c2b9700c491840414e41", "type": "electric_scooter", "lat": 38.92055666666667, "is_disabled": 0}, {"fusion_lat": 0.0, "lon": -76.98762, "is_reserved": 0, "bike_id": "b6c56fbccee126de7b5c7f516f601b13", "fusion_lon": 0.0, "rental_uris": {"android": "https://dc.lft.to/lastmile_qr_scan", "ios": "https://dc.lft.to/lastmile_qr_scan"}, "name": "b6c56fbccee126de7b5c7f516f601b13", "type": "electric_scooter", "lat": 38.900234166666664, "is_disabled": 0}, {"fusion_lat": 0.0, "lon": -76.975914, "is_reserved": 0, "bike_id": "2fe6af880f8070bd6ec6ed6d2e96322e", "fusion_lon": 0.0, "rental_uris": {"android": "https://dc.lft.to/lastmile_qr_scan", "ios": "https://dc.lft.to/lastmile_qr_scan"}, "name": "2fe6af880f8070bd6ec6ed6d2e96322e", "type": "electric_scooter", "lat": 38.8973965, "is_disabled": 0}, {"fusion_lat": 0.0, "lon": -77.027342, "is_reserved": 0, "bike_id": "2c1c60aa35062a0643a652dc570da16a", "fusion_lon": 0.0, "rental_uris": {"android": "https://dc.lft.to/lastmile_qr_scan", "ios": "https://dc.lft.to/lastmile_qr_scan"}, "name": "2c1c60aa35062a0643a652dc570da16a", "type": "electric_scooter", "lat": 38.92379783333333, "is_disabled": 0}, {"fusion_lat": 0.0, "lon": -77.03096033333334, "is_reserved": 0, "bike_id": "8014c48cb9940c7760515fa6af9d2801", "fusion_lon": 0.0, "rental_uris": {"android": "https://dc.lft.to/lastmile_qr_scan", "ios": "https://dc.lft.to/lastmile_qr_scan"}, "name": "8014c48cb9940c7760515fa6af9d2801", "type": "electric_scooter", "lat": 38.9237915, "is_disabled": 0}, {"fusion_lat": 0.0, "lon": -77.02150133333333, "is_reserved": 0, "bike_id": "0b653dbf0cdf303043ff68cbdb77204d", "fusion_lon": 0.0, "rental_uris": {"android": "https://dc.lft.to/lastmile_qr_scan", "ios": "https://dc.lft.to/lastmile_qr_scan"}, "name": "0b653dbf0cdf303043ff68cbdb77204d", "type": "electric_scooter", "lat": 38.925956666666664, "is_disabled": 0}, {"fusion_lat": 0.0, "lon": -77.003288, "is_reserved": 0, "bike_id": "a4a2c8f2c6fc16a16c3d3c3a769da480", "fusion_lon": 0.0, "rental_uris": {"android": "https://dc.lft.to/lastmile_qr_scan", "ios": "https://dc.lft.to/lastmile_qr_scan"}, "name": "a4a2c8f2c6fc16a16c3d3c3a769da480", "type": "electric_scooter", "lat": 38.88980166666666, "is_disabled": 0}, {"fusion_lat": 0.0, "lon": -76.99804316666666, "is_reserved": 0, "bike_id": "79fcb4ce86c73bc72217c7bd532d8a9c", "fusion_lon": 0.0, "rental_uris": {"android": "https://dc.lft.to/lastmile_qr_scan", "ios": "https://dc.lft.to/lastmile_qr_scan"}, "name": "79fcb4ce86c73bc72217c7bd532d8a9c", "type": "electric_scooter", "lat": 38.885629333333334, "is_disabled": 0}, {"fusion_lat": 0.0, "lon": -77.04496066666667, "is_reserved": 0, "bike_id": "6874ece3f2d998157bffe0e768c639b1", "fusion_lon": 0.0, "rental_uris": {"android": "https://dc.lft.to/lastmile_qr_scan", "ios": "https://dc.lft.to/lastmile_qr_scan"}, "name": "6874ece3f2d998157bffe0e768c639b1", "type": "electric_scooter", "lat": 38.90237366666667, "is_disabled": 0}, {"fusion_lat": 0.0, "lon": -77.01765933333333, "is_reserved": 0, "bike_id": "1c0171f9e82b64b568410f61532770f9", "fusion_lon": 0.0, "rental_uris": {"android": "https://dc.lft.to/lastmile_qr_scan", "ios": "https://dc.lft.to/lastmile_qr_scan"}, "name": "1c0171f9e82b64b568410f61532770f9", "type": "electric_scooter", "lat": 38.87689066666667, "is_disabled": 0}, {"fusion_lat": 0.0, "lon": -77.03350216666666, "is_reserved": 0, "bike_id": "a4216a52b66c8f0b9b9e1f10e26255ff", "fusion_lon": 0.0, "rental_uris": {"android": "https://dc.lft.to/lastmile_qr_scan", "ios": "https://dc.lft.to/lastmile_qr_scan"}, "name": "a4216a52b66c8f0b9b9e1f10e26255ff", "type": "electric_scooter", "lat": 38.89239033333333, "is_disabled": 0}, {"fusion_lat": 0.0, "lon": -77.0342965, "is_reserved": 0, "bike_id": "d9e7df3bd421a68e0c75b08b4cbbd1e4", "fusion_lon": 0.0, "rental_uris": {"android": "https://dc.lft.to/lastmile_qr_scan", "ios": "https://dc.lft.to/lastmile_qr_scan"}, "name": "d9e7df3bd421a68e0c75b08b4cbbd1e4", "type": "electric_scooter", "lat": 38.91945033333333, "is_disabled": 0}, {"fusion_lat": 0.0, "lon": -77.02276866666666, "is_reserved": 0, "bike_id": "86f64263499874b219564d8895dff3ce", "fusion_lon": 0.0, "rental_uris": {"android": "https://dc.lft.to/lastmile_qr_scan", "ios": "https://dc.lft.to/lastmile_qr_scan"}, "name": "86f64263499874b219564d8895dff3ce", "type": "electric_scooter", "lat": 38.9122245, "is_disabled": 0}, {"fusion_lat": 0.0, "lon": -77.0564785, "is_reserved": 0, "bike_id": "524cbad302d005b5de97acbf6264f1a5", "fusion_lon": 0.0, "rental_uris": {"android": "https://dc.lft.to/lastmile_qr_scan", "ios": "https://dc.lft.to/lastmile_qr_scan"}, "name": "524cbad302d005b5de97acbf6264f1a5", "type": "electric_scooter", "lat": 38.907642333333335, "is_disabled": 0}, {"fusion_lat": 0.0, "lon": -76.9702305, "is_reserved": 0, "bike_id": "c86516d53b00bf13398554939f567744", "fusion_lon": 0.0, "rental_uris": {"android": "https://dc.lft.to/lastmile_qr_scan", "ios": "https://dc.lft.to/lastmile_qr_scan"}, "name": "c86516d53b00bf13398554939f567744", "type": "electric_scooter", "lat": 38.925333333333334, "is_disabled": 0}, {"fusion_lat": 0.0, "lon": -77.20838216666667, "is_reserved": 0, "bike_id": "0e0f882ed64f50aea8f8cf8826ab0ac8", "fusion_lon": 0.0, "rental_uris": {"android": "https://dc.lft.to/lastmile_qr_scan", "ios": "https://dc.lft.to/lastmile_qr_scan"}, "name": "0e0f882ed64f50aea8f8cf8826ab0ac8", "type": "electric_bike", "lat": 38.924629833333334, "is_disabled": 0}, {"fusion_lat": 0.0, "lon": -76.9978195, "is_reserved": 0, "bike_id": "e88ac3637e25866f22d1043ebcf708e5", "fusion_lon": 0.0, "rental_uris": {"android": "https://dc.lft.to/lastmile_qr_scan", "ios": "https://dc.lft.to/lastmile_qr_scan"}, "name": "e88ac3637e25866f22d1043ebcf708e5", "type": "electric_scooter", "lat": 38.8442795, "is_disabled": 0}, {"fusion_lat": 0.0, "lon": -77.02291666666666, "is_reserved": 0, "bike_id": "50e4e3d32d449dfe1c968250a3256c99", "fusion_lon": 0.0, "rental_uris": {"android": "https://dc.lft.to/lastmile_qr_scan", "ios": "https://dc.lft.to/lastmile_qr_scan"}, "name": "50e4e3d32d449dfe1c968250a3256c99", "type": "electric_scooter", "lat": 38.91713133333333, "is_disabled": 0}, {"fusion_lat": 0.0, "lon": -77.02844683333333, "is_reserved": 0, "bike_id": "7057f075a7f7c5d8cbb7150c927ac78b", "fusion_lon": 0.0, "rental_uris": {"android": "https://dc.lft.to/lastmile_qr_scan", "ios": "https://dc.lft.to/lastmile_qr_scan"}, "name": "7057f075a7f7c5d8cbb7150c927ac78b", "type": "electric_scooter", "lat": 38.922320666666664, "is_disabled": 0}, {"fusion_lat": 0.0, "lon": -76.99884466666667, "is_reserved": 0, "bike_id": "92d95f93b04d5ca0b026165ae37e17f5", "fusion_lon": 0.0, "rental_uris": {"android": "https://dc.lft.to/lastmile_qr_scan", "ios": "https://dc.lft.to/lastmile_qr_scan"}, "name": "92d95f93b04d5ca0b026165ae37e17f5", "type": "electric_scooter", "lat": 38.920521, "is_disabled": 0}, {"fusion_lat": 0.0, "lon": -77.0095325, "is_reserved": 0, "bike_id": "b9414561b90ba1698b490f7fdf3ae9e7", "fusion_lon": 0.0, "rental_uris": {"android": "https://dc.lft.to/lastmile_qr_scan", "ios": "https://dc.lft.to/lastmile_qr_scan"}, "name": "b9414561b90ba1698b490f7fdf3ae9e7", "type": "electric_scooter", "lat": 38.89735616666667, "is_disabled": 0}, {"fusion_lat": 0.0, "lon": -77.0665335, "is_reserved": 0, "bike_id": "bab3b6104301a13ecd9649f3cf0f50ac", "fusion_lon": 0.0, "rental_uris": {"android": "https://dc.lft.to/lastmile_qr_scan", "ios": "https://dc.lft.to/lastmile_qr_scan"}, "name": "bab3b6104301a13ecd9649f3cf0f50ac", "type": "electric_scooter", "lat": 38.949539, "is_disabled": 0}, {"fusion_lat": 0.0, "lon": -77.0415035, "is_reserved": 0, "bike_id": "74538f87c4c913fd50e096fd64cb3bc5", "fusion_lon": 0.0, "rental_uris": {"android": "https://dc.lft.to/lastmile_qr_scan", "ios": "https://dc.lft.to/lastmile_qr_scan"}, "name": "74538f87c4c913fd50e096fd64cb3bc5", "type": "electric_scooter", "lat": 38.89221283333333, "is_disabled": 0}, {"fusion_lat": 0.0, "lon": -77.027051, "is_reserved": 0, "bike_id": "7bbe6d3c35c9f7d24d042fedf1e92625", "fusion_lon": 0.0, "rental_uris": {"android": "https://dc.lft.to/lastmile_qr_scan", "ios": "https://dc.lft.to/lastmile_qr_scan"}, "name": "7bbe6d3c35c9f7d24d042fedf1e92625", "type": "electric_scooter", "lat": 38.91795466666667, "is_disabled": 0}, {"fusion_lat": 0.0, "lon": -77.02153066666666, "is_reserved": 0, "bike_id": "9961afa102e580e8aca68cf22c917597", "fusion_lon": 0.0, "rental_uris": {"android": "https://dc.lft.to/lastmile_qr_scan", "ios": "https://dc.lft.to/lastmile_qr_scan"}, "name": "9961afa102e580e8aca68cf22c917597", "type": "electric_scooter", "lat": 38.925968, "is_disabled": 0}, {"fusion_lat": 0.0, "lon": -77.05023133333333, "is_reserved": 0, "bike_id": "bd8b62785564b03788333a0034f797e4", "fusion_lon": 0.0, "rental_uris": {"android": "https://dc.lft.to/lastmile_qr_scan", "ios": "https://dc.lft.to/lastmile_qr_scan"}, "name": "bd8b62785564b03788333a0034f797e4", "type": "electric_scooter", "lat": 38.905239333333334, "is_disabled": 0}, {"fusion_lat": 0.0, "lon": -76.97094316666667, "is_reserved": 0, "bike_id": "03dbebaa4a04328d3564283d1317cf48", "fusion_lon": 0.0, "rental_uris": {"android": "https://dc.lft.to/lastmile_qr_scan", "ios": "https://dc.lft.to/lastmile_qr_scan"}, "name": "03dbebaa4a04328d3564283d1317cf48", "type": "electric_bike", "lat": 38.9180395, "is_disabled": 0}, {"fusion_lat": 0.0, "lon": -77.0395355, "is_reserved": 0, "bike_id": "2803fe5ec3b2896c8318880fa0923846", "fusion_lon": 0.0, "rental_uris": {"android": "https://dc.lft.to/lastmile_qr_scan", "ios": "https://dc.lft.to/lastmile_qr_scan"}, "name": "2803fe5ec3b2896c8318880fa0923846", "type": "electric_scooter", "lat": 38.902499166666665, "is_disabled": 0}, {"fusion_lat": 0.0, "lon": -77.05139166666666, "is_reserved": 0, "bike_id": "b87eddbab1dcedce02887a645ffbb848", "fusion_lon": 0.0, "rental_uris": {"android": "https://dc.lft.to/lastmile_qr_scan", "ios": "https://dc.lft.to/lastmile_qr_scan"}, "name": "b87eddbab1dcedce02887a645ffbb848", "type": "electric_scooter", "lat": 38.9053495, "is_disabled": 0}, {"fusion_lat": 0.0, "lon": -77.04862933333334, "is_reserved": 0, "bike_id": "308d743ee62b5f4fc71732673d12ebdb", "fusion_lon": 0.0, "rental_uris": {"android": "https://dc.lft.to/lastmile_qr_scan", "ios": "https://dc.lft.to/lastmile_qr_scan"}, "name": "308d743ee62b5f4fc71732673d12ebdb", "type": "electric_scooter", "lat": 38.89221233333333, "is_disabled": 0}, {"fusion_lat": 0.0, "lon": -77.04335983333333, "is_reserved": 0, "bike_id": "d00dbdfe58f636b1ad692764eb6867c8", "fusion_lon": 0.0, "rental_uris": {"android": "https://dc.lft.to/lastmile_qr_scan", "ios": "https://dc.lft.to/lastmile_qr_scan"}, "name": "d00dbdfe58f636b1ad692764eb6867c8", "type": "electric_scooter", "lat": 38.90664783333333, "is_disabled": 0}, {"fusion_lat": 0.0, "lon": -77.0356075, "is_reserved": 0, "bike_id": "73d4301dc8c1378c1b9ef8b070f30ebc", "fusion_lon": 0.0, "rental_uris": {"android": "https://dc.lft.to/lastmile_qr_scan", "ios": "https://dc.lft.to/lastmile_qr_scan"}, "name": "73d4301dc8c1378c1b9ef8b070f30ebc", "type": "electric_scooter", "lat": 38.917105166666666, "is_disabled": 0}, {"fusion_lat": 0.0, "lon": -77.07613666666667, "is_reserved": 0, "bike_id": "48114dfbc539e9326afe53ff72e89c7b", "fusion_lon": 0.0, "rental_uris": {"android": "https://dc.lft.to/lastmile_qr_scan", "ios": "https://dc.lft.to/lastmile_qr_scan"}, "name": "48114dfbc539e9326afe53ff72e89c7b", "type": "electric_scooter", "lat": 38.912171, "is_disabled": 0}, {"fusion_lat": 0.0, "lon": -77.03293966666666, "is_reserved": 0, "bike_id": "b174d9c57830d7f5c89e5953a62323dd", "fusion_lon": 0.0, "rental_uris": {"android": "https://dc.lft.to/lastmile_qr_scan", "ios": "https://dc.lft.to/lastmile_qr_scan"}, "name": "b174d9c57830d7f5c89e5953a62323dd", "type": "electric_scooter", "lat": 38.89902516666667, "is_disabled": 0}, {"fusion_lat": 0.0, "lon": -77.032534, "is_reserved": 0, "bike_id": "c11cdd6859d6b7864cf3b80116a1f5d7", "fusion_lon": 0.0, "rental_uris": {"android": "https://dc.lft.to/lastmile_qr_scan", "ios": "https://dc.lft.to/lastmile_qr_scan"}, "name": "c11cdd6859d6b7864cf3b80116a1f5d7", "type": "electric_scooter", "lat": 38.9291025, "is_disabled": 0}, {"fusion_lat": 0.0, "lon": -76.99615583333333, "is_reserved": 0, "bike_id": "72acad20f5b9c17506715b9af61472bd", "fusion_lon": 0.0, "rental_uris": {"android": "https://dc.lft.to/lastmile_qr_scan", "ios": "https://dc.lft.to/lastmile_qr_scan"}, "name": "72acad20f5b9c17506715b9af61472bd", "type": "electric_scooter", "lat": 38.886978666666664, "is_disabled": 0}, {"fusion_lat": 0.0, "lon": -77.03167133333334, "is_reserved": 0, "bike_id": "5d4b32beb85d8cb2e03871ec684bcf4a", "fusion_lon": 0.0, "rental_uris": {"android": "https://dc.lft.to/lastmile_qr_scan", "ios": "https://dc.lft.to/lastmile_qr_scan"}, "name": "5d4b32beb85d8cb2e03871ec684bcf4a", "type": "electric_scooter", "lat": 38.93593516666667, "is_disabled": 0}, {"fusion_lat": 0.0, "lon": -77.03161666666666, "is_reserved": 0, "bike_id": "9b9e77effb156bcf920c79f59c52fbbf", "fusion_lon": 0.0, "rental_uris": {"android": "https://dc.lft.to/lastmile_qr_scan", "ios": "https://dc.lft.to/lastmile_qr_scan"}, "name": "9b9e77effb156bcf920c79f59c52fbbf", "type": "electric_bike", "lat": 38.92083083333333, "is_disabled": 0}, {"fusion_lat": 0.0, "lon": -77.04517116666666, "is_reserved": 0, "bike_id": "1bf22b83df7fe32a4bfafa91bcdfb39d", "fusion_lon": 0.0, "rental_uris": {"android": "https://dc.lft.to/lastmile_qr_scan", "ios": "https://dc.lft.to/lastmile_qr_scan"}, "name": "1bf22b83df7fe32a4bfafa91bcdfb39d", "type": "electric_scooter", "lat": 38.90377516666667, "is_disabled": 0}, {"fusion_lat": 0.0, "lon": -77.03463833333333, "is_reserved": 0, "bike_id": "3d97c2d903a3361009f1a8f3ceeac80c", "fusion_lon": 0.0, "rental_uris": {"android": "https://dc.lft.to/lastmile_qr_scan", "ios": "https://dc.lft.to/lastmile_qr_scan"}, "name": "3d97c2d903a3361009f1a8f3ceeac80c", "type": "electric_scooter", "lat": 38.9206365, "is_disabled": 0}, {"fusion_lat": 0.0, "lon": -76.93265733333334, "is_reserved": 0, "bike_id": "1868391d6d08262974ae5c0ece20a30b", "fusion_lon": 0.0, "rental_uris": {"android": "https://dc.lft.to/lastmile_qr_scan", "ios": "https://dc.lft.to/lastmile_qr_scan"}, "name": "1868391d6d08262974ae5c0ece20a30b", "type": "electric_scooter", "lat": 38.8989045, "is_disabled": 0}, {"fusion_lat": 0.0, "lon": -77.04266066666666, "is_reserved": 0, "bike_id": "308ff744f82e10bbcbabbb3f12a6dc16", "fusion_lon": 0.0, "rental_uris": {"android": "https://dc.lft.to/lastmile_qr_scan", "ios": "https://dc.lft.to/lastmile_qr_scan"}, "name": "308ff744f82e10bbcbabbb3f12a6dc16", "type": "electric_scooter", "lat": 38.91337383333333, "is_disabled": 0}, {"fusion_lat": 0.0, "lon": -77.00616933333333, "is_reserved": 0, "bike_id": "cc91032cf93098afbc401f51f6554325", "fusion_lon": 0.0, "rental_uris": {"android": "https://dc.lft.to/lastmile_qr_scan", "ios": "https://dc.lft.to/lastmile_qr_scan"}, "name": "cc91032cf93098afbc401f51f6554325", "type": "electric_scooter", "lat": 38.90849133333333, "is_disabled": 0}, {"fusion_lat": 0.0, "lon": -77.04244816666667, "is_reserved": 0, "bike_id": "f8b32a4840706b4b0a16ff119294c0ca", "fusion_lon": 0.0, "rental_uris": {"android": "https://dc.lft.to/lastmile_qr_scan", "ios": "https://dc.lft.to/lastmile_qr_scan"}, "name": "f8b32a4840706b4b0a16ff119294c0ca", "type": "electric_scooter", "lat": 38.92234083333334, "is_disabled": 0}, {"fusion_lat": 0.0, "lon": -77.03219566666667, "is_reserved": 0, "bike_id": "ae9deeecd4836f4f3dfa46f16165631d", "fusion_lon": 0.0, "rental_uris": {"android": "https://dc.lft.to/lastmile_qr_scan", "ios": "https://dc.lft.to/lastmile_qr_scan"}, "name": "ae9deeecd4836f4f3dfa46f16165631d", "type": "electric_scooter", "lat": 38.892227, "is_disabled": 0}, {"fusion_lat": 0.0, "lon": -77.03211216666666, "is_reserved": 0, "bike_id": "3d8a6c898b167fcc2edb36cfb3703fe0", "fusion_lon": 0.0, "rental_uris": {"android": "https://dc.lft.to/lastmile_qr_scan", "ios": "https://dc.lft.to/lastmile_qr_scan"}, "name": "3d8a6c898b167fcc2edb36cfb3703fe0", "type": "electric_scooter", "lat": 38.911143333333335, "is_disabled": 0}, {"fusion_lat": 0.0, "lon": -77.02165683333334, "is_reserved": 0, "bike_id": "77566716249d10d82a454bd9bde3946b", "fusion_lon": 0.0, "rental_uris": {"android": "https://dc.lft.to/lastmile_qr_scan", "ios": "https://dc.lft.to/lastmile_qr_scan"}, "name": "77566716249d10d82a454bd9bde3946b", "type": "electric_bike", "lat": 38.893862166666665, "is_disabled": 0}, {"fusion_lat": 0.0, "lon": -77.05079716666667, "is_reserved": 0, "bike_id": "e569a65fa793151db4440a6ac45ced9b", "fusion_lon": 0.0, "rental_uris": {"android": "https://dc.lft.to/lastmile_qr_scan", "ios": "https://dc.lft.to/lastmile_qr_scan"}, "name": "e569a65fa793151db4440a6ac45ced9b", "type": "electric_scooter", "lat": 38.90185783333333, "is_disabled": 0}, {"fusion_lat": 0.0, "lon": -77.02363983333333, "is_reserved": 0, "bike_id": "088be49d7244620ed1de399b28f2e0d0", "fusion_lon": 0.0, "rental_uris": {"android": "https://dc.lft.to/lastmile_qr_scan", "ios": "https://dc.lft.to/lastmile_qr_scan"}, "name": "088be49d7244620ed1de399b28f2e0d0", "type": "electric_scooter", "lat": 38.89974383333333, "is_disabled": 0}, {"fusion_lat": 0.0, "lon": -77.04562583333333, "is_reserved": 0, "bike_id": "7983c70d277b05d7a64faacaefd976b1", "fusion_lon": 0.0, "rental_uris": {"android": "https://dc.lft.to/lastmile_qr_scan", "ios": "https://dc.lft.to/lastmile_qr_scan"}, "name": "7983c70d277b05d7a64faacaefd976b1", "type": "electric_scooter", "lat": 38.897367833333334, "is_disabled": 0}, {"fusion_lat": 0.0, "lon": -77.02395216666666, "is_reserved": 0, "bike_id": "c872d47d2beca6f10fdb4640d9292762", "fusion_lon": 0.0, "rental_uris": {"android": "https://dc.lft.to/lastmile_qr_scan", "ios": "https://dc.lft.to/lastmile_qr_scan"}, "name": "c872d47d2beca6f10fdb4640d9292762", "type": "electric_scooter", "lat": 38.9198935, "is_disabled": 0}, {"fusion_lat": 0.0, "lon": -77.04107216666667, "is_reserved": 0, "bike_id": "904404fefa0cc03477932380de98085b", "fusion_lon": 0.0, "rental_uris": {"android": "https://dc.lft.to/lastmile_qr_scan", "ios": "https://dc.lft.to/lastmile_qr_scan"}, "name": "904404fefa0cc03477932380de98085b", "type": "electric_scooter", "lat": 38.925065000000004, "is_disabled": 0}, {"fusion_lat": 0.0, "lon": -77.00610683333333, "is_reserved": 0, "bike_id": "23f22846993d4e7fb7cabac2fdc15258", "fusion_lon": 0.0, "rental_uris": {"android": "https://dc.lft.to/lastmile_qr_scan", "ios": "https://dc.lft.to/lastmile_qr_scan"}, "name": "23f22846993d4e7fb7cabac2fdc15258", "type": "electric_scooter", "lat": 38.90556466666666, "is_disabled": 0}, {"fusion_lat": 0.0, "lon": -77.02978816666666, "is_reserved": 0, "bike_id": "0dc28e514d60adb87846eba8745f0054", "fusion_lon": 0.0, "rental_uris": {"android": "https://dc.lft.to/lastmile_qr_scan", "ios": "https://dc.lft.to/lastmile_qr_scan"}, "name": "0dc28e514d60adb87846eba8745f0054", "type": "electric_scooter", "lat": 38.9295135, "is_disabled": 0}, {"fusion_lat": 0.0, "lon": -77.115942, "is_reserved": 0, "bike_id": "b60d7e24ac8eccd30e21122c77f44969", "fusion_lon": 0.0, "rental_uris": {"android": "https://dc.lft.to/lastmile_qr_scan", "ios": "https://dc.lft.to/lastmile_qr_scan"}, "name": "b60d7e24ac8eccd30e21122c77f44969", "type": "electric_bike", "lat": 39.07493216666666, "is_disabled": 0}, {"fusion_lat": 0.0, "lon": -77.02182516666667, "is_reserved": 0, "bike_id": "d28f1987c6d291853b80462de03b94a9", "fusion_lon": 0.0, "rental_uris": {"android": "https://dc.lft.to/lastmile_qr_scan", "ios": "https://dc.lft.to/lastmile_qr_scan"}, "name": "d28f1987c6d291853b80462de03b94a9", "type": "electric_scooter", "lat": 38.9057075, "is_disabled": 0}, {"fusion_lat": 0.0, "lon": -76.94400583333334, "is_reserved": 0, "bike_id": "9c475bac20f74bca44088668cacb915f", "fusion_lon": 0.0, "rental_uris": {"android": "https://dc.lft.to/lastmile_qr_scan", "ios": "https://dc.lft.to/lastmile_qr_scan"}, "name": "9c475bac20f74bca44088668cacb915f", "type": "electric_scooter", "lat": 38.8814035, "is_disabled": 0}, {"fusion_lat": 0.0, "lon": -77.02418466666667, "is_reserved": 0, "bike_id": "e05a012bc4945dad4650311141ab30ba", "fusion_lon": 0.0, "rental_uris": {"android": "https://dc.lft.to/lastmile_qr_scan", "ios": "https://dc.lft.to/lastmile_qr_scan"}, "name": "e05a012bc4945dad4650311141ab30ba", "type": "electric_scooter", "lat": 38.931123166666666, "is_disabled": 0}, {"fusion_lat": 0.0, "lon": -77.03866633333334, "is_reserved": 0, "bike_id": "9a163087701e9e34e87387544b99e958", "fusion_lon": 0.0, "rental_uris": {"android": "https://dc.lft.to/lastmile_qr_scan", "ios": "https://dc.lft.to/lastmile_qr_scan"}, "name": "9a163087701e9e34e87387544b99e958", "type": "electric_scooter", "lat": 38.90785533333333, "is_disabled": 0}, {"fusion_lat": 0.0, "lon": -76.99354283333334, "is_reserved": 0, "bike_id": "e6fdbe66b1073b0163beed964f55f381", "fusion_lon": 0.0, "rental_uris": {"android": "https://dc.lft.to/lastmile_qr_scan", "ios": "https://dc.lft.to/lastmile_qr_scan"}, "name": "e6fdbe66b1073b0163beed964f55f381", "type": "electric_bike", "lat": 38.8450225, "is_disabled": 0}, {"fusion_lat": 0.0, "lon": -77.04535283333334, "is_reserved": 0, "bike_id": "e006080a4bc041e95d1a37a73760d0e9", "fusion_lon": 0.0, "rental_uris": {"android": "https://dc.lft.to/lastmile_qr_scan", "ios": "https://dc.lft.to/lastmile_qr_scan"}, "name": "e006080a4bc041e95d1a37a73760d0e9", "type": "electric_bike", "lat": 38.85819083333333, "is_disabled": 0}, {"fusion_lat": 0.0, "lon": -77.00656533333333, "is_reserved": 0, "bike_id": "7b6a0ab18cdaaca4f47295490af34fea", "fusion_lon": 0.0, "rental_uris": {"android": "https://dc.lft.to/lastmile_qr_scan", "ios": "https://dc.lft.to/lastmile_qr_scan"}, "name": "7b6a0ab18cdaaca4f47295490af34fea", "type": "electric_scooter", "lat": 38.900345, "is_disabled": 0}, {"fusion_lat": 0.0, "lon": -77.045853, "is_reserved": 0, "bike_id": "0351342a989eaa9997abed4077268d3b", "fusion_lon": 0.0, "rental_uris": {"android": "https://dc.lft.to/lastmile_qr_scan", "ios": "https://dc.lft.to/lastmile_qr_scan"}, "name": "0351342a989eaa9997abed4077268d3b", "type": "electric_scooter", "lat": 38.92121916666667, "is_disabled": 0}, {"fusion_lat": 0.0, "lon": -77.04861666666666, "is_reserved": 0, "bike_id": "206667045505581e37c95ee446a757ff", "fusion_lon": 0.0, "rental_uris": {"android": "https://dc.lft.to/lastmile_qr_scan", "ios": "https://dc.lft.to/lastmile_qr_scan"}, "name": "206667045505581e37c95ee446a757ff", "type": "electric_scooter", "lat": 38.90518183333333, "is_disabled": 0}, {"fusion_lat": 0.0, "lon": -77.05140083333333, "is_reserved": 0, "bike_id": "ff10f1b935dfec519b276631dd61bafa", "fusion_lon": 0.0, "rental_uris": {"android": "https://dc.lft.to/lastmile_qr_scan", "ios": "https://dc.lft.to/lastmile_qr_scan"}, "name": "ff10f1b935dfec519b276631dd61bafa", "type": "electric_scooter", "lat": 38.906488833333334, "is_disabled": 0}, {"fusion_lat": 0.0, "lon": -77.03891183333333, "is_reserved": 0, "bike_id": "97378d0493c095eed43248b50c81a5a2", "fusion_lon": 0.0, "rental_uris": {"android": "https://dc.lft.to/lastmile_qr_scan", "ios": "https://dc.lft.to/lastmile_qr_scan"}, "name": "97378d0493c095eed43248b50c81a5a2", "type": "electric_scooter", "lat": 38.90296166666667, "is_disabled": 0}, {"fusion_lat": 0.0, "lon": -76.99831883333333, "is_reserved": 0, "bike_id": "b0b2318208ee64f2e19d8e26f00ca2e3", "fusion_lon": 0.0, "rental_uris": {"android": "https://dc.lft.to/lastmile_qr_scan", "ios": "https://dc.lft.to/lastmile_qr_scan"}, "name": "b0b2318208ee64f2e19d8e26f00ca2e3", "type": "electric_scooter", "lat": 38.883225, "is_disabled": 0}, {"fusion_lat": 0.0, "lon": -77.05264633333333, "is_reserved": 0, "bike_id": "18270f6e43f97953de16b52ec74274e0", "fusion_lon": 0.0, "rental_uris": {"android": "https://dc.lft.to/lastmile_qr_scan", "ios": "https://dc.lft.to/lastmile_qr_scan"}, "name": "18270f6e43f97953de16b52ec74274e0", "type": "electric_scooter", "lat": 38.9277725, "is_disabled": 0}, {"fusion_lat": 0.0, "lon": -77.034567, "is_reserved": 0, "bike_id": "76d936c01bbfdcb10bc5c3edeb5673d3", "fusion_lon": 0.0, "rental_uris": {"android": "https://dc.lft.to/lastmile_qr_scan", "ios": "https://dc.lft.to/lastmile_qr_scan"}, "name": "76d936c01bbfdcb10bc5c3edeb5673d3", "type": "electric_scooter", "lat": 38.904326, "is_disabled": 0}, {"fusion_lat": 0.0, "lon": -77.00563633333333, "is_reserved": 0, "bike_id": "2c2f7b1d132b6bcba1badddb569f436a", "fusion_lon": 0.0, "rental_uris": {"android": "https://dc.lft.to/lastmile_qr_scan", "ios": "https://dc.lft.to/lastmile_qr_scan"}, "name": "2c2f7b1d132b6bcba1badddb569f436a", "type": "electric_scooter", "lat": 38.90036166666667, "is_disabled": 0}, {"fusion_lat": 0.0, "lon": -76.981073, "is_reserved": 0, "bike_id": "0d6176200a6f2a3cab40ad8da7e51a73", "fusion_lon": 0.0, "rental_uris": {"android": "https://dc.lft.to/lastmile_qr_scan", "ios": "https://dc.lft.to/lastmile_qr_scan"}, "name": "0d6176200a6f2a3cab40ad8da7e51a73", "type": "electric_bike", "lat": 38.877255, "is_disabled": 0}, {"fusion_lat": 0.0, "lon": -77.04752016666667, "is_reserved": 0, "bike_id": "fd9c6fc78697e918e39e38852be12abc", "fusion_lon": 0.0, "rental_uris": {"android": "https://dc.lft.to/lastmile_qr_scan", "ios": "https://dc.lft.to/lastmile_qr_scan"}, "name": "fd9c6fc78697e918e39e38852be12abc", "type": "electric_scooter", "lat": 38.92313216666667, "is_disabled": 0}, {"fusion_lat": 0.0, "lon": -77.03650666666667, "is_reserved": 0, "bike_id": "326b6087e5d8b0d896d6e8518a077f9f", "fusion_lon": 0.0, "rental_uris": {"android": "https://dc.lft.to/lastmile_qr_scan", "ios": "https://dc.lft.to/lastmile_qr_scan"}, "name": "326b6087e5d8b0d896d6e8518a077f9f", "type": "electric_scooter", "lat": 38.92259833333333, "is_disabled": 0}, {"fusion_lat": 0.0, "lon": -77.032052, "is_reserved": 0, "bike_id": "0b8f6f7d912f56e218579e9e887b797e", "fusion_lon": 0.0, "rental_uris": {"android": "https://dc.lft.to/lastmile_qr_scan", "ios": "https://dc.lft.to/lastmile_qr_scan"}, "name": "0b8f6f7d912f56e218579e9e887b797e", "type": "electric_scooter", "lat": 38.9199055, "is_disabled": 0}, {"fusion_lat": 0.0, "lon": -77.02696933333333, "is_reserved": 0, "bike_id": "bae860d794ac72bdecd0122c90351e17", "fusion_lon": 0.0, "rental_uris": {"android": "https://dc.lft.to/lastmile_qr_scan", "ios": "https://dc.lft.to/lastmile_qr_scan"}, "name": "bae860d794ac72bdecd0122c90351e17", "type": "electric_scooter", "lat": 38.9092875, "is_disabled": 0}, {"fusion_lat": 0.0, "lon": -77.0384785, "is_reserved": 0, "bike_id": "6aabc8cf465caccb507da503d42a52af", "fusion_lon": 0.0, "rental_uris": {"android": "https://dc.lft.to/lastmile_qr_scan", "ios": "https://dc.lft.to/lastmile_qr_scan"}, "name": "6aabc8cf465caccb507da503d42a52af", "type": "electric_scooter", "lat": 38.903803833333335, "is_disabled": 0}, {"fusion_lat": 0.0, "lon": -76.98310333333333, "is_reserved": 0, "bike_id": "002f66c816cb19a7ee901c1c7387742a", "fusion_lon": 0.0, "rental_uris": {"android": "https://dc.lft.to/lastmile_qr_scan", "ios": "https://dc.lft.to/lastmile_qr_scan"}, "name": "002f66c816cb19a7ee901c1c7387742a", "type": "electric_scooter", "lat": 38.868846, "is_disabled": 0}, {"fusion_lat": 0.0, "lon": -76.99647433333334, "is_reserved": 0, "bike_id": "8edbb3de75093b03747d96905db95d90", "fusion_lon": 0.0, "rental_uris": {"android": "https://dc.lft.to/lastmile_qr_scan", "ios": "https://dc.lft.to/lastmile_qr_scan"}, "name": "8edbb3de75093b03747d96905db95d90", "type": "electric_scooter", "lat": 38.88720083333333, "is_disabled": 0}, {"fusion_lat": 0.0, "lon": -76.99502383333333, "is_reserved": 0, "bike_id": "44db091b8ae2923d8a8b1a5670540612", "fusion_lon": 0.0, "rental_uris": {"android": "https://dc.lft.to/lastmile_qr_scan", "ios": "https://dc.lft.to/lastmile_qr_scan"}, "name": "44db091b8ae2923d8a8b1a5670540612", "type": "electric_scooter", "lat": 38.90976883333333, "is_disabled": 0}, {"fusion_lat": 0.0, "lon": -76.99792166666667, "is_reserved": 0, "bike_id": "4cda7d5f68582e4ae26cab7400f215ad", "fusion_lon": 0.0, "rental_uris": {"android": "https://dc.lft.to/lastmile_qr_scan", "ios": "https://dc.lft.to/lastmile_qr_scan"}, "name": "4cda7d5f68582e4ae26cab7400f215ad", "type": "electric_scooter", "lat": 38.89099266666667, "is_disabled": 0}, {"fusion_lat": 0.0, "lon": -77.01590166666666, "is_reserved": 0, "bike_id": "03825134c524fc4246e72f626d29327d", "fusion_lon": 0.0, "rental_uris": {"android": "https://dc.lft.to/lastmile_qr_scan", "ios": "https://dc.lft.to/lastmile_qr_scan"}, "name": "03825134c524fc4246e72f626d29327d", "type": "electric_scooter", "lat": 38.949334, "is_disabled": 0}, {"fusion_lat": 0.0, "lon": -77.02412283333334, "is_reserved": 0, "bike_id": "702a6f92127d3ed4550cc50be53a7885", "fusion_lon": 0.0, "rental_uris": {"android": "https://dc.lft.to/lastmile_qr_scan", "ios": "https://dc.lft.to/lastmile_qr_scan"}, "name": "702a6f92127d3ed4550cc50be53a7885", "type": "electric_scooter", "lat": 38.89815866666667, "is_disabled": 0}, {"fusion_lat": 0.0, "lon": -77.00057066666666, "is_reserved": 0, "bike_id": "6d4688f2b92ff835db9ab2b4c9c6c419", "fusion_lon": 0.0, "rental_uris": {"android": "https://dc.lft.to/lastmile_qr_scan", "ios": "https://dc.lft.to/lastmile_qr_scan"}, "name": "6d4688f2b92ff835db9ab2b4c9c6c419", "type": "electric_scooter", "lat": 38.891623833333334, "is_disabled": 0}, {"fusion_lat": 0.0, "lon": -77.027172, "is_reserved": 0, "bike_id": "d2b86a5779b56e82fce6a5295366b9e3", "fusion_lon": 0.0, "rental_uris": {"android": "https://dc.lft.to/lastmile_qr_scan", "ios": "https://dc.lft.to/lastmile_qr_scan"}, "name": "d2b86a5779b56e82fce6a5295366b9e3", "type": "electric_scooter", "lat": 38.924647666666665, "is_disabled": 0}, {"fusion_lat": 0.0, "lon": -76.98550966666667, "is_reserved": 0, "bike_id": "df4cdded8e4bea9f62aeb636f93dbabb", "fusion_lon": 0.0, "rental_uris": {"android": "https://dc.lft.to/lastmile_qr_scan", "ios": "https://dc.lft.to/lastmile_qr_scan"}, "name": "df4cdded8e4bea9f62aeb636f93dbabb", "type": "electric_scooter", "lat": 38.91026333333333, "is_disabled": 0}, {"fusion_lat": 0.0, "lon": -77.021005, "is_reserved": 0, "bike_id": "23a894a6dbb62d95045a1fd8bfc3a5b7", "fusion_lon": 0.0, "rental_uris": {"android": "https://dc.lft.to/lastmile_qr_scan", "ios": "https://dc.lft.to/lastmile_qr_scan"}, "name": "23a894a6dbb62d95045a1fd8bfc3a5b7", "type": "electric_scooter", "lat": 38.9215195, "is_disabled": 0}, {"fusion_lat": 0.0, "lon": -77.03604633333333, "is_reserved": 0, "bike_id": "40c8c2e299208be8ff7d6d481b83462d", "fusion_lon": 0.0, "rental_uris": {"android": "https://dc.lft.to/lastmile_qr_scan", "ios": "https://dc.lft.to/lastmile_qr_scan"}, "name": "40c8c2e299208be8ff7d6d481b83462d", "type": "electric_scooter", "lat": 38.923219333333336, "is_disabled": 0}, {"fusion_lat": 0.0, "lon": -77.04322766666667, "is_reserved": 0, "bike_id": "9baef5b704faa425d74b9408b08d71c6", "fusion_lon": 0.0, "rental_uris": {"android": "https://dc.lft.to/lastmile_qr_scan", "ios": "https://dc.lft.to/lastmile_qr_scan"}, "name": "9baef5b704faa425d74b9408b08d71c6", "type": "electric_scooter", "lat": 38.90580716666667, "is_disabled": 0}, {"fusion_lat": 0.0, "lon": -77.0525345, "is_reserved": 0, "bike_id": "2c3271409e321cb429d4779ecbcfc1e0", "fusion_lon": 0.0, "rental_uris": {"android": "https://dc.lft.to/lastmile_qr_scan", "ios": "https://dc.lft.to/lastmile_qr_scan"}, "name": "2c3271409e321cb429d4779ecbcfc1e0", "type": "electric_scooter", "lat": 38.92376766666667, "is_disabled": 0}, {"fusion_lat": 0.0, "lon": -77.012108, "is_reserved": 0, "bike_id": "730eebabac5cc9e62aa4df8150bf96a8", "fusion_lon": 0.0, "rental_uris": {"android": "https://dc.lft.to/lastmile_qr_scan", "ios": "https://dc.lft.to/lastmile_qr_scan"}, "name": "730eebabac5cc9e62aa4df8150bf96a8", "type": "electric_scooter", "lat": 38.921197666666664, "is_disabled": 0}, {"fusion_lat": 0.0, "lon": -76.99841983333333, "is_reserved": 0, "bike_id": "4ceeb9f8dccbc54e79a25a7fa606144b", "fusion_lon": 0.0, "rental_uris": {"android": "https://dc.lft.to/lastmile_qr_scan", "ios": "https://dc.lft.to/lastmile_qr_scan"}, "name": "4ceeb9f8dccbc54e79a25a7fa606144b", "type": "electric_scooter", "lat": 38.890849833333334, "is_disabled": 0}, {"fusion_lat": 0.0, "lon": -76.95753483333333, "is_reserved": 0, "bike_id": "737ea878cfa6445003ab15e7f944b65a", "fusion_lon": 0.0, "rental_uris": {"android": "https://dc.lft.to/lastmile_qr_scan", "ios": "https://dc.lft.to/lastmile_qr_scan"}, "name": "737ea878cfa6445003ab15e7f944b65a", "type": "electric_scooter", "lat": 38.884247, "is_disabled": 0}, {"fusion_lat": 0.0, "lon": -77.02702316666667, "is_reserved": 0, "bike_id": "a2df9f252aa304d5a25ec9b59ab5cbe9", "fusion_lon": 0.0, "rental_uris": {"android": "https://dc.lft.to/lastmile_qr_scan", "ios": "https://dc.lft.to/lastmile_qr_scan"}, "name": "a2df9f252aa304d5a25ec9b59ab5cbe9", "type": "electric_scooter", "lat": 38.90839966666667, "is_disabled": 0}, {"fusion_lat": 0.0, "lon": -76.98275783333334, "is_reserved": 0, "bike_id": "3fff16ecc0b19905ea476cc25920f1e8", "fusion_lon": 0.0, "rental_uris": {"android": "https://dc.lft.to/lastmile_qr_scan", "ios": "https://dc.lft.to/lastmile_qr_scan"}, "name": "3fff16ecc0b19905ea476cc25920f1e8", "type": "electric_scooter", "lat": 38.885313333333336, "is_disabled": 0}, {"fusion_lat": 0.0, "lon": -77.037681, "is_reserved": 0, "bike_id": "84421a0c8e87291dd100abcb19622a19", "fusion_lon": 0.0, "rental_uris": {"android": "https://dc.lft.to/lastmile_qr_scan", "ios": "https://dc.lft.to/lastmile_qr_scan"}, "name": "84421a0c8e87291dd100abcb19622a19", "type": "electric_scooter", "lat": 38.9222805, "is_disabled": 0}, {"fusion_lat": 0.0, "lon": -76.97528733333333, "is_reserved": 0, "bike_id": "38818aed5475ed6a0237e8432c977525", "fusion_lon": 0.0, "rental_uris": {"android": "https://dc.lft.to/lastmile_qr_scan", "ios": "https://dc.lft.to/lastmile_qr_scan"}, "name": "38818aed5475ed6a0237e8432c977525", "type": "electric_bike", "lat": 38.903314333333334, "is_disabled": 0}, {"fusion_lat": 0.0, "lon": -77.02440533333333, "is_reserved": 0, "bike_id": "104553bb2e40a281ab1d19f15d1cacfc", "fusion_lon": 0.0, "rental_uris": {"android": "https://dc.lft.to/lastmile_qr_scan", "ios": "https://dc.lft.to/lastmile_qr_scan"}, "name": "104553bb2e40a281ab1d19f15d1cacfc", "type": "electric_scooter", "lat": 38.923988666666666, "is_disabled": 0}, {"fusion_lat": 0.0, "lon": -77.05885066666667, "is_reserved": 0, "bike_id": "7281140a2ae1968d46e784e6dca30f02", "fusion_lon": 0.0, "rental_uris": {"android": "https://dc.lft.to/lastmile_qr_scan", "ios": "https://dc.lft.to/lastmile_qr_scan"}, "name": "7281140a2ae1968d46e784e6dca30f02", "type": "electric_scooter", "lat": 38.936358166666665, "is_disabled": 0}, {"fusion_lat": 0.0, "lon": -76.98103866666666, "is_reserved": 0, "bike_id": "afd8b0c962e2bd7840b1a998d32d59d8", "fusion_lon": 0.0, "rental_uris": {"android": "https://dc.lft.to/lastmile_qr_scan", "ios": "https://dc.lft.to/lastmile_qr_scan"}, "name": "afd8b0c962e2bd7840b1a998d32d59d8", "type": "electric_scooter", "lat": 38.903919, "is_disabled": 0}, {"fusion_lat": 0.0, "lon": -77.0523065, "is_reserved": 0, "bike_id": "bcff7bd4d1f97af67b6067b60561f827", "fusion_lon": 0.0, "rental_uris": {"android": "https://dc.lft.to/lastmile_qr_scan", "ios": "https://dc.lft.to/lastmile_qr_scan"}, "name": "bcff7bd4d1f97af67b6067b60561f827", "type": "electric_scooter", "lat": 38.925115166666664, "is_disabled": 0}, {"fusion_lat": 0.0, "lon": -76.99776, "is_reserved": 0, "bike_id": "04a56fc6fd9049b449c70a7bef507d15", "fusion_lon": 0.0, "rental_uris": {"android": "https://dc.lft.to/lastmile_qr_scan", "ios": "https://dc.lft.to/lastmile_qr_scan"}, "name": "04a56fc6fd9049b449c70a7bef507d15", "type": "electric_scooter", "lat": 38.8442675, "is_disabled": 0}, {"fusion_lat": 0.0, "lon": -77.04997033333333, "is_reserved": 0, "bike_id": "50847db72905603b5479dfcc21af309e", "fusion_lon": 0.0, "rental_uris": {"android": "https://dc.lft.to/lastmile_qr_scan", "ios": "https://dc.lft.to/lastmile_qr_scan"}, "name": "50847db72905603b5479dfcc21af309e", "type": "electric_scooter", "lat": 38.89226033333333, "is_disabled": 0}, {"fusion_lat": 0.0, "lon": -77.02979733333333, "is_reserved": 0, "bike_id": "7dc8387f4062055c3d3af93aaad221cb", "fusion_lon": 0.0, "rental_uris": {"android": "https://dc.lft.to/lastmile_qr_scan", "ios": "https://dc.lft.to/lastmile_qr_scan"}, "name": "7dc8387f4062055c3d3af93aaad221cb", "type": "electric_scooter", "lat": 38.916757833333335, "is_disabled": 0}, {"fusion_lat": 0.0, "lon": -76.9937655, "is_reserved": 0, "bike_id": "cbc2b268ed5e2d1fde34301973625c54", "fusion_lon": 0.0, "rental_uris": {"android": "https://dc.lft.to/lastmile_qr_scan", "ios": "https://dc.lft.to/lastmile_qr_scan"}, "name": "cbc2b268ed5e2d1fde34301973625c54", "type": "electric_scooter", "lat": 38.92378583333333, "is_disabled": 0}, {"fusion_lat": 0.0, "lon": -77.04458333333334, "is_reserved": 0, "bike_id": "25f507fa0dd48c28a8d78e00404a868a", "fusion_lon": 0.0, "rental_uris": {"android": "https://dc.lft.to/lastmile_qr_scan", "ios": "https://dc.lft.to/lastmile_qr_scan"}, "name": "25f507fa0dd48c28a8d78e00404a868a", "type": "electric_scooter", "lat": 38.90830616666667, "is_disabled": 0}, {"fusion_lat": 0.0, "lon": -77.029423, "is_reserved": 0, "bike_id": "7b521186be764114948affc28fcb498c", "fusion_lon": 0.0, "rental_uris": {"android": "https://dc.lft.to/lastmile_qr_scan", "ios": "https://dc.lft.to/lastmile_qr_scan"}, "name": "7b521186be764114948affc28fcb498c", "type": "electric_scooter", "lat": 38.9155725, "is_disabled": 0}, {"fusion_lat": 0.0, "lon": -77.02721766666667, "is_reserved": 0, "bike_id": "e476c1a798c83cbdcba8da45d832de34", "fusion_lon": 0.0, "rental_uris": {"android": "https://dc.lft.to/lastmile_qr_scan", "ios": "https://dc.lft.to/lastmile_qr_scan"}, "name": "e476c1a798c83cbdcba8da45d832de34", "type": "electric_scooter", "lat": 38.895805, "is_disabled": 0}, {"fusion_lat": 0.0, "lon": -77.03930333333334, "is_reserved": 0, "bike_id": "3fa7bfdbf3e65ff7a91289e7f9d3b474", "fusion_lon": 0.0, "rental_uris": {"android": "https://dc.lft.to/lastmile_qr_scan", "ios": "https://dc.lft.to/lastmile_qr_scan"}, "name": "3fa7bfdbf3e65ff7a91289e7f9d3b474", "type": "electric_scooter", "lat": 38.92488083333333, "is_disabled": 0}, {"fusion_lat": 0.0, "lon": -77.03777766666667, "is_reserved": 0, "bike_id": "b3a73dfd7788cc204fd5f4b1c26abb76", "fusion_lon": 0.0, "rental_uris": {"android": "https://dc.lft.to/lastmile_qr_scan", "ios": "https://dc.lft.to/lastmile_qr_scan"}, "name": "b3a73dfd7788cc204fd5f4b1c26abb76", "type": "electric_scooter", "lat": 38.90957483333333, "is_disabled": 0}, {"fusion_lat": 0.0, "lon": -77.0292875, "is_reserved": 0, "bike_id": "901e0c8d8672085bd60ca0b23dc285dc", "fusion_lon": 0.0, "rental_uris": {"android": "https://dc.lft.to/lastmile_qr_scan", "ios": "https://dc.lft.to/lastmile_qr_scan"}, "name": "901e0c8d8672085bd60ca0b23dc285dc", "type": "electric_scooter", "lat": 38.89415483333333, "is_disabled": 0}, {"fusion_lat": 0.0, "lon": -77.04658, "is_reserved": 0, "bike_id": "d299452a2c3901c0dcd7a66820cd0e8d", "fusion_lon": 0.0, "rental_uris": {"android": "https://dc.lft.to/lastmile_qr_scan", "ios": "https://dc.lft.to/lastmile_qr_scan"}, "name": "d299452a2c3901c0dcd7a66820cd0e8d", "type": "electric_scooter", "lat": 38.9135905, "is_disabled": 0}, {"fusion_lat": 0.0, "lon": -76.983622, "is_reserved": 0, "bike_id": "c6d22ffdf4af2e9bbab96415980e5cb1", "fusion_lon": 0.0, "rental_uris": {"android": "https://dc.lft.to/lastmile_qr_scan", "ios": "https://dc.lft.to/lastmile_qr_scan"}, "name": "c6d22ffdf4af2e9bbab96415980e5cb1", "type": "electric_scooter", "lat": 38.887448, "is_disabled": 0}, {"fusion_lat": 0.0, "lon": -77.02527333333333, "is_reserved": 0, "bike_id": "65f772237bb998365da361d9af2e742e", "fusion_lon": 0.0, "rental_uris": {"android": "https://dc.lft.to/lastmile_qr_scan", "ios": "https://dc.lft.to/lastmile_qr_scan"}, "name": "65f772237bb998365da361d9af2e742e", "type": "electric_scooter", "lat": 38.9328945, "is_disabled": 0}, {"fusion_lat": 0.0, "lon": -76.98452883333333, "is_reserved": 0, "bike_id": "6ec0d646e1a5f3ba42c4bdf1dea6a00e", "fusion_lon": 0.0, "rental_uris": {"android": "https://dc.lft.to/lastmile_qr_scan", "ios": "https://dc.lft.to/lastmile_qr_scan"}, "name": "6ec0d646e1a5f3ba42c4bdf1dea6a00e", "type": "electric_scooter", "lat": 38.900291833333334, "is_disabled": 0}, {"fusion_lat": 0.0, "lon": -77.03176116666667, "is_reserved": 0, "bike_id": "18ee78290ae7bdf094b20c24d594993b", "fusion_lon": 0.0, "rental_uris": {"android": "https://dc.lft.to/lastmile_qr_scan", "ios": "https://dc.lft.to/lastmile_qr_scan"}, "name": "18ee78290ae7bdf094b20c24d594993b", "type": "electric_scooter", "lat": 38.9155355, "is_disabled": 0}, {"fusion_lat": 0.0, "lon": -77.0386145, "is_reserved": 0, "bike_id": "104229f5d426963139039e97763bd425", "fusion_lon": 0.0, "rental_uris": {"android": "https://dc.lft.to/lastmile_qr_scan", "ios": "https://dc.lft.to/lastmile_qr_scan"}, "name": "104229f5d426963139039e97763bd425", "type": "electric_scooter", "lat": 38.903459166666664, "is_disabled": 0}, {"fusion_lat": 0.0, "lon": -77.045437, "is_reserved": 0, "bike_id": "b995104c37a5fa615c467a2eccd0baaa", "fusion_lon": 0.0, "rental_uris": {"android": "https://dc.lft.to/lastmile_qr_scan", "ios": "https://dc.lft.to/lastmile_qr_scan"}, "name": "b995104c37a5fa615c467a2eccd0baaa", "type": "electric_scooter", "lat": 38.909539333333335, "is_disabled": 0}, {"fusion_lat": 0.0, "lon": -77.03206, "is_reserved": 0, "bike_id": "7237510db34fc64de0f7fb2b64e7f43e", "fusion_lon": 0.0, "rental_uris": {"android": "https://dc.lft.to/lastmile_qr_scan", "ios": "https://dc.lft.to/lastmile_qr_scan"}, "name": "7237510db34fc64de0f7fb2b64e7f43e", "type": "electric_scooter", "lat": 38.91100316666667, "is_disabled": 0}, {"fusion_lat": 0.0, "lon": -77.02930883333333, "is_reserved": 0, "bike_id": "34fd7070641b4e7b12b321625c2444b1", "fusion_lon": 0.0, "rental_uris": {"android": "https://dc.lft.to/lastmile_qr_scan", "ios": "https://dc.lft.to/lastmile_qr_scan"}, "name": "34fd7070641b4e7b12b321625c2444b1", "type": "electric_scooter", "lat": 38.9324285, "is_disabled": 0}, {"fusion_lat": 0.0, "lon": -77.04421366666666, "is_reserved": 0, "bike_id": "1d4fd8790129a3c0cddce9ef2168c88d", "fusion_lon": 0.0, "rental_uris": {"android": "https://dc.lft.to/lastmile_qr_scan", "ios": "https://dc.lft.to/lastmile_qr_scan"}, "name": "1d4fd8790129a3c0cddce9ef2168c88d", "type": "electric_scooter", "lat": 38.913525166666666, "is_disabled": 0}, {"fusion_lat": 0.0, "lon": -77.03791516666666, "is_reserved": 0, "bike_id": "a2333dfb8ed1b707d8666f479201690f", "fusion_lon": 0.0, "rental_uris": {"android": "https://dc.lft.to/lastmile_qr_scan", "ios": "https://dc.lft.to/lastmile_qr_scan"}, "name": "a2333dfb8ed1b707d8666f479201690f", "type": "electric_scooter", "lat": 38.92499166666666, "is_disabled": 0}, {"fusion_lat": 0.0, "lon": -77.001918, "is_reserved": 0, "bike_id": "45b1fc9af2eb295348cadc1d3437cb13", "fusion_lon": 0.0, "rental_uris": {"android": "https://dc.lft.to/lastmile_qr_scan", "ios": "https://dc.lft.to/lastmile_qr_scan"}, "name": "45b1fc9af2eb295348cadc1d3437cb13", "type": "electric_scooter", "lat": 38.9038085, "is_disabled": 0}, {"fusion_lat": 0.0, "lon": -77.07240566666667, "is_reserved": 0, "bike_id": "650358fec7cad9d0d750ed5591925137", "fusion_lon": 0.0, "rental_uris": {"android": "https://dc.lft.to/lastmile_qr_scan", "ios": "https://dc.lft.to/lastmile_qr_scan"}, "name": "650358fec7cad9d0d750ed5591925137", "type": "electric_scooter", "lat": 38.9596085, "is_disabled": 0}, {"fusion_lat": 0.0, "lon": -77.0122425, "is_reserved": 0, "bike_id": "7bf12068278b68456966a342860efac3", "fusion_lon": 0.0, "rental_uris": {"android": "https://dc.lft.to/lastmile_qr_scan", "ios": "https://dc.lft.to/lastmile_qr_scan"}, "name": "7bf12068278b68456966a342860efac3", "type": "electric_scooter", "lat": 38.90735333333333, "is_disabled": 0}, {"fusion_lat": 0.0, "lon": -77.0387855, "is_reserved": 0, "bike_id": "83e7c17f021b8021509c5a000c93bf40", "fusion_lon": 0.0, "rental_uris": {"android": "https://dc.lft.to/lastmile_qr_scan", "ios": "https://dc.lft.to/lastmile_qr_scan"}, "name": "83e7c17f021b8021509c5a000c93bf40", "type": "electric_scooter", "lat": 38.93254833333334, "is_disabled": 0}, {"fusion_lat": 0.0, "lon": -77.0056575, "is_reserved": 0, "bike_id": "18f03312c2f734f66bffa2b1f0acccfd", "fusion_lon": 0.0, "rental_uris": {"android": "https://dc.lft.to/lastmile_qr_scan", "ios": "https://dc.lft.to/lastmile_qr_scan"}, "name": "18f03312c2f734f66bffa2b1f0acccfd", "type": "electric_scooter", "lat": 38.8850195, "is_disabled": 0}, {"fusion_lat": 0.0, "lon": -77.00329283333333, "is_reserved": 0, "bike_id": "9520b57f8fe9c158862cbbd862d668c8", "fusion_lon": 0.0, "rental_uris": {"android": "https://dc.lft.to/lastmile_qr_scan", "ios": "https://dc.lft.to/lastmile_qr_scan"}, "name": "9520b57f8fe9c158862cbbd862d668c8", "type": "electric_scooter", "lat": 38.89211683333333, "is_disabled": 0}, {"fusion_lat": 0.0, "lon": -77.00552033333334, "is_reserved": 0, "bike_id": "04c937f541733b15f2fe56db5e23447f", "fusion_lon": 0.0, "rental_uris": {"android": "https://dc.lft.to/lastmile_qr_scan", "ios": "https://dc.lft.to/lastmile_qr_scan"}, "name": "04c937f541733b15f2fe56db5e23447f", "type": "electric_scooter", "lat": 38.91181516666666, "is_disabled": 0}, {"fusion_lat": 0.0, "lon": -77.03926133333333, "is_reserved": 0, "bike_id": "d2988c1a97692b922aa2136d16b539a4", "fusion_lon": 0.0, "rental_uris": {"android": "https://dc.lft.to/lastmile_qr_scan", "ios": "https://dc.lft.to/lastmile_qr_scan"}, "name": "d2988c1a97692b922aa2136d16b539a4", "type": "electric_bike", "lat": 38.900817333333336, "is_disabled": 0}, {"fusion_lat": 0.0, "lon": -77.07278033333333, "is_reserved": 0, "bike_id": "56ce90825761c302a4d7f3ea5ec4cce5", "fusion_lon": 0.0, "rental_uris": {"android": "https://dc.lft.to/lastmile_qr_scan", "ios": "https://dc.lft.to/lastmile_qr_scan"}, "name": "56ce90825761c302a4d7f3ea5ec4cce5", "type": "electric_scooter", "lat": 38.93483466666667, "is_disabled": 0}, {"fusion_lat": 0.0, "lon": -77.0385775, "is_reserved": 0, "bike_id": "a8851b75ee3193a28bb4612f482a184c", "fusion_lon": 0.0, "rental_uris": {"android": "https://dc.lft.to/lastmile_qr_scan", "ios": "https://dc.lft.to/lastmile_qr_scan"}, "name": "a8851b75ee3193a28bb4612f482a184c", "type": "electric_scooter", "lat": 38.90665083333333, "is_disabled": 0}, {"fusion_lat": 0.0, "lon": -77.01817783333334, "is_reserved": 0, "bike_id": "908ff97be8800f8caa784483c3e8787d", "fusion_lon": 0.0, "rental_uris": {"android": "https://dc.lft.to/lastmile_qr_scan", "ios": "https://dc.lft.to/lastmile_qr_scan"}, "name": "908ff97be8800f8caa784483c3e8787d", "type": "electric_scooter", "lat": 38.9236525, "is_disabled": 0}, {"fusion_lat": 0.0, "lon": -77.023842, "is_reserved": 0, "bike_id": "3ccd7d1c3aee709ed8b3e823c329b115", "fusion_lon": 0.0, "rental_uris": {"android": "https://dc.lft.to/lastmile_qr_scan", "ios": "https://dc.lft.to/lastmile_qr_scan"}, "name": "3ccd7d1c3aee709ed8b3e823c329b115", "type": "electric_scooter", "lat": 38.929059333333335, "is_disabled": 0}, {"fusion_lat": 0.0, "lon": -77.01994033333334, "is_reserved": 0, "bike_id": "c0eda5c523fcc6ab1c3cb1d0c2d24cdd", "fusion_lon": 0.0, "rental_uris": {"android": "https://dc.lft.to/lastmile_qr_scan", "ios": "https://dc.lft.to/lastmile_qr_scan"}, "name": "c0eda5c523fcc6ab1c3cb1d0c2d24cdd", "type": "electric_scooter", "lat": 38.913579166666665, "is_disabled": 0}, {"fusion_lat": 0.0, "lon": -77.03834016666667, "is_reserved": 0, "bike_id": "2a45c5c4f360c1611dc6c7042075d95c", "fusion_lon": 0.0, "rental_uris": {"android": "https://dc.lft.to/lastmile_qr_scan", "ios": "https://dc.lft.to/lastmile_qr_scan"}, "name": "2a45c5c4f360c1611dc6c7042075d95c", "type": "electric_scooter", "lat": 38.90424933333333, "is_disabled": 0}, {"fusion_lat": 0.0, "lon": -76.93006066666666, "is_reserved": 0, "bike_id": "d2138fa37f86e7c59b352391cc6d8dc4", "fusion_lon": 0.0, "rental_uris": {"android": "https://dc.lft.to/lastmile_qr_scan", "ios": "https://dc.lft.to/lastmile_qr_scan"}, "name": "d2138fa37f86e7c59b352391cc6d8dc4", "type": "electric_bike", "lat": 38.8964665, "is_disabled": 0}, {"fusion_lat": 0.0, "lon": -77.03810383333334, "is_reserved": 0, "bike_id": "9816403a889ab7faa8ed8da93968dae6", "fusion_lon": 0.0, "rental_uris": {"android": "https://dc.lft.to/lastmile_qr_scan", "ios": "https://dc.lft.to/lastmile_qr_scan"}, "name": "9816403a889ab7faa8ed8da93968dae6", "type": "electric_scooter", "lat": 38.92056216666667, "is_disabled": 0}, {"fusion_lat": 0.0, "lon": -77.02665783333333, "is_reserved": 0, "bike_id": "42d8f861b479ce8771b22eebcd0e7b92", "fusion_lon": 0.0, "rental_uris": {"android": "https://dc.lft.to/lastmile_qr_scan", "ios": "https://dc.lft.to/lastmile_qr_scan"}, "name": "42d8f861b479ce8771b22eebcd0e7b92", "type": "electric_scooter", "lat": 38.97565683333333, "is_disabled": 0}, {"fusion_lat": 0.0, "lon": -77.026698, "is_reserved": 0, "bike_id": "31d821b39ca10d0eea4e6306b2a871b4", "fusion_lon": 0.0, "rental_uris": {"android": "https://dc.lft.to/lastmile_qr_scan", "ios": "https://dc.lft.to/lastmile_qr_scan"}, "name": "31d821b39ca10d0eea4e6306b2a871b4", "type": "electric_scooter", "lat": 38.907266666666665, "is_disabled": 0}, {"fusion_lat": 0.0, "lon": -77.002007, "is_reserved": 0, "bike_id": "8e8bb47ed19a98c5fb7c76a6ce25ebce", "fusion_lon": 0.0, "rental_uris": {"android": "https://dc.lft.to/lastmile_qr_scan", "ios": "https://dc.lft.to/lastmile_qr_scan"}, "name": "8e8bb47ed19a98c5fb7c76a6ce25ebce", "type": "electric_scooter", "lat": 38.90233883333333, "is_disabled": 0}, {"fusion_lat": 0.0, "lon": -77.0318955, "is_reserved": 0, "bike_id": "d423a8433bbaa8b87fcc380e0b09375e", "fusion_lon": 0.0, "rental_uris": {"android": "https://dc.lft.to/lastmile_qr_scan", "ios": "https://dc.lft.to/lastmile_qr_scan"}, "name": "d423a8433bbaa8b87fcc380e0b09375e", "type": "electric_scooter", "lat": 38.90561566666667, "is_disabled": 0}, {"fusion_lat": 0.0, "lon": -77.047639, "is_reserved": 0, "bike_id": "f818aa4bcc565fb4fb853afd93d71244", "fusion_lon": 0.0, "rental_uris": {"android": "https://dc.lft.to/lastmile_qr_scan", "ios": "https://dc.lft.to/lastmile_qr_scan"}, "name": "f818aa4bcc565fb4fb853afd93d71244", "type": "electric_scooter", "lat": 38.9006385, "is_disabled": 0}, {"fusion_lat": 0.0, "lon": -76.969024, "is_reserved": 0, "bike_id": "b426de4811356d4acf48a3ff1d39329a", "fusion_lon": 0.0, "rental_uris": {"android": "https://dc.lft.to/lastmile_qr_scan", "ios": "https://dc.lft.to/lastmile_qr_scan"}, "name": "b426de4811356d4acf48a3ff1d39329a", "type": "electric_bike", "lat": 38.846264, "is_disabled": 0}, {"fusion_lat": 0.0, "lon": -77.0467605, "is_reserved": 0, "bike_id": "52aa4ca4784f2c1d7ced650f1954b41f", "fusion_lon": 0.0, "rental_uris": {"android": "https://dc.lft.to/lastmile_qr_scan", "ios": "https://dc.lft.to/lastmile_qr_scan"}, "name": "52aa4ca4784f2c1d7ced650f1954b41f", "type": "electric_scooter", "lat": 38.907341333333335, "is_disabled": 0}, {"fusion_lat": 0.0, "lon": -76.9493715, "is_reserved": 0, "bike_id": "5327d1ad1481bdb4c3453437a76f6b89", "fusion_lon": 0.0, "rental_uris": {"android": "https://dc.lft.to/lastmile_qr_scan", "ios": "https://dc.lft.to/lastmile_qr_scan"}, "name": "5327d1ad1481bdb4c3453437a76f6b89", "type": "electric_scooter", "lat": 38.893443166666664, "is_disabled": 0}, {"fusion_lat": 0.0, "lon": -77.04165883333333, "is_reserved": 0, "bike_id": "25b97150287fe94bae6ac6c94c6c1c4b", "fusion_lon": 0.0, "rental_uris": {"android": "https://dc.lft.to/lastmile_qr_scan", "ios": "https://dc.lft.to/lastmile_qr_scan"}, "name": "25b97150287fe94bae6ac6c94c6c1c4b", "type": "electric_scooter", "lat": 38.906513833333335, "is_disabled": 0}, {"fusion_lat": 0.0, "lon": -77.08397683333334, "is_reserved": 0, "bike_id": "0810ad34a7d3ef9d7656dceb09bf5830", "fusion_lon": 0.0, "rental_uris": {"android": "https://dc.lft.to/lastmile_qr_scan", "ios": "https://dc.lft.to/lastmile_qr_scan"}, "name": "0810ad34a7d3ef9d7656dceb09bf5830", "type": "electric_scooter", "lat": 38.90801883333334, "is_disabled": 0}, {"fusion_lat": 0.0, "lon": -76.9950795, "is_reserved": 0, "bike_id": "e7bf08c8277517b88b75b74b1fa4f940", "fusion_lon": 0.0, "rental_uris": {"android": "https://dc.lft.to/lastmile_qr_scan", "ios": "https://dc.lft.to/lastmile_qr_scan"}, "name": "e7bf08c8277517b88b75b74b1fa4f940", "type": "electric_scooter", "lat": 38.88008333333333, "is_disabled": 0}, {"fusion_lat": 0.0, "lon": -76.93640733333334, "is_reserved": 0, "bike_id": "793f9ee541673438aa90c0e277e4a370", "fusion_lon": 0.0, "rental_uris": {"android": "https://dc.lft.to/lastmile_qr_scan", "ios": "https://dc.lft.to/lastmile_qr_scan"}, "name": "793f9ee541673438aa90c0e277e4a370", "type": "electric_scooter", "lat": 38.900650166666665, "is_disabled": 0}, {"fusion_lat": 0.0, "lon": -76.99960816666666, "is_reserved": 0, "bike_id": "9a2a63ec09440e5ab965f879cbd2aac4", "fusion_lon": 0.0, "rental_uris": {"android": "https://dc.lft.to/lastmile_qr_scan", "ios": "https://dc.lft.to/lastmile_qr_scan"}, "name": "9a2a63ec09440e5ab965f879cbd2aac4", "type": "electric_scooter", "lat": 38.9163885, "is_disabled": 0}, {"fusion_lat": 0.0, "lon": -77.04674216666666, "is_reserved": 0, "bike_id": "a32db5afee7b918528e930a47063c185", "fusion_lon": 0.0, "rental_uris": {"android": "https://dc.lft.to/lastmile_qr_scan", "ios": "https://dc.lft.to/lastmile_qr_scan"}, "name": "a32db5afee7b918528e930a47063c185", "type": "electric_scooter", "lat": 38.9073455, "is_disabled": 0}, {"fusion_lat": 0.0, "lon": -77.02220066666666, "is_reserved": 0, "bike_id": "a7027957eece29899226b8e36ffe3ecc", "fusion_lon": 0.0, "rental_uris": {"android": "https://dc.lft.to/lastmile_qr_scan", "ios": "https://dc.lft.to/lastmile_qr_scan"}, "name": "a7027957eece29899226b8e36ffe3ecc", "type": "electric_scooter", "lat": 38.935439833333334, "is_disabled": 0}, {"fusion_lat": 0.0, "lon": -77.041085, "is_reserved": 0, "bike_id": "2827384a356fe94f3ce3d1cdd080e9ce", "fusion_lon": 0.0, "rental_uris": {"android": "https://dc.lft.to/lastmile_qr_scan", "ios": "https://dc.lft.to/lastmile_qr_scan"}, "name": "2827384a356fe94f3ce3d1cdd080e9ce", "type": "electric_scooter", "lat": 38.92797933333333, "is_disabled": 0}, {"fusion_lat": 0.0, "lon": -77.0212675, "is_reserved": 0, "bike_id": "6fbcb40644ff100547a6edb459de0529", "fusion_lon": 0.0, "rental_uris": {"android": "https://dc.lft.to/lastmile_qr_scan", "ios": "https://dc.lft.to/lastmile_qr_scan"}, "name": "6fbcb40644ff100547a6edb459de0529", "type": "electric_scooter", "lat": 38.924135166666666, "is_disabled": 0}, {"fusion_lat": 0.0, "lon": -77.005902, "is_reserved": 0, "bike_id": "aae062d498400b93584285f6f2bc0785", "fusion_lon": 0.0, "rental_uris": {"android": "https://dc.lft.to/lastmile_qr_scan", "ios": "https://dc.lft.to/lastmile_qr_scan"}, "name": "aae062d498400b93584285f6f2bc0785", "type": "electric_scooter", "lat": 38.905687666666665, "is_disabled": 0}, {"fusion_lat": 0.0, "lon": -77.02711166666667, "is_reserved": 0, "bike_id": "22424e24272492cc91b1e1cda39e4000", "fusion_lon": 0.0, "rental_uris": {"android": "https://dc.lft.to/lastmile_qr_scan", "ios": "https://dc.lft.to/lastmile_qr_scan"}, "name": "22424e24272492cc91b1e1cda39e4000", "type": "electric_scooter", "lat": 38.897546, "is_disabled": 0}, {"fusion_lat": 0.0, "lon": -77.02404333333334, "is_reserved": 0, "bike_id": "37a7f9f4fab4296bc8c938f3d09770d9", "fusion_lon": 0.0, "rental_uris": {"android": "https://dc.lft.to/lastmile_qr_scan", "ios": "https://dc.lft.to/lastmile_qr_scan"}, "name": "37a7f9f4fab4296bc8c938f3d09770d9", "type": "electric_scooter", "lat": 38.89250633333333, "is_disabled": 0}, {"fusion_lat": 0.0, "lon": -76.99574666666666, "is_reserved": 0, "bike_id": "1f0f5820763ce5252249eecab00931af", "fusion_lon": 0.0, "rental_uris": {"android": "https://dc.lft.to/lastmile_qr_scan", "ios": "https://dc.lft.to/lastmile_qr_scan"}, "name": "1f0f5820763ce5252249eecab00931af", "type": "electric_bike", "lat": 38.85286933333333, "is_disabled": 0}, {"fusion_lat": 0.0, "lon": -77.3440065, "is_reserved": 0, "bike_id": "dddead61ce5e378bd23de1ad5d328eb3", "fusion_lon": 0.0, "rental_uris": {"android": "https://dc.lft.to/lastmile_qr_scan", "ios": "https://dc.lft.to/lastmile_qr_scan"}, "name": "dddead61ce5e378bd23de1ad5d328eb3", "type": "electric_bike", "lat": 38.94577433333333, "is_disabled": 0}, {"fusion_lat": 0.0, "lon": -77.04619, "is_reserved": 0, "bike_id": "381c3e4e82a13981134876dffc7c8f47", "fusion_lon": 0.0, "rental_uris": {"android": "https://dc.lft.to/lastmile_qr_scan", "ios": "https://dc.lft.to/lastmile_qr_scan"}, "name": "381c3e4e82a13981134876dffc7c8f47", "type": "electric_scooter", "lat": 38.916127, "is_disabled": 0}, {"fusion_lat": 0.0, "lon": -77.03214933333334, "is_reserved": 0, "bike_id": "a1a3f749cb107423905c063b076d2112", "fusion_lon": 0.0, "rental_uris": {"android": "https://dc.lft.to/lastmile_qr_scan", "ios": "https://dc.lft.to/lastmile_qr_scan"}, "name": "a1a3f749cb107423905c063b076d2112", "type": "electric_scooter", "lat": 38.91727733333333, "is_disabled": 0}, {"fusion_lat": 0.0, "lon": -77.00902533333333, "is_reserved": 0, "bike_id": "4a5335cdb04f7a9e2ca0cd7924014241", "fusion_lon": 0.0, "rental_uris": {"android": "https://dc.lft.to/lastmile_qr_scan", "ios": "https://dc.lft.to/lastmile_qr_scan"}, "name": "4a5335cdb04f7a9e2ca0cd7924014241", "type": "electric_scooter", "lat": 38.895551166666664, "is_disabled": 0}, {"fusion_lat": 0.0, "lon": -77.03824016666667, "is_reserved": 0, "bike_id": "6a51377a59328fc515ac6175f8ddad1d", "fusion_lon": 0.0, "rental_uris": {"android": "https://dc.lft.to/lastmile_qr_scan", "ios": "https://dc.lft.to/lastmile_qr_scan"}, "name": "6a51377a59328fc515ac6175f8ddad1d", "type": "electric_scooter", "lat": 38.931329166666664, "is_disabled": 0}, {"fusion_lat": 0.0, "lon": -77.02787516666666, "is_reserved": 0, "bike_id": "bf2b9bd9568c5d57278505734effe242", "fusion_lon": 0.0, "rental_uris": {"android": "https://dc.lft.to/lastmile_qr_scan", "ios": "https://dc.lft.to/lastmile_qr_scan"}, "name": "bf2b9bd9568c5d57278505734effe242", "type": "electric_scooter", "lat": 38.89223716666667, "is_disabled": 0}, {"fusion_lat": 0.0, "lon": -77.033111, "is_reserved": 0, "bike_id": "2c5ab5b547ea6bf3f6b2661a2c854ac7", "fusion_lon": 0.0, "rental_uris": {"android": "https://dc.lft.to/lastmile_qr_scan", "ios": "https://dc.lft.to/lastmile_qr_scan"}, "name": "2c5ab5b547ea6bf3f6b2661a2c854ac7", "type": "electric_scooter", "lat": 38.90354683333333, "is_disabled": 0}, {"fusion_lat": 0.0, "lon": -77.034476, "is_reserved": 0, "bike_id": "c579fb294f2ddb409040d591debc58a7", "fusion_lon": 0.0, "rental_uris": {"android": "https://dc.lft.to/lastmile_qr_scan", "ios": "https://dc.lft.to/lastmile_qr_scan"}, "name": "c579fb294f2ddb409040d591debc58a7", "type": "electric_scooter", "lat": 38.906317333333334, "is_disabled": 0}, {"fusion_lat": 0.0, "lon": -77.045024, "is_reserved": 0, "bike_id": "b8d12e500252946a86314d8d1a5d8f70", "fusion_lon": 0.0, "rental_uris": {"android": "https://dc.lft.to/lastmile_qr_scan", "ios": "https://dc.lft.to/lastmile_qr_scan"}, "name": "b8d12e500252946a86314d8d1a5d8f70", "type": "electric_scooter", "lat": 38.903716, "is_disabled": 0}, {"fusion_lat": 0.0, "lon": -76.98882, "is_reserved": 0, "bike_id": "cd62639247e65ea58bff0a8afef80040", "fusion_lon": 0.0, "rental_uris": {"android": "https://dc.lft.to/lastmile_qr_scan", "ios": "https://dc.lft.to/lastmile_qr_scan"}, "name": "cd62639247e65ea58bff0a8afef80040", "type": "electric_scooter", "lat": 38.866557, "is_disabled": 0}, {"fusion_lat": 0.0, "lon": -77.02812783333333, "is_reserved": 0, "bike_id": "e744bcde2fa5674cf936c93a597b66ea", "fusion_lon": 0.0, "rental_uris": {"android": "https://dc.lft.to/lastmile_qr_scan", "ios": "https://dc.lft.to/lastmile_qr_scan"}, "name": "e744bcde2fa5674cf936c93a597b66ea", "type": "electric_scooter", "lat": 38.906151, "is_disabled": 0}, {"fusion_lat": 0.0, "lon": -77.03987283333333, "is_reserved": 0, "bike_id": "0f9f59a1043ba686bff8bda976864e5c", "fusion_lon": 0.0, "rental_uris": {"android": "https://dc.lft.to/lastmile_qr_scan", "ios": "https://dc.lft.to/lastmile_qr_scan"}, "name": "0f9f59a1043ba686bff8bda976864e5c", "type": "electric_scooter", "lat": 38.925793, "is_disabled": 0}, {"fusion_lat": 0.0, "lon": -77.03297233333333, "is_reserved": 0, "bike_id": "092b09a33436f2709d24fcb2b0d7269b", "fusion_lon": 0.0, "rental_uris": {"android": "https://dc.lft.to/lastmile_qr_scan", "ios": "https://dc.lft.to/lastmile_qr_scan"}, "name": "092b09a33436f2709d24fcb2b0d7269b", "type": "electric_scooter", "lat": 38.911151333333336, "is_disabled": 0}, {"fusion_lat": 0.0, "lon": -77.02676583333333, "is_reserved": 0, "bike_id": "b70f141ae8004d5fcad486605d16f224", "fusion_lon": 0.0, "rental_uris": {"android": "https://dc.lft.to/lastmile_qr_scan", "ios": "https://dc.lft.to/lastmile_qr_scan"}, "name": "b70f141ae8004d5fcad486605d16f224", "type": "electric_scooter", "lat": 38.90231633333333, "is_disabled": 0}, {"fusion_lat": 0.0, "lon": -77.04170283333333, "is_reserved": 0, "bike_id": "eac431a7422a7dbcd060ef81ed54f62d", "fusion_lon": 0.0, "rental_uris": {"android": "https://dc.lft.to/lastmile_qr_scan", "ios": "https://dc.lft.to/lastmile_qr_scan"}, "name": "eac431a7422a7dbcd060ef81ed54f62d", "type": "electric_scooter", "lat": 38.9052915, "is_disabled": 0}, {"fusion_lat": 0.0, "lon": -77.03549933333333, "is_reserved": 0, "bike_id": "f9a68e25126b7382d9b04f777b5383d0", "fusion_lon": 0.0, "rental_uris": {"android": "https://dc.lft.to/lastmile_qr_scan", "ios": "https://dc.lft.to/lastmile_qr_scan"}, "name": "f9a68e25126b7382d9b04f777b5383d0", "type": "electric_scooter", "lat": 38.92325616666667, "is_disabled": 0}, {"fusion_lat": 0.0, "lon": -77.02936083333333, "is_reserved": 0, "bike_id": "97b5193d38f0aa771636bb61a0438a79", "fusion_lon": 0.0, "rental_uris": {"android": "https://dc.lft.to/lastmile_qr_scan", "ios": "https://dc.lft.to/lastmile_qr_scan"}, "name": "97b5193d38f0aa771636bb61a0438a79", "type": "electric_scooter", "lat": 38.8981815, "is_disabled": 0}, {"fusion_lat": 0.0, "lon": -77.00732766666667, "is_reserved": 0, "bike_id": "46ef7daaeab6c72250fe51a13d62e36b", "fusion_lon": 0.0, "rental_uris": {"android": "https://dc.lft.to/lastmile_qr_scan", "ios": "https://dc.lft.to/lastmile_qr_scan"}, "name": "46ef7daaeab6c72250fe51a13d62e36b", "type": "electric_scooter", "lat": 38.8848795, "is_disabled": 0}, {"fusion_lat": 0.0, "lon": -76.9978975, "is_reserved": 0, "bike_id": "e077a6f7f11ab13b8072451833425160", "fusion_lon": 0.0, "rental_uris": {"android": "https://dc.lft.to/lastmile_qr_scan", "ios": "https://dc.lft.to/lastmile_qr_scan"}, "name": "e077a6f7f11ab13b8072451833425160", "type": "electric_scooter", "lat": 38.910385166666664, "is_disabled": 0}, {"fusion_lat": 0.0, "lon": -77.03674283333334, "is_reserved": 0, "bike_id": "5f17ce42b37b4afab3eeec1a849f27a8", "fusion_lon": 0.0, "rental_uris": {"android": "https://dc.lft.to/lastmile_qr_scan", "ios": "https://dc.lft.to/lastmile_qr_scan"}, "name": "5f17ce42b37b4afab3eeec1a849f27a8", "type": "electric_scooter", "lat": 38.903847666666664, "is_disabled": 0}, {"fusion_lat": 0.0, "lon": -77.077958, "is_reserved": 0, "bike_id": "65344fcb4665a1c954f7ec0f77e52de4", "fusion_lon": 0.0, "rental_uris": {"android": "https://dc.lft.to/lastmile_qr_scan", "ios": "https://dc.lft.to/lastmile_qr_scan"}, "name": "65344fcb4665a1c954f7ec0f77e52de4", "type": "electric_bike", "lat": 38.99601, "is_disabled": 0}, {"fusion_lat": 0.0, "lon": -76.9969985, "is_reserved": 0, "bike_id": "a01eac58c35dfcf341a7e974ee059bf7", "fusion_lon": 0.0, "rental_uris": {"android": "https://dc.lft.to/lastmile_qr_scan", "ios": "https://dc.lft.to/lastmile_qr_scan"}, "name": "a01eac58c35dfcf341a7e974ee059bf7", "type": "electric_scooter", "lat": 38.90798083333333, "is_disabled": 0}, {"fusion_lat": 0.0, "lon": -76.988347, "is_reserved": 0, "bike_id": "cf457887c4795ef073f3aff3ffd8fc9b", "fusion_lon": 0.0, "rental_uris": {"android": "https://dc.lft.to/lastmile_qr_scan", "ios": "https://dc.lft.to/lastmile_qr_scan"}, "name": "cf457887c4795ef073f3aff3ffd8fc9b", "type": "electric_bike", "lat": 38.89790633333333, "is_disabled": 0}, {"fusion_lat": 0.0, "lon": -76.93736333333334, "is_reserved": 0, "bike_id": "33c0cb5d7275e96c936b64109844bde8", "fusion_lon": 0.0, "rental_uris": {"android": "https://dc.lft.to/lastmile_qr_scan", "ios": "https://dc.lft.to/lastmile_qr_scan"}, "name": "33c0cb5d7275e96c936b64109844bde8", "type": "electric_scooter", "lat": 38.89012816666666, "is_disabled": 0},