{"data": {"bikes": [{"rental_uris": {"ios": "https://dc.lft.to/lastmile_qr_scan", "android": "https://dc.lft.to/lastmile_qr_scan"}, "type": "electric_scooter", "name": "64c0bd621917bacd918376a4419b8831", "is_reserved": 0, "lon": -77.0347795, "is_disabled": 0, "fusion_lat": 0.0, "lat": 38.90741216666667, "bike_id": "64c0bd621917bacd918376a4419b8831", "fusion_lon": 0.0}, {"rental_uris": {"ios": "https://dc.lft.to/lastmile_qr_scan", "android": "https://dc.lft.to/lastmile_qr_scan"}, "type": "electric_scooter", "name": "f817db0e179cbc4b1454da47ae4898b4", "is_reserved": 0, "lon": -77.03451533333333, "is_disabled": 0, "fusion_lat": 0.0, "lat": 38.91930133333334, "bike_id": "f817db0e179cbc4b1454da47ae4898b4", "fusion_lon": 0.0}, {"rental_uris": {"ios": "https://dc.lft.to/lastmile_qr_scan", "android": "https://dc.lft.to/lastmile_qr_scan"}, "type": "electric_scooter", "name": "1876b1a147f9cff0278550960290639e", "is_reserved": 0, "lon": -77.03226616666667, "is_disabled": 0, "fusion_lat": 0.0, "lat": 38.909723666666665, "bike_id": "1876b1a147f9cff0278550960290639e", "fusion_lon": 0.0}, {"rental_uris": {"ios": "https://dc.lft.to/lastmile_qr_scan", "android": "https://dc.lft.to/lastmile_qr_scan"}, "type": "electric_scooter", "name": "1bea0e03b3a69341ca74125008dd9835", "is_reserved": 0, "lon": -77.00453366666666, "is_disabled": 0, "fusion_lat": 0.0, "lat": 38.83794133333333, "bike_id": "1bea0e03b3a69341ca74125008dd9835", "fusion_lon": 0.0}, {"rental_uris": {"ios": "https://dc.lft.to/lastmile_qr_scan", "android": "https://dc.lft.to/lastmile_qr_scan"}, "type": "electric_bike", "name": "89d6446d4899fa48c54eb929621aae81", "is_reserved": 0, "lon": -76.93330866666666, "is_disabled": 0, "fusion_lat": 0.0, "lat": 38.951548333333335, "bike_id": "89d6446d4899fa48c54eb929621aae81", "fusion_lon": 0.0}, {"rental_uris": {"ios": "https://dc.lft.to/lastmile_qr_scan", "android": "https://dc.lft.to/lastmile_qr_scan"}, "type": "electric_scooter", "name": "571a309b431caf31620d6e1b442b9863", "is_reserved": 0, "lon": -76.99633533333333, "is_disabled": 0, "fusion_lat": 0.0, "lat": 38.877422333333335, "bike_id": "571a309b431caf31620d6e1b442b9863", "fusion_lon": 0.0}, {"rental_uris": {"ios": "https://dc.lft.to/lastmile_qr_scan", "android": "https://dc.lft.to/lastmile_qr_scan"}, "type": "electric_scooter", "name": "83a224c27844cd954fedafaa7ad58f2d", "is_reserved": 0, "lon": -77.04017416666667, "is_disabled": 0, "fusion_lat": 0.0, "lat": 38.9225745, "bike_id": "83a224c27844cd954fedafaa7ad58f2d", "fusion_lon": 0.0}, {"rental_uris": {"ios": "https://dc.lft.to/lastmile_qr_scan", "android": "https://dc.lft.to/lastmile_qr_scan"}, "type": "electric_scooter", "name": "275bd84bc9aaa7f90f464d4ece1717ac", "is_reserved": 0, "lon": -77.02978933333333, "is_disabled": 0, "fusion_lat": 0.0, "lat": 38.923182, "bike_id": "275bd84bc9aaa7f90f464d4ece1717ac", "fusion_lon": 0.0}, {"rental_uris": {"ios": "https://dc.lft.to/lastmile_qr_scan", "android": "https://dc.lft.to/lastmile_qr_scan"}, "type": "electric_scooter", "name": "a83ce5552bfc3f83cba9dc436925652b", "is_reserved": 0, "lon": -77.01775716666667, "is_disabled": 0, "fusion_lat": 0.0, "lat": 38.9211035, "bike_id": "a83ce5552bfc3f83cba9dc436925652b", "fusion_lon": 0.0}, {"rental_uris": {"ios": "https://dc.lft.to/lastmile_qr_scan", "android": "https://dc.lft.to/lastmile_qr_scan"}, "type": "electric_scooter", "name": "5836bf139b3ab2bd360f1cfb8644f0a0", "is_reserved": 0, "lon": -76.97414266666667, "is_disabled": 0, "fusion_lat": 0.0, "lat": 38.8643145, "bike_id": "5836bf139b3ab2bd360f1cfb8644f0a0", "fusion_lon": 0.0}, {"rental_uris": {"ios": "https://dc.lft.to/lastmile_qr_scan", "android": "https://dc.lft.to/lastmile_qr_scan"}, "type": "electric_scooter", "name": "9dc0eb1b453c7b756ce0eb48a5380c44", "is_reserved": 0, "lon": -76.99854766666667, "is_disabled": 0, "fusion_lat": 0.0, "lat": 38.900274833333334, "bike_id": "9dc0eb1b453c7b756ce0eb48a5380c44", "fusion_lon": 0.0}, {"rental_uris": {"ios": "https://dc.lft.to/lastmile_qr_scan", "android": "https://dc.lft.to/lastmile_qr_scan"}, "type": "electric_scooter", "name": "8a3afac455e30e4f13d8b264a566f78c", "is_reserved": 0, "lon": -77.0221685, "is_disabled": 0, "fusion_lat": 0.0, "lat": 38.915695666666664, "bike_id": "8a3afac455e30e4f13d8b264a566f78c", "fusion_lon": 0.0}, {"rental_uris": {"ios": "https://dc.lft.to/lastmile_qr_scan", "android": "https://dc.lft.to/lastmile_qr_scan"}, "type": "electric_scooter", "name": "dc149556d145ec76e6251df6a756fbdf", "is_reserved": 0, "lon": -77.03062233333333, "is_disabled": 0, "fusion_lat": 0.0, "lat": 38.90830283333333, "bike_id": "dc149556d145ec76e6251df6a756fbdf", "fusion_lon": 0.0}, {"rental_uris": {"ios": "https://dc.lft.to/lastmile_qr_scan", "android": "https://dc.lft.to/lastmile_qr_scan"}, "type": "electric_scooter", "name": "27529cfab3f56dfc04ea7ba7cd9e468c", "is_reserved": 0, "lon": -77.041273, "is_disabled": 0, "fusion_lat": 0.0, "lat": 38.93106683333333, "bike_id": "27529cfab3f56dfc04ea7ba7cd9e468c", "fusion_lon": 0.0}, {"rental_uris": {"ios": "https://dc.lft.to/lastmile_qr_scan", "android": "https://dc.lft.to/lastmile_qr_scan"}, "type": "electric_scooter", "name": "192bd765ffb0088c312caf00c0160046", "is_reserved": 0, "lon": -77.046819, "is_disabled": 0, "fusion_lat": 0.0, "lat": 38.892392666666666, "bike_id": "192bd765ffb0088c312caf00c0160046", "fusion_lon": 0.0}, {"rental_uris": {"ios": "https://dc.lft.to/lastmile_qr_scan", "android": "https://dc.lft.to/lastmile_qr_scan"}, "type": "electric_scooter", "name": "86546364240096d1aa5d0ed983a592d4", "is_reserved": 0, "lon": -77.0467825, "is_disabled": 0, "fusion_lat": 0.0, "lat": 38.89232783333333, "bike_id": "86546364240096d1aa5d0ed983a592d4", "fusion_lon": 0.0}, {"rental_uris": {"ios": "https://dc.lft.to/lastmile_qr_scan", "android": "https://dc.lft.to/lastmile_qr_scan"}, "type": "electric_scooter", "name": "0dec65200988619d8a54b5edd05f4454", "is_reserved": 0, "lon": -76.98367033333334, "is_disabled": 0, "fusion_lat": 0.0, "lat": 38.888189833333335, "bike_id": "0dec65200988619d8a54b5edd05f4454", "fusion_lon": 0.0}, {"rental_uris": {"ios": "https://dc.lft.to/lastmile_qr_scan", "android": "https://dc.lft.to/lastmile_qr_scan"}, "type": "electric_scooter", "name": "22ba41926c980e93f69a18bc05d9ef61", "is_reserved": 0, "lon": -77.03638333333333, "is_disabled": 0, "fusion_lat": 0.0, "lat": 38.92813733333333, "bike_id": "22ba41926c980e93f69a18bc05d9ef61", "fusion_lon": 0.0}, {"rental_uris": {"ios": "https://dc.lft.to/lastmile_qr_scan", "android": "https://dc.lft.to/lastmile_qr_scan"}, "type": "electric_scooter", "name": "ed50b8f4373f0b583b5b270057944660", "is_reserved": 0, "lon": -77.02315783333333, "is_disabled": 0, "fusion_lat": 0.0, "lat": 38.9177155, "bike_id": "ed50b8f4373f0b583b5b270057944660", "fusion_lon": 0.0}, {"rental_uris": {"ios": "https://dc.lft.to/lastmile_qr_scan", "android": "https://dc.lft.to/lastmile_qr_scan"}, "type": "electric_scooter", "name": "646cd6dd47c42b56bbdf7cb208c41690", "is_reserved": 0, "lon": -77.04318816666667, "is_disabled": 0, "fusion_lat": 0.0, "lat": 38.897528666666666, "bike_id": "646cd6dd47c42b56bbdf7cb208c41690", "fusion_lon": 0.0}, {"rental_uris": {"ios": "https://dc.lft.to/lastmile_qr_scan", "android": "https://dc.lft.to/lastmile_qr_scan"}, "type": "electric_scooter", "name": "26b421d598660771bec7f0d5ab562669", "is_reserved": 0, "lon": -77.02968483333333, "is_disabled": 0, "fusion_lat": 0.0, "lat": 38.90711916666667, "bike_id": "26b421d598660771bec7f0d5ab562669", "fusion_lon": 0.0}, {"rental_uris": {"ios": "https://dc.lft.to/lastmile_qr_scan", "android": "https://dc.lft.to/lastmile_qr_scan"}, "type": "electric_scooter", "name": "9f46342653ef6bd6d70b43c66146d6e5", "is_reserved": 0, "lon": -77.0334855, "is_disabled": 0, "fusion_lat": 0.0, "lat": 38.89966016666666, "bike_id": "9f46342653ef6bd6d70b43c66146d6e5", "fusion_lon": 0.0}, {"rental_uris": {"ios": "https://dc.lft.to/lastmile_qr_scan", "android": "https://dc.lft.to/lastmile_qr_scan"}, "type": "electric_scooter", "name": "57c967b8fe5ea0dfd507dc939e8e11dd", "is_reserved": 0, "lon": -76.98578566666667, "is_disabled": 0, "fusion_lat": 0.0, "lat": 38.854482, "bike_id": "57c967b8fe5ea0dfd507dc939e8e11dd", "fusion_lon": 0.0}, {"rental_uris": {"ios": "https://dc.lft.to/lastmile_qr_scan", "android": "https://dc.lft.to/lastmile_qr_scan"}, "type": "electric_scooter", "name": "cdb28e2276c837d84af18ddecbd1ddc7", "is_reserved": 0, "lon": -77.00046933333333, "is_disabled": 0, "fusion_lat": 0.0, "lat": 38.919056166666664, "bike_id": "cdb28e2276c837d84af18ddecbd1ddc7", "fusion_lon": 0.0}, {"rental_uris": {"ios": "https://dc.lft.to/lastmile_qr_scan", "android": "https://dc.lft.to/lastmile_qr_scan"}, "type": "electric_scooter", "name": "974ba3b51d2b9121009207e18d1c8e03", "is_reserved": 0, "lon": -77.03834616666667, "is_disabled": 0, "fusion_lat": 0.0, "lat": 38.91118983333333, "bike_id": "974ba3b51d2b9121009207e18d1c8e03", "fusion_lon": 0.0}, {"rental_uris": {"ios": "https://dc.lft.to/lastmile_qr_scan", "android": "https://dc.lft.to/lastmile_qr_scan"}, "type": "electric_scooter", "name": "7b32081796f2e56ecd66236d581b3d3b", "is_reserved": 0, "lon": -77.02843933333334, "is_disabled": 0, "fusion_lat": 0.0, "lat": 38.93236733333333, "bike_id": "7b32081796f2e56ecd66236d581b3d3b", "fusion_lon": 0.0}, {"rental_uris": {"ios": "https://dc.lft.to/lastmile_qr_scan", "android": "https://dc.lft.to/lastmile_qr_scan"}, "type": "electric_scooter", "name": "49308bed671d15001d3ef11aa4ec1962", "is_reserved": 0, "lon": -77.02406283333333, "is_disabled": 0, "fusion_lat": 0.0, "lat": 38.917203, "bike_id": "49308bed671d15001d3ef11aa4ec1962", "fusion_lon": 0.0}, {"rental_uris": {"ios": "https://dc.lft.to/lastmile_qr_scan", "android": "https://dc.lft.to/lastmile_qr_scan"}, "type": "electric_scooter", "name": "87398e19cc429de402a3ebcb939aad91", "is_reserved": 0, "lon": -77.0307495, "is_disabled": 0, "fusion_lat": 0.0, "lat": 38.938743, "bike_id": "87398e19cc429de402a3ebcb939aad91", "fusion_lon": 0.0}, {"rental_uris": {"ios": "https://dc.lft.to/lastmile_qr_scan", "android": "https://dc.lft.to/lastmile_qr_scan"}, "type": "electric_scooter", "name": "6fd4b1e4efcceba6c358a96c86a3b8f0", "is_reserved": 0, "lon": -77.02235733333333, "is_disabled": 0, "fusion_lat": 0.0, "lat": 38.90866466666667, "bike_id": "6fd4b1e4efcceba6c358a96c86a3b8f0", "fusion_lon": 0.0}, {"rental_uris": {"ios": "https://dc.lft.to/lastmile_qr_scan", "android": "https://dc.lft.to/lastmile_qr_scan"}, "type": "electric_scooter", "name": "a935caa6a4c236d7ecca550921fe6439", "is_reserved": 0, "lon": -77.02799233333333, "is_disabled": 0, "fusion_lat": 0.0, "lat": 38.9346585, "bike_id": "a935caa6a4c236d7ecca550921fe6439", "fusion_lon": 0.0}, {"rental_uris": {"ios": "https://dc.lft.to/lastmile_qr_scan", "android": "https://dc.lft.to/lastmile_qr_scan"}, "type": "electric_scooter", "name": "9de09424611d2c2d5e420ea0c9e01be0", "is_reserved": 0, "lon": -77.0431565, "is_disabled": 0, "fusion_lat": 0.0, "lat": 38.922222833333336, "bike_id": "9de09424611d2c2d5e420ea0c9e01be0", "fusion_lon": 0.0}, {"rental_uris": {"ios": "https://dc.lft.to/lastmile_qr_scan", "android": "https://dc.lft.to/lastmile_qr_scan"}, "type": "electric_scooter", "name": "b7c9d8045407fd8b0f421f90c970f15e", "is_reserved": 0, "lon": -77.03125033333333, "is_disabled": 0, "fusion_lat": 0.0, "lat": 38.918235833333334, "bike_id": "b7c9d8045407fd8b0f421f90c970f15e", "fusion_lon": 0.0}, {"rental_uris": {"ios": "https://dc.lft.to/lastmile_qr_scan", "android": "https://dc.lft.to/lastmile_qr_scan"}, "type": "electric_scooter", "name": "e05f94550a20609a183b2f636d4b1bb7", "is_reserved": 0, "lon": -77.01945583333334, "is_disabled": 0, "fusion_lat": 0.0, "lat": 38.876671333333334, "bike_id": "e05f94550a20609a183b2f636d4b1bb7", "fusion_lon": 0.0}, {"rental_uris": {"ios": "https://dc.lft.to/lastmile_qr_scan", "android": "https://dc.lft.to/lastmile_qr_scan"}, "type": "electric_scooter", "name": "07e41051b9c7b2526b5f86a6961dbc7b", "is_reserved": 0, "lon": -77.04741866666667, "is_disabled": 0, "fusion_lat": 0.0, "lat": 38.912572833333336, "bike_id": "07e41051b9c7b2526b5f86a6961dbc7b", "fusion_lon": 0.0}, {"rental_uris": {"ios": "https://dc.lft.to/lastmile_qr_scan", "android": "https://dc.lft.to/lastmile_qr_scan"}, "type": "electric_scooter", "name": "6b3119841ce1ef42a503933c5df9f094", "is_reserved": 0, "lon": -77.03470466666667, "is_disabled": 0, "fusion_lat": 0.0, "lat": 38.930343, "bike_id": "6b3119841ce1ef42a503933c5df9f094", "fusion_lon": 0.0}, {"rental_uris": {"ios": "https://dc.lft.to/lastmile_qr_scan", "android": "https://dc.lft.to/lastmile_qr_scan"}, "type": "electric_scooter", "name": "0207dee8d806c2459e880161d8ca81b1", "is_reserved": 0, "lon": -77.03213416666667, "is_disabled": 0, "fusion_lat": 0.0, "lat": 38.907768, "bike_id": "0207dee8d806c2459e880161d8ca81b1", "fusion_lon": 0.0}, {"rental_uris": {"ios": "https://dc.lft.to/lastmile_qr_scan", "android": "https://dc.lft.to/lastmile_qr_scan"}, "type": "electric_scooter", "name": "61ccdbaa932baeaa7915ecd4cdab7391", "is_reserved": 0, "lon": -76.984017, "is_disabled": 0, "fusion_lat": 0.0, "lat": 38.92519466666667, "bike_id": "61ccdbaa932baeaa7915ecd4cdab7391", "fusion_lon": 0.0}, {"rental_uris": {"ios": "https://dc.lft.to/lastmile_qr_scan", "android": "https://dc.lft.to/lastmile_qr_scan"}, "type": "electric_scooter", "name": "cbb958a003b12b65a8e7a28af2ff36d2", "is_reserved": 0, "lon": -77.039606, "is_disabled": 0, "fusion_lat": 0.0, "lat": 38.89249816666667, "bike_id": "cbb958a003b12b65a8e7a28af2ff36d2", "fusion_lon": 0.0}, {"rental_uris": {"ios": "https://dc.lft.to/lastmile_qr_scan", "android": "https://dc.lft.to/lastmile_qr_scan"}, "type": "electric_bike", "name": "ad7fd867b5df8468d276c863ef5fe898", "is_reserved": 0, "lon": -76.88976766666667, "is_disabled": 0, "fusion_lat": 0.0, "lat": 39.007776666666665, "bike_id": "ad7fd867b5df8468d276c863ef5fe898", "fusion_lon": 0.0}, {"rental_uris": {"ios": "https://dc.lft.to/lastmile_qr_scan", "android": "https://dc.lft.to/lastmile_qr_scan"}, "type": "electric_scooter", "name": "99e324bfe58aeebbdfc5f78bf8c5e141", "is_reserved": 0, "lon": -77.02057016666667, "is_disabled": 0, "fusion_lat": 0.0, "lat": 38.9225055, "bike_id": "99e324bfe58aeebbdfc5f78bf8c5e141", "fusion_lon": 0.0}, {"rental_uris": {"ios": "https://dc.lft.to/lastmile_qr_scan", "android": "https://dc.lft.to/lastmile_qr_scan"}, "type": "electric_scooter", "name": "6a7397e9107d36ae112220ed91bc7867", "is_reserved": 0, "lon": -77.0087055, "is_disabled": 0, "fusion_lat": 0.0, "lat": 38.912665, "bike_id": "6a7397e9107d36ae112220ed91bc7867", "fusion_lon": 0.0}, {"rental_uris": {"ios": "https://dc.lft.to/lastmile_qr_scan", "android": "https://dc.lft.to/lastmile_qr_scan"}, "type": "electric_scooter", "name": "6a53ba4efdadb879db4decbc26f3cacf", "is_reserved": 0, "lon": -76.9941415, "is_disabled": 0, "fusion_lat": 0.0, "lat": 38.877840166666665, "bike_id": "6a53ba4efdadb879db4decbc26f3cacf", "fusion_lon": 0.0}, {"rental_uris": {"ios": "https://dc.lft.to/lastmile_qr_scan", "android": "https://dc.lft.to/lastmile_qr_scan"}, "type": "electric_scooter", "name": "df5d7abf86e43f70fb4edeb7308830c1", "is_reserved": 0, "lon": -77.023037, "is_disabled": 0, "fusion_lat": 0.0, "lat": 38.9175205, "bike_id": "df5d7abf86e43f70fb4edeb7308830c1", "fusion_lon": 0.0}, {"rental_uris": {"ios": "https://dc.lft.to/lastmile_qr_scan", "android": "https://dc.lft.to/lastmile_qr_scan"}, "type": "electric_scooter", "name": "ac06105e88f6b08d6cc553d5589ee2d8", "is_reserved": 0, "lon": -76.98608666666667, "is_disabled": 0, "fusion_lat": 0.0, "lat": 38.87842033333333, "bike_id": "ac06105e88f6b08d6cc553d5589ee2d8", "fusion_lon": 0.0}, {"rental_uris": {"ios": "https://dc.lft.to/lastmile_qr_scan", "android": "https://dc.lft.to/lastmile_qr_scan"}, "type": "electric_scooter", "name": "8443bab70d4a90bb94984b1f0571d7ac", "is_reserved": 0, "lon": -77.03067916666667, "is_disabled": 0, "fusion_lat": 0.0, "lat": 38.90263266666667, "bike_id": "8443bab70d4a90bb94984b1f0571d7ac", "fusion_lon": 0.0}, {"rental_uris": {"ios": "https://dc.lft.to/lastmile_qr_scan", "android": "https://dc.lft.to/lastmile_qr_scan"}, "type": "electric_scooter", "name": "e782474df431442c8ee4661a0d1418b8", "is_reserved": 0, "lon": -77.02585633333334, "is_disabled": 0, "fusion_lat": 0.0, "lat": 38.920407166666664, "bike_id": "e782474df431442c8ee4661a0d1418b8", "fusion_lon": 0.0}, {"rental_uris": {"ios": "https://dc.lft.to/lastmile_qr_scan", "android": "https://dc.lft.to/lastmile_qr_scan"}, "type": "electric_scooter", "name": "29bf885c918fa4964bdcf3c88131133c", "is_reserved": 0, "lon": -77.001405, "is_disabled": 0, "fusion_lat": 0.0, "lat": 38.873762666666664, "bike_id": "29bf885c918fa4964bdcf3c88131133c", "fusion_lon": 0.0}, {"rental_uris": {"ios": "https://dc.lft.to/lastmile_qr_scan", "android": "https://dc.lft.to/lastmile_qr_scan"}, "type": "electric_scooter", "name": "2fad8f36abaebca28e76b3d79f089aea", "is_reserved": 0, "lon": -77.04599033333334, "is_disabled": 0, "fusion_lat": 0.0, "lat": 38.918705, "bike_id": "2fad8f36abaebca28e76b3d79f089aea", "fusion_lon": 0.0}, {"rental_uris": {"ios": "https://dc.lft.to/lastmile_qr_scan", "android": "https://dc.lft.to/lastmile_qr_scan"}, "type": "electric_scooter", "name": "323a1dcd940937592c72ed7b8d20a868", "is_reserved": 0, "lon": -77.05230533333334, "is_disabled": 0, "fusion_lat": 0.0, "lat": 38.898517166666664, "bike_id": "323a1dcd940937592c72ed7b8d20a868", "fusion_lon": 0.0}, {"rental_uris": {"ios": "https://dc.lft.to/lastmile_qr_scan", "android": "https://dc.lft.to/lastmile_qr_scan"}, "type": "electric_scooter", "name": "612cd633bde15d241382c5c2fb496cb5", "is_reserved": 0, "lon": -77.03837266666666, "is_disabled": 0, "fusion_lat": 0.0, "lat": 38.9111295, "bike_id": "612cd633bde15d241382c5c2fb496cb5", "fusion_lon": 0.0}, {"rental_uris": {"ios": "https://dc.lft.to/lastmile_qr_scan", "android": "https://dc.lft.to/lastmile_qr_scan"}, "type": "electric_scooter", "name": "32d123c8d855a7caeb1b369474037aa8", "is_reserved": 0, "lon": -77.03701183333334, "is_disabled": 0, "fusion_lat": 0.0, "lat": 38.93283316666667, "bike_id": "32d123c8d855a7caeb1b369474037aa8", "fusion_lon": 0.0}, {"rental_uris": {"ios": "https://dc.lft.to/lastmile_qr_scan", "android": "https://dc.lft.to/lastmile_qr_scan"}, "type": "electric_scooter", "name": "8f49056243855326b707ab6da76d7ebb", "is_reserved": 0, "lon": -77.03230766666667, "is_disabled": 0, "fusion_lat": 0.0, "lat": 38.899125833333336, "bike_id": "8f49056243855326b707ab6da76d7ebb", "fusion_lon": 0.0}, {"rental_uris": {"ios": "https://dc.lft.to/lastmile_qr_scan", "android": "https://dc.lft.to/lastmile_qr_scan"}, "type": "electric_scooter", "name": "7a0e1db014fd0ee98195a708f7ce6ea8", "is_reserved": 0, "lon": -77.053437, "is_disabled": 0, "fusion_lat": 0.0, "lat": 38.9046175, "bike_id": "7a0e1db014fd0ee98195a708f7ce6ea8", "fusion_lon": 0.0}, {"rental_uris": {"ios": "https://dc.lft.to/lastmile_qr_scan", "android": "https://dc.lft.to/lastmile_qr_scan"}, "type": "electric_scooter", "name": "084db9a726f2b2c04b0d004a81544ca2", "is_reserved": 0, "lon": -76.999696, "is_disabled": 0, "fusion_lat": 0.0, "lat": 38.8866355, "bike_id": "084db9a726f2b2c04b0d004a81544ca2", "fusion_lon": 0.0}, {"rental_uris": {"ios": "https://dc.lft.to/lastmile_qr_scan", "android": "https://dc.lft.to/lastmile_qr_scan"}, "type": "electric_scooter", "name": "be31161f640442d018746e1dc5bfc686", "is_reserved": 0, "lon": -77.02845666666667, "is_disabled": 0, "fusion_lat": 0.0, "lat": 38.892251333333334, "bike_id": "be31161f640442d018746e1dc5bfc686", "fusion_lon": 0.0}, {"rental_uris": {"ios": "https://dc.lft.to/lastmile_qr_scan", "android": "https://dc.lft.to/lastmile_qr_scan"}, "type": "electric_scooter", "name": "6d1674d4199f08abee6cae52e83a45ab", "is_reserved": 0, "lon": -77.04038883333334, "is_disabled": 0, "fusion_lat": 0.0, "lat": 38.92319783333333, "bike_id": "6d1674d4199f08abee6cae52e83a45ab", "fusion_lon": 0.0}, {"rental_uris": {"ios": "https://dc.lft.to/lastmile_qr_scan", "android": "https://dc.lft.to/lastmile_qr_scan"}, "type": "electric_scooter", "name": "c469f8070aa030f83f1a49d7b933ed0f", "is_reserved": 0, "lon": -77.03958833333333, "is_disabled": 0, "fusion_lat": 0.0, "lat": 38.924709166666666, "bike_id": "c469f8070aa030f83f1a49d7b933ed0f", "fusion_lon": 0.0}, {"rental_uris": {"ios": "https://dc.lft.to/lastmile_qr_scan", "android": "https://dc.lft.to/lastmile_qr_scan"}, "type": "electric_scooter", "name": "0990a728caa2d8d39e7a2834d27fa97d", "is_reserved": 0, "lon": -77.055945, "is_disabled": 0, "fusion_lat": 0.0, "lat": 38.937066, "bike_id": "0990a728caa2d8d39e7a2834d27fa97d", "fusion_lon": 0.0}, {"rental_uris": {"ios": "https://dc.lft.to/lastmile_qr_scan", "android": "https://dc.lft.to/lastmile_qr_scan"}, "type": "electric_scooter", "name": "f5af6a833a5cacc9591e6c9743dbf0fa", "is_reserved": 0, "lon": -77.0317825, "is_disabled": 0, "fusion_lat": 0.0, "lat": 38.89225116666667, "bike_id": "f5af6a833a5cacc9591e6c9743dbf0fa", "fusion_lon": 0.0}, {"rental_uris": {"ios": "https://dc.lft.to/lastmile_qr_scan", "android": "https://dc.lft.to/lastmile_qr_scan"}, "type": "electric_scooter", "name": "53798aea4bceec75236434ff7c9341c2", "is_reserved": 0, "lon": -77.02677233333333, "is_disabled": 0, "fusion_lat": 0.0, "lat": 38.9843475, "bike_id": "53798aea4bceec75236434ff7c9341c2", "fusion_lon": 0.0}, {"rental_uris": {"ios": "https://dc.lft.to/lastmile_qr_scan", "android": "https://dc.lft.to/lastmile_qr_scan"}, "type": "electric_scooter", "name": "e664fcb401ec72eba72d645f8980db65", "is_reserved": 0, "lon": -76.98368983333333, "is_disabled": 0, "fusion_lat": 0.0, "lat": 38.86667, "bike_id": "e664fcb401ec72eba72d645f8980db65", "fusion_lon": 0.0}, {"rental_uris": {"ios": "https://dc.lft.to/lastmile_qr_scan", "android": "https://dc.lft.to/lastmile_qr_scan"}, "type": "electric_scooter", "name": "6dec588d7d315ecc7f60ac6a67712cc9", "is_reserved": 0, "lon": -76.9858555, "is_disabled": 0, "fusion_lat": 0.0, "lat": 38.861892166666664, "bike_id": "6dec588d7d315ecc7f60ac6a67712cc9", "fusion_lon": 0.0}, {"rental_uris": {"ios": "https://dc.lft.to/lastmile_qr_scan", "android": "https://dc.lft.to/lastmile_qr_scan"}, "type": "electric_bike", "name": "95f94e7bc062f9a59cb333ff150a2ff0", "is_reserved": 0, "lon": -77.0901725, "is_disabled": 0, "fusion_lat": 0.0, "lat": 38.92663483333333, "bike_id": "95f94e7bc062f9a59cb333ff150a2ff0", "fusion_lon": 0.0}, {"rental_uris": {"ios": "https://dc.lft.to/lastmile_qr_scan", "android": "https://dc.lft.to/lastmile_qr_scan"}, "type": "electric_scooter", "name": "76979ad1e383be2bc1804838f34de994", "is_reserved": 0, "lon": -77.0076565, "is_disabled": 0, "fusion_lat": 0.0, "lat": 38.92533666666667, "bike_id": "76979ad1e383be2bc1804838f34de994", "fusion_lon": 0.0}, {"rental_uris": {"ios": "https://dc.lft.to/lastmile_qr_scan", "android": "https://dc.lft.to/lastmile_qr_scan"}, "type": "electric_scooter", "name": "e416cde074a9ed61699d88a2b69e6261", "is_reserved": 0, "lon": -76.95884333333333, "is_disabled": 0, "fusion_lat": 0.0, "lat": 38.8584245, "bike_id": "e416cde074a9ed61699d88a2b69e6261", "fusion_lon": 0.0}, {"rental_uris": {"ios": "https://dc.lft.to/lastmile_qr_scan", "android": "https://dc.lft.to/lastmile_qr_scan"}, "type": "electric_bike", "name": "a8d39d886023a4f14191ca2a2970c8b1", "is_reserved": 0, "lon": -76.9569375, "is_disabled": 0, "fusion_lat": 0.0, "lat": 38.8509255, "bike_id": "a8d39d886023a4f14191ca2a2970c8b1", "fusion_lon": 0.0}, {"rental_uris": {"ios": "https://dc.lft.to/lastmile_qr_scan", "android": "https://dc.lft.to/lastmile_qr_scan"}, "type": "electric_scooter", "name": "1e17f044d20daa00a32052da52509b2b", "is_reserved": 0, "lon": -77.02522133333333, "is_disabled": 0, "fusion_lat": 0.0, "lat": 38.89846766666667, "bike_id": "1e17f044d20daa00a32052da52509b2b", "fusion_lon": 0.0}, {"rental_uris": {"ios": "https://dc.lft.to/lastmile_qr_scan", "android": "https://dc.lft.to/lastmile_qr_scan"}, "type": "electric_scooter", "name": "e021e57a9622dafc6d6b3fa8eb9c0d27", "is_reserved": 0, "lon": -77.0199405, "is_disabled": 0, "fusion_lat": 0.0, "lat": 38.8996695, "bike_id": "e021e57a9622dafc6d6b3fa8eb9c0d27", "fusion_lon": 0.0}, {"rental_uris": {"ios": "https://dc.lft.to/lastmile_qr_scan", "android": "https://dc.lft.to/lastmile_qr_scan"}, "type": "electric_scooter", "name": "db38893f88241acbe297ab1dd8f4a041", "is_reserved": 0, "lon": -77.03932166666667, "is_disabled": 0, "fusion_lat": 0.0, "lat": 38.898709333333336, "bike_id": "db38893f88241acbe297ab1dd8f4a041", "fusion_lon": 0.0}, {"rental_uris": {"ios": "https://dc.lft.to/lastmile_qr_scan", "android": "https://dc.lft.to/lastmile_qr_scan"}, "type": "electric_scooter", "name": "44da0601912407b04dd616e488d13217", "is_reserved": 0, "lon": -77.03922616666667, "is_disabled": 0, "fusion_lat": 0.0, "lat": 38.89866116666666, "bike_id": "44da0601912407b04dd616e488d13217", "fusion_lon": 0.0}, {"rental_uris": {"ios": "https://dc.lft.to/lastmile_qr_scan", "android": "https://dc.lft.to/lastmile_qr_scan"}, "type": "electric_scooter", "name": "77907ac3a144e7566dd1c1234e3eaf93", "is_reserved": 0, "lon": -77.023062, "is_disabled": 0, "fusion_lat": 0.0, "lat": 38.91354833333333, "bike_id": "77907ac3a144e7566dd1c1234e3eaf93", "fusion_lon": 0.0}, {"rental_uris": {"ios": "https://dc.lft.to/lastmile_qr_scan", "android": "https://dc.lft.to/lastmile_qr_scan"}, "type": "electric_scooter", "name": "09f796fe43e764200726a99c78a04d60", "is_reserved": 0, "lon": -77.00679533333333, "is_disabled": 0, "fusion_lat": 0.0, "lat": 38.906283, "bike_id": "09f796fe43e764200726a99c78a04d60", "fusion_lon": 0.0}, {"rental_uris": {"ios": "https://dc.lft.to/lastmile_qr_scan", "android": "https://dc.lft.to/lastmile_qr_scan"}, "type": "electric_scooter", "name": "6ac7cba4984e8591c8b56bfaca960aa5", "is_reserved": 0, "lon": -77.00190866666667, "is_disabled": 0, "fusion_lat": 0.0, "lat": 38.9038055, "bike_id": "6ac7cba4984e8591c8b56bfaca960aa5", "fusion_lon": 0.0}, {"rental_uris": {"ios": "https://dc.lft.to/lastmile_qr_scan", "android": "https://dc.lft.to/lastmile_qr_scan"}, "type": "electric_scooter", "name": "4337a48ffd228739015b20d7f840600f", "is_reserved": 0, "lon": -77.03573083333333, "is_disabled": 0, "fusion_lat": 0.0, "lat": 38.9081995, "bike_id": "4337a48ffd228739015b20d7f840600f", "fusion_lon": 0.0}, {"rental_uris": {"ios": "https://dc.lft.to/lastmile_qr_scan", "android": "https://dc.lft.to/lastmile_qr_scan"}, "type": "electric_bike", "name": "0490bf1fbbe72bf90622449f8d5cd4cd", "is_reserved": 0, "lon": -77.12692783333334, "is_disabled": 0, "fusion_lat": 0.0, "lat": 38.89572233333333, "bike_id": "0490bf1fbbe72bf90622449f8d5cd4cd", "fusion_lon": 0.0}, {"rental_uris": {"ios": "https://dc.lft.to/lastmile_qr_scan", "android": "https://dc.lft.to/lastmile_qr_scan"}, "type": "electric_scooter", "name": "f8f14df139ce3e49e119110f6893e0c0", "is_reserved": 0, "lon": -77.0256305, "is_disabled": 0, "fusion_lat": 0.0, "lat": 38.938712, "bike_id": "f8f14df139ce3e49e119110f6893e0c0", "fusion_lon": 0.0}, {"rental_uris": {"ios": "https://dc.lft.to/lastmile_qr_scan", "android": "https://dc.lft.to/lastmile_qr_scan"}, "type": "electric_scooter", "name": "d3da0b675ddcf114258a809e4c6ea8b7", "is_reserved": 0, "lon": -77.0447185, "is_disabled": 0, "fusion_lat": 0.0, "lat": 38.9004785, "bike_id": "d3da0b675ddcf114258a809e4c6ea8b7", "fusion_lon": 0.0}, {"rental_uris": {"ios": "https://dc.lft.to/lastmile_qr_scan", "android": "https://dc.lft.to/lastmile_qr_scan"}, "type": "electric_scooter", "name": "12c8679cfbd01dbdedb146bf0701b17d", "is_reserved": 0, "lon": -77.03223766666666, "is_disabled": 0, "fusion_lat": 0.0, "lat": 38.898569333333334, "bike_id": "12c8679cfbd01dbdedb146bf0701b17d", "fusion_lon": 0.0}, {"rental_uris": {"ios": "https://dc.lft.to/lastmile_qr_scan", "android": "https://dc.lft.to/lastmile_qr_scan"}, "type": "electric_scooter", "name": "0d51ca72e1cd62483142c07ad3537f89", "is_reserved": 0, "lon": -77.01981516666666, "is_disabled": 0, "fusion_lat": 0.0, "lat": 38.8872145, "bike_id": "0d51ca72e1cd62483142c07ad3537f89", "fusion_lon": 0.0}, {"rental_uris": {"ios": "https://dc.lft.to/lastmile_qr_scan", "android": "https://dc.lft.to/lastmile_qr_scan"}, "type": "electric_scooter", "name": "cd1aec3dc94f008b7974c94f7cb28fdf", "is_reserved": 0, "lon": -77.04556366666667, "is_disabled": 0, "fusion_lat": 0.0, "lat": 38.93390083333333, "bike_id": "cd1aec3dc94f008b7974c94f7cb28fdf", "fusion_lon": 0.0}, {"rental_uris": {"ios": "https://dc.lft.to/lastmile_qr_scan", "android": "https://dc.lft.to/lastmile_qr_scan"}, "type": "electric_scooter", "name": "465c5cb57da118422a2ef7a1406abcc9", "is_reserved": 0, "lon": -77.03952766666667, "is_disabled": 0, "fusion_lat": 0.0, "lat": 38.9018255, "bike_id": "465c5cb57da118422a2ef7a1406abcc9", "fusion_lon": 0.0}, {"rental_uris": {"ios": "https://dc.lft.to/lastmile_qr_scan", "android": "https://dc.lft.to/lastmile_qr_scan"}, "type": "electric_scooter", "name": "6f50bee3bdd11b7a9460e92497e8e370", "is_reserved": 0, "lon": -77.01771133333334, "is_disabled": 0, "fusion_lat": 0.0, "lat": 38.887325833333335, "bike_id": "6f50bee3bdd11b7a9460e92497e8e370", "fusion_lon": 0.0}, {"rental_uris": {"ios": "https://dc.lft.to/lastmile_qr_scan", "android": "https://dc.lft.to/lastmile_qr_scan"}, "type": "electric_scooter", "name": "9000179b0b7b164127502fe246e74376", "is_reserved": 0, "lon": -77.03208316666667, "is_disabled": 0, "fusion_lat": 0.0, "lat": 38.92030716666667, "bike_id": "9000179b0b7b164127502fe246e74376", "fusion_lon": 0.0}, {"rental_uris": {"ios": "https://dc.lft.to/lastmile_qr_scan", "android": "https://dc.lft.to/lastmile_qr_scan"}, "type": "electric_scooter", "name": "4e0aae53037f70122158c778a45e027a", "is_reserved": 0, "lon": -77.044965, "is_disabled": 0, "fusion_lat": 0.0, "lat": 38.914446833333336, "bike_id": "4e0aae53037f70122158c778a45e027a", "fusion_lon": 0.0}, {"rental_uris": {"ios": "https://dc.lft.to/lastmile_qr_scan", "android": "https://dc.lft.to/lastmile_qr_scan"}, "type": "electric_scooter", "name": "65eb5cbe8c6d28c3883ef317e0e1b283", "is_reserved": 0, "lon": -77.03458916666666, "is_disabled": 0, "fusion_lat": 0.0, "lat": 38.91892516666667, "bike_id": "65eb5cbe8c6d28c3883ef317e0e1b283", "fusion_lon": 0.0}, {"rental_uris": {"ios": "https://dc.lft.to/lastmile_qr_scan", "android": "https://dc.lft.to/lastmile_qr_scan"}, "type": "electric_scooter", "name": "a629315f4942a6113c4daf84ba4c7eeb", "is_reserved": 0, "lon": -77.03909233333333, "is_disabled": 0, "fusion_lat": 0.0, "lat": 38.91267083333334, "bike_id": "a629315f4942a6113c4daf84ba4c7eeb", "fusion_lon": 0.0}, {"rental_uris": {"ios": "https://dc.lft.to/lastmile_qr_scan", "android": "https://dc.lft.to/lastmile_qr_scan"}, "type": "electric_scooter", "name": "fc7954b9090cd5a360e02cd25b3f558f", "is_reserved": 0, "lon": -77.0270225, "is_disabled": 0, "fusion_lat": 0.0, "lat": 38.90456183333333, "bike_id": "fc7954b9090cd5a360e02cd25b3f558f", "fusion_lon": 0.0}, {"rental_uris": {"ios": "https://dc.lft.to/lastmile_qr_scan", "android": "https://dc.lft.to/lastmile_qr_scan"}, "type": "electric_scooter", "name": "8288398d2067eba64cbe7e0b0db34f06", "is_reserved": 0, "lon": -77.02344616666667, "is_disabled": 0, "fusion_lat": 0.0, "lat": 38.91122566666667, "bike_id": "8288398d2067eba64cbe7e0b0db34f06", "fusion_lon": 0.0}, {"rental_uris": {"ios": "https://dc.lft.to/lastmile_qr_scan", "android": "https://dc.lft.to/lastmile_qr_scan"}, "type": "electric_scooter", "name": "acb38cffde805dda7293bec775a3356f", "is_reserved": 0, "lon": -76.984967, "is_disabled": 0, "fusion_lat": 0.0, "lat": 38.92013983333333, "bike_id": "acb38cffde805dda7293bec775a3356f", "fusion_lon": 0.0}, {"rental_uris": {"ios": "https://dc.lft.to/lastmile_qr_scan", "android": "https://dc.lft.to/lastmile_qr_scan"}, "type": "electric_scooter", "name": "db0b70b1f263c1266373ef8acbb7d6f1", "is_reserved": 0, "lon": -77.02172766666666, "is_disabled": 0, "fusion_lat": 0.0, "lat": 38.894898833333336, "bike_id": "db0b70b1f263c1266373ef8acbb7d6f1", "fusion_lon": 0.0}, {"rental_uris": {"ios": "https://dc.lft.to/lastmile_qr_scan", "android": "https://dc.lft.to/lastmile_qr_scan"}, "type": "electric_scooter", "name": "61389b6a829666052ec23555cbd52311", "is_reserved": 0, "lon": -77.03034983333333, "is_disabled": 0, "fusion_lat": 0.0, "lat": 38.884415, "bike_id": "61389b6a829666052ec23555cbd52311", "fusion_lon": 0.0}, {"rental_uris": {"ios": "https://dc.lft.to/lastmile_qr_scan", "android": "https://dc.lft.to/lastmile_qr_scan"}, "type": "electric_scooter", "name": "1ea4132380c168513926b443e93a61a6", "is_reserved": 0, "lon": -77.02056766666666, "is_disabled": 0, "fusion_lat": 0.0, "lat": 38.92407216666667, "bike_id": "1ea4132380c168513926b443e93a61a6", "fusion_lon": 0.0}, {"rental_uris": {"ios": "https://dc.lft.to/lastmile_qr_scan", "android": "https://dc.lft.to/lastmile_qr_scan"}, "type": "electric_scooter", "name": "c63503b98306937f861f9678adcfb7d6", "is_reserved": 0, "lon": -77.01590433333334, "is_disabled": 0, "fusion_lat": 0.0, "lat": 38.87229583333333, "bike_id": "c63503b98306937f861f9678adcfb7d6", "fusion_lon": 0.0}, {"rental_uris": {"ios": "https://dc.lft.to/lastmile_qr_scan", "android": "https://dc.lft.to/lastmile_qr_scan"}, "type": "electric_scooter", "name": "f3aaabe70d59e5a2607f7e6fcab9dc5e", "is_reserved": 0, "lon": -77.03953966666667, "is_disabled": 0, "fusion_lat": 0.0, "lat": 38.89254116666667, "bike_id": "f3aaabe70d59e5a2607f7e6fcab9dc5e", "fusion_lon": 0.0}, {"rental_uris": {"ios": "https://dc.lft.to/lastmile_qr_scan", "android": "https://dc.lft.to/lastmile_qr_scan"}, "type": "electric_scooter", "name": "2689b02fba5759eaccd52299c21bec1d", "is_reserved": 0, "lon": -77.07599083333334, "is_disabled": 0, "fusion_lat": 0.0, "lat": 38.9375785, "bike_id": "2689b02fba5759eaccd52299c21bec1d", "fusion_lon": 0.0}, {"rental_uris": {"ios": "https://dc.lft.to/lastmile_qr_scan", "android": "https://dc.lft.to/lastmile_qr_scan"}, "type": "electric_scooter", "name": "8a10ccf3b6b2c7e18dfc06d07bbafe63", "is_reserved": 0, "lon": -76.92951733333334, "is_disabled": 0, "fusion_lat": 0.0, "lat": 38.90338666666667, "bike_id": "8a10ccf3b6b2c7e18dfc06d07bbafe63", "fusion_lon": 0.0}, {"rental_uris": {"ios": "https://dc.lft.to/lastmile_qr_scan", "android": "https://dc.lft.to/lastmile_qr_scan"}, "type": "electric_scooter", "name": "29709761bab49d7b30a329908b8cfd77", "is_reserved": 0, "lon": -77.030717, "is_disabled": 0, "fusion_lat": 0.0, "lat": 38.92255683333333, "bike_id": "29709761bab49d7b30a329908b8cfd77", "fusion_lon": 0.0}, {"rental_uris": {"ios": "https://dc.lft.to/lastmile_qr_scan", "android": "https://dc.lft.to/lastmile_qr_scan"}, "type": "electric_scooter", "name": "522908feb238e29c4437d6b83532b67e", "is_reserved": 0, "lon": -77.03447366666667, "is_disabled": 0, "fusion_lat": 0.0, "lat": 38.909963, "bike_id": "522908feb238e29c4437d6b83532b67e", "fusion_lon": 0.0}, {"rental_uris": {"ios": "https://dc.lft.to/lastmile_qr_scan", "android": "https://dc.lft.to/lastmile_qr_scan"}, "type": "electric_bike", "name": "827637d1c6ce4aa0b63e47cfaca50de7", "is_reserved": 0, "lon": -77.05521866666666, "is_disabled": 0, "fusion_lat": 0.0, "lat": 38.944128666666664, "bike_id": "827637d1c6ce4aa0b63e47cfaca50de7", "fusion_lon": 0.0}, {"rental_uris": {"ios": "https://dc.lft.to/lastmile_qr_scan", "android": "https://dc.lft.to/lastmile_qr_scan"}, "type": "electric_scooter", "name": "1e06ba74c693368d172711530119eacd", "is_reserved": 0, "lon": -77.051241, "is_disabled": 0, "fusion_lat": 0.0, "lat": 38.925319, "bike_id": "1e06ba74c693368d172711530119eacd", "fusion_lon": 0.0}, {"rental_uris": {"ios": "https://dc.lft.to/lastmile_qr_scan", "android": "https://dc.lft.to/lastmile_qr_scan"}, "type": "electric_scooter", "name": "5d06ea0d6090e729d71551aed1fe08dd", "is_reserved": 0, "lon": -77.04673733333334, "is_disabled": 0, "fusion_lat": 0.0, "lat": 38.89279583333333, "bike_id": "5d06ea0d6090e729d71551aed1fe08dd", "fusion_lon": 0.0}, {"rental_uris": {"ios": "https://dc.lft.to/lastmile_qr_scan", "android": "https://dc.lft.to/lastmile_qr_scan"}, "type": "electric_bike", "name": "913023ec93be3463f0dba468f9abcb6e", "is_reserved": 0, "lon": -76.9992045, "is_disabled": 0, "fusion_lat": 0.0, "lat": 38.99471483333333, "bike_id": "913023ec93be3463f0dba468f9abcb6e", "fusion_lon": 0.0}, {"rental_uris": {"ios": "https://dc.lft.to/lastmile_qr_scan", "android": "https://dc.lft.to/lastmile_qr_scan"}, "type": "electric_scooter", "name": "f975aec6375e2a0f221171b39d16b94c", "is_reserved": 0, "lon": -77.0291595, "is_disabled": 0, "fusion_lat": 0.0, "lat": 38.94449483333333, "bike_id": "f975aec6375e2a0f221171b39d16b94c", "fusion_lon": 0.0}, {"rental_uris": {"ios": "https://dc.lft.to/lastmile_qr_scan", "android": "https://dc.lft.to/lastmile_qr_scan"}, "type": "electric_scooter", "name": "09d5197c262ca45c5e06074e8ea609d2", "is_reserved": 0, "lon": -77.003853, "is_disabled": 0, "fusion_lat": 0.0, "lat": 38.940693, "bike_id": "09d5197c262ca45c5e06074e8ea609d2", "fusion_lon": 0.0}, {"rental_uris": {"ios": "https://dc.lft.to/lastmile_qr_scan", "android": "https://dc.lft.to/lastmile_qr_scan"}, "type": "electric_scooter", "name": "a97e62e3eec63a0159ed11f6ec12bcd5", "is_reserved": 0, "lon": -77.03445983333333, "is_disabled": 0, "fusion_lat": 0.0, "lat": 38.918007833333334, "bike_id": "a97e62e3eec63a0159ed11f6ec12bcd5", "fusion_lon": 0.0}, {"rental_uris": {"ios": "https://dc.lft.to/lastmile_qr_scan", "android": "https://dc.lft.to/lastmile_qr_scan"}, "type": "electric_scooter", "name": "fffcf7066b2deba0887b2ecfef2bb607", "is_reserved": 0, "lon": -77.04476583333333, "is_disabled": 0, "fusion_lat": 0.0, "lat": 38.922921333333335, "bike_id": "fffcf7066b2deba0887b2ecfef2bb607", "fusion_lon": 0.0}, {"rental_uris": {"ios": "https://dc.lft.to/lastmile_qr_scan", "android": "https://dc.lft.to/lastmile_qr_scan"}, "type": "electric_scooter", "name": "f82d54e41ed292771ca642ecd64314a0", "is_reserved": 0, "lon": -77.0295915, "is_disabled": 0, "fusion_lat": 0.0, "lat": 38.9073185, "bike_id": "f82d54e41ed292771ca642ecd64314a0", "fusion_lon": 0.0}, {"rental_uris": {"ios": "https://dc.lft.to/lastmile_qr_scan", "android": "https://dc.lft.to/lastmile_qr_scan"}, "type": "electric_scooter", "name": "f6b05cc8aed86bf7ed21f22ede1dc206", "is_reserved": 0, "lon": -77.04687666666666, "is_disabled": 0, "fusion_lat": 0.0, "lat": 38.892257, "bike_id": "f6b05cc8aed86bf7ed21f22ede1dc206", "fusion_lon": 0.0}, {"rental_uris": {"ios": "https://dc.lft.to/lastmile_qr_scan", "android": "https://dc.lft.to/lastmile_qr_scan"}, "type": "electric_scooter", "name": "603e6a04708af7f1123b5ee1d4f6cafe", "is_reserved": 0, "lon": -77.05504766666667, "is_disabled": 0, "fusion_lat": 0.0, "lat": 38.92983533333334, "bike_id": "603e6a04708af7f1123b5ee1d4f6cafe", "fusion_lon": 0.0}, {"rental_uris": {"ios": "https://dc.lft.to/lastmile_qr_scan", "android": "https://dc.lft.to/lastmile_qr_scan"}, "type": "electric_scooter", "name": "287df33b01dcfbe68409960024462f9c", "is_reserved": 0, "lon": -77.066137, "is_disabled": 0, "fusion_lat": 0.0, "lat": 38.911165, "bike_id": "287df33b01dcfbe68409960024462f9c", "fusion_lon": 0.0}, {"rental_uris": {"ios": "https://dc.lft.to/lastmile_qr_scan", "android": "https://dc.lft.to/lastmile_qr_scan"}, "type": "electric_scooter", "name": "38a8393dd072a92e470abe68346061f6", "is_reserved": 0, "lon": -77.06547133333333, "is_disabled": 0, "fusion_lat": 0.0, "lat": 38.90523666666667, "bike_id": "38a8393dd072a92e470abe68346061f6", "fusion_lon": 0.0}, {"rental_uris": {"ios": "https://dc.lft.to/lastmile_qr_scan", "android": "https://dc.lft.to/lastmile_qr_scan"}, "type": "electric_scooter", "name": "b25ec54cba2905e5ce5b8fb1d03a2ac3", "is_reserved": 0, "lon": -77.01986116666667, "is_disabled": 0, "fusion_lat": 0.0, "lat": 38.901678833333335, "bike_id": "b25ec54cba2905e5ce5b8fb1d03a2ac3", "fusion_lon": 0.0}, {"rental_uris": {"ios": "https://dc.lft.to/lastmile_qr_scan", "android": "https://dc.lft.to/lastmile_qr_scan"}, "type": "electric_scooter", "name": "aae7a3be1c3589c99818b716c4323364", "is_reserved": 0, "lon": -77.050218, "is_disabled": 0, "fusion_lat": 0.0, "lat": 38.9106055, "bike_id": "aae7a3be1c3589c99818b716c4323364", "fusion_lon": 0.0}, {"rental_uris": {"ios": "https://dc.lft.to/lastmile_qr_scan", "android": "https://dc.lft.to/lastmile_qr_scan"}, "type": "electric_scooter", "name": "12ffc1ac913670c81276fec8fd1379a5", "is_reserved": 0, "lon": -77.017554, "is_disabled": 0, "fusion_lat": 0.0, "lat": 38.8833675, "bike_id": "12ffc1ac913670c81276fec8fd1379a5", "fusion_lon": 0.0}, {"rental_uris": {"ios": "https://dc.lft.to/lastmile_qr_scan", "android": "https://dc.lft.to/lastmile_qr_scan"}, "type": "electric_scooter", "name": "6b333f751ab123b5d462df8ac49b2ceb", "is_reserved": 0, "lon": -77.01986083333334, "is_disabled": 0, "fusion_lat": 0.0, "lat": 38.9521535, "bike_id": "6b333f751ab123b5d462df8ac49b2ceb", "fusion_lon": 0.0}, {"rental_uris": {"ios": "https://dc.lft.to/lastmile_qr_scan", "android": "https://dc.lft.to/lastmile_qr_scan"}, "type": "electric_scooter", "name": "1c3bac0d9f34c6e53eebdba34e616e7c", "is_reserved": 0, "lon": -77.046755, "is_disabled": 0, "fusion_lat": 0.0, "lat": 38.8923645, "bike_id": "1c3bac0d9f34c6e53eebdba34e616e7c", "fusion_lon": 0.0}, {"rental_uris": {"ios": "https://dc.lft.to/lastmile_qr_scan", "android": "https://dc.lft.to/lastmile_qr_scan"}, "type": "electric_scooter", "name": "7dbc7f59701d147707ab55f1402c0400", "is_reserved": 0, "lon": -77.02588033333333, "is_disabled": 0, "fusion_lat": 0.0, "lat": 38.920415166666665, "bike_id": "7dbc7f59701d147707ab55f1402c0400", "fusion_lon": 0.0}, {"rental_uris": {"ios": "https://dc.lft.to/lastmile_qr_scan", "android": "https://dc.lft.to/lastmile_qr_scan"}, "type": "electric_scooter", "name": "4fff5c0b50804e49621f391d38582c49", "is_reserved": 0, "lon": -77.03078816666667, "is_disabled": 0, "fusion_lat": 0.0, "lat": 38.935234666666666, "bike_id": "4fff5c0b50804e49621f391d38582c49", "fusion_lon": 0.0}, {"rental_uris": {"ios": "https://dc.lft.to/lastmile_qr_scan", "android": "https://dc.lft.to/lastmile_qr_scan"}, "type": "electric_scooter", "name": "894ea01585d0b273f601da9fe267645a", "is_reserved": 0, "lon": -77.0240645, "is_disabled": 0, "fusion_lat": 0.0, "lat": 38.900458, "bike_id": "894ea01585d0b273f601da9fe267645a", "fusion_lon": 0.0}, {"rental_uris": {"ios": "https://dc.lft.to/lastmile_qr_scan", "android": "https://dc.lft.to/lastmile_qr_scan"}, "type": "electric_scooter", "name": "cad1f0ec24812d817aaba7959f4910a0", "is_reserved": 0, "lon": -77.03829783333333, "is_disabled": 0, "fusion_lat": 0.0, "lat": 38.91258166666667, "bike_id": "cad1f0ec24812d817aaba7959f4910a0", "fusion_lon": 0.0}, {"rental_uris": {"ios": "https://dc.lft.to/lastmile_qr_scan", "android": "https://dc.lft.to/lastmile_qr_scan"}, "type": "electric_scooter", "name": "4c6a2a9cd369ca3fde2c14ccc8c65901", "is_reserved": 0, "lon": -77.02581833333333, "is_disabled": 0, "fusion_lat": 0.0, "lat": 38.925302333333335, "bike_id": "4c6a2a9cd369ca3fde2c14ccc8c65901", "fusion_lon": 0.0}, {"rental_uris": {"ios": "https://dc.lft.to/lastmile_qr_scan", "android": "https://dc.lft.to/lastmile_qr_scan"}, "type": "electric_scooter", "name": "573a1e182fcbaf1594c16cf7e9474825", "is_reserved": 0, "lon": -77.0436845, "is_disabled": 0, "fusion_lat": 0.0, "lat": 38.892247, "bike_id": "573a1e182fcbaf1594c16cf7e9474825", "fusion_lon": 0.0}, {"rental_uris": {"ios": "https://dc.lft.to/lastmile_qr_scan", "android": "https://dc.lft.to/lastmile_qr_scan"}, "type": "electric_scooter", "name": "fccddbaca8a3bd9fd7a6c5c630d66a4b", "is_reserved": 0, "lon": -77.00187983333333, "is_disabled": 0, "fusion_lat": 0.0, "lat": 38.900311, "bike_id": "fccddbaca8a3bd9fd7a6c5c630d66a4b", "fusion_lon": 0.0}, {"rental_uris": {"ios": "https://dc.lft.to/lastmile_qr_scan", "android": "https://dc.lft.to/lastmile_qr_scan"}, "type": "electric_scooter", "name": "9e6d6af54e0413bbea46e727a4a51e1c", "is_reserved": 0, "lon": -77.04572916666666, "is_disabled": 0, "fusion_lat": 0.0, "lat": 38.91326933333333, "bike_id": "9e6d6af54e0413bbea46e727a4a51e1c", "fusion_lon": 0.0}, {"rental_uris": {"ios": "https://dc.lft.to/lastmile_qr_scan", "android": "https://dc.lft.to/lastmile_qr_scan"}, "type": "electric_bike", "name": "ad20cbf3e651349bb408de6f89d03cef", "is_reserved": 0, "lon": -76.977774, "is_disabled": 0, "fusion_lat": 0.0, "lat": 38.857223833333336, "bike_id": "ad20cbf3e651349bb408de6f89d03cef", "fusion_lon": 0.0}, {"rental_uris": {"ios": "https://dc.lft.to/lastmile_qr_scan", "android": "https://dc.lft.to/lastmile_qr_scan"}, "type": "electric_scooter", "name": "5110f9539723264e6d0619196dab869b", "is_reserved": 0, "lon": -77.02506833333334, "is_disabled": 0, "fusion_lat": 0.0, "lat": 38.94215333333333, "bike_id": "5110f9539723264e6d0619196dab869b", "fusion_lon": 0.0}, {"rental_uris": {"ios": "https://dc.lft.to/lastmile_qr_scan", "android": "https://dc.lft.to/lastmile_qr_scan"}, "type": "electric_scooter", "name": "1a93c48c40bb2193ac78913a5c46ff3c", "is_reserved": 0, "lon": -77.02646183333333, "is_disabled": 0, "fusion_lat": 0.0, "lat": 38.907252166666666, "bike_id": "1a93c48c40bb2193ac78913a5c46ff3c", "fusion_lon": 0.0}, {"rental_uris": {"ios": "https://dc.lft.to/lastmile_qr_scan", "android": "https://dc.lft.to/lastmile_qr_scan"}, "type": "electric_bike", "name": "55aacfcb5fa0775f81d2d6113f88fcc3", "is_reserved": 0, "lon": -77.1284055, "is_disabled": 0, "fusion_lat": 0.0, "lat": 38.800547, "bike_id": "55aacfcb5fa0775f81d2d6113f88fcc3", "fusion_lon": 0.0}, {"rental_uris": {"ios": "https://dc.lft.to/lastmile_qr_scan", "android": "https://dc.lft.to/lastmile_qr_scan"}, "type": "electric_scooter", "name": "93294271f5bc061c7ef70d9d68754575", "is_reserved": 0, "lon": -77.0324955, "is_disabled": 0, "fusion_lat": 0.0, "lat": 38.898191, "bike_id": "93294271f5bc061c7ef70d9d68754575", "fusion_lon": 0.0}, {"rental_uris": {"ios": "https://dc.lft.to/lastmile_qr_scan", "android": "https://dc.lft.to/lastmile_qr_scan"}, "type": "electric_scooter", "name": "851a2c45755ee8a649fdf46dd7d7af10", "is_reserved": 0, "lon": -77.034475, "is_disabled": 0, "fusion_lat": 0.0, "lat": 38.90997566666667, "bike_id": "851a2c45755ee8a649fdf46dd7d7af10", "fusion_lon": 0.0}, {"rental_uris": {"ios": "https://dc.lft.to/lastmile_qr_scan", "android": "https://dc.lft.to/lastmile_qr_scan"}, "type": "electric_scooter", "name": "c21dc395caa8a239e76d9406a9648292", "is_reserved": 0, "lon": -77.03233233333333, "is_disabled": 0, "fusion_lat": 0.0, "lat": 38.907152333333336, "bike_id": "c21dc395caa8a239e76d9406a9648292", "fusion_lon": 0.0}, {"rental_uris": {"ios": "https://dc.lft.to/lastmile_qr_scan", "android": "https://dc.lft.to/lastmile_qr_scan"}, "type": "electric_scooter", "name": "6d72aaf04c1fbc2b2615c0de94c380f4", "is_reserved": 0, "lon": -77.03472166666667, "is_disabled": 0, "fusion_lat": 0.0, "lat": 38.908843166666664, "bike_id": "6d72aaf04c1fbc2b2615c0de94c380f4", "fusion_lon": 0.0}, {"rental_uris": {"ios": "https://dc.lft.to/lastmile_qr_scan", "android": "https://dc.lft.to/lastmile_qr_scan"}, "type": "electric_scooter", "name": "b8d5845224fc649f17956cf437ed36af", "is_reserved": 0, "lon": -77.0410245, "is_disabled": 0, "fusion_lat": 0.0, "lat": 38.90011033333333, "bike_id": "b8d5845224fc649f17956cf437ed36af", "fusion_lon": 0.0}, {"rental_uris": {"ios": "https://dc.lft.to/lastmile_qr_scan", "android": "https://dc.lft.to/lastmile_qr_scan"}, "type": "electric_scooter", "name": "6568584a84d3745ba355628f35d446c1", "is_reserved": 0, "lon": -77.02383916666666, "is_disabled": 0, "fusion_lat": 0.0, "lat": 38.90956166666667, "bike_id": "6568584a84d3745ba355628f35d446c1", "fusion_lon": 0.0}, {"rental_uris": {"ios": "https://dc.lft.to/lastmile_qr_scan", "android": "https://dc.lft.to/lastmile_qr_scan"}, "type": "electric_scooter", "name": "4e30ba0ae1f2896ebe62fe6bc663da11", "is_reserved": 0, "lon": -77.02714916666666, "is_disabled": 0, "fusion_lat": 0.0, "lat": 38.89758333333333, "bike_id": "4e30ba0ae1f2896ebe62fe6bc663da11", "fusion_lon": 0.0}, {"rental_uris": {"ios": "https://dc.lft.to/lastmile_qr_scan", "android": "https://dc.lft.to/lastmile_qr_scan"}, "type": "electric_scooter", "name": "563de86f5a009e9b66c7748d5c696007", "is_reserved": 0, "lon": -77.04006966666667, "is_disabled": 0, "fusion_lat": 0.0, "lat": 38.91183816666667, "bike_id": "563de86f5a009e9b66c7748d5c696007", "fusion_lon": 0.0}, {"rental_uris": {"ios": "https://dc.lft.to/lastmile_qr_scan", "android": "https://dc.lft.to/lastmile_qr_scan"}, "type": "electric_scooter", "name": "030449df967c04ec3894940e7e706352", "is_reserved": 0, "lon": -77.03187066666666, "is_disabled": 0, "fusion_lat": 0.0, "lat": 38.918458666666666, "bike_id": "030449df967c04ec3894940e7e706352", "fusion_lon": 0.0}, {"rental_uris": {"ios": "https://dc.lft.to/lastmile_qr_scan", "android": "https://dc.lft.to/lastmile_qr_scan"}, "type": "electric_scooter", "name": "8742fc7494f0373fd19751f356db9aea", "is_reserved": 0, "lon": -77.02133933333333, "is_disabled": 0, "fusion_lat": 0.0, "lat": 38.92704333333333, "bike_id": "8742fc7494f0373fd19751f356db9aea", "fusion_lon": 0.0}, {"rental_uris": {"ios": "https://dc.lft.to/lastmile_qr_scan", "android": "https://dc.lft.to/lastmile_qr_scan"}, "type": "electric_bike", "name": "60cd400651b6c677df0dfa01532a1278", "is_reserved": 0, "lon": -76.98837316666666, "is_disabled": 0, "fusion_lat": 0.0, "lat": 38.84281933333333, "bike_id": "60cd400651b6c677df0dfa01532a1278", "fusion_lon": 0.0}, {"rental_uris": {"ios": "https://dc.lft.to/lastmile_qr_scan", "android": "https://dc.lft.to/lastmile_qr_scan"}, "type": "electric_scooter", "name": "848cd53bdd83b2158a13c43387071682", "is_reserved": 0, "lon": -77.0242475, "is_disabled": 0, "fusion_lat": 0.0, "lat": 38.90004783333333, "bike_id": "848cd53bdd83b2158a13c43387071682", "fusion_lon": 0.0}, {"rental_uris": {"ios": "https://dc.lft.to/lastmile_qr_scan", "android": "https://dc.lft.to/lastmile_qr_scan"}, "type": "electric_scooter", "name": "56d9585cdf5c447b6c326067c166be3d", "is_reserved": 0, "lon": -77.02358133333334, "is_disabled": 0, "fusion_lat": 0.0, "lat": 38.919472, "bike_id": "56d9585cdf5c447b6c326067c166be3d", "fusion_lon": 0.0}, {"rental_uris": {"ios": "https://dc.lft.to/lastmile_qr_scan", "android": "https://dc.lft.to/lastmile_qr_scan"}, "type": "electric_scooter", "name": "ead1758396f1281e1c39fa5380c36a54", "is_reserved": 0, "lon": -77.03126266666666, "is_disabled": 0, "fusion_lat": 0.0, "lat": 38.915602, "bike_id": "ead1758396f1281e1c39fa5380c36a54", "fusion_lon": 0.0}, {"rental_uris": {"ios": "https://dc.lft.to/lastmile_qr_scan", "android": "https://dc.lft.to/lastmile_qr_scan"}, "type": "electric_scooter", "name": "3cc15e38ae4fad54f2af1fc0c1079626", "is_reserved": 0, "lon": -77.04261166666667, "is_disabled": 0, "fusion_lat": 0.0, "lat": 38.9072725, "bike_id": "3cc15e38ae4fad54f2af1fc0c1079626", "fusion_lon": 0.0}, {"rental_uris": {"ios": "https://dc.lft.to/lastmile_qr_scan", "android": "https://dc.lft.to/lastmile_qr_scan"}, "type": "electric_scooter", "name": "6bc301d526ffe31d2c1ee6e68c88046a", "is_reserved": 0, "lon": -77.04142033333333, "is_disabled": 0, "fusion_lat": 0.0, "lat": 38.932858333333336, "bike_id": "6bc301d526ffe31d2c1ee6e68c88046a", "fusion_lon": 0.0}, {"rental_uris": {"ios": "https://dc.lft.to/lastmile_qr_scan", "android": "https://dc.lft.to/lastmile_qr_scan"}, "type": "electric_scooter", "name": "9e7412405bb5da4f970d53c4b26c5005", "is_reserved": 0, "lon": -77.05627133333333, "is_disabled": 0, "fusion_lat": 0.0, "lat": 38.906917666666665, "bike_id": "9e7412405bb5da4f970d53c4b26c5005", "fusion_lon": 0.0}, {"rental_uris": {"ios": "https://dc.lft.to/lastmile_qr_scan", "android": "https://dc.lft.to/lastmile_qr_scan"}, "type": "electric_scooter", "name": "b0544014c5fb6c5bbda15b08be9be5f6", "is_reserved": 0, "lon": -77.008129, "is_disabled": 0, "fusion_lat": 0.0, "lat": 38.8795325, "bike_id": "b0544014c5fb6c5bbda15b08be9be5f6", "fusion_lon": 0.0}, {"rental_uris": {"ios": "https://dc.lft.to/lastmile_qr_scan", "android": "https://dc.lft.to/lastmile_qr_scan"}, "type": "electric_bike", "name": "e02bb9ba23b6ae57a61bf3271c2a08c1", "is_reserved": 0, "lon": -77.05020433333334, "is_disabled": 0, "fusion_lat": 0.0, "lat": 39.038896666666666, "bike_id": "e02bb9ba23b6ae57a61bf3271c2a08c1", "fusion_lon": 0.0}, {"rental_uris": {"ios": "https://dc.lft.to/lastmile_qr_scan", "android": "https://dc.lft.to/lastmile_qr_scan"}, "type": "electric_scooter", "name": "5463d34da319323ab1f26665b431a831", "is_reserved": 0, "lon": -77.03213583333333, "is_disabled": 0, "fusion_lat": 0.0, "lat": 38.9121795, "bike_id": "5463d34da319323ab1f26665b431a831", "fusion_lon": 0.0}, {"rental_uris": {"ios": "https://dc.lft.to/lastmile_qr_scan", "android": "https://dc.lft.to/lastmile_qr_scan"}, "type": "electric_scooter", "name": "29188930fa3773554797be7661e8a7af", "is_reserved": 0, "lon": -77.0383635, "is_disabled": 0, "fusion_lat": 0.0, "lat": 38.911737333333335, "bike_id": "29188930fa3773554797be7661e8a7af", "fusion_lon": 0.0}, {"rental_uris": {"ios": "https://dc.lft.to/lastmile_qr_scan", "android": "https://dc.lft.to/lastmile_qr_scan"}, "type": "electric_scooter", "name": "4e85dbc91674d27c5fe80efec7564526", "is_reserved": 0, "lon": -77.04640133333334, "is_disabled": 0, "fusion_lat": 0.0, "lat": 38.89741766666667, "bike_id": "4e85dbc91674d27c5fe80efec7564526", "fusion_lon": 0.0}, {"rental_uris": {"ios": "https://dc.lft.to/lastmile_qr_scan", "android": "https://dc.lft.to/lastmile_qr_scan"}, "type": "electric_scooter", "name": "763d7254a00a73d6271565336d9c7a5f", "is_reserved": 0, "lon": -76.98105666666666, "is_disabled": 0, "fusion_lat": 0.0, "lat": 38.90244416666667, "bike_id": "763d7254a00a73d6271565336d9c7a5f", "fusion_lon": 0.0}, {"rental_uris": {"ios": "https://dc.lft.to/lastmile_qr_scan", "android": "https://dc.lft.to/lastmile_qr_scan"}, "type": "electric_scooter", "name": "b072e18bc20e746b4315fbd1d14f530a", "is_reserved": 0, "lon": -77.00325416666666, "is_disabled": 0, "fusion_lat": 0.0, "lat": 38.91900733333333, "bike_id": "b072e18bc20e746b4315fbd1d14f530a", "fusion_lon": 0.0}, {"rental_uris": {"ios": "https://dc.lft.to/lastmile_qr_scan", "android": "https://dc.lft.to/lastmile_qr_scan"}, "type": "electric_scooter", "name": "5b323a637f59a8e1342be189aeda9a00", "is_reserved": 0, "lon": -77.0093, "is_disabled": 0, "fusion_lat": 0.0, "lat": 38.914812833333336, "bike_id": "5b323a637f59a8e1342be189aeda9a00", "fusion_lon": 0.0}, {"rental_uris": {"ios": "https://dc.lft.to/lastmile_qr_scan", "android": "https://dc.lft.to/lastmile_qr_scan"}, "type": "electric_scooter", "name": "5838799604075949f94392f76b3269c3", "is_reserved": 0, "lon": -77.03203883333333, "is_disabled": 0, "fusion_lat": 0.0, "lat": 38.88708, "bike_id": "5838799604075949f94392f76b3269c3", "fusion_lon": 0.0}, {"rental_uris": {"ios": "https://dc.lft.to/lastmile_qr_scan", "android": "https://dc.lft.to/lastmile_qr_scan"}, "type": "electric_scooter", "name": "46beecd93cae89d52b21fcee405c7108", "is_reserved": 0, "lon": -76.99348166666667, "is_disabled": 0, "fusion_lat": 0.0, "lat": 38.876933, "bike_id": "46beecd93cae89d52b21fcee405c7108", "fusion_lon": 0.0}, {"rental_uris": {"ios": "https://dc.lft.to/lastmile_qr_scan", "android": "https://dc.lft.to/lastmile_qr_scan"}, "type": "electric_scooter", "name": "18fb0d10b1f26676352c41629763e66d", "is_reserved": 0, "lon": -77.01774133333333, "is_disabled": 0, "fusion_lat": 0.0, "lat": 38.90041383333333, "bike_id": "18fb0d10b1f26676352c41629763e66d", "fusion_lon": 0.0}, {"rental_uris": {"ios": "https://dc.lft.to/lastmile_qr_scan", "android": "https://dc.lft.to/lastmile_qr_scan"}, "type": "electric_bike", "name": "90a5771f35a75618188dfde5a6394dbb", "is_reserved": 0, "lon": -77.11355, "is_disabled": 0, "fusion_lat": 0.0, "lat": 38.84196083333333, "bike_id": "90a5771f35a75618188dfde5a6394dbb", "fusion_lon": 0.0}, {"rental_uris": {"ios": "https://dc.lft.to/lastmile_qr_scan", "android": "https://dc.lft.to/lastmile_qr_scan"}, "type": "electric_scooter", "name": "38e55018394dd6f403d7b95fc96b9c7b", "is_reserved": 0, "lon": -76.989303, "is_disabled": 0, "fusion_lat": 0.0, "lat": 38.87867816666667, "bike_id": "38e55018394dd6f403d7b95fc96b9c7b", "fusion_lon": 0.0}, {"rental_uris": {"ios": "https://dc.lft.to/lastmile_qr_scan", "android": "https://dc.lft.to/lastmile_qr_scan"}, "type": "electric_scooter", "name": "b9c55f4d9a1ae665f65c9d501b9624e3", "is_reserved": 0, "lon": -77.04697816666666, "is_disabled": 0, "fusion_lat": 0.0, "lat": 38.9028555, "bike_id": "b9c55f4d9a1ae665f65c9d501b9624e3", "fusion_lon": 0.0}, {"rental_uris": {"ios": "https://dc.lft.to/lastmile_qr_scan", "android": "https://dc.lft.to/lastmile_qr_scan"}, "type": "electric_scooter", "name": "b72c89ad4af7a30e60972dfee02aac07", "is_reserved": 0, "lon": -77.03834333333333, "is_disabled": 0, "fusion_lat": 0.0, "lat": 38.91120683333333, "bike_id": "b72c89ad4af7a30e60972dfee02aac07", "fusion_lon": 0.0}, {"rental_uris": {"ios": "https://dc.lft.to/lastmile_qr_scan", "android": "https://dc.lft.to/lastmile_qr_scan"}, "type": "electric_scooter", "name": "5d6ad72bab33324e984e01e6c8621386", "is_reserved": 0, "lon": -77.01049066666667, "is_disabled": 0, "fusion_lat": 0.0, "lat": 38.91636333333334, "bike_id": "5d6ad72bab33324e984e01e6c8621386", "fusion_lon": 0.0}, {"rental_uris": {"ios": "https://dc.lft.to/lastmile_qr_scan", "android": "https://dc.lft.to/lastmile_qr_scan"}, "type": "electric_scooter", "name": "68af33bd02132557cf200954fc5e2f77", "is_reserved": 0, "lon": -77.024903, "is_disabled": 0, "fusion_lat": 0.0, "lat": 38.905294833333336, "bike_id": "68af33bd02132557cf200954fc5e2f77", "fusion_lon": 0.0}, {"rental_uris": {"ios": "https://dc.lft.to/lastmile_qr_scan", "android": "https://dc.lft.to/lastmile_qr_scan"}, "type": "electric_scooter", "name": "39fe976428e4e3916f369a212f16835d", "is_reserved": 0, "lon": -77.0371245, "is_disabled": 0, "fusion_lat": 0.0, "lat": 38.92654516666666, "bike_id": "39fe976428e4e3916f369a212f16835d", "fusion_lon": 0.0}, {"rental_uris": {"ios": "https://dc.lft.to/lastmile_qr_scan", "android": "https://dc.lft.to/lastmile_qr_scan"}, "type": "electric_scooter", "name": "dc0fcd9f60888af26a2dbdeaf28b568a", "is_reserved": 0, "lon": -76.93475583333333, "is_disabled": 0, "fusion_lat": 0.0, "lat": 38.895059333333336, "bike_id": "dc0fcd9f60888af26a2dbdeaf28b568a", "fusion_lon": 0.0}, {"rental_uris": {"ios": "https://dc.lft.to/lastmile_qr_scan", "android": "https://dc.lft.to/lastmile_qr_scan"}, "type": "electric_scooter", "name": "e272df97805bf2be624a67763bc38cb9", "is_reserved": 0, "lon": -77.04346933333333, "is_disabled": 0, "fusion_lat": 0.0, "lat": 38.9073675, "bike_id": "e272df97805bf2be624a67763bc38cb9", "fusion_lon": 0.0}, {"rental_uris": {"ios": "https://dc.lft.to/lastmile_qr_scan", "android": "https://dc.lft.to/lastmile_qr_scan"}, "type": "electric_bike", "name": "52b8a0a5718346eb91b3a28ebb298fe0", "is_reserved": 0, "lon": -77.12733533333333, "is_disabled": 0, "fusion_lat": 0.0, "lat": 38.895665666666666, "bike_id": "52b8a0a5718346eb91b3a28ebb298fe0", "fusion_lon": 0.0}, {"rental_uris": {"ios": "https://dc.lft.to/lastmile_qr_scan", "android": "https://dc.lft.to/lastmile_qr_scan"}, "type": "electric_bike", "name": "b13f0270cafdfb8c15ab9ef7e2ecc20d", "is_reserved": 0, "lon": -77.01228416666666, "is_disabled": 0, "fusion_lat": 0.0, "lat": 38.95092316666667, "bike_id": "b13f0270cafdfb8c15ab9ef7e2ecc20d", "fusion_lon": 0.0}, {"rental_uris": {"ios": "https://dc.lft.to/lastmile_qr_scan", "android": "https://dc.lft.to/lastmile_qr_scan"}, "type": "electric_scooter", "name": "4029328031001e3dc2703b60ec99556e", "is_reserved": 0, "lon": -77.03666, "is_disabled": 0, "fusion_lat": 0.0, "lat": 38.939537666666666, "bike_id": "4029328031001e3dc2703b60ec99556e", "fusion_lon": 0.0}, {"rental_uris": {"ios": "https://dc.lft.to/lastmile_qr_scan", "android": "https://dc.lft.to/lastmile_qr_scan"}, "type": "electric_bike", "name": "fbbb817469f98a07569bd43e1880c21f", "is_reserved": 0, "lon": -77.00141033333334, "is_disabled": 0, "fusion_lat": 0.0, "lat": 38.995059166666664, "bike_id": "fbbb817469f98a07569bd43e1880c21f", "fusion_lon": 0.0}, {"rental_uris": {"ios": "https://dc.lft.to/lastmile_qr_scan", "android": "https://dc.lft.to/lastmile_qr_scan"}, "type": "electric_scooter", "name": "0eb678b97fdef790568d01bfd371166c", "is_reserved": 0, "lon": -77.00426416666667, "is_disabled": 0, "fusion_lat": 0.0, "lat": 38.90568666666667, "bike_id": "0eb678b97fdef790568d01bfd371166c", "fusion_lon": 0.0}, {"rental_uris": {"ios": "https://dc.lft.to/lastmile_qr_scan", "android": "https://dc.lft.to/lastmile_qr_scan"}, "type": "electric_scooter", "name": "c7c51574889822dd9ca02f7213aa0d66", "is_reserved": 0, "lon": -77.00210516666667, "is_disabled": 0, "fusion_lat": 0.0, "lat": 38.893287666666666, "bike_id": "c7c51574889822dd9ca02f7213aa0d66", "fusion_lon": 0.0}, {"rental_uris": {"ios": "https://dc.lft.to/lastmile_qr_scan", "android": "https://dc.lft.to/lastmile_qr_scan"}, "type": "electric_scooter", "name": "8ed642f7e4bd03fd4541637f9cad706e", "is_reserved": 0, "lon": -77.02699133333333, "is_disabled": 0, "fusion_lat": 0.0, "lat": 38.92333416666666, "bike_id": "8ed642f7e4bd03fd4541637f9cad706e", "fusion_lon": 0.0}, {"rental_uris": {"ios": "https://dc.lft.to/lastmile_qr_scan", "android": "https://dc.lft.to/lastmile_qr_scan"}, "type": "electric_scooter", "name": "62373452d62cd4be52c44c62a7424668", "is_reserved": 0, "lon": -77.04675516666667, "is_disabled": 0, "fusion_lat": 0.0, "lat": 38.8923675, "bike_id": "62373452d62cd4be52c44c62a7424668", "fusion_lon": 0.0}, {"rental_uris": {"ios": "https://dc.lft.to/lastmile_qr_scan", "android": "https://dc.lft.to/lastmile_qr_scan"}, "type": "electric_scooter", "name": "a648d2a8155edd4db83a29ce8b077c3e", "is_reserved": 0, "lon": -77.05077066666666, "is_disabled": 0, "fusion_lat": 0.0, "lat": 38.901033, "bike_id": "a648d2a8155edd4db83a29ce8b077c3e", "fusion_lon": 0.0}, {"rental_uris": {"ios": "https://dc.lft.to/lastmile_qr_scan", "android": "https://dc.lft.to/lastmile_qr_scan"}, "type": "electric_scooter", "name": "d23533789a311c79694981bc0aa2fd9d", "is_reserved": 0, "lon": -77.0432825, "is_disabled": 0, "fusion_lat": 0.0, "lat": 38.908153666666664, "bike_id": "d23533789a311c79694981bc0aa2fd9d", "fusion_lon": 0.0}, {"rental_uris": {"ios": "https://dc.lft.to/lastmile_qr_scan", "android": "https://dc.lft.to/lastmile_qr_scan"}, "type": "electric_scooter", "name": "2f63bedec104677b97c209abd2284dcd", "is_reserved": 0, "lon": -77.04505583333334, "is_disabled": 0, "fusion_lat": 0.0, "lat": 38.892247, "bike_id": "2f63bedec104677b97c209abd2284dcd", "fusion_lon": 0.0}, {"rental_uris": {"ios": "https://dc.lft.to/lastmile_qr_scan", "android": "https://dc.lft.to/lastmile_qr_scan"}, "type": "electric_scooter", "name": "19cb6729624ac61fb6a07a93b6a6abb1", "is_reserved": 0, "lon": -76.97942183333333, "is_disabled": 0, "fusion_lat": 0.0, "lat": 38.906643333333335, "bike_id": "19cb6729624ac61fb6a07a93b6a6abb1", "fusion_lon": 0.0}, {"rental_uris": {"ios": "https://dc.lft.to/lastmile_qr_scan", "android": "https://dc.lft.to/lastmile_qr_scan"}, "type": "electric_scooter", "name": "dd6da49b2e29a42d4221068bd04457e8", "is_reserved": 0, "lon": -77.03662233333333, "is_disabled": 0, "fusion_lat": 0.0, "lat": 38.92288816666667, "bike_id": "dd6da49b2e29a42d4221068bd04457e8", "fusion_lon": 0.0}, {"rental_uris": {"ios": "https://dc.lft.to/lastmile_qr_scan", "android": "https://dc.lft.to/lastmile_qr_scan"}, "type": "electric_scooter", "name": "76c6bb652a2b28192ec6e24e73e83ad5", "is_reserved": 0, "lon": -77.02199066666667, "is_disabled": 0, "fusion_lat": 0.0, "lat": 38.895145666666664, "bike_id": "76c6bb652a2b28192ec6e24e73e83ad5", "fusion_lon": 0.0}, {"rental_uris": {"ios": "https://dc.lft.to/lastmile_qr_scan", "android": "https://dc.lft.to/lastmile_qr_scan"}, "type": "electric_scooter", "name": "c142804d1490243f0eecd64a42c8b5ab", "is_reserved": 0, "lon": -77.00909016666667, "is_disabled": 0, "fusion_lat": 0.0, "lat": 38.89876266666667, "bike_id": "c142804d1490243f0eecd64a42c8b5ab", "fusion_lon": 0.0}, {"rental_uris": {"ios": "https://dc.lft.to/lastmile_qr_scan", "android": "https://dc.lft.to/lastmile_qr_scan"}, "type": "electric_scooter", "name": "e2f7c235ed79cd7893b56b2bc16df2ab", "is_reserved": 0, "lon": -77.0215775, "is_disabled": 0, "fusion_lat": 0.0, "lat": 38.926060666666665, "bike_id": "e2f7c235ed79cd7893b56b2bc16df2ab", "fusion_lon": 0.0}, {"rental_uris": {"ios": "https://dc.lft.to/lastmile_qr_scan", "android": "https://dc.lft.to/lastmile_qr_scan"}, "type": "electric_scooter", "name": "3e47900408b8421f0a189cc7da200b31", "is_reserved": 0, "lon": -77.05218016666667, "is_disabled": 0, "fusion_lat": 0.0, "lat": 38.900199, "bike_id": "3e47900408b8421f0a189cc7da200b31", "fusion_lon": 0.0}, {"rental_uris": {"ios": "https://dc.lft.to/lastmile_qr_scan", "android": "https://dc.lft.to/lastmile_qr_scan"}, "type": "electric_scooter", "name": "1f99abfe2ca3e30858e85db41c574088", "is_reserved": 0, "lon": -77.06474266666666, "is_disabled": 0, "fusion_lat": 0.0, "lat": 38.910267166666664, "bike_id": "1f99abfe2ca3e30858e85db41c574088", "fusion_lon": 0.0}, {"rental_uris": {"ios": "https://dc.lft.to/lastmile_qr_scan", "android": "https://dc.lft.to/lastmile_qr_scan"}, "type": "electric_scooter", "name": "a4b14ebcc66027bf4af85ef3f151d3af", "is_reserved": 0, "lon": -77.0387025, "is_disabled": 0, "fusion_lat": 0.0, "lat": 38.91119233333333, "bike_id": "a4b14ebcc66027bf4af85ef3f151d3af", "fusion_lon": 0.0}, {"rental_uris": {"ios": "https://dc.lft.to/lastmile_qr_scan", "android": "https://dc.lft.to/lastmile_qr_scan"}, "type": "electric_bike", "name": "354af249c06def1d569db30b70d4b7ae", "is_reserved": 0, "lon": -77.04686883333333, "is_disabled": 0, "fusion_lat": 0.0, "lat": 38.907271333333334, "bike_id": "354af249c06def1d569db30b70d4b7ae", "fusion_lon": 0.0}, {"rental_uris": {"ios": "https://dc.lft.to/lastmile_qr_scan", "android": "https://dc.lft.to/lastmile_qr_scan"}, "type": "electric_scooter", "name": "1c5e3ca6d753617b46b875a5ddf1468b", "is_reserved": 0, "lon": -77.03847433333334, "is_disabled": 0, "fusion_lat": 0.0, "lat": 38.90408016666667, "bike_id": "1c5e3ca6d753617b46b875a5ddf1468b", "fusion_lon": 0.0}, {"rental_uris": {"ios": "https://dc.lft.to/lastmile_qr_scan", "android": "https://dc.lft.to/lastmile_qr_scan"}, "type": "electric_scooter", "name": "19e6c6a1c41450783cee40c27b0b0a8f", "is_reserved": 0, "lon": -77.01228283333333, "is_disabled": 0, "fusion_lat": 0.0, "lat": 38.9168205, "bike_id": "19e6c6a1c41450783cee40c27b0b0a8f", "fusion_lon": 0.0}, {"rental_uris": {"ios": "https://dc.lft.to/lastmile_qr_scan", "android": "https://dc.lft.to/lastmile_qr_scan"}, "type": "electric_scooter", "name": "9c9b2c82774146ea99376a1794e88f12", "is_reserved": 0, "lon": -77.02172883333333, "is_disabled": 0, "fusion_lat": 0.0, "lat": 38.89475983333333, "bike_id": "9c9b2c82774146ea99376a1794e88f12", "fusion_lon": 0.0}, {"rental_uris": {"ios": "https://dc.lft.to/lastmile_qr_scan", "android": "https://dc.lft.to/lastmile_qr_scan"}, "type": "electric_scooter", "name": "bab16dd5acc5b42802195649b7ebe090", "is_reserved": 0, "lon": -77.04811866666667, "is_disabled": 0, "fusion_lat": 0.0, "lat": 38.89739333333333, "bike_id": "bab16dd5acc5b42802195649b7ebe090", "fusion_lon": 0.0}, {"rental_uris": {"ios": "https://dc.lft.to/lastmile_qr_scan", "android": "https://dc.lft.to/lastmile_qr_scan"}, "type": "electric_scooter", "name": "0770494a993cd05ee904c74d273a0418", "is_reserved": 0, "lon": -77.03860816666666, "is_disabled": 0, "fusion_lat": 0.0, "lat": 38.907733666666665, "bike_id": "0770494a993cd05ee904c74d273a0418", "fusion_lon": 0.0}, {"rental_uris": {"ios": "https://dc.lft.to/lastmile_qr_scan", "android": "https://dc.lft.to/lastmile_qr_scan"}, "type": "electric_scooter", "name": "a809958819727402da07deda37ec72c6", "is_reserved": 0, "lon": -76.94919366666667, "is_disabled": 0, "fusion_lat": 0.0, "lat": 38.895429666666665, "bike_id": "a809958819727402da07deda37ec72c6", "fusion_lon": 0.0}, {"rental_uris": {"ios": "https://dc.lft.to/lastmile_qr_scan", "android": "https://dc.lft.to/lastmile_qr_scan"}, "type": "electric_scooter", "name": "e56ef3b62bfc35f6248c7c293f92e47e", "is_reserved": 0, "lon": -77.0427575, "is_disabled": 0, "fusion_lat": 0.0, "lat": 38.917885166666665, "bike_id": "e56ef3b62bfc35f6248c7c293f92e47e", "fusion_lon": 0.0}, {"rental_uris": {"ios": "https://dc.lft.to/lastmile_qr_scan", "android": "https://dc.lft.to/lastmile_qr_scan"}, "type": "electric_scooter", "name": "0239a270dcc313d79b8d7f30b0dad009", "is_reserved": 0, "lon": -77.0816305, "is_disabled": 0, "fusion_lat": 0.0, "lat": 38.919594000000004, "bike_id": "0239a270dcc313d79b8d7f30b0dad009", "fusion_lon": 0.0}, {"rental_uris": {"ios": "https://dc.lft.to/lastmile_qr_scan", "android": "https://dc.lft.to/lastmile_qr_scan"}, "type": "electric_scooter", "name": "32275f9bc3aab4461c130a1d8d81ad78", "is_reserved": 0, "lon": -77.00191416666667, "is_disabled": 0, "fusion_lat": 0.0, "lat": 38.911873166666666, "bike_id": "32275f9bc3aab4461c130a1d8d81ad78", "fusion_lon": 0.0}, {"rental_uris": {"ios": "https://dc.lft.to/lastmile_qr_scan", "android": "https://dc.lft.to/lastmile_qr_scan"}, "type": "electric_scooter", "name": "c58e4d7d90220b9bc488804b4da1b592", "is_reserved": 0, "lon": -77.03340283333333, "is_disabled": 0, "fusion_lat": 0.0, "lat": 38.914091, "bike_id": "c58e4d7d90220b9bc488804b4da1b592", "fusion_lon": 0.0}, {"rental_uris": {"ios": "https://dc.lft.to/lastmile_qr_scan", "android": "https://dc.lft.to/lastmile_qr_scan"}, "type": "electric_scooter", "name": "a527d68da63b3af5f46173f7abc7aedf", "is_reserved": 0, "lon": -76.98214016666667, "is_disabled": 0, "fusion_lat": 0.0, "lat": 38.89548083333333, "bike_id": "a527d68da63b3af5f46173f7abc7aedf", "fusion_lon": 0.0}, {"rental_uris": {"ios": "https://dc.lft.to/lastmile_qr_scan", "android": "https://dc.lft.to/lastmile_qr_scan"}, "type": "electric_scooter", "name": "4db1b69de0ba8be0887fd1a5bb97b031", "is_reserved": 0, "lon": -77.033547, "is_disabled": 0, "fusion_lat": 0.0, "lat": 38.9548405, "bike_id": "4db1b69de0ba8be0887fd1a5bb97b031", "fusion_lon": 0.0}, {"rental_uris": {"ios": "https://dc.lft.to/lastmile_qr_scan", "android": "https://dc.lft.to/lastmile_qr_scan"}, "type": "electric_scooter", "name": "8e122200ce9870fe9c7b388c0f7b7c2f", "is_reserved": 0, "lon": -77.04883733333334, "is_disabled": 0, "fusion_lat": 0.0, "lat": 38.900677333333334, "bike_id": "8e122200ce9870fe9c7b388c0f7b7c2f", "fusion_lon": 0.0}, {"rental_uris": {"ios": "https://dc.lft.to/lastmile_qr_scan", "android": "https://dc.lft.to/lastmile_qr_scan"}, "type": "electric_scooter", "name": "a29706a64699ef182ed3f3fd10704ea5", "is_reserved": 0, "lon": -76.9962345, "is_disabled": 0, "fusion_lat": 0.0, "lat": 38.891848, "bike_id": "a29706a64699ef182ed3f3fd10704ea5", "fusion_lon": 0.0}, {"rental_uris": {"ios": "https://dc.lft.to/lastmile_qr_scan", "android": "https://dc.lft.to/lastmile_qr_scan"}, "type": "electric_scooter", "name": "3720f954f40d73573b95a97ad262403f", "is_reserved": 0, "lon": -77.05331016666666, "is_disabled": 0, "fusion_lat": 0.0, "lat": 38.902731333333335, "bike_id": "3720f954f40d73573b95a97ad262403f", "fusion_lon": 0.0}, {"rental_uris": {"ios": "https://dc.lft.to/lastmile_qr_scan", "android": "https://dc.lft.to/lastmile_qr_scan"}, "type": "electric_scooter", "name": "dc3a138690beec41a882682d1877c2b8", "is_reserved": 0, "lon": -77.0229305, "is_disabled": 0, "fusion_lat": 0.0, "lat": 38.90751, "bike_id": "dc3a138690beec41a882682d1877c2b8", "fusion_lon": 0.0}, {"rental_uris": {"ios": "https://dc.lft.to/lastmile_qr_scan", "android": "https://dc.lft.to/lastmile_qr_scan"}, "type": "electric_scooter", "name": "47e24e322547c786b5916fec1dc03945", "is_reserved": 0, "lon": -77.03716083333333, "is_disabled": 0, "fusion_lat": 0.0, "lat": 38.9265745, "bike_id": "47e24e322547c786b5916fec1dc03945", "fusion_lon": 0.0}, {"rental_uris": {"ios": "https://dc.lft.to/lastmile_qr_scan", "android": "https://dc.lft.to/lastmile_qr_scan"}, "type": "electric_bike", "name": "e8e02c74bd480337e531fbd990668807", "is_reserved": 0, "lon": -77.0963035, "is_disabled": 0, "fusion_lat": 0.0, "lat": 38.952526, "bike_id": "e8e02c74bd480337e531fbd990668807", "fusion_lon": 0.0}, {"rental_uris": {"ios": "https://dc.lft.to/lastmile_qr_scan", "android": "https://dc.lft.to/lastmile_qr_scan"}, "type": "electric_bike", "name": "7f79aee82f728046d0ca049491f90582", "is_reserved": 0, "lon": -77.127417, "is_disabled": 0, "fusion_lat": 0.0, "lat": 38.89572, "bike_id": "7f79aee82f728046d0ca049491f90582", "fusion_lon": 0.0}, {"rental_uris": {"ios": "https://dc.lft.to/lastmile_qr_scan", "android": "https://dc.lft.to/lastmile_qr_scan"}, "type": "electric_scooter", "name": "96b9e45d87e47fb035f0de4bce2d0770", "is_reserved": 0, "lon": -77.00997733333334, "is_disabled": 0, "fusion_lat": 0.0, "lat": 38.911284333333334, "bike_id": "96b9e45d87e47fb035f0de4bce2d0770", "fusion_lon": 0.0}, {"rental_uris": {"ios": "https://dc.lft.to/lastmile_qr_scan", "android": "https://dc.lft.to/lastmile_qr_scan"}, "type": "electric_scooter", "name": "e8f29158d81771a7709abb82ce6227b2", "is_reserved": 0, "lon": -77.03342116666667, "is_disabled": 0, "fusion_lat": 0.0, "lat": 38.892259333333335, "bike_id": "e8f29158d81771a7709abb82ce6227b2", "fusion_lon": 0.0}, {"rental_uris": {"ios": "https://dc.lft.to/lastmile_qr_scan", "android": "https://dc.lft.to/lastmile_qr_scan"}, "type": "electric_bike", "name": "c1fa3e0c97c134af790cfb5dcdfbfee3", "is_reserved": 0, "lon": -77.04424916666666, "is_disabled": 0, "fusion_lat": 0.0, "lat": 39.015675, "bike_id": "c1fa3e0c97c134af790cfb5dcdfbfee3", "fusion_lon": 0.0}, {"rental_uris": {"ios": "https://dc.lft.to/lastmile_qr_scan", "android": "https://dc.lft.to/lastmile_qr_scan"}, "type": "electric_scooter", "name": "dace4a79f4b5fbdc66b3b5fa8fddf8e3", "is_reserved": 0, "lon": -77.0269525, "is_disabled": 0, "fusion_lat": 0.0, "lat": 38.94982383333333, "bike_id": "dace4a79f4b5fbdc66b3b5fa8fddf8e3", "fusion_lon": 0.0}, {"rental_uris": {"ios": "https://dc.lft.to/lastmile_qr_scan", "android": "https://dc.lft.to/lastmile_qr_scan"}, "type": "electric_scooter", "name": "743a335da618076639ac09126fa662c7", "is_reserved": 0, "lon": -77.02785366666667, "is_disabled": 0, "fusion_lat": 0.0, "lat": 38.89227416666667, "bike_id": "743a335da618076639ac09126fa662c7", "fusion_lon": 0.0}, {"rental_uris": {"ios": "https://dc.lft.to/lastmile_qr_scan", "android": "https://dc.lft.to/lastmile_qr_scan"}, "type": "electric_scooter", "name": "f6553083f944dcf3e3b4f4ec3e5832bb", "is_reserved": 0, "lon": -77.063459, "is_disabled": 0, "fusion_lat": 0.0, "lat": 38.908510166666666, "bike_id": "f6553083f944dcf3e3b4f4ec3e5832bb", "fusion_lon": 0.0}, {"rental_uris": {"ios": "https://dc.lft.to/lastmile_qr_scan", "android": "https://dc.lft.to/lastmile_qr_scan"}, "type": "electric_scooter", "name": "d33482c84718cde1ca489e216583b9cc", "is_reserved": 0, "lon": -77.021262, "is_disabled": 0, "fusion_lat": 0.0, "lat": 38.923801166666664, "bike_id": "d33482c84718cde1ca489e216583b9cc", "fusion_lon": 0.0}, {"rental_uris": {"ios": "https://dc.lft.to/lastmile_qr_scan", "android": "https://dc.lft.to/lastmile_qr_scan"}, "type": "electric_bike", "name": "3ba2e161183e1936baacbccfec948d55", "is_reserved": 0, "lon": -77.10864666666667, "is_disabled": 0, "fusion_lat": 0.0, "lat": 38.935864333333335, "bike_id": "3ba2e161183e1936baacbccfec948d55", "fusion_lon": 0.0}, {"rental_uris": {"ios": "https://dc.lft.to/lastmile_qr_scan", "android": "https://dc.lft.to/lastmile_qr_scan"}, "type": "electric_scooter", "name": "7f146e8ecb76aadb4f2165812bd10f80", "is_reserved": 0, "lon": -77.03254583333333, "is_disabled": 0, "fusion_lat": 0.0, "lat": 38.89830966666667, "bike_id": "7f146e8ecb76aadb4f2165812bd10f80", "fusion_lon": 0.0}, {"rental_uris": {"ios": "https://dc.lft.to/lastmile_qr_scan", "android": "https://dc.lft.to/lastmile_qr_scan"}, "type": "electric_scooter", "name": "6d5bba3c29e51dcadddbbdbfc00fbb81", "is_reserved": 0, "lon": -77.02495, "is_disabled": 0, "fusion_lat": 0.0, "lat": 38.90646666666667, "bike_id": "6d5bba3c29e51dcadddbbdbfc00fbb81", "fusion_lon": 0.0}, {"rental_uris": {"ios": "https://dc.lft.to/lastmile_qr_scan", "android": "https://dc.lft.to/lastmile_qr_scan"}, "type": "electric_bike", "name": "b407fea60612cb429b4e53da49bf6ebd", "is_reserved": 0, "lon": -76.98286366666666, "is_disabled": 0, "fusion_lat": 0.0, "lat": 38.846844, "bike_id": "b407fea60612cb429b4e53da49bf6ebd", "fusion_lon": 0.0}, {"rental_uris": {"ios": "https://dc.lft.to/lastmile_qr_scan", "android": "https://dc.lft.to/lastmile_qr_scan"}, "type": "electric_scooter", "name": "75567819f7955fc91e3a6bdfd8937f27", "is_reserved": 0, "lon": -77.04890533333334, "is_disabled": 0, "fusion_lat": 0.0, "lat": 38.902908, "bike_id": "75567819f7955fc91e3a6bdfd8937f27", "fusion_lon": 0.0}, {"rental_uris": {"ios": "https://dc.lft.to/lastmile_qr_scan", "android": "https://dc.lft.to/lastmile_qr_scan"}, "type": "electric_bike", "name": "6146608536aefbaf7b8379f0f97adba7", "is_reserved": 0, "lon": -76.97572166666667, "is_disabled": 0, "fusion_lat": 0.0, "lat": 38.899524, "bike_id": "6146608536aefbaf7b8379f0f97adba7", "fusion_lon": 0.0}, {"rental_uris": {"ios": "https://dc.lft.to/lastmile_qr_scan", "android": "https://dc.lft.to/lastmile_qr_scan"}, "type": "electric_bike", "name": "34b846839e597d287735b4e238147416", "is_reserved": 0, "lon": -77.02031366666667, "is_disabled": 0, "fusion_lat": 0.0, "lat": 38.965609666666666, "bike_id": "34b846839e597d287735b4e238147416", "fusion_lon": 0.0}, {"rental_uris": {"ios": "https://dc.lft.to/lastmile_qr_scan", "android": "https://dc.lft.to/lastmile_qr_scan"}, "type": "electric_scooter", "name": "d2c264e056c1b9eb692092b2d97b9c74", "is_reserved": 0, "lon": -77.04537816666667, "is_disabled": 0, "fusion_lat": 0.0, "lat": 38.93277533333333, "bike_id": "d2c264e056c1b9eb692092b2d97b9c74", "fusion_lon": 0.0}, {"rental_uris": {"ios": "https://dc.lft.to/lastmile_qr_scan", "android": "https://dc.lft.to/lastmile_qr_scan"}, "type": "electric_scooter", "name": "c7ebec2500e5267d702b21c976b1b8e6", "is_reserved": 0, "lon": -77.0333715, "is_disabled": 0, "fusion_lat": 0.0, "lat": 38.972176166666664, "bike_id": "c7ebec2500e5267d702b21c976b1b8e6", "fusion_lon": 0.0}, {"rental_uris": {"ios": "https://dc.lft.to/lastmile_qr_scan", "android": "https://dc.lft.to/lastmile_qr_scan"}, "type": "electric_scooter", "name": "291f75ee3cbf206ba3ccf9be93716f87", "is_reserved": 0, "lon": -77.02238883333334, "is_disabled": 0, "fusion_lat": 0.0, "lat": 38.87823733333333, "bike_id": "291f75ee3cbf206ba3ccf9be93716f87", "fusion_lon": 0.0}, {"rental_uris": {"ios": "https://dc.lft.to/lastmile_qr_scan", "android": "https://dc.lft.to/lastmile_qr_scan"}, "type": "electric_scooter", "name": "0e7976482f6f5c0987fea0911f482730", "is_reserved": 0, "lon": -77.00780233333333, "is_disabled": 0, "fusion_lat": 0.0, "lat": 38.89738033333333, "bike_id": "0e7976482f6f5c0987fea0911f482730", "fusion_lon": 0.0}, {"rental_uris": {"ios": "https://dc.lft.to/lastmile_qr_scan", "android": "https://dc.lft.to/lastmile_qr_scan"}, "type": "electric_scooter", "name": "ae692ab5fc3e06683e43501ed237f153", "is_reserved": 0, "lon": -77.044061, "is_disabled": 0, "fusion_lat": 0.0, "lat": 38.929569, "bike_id": "ae692ab5fc3e06683e43501ed237f153", "fusion_lon": 0.0}, {"rental_uris": {"ios": "https://dc.lft.to/lastmile_qr_scan", "android": "https://dc.lft.to/lastmile_qr_scan"}, "type": "electric_scooter", "name": "60cce4daf0fcb8b19a7dfd731faddd3a", "is_reserved": 0, "lon": -77.01358833333333, "is_disabled": 0, "fusion_lat": 0.0, "lat": 38.89590116666667, "bike_id": "60cce4daf0fcb8b19a7dfd731faddd3a", "fusion_lon": 0.0}, {"rental_uris": {"ios": "https://dc.lft.to/lastmile_qr_scan", "android": "https://dc.lft.to/lastmile_qr_scan"}, "type": "electric_scooter", "name": "3c9f31faf418aba9d400773559bacf84", "is_reserved": 0, "lon": -77.04267183333333, "is_disabled": 0, "fusion_lat": 0.0, "lat": 38.90419716666667, "bike_id": "3c9f31faf418aba9d400773559bacf84", "fusion_lon": 0.0}, {"rental_uris": {"ios": "https://dc.lft.to/lastmile_qr_scan", "android": "https://dc.lft.to/lastmile_qr_scan"}, "type": "electric_scooter", "name": "759df8c337feeec4ba4f9bab52909072", "is_reserved": 0, "lon": -77.0305015, "is_disabled": 0, "fusion_lat": 0.0, "lat": 38.924755833333336, "bike_id": "759df8c337feeec4ba4f9bab52909072", "fusion_lon": 0.0}, {"rental_uris": {"ios": "https://dc.lft.to/lastmile_qr_scan", "android": "https://dc.lft.to/lastmile_qr_scan"}, "type": "electric_scooter", "name": "1721609a4491a93c6ed6928e26b9b73e", "is_reserved": 0, "lon": -76.9520405, "is_disabled": 0, "fusion_lat": 0.0, "lat": 38.905187833333336, "bike_id": "1721609a4491a93c6ed6928e26b9b73e", "fusion_lon": 0.0}, {"rental_uris": {"ios": "https://dc.lft.to/lastmile_qr_scan", "android": "https://dc.lft.to/lastmile_qr_scan"}, "type": "electric_scooter", "name": "fdbb8897170d8e1a60d82093662735f4", "is_reserved": 0, "lon": -77.055408, "is_disabled": 0, "fusion_lat": 0.0, "lat": 38.89979683333333, "bike_id": "fdbb8897170d8e1a60d82093662735f4", "fusion_lon": 0.0}, {"rental_uris": {"ios": "https://dc.lft.to/lastmile_qr_scan", "android": "https://dc.lft.to/lastmile_qr_scan"}, "type": "electric_scooter", "name": "14891a99cc2c423e1f47c53282c922c3", "is_reserved": 0, "lon": -77.02063816666667, "is_disabled": 0, "fusion_lat": 0.0, "lat": 38.92397616666667, "bike_id": "14891a99cc2c423e1f47c53282c922c3", "fusion_lon": 0.0}, {"rental_uris": {"ios": "https://dc.lft.to/lastmile_qr_scan", "android": "https://dc.lft.to/lastmile_qr_scan"}, "type": "electric_scooter", "name": "dc27e01a8047c021faa16345bfc2ac49", "is_reserved": 0, "lon": -77.02925633333334, "is_disabled": 0, "fusion_lat": 0.0, "lat": 38.899862166666665, "bike_id": "dc27e01a8047c021faa16345bfc2ac49", "fusion_lon": 0.0}, {"rental_uris": {"ios": "https://dc.lft.to/lastmile_qr_scan", "android": "https://dc.lft.to/lastmile_qr_scan"}, "type": "electric_scooter", "name": "bdd58ca0707b009c122afe1a36fbbe7d", "is_reserved": 0, "lon": -76.99933733333333, "is_disabled": 0, "fusion_lat": 0.0, "lat": 38.9576105, "bike_id": "bdd58ca0707b009c122afe1a36fbbe7d", "fusion_lon": 0.0}, {"rental_uris": {"ios": "https://dc.lft.to/lastmile_qr_scan", "android": "https://dc.lft.to/lastmile_qr_scan"}, "type": "electric_bike", "name": "e7241b86f82247f319444650ad069ed5", "is_reserved": 0, "lon": -76.93750533333333, "is_disabled": 0, "fusion_lat": 0.0, "lat": 38.87150333333334, "bike_id": "e7241b86f82247f319444650ad069ed5", "fusion_lon": 0.0}, {"rental_uris": {"ios": "https://dc.lft.to/lastmile_qr_scan", "android": "https://dc.lft.to/lastmile_qr_scan"}, "type": "electric_scooter", "name": "98b00009fe6985bb7d609061ef4f3095", "is_reserved": 0, "lon": -76.97274433333334, "is_disabled": 0, "fusion_lat": 0.0, "lat": 38.91783516666667, "bike_id": "98b00009fe6985bb7d609061ef4f3095", "fusion_lon": 0.0}, {"rental_uris": {"ios": "https://dc.lft.to/lastmile_qr_scan", "android": "https://dc.lft.to/lastmile_qr_scan"}, "type": "electric_scooter", "name": "5f9a32d3da929d0cb041276c5e8908b9", "is_reserved": 0, "lon": -77.04444516666666, "is_disabled": 0, "fusion_lat": 0.0, "lat": 38.901402, "bike_id": "5f9a32d3da929d0cb041276c5e8908b9", "fusion_lon": 0.0}, {"rental_uris": {"ios": "https://dc.lft.to/lastmile_qr_scan", "android": "https://dc.lft.to/lastmile_qr_scan"}, "type": "electric_bike", "name": "d86056ad6dfabbe553c93601e23e4f26", "is_reserved": 0, "lon": -76.98466633333334, "is_disabled": 0, "fusion_lat": 0.0, "lat": 38.909722, "bike_id": "d86056ad6dfabbe553c93601e23e4f26", "fusion_lon": 0.0}, {"rental_uris": {"ios": "https://dc.lft.to/lastmile_qr_scan", "android": "https://dc.lft.to/lastmile_qr_scan"}, "type": "electric_scooter", "name": "54456d9bc8b3df240bced30ab596b38f", "is_reserved": 0, "lon": -77.03783916666667, "is_disabled": 0, "fusion_lat": 0.0, "lat": 38.93973866666666, "bike_id": "54456d9bc8b3df240bced30ab596b38f", "fusion_lon": 0.0}, {"rental_uris": {"ios": "https://dc.lft.to/lastmile_qr_scan", "android": "https://dc.lft.to/lastmile_qr_scan"}, "type": "electric_scooter", "name": "7f75193bf04aa73d97dd39ba25ff55b5", "is_reserved": 0, "lon": -77.027017, "is_disabled": 0, "fusion_lat": 0.0, "lat": 38.89739733333333, "bike_id": "7f75193bf04aa73d97dd39ba25ff55b5", "fusion_lon": 0.0}, {"rental_uris": {"ios": "https://dc.lft.to/lastmile_qr_scan", "android": "https://dc.lft.to/lastmile_qr_scan"}, "type": "electric_scooter", "name": "9ff71442d4752c97c139ee53bc355d97", "is_reserved": 0, "lon": -77.00933683333334, "is_disabled": 0, "fusion_lat": 0.0, "lat": 38.89993916666667, "bike_id": "9ff71442d4752c97c139ee53bc355d97", "fusion_lon": 0.0}, {"rental_uris": {"ios": "https://dc.lft.to/lastmile_qr_scan", "android": "https://dc.lft.to/lastmile_qr_scan"}, "type": "electric_scooter", "name": "5711e8a8e096c6e6eb89f062b8fe37bf", "is_reserved": 0, "lon": -77.03924133333334, "is_disabled": 0, "fusion_lat": 0.0, "lat": 38.8986345, "bike_id": "5711e8a8e096c6e6eb89f062b8fe37bf", "fusion_lon": 0.0}, {"rental_uris": {"ios": "https://dc.lft.to/lastmile_qr_scan", "android": "https://dc.lft.to/lastmile_qr_scan"}, "type": "electric_scooter", "name": "a2ea85aae6aba9d6c3a54a5b1c0cc0dc", "is_reserved": 0, "lon": -77.0469365, "is_disabled": 0, "fusion_lat": 0.0, "lat": 38.921684, "bike_id": "a2ea85aae6aba9d6c3a54a5b1c0cc0dc", "fusion_lon": 0.0}, {"rental_uris": {"ios": "https://dc.lft.to/lastmile_qr_scan", "android": "https://dc.lft.to/lastmile_qr_scan"}, "type": "electric_scooter", "name": "2a99390369d99d8cf5bd920a4bfd3fab", "is_reserved": 0, "lon": -77.02680933333333, "is_disabled": 0, "fusion_lat": 0.0, "lat": 38.902451666666664, "bike_id": "2a99390369d99d8cf5bd920a4bfd3fab", "fusion_lon": 0.0}, {"rental_uris": {"ios": "https://dc.lft.to/lastmile_qr_scan", "android": "https://dc.lft.to/lastmile_qr_scan"}, "type": "electric_scooter", "name": "60f10d868edba810f3c4dc9c229a4422", "is_reserved": 0, "lon": -77.025178, "is_disabled": 0, "fusion_lat": 0.0, "lat": 38.940115166666665, "bike_id": "60f10d868edba810f3c4dc9c229a4422", "fusion_lon": 0.0}, {"rental_uris": {"ios": "https://dc.lft.to/lastmile_qr_scan", "android": "https://dc.lft.to/lastmile_qr_scan"}, "type": "electric_scooter", "name": "cded773399710d8e2d3560e09d3fd188", "is_reserved": 0, "lon": -77.00377033333334, "is_disabled": 0, "fusion_lat": 0.0, "lat": 38.89902633333333, "bike_id": "cded773399710d8e2d3560e09d3fd188", "fusion_lon": 0.0}, {"rental_uris": {"ios": "https://dc.lft.to/lastmile_qr_scan", "android": "https://dc.lft.to/lastmile_qr_scan"}, "type": "electric_scooter", "name": "ce15a590cb6ed74896830e967e38b727", "is_reserved": 0, "lon": -77.03136783333333, "is_disabled": 0, "fusion_lat": 0.0, "lat": 38.92379016666667, "bike_id": "ce15a590cb6ed74896830e967e38b727", "fusion_lon": 0.0}, {"rental_uris": {"ios": "https://dc.lft.to/lastmile_qr_scan", "android": "https://dc.lft.to/lastmile_qr_scan"}, "type": "electric_scooter", "name": "027a93b8368b47d43c89a4e1425f3f2c", "is_reserved": 0, "lon": -77.03215983333334, "is_disabled": 0, "fusion_lat": 0.0, "lat": 38.892435166666665, "bike_id": "027a93b8368b47d43c89a4e1425f3f2c", "fusion_lon": 0.0}, {"rental_uris": {"ios": "https://dc.lft.to/lastmile_qr_scan", "android": "https://dc.lft.to/lastmile_qr_scan"}, "type": "electric_scooter", "name": "26be9198220a568d971a99f9c3502268", "is_reserved": 0, "lon": -77.0322495, "is_disabled": 0, "fusion_lat": 0.0, "lat": 38.90719, "bike_id": "26be9198220a568d971a99f9c3502268", "fusion_lon": 0.0}, {"rental_uris": {"ios": "https://dc.lft.to/lastmile_qr_scan", "android": "https://dc.lft.to/lastmile_qr_scan"}, "type": "electric_scooter", "name": "58514dcc75ef9af6a5c74b8cb027fb69", "is_reserved": 0, "lon": -76.99099633333333, "is_disabled": 0, "fusion_lat": 0.0, "lat": 38.857344499999996, "bike_id": "58514dcc75ef9af6a5c74b8cb027fb69", "fusion_lon": 0.0}, {"rental_uris": {"ios": "https://dc.lft.to/lastmile_qr_scan", "android": "https://dc.lft.to/lastmile_qr_scan"}, "type": "electric_scooter", "name": "fb126be6be433ef960e14df75c4c8c57", "is_reserved": 0, "lon": -77.03935466666667, "is_disabled": 0, "fusion_lat": 0.0, "lat": 38.914185, "bike_id": "fb126be6be433ef960e14df75c4c8c57", "fusion_lon": 0.0}, {"rental_uris": {"ios": "https://dc.lft.to/lastmile_qr_scan", "android": "https://dc.lft.to/lastmile_qr_scan"}, "type": "electric_scooter", "name": "07d79f18631f297f52f8014453bea1f5", "is_reserved": 0, "lon": -77.04368683333334, "is_disabled": 0, "fusion_lat": 0.0, "lat": 38.89226983333333, "bike_id": "07d79f18631f297f52f8014453bea1f5", "fusion_lon": 0.0}, {"rental_uris": {"ios": "https://dc.lft.to/lastmile_qr_scan", "android": "https://dc.lft.to/lastmile_qr_scan"}, "type": "electric_scooter", "name": "afcbb5656f4cfe5f328e63bf9aea6907", "is_reserved": 0, "lon": -77.02921016666667, "is_disabled": 0, "fusion_lat": 0.0, "lat": 38.9247375, "bike_id": "afcbb5656f4cfe5f328e63bf9aea6907", "fusion_lon": 0.0}, {"rental_uris": {"ios": "https://dc.lft.to/lastmile_qr_scan", "android": "https://dc.lft.to/lastmile_qr_scan"}, "type": "electric_scooter", "name": "df21daf22d91c7f5a454db829f6fdfb9", "is_reserved": 0, "lon": -77.04187166666667, "is_disabled": 0, "fusion_lat": 0.0, "lat": 38.91129166666666, "bike_id": "df21daf22d91c7f5a454db829f6fdfb9", "fusion_lon": 0.0}, {"rental_uris": {"ios": "https://dc.lft.to/lastmile_qr_scan", "android": "https://dc.lft.to/lastmile_qr_scan"}, "type": "electric_scooter", "name": "6c1ffe6ef86e51e69f4575178eebbe2b", "is_reserved": 0, "lon": -76.98891083333334, "is_disabled": 0, "fusion_lat": 0.0, "lat": 38.8995975, "bike_id": "6c1ffe6ef86e51e69f4575178eebbe2b", "fusion_lon": 0.0}, {"rental_uris": {"ios": "https://dc.lft.to/lastmile_qr_scan", "android": "https://dc.lft.to/lastmile_qr_scan"}, "type": "electric_scooter", "name": "c559b4c2cc811e72596f113609a0986c", "is_reserved": 0, "lon": -77.02227716666667, "is_disabled": 0, "fusion_lat": 0.0, "lat": 38.89223066666667, "bike_id": "c559b4c2cc811e72596f113609a0986c", "fusion_lon": 0.0}, {"rental_uris": {"ios": "https://dc.lft.to/lastmile_qr_scan", "android": "https://dc.lft.to/lastmile_qr_scan"}, "type": "electric_scooter", "name": "42cbdacf4e94da96c4336929b3ee6391", "is_reserved": 0, "lon": -77.01574766666667, "is_disabled": 0, "fusion_lat": 0.0, "lat": 38.9024665, "bike_id": "42cbdacf4e94da96c4336929b3ee6391", "fusion_lon": 0.0}, {"rental_uris": {"ios": "https://dc.lft.to/lastmile_qr_scan", "android": "https://dc.lft.to/lastmile_qr_scan"}, "type": "electric_scooter", "name": "f0c95b6b5e382e544688bd4a75003dae", "is_reserved": 0, "lon": -77.04518566666667, "is_disabled": 0, "fusion_lat": 0.0, "lat": 38.909740666666664, "bike_id": "f0c95b6b5e382e544688bd4a75003dae", "fusion_lon": 0.0}, {"rental_uris": {"ios": "https://dc.lft.to/lastmile_qr_scan", "android": "https://dc.lft.to/lastmile_qr_scan"}, "type": "electric_scooter", "name": "8de2fe6bcba1806c95a3ebdd5d6d7103", "is_reserved": 0, "lon": -77.00753516666667, "is_disabled": 0, "fusion_lat": 0.0, "lat": 38.87756866666667, "bike_id": "8de2fe6bcba1806c95a3ebdd5d6d7103", "fusion_lon": 0.0}, {"rental_uris": {"ios": "https://dc.lft.to/lastmile_qr_scan", "android": "https://dc.lft.to/lastmile_qr_scan"}, "type": "electric_bike", "name": "1dd7431e3b8f26d5131bb09ba5fd2296", "is_reserved": 0, "lon": -76.94155616666667, "is_disabled": 0, "fusion_lat": 0.0, "lat": 38.8902475, "bike_id": "1dd7431e3b8f26d5131bb09ba5fd2296", "fusion_lon": 0.0}, {"rental_uris": {"ios": "https://dc.lft.to/lastmile_qr_scan", "android": "https://dc.lft.to/lastmile_qr_scan"}, "type": "electric_scooter", "name": "2c96b51aef77c41fd19ac83316ebe562", "is_reserved": 0, "lon": -77.006033, "is_disabled": 0, "fusion_lat": 0.0, "lat": 38.905689833333334, "bike_id": "2c96b51aef77c41fd19ac83316ebe562", "fusion_lon": 0.0}, {"rental_uris": {"ios": "https://dc.lft.to/lastmile_qr_scan", "android": "https://dc.lft.to/lastmile_qr_scan"}, "type": "electric_scooter", "name": "e05bb5358eed17540f698dca1a20ecc4", "is_reserved": 0, "lon": -76.98953383333334, "is_disabled": 0, "fusion_lat": 0.0, "lat": 38.86561916666667, "bike_id": "e05bb5358eed17540f698dca1a20ecc4", "fusion_lon": 0.0}, {"rental_uris": {"ios": "https://dc.lft.to/lastmile_qr_scan", "android": "https://dc.lft.to/lastmile_qr_scan"}, "type": "electric_scooter", "name": "47b0f7f515f140c737bd9eb26c1b35fb", "is_reserved": 0, "lon": -77.026648, "is_disabled": 0, "fusion_lat": 0.0, "lat": 38.90273783333333, "bike_id": "47b0f7f515f140c737bd9eb26c1b35fb", "fusion_lon": 0.0}, {"rental_uris": {"ios": "https://dc.lft.to/lastmile_qr_scan", "android": "https://dc.lft.to/lastmile_qr_scan"}, "type": "electric_scooter", "name": "bc7887ab615028e5a3bda56a17fd3d15", "is_reserved": 0, "lon": -77.02001433333334, "is_disabled": 0, "fusion_lat": 0.0, "lat": 38.930870666666664, "bike_id": "bc7887ab615028e5a3bda56a17fd3d15", "fusion_lon": 0.0}, {"rental_uris": {"ios": "https://dc.lft.to/lastmile_qr_scan", "android": "https://dc.lft.to/lastmile_qr_scan"}, "type": "electric_scooter", "name": "7db479327853011223694bff8c4d84c5", "is_reserved": 0, "lon": -77.01320416666667, "is_disabled": 0, "fusion_lat": 0.0, "lat": 38.9203345, "bike_id": "7db479327853011223694bff8c4d84c5", "fusion_lon": 0.0}, {"rental_uris": {"ios": "https://dc.lft.to/lastmile_qr_scan", "android": "https://dc.lft.to/lastmile_qr_scan"}, "type": "electric_scooter", "name": "25a6b2aa6fd7ce36e372022accf29787", "is_reserved": 0, "lon": -77.05002466666667, "is_disabled": 0, "fusion_lat": 0.0, "lat": 38.892287333333336, "bike_id": "25a6b2aa6fd7ce36e372022accf29787", "fusion_lon": 0.0}, {"rental_uris": {"ios": "https://dc.lft.to/lastmile_qr_scan", "android": "https://dc.lft.to/lastmile_qr_scan"}, "type": "electric_bike", "name": "47636339c1860e0740130e8174a3b159", "is_reserved": 0, "lon": -76.94537883333334, "is_disabled": 0, "fusion_lat": 0.0, "lat": 38.8676055, "bike_id": "47636339c1860e0740130e8174a3b159", "fusion_lon": 0.0}, {"rental_uris": {"ios": "https://dc.lft.to/lastmile_qr_scan", "android": "https://dc.lft.to/lastmile_qr_scan"}, "type": "electric_scooter", "name": "2c8de7096720b5445e05441a7a5c0048", "is_reserved": 0, "lon": -77.03330283333334, "is_disabled": 0, "fusion_lat": 0.0, "lat": 38.92857516666667, "bike_id": "2c8de7096720b5445e05441a7a5c0048", "fusion_lon": 0.0}, {"rental_uris": {"ios": "https://dc.lft.to/lastmile_qr_scan", "android": "https://dc.lft.to/lastmile_qr_scan"}, "type": "electric_scooter", "name": "2de5924f500507c5e44e5cbee45fc5df", "is_reserved": 0, "lon": -76.99946033333333, "is_disabled": 0, "fusion_lat": 0.0, "lat": 38.90063133333334, "bike_id": "2de5924f500507c5e44e5cbee45fc5df", "fusion_lon": 0.0}, {"rental_uris": {"ios": "https://dc.lft.to/lastmile_qr_scan", "android": "https://dc.lft.to/lastmile_qr_scan"}, "type": "electric_scooter", "name": "b0b395c2bd52e68c10eec08cd53cacae", "is_reserved": 0, "lon": -76.9874535, "is_disabled": 0, "fusion_lat": 0.0, "lat": 38.87842783333333, "bike_id": "b0b395c2bd52e68c10eec08cd53cacae", "fusion_lon": 0.0}, {"rental_uris": {"ios": "https://dc.lft.to/lastmile_qr_scan", "android": "https://dc.lft.to/lastmile_qr_scan"}, "type": "electric_scooter", "name": "4568b6b9f71a1d05743a8ac58202ba09", "is_reserved": 0, "lon": -77.033347, "is_disabled": 0, "fusion_lat": 0.0, "lat": 38.925428, "bike_id": "4568b6b9f71a1d05743a8ac58202ba09", "fusion_lon": 0.0}, {"rental_uris": {"ios": "https://dc.lft.to/lastmile_qr_scan", "android": "https://dc.lft.to/lastmile_qr_scan"}, "type": "electric_scooter", "name": "4a1b4c728d2147befe6ab59950cfcbaf", "is_reserved": 0, "lon": -77.06987233333334, "is_disabled": 0, "fusion_lat": 0.0, "lat": 38.89384716666667, "bike_id": "4a1b4c728d2147befe6ab59950cfcbaf", "fusion_lon": 0.0}, {"rental_uris": {"ios": "https://dc.lft.to/lastmile_qr_scan", "android": "https://dc.lft.to/lastmile_qr_scan"}, "type": "electric_bike", "name": "0548b312fa7b5b984f16edc8251ec053", "is_reserved": 0, "lon": -77.00134083333333, "is_disabled": 0, "fusion_lat": 0.0, "lat": 38.99503216666667, "bike_id": "0548b312fa7b5b984f16edc8251ec053", "fusion_lon": 0.0}, {"rental_uris": {"ios": "https://dc.lft.to/lastmile_qr_scan", "android": "https://dc.lft.to/lastmile_qr_scan"}, "type": "electric_scooter", "name": "9f84d4f2260dda5ff6a33f21110efcdb", "is_reserved": 0, "lon": -76.9979215, "is_disabled": 0, "fusion_lat": 0.0, "lat": 38.87632333333333, "bike_id": "9f84d4f2260dda5ff6a33f21110efcdb", "fusion_lon": 0.0}, {"rental_uris": {"ios": "https://dc.lft.to/lastmile_qr_scan", "android": "https://dc.lft.to/lastmile_qr_scan"}, "type": "electric_scooter", "name": "c7c162d0d620d74aca77c83e2645011c", "is_reserved": 0, "lon": -77.03222966666667, "is_disabled": 0, "fusion_lat": 0.0, "lat": 38.90871633333333, "bike_id": "c7c162d0d620d74aca77c83e2645011c", "fusion_lon": 0.0}, {"rental_uris": {"ios": "https://dc.lft.to/lastmile_qr_scan", "android": "https://dc.lft.to/lastmile_qr_scan"}, "type": "electric_scooter", "name": "cc39ba1a64ee7ede3fe634b4dbb068e2", "is_reserved": 0, "lon": -77.07763716666666, "is_disabled": 0, "fusion_lat": 0.0, "lat": 38.925577, "bike_id": "cc39ba1a64ee7ede3fe634b4dbb068e2", "fusion_lon": 0.0}, {"rental_uris": {"ios": "https://dc.lft.to/lastmile_qr_scan", "android": "https://dc.lft.to/lastmile_qr_scan"}, "type": "electric_scooter", "name": "830772db4309294d978d6ff011c1296c", "is_reserved": 0, "lon": -77.02223333333333, "is_disabled": 0, "fusion_lat": 0.0, "lat": 38.9247285, "bike_id": "830772db4309294d978d6ff011c1296c", "fusion_lon": 0.0}, {"rental_uris": {"ios": "https://dc.lft.to/lastmile_qr_scan", "android": "https://dc.lft.to/lastmile_qr_scan"}, "type": "electric_bike", "name": "ba31090ebd29e49b19d15092104b090d", "is_reserved": 0, "lon": -76.95801383333334, "is_disabled": 0, "fusion_lat": 0.0, "lat": 38.980469166666666, "bike_id": "ba31090ebd29e49b19d15092104b090d", "fusion_lon": 0.0}, {"rental_uris": {"ios": "https://dc.lft.to/lastmile_qr_scan", "android": "https://dc.lft.to/lastmile_qr_scan"}, "type": "electric_scooter", "name": "e75d16227470dbd181b52406d195f3e1", "is_reserved": 0, "lon": -77.0418735, "is_disabled": 0, "fusion_lat": 0.0, "lat": 38.920511, "bike_id": "e75d16227470dbd181b52406d195f3e1", "fusion_lon": 0.0}, {"rental_uris": {"ios": "https://dc.lft.to/lastmile_qr_scan", "android": "https://dc.lft.to/lastmile_qr_scan"}, "type": "electric_scooter", "name": "5318da5e47c4c8ebe4df0a86854bb8b9", "is_reserved": 0, "lon": -76.97567533333333, "is_disabled": 0, "fusion_lat": 0.0, "lat": 38.94425233333333, "bike_id": "5318da5e47c4c8ebe4df0a86854bb8b9", "fusion_lon": 0.0}, {"rental_uris": {"ios": "https://dc.lft.to/lastmile_qr_scan", "android": "https://dc.lft.to/lastmile_qr_scan"}, "type": "electric_scooter", "name": "7f6226b683d850477c4a718cdaebc82b", "is_reserved": 0, "lon": -77.029244, "is_disabled": 0, "fusion_lat": 0.0, "lat": 38.90914133333333, "bike_id": "7f6226b683d850477c4a718cdaebc82b", "fusion_lon": 0.0}, {"rental_uris": {"ios": "https://dc.lft.to/lastmile_qr_scan", "android": "https://dc.lft.to/lastmile_qr_scan"}, "type": "electric_scooter", "name": "760b8a87ed89418986d82115b6d00c76", "is_reserved": 0, "lon": -77.02625333333333, "is_disabled": 0, "fusion_lat": 0.0, "lat": 38.9030365, "bike_id": "760b8a87ed89418986d82115b6d00c76", "fusion_lon": 0.0}, {"rental_uris": {"ios": "https://dc.lft.to/lastmile_qr_scan", "android": "https://dc.lft.to/lastmile_qr_scan"}, "type": "electric_scooter", "name": "eb3f2f1b9d87a33f9c5efb16d24cebfd", "is_reserved": 0, "lon": -77.0274125, "is_disabled": 0, "fusion_lat": 0.0, "lat": 38.9058195, "bike_id": "eb3f2f1b9d87a33f9c5efb16d24cebfd", "fusion_lon": 0.0}, {"rental_uris": {"ios": "https://dc.lft.to/lastmile_qr_scan", "android": "https://dc.lft.to/lastmile_qr_scan"}, "type": "electric_scooter", "name": "bcaad59a08e47d6fb3c3c444a7a3bd7c", "is_reserved": 0, "lon": -77.00951683333334, "is_disabled": 0, "fusion_lat": 0.0, "lat": 38.895024, "bike_id": "bcaad59a08e47d6fb3c3c444a7a3bd7c", "fusion_lon": 0.0}, {"rental_uris": {"ios": "https://dc.lft.to/lastmile_qr_scan", "android": "https://dc.lft.to/lastmile_qr_scan"}, "type": "electric_scooter", "name": "0c1a171291c32c484f69ef6ccc275c7e", "is_reserved": 0, "lon": -77.04880283333334, "is_disabled": 0, "fusion_lat": 0.0, "lat": 38.900664166666665, "bike_id": "0c1a171291c32c484f69ef6ccc275c7e", "fusion_lon": 0.0},