{"data": {"bikes": [{"lon": -77.006405, "rental_uris": {"android": "https://dc.lft.to/lastmile_qr_scan", "ios": "https://dc.lft.to/lastmile_qr_scan"}, "fusion_lon": 0.0, "is_reserved": 0, "is_disabled": 0, "fusion_lat": 0.0, "type": "electric_scooter", "name": "b397df2ccc54f873c929552123b61bf6", "lat": 38.8718375, "bike_id": "b397df2ccc54f873c929552123b61bf6"}, {"lon": -77.02282516666666, "rental_uris": {"android": "https://dc.lft.to/lastmile_qr_scan", "ios": "https://dc.lft.to/lastmile_qr_scan"}, "fusion_lon": 0.0, "is_reserved": 0, "is_disabled": 0, "fusion_lat": 0.0, "type": "electric_scooter", "name": "26496ec41b5a71e85476e47cb9ca2c56", "lat": 38.914528833333335, "bike_id": "26496ec41b5a71e85476e47cb9ca2c56"}, {"lon": -77.00767716666667, "rental_uris": {"android": "https://dc.lft.to/lastmile_qr_scan", "ios": "https://dc.lft.to/lastmile_qr_scan"}, "fusion_lon": 0.0, "is_reserved": 0, "is_disabled": 0, "fusion_lat": 0.0, "type": "electric_scooter", "name": "971bd61c733aa18795464c9a48df058a", "lat": 38.8792975, "bike_id": "971bd61c733aa18795464c9a48df058a"}, {"lon": -77.00029233333333, "rental_uris": {"android": "https://dc.lft.to/lastmile_qr_scan", "ios": "https://dc.lft.to/lastmile_qr_scan"}, "fusion_lon": 0.0, "is_reserved": 0, "is_disabled": 0, "fusion_lat": 0.0, "type": "electric_scooter", "name": "3628d0ee6dfb92cabf2a675408c188ba", "lat": 38.87483783333333, "bike_id": "3628d0ee6dfb92cabf2a675408c188ba"}, {"lon": -77.01924716666667, "rental_uris": {"android": "https://dc.lft.to/lastmile_qr_scan", "ios": "https://dc.lft.to/lastmile_qr_scan"}, "fusion_lon": 0.0, "is_reserved": 0, "is_disabled": 0, "fusion_lat": 0.0, "type": "electric_scooter", "name": "c0902a17fc90e356fe9df6973a73caf0", "lat": 38.89912866666667, "bike_id": "c0902a17fc90e356fe9df6973a73caf0"}, {"lon": -77.0033035, "rental_uris": {"android": "https://dc.lft.to/lastmile_qr_scan", "ios": "https://dc.lft.to/lastmile_qr_scan"}, "fusion_lon": 0.0, "is_reserved": 0, "is_disabled": 0, "fusion_lat": 0.0, "type": "electric_scooter", "name": "c1f36fda4453d84e74eaa6dc75353193", "lat": 38.893539833333335, "bike_id": "c1f36fda4453d84e74eaa6dc75353193"}, {"lon": -77.03333283333333, "rental_uris": {"android": "https://dc.lft.to/lastmile_qr_scan", "ios": "https://dc.lft.to/lastmile_qr_scan"}, "fusion_lon": 0.0, "is_reserved": 0, "is_disabled": 0, "fusion_lat": 0.0, "type": "electric_scooter", "name": "6eaafeff998d38c5f9f6ba8d059d228f", "lat": 38.9721255, "bike_id": "6eaafeff998d38c5f9f6ba8d059d228f"}, {"lon": -76.95228466666667, "rental_uris": {"android": "https://dc.lft.to/lastmile_qr_scan", "ios": "https://dc.lft.to/lastmile_qr_scan"}, "fusion_lon": 0.0, "is_reserved": 0, "is_disabled": 0, "fusion_lat": 0.0, "type": "electric_scooter", "name": "384aee494ab08742d6a445379842be1a", "lat": 38.89346, "bike_id": "384aee494ab08742d6a445379842be1a"}, {"lon": -76.99253216666666, "rental_uris": {"android": "https://dc.lft.to/lastmile_qr_scan", "ios": "https://dc.lft.to/lastmile_qr_scan"}, "fusion_lon": 0.0, "is_reserved": 0, "is_disabled": 0, "fusion_lat": 0.0, "type": "electric_scooter", "name": "cf4907c1fc9c1c454ab390147cca356c", "lat": 38.902969166666665, "bike_id": "cf4907c1fc9c1c454ab390147cca356c"}, {"lon": -77.0590135, "rental_uris": {"android": "https://dc.lft.to/lastmile_qr_scan", "ios": "https://dc.lft.to/lastmile_qr_scan"}, "fusion_lon": 0.0, "is_reserved": 0, "is_disabled": 0, "fusion_lat": 0.0, "type": "electric_bike", "name": "099911b41becab703c0543e9245d5001", "lat": 38.900832666666666, "bike_id": "099911b41becab703c0543e9245d5001"}, {"lon": -77.04736016666666, "rental_uris": {"android": "https://dc.lft.to/lastmile_qr_scan", "ios": "https://dc.lft.to/lastmile_qr_scan"}, "fusion_lon": 0.0, "is_reserved": 0, "is_disabled": 0, "fusion_lat": 0.0, "type": "electric_scooter", "name": "f394be2138dfb45d31aa2c14a38af3b1", "lat": 38.905394666666666, "bike_id": "f394be2138dfb45d31aa2c14a38af3b1"}, {"lon": -77.03583466666667, "rental_uris": {"android": "https://dc.lft.to/lastmile_qr_scan", "ios": "https://dc.lft.to/lastmile_qr_scan"}, "fusion_lon": 0.0, "is_reserved": 0, "is_disabled": 0, "fusion_lat": 0.0, "type": "electric_scooter", "name": "bfcfa8192ca2b5308fb928728065ae06", "lat": 38.9262695, "bike_id": "bfcfa8192ca2b5308fb928728065ae06"}, {"lon": -77.06247333333333, "rental_uris": {"android": "https://dc.lft.to/lastmile_qr_scan", "ios": "https://dc.lft.to/lastmile_qr_scan"}, "fusion_lon": 0.0, "is_reserved": 0, "is_disabled": 0, "fusion_lat": 0.0, "type": "electric_scooter", "name": "3cd84f1437bdafc1e964ab321927c2f6", "lat": 38.92076266666667, "bike_id": "3cd84f1437bdafc1e964ab321927c2f6"}, {"lon": -76.98819683333333, "rental_uris": {"android": "https://dc.lft.to/lastmile_qr_scan", "ios": "https://dc.lft.to/lastmile_qr_scan"}, "fusion_lon": 0.0, "is_reserved": 0, "is_disabled": 0, "fusion_lat": 0.0, "type": "electric_bike", "name": "474d36181600187c5ee2bd35201eaa0b", "lat": 38.84282616666667, "bike_id": "474d36181600187c5ee2bd35201eaa0b"}, {"lon": -77.10608333333333, "rental_uris": {"android": "https://dc.lft.to/lastmile_qr_scan", "ios": "https://dc.lft.to/lastmile_qr_scan"}, "fusion_lon": 0.0, "is_reserved": 0, "is_disabled": 0, "fusion_lat": 0.0, "type": "electric_bike", "name": "b7f6b9a5d246dff031092882804f5665", "lat": 38.93567633333333, "bike_id": "b7f6b9a5d246dff031092882804f5665"}, {"lon": -76.98294250000001, "rental_uris": {"android": "https://dc.lft.to/lastmile_qr_scan", "ios": "https://dc.lft.to/lastmile_qr_scan"}, "fusion_lon": 0.0, "is_reserved": 0, "is_disabled": 0, "fusion_lat": 0.0, "type": "electric_scooter", "name": "0e20db03bb842fec9b4186570facade3", "lat": 38.8876305, "bike_id": "0e20db03bb842fec9b4186570facade3"}, {"lon": -77.02476116666666, "rental_uris": {"android": "https://dc.lft.to/lastmile_qr_scan", "ios": "https://dc.lft.to/lastmile_qr_scan"}, "fusion_lon": 0.0, "is_reserved": 0, "is_disabled": 0, "fusion_lat": 0.0, "type": "electric_scooter", "name": "901fee330d33240b0d97807d9e109d72", "lat": 38.91816, "bike_id": "901fee330d33240b0d97807d9e109d72"}, {"lon": -77.04176816666667, "rental_uris": {"android": "https://dc.lft.to/lastmile_qr_scan", "ios": "https://dc.lft.to/lastmile_qr_scan"}, "fusion_lon": 0.0, "is_reserved": 0, "is_disabled": 0, "fusion_lat": 0.0, "type": "electric_scooter", "name": "076e2447d4191be678928916b2ed92b9", "lat": 38.8978785, "bike_id": "076e2447d4191be678928916b2ed92b9"}, {"lon": -77.03576316666667, "rental_uris": {"android": "https://dc.lft.to/lastmile_qr_scan", "ios": "https://dc.lft.to/lastmile_qr_scan"}, "fusion_lon": 0.0, "is_reserved": 0, "is_disabled": 0, "fusion_lat": 0.0, "type": "electric_scooter", "name": "2b9870110b0702795bd250633c2d3b8e", "lat": 38.90745916666667, "bike_id": "2b9870110b0702795bd250633c2d3b8e"}, {"lon": -77.04374366666667, "rental_uris": {"android": "https://dc.lft.to/lastmile_qr_scan", "ios": "https://dc.lft.to/lastmile_qr_scan"}, "fusion_lon": 0.0, "is_reserved": 0, "is_disabled": 0, "fusion_lat": 0.0, "type": "electric_scooter", "name": "eda3dcbcfb9a01c91bdba8545834f01c", "lat": 38.90149816666667, "bike_id": "eda3dcbcfb9a01c91bdba8545834f01c"}, {"lon": -77.01476716666667, "rental_uris": {"android": "https://dc.lft.to/lastmile_qr_scan", "ios": "https://dc.lft.to/lastmile_qr_scan"}, "fusion_lon": 0.0, "is_reserved": 0, "is_disabled": 0, "fusion_lat": 0.0, "type": "electric_scooter", "name": "779ba932f879b96dadb4bfe98cd3f8c0", "lat": 38.915944, "bike_id": "779ba932f879b96dadb4bfe98cd3f8c0"}, {"lon": -77.03267233333334, "rental_uris": {"android": "https://dc.lft.to/lastmile_qr_scan", "ios": "https://dc.lft.to/lastmile_qr_scan"}, "fusion_lon": 0.0, "is_reserved": 0, "is_disabled": 0, "fusion_lat": 0.0, "type": "electric_scooter", "name": "04d961c87320607501feb7a928d78d95", "lat": 38.92984783333333, "bike_id": "04d961c87320607501feb7a928d78d95"}, {"lon": -77.029396, "rental_uris": {"android": "https://dc.lft.to/lastmile_qr_scan", "ios": "https://dc.lft.to/lastmile_qr_scan"}, "fusion_lon": 0.0, "is_reserved": 0, "is_disabled": 0, "fusion_lat": 0.0, "type": "electric_scooter", "name": "7ae1a6c53e2adabd74e0f3e1274e0c35", "lat": 38.899344166666666, "bike_id": "7ae1a6c53e2adabd74e0f3e1274e0c35"}, {"lon": -77.0793795, "rental_uris": {"android": "https://dc.lft.to/lastmile_qr_scan", "ios": "https://dc.lft.to/lastmile_qr_scan"}, "fusion_lon": 0.0, "is_reserved": 0, "is_disabled": 0, "fusion_lat": 0.0, "type": "electric_scooter", "name": "d451ece19d72bb523cde7db47c0f72bd", "lat": 38.9192355, "bike_id": "d451ece19d72bb523cde7db47c0f72bd"}, {"lon": -77.033872, "rental_uris": {"android": "https://dc.lft.to/lastmile_qr_scan", "ios": "https://dc.lft.to/lastmile_qr_scan"}, "fusion_lon": 0.0, "is_reserved": 0, "is_disabled": 0, "fusion_lat": 0.0, "type": "electric_scooter", "name": "4bce324e66d5ccfe257cba2617b4fae6", "lat": 38.886605333333335, "bike_id": "4bce324e66d5ccfe257cba2617b4fae6"}, {"lon": -77.0232395, "rental_uris": {"android": "https://dc.lft.to/lastmile_qr_scan", "ios": "https://dc.lft.to/lastmile_qr_scan"}, "fusion_lon": 0.0, "is_reserved": 0, "is_disabled": 0, "fusion_lat": 0.0, "type": "electric_scooter", "name": "a216c19cd908ddd07980ea6cf17adec4", "lat": 38.92298383333333, "bike_id": "a216c19cd908ddd07980ea6cf17adec4"}, {"lon": -77.021637, "rental_uris": {"android": "https://dc.lft.to/lastmile_qr_scan", "ios": "https://dc.lft.to/lastmile_qr_scan"}, "fusion_lon": 0.0, "is_reserved": 0, "is_disabled": 0, "fusion_lat": 0.0, "type": "electric_scooter", "name": "8ae10bc5755943b677b6138a9c7ab427", "lat": 38.942918, "bike_id": "8ae10bc5755943b677b6138a9c7ab427"}, {"lon": -77.01977983333333, "rental_uris": {"android": "https://dc.lft.to/lastmile_qr_scan", "ios": "https://dc.lft.to/lastmile_qr_scan"}, "fusion_lon": 0.0, "is_reserved": 0, "is_disabled": 0, "fusion_lat": 0.0, "type": "electric_scooter", "name": "235cdb150b8e57d1290855255a2b36c1", "lat": 38.91197116666667, "bike_id": "235cdb150b8e57d1290855255a2b36c1"}, {"lon": -76.9949975, "rental_uris": {"android": "https://dc.lft.to/lastmile_qr_scan", "ios": "https://dc.lft.to/lastmile_qr_scan"}, "fusion_lon": 0.0, "is_reserved": 0, "is_disabled": 0, "fusion_lat": 0.0, "type": "electric_scooter", "name": "91fcbb3fa71e6cf50e729d2d5c37f5ef", "lat": 38.904686833333336, "bike_id": "91fcbb3fa71e6cf50e729d2d5c37f5ef"}, {"lon": -77.01820733333334, "rental_uris": {"android": "https://dc.lft.to/lastmile_qr_scan", "ios": "https://dc.lft.to/lastmile_qr_scan"}, "fusion_lon": 0.0, "is_reserved": 0, "is_disabled": 0, "fusion_lat": 0.0, "type": "electric_scooter", "name": "51bac1695a695640b1fb468ec81004e2", "lat": 38.9223825, "bike_id": "51bac1695a695640b1fb468ec81004e2"}, {"lon": -77.02309066666666, "rental_uris": {"android": "https://dc.lft.to/lastmile_qr_scan", "ios": "https://dc.lft.to/lastmile_qr_scan"}, "fusion_lon": 0.0, "is_reserved": 0, "is_disabled": 0, "fusion_lat": 0.0, "type": "electric_scooter", "name": "68edfd3f1daedbd96225605ce1a4c192", "lat": 38.916828, "bike_id": "68edfd3f1daedbd96225605ce1a4c192"}, {"lon": -77.043972, "rental_uris": {"android": "https://dc.lft.to/lastmile_qr_scan", "ios": "https://dc.lft.to/lastmile_qr_scan"}, "fusion_lon": 0.0, "is_reserved": 0, "is_disabled": 0, "fusion_lat": 0.0, "type": "electric_scooter", "name": "1a975451d94bfff5544ed478f1c7f7d7", "lat": 38.91495183333333, "bike_id": "1a975451d94bfff5544ed478f1c7f7d7"}, {"lon": -77.018524, "rental_uris": {"android": "https://dc.lft.to/lastmile_qr_scan", "ios": "https://dc.lft.to/lastmile_qr_scan"}, "fusion_lon": 0.0, "is_reserved": 0, "is_disabled": 0, "fusion_lat": 0.0, "type": "electric_scooter", "name": "243b4dd556ddda318cab7495ee0da56d", "lat": 38.87696066666667, "bike_id": "243b4dd556ddda318cab7495ee0da56d"}, {"lon": -77.062815, "rental_uris": {"android": "https://dc.lft.to/lastmile_qr_scan", "ios": "https://dc.lft.to/lastmile_qr_scan"}, "fusion_lon": 0.0, "is_reserved": 0, "is_disabled": 0, "fusion_lat": 0.0, "type": "electric_scooter", "name": "9ead8d4147e6d40ea0b904a04742f0c2", "lat": 38.9026165, "bike_id": "9ead8d4147e6d40ea0b904a04742f0c2"}, {"lon": -77.0382455, "rental_uris": {"android": "https://dc.lft.to/lastmile_qr_scan", "ios": "https://dc.lft.to/lastmile_qr_scan"}, "fusion_lon": 0.0, "is_reserved": 0, "is_disabled": 0, "fusion_lat": 0.0, "type": "electric_scooter", "name": "c89a9c394b2aa478855f0cc52026a23e", "lat": 38.918916, "bike_id": "c89a9c394b2aa478855f0cc52026a23e"}, {"lon": -77.02947516666667, "rental_uris": {"android": "https://dc.lft.to/lastmile_qr_scan", "ios": "https://dc.lft.to/lastmile_qr_scan"}, "fusion_lon": 0.0, "is_reserved": 0, "is_disabled": 0, "fusion_lat": 0.0, "type": "electric_scooter", "name": "55f147b655b05e707f5dcc59f29cde72", "lat": 38.916853833333334, "bike_id": "55f147b655b05e707f5dcc59f29cde72"}, {"lon": -77.0219625, "rental_uris": {"android": "https://dc.lft.to/lastmile_qr_scan", "ios": "https://dc.lft.to/lastmile_qr_scan"}, "fusion_lon": 0.0, "is_reserved": 0, "is_disabled": 0, "fusion_lat": 0.0, "type": "electric_scooter", "name": "e448fc6db9d0214f51695579324e94ce", "lat": 38.920623, "bike_id": "e448fc6db9d0214f51695579324e94ce"}, {"lon": -77.00585616666666, "rental_uris": {"android": "https://dc.lft.to/lastmile_qr_scan", "ios": "https://dc.lft.to/lastmile_qr_scan"}, "fusion_lon": 0.0, "is_reserved": 0, "is_disabled": 0, "fusion_lat": 0.0, "type": "electric_scooter", "name": "e257066482454d91c7cd86dafa796454", "lat": 38.906059166666665, "bike_id": "e257066482454d91c7cd86dafa796454"}, {"lon": -77.02563966666666, "rental_uris": {"android": "https://dc.lft.to/lastmile_qr_scan", "ios": "https://dc.lft.to/lastmile_qr_scan"}, "fusion_lon": 0.0, "is_reserved": 0, "is_disabled": 0, "fusion_lat": 0.0, "type": "electric_scooter", "name": "195b068b291d251dbfc44a9be3c1ef75", "lat": 38.920843, "bike_id": "195b068b291d251dbfc44a9be3c1ef75"}, {"lon": -77.04936183333334, "rental_uris": {"android": "https://dc.lft.to/lastmile_qr_scan", "ios": "https://dc.lft.to/lastmile_qr_scan"}, "fusion_lon": 0.0, "is_reserved": 0, "is_disabled": 0, "fusion_lat": 0.0, "type": "electric_scooter", "name": "fe0ed1f7805041a599d0528fb1e5a635", "lat": 38.89744866666667, "bike_id": "fe0ed1f7805041a599d0528fb1e5a635"}, {"lon": -77.01761, "rental_uris": {"android": "https://dc.lft.to/lastmile_qr_scan", "ios": "https://dc.lft.to/lastmile_qr_scan"}, "fusion_lon": 0.0, "is_reserved": 0, "is_disabled": 0, "fusion_lat": 0.0, "type": "electric_scooter", "name": "5de6376055c82d4a402e0e76817e20c5", "lat": 38.921173833333334, "bike_id": "5de6376055c82d4a402e0e76817e20c5"}, {"lon": -77.02535933333333, "rental_uris": {"android": "https://dc.lft.to/lastmile_qr_scan", "ios": "https://dc.lft.to/lastmile_qr_scan"}, "fusion_lon": 0.0, "is_reserved": 0, "is_disabled": 0, "fusion_lat": 0.0, "type": "electric_scooter", "name": "9a4e67a1920526f89a9b6c05f1b9d2f8", "lat": 38.940739666666666, "bike_id": "9a4e67a1920526f89a9b6c05f1b9d2f8"}, {"lon": -77.01490783333334, "rental_uris": {"android": "https://dc.lft.to/lastmile_qr_scan", "ios": "https://dc.lft.to/lastmile_qr_scan"}, "fusion_lon": 0.0, "is_reserved": 0, "is_disabled": 0, "fusion_lat": 0.0, "type": "electric_scooter", "name": "674124d0888594f86b24586ebc4732a9", "lat": 38.888183166666664, "bike_id": "674124d0888594f86b24586ebc4732a9"}, {"lon": -77.04178766666666, "rental_uris": {"android": "https://dc.lft.to/lastmile_qr_scan", "ios": "https://dc.lft.to/lastmile_qr_scan"}, "fusion_lon": 0.0, "is_reserved": 0, "is_disabled": 0, "fusion_lat": 0.0, "type": "electric_scooter", "name": "349d37f95495bd448d13ed95a2f5cfbf", "lat": 38.9052185, "bike_id": "349d37f95495bd448d13ed95a2f5cfbf"}, {"lon": -77.0465275, "rental_uris": {"android": "https://dc.lft.to/lastmile_qr_scan", "ios": "https://dc.lft.to/lastmile_qr_scan"}, "fusion_lon": 0.0, "is_reserved": 0, "is_disabled": 0, "fusion_lat": 0.0, "type": "electric_scooter", "name": "88517b52c9555ff71b20c570c7544055", "lat": 38.892304333333335, "bike_id": "88517b52c9555ff71b20c570c7544055"}, {"lon": -77.0259295, "rental_uris": {"android": "https://dc.lft.to/lastmile_qr_scan", "ios": "https://dc.lft.to/lastmile_qr_scan"}, "fusion_lon": 0.0, "is_reserved": 0, "is_disabled": 0, "fusion_lat": 0.0, "type": "electric_scooter", "name": "4c720c855cc3e352d576058b41099b45", "lat": 38.88425133333333, "bike_id": "4c720c855cc3e352d576058b41099b45"}, {"lon": -77.05172766666666, "rental_uris": {"android": "https://dc.lft.to/lastmile_qr_scan", "ios": "https://dc.lft.to/lastmile_qr_scan"}, "fusion_lon": 0.0, "is_reserved": 0, "is_disabled": 0, "fusion_lat": 0.0, "type": "electric_scooter", "name": "e283b5bba96d67e23ae6c309bafbd1a8", "lat": 38.92344966666667, "bike_id": "e283b5bba96d67e23ae6c309bafbd1a8"}, {"lon": -76.99080066666667, "rental_uris": {"android": "https://dc.lft.to/lastmile_qr_scan", "ios": "https://dc.lft.to/lastmile_qr_scan"}, "fusion_lon": 0.0, "is_reserved": 0, "is_disabled": 0, "fusion_lat": 0.0, "type": "electric_bike", "name": "2cbe782d798a77d8440565b79b18e961", "lat": 38.94260833333333, "bike_id": "2cbe782d798a77d8440565b79b18e961"}, {"lon": -77.03864266666666, "rental_uris": {"android": "https://dc.lft.to/lastmile_qr_scan", "ios": "https://dc.lft.to/lastmile_qr_scan"}, "fusion_lon": 0.0, "is_reserved": 0, "is_disabled": 0, "fusion_lat": 0.0, "type": "electric_scooter", "name": "271a03d0ae13b969935164f0535a8b03", "lat": 38.906538833333336, "bike_id": "271a03d0ae13b969935164f0535a8b03"}, {"lon": -77.02302033333333, "rental_uris": {"android": "https://dc.lft.to/lastmile_qr_scan", "ios": "https://dc.lft.to/lastmile_qr_scan"}, "fusion_lon": 0.0, "is_reserved": 0, "is_disabled": 0, "fusion_lat": 0.0, "type": "electric_scooter", "name": "9534dcbb5a992a1d7594ab76411dd136", "lat": 38.927721, "bike_id": "9534dcbb5a992a1d7594ab76411dd136"}, {"lon": -76.97281816666667, "rental_uris": {"android": "https://dc.lft.to/lastmile_qr_scan", "ios": "https://dc.lft.to/lastmile_qr_scan"}, "fusion_lon": 0.0, "is_reserved": 0, "is_disabled": 0, "fusion_lat": 0.0, "type": "electric_scooter", "name": "32923decd914df56f0b256093a8962b3", "lat": 38.91719116666667, "bike_id": "32923decd914df56f0b256093a8962b3"}, {"lon": -77.0005875, "rental_uris": {"android": "https://dc.lft.to/lastmile_qr_scan", "ios": "https://dc.lft.to/lastmile_qr_scan"}, "fusion_lon": 0.0, "is_reserved": 0, "is_disabled": 0, "fusion_lat": 0.0, "type": "electric_scooter", "name": "9717b3fe2c55d6ccefa12ca6023b6f89", "lat": 38.873825833333335, "bike_id": "9717b3fe2c55d6ccefa12ca6023b6f89"}, {"lon": -77.00911383333333, "rental_uris": {"android": "https://dc.lft.to/lastmile_qr_scan", "ios": "https://dc.lft.to/lastmile_qr_scan"}, "fusion_lon": 0.0, "is_reserved": 0, "is_disabled": 0, "fusion_lat": 0.0, "type": "electric_scooter", "name": "889efc534127bc7e485865bcf78f7d33", "lat": 38.896468, "bike_id": "889efc534127bc7e485865bcf78f7d33"}, {"lon": -77.02170683333334, "rental_uris": {"android": "https://dc.lft.to/lastmile_qr_scan", "ios": "https://dc.lft.to/lastmile_qr_scan"}, "fusion_lon": 0.0, "is_reserved": 0, "is_disabled": 0, "fusion_lat": 0.0, "type": "electric_scooter", "name": "2aafb61c60cfdd0c9bece0d7c99d1bf5", "lat": 38.887334333333335, "bike_id": "2aafb61c60cfdd0c9bece0d7c99d1bf5"}, {"lon": -77.001761, "rental_uris": {"android": "https://dc.lft.to/lastmile_qr_scan", "ios": "https://dc.lft.to/lastmile_qr_scan"}, "fusion_lon": 0.0, "is_reserved": 0, "is_disabled": 0, "fusion_lat": 0.0, "type": "electric_scooter", "name": "cf640aab1a47f86b4d1947f6b9e6958f", "lat": 38.8737335, "bike_id": "cf640aab1a47f86b4d1947f6b9e6958f"}, {"lon": -77.01556366666667, "rental_uris": {"android": "https://dc.lft.to/lastmile_qr_scan", "ios": "https://dc.lft.to/lastmile_qr_scan"}, "fusion_lon": 0.0, "is_reserved": 0, "is_disabled": 0, "fusion_lat": 0.0, "type": "electric_scooter", "name": "8dd729d49f95be475f4d21bf23ffb3e4", "lat": 38.914696166666666, "bike_id": "8dd729d49f95be475f4d21bf23ffb3e4"}, {"lon": -77.00757633333333, "rental_uris": {"android": "https://dc.lft.to/lastmile_qr_scan", "ios": "https://dc.lft.to/lastmile_qr_scan"}, "fusion_lon": 0.0, "is_reserved": 0, "is_disabled": 0, "fusion_lat": 0.0, "type": "electric_bike", "name": "2343caa18ac53e9fa28a430404c7992c", "lat": 38.874738, "bike_id": "2343caa18ac53e9fa28a430404c7992c"}, {"lon": -77.0283725, "rental_uris": {"android": "https://dc.lft.to/lastmile_qr_scan", "ios": "https://dc.lft.to/lastmile_qr_scan"}, "fusion_lon": 0.0, "is_reserved": 0, "is_disabled": 0, "fusion_lat": 0.0, "type": "electric_bike", "name": "b2ec9070b59478ccac05a113c16f7aef", "lat": 38.942653166666666, "bike_id": "b2ec9070b59478ccac05a113c16f7aef"}, {"lon": -77.00891833333333, "rental_uris": {"android": "https://dc.lft.to/lastmile_qr_scan", "ios": "https://dc.lft.to/lastmile_qr_scan"}, "fusion_lon": 0.0, "is_reserved": 0, "is_disabled": 0, "fusion_lat": 0.0, "type": "electric_scooter", "name": "080e03bc2582f34d4b8da1280dfa3e5a", "lat": 38.95568333333333, "bike_id": "080e03bc2582f34d4b8da1280dfa3e5a"}, {"lon": -77.012267, "rental_uris": {"android": "https://dc.lft.to/lastmile_qr_scan", "ios": "https://dc.lft.to/lastmile_qr_scan"}, "fusion_lon": 0.0, "is_reserved": 0, "is_disabled": 0, "fusion_lat": 0.0, "type": "electric_scooter", "name": "d6a66b166019fa1bd9d1bfd479081db8", "lat": 38.893442666666665, "bike_id": "d6a66b166019fa1bd9d1bfd479081db8"}, {"lon": -77.02169083333334, "rental_uris": {"android": "https://dc.lft.to/lastmile_qr_scan", "ios": "https://dc.lft.to/lastmile_qr_scan"}, "fusion_lon": 0.0, "is_reserved": 0, "is_disabled": 0, "fusion_lat": 0.0, "type": "electric_scooter", "name": "4c1532ad77700846eeffeafaab014bad", "lat": 38.94290383333333, "bike_id": "4c1532ad77700846eeffeafaab014bad"}, {"lon": -77.05149266666666, "rental_uris": {"android": "https://dc.lft.to/lastmile_qr_scan", "ios": "https://dc.lft.to/lastmile_qr_scan"}, "fusion_lon": 0.0, "is_reserved": 0, "is_disabled": 0, "fusion_lat": 0.0, "type": "electric_scooter", "name": "4b834a6f689bbfec980b7af2ebdf638f", "lat": 38.90623883333333, "bike_id": "4b834a6f689bbfec980b7af2ebdf638f"}, {"lon": -77.0237605, "rental_uris": {"android": "https://dc.lft.to/lastmile_qr_scan", "ios": "https://dc.lft.to/lastmile_qr_scan"}, "fusion_lon": 0.0, "is_reserved": 0, "is_disabled": 0, "fusion_lat": 0.0, "type": "electric_scooter", "name": "43472ad8793e10e6ca95b62543d91eba", "lat": 38.899696166666665, "bike_id": "43472ad8793e10e6ca95b62543d91eba"}, {"lon": -77.01952633333333, "rental_uris": {"android": "https://dc.lft.to/lastmile_qr_scan", "ios": "https://dc.lft.to/lastmile_qr_scan"}, "fusion_lon": 0.0, "is_reserved": 0, "is_disabled": 0, "fusion_lat": 0.0, "type": "electric_scooter", "name": "8aa237119950b60099d9933c1feff99d", "lat": 38.92322583333333, "bike_id": "8aa237119950b60099d9933c1feff99d"}, {"lon": -77.01993683333333, "rental_uris": {"android": "https://dc.lft.to/lastmile_qr_scan", "ios": "https://dc.lft.to/lastmile_qr_scan"}, "fusion_lon": 0.0, "is_reserved": 0, "is_disabled": 0, "fusion_lat": 0.0, "type": "electric_scooter", "name": "cbfb930646f32310bed07c9b231d31b8", "lat": 38.964383166666664, "bike_id": "cbfb930646f32310bed07c9b231d31b8"}, {"lon": -77.04168083333333, "rental_uris": {"android": "https://dc.lft.to/lastmile_qr_scan", "ios": "https://dc.lft.to/lastmile_qr_scan"}, "fusion_lon": 0.0, "is_reserved": 0, "is_disabled": 0, "fusion_lat": 0.0, "type": "electric_scooter", "name": "ee3d06cb3da1bb304830710a553e9dc3", "lat": 38.8993555, "bike_id": "ee3d06cb3da1bb304830710a553e9dc3"}, {"lon": -77.04755266666666, "rental_uris": {"android": "https://dc.lft.to/lastmile_qr_scan", "ios": "https://dc.lft.to/lastmile_qr_scan"}, "fusion_lon": 0.0, "is_reserved": 0, "is_disabled": 0, "fusion_lat": 0.0, "type": "electric_scooter", "name": "e3306e0e05302e8a2605186754b4558d", "lat": 38.90156133333333, "bike_id": "e3306e0e05302e8a2605186754b4558d"}, {"lon": -76.95703816666666, "rental_uris": {"android": "https://dc.lft.to/lastmile_qr_scan", "ios": "https://dc.lft.to/lastmile_qr_scan"}, "fusion_lon": 0.0, "is_reserved": 0, "is_disabled": 0, "fusion_lat": 0.0, "type": "electric_bike", "name": "e9d1f60645a45b130aa9de869c085357", "lat": 38.8508305, "bike_id": "e9d1f60645a45b130aa9de869c085357"}, {"lon": -77.01942066666666, "rental_uris": {"android": "https://dc.lft.to/lastmile_qr_scan", "ios": "https://dc.lft.to/lastmile_qr_scan"}, "fusion_lon": 0.0, "is_reserved": 0, "is_disabled": 0, "fusion_lat": 0.0, "type": "electric_scooter", "name": "31dc308f1c2f239a8dd2333193192827", "lat": 38.922714, "bike_id": "31dc308f1c2f239a8dd2333193192827"}, {"lon": -76.9338185, "rental_uris": {"android": "https://dc.lft.to/lastmile_qr_scan", "ios": "https://dc.lft.to/lastmile_qr_scan"}, "fusion_lon": 0.0, "is_reserved": 0, "is_disabled": 0, "fusion_lat": 0.0, "type": "electric_scooter", "name": "79acde74588a84ed87c89b09e8356201", "lat": 38.899156833333336, "bike_id": "79acde74588a84ed87c89b09e8356201"}, {"lon": -77.03294333333334, "rental_uris": {"android": "https://dc.lft.to/lastmile_qr_scan", "ios": "https://dc.lft.to/lastmile_qr_scan"}, "fusion_lon": 0.0, "is_reserved": 0, "is_disabled": 0, "fusion_lat": 0.0, "type": "electric_scooter", "name": "ab63bb2963acc756f6ae64f09437cdcc", "lat": 38.898854166666666, "bike_id": "ab63bb2963acc756f6ae64f09437cdcc"}, {"lon": -77.06915016666666, "rental_uris": {"android": "https://dc.lft.to/lastmile_qr_scan", "ios": "https://dc.lft.to/lastmile_qr_scan"}, "fusion_lon": 0.0, "is_reserved": 0, "is_disabled": 0, "fusion_lat": 0.0, "type": "electric_bike", "name": "8555126c8a1c86da7ab9f04c2f49ed48", "lat": 38.80672233333333, "bike_id": "8555126c8a1c86da7ab9f04c2f49ed48"}, {"lon": -77.02944366666667, "rental_uris": {"android": "https://dc.lft.to/lastmile_qr_scan", "ios": "https://dc.lft.to/lastmile_qr_scan"}, "fusion_lon": 0.0, "is_reserved": 0, "is_disabled": 0, "fusion_lat": 0.0, "type": "electric_scooter", "name": "7ec04f5c9e7015fd964913d75ec0ea95", "lat": 38.942746166666666, "bike_id": "7ec04f5c9e7015fd964913d75ec0ea95"}, {"lon": -76.99061466666667, "rental_uris": {"android": "https://dc.lft.to/lastmile_qr_scan", "ios": "https://dc.lft.to/lastmile_qr_scan"}, "fusion_lon": 0.0, "is_reserved": 0, "is_disabled": 0, "fusion_lat": 0.0, "type": "electric_bike", "name": "c3900e9477541715f5366d8c6ad8395a", "lat": 38.936912166666666, "bike_id": "c3900e9477541715f5366d8c6ad8395a"}, {"lon": -77.030343, "rental_uris": {"android": "https://dc.lft.to/lastmile_qr_scan", "ios": "https://dc.lft.to/lastmile_qr_scan"}, "fusion_lon": 0.0, "is_reserved": 0, "is_disabled": 0, "fusion_lat": 0.0, "type": "electric_scooter", "name": "b7f8a26f24c9a63778f6be788a4e214d", "lat": 38.897450166666665, "bike_id": "b7f8a26f24c9a63778f6be788a4e214d"}, {"lon": -77.032356, "rental_uris": {"android": "https://dc.lft.to/lastmile_qr_scan", "ios": "https://dc.lft.to/lastmile_qr_scan"}, "fusion_lon": 0.0, "is_reserved": 0, "is_disabled": 0, "fusion_lat": 0.0, "type": "electric_scooter", "name": "e7f67b49b6776338da77210c6fd40a47", "lat": 38.96157383333333, "bike_id": "e7f67b49b6776338da77210c6fd40a47"}, {"lon": -77.0218045, "rental_uris": {"android": "https://dc.lft.to/lastmile_qr_scan", "ios": "https://dc.lft.to/lastmile_qr_scan"}, "fusion_lon": 0.0, "is_reserved": 0, "is_disabled": 0, "fusion_lat": 0.0, "type": "electric_scooter", "name": "ea7ef7da98abef9d305039b3765e462c", "lat": 38.939525, "bike_id": "ea7ef7da98abef9d305039b3765e462c"}, {"lon": -77.01035666666667, "rental_uris": {"android": "https://dc.lft.to/lastmile_qr_scan", "ios": "https://dc.lft.to/lastmile_qr_scan"}, "fusion_lon": 0.0, "is_reserved": 0, "is_disabled": 0, "fusion_lat": 0.0, "type": "electric_scooter", "name": "1d0ad3596439b3d35b3b6441ca96b43d", "lat": 38.92028633333334, "bike_id": "1d0ad3596439b3d35b3b6441ca96b43d"}, {"lon": -77.040627, "rental_uris": {"android": "https://dc.lft.to/lastmile_qr_scan", "ios": "https://dc.lft.to/lastmile_qr_scan"}, "fusion_lon": 0.0, "is_reserved": 0, "is_disabled": 0, "fusion_lat": 0.0, "type": "electric_scooter", "name": "7820931b6b967d461e130d9f2db7fc11", "lat": 38.908694, "bike_id": "7820931b6b967d461e130d9f2db7fc11"}, {"lon": -77.01199933333334, "rental_uris": {"android": "https://dc.lft.to/lastmile_qr_scan", "ios": "https://dc.lft.to/lastmile_qr_scan"}, "fusion_lon": 0.0, "is_reserved": 0, "is_disabled": 0, "fusion_lat": 0.0, "type": "electric_scooter", "name": "c5691a22f53d452c0d0bc0bd868b7c20", "lat": 38.897928666666665, "bike_id": "c5691a22f53d452c0d0bc0bd868b7c20"}, {"lon": -77.0379475, "rental_uris": {"android": "https://dc.lft.to/lastmile_qr_scan", "ios": "https://dc.lft.to/lastmile_qr_scan"}, "fusion_lon": 0.0, "is_reserved": 0, "is_disabled": 0, "fusion_lat": 0.0, "type": "electric_scooter", "name": "9f96f044f238d56722a2ac2cd1a493b1", "lat": 38.9180675, "bike_id": "9f96f044f238d56722a2ac2cd1a493b1"}, {"lon": -77.02239683333333, "rental_uris": {"android": "https://dc.lft.to/lastmile_qr_scan", "ios": "https://dc.lft.to/lastmile_qr_scan"}, "fusion_lon": 0.0, "is_reserved": 0, "is_disabled": 0, "fusion_lat": 0.0, "type": "electric_scooter", "name": "51c035e96da278df9891e2704e8d731e", "lat": 38.924675, "bike_id": "51c035e96da278df9891e2704e8d731e"}, {"lon": -77.02158033333333, "rental_uris": {"android": "https://dc.lft.to/lastmile_qr_scan", "ios": "https://dc.lft.to/lastmile_qr_scan"}, "fusion_lon": 0.0, "is_reserved": 0, "is_disabled": 0, "fusion_lat": 0.0, "type": "electric_scooter", "name": "8106abce72563210a9bb86fadbf99b2f", "lat": 38.9261315, "bike_id": "8106abce72563210a9bb86fadbf99b2f"}, {"lon": -77.039689, "rental_uris": {"android": "https://dc.lft.to/lastmile_qr_scan", "ios": "https://dc.lft.to/lastmile_qr_scan"}, "fusion_lon": 0.0, "is_reserved": 0, "is_disabled": 0, "fusion_lat": 0.0, "type": "electric_scooter", "name": "47de6005bc013b88a8672109421a4a05", "lat": 38.90147733333333, "bike_id": "47de6005bc013b88a8672109421a4a05"}, {"lon": -76.98050516666666, "rental_uris": {"android": "https://dc.lft.to/lastmile_qr_scan", "ios": "https://dc.lft.to/lastmile_qr_scan"}, "fusion_lon": 0.0, "is_reserved": 0, "is_disabled": 0, "fusion_lat": 0.0, "type": "electric_scooter", "name": "19d9f8b6003c8215365b6cb7854b08dd", "lat": 38.88496, "bike_id": "19d9f8b6003c8215365b6cb7854b08dd"}, {"lon": -76.98604116666667, "rental_uris": {"android": "https://dc.lft.to/lastmile_qr_scan", "ios": "https://dc.lft.to/lastmile_qr_scan"}, "fusion_lon": 0.0, "is_reserved": 0, "is_disabled": 0, "fusion_lat": 0.0, "type": "electric_scooter", "name": "8367691c102c3a2e8f1a853fc5311d2d", "lat": 38.9389725, "bike_id": "8367691c102c3a2e8f1a853fc5311d2d"}, {"lon": -77.05104816666666, "rental_uris": {"android": "https://dc.lft.to/lastmile_qr_scan", "ios": "https://dc.lft.to/lastmile_qr_scan"}, "fusion_lon": 0.0, "is_reserved": 0, "is_disabled": 0, "fusion_lat": 0.0, "type": "electric_scooter", "name": "cdbdd21c8294f0a8e47d35ee1888ff7d", "lat": 38.923584, "bike_id": "cdbdd21c8294f0a8e47d35ee1888ff7d"}, {"lon": -77.00344383333334, "rental_uris": {"android": "https://dc.lft.to/lastmile_qr_scan", "ios": "https://dc.lft.to/lastmile_qr_scan"}, "fusion_lon": 0.0, "is_reserved": 0, "is_disabled": 0, "fusion_lat": 0.0, "type": "electric_scooter", "name": "9bd7a392d0a6d75ae99e7e68d955b781", "lat": 38.8918195, "bike_id": "9bd7a392d0a6d75ae99e7e68d955b781"}, {"lon": -77.03269616666667, "rental_uris": {"android": "https://dc.lft.to/lastmile_qr_scan", "ios": "https://dc.lft.to/lastmile_qr_scan"}, "fusion_lon": 0.0, "is_reserved": 0, "is_disabled": 0, "fusion_lat": 0.0, "type": "electric_scooter", "name": "78dfa7cbf917f527d72804db35407791", "lat": 38.915624666666666, "bike_id": "78dfa7cbf917f527d72804db35407791"}, {"lon": -77.02473233333333, "rental_uris": {"android": "https://dc.lft.to/lastmile_qr_scan", "ios": "https://dc.lft.to/lastmile_qr_scan"}, "fusion_lon": 0.0, "is_reserved": 0, "is_disabled": 0, "fusion_lat": 0.0, "type": "electric_scooter", "name": "b4173256700965cea85deb65b2f778aa", "lat": 38.91814316666667, "bike_id": "b4173256700965cea85deb65b2f778aa"}, {"lon": -77.0120875, "rental_uris": {"android": "https://dc.lft.to/lastmile_qr_scan", "ios": "https://dc.lft.to/lastmile_qr_scan"}, "fusion_lon": 0.0, "is_reserved": 0, "is_disabled": 0, "fusion_lat": 0.0, "type": "electric_scooter", "name": "e9f45167f83351b72b1bdb45ac9f1b34", "lat": 38.90032733333334, "bike_id": "e9f45167f83351b72b1bdb45ac9f1b34"}, {"lon": -77.00538516666667, "rental_uris": {"android": "https://dc.lft.to/lastmile_qr_scan", "ios": "https://dc.lft.to/lastmile_qr_scan"}, "fusion_lon": 0.0, "is_reserved": 0, "is_disabled": 0, "fusion_lat": 0.0, "type": "electric_scooter", "name": "c76c0213391da8fe1fa88c1715a107f2", "lat": 38.874568833333335, "bike_id": "c76c0213391da8fe1fa88c1715a107f2"}, {"lon": -77.022429, "rental_uris": {"android": "https://dc.lft.to/lastmile_qr_scan", "ios": "https://dc.lft.to/lastmile_qr_scan"}, "fusion_lon": 0.0, "is_reserved": 0, "is_disabled": 0, "fusion_lat": 0.0, "type": "electric_scooter", "name": "3c3d9c37abb16186bffdb383df13dc6c", "lat": 38.923733, "bike_id": "3c3d9c37abb16186bffdb383df13dc6c"}, {"lon": -77.042437, "rental_uris": {"android": "https://dc.lft.to/lastmile_qr_scan", "ios": "https://dc.lft.to/lastmile_qr_scan"}, "fusion_lon": 0.0, "is_reserved": 0, "is_disabled": 0, "fusion_lat": 0.0, "type": "electric_scooter", "name": "380642b86a37395631e8cd03baeb3ab2", "lat": 38.922215, "bike_id": "380642b86a37395631e8cd03baeb3ab2"}, {"lon": -77.0327225, "rental_uris": {"android": "https://dc.lft.to/lastmile_qr_scan", "ios": "https://dc.lft.to/lastmile_qr_scan"}, "fusion_lon": 0.0, "is_reserved": 0, "is_disabled": 0, "fusion_lat": 0.0, "type": "electric_scooter", "name": "c35f70c909768f746802086a1e1d375c", "lat": 38.93259283333333, "bike_id": "c35f70c909768f746802086a1e1d375c"}, {"lon": -77.01915033333333, "rental_uris": {"android": "https://dc.lft.to/lastmile_qr_scan", "ios": "https://dc.lft.to/lastmile_qr_scan"}, "fusion_lon": 0.0, "is_reserved": 0, "is_disabled": 0, "fusion_lat": 0.0, "type": "electric_scooter", "name": "bd0d45ac4317577574bbff58cb31e454", "lat": 38.9227225, "bike_id": "bd0d45ac4317577574bbff58cb31e454"}, {"lon": -77.05119633333334, "rental_uris": {"android": "https://dc.lft.to/lastmile_qr_scan", "ios": "https://dc.lft.to/lastmile_qr_scan"}, "fusion_lon": 0.0, "is_reserved": 0, "is_disabled": 0, "fusion_lat": 0.0, "type": "electric_scooter", "name": "d66d3237d52cc4662bdf58bf3efb8c19", "lat": 38.906334, "bike_id": "d66d3237d52cc4662bdf58bf3efb8c19"}, {"lon": -77.03147766666666, "rental_uris": {"android": "https://dc.lft.to/lastmile_qr_scan", "ios": "https://dc.lft.to/lastmile_qr_scan"}, "fusion_lon": 0.0, "is_reserved": 0, "is_disabled": 0, "fusion_lat": 0.0, "type": "electric_scooter", "name": "38e0bce73908c3ebededdd699ce01753", "lat": 38.915588666666665, "bike_id": "38e0bce73908c3ebededdd699ce01753"}, {"lon": -76.99776433333334, "rental_uris": {"android": "https://dc.lft.to/lastmile_qr_scan", "ios": "https://dc.lft.to/lastmile_qr_scan"}, "fusion_lon": 0.0, "is_reserved": 0, "is_disabled": 0, "fusion_lat": 0.0, "type": "electric_scooter", "name": "d3e45e071856a937b7954541e67db75c", "lat": 38.9229435, "bike_id": "d3e45e071856a937b7954541e67db75c"}, {"lon": -77.02183516666666, "rental_uris": {"android": "https://dc.lft.to/lastmile_qr_scan", "ios": "https://dc.lft.to/lastmile_qr_scan"}, "fusion_lon": 0.0, "is_reserved": 0, "is_disabled": 0, "fusion_lat": 0.0, "type": "electric_scooter", "name": "507c24307213589ac9ffe41b77d1238f", "lat": 38.892266, "bike_id": "507c24307213589ac9ffe41b77d1238f"}, {"lon": -76.949294, "rental_uris": {"android": "https://dc.lft.to/lastmile_qr_scan", "ios": "https://dc.lft.to/lastmile_qr_scan"}, "fusion_lon": 0.0, "is_reserved": 0, "is_disabled": 0, "fusion_lat": 0.0, "type": "electric_scooter", "name": "3970f56b80ac3af2c598d101b2d4e663", "lat": 38.895294166666666, "bike_id": "3970f56b80ac3af2c598d101b2d4e663"}, {"lon": -77.04743633333334, "rental_uris": {"android": "https://dc.lft.to/lastmile_qr_scan", "ios": "https://dc.lft.to/lastmile_qr_scan"}, "fusion_lon": 0.0, "is_reserved": 0, "is_disabled": 0, "fusion_lat": 0.0, "type": "electric_scooter", "name": "59a9aedf3e39e6b85d6d7b9f35a1f78e", "lat": 38.905361166666665, "bike_id": "59a9aedf3e39e6b85d6d7b9f35a1f78e"}, {"lon": -77.0104655, "rental_uris": {"android": "https://dc.lft.to/lastmile_qr_scan", "ios": "https://dc.lft.to/lastmile_qr_scan"}, "fusion_lon": 0.0, "is_reserved": 0, "is_disabled": 0, "fusion_lat": 0.0, "type": "electric_scooter", "name": "bdcce1e3750f5ef4da8456803070ea27", "lat": 38.8974355, "bike_id": "bdcce1e3750f5ef4da8456803070ea27"}, {"lon": -77.029179, "rental_uris": {"android": "https://dc.lft.to/lastmile_qr_scan", "ios": "https://dc.lft.to/lastmile_qr_scan"}, "fusion_lon": 0.0, "is_reserved": 0, "is_disabled": 0, "fusion_lat": 0.0, "type": "electric_scooter", "name": "46279da6a745064ac3bbe7be6e00b571", "lat": 38.91698066666667, "bike_id": "46279da6a745064ac3bbe7be6e00b571"}, {"lon": -77.03228516666667, "rental_uris": {"android": "https://dc.lft.to/lastmile_qr_scan", "ios": "https://dc.lft.to/lastmile_qr_scan"}, "fusion_lon": 0.0, "is_reserved": 0, "is_disabled": 0, "fusion_lat": 0.0, "type": "electric_scooter", "name": "7985b7a6ddd44d5cb34b1faecd217004", "lat": 38.901304333333336, "bike_id": "7985b7a6ddd44d5cb34b1faecd217004"}, {"lon": -77.03662933333334, "rental_uris": {"android": "https://dc.lft.to/lastmile_qr_scan", "ios": "https://dc.lft.to/lastmile_qr_scan"}, "fusion_lon": 0.0, "is_reserved": 0, "is_disabled": 0, "fusion_lat": 0.0, "type": "electric_scooter", "name": "628ebf2ad5d10cadd19c1a629b66d637", "lat": 38.91815116666667, "bike_id": "628ebf2ad5d10cadd19c1a629b66d637"}, {"lon": -77.02637266666666, "rental_uris": {"android": "https://dc.lft.to/lastmile_qr_scan", "ios": "https://dc.lft.to/lastmile_qr_scan"}, "fusion_lon": 0.0, "is_reserved": 0, "is_disabled": 0, "fusion_lat": 0.0, "type": "electric_scooter", "name": "6be72cc5f73474e9aee18f86ef806b01", "lat": 38.89461766666667, "bike_id": "6be72cc5f73474e9aee18f86ef806b01"}, {"lon": -77.041457, "rental_uris": {"android": "https://dc.lft.to/lastmile_qr_scan", "ios": "https://dc.lft.to/lastmile_qr_scan"}, "fusion_lon": 0.0, "is_reserved": 0, "is_disabled": 0, "fusion_lat": 0.0, "type": "electric_scooter", "name": "72810a34e61d3f87b2b6566aaa9cc702", "lat": 38.9233485, "bike_id": "72810a34e61d3f87b2b6566aaa9cc702"}, {"lon": -77.043549, "rental_uris": {"android": "https://dc.lft.to/lastmile_qr_scan", "ios": "https://dc.lft.to/lastmile_qr_scan"}, "fusion_lon": 0.0, "is_reserved": 0, "is_disabled": 0, "fusion_lat": 0.0, "type": "electric_scooter", "name": "98e338159bd9e70fb18f4b47738b98bb", "lat": 38.903874, "bike_id": "98e338159bd9e70fb18f4b47738b98bb"}, {"lon": -77.0033145, "rental_uris": {"android": "https://dc.lft.to/lastmile_qr_scan", "ios": "https://dc.lft.to/lastmile_qr_scan"}, "fusion_lon": 0.0, "is_reserved": 0, "is_disabled": 0, "fusion_lat": 0.0, "type": "electric_scooter", "name": "1cf1bec62c26e03edb8b5602a41b11e0", "lat": 38.92351416666666, "bike_id": "1cf1bec62c26e03edb8b5602a41b11e0"}, {"lon": -76.95091233333333, "rental_uris": {"android": "https://dc.lft.to/lastmile_qr_scan", "ios": "https://dc.lft.to/lastmile_qr_scan"}, "fusion_lon": 0.0, "is_reserved": 0, "is_disabled": 0, "fusion_lat": 0.0, "type": "electric_scooter", "name": "b81206dd4d9b924d1f6b54fb65b00741", "lat": 38.88449883333333, "bike_id": "b81206dd4d9b924d1f6b54fb65b00741"}, {"lon": -77.03814583333333, "rental_uris": {"android": "https://dc.lft.to/lastmile_qr_scan", "ios": "https://dc.lft.to/lastmile_qr_scan"}, "fusion_lon": 0.0, "is_reserved": 0, "is_disabled": 0, "fusion_lat": 0.0, "type": "electric_scooter", "name": "7d44975f2d53fc9d8696b408c53c50d1", "lat": 38.90035233333333, "bike_id": "7d44975f2d53fc9d8696b408c53c50d1"}, {"lon": -77.0500015, "rental_uris": {"android": "https://dc.lft.to/lastmile_qr_scan", "ios": "https://dc.lft.to/lastmile_qr_scan"}, "fusion_lon": 0.0, "is_reserved": 0, "is_disabled": 0, "fusion_lat": 0.0, "type": "electric_scooter", "name": "5ac4b58a0ab96f42b8f2eb354662263a", "lat": 38.9012825, "bike_id": "5ac4b58a0ab96f42b8f2eb354662263a"}, {"lon": -77.02844083333333, "rental_uris": {"android": "https://dc.lft.to/lastmile_qr_scan", "ios": "https://dc.lft.to/lastmile_qr_scan"}, "fusion_lon": 0.0, "is_reserved": 0, "is_disabled": 0, "fusion_lat": 0.0, "type": "electric_scooter", "name": "a5a35654f9df2630e7cce4d0ba0288f5", "lat": 38.93586716666667, "bike_id": "a5a35654f9df2630e7cce4d0ba0288f5"}, {"lon": -77.0054095, "rental_uris": {"android": "https://dc.lft.to/lastmile_qr_scan", "ios": "https://dc.lft.to/lastmile_qr_scan"}, "fusion_lon": 0.0, "is_reserved": 0, "is_disabled": 0, "fusion_lat": 0.0, "type": "electric_scooter", "name": "e4aa85252581c2fad25cde10140aafc4", "lat": 38.9001895, "bike_id": "e4aa85252581c2fad25cde10140aafc4"}, {"lon": -77.03673283333333, "rental_uris": {"android": "https://dc.lft.to/lastmile_qr_scan", "ios": "https://dc.lft.to/lastmile_qr_scan"}, "fusion_lon": 0.0, "is_reserved": 0, "is_disabled": 0, "fusion_lat": 0.0, "type": "electric_scooter", "name": "d810486a58ebbd8884e38a9e9e3d5b24", "lat": 38.90028233333334, "bike_id": "d810486a58ebbd8884e38a9e9e3d5b24"}, {"lon": -77.060956, "rental_uris": {"android": "https://dc.lft.to/lastmile_qr_scan", "ios": "https://dc.lft.to/lastmile_qr_scan"}, "fusion_lon": 0.0, "is_reserved": 0, "is_disabled": 0, "fusion_lat": 0.0, "type": "electric_scooter", "name": "80c43325636ff58be9f6fa7b3d829e6c", "lat": 38.9022995, "bike_id": "80c43325636ff58be9f6fa7b3d829e6c"}, {"lon": -76.98842183333333, "rental_uris": {"android": "https://dc.lft.to/lastmile_qr_scan", "ios": "https://dc.lft.to/lastmile_qr_scan"}, "fusion_lon": 0.0, "is_reserved": 0, "is_disabled": 0, "fusion_lat": 0.0, "type": "electric_scooter", "name": "f38680c86acd2d16fad241ddaf639c55", "lat": 38.90025683333333, "bike_id": "f38680c86acd2d16fad241ddaf639c55"}, {"lon": -77.07265533333333, "rental_uris": {"android": "https://dc.lft.to/lastmile_qr_scan", "ios": "https://dc.lft.to/lastmile_qr_scan"}, "fusion_lon": 0.0, "is_reserved": 0, "is_disabled": 0, "fusion_lat": 0.0, "type": "electric_scooter", "name": "fd365b75b6fa559e9d84a8abae967e2f", "lat": 38.90908833333334, "bike_id": "fd365b75b6fa559e9d84a8abae967e2f"}, {"lon": -76.96549183333333, "rental_uris": {"android": "https://dc.lft.to/lastmile_qr_scan", "ios": "https://dc.lft.to/lastmile_qr_scan"}, "fusion_lon": 0.0, "is_reserved": 0, "is_disabled": 0, "fusion_lat": 0.0, "type": "electric_scooter", "name": "e03e994c5a3497b432ef2114893fd509", "lat": 38.91883383333333, "bike_id": "e03e994c5a3497b432ef2114893fd509"}, {"lon": -77.01846716666667, "rental_uris": {"android": "https://dc.lft.to/lastmile_qr_scan", "ios": "https://dc.lft.to/lastmile_qr_scan"}, "fusion_lon": 0.0, "is_reserved": 0, "is_disabled": 0, "fusion_lat": 0.0, "type": "electric_scooter", "name": "1d7d121d91418b7ebae08304ebd6078e", "lat": 38.948880833333334, "bike_id": "1d7d121d91418b7ebae08304ebd6078e"}, {"lon": -77.05013383333333, "rental_uris": {"android": "https://dc.lft.to/lastmile_qr_scan", "ios": "https://dc.lft.to/lastmile_qr_scan"}, "fusion_lon": 0.0, "is_reserved": 0, "is_disabled": 0, "fusion_lat": 0.0, "type": "electric_scooter", "name": "8b088bab2858e31a5bbd14d9c4114b90", "lat": 38.923399333333336, "bike_id": "8b088bab2858e31a5bbd14d9c4114b90"}, {"lon": -77.03834783333333, "rental_uris": {"android": "https://dc.lft.to/lastmile_qr_scan", "ios": "https://dc.lft.to/lastmile_qr_scan"}, "fusion_lon": 0.0, "is_reserved": 0, "is_disabled": 0, "fusion_lat": 0.0, "type": "electric_scooter", "name": "41bc8b0239bd5580c0f2bde22433a8a5", "lat": 38.902833333333334, "bike_id": "41bc8b0239bd5580c0f2bde22433a8a5"}, {"lon": -76.95547883333333, "rental_uris": {"android": "https://dc.lft.to/lastmile_qr_scan", "ios": "https://dc.lft.to/lastmile_qr_scan"}, "fusion_lon": 0.0, "is_reserved": 0, "is_disabled": 0, "fusion_lat": 0.0, "type": "electric_scooter", "name": "a6480b67086fa061c76f8248c5936480", "lat": 38.927412333333336, "bike_id": "a6480b67086fa061c76f8248c5936480"}, {"lon": -77.01493183333334, "rental_uris": {"android": "https://dc.lft.to/lastmile_qr_scan", "ios": "https://dc.lft.to/lastmile_qr_scan"}, "fusion_lon": 0.0, "is_reserved": 0, "is_disabled": 0, "fusion_lat": 0.0, "type": "electric_scooter", "name": "c30c823d0cedb90bcca718851da5d539", "lat": 38.888174666666664, "bike_id": "c30c823d0cedb90bcca718851da5d539"}, {"lon": -76.9922355, "rental_uris": {"android": "https://dc.lft.to/lastmile_qr_scan", "ios": "https://dc.lft.to/lastmile_qr_scan"}, "fusion_lon": 0.0, "is_reserved": 0, "is_disabled": 0, "fusion_lat": 0.0, "type": "electric_scooter", "name": "38a026f7290bb189276b761b534a961b", "lat": 38.86295333333333, "bike_id": "38a026f7290bb189276b761b534a961b"}, {"lon": -77.0789925, "rental_uris": {"android": "https://dc.lft.to/lastmile_qr_scan", "ios": "https://dc.lft.to/lastmile_qr_scan"}, "fusion_lon": 0.0, "is_reserved": 0, "is_disabled": 0, "fusion_lat": 0.0, "type": "electric_bike", "name": "0eb7ab982a8df0dbae944b09c6fb6db1", "lat": 38.8482745, "bike_id": "0eb7ab982a8df0dbae944b09c6fb6db1"}, {"lon": -77.03470416666667, "rental_uris": {"android": "https://dc.lft.to/lastmile_qr_scan", "ios": "https://dc.lft.to/lastmile_qr_scan"}, "fusion_lon": 0.0, "is_reserved": 0, "is_disabled": 0, "fusion_lat": 0.0, "type": "electric_scooter", "name": "87179f7e0a8728bb863e89bb10e4b9af", "lat": 38.91707733333333, "bike_id": "87179f7e0a8728bb863e89bb10e4b9af"}, {"lon": -77.05032516666667, "rental_uris": {"android": "https://dc.lft.to/lastmile_qr_scan", "ios": "https://dc.lft.to/lastmile_qr_scan"}, "fusion_lon": 0.0, "is_reserved": 0, "is_disabled": 0, "fusion_lat": 0.0, "type": "electric_scooter", "name": "303311ad81aabcc29e7d4ae5217bb2c2", "lat": 38.898256833333335, "bike_id": "303311ad81aabcc29e7d4ae5217bb2c2"}, {"lon": -77.0211525, "rental_uris": {"android": "https://dc.lft.to/lastmile_qr_scan", "ios": "https://dc.lft.to/lastmile_qr_scan"}, "fusion_lon": 0.0, "is_reserved": 0, "is_disabled": 0, "fusion_lat": 0.0, "type": "electric_scooter", "name": "ca249d206820d3f7ae7ce168f54ae311", "lat": 38.92363866666667, "bike_id": "ca249d206820d3f7ae7ce168f54ae311"}, {"lon": -76.9961245, "rental_uris": {"android": "https://dc.lft.to/lastmile_qr_scan", "ios": "https://dc.lft.to/lastmile_qr_scan"}, "fusion_lon": 0.0, "is_reserved": 0, "is_disabled": 0, "fusion_lat": 0.0, "type": "electric_scooter", "name": "27b6322bd9f0d9c1e5452a4c98e01caa", "lat": 38.8826125, "bike_id": "27b6322bd9f0d9c1e5452a4c98e01caa"}, {"lon": -77.027033, "rental_uris": {"android": "https://dc.lft.to/lastmile_qr_scan", "ios": "https://dc.lft.to/lastmile_qr_scan"}, "fusion_lon": 0.0, "is_reserved": 0, "is_disabled": 0, "fusion_lat": 0.0, "type": "electric_scooter", "name": "a71f291be5665276ec75b6d05ecfe671", "lat": 38.9251605, "bike_id": "a71f291be5665276ec75b6d05ecfe671"}, {"lon": -77.0637455, "rental_uris": {"android": "https://dc.lft.to/lastmile_qr_scan", "ios": "https://dc.lft.to/lastmile_qr_scan"}, "fusion_lon": 0.0, "is_reserved": 0, "is_disabled": 0, "fusion_lat": 0.0, "type": "electric_scooter", "name": "4b01c0125e9ca98657769724d4c448e1", "lat": 38.906032833333335, "bike_id": "4b01c0125e9ca98657769724d4c448e1"}, {"lon": -77.02546616666666, "rental_uris": {"android": "https://dc.lft.to/lastmile_qr_scan", "ios": "https://dc.lft.to/lastmile_qr_scan"}, "fusion_lon": 0.0, "is_reserved": 0, "is_disabled": 0, "fusion_lat": 0.0, "type": "electric_scooter", "name": "565741990ea15eaf90501afeb2c5854f", "lat": 38.92080633333333, "bike_id": "565741990ea15eaf90501afeb2c5854f"}, {"lon": -77.02027866666667, "rental_uris": {"android": "https://dc.lft.to/lastmile_qr_scan", "ios": "https://dc.lft.to/lastmile_qr_scan"}, "fusion_lon": 0.0, "is_reserved": 0, "is_disabled": 0, "fusion_lat": 0.0, "type": "electric_scooter", "name": "4ad5b7bbac03e04d49f25dfce8cc8b0e", "lat": 38.924327166666664, "bike_id": "4ad5b7bbac03e04d49f25dfce8cc8b0e"}, {"lon": -77.210027, "rental_uris": {"android": "https://dc.lft.to/lastmile_qr_scan", "ios": "https://dc.lft.to/lastmile_qr_scan"}, "fusion_lon": 0.0, "is_reserved": 0, "is_disabled": 0, "fusion_lat": 0.0, "type": "electric_bike", "name": "7bc0b21cc12e9bed1906a6491767db7e", "lat": 38.9259225, "bike_id": "7bc0b21cc12e9bed1906a6491767db7e"}, {"lon": -77.02361833333333, "rental_uris": {"android": "https://dc.lft.to/lastmile_qr_scan", "ios": "https://dc.lft.to/lastmile_qr_scan"}, "fusion_lon": 0.0, "is_reserved": 0, "is_disabled": 0, "fusion_lat": 0.0, "type": "electric_scooter", "name": "cdc575029a2e32ea50550741631e6c83", "lat": 38.92056633333333, "bike_id": "cdc575029a2e32ea50550741631e6c83"}, {"lon": -76.99943233333333, "rental_uris": {"android": "https://dc.lft.to/lastmile_qr_scan", "ios": "https://dc.lft.to/lastmile_qr_scan"}, "fusion_lon": 0.0, "is_reserved": 0, "is_disabled": 0, "fusion_lat": 0.0, "type": "electric_scooter", "name": "1e484f7d2d711c7a28d916d2ff0abf81", "lat": 38.904285333333334, "bike_id": "1e484f7d2d711c7a28d916d2ff0abf81"}, {"lon": -77.03382383333333, "rental_uris": {"android": "https://dc.lft.to/lastmile_qr_scan", "ios": "https://dc.lft.to/lastmile_qr_scan"}, "fusion_lon": 0.0, "is_reserved": 0, "is_disabled": 0, "fusion_lat": 0.0, "type": "electric_scooter", "name": "444e538bba0d976adbb073d82bb3c859", "lat": 38.93839166666667, "bike_id": "444e538bba0d976adbb073d82bb3c859"}, {"lon": -77.04538633333334, "rental_uris": {"android": "https://dc.lft.to/lastmile_qr_scan", "ios": "https://dc.lft.to/lastmile_qr_scan"}, "fusion_lon": 0.0, "is_reserved": 0, "is_disabled": 0, "fusion_lat": 0.0, "type": "electric_scooter", "name": "b9aa39a42d014cff2c11c61e3287d5cf", "lat": 38.9111105, "bike_id": "b9aa39a42d014cff2c11c61e3287d5cf"}, {"lon": -77.02346333333334, "rental_uris": {"android": "https://dc.lft.to/lastmile_qr_scan", "ios": "https://dc.lft.to/lastmile_qr_scan"}, "fusion_lon": 0.0, "is_reserved": 0, "is_disabled": 0, "fusion_lat": 0.0, "type": "electric_scooter", "name": "649d73bbb435b48db3cdf34521772cf3", "lat": 38.91970766666667, "bike_id": "649d73bbb435b48db3cdf34521772cf3"}, {"lon": -77.0322865, "rental_uris": {"android": "https://dc.lft.to/lastmile_qr_scan", "ios": "https://dc.lft.to/lastmile_qr_scan"}, "fusion_lon": 0.0, "is_reserved": 0, "is_disabled": 0, "fusion_lat": 0.0, "type": "electric_scooter", "name": "61e337b317b01a1bc2f509d30f882558", "lat": 38.9170755, "bike_id": "61e337b317b01a1bc2f509d30f882558"}, {"lon": -77.02819983333333, "rental_uris": {"android": "https://dc.lft.to/lastmile_qr_scan", "ios": "https://dc.lft.to/lastmile_qr_scan"}, "fusion_lon": 0.0, "is_reserved": 0, "is_disabled": 0, "fusion_lat": 0.0, "type": "electric_scooter", "name": "229150e6f9c7a4ac6c0e8d7b21ca7855", "lat": 38.886218, "bike_id": "229150e6f9c7a4ac6c0e8d7b21ca7855"}, {"lon": -77.02211733333333, "rental_uris": {"android": "https://dc.lft.to/lastmile_qr_scan", "ios": "https://dc.lft.to/lastmile_qr_scan"}, "fusion_lon": 0.0, "is_reserved": 0, "is_disabled": 0, "fusion_lat": 0.0, "type": "electric_scooter", "name": "cc06836e8962a24da0b1491e24ee6ab4", "lat": 38.92222616666667, "bike_id": "cc06836e8962a24da0b1491e24ee6ab4"}, {"lon": -77.01565066666667, "rental_uris": {"android": "https://dc.lft.to/lastmile_qr_scan", "ios": "https://dc.lft.to/lastmile_qr_scan"}, "fusion_lon": 0.0, "is_reserved": 0, "is_disabled": 0, "fusion_lat": 0.0, "type": "electric_scooter", "name": "8bd2e6e506d65aadb8d35b5d501f9029", "lat": 38.91503066666667, "bike_id": "8bd2e6e506d65aadb8d35b5d501f9029"}, {"lon": -77.04678466666667, "rental_uris": {"android": "https://dc.lft.to/lastmile_qr_scan", "ios": "https://dc.lft.to/lastmile_qr_scan"}, "fusion_lon": 0.0, "is_reserved": 0, "is_disabled": 0, "fusion_lat": 0.0, "type": "electric_scooter", "name": "5c2d9e7557ed430d917b7739c98f4027", "lat": 38.89221533333333, "bike_id": "5c2d9e7557ed430d917b7739c98f4027"}, {"lon": -77.04348633333333, "rental_uris": {"android": "https://dc.lft.to/lastmile_qr_scan", "ios": "https://dc.lft.to/lastmile_qr_scan"}, "fusion_lon": 0.0, "is_reserved": 0, "is_disabled": 0, "fusion_lat": 0.0, "type": "electric_scooter", "name": "59c2dd676e0dc93da5c7c920232ed4f6", "lat": 38.9041325, "bike_id": "59c2dd676e0dc93da5c7c920232ed4f6"}, {"lon": -77.03121466666667, "rental_uris": {"android": "https://dc.lft.to/lastmile_qr_scan", "ios": "https://dc.lft.to/lastmile_qr_scan"}, "fusion_lon": 0.0, "is_reserved": 0, "is_disabled": 0, "fusion_lat": 0.0, "type": "electric_scooter", "name": "6fdb9c9f2a9dbdbd3395ed55925787b1", "lat": 38.897251833333335, "bike_id": "6fdb9c9f2a9dbdbd3395ed55925787b1"}, {"lon": -77.04536916666666, "rental_uris": {"android": "https://dc.lft.to/lastmile_qr_scan", "ios": "https://dc.lft.to/lastmile_qr_scan"}, "fusion_lon": 0.0, "is_reserved": 0, "is_disabled": 0, "fusion_lat": 0.0, "type": "electric_scooter", "name": "4dbdba102df38351fec9c8696b699b16", "lat": 38.9119735, "bike_id": "4dbdba102df38351fec9c8696b699b16"}, {"lon": -77.03823883333334, "rental_uris": {"android": "https://dc.lft.to/lastmile_qr_scan", "ios": "https://dc.lft.to/lastmile_qr_scan"}, "fusion_lon": 0.0, "is_reserved": 0, "is_disabled": 0, "fusion_lat": 0.0, "type": "electric_scooter", "name": "5f3b298e727b189f67e372172282af5e", "lat": 38.912651, "bike_id": "5f3b298e727b189f67e372172282af5e"}, {"lon": -77.04338266666667, "rental_uris": {"android": "https://dc.lft.to/lastmile_qr_scan", "ios": "https://dc.lft.to/lastmile_qr_scan"}, "fusion_lon": 0.0, "is_reserved": 0, "is_disabled": 0, "fusion_lat": 0.0, "type": "electric_scooter", "name": "dffa5438e27714e969fe3461a422c155", "lat": 38.90555483333333, "bike_id": "dffa5438e27714e969fe3461a422c155"}, {"lon": -77.0194115, "rental_uris": {"android": "https://dc.lft.to/lastmile_qr_scan", "ios": "https://dc.lft.to/lastmile_qr_scan"}, "fusion_lon": 0.0, "is_reserved": 0, "is_disabled": 0, "fusion_lat": 0.0, "type": "electric_scooter", "name": "e4afcf6cdb88eae05370786e3ea92328", "lat": 38.92256716666667, "bike_id": "e4afcf6cdb88eae05370786e3ea92328"}, {"lon": -77.0327925, "rental_uris": {"android": "https://dc.lft.to/lastmile_qr_scan", "ios": "https://dc.lft.to/lastmile_qr_scan"}, "fusion_lon": 0.0, "is_reserved": 0, "is_disabled": 0, "fusion_lat": 0.0, "type": "electric_scooter", "name": "e65cab29d59ef2c798179797584f8eab", "lat": 38.9377525, "bike_id": "e65cab29d59ef2c798179797584f8eab"}, {"lon": -76.9864835, "rental_uris": {"android": "https://dc.lft.to/lastmile_qr_scan", "ios": "https://dc.lft.to/lastmile_qr_scan"}, "fusion_lon": 0.0, "is_reserved": 0, "is_disabled": 0, "fusion_lat": 0.0, "type": "electric_scooter", "name": "6b721e34e81e0650252f816921a7f149", "lat": 38.897645833333335, "bike_id": "6b721e34e81e0650252f816921a7f149"}, {"lon": -77.0144325, "rental_uris": {"android": "https://dc.lft.to/lastmile_qr_scan", "ios": "https://dc.lft.to/lastmile_qr_scan"}, "fusion_lon": 0.0, "is_reserved": 0, "is_disabled": 0, "fusion_lat": 0.0, "type": "electric_scooter", "name": "553a0e5376ad84ee6ab35a03d9ce2951", "lat": 38.902424333333336, "bike_id": "553a0e5376ad84ee6ab35a03d9ce2951"}, {"lon": -77.0247335, "rental_uris": {"android": "https://dc.lft.to/lastmile_qr_scan", "ios": "https://dc.lft.to/lastmile_qr_scan"}, "fusion_lon": 0.0, "is_reserved": 0, "is_disabled": 0, "fusion_lat": 0.0, "type": "electric_scooter", "name": "dc2237c1c9b82f11c4f42b035d22893f", "lat": 38.94198133333333, "bike_id": "dc2237c1c9b82f11c4f42b035d22893f"}, {"lon": -77.02696883333333, "rental_uris": {"android": "https://dc.lft.to/lastmile_qr_scan", "ios": "https://dc.lft.to/lastmile_qr_scan"}, "fusion_lon": 0.0, "is_reserved": 0, "is_disabled": 0, "fusion_lat": 0.0, "type": "electric_scooter", "name": "b7860036f5662fb290d5244e54b5305b", "lat": 38.9067025, "bike_id": "b7860036f5662fb290d5244e54b5305b"}, {"lon": -77.0259025, "rental_uris": {"android": "https://dc.lft.to/lastmile_qr_scan", "ios": "https://dc.lft.to/lastmile_qr_scan"}, "fusion_lon": 0.0, "is_reserved": 0, "is_disabled": 0, "fusion_lat": 0.0, "type": "electric_scooter", "name": "0a2f870960409b513aae77e91b39c7cf", "lat": 38.905959833333334, "bike_id": "0a2f870960409b513aae77e91b39c7cf"}, {"lon": -77.02819283333334, "rental_uris": {"android": "https://dc.lft.to/lastmile_qr_scan", "ios": "https://dc.lft.to/lastmile_qr_scan"}, "fusion_lon": 0.0, "is_reserved": 0, "is_disabled": 0, "fusion_lat": 0.0, "type": "electric_scooter", "name": "163ced78075808b0e6914be9af6e31e8", "lat": 38.88660466666666, "bike_id": "163ced78075808b0e6914be9af6e31e8"}, {"lon": -77.02778133333334, "rental_uris": {"android": "https://dc.lft.to/lastmile_qr_scan", "ios": "https://dc.lft.to/lastmile_qr_scan"}, "fusion_lon": 0.0, "is_reserved": 0, "is_disabled": 0, "fusion_lat": 0.0, "type": "electric_scooter", "name": "e461214b775172fd5887061ed69cadb2", "lat": 38.892176666666664, "bike_id": "e461214b775172fd5887061ed69cadb2"}, {"lon": -77.03279666666667, "rental_uris": {"android": "https://dc.lft.to/lastmile_qr_scan", "ios": "https://dc.lft.to/lastmile_qr_scan"}, "fusion_lon": 0.0, "is_reserved": 0, "is_disabled": 0, "fusion_lat": 0.0, "type": "electric_scooter", "name": "1d7cc60ee32f2f82a12a614225980015", "lat": 38.8989195, "bike_id": "1d7cc60ee32f2f82a12a614225980015"}, {"lon": -77.036622, "rental_uris": {"android": "https://dc.lft.to/lastmile_qr_scan", "ios": "https://dc.lft.to/lastmile_qr_scan"}, "fusion_lon": 0.0, "is_reserved": 0, "is_disabled": 0, "fusion_lat": 0.0, "type": "electric_scooter", "name": "0cc6e8f68b05db8c4be797ad5149c5c0", "lat": 38.9320735, "bike_id": "0cc6e8f68b05db8c4be797ad5149c5c0"}, {"lon": -77.03830666666667, "rental_uris": {"android": "https://dc.lft.to/lastmile_qr_scan", "ios": "https://dc.lft.to/lastmile_qr_scan"}, "fusion_lon": 0.0, "is_reserved": 0, "is_disabled": 0, "fusion_lat": 0.0, "type": "electric_scooter", "name": "8121d1bddc201aad0108971be0e05d60", "lat": 38.94503133333333, "bike_id": "8121d1bddc201aad0108971be0e05d60"}, {"lon": -77.032217, "rental_uris": {"android": "https://dc.lft.to/lastmile_qr_scan", "ios": "https://dc.lft.to/lastmile_qr_scan"}, "fusion_lon": 0.0, "is_reserved": 0, "is_disabled": 0, "fusion_lat": 0.0, "type": "electric_scooter", "name": "6ad82d5bea8c5ce5251811239fbb787e", "lat": 38.917815166666664, "bike_id": "6ad82d5bea8c5ce5251811239fbb787e"}, {"lon": -77.032056, "rental_uris": {"android": "https://dc.lft.to/lastmile_qr_scan", "ios": "https://dc.lft.to/lastmile_qr_scan"}, "fusion_lon": 0.0, "is_reserved": 0, "is_disabled": 0, "fusion_lat": 0.0, "type": "electric_scooter", "name": "fa50da0f9a9f6cdd1eb8e3648fb70c0f", "lat": 38.922853833333335, "bike_id": "fa50da0f9a9f6cdd1eb8e3648fb70c0f"}, {"lon": -77.01223483333334, "rental_uris": {"android": "https://dc.lft.to/lastmile_qr_scan", "ios": "https://dc.lft.to/lastmile_qr_scan"}, "fusion_lon": 0.0, "is_reserved": 0, "is_disabled": 0, "fusion_lat": 0.0, "type": "electric_scooter", "name": "66ee5ef103cd740e07b36cbd1bf937dd", "lat": 38.8985605, "bike_id": "66ee5ef103cd740e07b36cbd1bf937dd"}, {"lon": -77.006893, "rental_uris": {"android": "https://dc.lft.to/lastmile_qr_scan", "ios": "https://dc.lft.to/lastmile_qr_scan"}, "fusion_lon": 0.0, "is_reserved": 0, "is_disabled": 0, "fusion_lat": 0.0, "type": "electric_scooter", "name": "5bcd3063712ef5a2425754414a49eb73", "lat": 38.90542683333334, "bike_id": "5bcd3063712ef5a2425754414a49eb73"}, {"lon": -77.05021583333334, "rental_uris": {"android": "https://dc.lft.to/lastmile_qr_scan", "ios": "https://dc.lft.to/lastmile_qr_scan"}, "fusion_lon": 0.0, "is_reserved": 0, "is_disabled": 0, "fusion_lat": 0.0, "type": "electric_scooter", "name": "1222e2fa69e87fe2ca4ab8bf6981921b", "lat": 38.90624666666667, "bike_id": "1222e2fa69e87fe2ca4ab8bf6981921b"}, {"lon": -77.02783416666666, "rental_uris": {"android": "https://dc.lft.to/lastmile_qr_scan", "ios": "https://dc.lft.to/lastmile_qr_scan"}, "fusion_lon": 0.0, "is_reserved": 0, "is_disabled": 0, "fusion_lat": 0.0, "type": "electric_scooter", "name": "0108752dba2ffd74b9d1554466ae76dd", "lat": 38.9735075, "bike_id": "0108752dba2ffd74b9d1554466ae76dd"}, {"lon": -77.02365066666667, "rental_uris": {"android": "https://dc.lft.to/lastmile_qr_scan", "ios": "https://dc.lft.to/lastmile_qr_scan"}, "fusion_lon": 0.0, "is_reserved": 0, "is_disabled": 0, "fusion_lat": 0.0, "type": "electric_scooter", "name": "ceb2a2e189210d0988186e84cd1193bb", "lat": 38.892208833333335, "bike_id": "ceb2a2e189210d0988186e84cd1193bb"}, {"lon": -76.98728833333334, "rental_uris": {"android": "https://dc.lft.to/lastmile_qr_scan", "ios": "https://dc.lft.to/lastmile_qr_scan"}, "fusion_lon": 0.0, "is_reserved": 0, "is_disabled": 0, "fusion_lat": 0.0, "type": "electric_scooter", "name": "e7dc8168a28bf4c3a8100a559cf9c7e1", "lat": 38.90358766666667, "bike_id": "e7dc8168a28bf4c3a8100a559cf9c7e1"}, {"lon": -77.03830466666666, "rental_uris": {"android": "https://dc.lft.to/lastmile_qr_scan", "ios": "https://dc.lft.to/lastmile_qr_scan"}, "fusion_lon": 0.0, "is_reserved": 0, "is_disabled": 0, "fusion_lat": 0.0, "type": "electric_scooter", "name": "5a67e4b7e8b6438d9d900c3f208f206e", "lat": 38.902759333333336, "bike_id": "5a67e4b7e8b6438d9d900c3f208f206e"}, {"lon": -77.0698135, "rental_uris": {"android": "https://dc.lft.to/lastmile_qr_scan", "ios": "https://dc.lft.to/lastmile_qr_scan"}, "fusion_lon": 0.0, "is_reserved": 0, "is_disabled": 0, "fusion_lat": 0.0, "type": "electric_scooter", "name": "56185bbabb6b860a6f20eee62789e415", "lat": 38.955269666666666, "bike_id": "56185bbabb6b860a6f20eee62789e415"}, {"lon": -77.01962933333333, "rental_uris": {"android": "https://dc.lft.to/lastmile_qr_scan", "ios": "https://dc.lft.to/lastmile_qr_scan"}, "fusion_lon": 0.0, "is_reserved": 0, "is_disabled": 0, "fusion_lat": 0.0, "type": "electric_scooter", "name": "447d1b284d16c28f509e6e93576d0dd7", "lat": 38.9190295, "bike_id": "447d1b284d16c28f509e6e93576d0dd7"}, {"lon": -77.023732, "rental_uris": {"android": "https://dc.lft.to/lastmile_qr_scan", "ios": "https://dc.lft.to/lastmile_qr_scan"}, "fusion_lon": 0.0, "is_reserved": 0, "is_disabled": 0, "fusion_lat": 0.0, "type": "electric_scooter", "name": "deaa02d876ab53dffd5f64dd3c41821e", "lat": 38.90197916666666, "bike_id": "deaa02d876ab53dffd5f64dd3c41821e"}, {"lon": -77.02986283333334, "rental_uris": {"android": "https://dc.lft.to/lastmile_qr_scan", "ios": "https://dc.lft.to/lastmile_qr_scan"}, "fusion_lon": 0.0, "is_reserved": 0, "is_disabled": 0, "fusion_lat": 0.0, "type": "electric_scooter", "name": "9c38d0518c563cf2e9c9909fff5febc7", "lat": 38.92238033333334, "bike_id": "9c38d0518c563cf2e9c9909fff5febc7"}, {"lon": -77.02151933333333, "rental_uris": {"android": "https://dc.lft.to/lastmile_qr_scan", "ios": "https://dc.lft.to/lastmile_qr_scan"}, "fusion_lon": 0.0, "is_reserved": 0, "is_disabled": 0, "fusion_lat": 0.0, "type": "electric_scooter", "name": "c9f555ce86511e4aaa8ee738a89d6d1b", "lat": 38.924598333333336, "bike_id": "c9f555ce86511e4aaa8ee738a89d6d1b"}, {"lon": -76.98337233333334, "rental_uris": {"android": "https://dc.lft.to/lastmile_qr_scan", "ios": "https://dc.lft.to/lastmile_qr_scan"}, "fusion_lon": 0.0, "is_reserved": 0, "is_disabled": 0, "fusion_lat": 0.0, "type": "electric_scooter", "name": "04f4a971dfc45dcb95782b9f88a95dbc", "lat": 38.89545233333333, "bike_id": "04f4a971dfc45dcb95782b9f88a95dbc"}, {"lon": -77.02428083333334, "rental_uris": {"android": "https://dc.lft.to/lastmile_qr_scan", "ios": "https://dc.lft.to/lastmile_qr_scan"}, "fusion_lon": 0.0, "is_reserved": 0, "is_disabled": 0, "fusion_lat": 0.0, "type": "electric_scooter", "name": "9ce5179ce295bafc1314695a92242206", "lat": 38.96801816666667, "bike_id": "9ce5179ce295bafc1314695a92242206"}, {"lon": -76.95750483333333, "rental_uris": {"android": "https://dc.lft.to/lastmile_qr_scan", "ios": "https://dc.lft.to/lastmile_qr_scan"}, "fusion_lon": 0.0, "is_reserved": 0, "is_disabled": 0, "fusion_lat": 0.0, "type": "electric_scooter", "name": "9246832f19d25b016e2d8b9555705813", "lat": 38.88430116666667, "bike_id": "9246832f19d25b016e2d8b9555705813"}, {"lon": -76.99655833333334, "rental_uris": {"android": "https://dc.lft.to/lastmile_qr_scan", "ios": "https://dc.lft.to/lastmile_qr_scan"}, "fusion_lon": 0.0, "is_reserved": 0, "is_disabled": 0, "fusion_lat": 0.0, "type": "electric_bike", "name": "14dd6237e436de0bb69e6cc9cdd8d12a", "lat": 38.8383795, "bike_id": "14dd6237e436de0bb69e6cc9cdd8d12a"}, {"lon": -76.98243766666667, "rental_uris": {"android": "https://dc.lft.to/lastmile_qr_scan", "ios": "https://dc.lft.to/lastmile_qr_scan"}, "fusion_lon": 0.0, "is_reserved": 0, "is_disabled": 0, "fusion_lat": 0.0, "type": "electric_bike", "name": "009440f95f28ae770c7697337832f41d", "lat": 38.953274666666665, "bike_id": "009440f95f28ae770c7697337832f41d"}, {"lon": -76.93422383333333, "rental_uris": {"android": "https://dc.lft.to/lastmile_qr_scan", "ios": "https://dc.lft.to/lastmile_qr_scan"}, "fusion_lon": 0.0, "is_reserved": 0, "is_disabled": 0, "fusion_lat": 0.0, "type": "electric_scooter", "name": "4d4852298fb6f17131dd851ac1985c36", "lat": 38.893424333333336, "bike_id": "4d4852298fb6f17131dd851ac1985c36"}, {"lon": -77.02493966666667, "rental_uris": {"android": "https://dc.lft.to/lastmile_qr_scan", "ios": "https://dc.lft.to/lastmile_qr_scan"}, "fusion_lon": 0.0, "is_reserved": 0, "is_disabled": 0, "fusion_lat": 0.0, "type": "electric_scooter", "name": "2f86ef7e0fa367e6507dbd862b5b2ddd", "lat": 38.93043316666667, "bike_id": "2f86ef7e0fa367e6507dbd862b5b2ddd"}, {"lon": -77.04825066666666, "rental_uris": {"android": "https://dc.lft.to/lastmile_qr_scan", "ios": "https://dc.lft.to/lastmile_qr_scan"}, "fusion_lon": 0.0, "is_reserved": 0, "is_disabled": 0, "fusion_lat": 0.0, "type": "electric_scooter", "name": "1b6ef7349c445cc13add82c1d41d4d7d", "lat": 38.90517533333333, "bike_id": "1b6ef7349c445cc13add82c1d41d4d7d"}, {"lon": -77.03198916666666, "rental_uris": {"android": "https://dc.lft.to/lastmile_qr_scan", "ios": "https://dc.lft.to/lastmile_qr_scan"}, "fusion_lon": 0.0, "is_reserved": 0, "is_disabled": 0, "fusion_lat": 0.0, "type": "electric_scooter", "name": "211f7e5136fdbaf7fcc347fd5a8ea7e8", "lat": 38.88399033333334, "bike_id": "211f7e5136fdbaf7fcc347fd5a8ea7e8"}, {"lon": -77.0426795, "rental_uris": {"android": "https://dc.lft.to/lastmile_qr_scan", "ios": "https://dc.lft.to/lastmile_qr_scan"}, "fusion_lon": 0.0, "is_reserved": 0, "is_disabled": 0, "fusion_lat": 0.0, "type": "electric_scooter", "name": "5f0d485baf1700b2a558b0a3ef0d96a0", "lat": 38.90556733333333, "bike_id": "5f0d485baf1700b2a558b0a3ef0d96a0"}, {"lon": -77.03391583333334, "rental_uris": {"android": "https://dc.lft.to/lastmile_qr_scan", "ios": "https://dc.lft.to/lastmile_qr_scan"}, "fusion_lon": 0.0, "is_reserved": 0, "is_disabled": 0, "fusion_lat": 0.0, "type": "electric_scooter", "name": "40ea2c2e68a2da861e91e31d7aceb4f5", "lat": 38.93070566666667, "bike_id": "40ea2c2e68a2da861e91e31d7aceb4f5"}, {"lon": -77.04386666666667, "rental_uris": {"android": "https://dc.lft.to/lastmile_qr_scan", "ios": "https://dc.lft.to/lastmile_qr_scan"}, "fusion_lon": 0.0, "is_reserved": 0, "is_disabled": 0, "fusion_lat": 0.0, "type": "electric_scooter", "name": "59ea3a99415bd0d4b003286825686cac", "lat": 38.897331, "bike_id": "59ea3a99415bd0d4b003286825686cac"}, {"lon": -77.02190266666666, "rental_uris": {"android": "https://dc.lft.to/lastmile_qr_scan", "ios": "https://dc.lft.to/lastmile_qr_scan"}, "fusion_lon": 0.0, "is_reserved": 0, "is_disabled": 0, "fusion_lat": 0.0, "type": "electric_scooter", "name": "a23327b3b4139116b3267c4768370e3d", "lat": 38.919176666666665, "bike_id": "a23327b3b4139116b3267c4768370e3d"}, {"lon": -77.03054433333334, "rental_uris": {"android": "https://dc.lft.to/lastmile_qr_scan", "ios": "https://dc.lft.to/lastmile_qr_scan"}, "fusion_lon": 0.0, "is_reserved": 0, "is_disabled": 0, "fusion_lat": 0.0, "type": "electric_bike", "name": "370423bdfc095a3db7b91708b48f3f95", "lat": 38.959668666666666, "bike_id": "370423bdfc095a3db7b91708b48f3f95"}, {"lon": -77.02179066666666, "rental_uris": {"android": "https://dc.lft.to/lastmile_qr_scan", "ios": "https://dc.lft.to/lastmile_qr_scan"}, "fusion_lon": 0.0, "is_reserved": 0, "is_disabled": 0, "fusion_lat": 0.0, "type": "electric_scooter", "name": "fefe7c12fa304792c3b983915f49a3db", "lat": 38.91083583333333, "bike_id": "fefe7c12fa304792c3b983915f49a3db"}, {"lon": -77.032395, "rental_uris": {"android": "https://dc.lft.to/lastmile_qr_scan", "ios": "https://dc.lft.to/lastmile_qr_scan"}, "fusion_lon": 0.0, "is_reserved": 0, "is_disabled": 0, "fusion_lat": 0.0, "type": "electric_scooter", "name": "f7a1619c8f0fbc8291928d366e90e3a3", "lat": 38.91708216666667, "bike_id": "f7a1619c8f0fbc8291928d366e90e3a3"}, {"lon": -76.99407316666667, "rental_uris": {"android": "https://dc.lft.to/lastmile_qr_scan", "ios": "https://dc.lft.to/lastmile_qr_scan"}, "fusion_lon": 0.0, "is_reserved": 0, "is_disabled": 0, "fusion_lat": 0.0, "type": "electric_scooter", "name": "3f091e20a37f07cba7f64670a29fd401", "lat": 38.8778455, "bike_id": "3f091e20a37f07cba7f64670a29fd401"}, {"lon": -77.0393535, "rental_uris": {"android": "https://dc.lft.to/lastmile_qr_scan", "ios": "https://dc.lft.to/lastmile_qr_scan"}, "fusion_lon": 0.0, "is_reserved": 0, "is_disabled": 0, "fusion_lat": 0.0, "type": "electric_scooter", "name": "7853ef63016e2d1518d6b94a4e8cce9d", "lat": 38.91604233333333, "bike_id": "7853ef63016e2d1518d6b94a4e8cce9d"}, {"lon": -77.02784816666667, "rental_uris": {"android": "https://dc.lft.to/lastmile_qr_scan", "ios": "https://dc.lft.to/lastmile_qr_scan"}, "fusion_lon": 0.0, "is_reserved": 0, "is_disabled": 0, "fusion_lat": 0.0, "type": "electric_scooter", "name": "d5c7ddfad02b58904de3649f239f6e4f", "lat": 38.9171095, "bike_id": "d5c7ddfad02b58904de3649f239f6e4f"}, {"lon": -77.0240025, "rental_uris": {"android": "https://dc.lft.to/lastmile_qr_scan", "ios": "https://dc.lft.to/lastmile_qr_scan"}, "fusion_lon": 0.0, "is_reserved": 0, "is_disabled": 0, "fusion_lat": 0.0, "type": "electric_scooter", "name": "77ce81079c0853e9aac7ebc2182ba8dc", "lat": 38.900455666666666, "bike_id": "77ce81079c0853e9aac7ebc2182ba8dc"}, {"lon": -77.04150333333334, "rental_uris": {"android": "https://dc.lft.to/lastmile_qr_scan", "ios": "https://dc.lft.to/lastmile_qr_scan"}, "fusion_lon": 0.0, "is_reserved": 0, "is_disabled": 0, "fusion_lat": 0.0, "type": "electric_scooter", "name": "069c7cff85147bdd7617599f96a1cbc6", "lat": 38.917511833333336, "bike_id": "069c7cff85147bdd7617599f96a1cbc6"}, {"lon": -77.2393975, "rental_uris": {"android": "https://dc.lft.to/lastmile_qr_scan", "ios": "https://dc.lft.to/lastmile_qr_scan"}, "fusion_lon": 0.0, "is_reserved": 0, "is_disabled": 0, "fusion_lat": 0.0, "type": "electric_bike", "name": "8201468c115f6b71b261567e7094d40e", "lat": 38.92477566666667, "bike_id": "8201468c115f6b71b261567e7094d40e"}, {"lon": -77.025214, "rental_uris": {"android": "https://dc.lft.to/lastmile_qr_scan", "ios": "https://dc.lft.to/lastmile_qr_scan"}, "fusion_lon": 0.0, "is_reserved": 0, "is_disabled": 0, "fusion_lat": 0.0, "type": "electric_bike", "name": "df1637005d8e64c199ee24fed8c38a55", "lat": 38.8972715, "bike_id": "df1637005d8e64c199ee24fed8c38a55"}, {"lon": -77.04505916666666, "rental_uris": {"android": "https://dc.lft.to/lastmile_qr_scan", "ios": "https://dc.lft.to/lastmile_qr_scan"}, "fusion_lon": 0.0, "is_reserved": 0, "is_disabled": 0, "fusion_lat": 0.0, "type": "electric_scooter", "name": "a5b3d268770e802ea13861cfdcfa3b38", "lat": 38.903796166666666, "bike_id": "a5b3d268770e802ea13861cfdcfa3b38"}, {"lon": -77.05182583333334, "rental_uris": {"android": "https://dc.lft.to/lastmile_qr_scan", "ios": "https://dc.lft.to/lastmile_qr_scan"}, "fusion_lon": 0.0, "is_reserved": 0, "is_disabled": 0, "fusion_lat": 0.0, "type": "electric_scooter", "name": "2fde5b07b375b76b8e3e251b692737e4", "lat": 38.92426183333333, "bike_id": "2fde5b07b375b76b8e3e251b692737e4"}, {"lon": -77.03066466666667, "rental_uris": {"android": "https://dc.lft.to/lastmile_qr_scan", "ios": "https://dc.lft.to/lastmile_qr_scan"}, "fusion_lon": 0.0, "is_reserved": 0, "is_disabled": 0, "fusion_lat": 0.0, "type": "electric_scooter", "name": "221951dce5d87410fbf0971a95c74294", "lat": 38.9191625, "bike_id": "221951dce5d87410fbf0971a95c74294"}, {"lon": -77.07342783333333, "rental_uris": {"android": "https://dc.lft.to/lastmile_qr_scan", "ios": "https://dc.lft.to/lastmile_qr_scan"}, "fusion_lon": 0.0, "is_reserved": 0, "is_disabled": 0, "fusion_lat": 0.0, "type": "electric_scooter", "name": "967c598ee7907551a4e82af2b640e8a8", "lat": 38.92253383333333, "bike_id": "967c598ee7907551a4e82af2b640e8a8"}, {"lon": -77.03286283333334, "rental_uris": {"android": "https://dc.lft.to/lastmile_qr_scan", "ios": "https://dc.lft.to/lastmile_qr_scan"}, "fusion_lon": 0.0, "is_reserved": 0, "is_disabled": 0, "fusion_lat": 0.0, "type": "electric_scooter", "name": "e35545bf3fc4b134c919aa512059449c", "lat": 38.9274625, "bike_id": "e35545bf3fc4b134c919aa512059449c"}, {"lon": -77.006989, "rental_uris": {"android": "https://dc.lft.to/lastmile_qr_scan", "ios": "https://dc.lft.to/lastmile_qr_scan"}, "fusion_lon": 0.0, "is_reserved": 0, "is_disabled": 0, "fusion_lat": 0.0, "type": "electric_scooter", "name": "ac0ee9f5315b6af08dcef89f9a4cb841", "lat": 38.9155155, "bike_id": "ac0ee9f5315b6af08dcef89f9a4cb841"}, {"lon": -77.04363983333333, "rental_uris": {"android": "https://dc.lft.to/lastmile_qr_scan", "ios": "https://dc.lft.to/lastmile_qr_scan"}, "fusion_lon": 0.0, "is_reserved": 0, "is_disabled": 0, "fusion_lat": 0.0, "type": "electric_scooter", "name": "4ad75d23a9f2e3ff778faf080074730e", "lat": 38.90050466666667, "bike_id": "4ad75d23a9f2e3ff778faf080074730e"}, {"lon": -77.037641, "rental_uris": {"android": "https://dc.lft.to/lastmile_qr_scan", "ios": "https://dc.lft.to/lastmile_qr_scan"}, "fusion_lon": 0.0, "is_reserved": 0, "is_disabled": 0, "fusion_lat": 0.0, "type": "electric_scooter", "name": "c38c03d1bd44f333d96b8bf4537b7f7b", "lat": 38.916914166666665, "bike_id": "c38c03d1bd44f333d96b8bf4537b7f7b"}, {"lon": -77.01843566666666, "rental_uris": {"android": "https://dc.lft.to/lastmile_qr_scan", "ios": "https://dc.lft.to/lastmile_qr_scan"}, "fusion_lon": 0.0, "is_reserved": 0, "is_disabled": 0, "fusion_lat": 0.0, "type": "electric_scooter", "name": "246ee43addba3d9d2b85abafc89a252b", "lat": 38.922635, "bike_id": "246ee43addba3d9d2b85abafc89a252b"}, {"lon": -77.03415833333334, "rental_uris": {"android": "https://dc.lft.to/lastmile_qr_scan", "ios": "https://dc.lft.to/lastmile_qr_scan"}, "fusion_lon": 0.0, "is_reserved": 0, "is_disabled": 0, "fusion_lat": 0.0, "type": "electric_scooter", "name": "0eb6dbb04016b9327fbd087ab30ad7f8", "lat": 38.902584, "bike_id": "0eb6dbb04016b9327fbd087ab30ad7f8"}, {"lon": -77.03636416666667, "rental_uris": {"android": "https://dc.lft.to/lastmile_qr_scan", "ios": "https://dc.lft.to/lastmile_qr_scan"}, "fusion_lon": 0.0, "is_reserved": 0, "is_disabled": 0, "fusion_lat": 0.0, "type": "electric_scooter", "name": "e7d02b00ed0b1b1cc328531feb789ce1", "lat": 38.93666016666667, "bike_id": "e7d02b00ed0b1b1cc328531feb789ce1"}, {"lon": -77.04054516666666, "rental_uris": {"android": "https://dc.lft.to/lastmile_qr_scan", "ios": "https://dc.lft.to/lastmile_qr_scan"}, "fusion_lon": 0.0, "is_reserved": 0, "is_disabled": 0, "fusion_lat": 0.0, "type": "electric_scooter", "name": "3d39e7685e2ceb6c59dc011dfcb40ecf", "lat": 38.92796233333333, "bike_id": "3d39e7685e2ceb6c59dc011dfcb40ecf"}, {"lon": -77.0484155, "rental_uris": {"android": "https://dc.lft.to/lastmile_qr_scan", "ios": "https://dc.lft.to/lastmile_qr_scan"}, "fusion_lon": 0.0, "is_reserved": 0, "is_disabled": 0, "fusion_lat": 0.0, "type": "electric_scooter", "name": "b101081f6db63f9ca1757e57c162ed77", "lat": 38.90047083333333, "bike_id": "b101081f6db63f9ca1757e57c162ed77"}, {"lon": -76.99844133333333, "rental_uris": {"android": "https://dc.lft.to/lastmile_qr_scan", "ios": "https://dc.lft.to/lastmile_qr_scan"}, "fusion_lon": 0.0, "is_reserved": 0, "is_disabled": 0, "fusion_lat": 0.0, "type": "electric_scooter", "name": "bc94e8a350a37d7c8c014d9e64ead54d", "lat": 38.8395625, "bike_id": "bc94e8a350a37d7c8c014d9e64ead54d"}, {"lon": -77.03237533333333, "rental_uris": {"android": "https://dc.lft.to/lastmile_qr_scan", "ios": "https://dc.lft.to/lastmile_qr_scan"}, "fusion_lon": 0.0, "is_reserved": 0, "is_disabled": 0, "fusion_lat": 0.0, "type": "electric_scooter", "name": "2f2b1572314955519f6c10a48b5d6c3b", "lat": 38.919891, "bike_id": "2f2b1572314955519f6c10a48b5d6c3b"}, {"lon": -77.027144, "rental_uris": {"android": "https://dc.lft.to/lastmile_qr_scan", "ios": "https://dc.lft.to/lastmile_qr_scan"}, "fusion_lon": 0.0, "is_reserved": 0, "is_disabled": 0, "fusion_lat": 0.0, "type": "electric_scooter", "name": "b70269ce6871f323c15ca57cf1e09c87", "lat": 38.8984985, "bike_id": "b70269ce6871f323c15ca57cf1e09c87"}, {"lon": -76.97331516666667, "rental_uris": {"android": "https://dc.lft.to/lastmile_qr_scan", "ios": "https://dc.lft.to/lastmile_qr_scan"}, "fusion_lon": 0.0, "is_reserved": 0, "is_disabled": 0, "fusion_lat": 0.0, "type": "electric_scooter", "name": "850f8d766e36cda1dabc0b4fc650ae02", "lat": 38.904109, "bike_id": "850f8d766e36cda1dabc0b4fc650ae02"}, {"lon": -77.0453675, "rental_uris": {"android": "https://dc.lft.to/lastmile_qr_scan", "ios": "https://dc.lft.to/lastmile_qr_scan"}, "fusion_lon": 0.0, "is_reserved": 0, "is_disabled": 0, "fusion_lat": 0.0, "type": "electric_scooter", "name": "14f33a0d20faa4a40d715a0423b559d2", "lat": 38.91116316666667, "bike_id": "14f33a0d20faa4a40d715a0423b559d2"}, {"lon": -77.02948866666667, "rental_uris": {"android": "https://dc.lft.to/lastmile_qr_scan", "ios": "https://dc.lft.to/lastmile_qr_scan"}, "fusion_lon": 0.0, "is_reserved": 0, "is_disabled": 0, "fusion_lat": 0.0, "type": "electric_scooter", "name": "9819461e806d3114d50340b1e36a8a17", "lat": 38.90172466666667, "bike_id": "9819461e806d3114d50340b1e36a8a17"}, {"lon": -77.00556116666667, "rental_uris": {"android": "https://dc.lft.to/lastmile_qr_scan", "ios": "https://dc.lft.to/lastmile_qr_scan"}, "fusion_lon": 0.0, "is_reserved": 0, "is_disabled": 0, "fusion_lat": 0.0, "type": "electric_scooter", "name": "7548987f64ed1eb094d1804c2c7a74d4", "lat": 38.8755965, "bike_id": "7548987f64ed1eb094d1804c2c7a74d4"}, {"lon": -77.00926633333333, "rental_uris": {"android": "https://dc.lft.to/lastmile_qr_scan", "ios": "https://dc.lft.to/lastmile_qr_scan"}, "fusion_lon": 0.0, "is_reserved": 0, "is_disabled": 0, "fusion_lat": 0.0, "type": "electric_scooter", "name": "e620e059df983572c3828525ab7127cd", "lat": 38.896063833333336, "bike_id": "e620e059df983572c3828525ab7127cd"}, {"lon": -77.02245816666667, "rental_uris": {"android": "https://dc.lft.to/lastmile_qr_scan", "ios": "https://dc.lft.to/lastmile_qr_scan"}, "fusion_lon": 0.0, "is_reserved": 0, "is_disabled": 0, "fusion_lat": 0.0, "type": "electric_scooter", "name": "82bc640070daa72a91f8385cef154246", "lat": 38.893313, "bike_id": "82bc640070daa72a91f8385cef154246"}, {"lon": -77.04834383333333, "rental_uris": {"android": "https://dc.lft.to/lastmile_qr_scan", "ios": "https://dc.lft.to/lastmile_qr_scan"}, "fusion_lon": 0.0, "is_reserved": 0, "is_disabled": 0, "fusion_lat": 0.0, "type": "electric_scooter", "name": "2ef8024cbdeb46d9b9df5da158d1e2b8", "lat": 38.91100433333333, "bike_id": "2ef8024cbdeb46d9b9df5da158d1e2b8"}, {"lon": -77.02379166666667, "rental_uris": {"android": "https://dc.lft.to/lastmile_qr_scan", "ios": "https://dc.lft.to/lastmile_qr_scan"}, "fusion_lon": 0.0, "is_reserved": 0, "is_disabled": 0, "fusion_lat": 0.0, "type": "electric_scooter", "name": "009f6d73a2aaf0b8f3155f97bd3901fd", "lat": 38.89194166666667, "bike_id": "009f6d73a2aaf0b8f3155f97bd3901fd"}, {"lon": -77.01013433333334, "rental_uris": {"android": "https://dc.lft.to/lastmile_qr_scan", "ios": "https://dc.lft.to/lastmile_qr_scan"}, "fusion_lon": 0.0, "is_reserved": 0, "is_disabled": 0, "fusion_lat": 0.0, "type": "electric_scooter", "name": "f8867f4e416e3dc26cb6e278e01fc973", "lat": 38.91410833333333, "bike_id": "f8867f4e416e3dc26cb6e278e01fc973"}, {"lon": -77.021535, "rental_uris": {"android": "https://dc.lft.to/lastmile_qr_scan", "ios": "https://dc.lft.to/lastmile_qr_scan"}, "fusion_lon": 0.0, "is_reserved": 0, "is_disabled": 0, "fusion_lat": 0.0, "type": "electric_scooter", "name": "ebba375b43f2b4bb490f9cc73754d3af", "lat": 38.92600733333333, "bike_id": "ebba375b43f2b4bb490f9cc73754d3af"}, {"lon": -76.93174683333334, "rental_uris": {"android": "https://dc.lft.to/lastmile_qr_scan", "ios": "https://dc.lft.to/lastmile_qr_scan"}, "fusion_lon": 0.0, "is_reserved": 0, "is_disabled": 0, "fusion_lat": 0.0, "type": "electric_scooter", "name": "76264f83d0eca64da969cedbb146ee23", "lat": 38.898876, "bike_id": "76264f83d0eca64da969cedbb146ee23"}, {"lon": -77.01885533333333, "rental_uris": {"android": "https://dc.lft.to/lastmile_qr_scan", "ios": "https://dc.lft.to/lastmile_qr_scan"}, "fusion_lon": 0.0, "is_reserved": 0, "is_disabled": 0, "fusion_lat": 0.0, "type": "electric_scooter", "name": "4d2e197635d267a29dceaf5947cf79fb", "lat": 38.92270516666667, "bike_id": "4d2e197635d267a29dceaf5947cf79fb"}, {"lon": -77.02171833333334, "rental_uris": {"android": "https://dc.lft.to/lastmile_qr_scan", "ios": "https://dc.lft.to/lastmile_qr_scan"}, "fusion_lon": 0.0, "is_reserved": 0, "is_disabled": 0, "fusion_lat": 0.0, "type": "electric_bike", "name": "e087a3108981d0bad0005f3a015d301a", "lat": 38.8957995, "bike_id": "e087a3108981d0bad0005f3a015d301a"}, {"lon": -77.0432615, "rental_uris": {"android": "https://dc.lft.to/lastmile_qr_scan", "ios": "https://dc.lft.to/lastmile_qr_scan"}, "fusion_lon": 0.0, "is_reserved": 0, "is_disabled": 0, "fusion_lat": 0.0, "type": "electric_scooter", "name": "da9c84a350e84b3fcdb8b8ae117b6544", "lat": 38.90364116666667, "bike_id": "da9c84a350e84b3fcdb8b8ae117b6544"}, {"lon": -77.0364005, "rental_uris": {"android": "https://dc.lft.to/lastmile_qr_scan", "ios": "https://dc.lft.to/lastmile_qr_scan"}, "fusion_lon": 0.0, "is_reserved": 0, "is_disabled": 0, "fusion_lat": 0.0, "type": "electric_scooter", "name": "45cc2808057cf5ddd8bf554847ef3f5d", "lat": 38.9173605, "bike_id": "45cc2808057cf5ddd8bf554847ef3f5d"}, {"lon": -77.01991, "rental_uris": {"android": "https://dc.lft.to/lastmile_qr_scan", "ios": "https://dc.lft.to/lastmile_qr_scan"}, "fusion_lon": 0.0, "is_reserved": 0, "is_disabled": 0, "fusion_lat": 0.0, "type": "electric_scooter", "name": "ec49936b7412c9a3d78512bfff615dd5", "lat": 38.9149365, "bike_id": "ec49936b7412c9a3d78512bfff615dd5"}, {"lon": -77.0424105, "rental_uris": {"android": "https://dc.lft.to/lastmile_qr_scan", "ios": "https://dc.lft.to/lastmile_qr_scan"}, "fusion_lon": 0.0, "is_reserved": 0, "is_disabled": 0, "fusion_lat": 0.0, "type": "electric_scooter", "name": "eb7329643ecdc010356dde8ea02f23ba", "lat": 38.92191866666667, "bike_id": "eb7329643ecdc010356dde8ea02f23ba"}, {"lon": -77.02797933333333, "rental_uris": {"android": "https://dc.lft.to/lastmile_qr_scan", "ios": "https://dc.lft.to/lastmile_qr_scan"}, "fusion_lon": 0.0, "is_reserved": 0, "is_disabled": 0, "fusion_lat": 0.0, "type": "electric_scooter", "name": "3bbe0e50ec303b2669414e1bef31e1ef", "lat": 38.94451516666667, "bike_id": "3bbe0e50ec303b2669414e1bef31e1ef"}, {"lon": -76.98437583333333, "rental_uris": {"android": "https://dc.lft.to/lastmile_qr_scan", "ios": "https://dc.lft.to/lastmile_qr_scan"}, "fusion_lon": 0.0, "is_reserved": 0, "is_disabled": 0, "fusion_lat": 0.0, "type": "electric_scooter", "name": "1ce6447bc7511e867f61854940b0a0b3", "lat": 38.93282083333333, "bike_id": "1ce6447bc7511e867f61854940b0a0b3"}, {"lon": -77.05260116666666, "rental_uris": {"android": "https://dc.lft.to/lastmile_qr_scan", "ios": "https://dc.lft.to/lastmile_qr_scan"}, "fusion_lon": 0.0, "is_reserved": 0, "is_disabled": 0, "fusion_lat": 0.0, "type": "electric_scooter", "name": "3712184a2b50897a9ae297f07e52a99e", "lat": 38.92761, "bike_id": "3712184a2b50897a9ae297f07e52a99e"}, {"lon": -77.02318366666667, "rental_uris": {"android": "https://dc.lft.to/lastmile_qr_scan", "ios": "https://dc.lft.to/lastmile_qr_scan"}, "fusion_lon": 0.0, "is_reserved": 0, "is_disabled": 0, "fusion_lat": 0.0, "type": "electric_scooter", "name": "f755dcea13b60dbd481240827ab3cbd4", "lat": 38.927691, "bike_id": "f755dcea13b60dbd481240827ab3cbd4"}, {"lon": -77.03167216666667, "rental_uris": {"android": "https://dc.lft.to/lastmile_qr_scan", "ios": "https://dc.lft.to/lastmile_qr_scan"}, "fusion_lon": 0.0, "is_reserved": 0, "is_disabled": 0, "fusion_lat": 0.0, "type": "electric_scooter", "name": "0bee32ac4e945dec439532fadb8369a3", "lat": 38.936057, "bike_id": "0bee32ac4e945dec439532fadb8369a3"}, {"lon": -77.04866983333334, "rental_uris": {"android": "https://dc.lft.to/lastmile_qr_scan", "ios": "https://dc.lft.to/lastmile_qr_scan"}, "fusion_lon": 0.0, "is_reserved": 0, "is_disabled": 0, "fusion_lat": 0.0, "type": "electric_scooter", "name": "e2760506068f48682f42e44c2a58f6c3", "lat": 38.89223116666667, "bike_id": "e2760506068f48682f42e44c2a58f6c3"}, {"lon": -77.007063, "rental_uris": {"android": "https://dc.lft.to/lastmile_qr_scan", "ios": "https://dc.lft.to/lastmile_qr_scan"}, "fusion_lon": 0.0, "is_reserved": 0, "is_disabled": 0, "fusion_lat": 0.0, "type": "electric_scooter", "name": "b85e2347016e119795f37aed309d0421", "lat": 38.8849075, "bike_id": "b85e2347016e119795f37aed309d0421"}, {"lon": -77.00361566666666, "rental_uris": {"android": "https://dc.lft.to/lastmile_qr_scan", "ios": "https://dc.lft.to/lastmile_qr_scan"}, "fusion_lon": 0.0, "is_reserved": 0, "is_disabled": 0, "fusion_lat": 0.0, "type": "electric_scooter", "name": "715069758dfb01d4828b78d080394590", "lat": 38.91107083333333, "bike_id": "715069758dfb01d4828b78d080394590"}, {"lon": -77.03093683333333, "rental_uris": {"android": "https://dc.lft.to/lastmile_qr_scan", "ios": "https://dc.lft.to/lastmile_qr_scan"}, "fusion_lon": 0.0, "is_reserved": 0, "is_disabled": 0, "fusion_lat": 0.0, "type": "electric_scooter", "name": "dc799ef14455a8cb07e846de792a2ead", "lat": 38.92384216666667, "bike_id": "dc799ef14455a8cb07e846de792a2ead"}, {"lon": -77.05084133333334, "rental_uris": {"android": "https://dc.lft.to/lastmile_qr_scan", "ios": "https://dc.lft.to/lastmile_qr_scan"}, "fusion_lon": 0.0, "is_reserved": 0, "is_disabled": 0, "fusion_lat": 0.0, "type": "electric_scooter", "name": "bfa937501bd548e877134220f2bc6f8d", "lat": 38.899731333333335, "bike_id": "bfa937501bd548e877134220f2bc6f8d"}, {"lon": -76.99778983333333, "rental_uris": {"android": "https://dc.lft.to/lastmile_qr_scan", "ios": "https://dc.lft.to/lastmile_qr_scan"}, "fusion_lon": 0.0, "is_reserved": 0, "is_disabled": 0, "fusion_lat": 0.0, "type": "electric_scooter", "name": "5a1131e670db17b566a3b5fe2519f74e", "lat": 38.8442505, "bike_id": "5a1131e670db17b566a3b5fe2519f74e"}, {"lon": -77.0347375, "rental_uris": {"android": "https://dc.lft.to/lastmile_qr_scan", "ios": "https://dc.lft.to/lastmile_qr_scan"}, "fusion_lon": 0.0, "is_reserved": 0, "is_disabled": 0, "fusion_lat": 0.0, "type": "electric_scooter", "name": "226b2ce9d0e3360142a35d81033fc4c9", "lat": 38.884914, "bike_id": "226b2ce9d0e3360142a35d81033fc4c9"}, {"lon": -77.048651, "rental_uris": {"android": "https://dc.lft.to/lastmile_qr_scan", "ios": "https://dc.lft.to/lastmile_qr_scan"}, "fusion_lon": 0.0, "is_reserved": 0, "is_disabled": 0, "fusion_lat": 0.0, "type": "electric_scooter", "name": "e75385adabb472177fa39439639e591b", "lat": 38.892224666666664, "bike_id": "e75385adabb472177fa39439639e591b"}, {"lon": -76.96152166666667, "rental_uris": {"android": "https://dc.lft.to/lastmile_qr_scan", "ios": "https://dc.lft.to/lastmile_qr_scan"}, "fusion_lon": 0.0, "is_reserved": 0, "is_disabled": 0, "fusion_lat": 0.0, "type": "electric_bike", "name": "f74b6c7d7f0a465958de9f74ea3904d2", "lat": 38.85617283333333, "bike_id": "f74b6c7d7f0a465958de9f74ea3904d2"}, {"lon": -77.0295205, "rental_uris": {"android": "https://dc.lft.to/lastmile_qr_scan", "ios": "https://dc.lft.to/lastmile_qr_scan"}, "fusion_lon": 0.0, "is_reserved": 0, "is_disabled": 0, "fusion_lat": 0.0, "type": "electric_scooter", "name": "a734370ce6cca00e7d5f2b20997f52c9", "lat": 38.916856, "bike_id": "a734370ce6cca00e7d5f2b20997f52c9"}, {"lon": -77.0120145, "rental_uris": {"android": "https://dc.lft.to/lastmile_qr_scan", "ios": "https://dc.lft.to/lastmile_qr_scan"}, "fusion_lon": 0.0, "is_reserved": 0, "is_disabled": 0, "fusion_lat": 0.0, "type": "electric_scooter", "name": "a61f71b0b0fed470cee806e39795ac07", "lat": 38.897886166666666, "bike_id": "a61f71b0b0fed470cee806e39795ac07"}, {"lon": -77.03890933333334, "rental_uris": {"android": "https://dc.lft.to/lastmile_qr_scan", "ios": "https://dc.lft.to/lastmile_qr_scan"}, "fusion_lon": 0.0, "is_reserved": 0, "is_disabled": 0, "fusion_lat": 0.0, "type": "electric_scooter", "name": "7cd8ef5b094ec3de1db003db86f4bc44", "lat": 38.903644166666666, "bike_id": "7cd8ef5b094ec3de1db003db86f4bc44"}, {"lon": -77.0399975, "rental_uris": {"android": "https://dc.lft.to/lastmile_qr_scan", "ios": "https://dc.lft.to/lastmile_qr_scan"}, "fusion_lon": 0.0, "is_reserved": 0, "is_disabled": 0, "fusion_lat": 0.0, "type": "electric_scooter", "name": "b5e14e7b37c7f5ae284b764594427e44", "lat": 38.898337166666664, "bike_id": "b5e14e7b37c7f5ae284b764594427e44"}, {"lon": -77.02944266666667, "rental_uris": {"android": "https://dc.lft.to/lastmile_qr_scan", "ios": "https://dc.lft.to/lastmile_qr_scan"}, "fusion_lon": 0.0, "is_reserved": 0, "is_disabled": 0, "fusion_lat": 0.0, "type": "electric_scooter", "name": "587eeaaac98050903e2715ac3bb4dd5a", "lat": 38.9169255, "bike_id": "587eeaaac98050903e2715ac3bb4dd5a"}, {"lon": -76.97767783333333, "rental_uris": {"android": "https://dc.lft.to/lastmile_qr_scan", "ios": "https://dc.lft.to/lastmile_qr_scan"}, "fusion_lon": 0.0, "is_reserved": 0, "is_disabled": 0, "fusion_lat": 0.0, "type": "electric_bike", "name": "b1beb8ea7f46f895cb68d3cbc18c3121", "lat": 38.857229333333336, "bike_id": "b1beb8ea7f46f895cb68d3cbc18c3121"}, {"lon": -77.02698083333334, "rental_uris": {"android": "https://dc.lft.to/lastmile_qr_scan", "ios": "https://dc.lft.to/lastmile_qr_scan"}, "fusion_lon": 0.0, "is_reserved": 0, "is_disabled": 0, "fusion_lat": 0.0, "type": "electric_scooter", "name": "8c641677e8bbfae8382360800cc91053", "lat": 38.91725483333333, "bike_id": "8c641677e8bbfae8382360800cc91053"}, {"lon": -77.02132766666666, "rental_uris": {"android": "https://dc.lft.to/lastmile_qr_scan", "ios": "https://dc.lft.to/lastmile_qr_scan"}, "fusion_lon": 0.0, "is_reserved": 0, "is_disabled": 0, "fusion_lat": 0.0, "type": "electric_scooter", "name": "562f0f2adad8264b299541b0760992b4", "lat": 38.915515166666665, "bike_id": "562f0f2adad8264b299541b0760992b4"}, {"lon": -77.032101, "rental_uris": {"android": "https://dc.lft.to/lastmile_qr_scan", "ios": "https://dc.lft.to/lastmile_qr_scan"}, "fusion_lon": 0.0, "is_reserved": 0, "is_disabled": 0, "fusion_lat": 0.0, "type": "electric_scooter", "name": "ed6d4b25b914fecfd3fc11b59017579d", "lat": 38.8922185, "bike_id": "ed6d4b25b914fecfd3fc11b59017579d"}, {"lon": -77.030491, "rental_uris": {"android": "https://dc.lft.to/lastmile_qr_scan", "ios": "https://dc.lft.to/lastmile_qr_scan"}, "fusion_lon": 0.0, "is_reserved": 0, "is_disabled": 0, "fusion_lat": 0.0, "type": "electric_scooter", "name": "ffac92b53c87a1da67a6969ed8d1e85b", "lat": 38.91712066666667, "bike_id": "ffac92b53c87a1da67a6969ed8d1e85b"}, {"lon": -77.02202466666667, "rental_uris": {"android": "https://dc.lft.to/lastmile_qr_scan", "ios": "https://dc.lft.to/lastmile_qr_scan"}, "fusion_lon": 0.0, "is_reserved": 0, "is_disabled": 0, "fusion_lat": 0.0, "type": "electric_scooter", "name": "a55d03305770e0ee3716dbaf1ec4570b", "lat": 38.9036315, "bike_id": "a55d03305770e0ee3716dbaf1ec4570b"}, {"lon": -77.01710933333334, "rental_uris": {"android": "https://dc.lft.to/lastmile_qr_scan", "ios": "https://dc.lft.to/lastmile_qr_scan"}, "fusion_lon": 0.0, "is_reserved": 0, "is_disabled": 0, "fusion_lat": 0.0, "type": "electric_scooter", "name": "3c24d865f7933692145afff98643d920", "lat": 38.92049683333333, "bike_id": "3c24d865f7933692145afff98643d920"}, {"lon": -76.96708433333333, "rental_uris": {"android": "https://dc.lft.to/lastmile_qr_scan", "ios": "https://dc.lft.to/lastmile_qr_scan"}, "fusion_lon": 0.0, "is_reserved": 0, "is_disabled": 0, "fusion_lat": 0.0, "type": "electric_scooter", "name": "f9549136af6c0d0e7bcbab6306288820", "lat": 38.86060766666667, "bike_id": "f9549136af6c0d0e7bcbab6306288820"}, {"lon": -77.04010866666667, "rental_uris": {"android": "https://dc.lft.to/lastmile_qr_scan", "ios": "https://dc.lft.to/lastmile_qr_scan"}, "fusion_lon": 0.0, "is_reserved": 0, "is_disabled": 0, "fusion_lat": 0.0, "type": "electric_scooter", "name": "c897a20d1bcd02c9cbab7c10a9a84101", "lat": 38.908405, "bike_id": "c897a20d1bcd02c9cbab7c10a9a84101"}, {"lon": -77.036698, "rental_uris": {"android": "https://dc.lft.to/lastmile_qr_scan", "ios": "https://dc.lft.to/lastmile_qr_scan"}, "fusion_lon": 0.0, "is_reserved": 0, "is_disabled": 0, "fusion_lat": 0.0, "type": "electric_scooter", "name": "30800d594268b89399b6033c1e782b8d", "lat": 38.93168466666667, "bike_id": "30800d594268b89399b6033c1e782b8d"}, {"lon": -77.01788116666667, "rental_uris": {"android": "https://dc.lft.to/lastmile_qr_scan", "ios": "https://dc.lft.to/lastmile_qr_scan"}, "fusion_lon": 0.0, "is_reserved": 0, "is_disabled": 0, "fusion_lat": 0.0, "type": "electric_scooter", "name": "d164380fa1379ae2f64a45ea7a16d572", "lat": 38.906388666666665, "bike_id": "d164380fa1379ae2f64a45ea7a16d572"}, {"lon": -77.04152016666667, "rental_uris": {"android": "https://dc.lft.to/lastmile_qr_scan", "ios": "https://dc.lft.to/lastmile_qr_scan"}, "fusion_lon": 0.0, "is_reserved": 0, "is_disabled": 0, "fusion_lat": 0.0, "type": "electric_scooter", "name": "50677936b01b84fec8f7b6c4b64a511d", "lat": 38.92357583333333, "bike_id": "50677936b01b84fec8f7b6c4b64a511d"}, {"lon": -77.05316716666667, "rental_uris": {"android": "https://dc.lft.to/lastmile_qr_scan", "ios": "https://dc.lft.to/lastmile_qr_scan"}, "fusion_lon": 0.0, "is_reserved": 0, "is_disabled": 0, "fusion_lat": 0.0, "type": "electric_scooter", "name": "99531bc6b35e7d0c74626d3d402f48c9", "lat": 38.90265016666667, "bike_id": "99531bc6b35e7d0c74626d3d402f48c9"}, {"lon": -76.98457516666667, "rental_uris": {"android": "https://dc.lft.to/lastmile_qr_scan", "ios": "https://dc.lft.to/lastmile_qr_scan"}, "fusion_lon": 0.0, "is_reserved": 0, "is_disabled": 0, "fusion_lat": 0.0, "type": "electric_scooter", "name": "6946a9db91aa58e45408905a098350bd", "lat": 38.89772166666667, "bike_id": "6946a9db91aa58e45408905a098350bd"}, {"lon": -77.01766883333333, "rental_uris": {"android": "https://dc.lft.to/lastmile_qr_scan", "ios": "https://dc.lft.to/lastmile_qr_scan"}, "fusion_lon": 0.0, "is_reserved": 0, "is_disabled": 0, "fusion_lat": 0.0, "type": "electric_scooter", "name": "164f6fdaf2cfa041e87cf271707f3ed1", "lat": 38.904637666666666, "bike_id": "164f6fdaf2cfa041e87cf271707f3ed1"}, {"lon": -77.05050466666667, "rental_uris": {"android": "https://dc.lft.to/lastmile_qr_scan", "ios": "https://dc.lft.to/lastmile_qr_scan"}, "fusion_lon": 0.0, "is_reserved": 0, "is_disabled": 0, "fusion_lat": 0.0, "type": "electric_bike", "name": "1f406eb94943d9cef922489a1cdbd47d", "lat": 39.03892116666667, "bike_id": "1f406eb94943d9cef922489a1cdbd47d"}, {"lon": -77.01764316666667, "rental_uris": {"android": "https://dc.lft.to/lastmile_qr_scan", "ios": "https://dc.lft.to/lastmile_qr_scan"}, "fusion_lon": 0.0, "is_reserved": 0, "is_disabled": 0, "fusion_lat": 0.0, "type": "electric_scooter", "name": "4230cf400643b8a0abbc7eb7232f9205", "lat": 38.89231266666667, "bike_id": "4230cf400643b8a0abbc7eb7232f9205"}, {"lon": -77.04255833333333, "rental_uris": {"android": "https://dc.lft.to/lastmile_qr_scan", "ios": "https://dc.lft.to/lastmile_qr_scan"}, "fusion_lon": 0.0, "is_reserved": 0, "is_disabled": 0, "fusion_lat": 0.0, "type": "electric_scooter", "name": "d57c64e950897c6071a3900dbfa332a7", "lat": 38.922174166666665, "bike_id": "d57c64e950897c6071a3900dbfa332a7"}, {"lon": -77.0469835, "rental_uris": {"android": "https://dc.lft.to/lastmile_qr_scan", "ios": "https://dc.lft.to/lastmile_qr_scan"}, "fusion_lon": 0.0, "is_reserved": 0, "is_disabled": 0, "fusion_lat": 0.0, "type": "electric_scooter", "name": "349f052f45341b989a0425996740cecd", "lat": 38.917020666666666, "bike_id": "349f052f45341b989a0425996740cecd"}, {"lon": -77.03780583333334, "rental_uris": {"android": "https://dc.lft.to/lastmile_qr_scan", "ios": "https://dc.lft.to/lastmile_qr_scan"}, "fusion_lon": 0.0, "is_reserved": 0, "is_disabled": 0, "fusion_lat": 0.0, "type": "electric_scooter", "name": "c0a5719debbb03593e3b688ee84443b4", "lat": 38.921904, "bike_id": "c0a5719debbb03593e3b688ee84443b4"}, {"lon": -77.006241, "rental_uris": {"android": "https://dc.lft.to/lastmile_qr_scan", "ios": "https://dc.lft.to/lastmile_qr_scan"}, "fusion_lon": 0.0, "is_reserved": 0, "is_disabled": 0, "fusion_lat": 0.0, "type": "electric_scooter", "name": "f3f0b1e9b51834f9e10ad58ba66d53fc", "lat": 38.912545333333334, "bike_id": "f3f0b1e9b51834f9e10ad58ba66d53fc"}, {"lon": -77.04880016666667, "rental_uris": {"android": "https://dc.lft.to/lastmile_qr_scan", "ios": "https://dc.lft.to/lastmile_qr_scan"}, "fusion_lon": 0.0, "is_reserved": 0, "is_disabled": 0, "fusion_lat": 0.0, "type": "electric_scooter", "name": "58d28a3a37479a8fe9125c2d82772025", "lat": 38.899937666666666, "bike_id": "58d28a3a37479a8fe9125c2d82772025"}, {"lon": -77.0031855, "rental_uris": {"android": "https://dc.lft.to/lastmile_qr_scan", "ios": "https://dc.lft.to/lastmile_qr_scan"}, "fusion_lon": 0.0, "is_reserved": 0, "is_disabled": 0, "fusion_lat": 0.0, "type": "electric_scooter", "name": "c02a6d23bfda1c1e0155e2d387234aa7", "lat": 38.912541, "bike_id": "c02a6d23bfda1c1e0155e2d387234aa7"}, {"lon": -77.04502983333333, "rental_uris": {"android": "https://dc.lft.to/lastmile_qr_scan", "ios": "https://dc.lft.to/lastmile_qr_scan"}, "fusion_lon": 0.0, "is_reserved": 0, "is_disabled": 0, "fusion_lat": 0.0, "type": "electric_scooter", "name": "b804b19cf9dc86cde9ed53472a5eddee", "lat": 38.89958566666667, "bike_id": "b804b19cf9dc86cde9ed53472a5eddee"}, {"lon": -76.993751, "rental_uris": {"android": "https://dc.lft.to/lastmile_qr_scan", "ios": "https://dc.lft.to/lastmile_qr_scan"}, "fusion_lon": 0.0, "is_reserved": 0, "is_disabled": 0, "fusion_lat": 0.0, "type": "electric_scooter", "name": "23085de42c976f87abf1985eed61fe96", "lat": 38.893422666666666, "bike_id": "23085de42c976f87abf1985eed61fe96"}, {"lon": -77.0319945, "rental_uris": {"android": "https://dc.lft.to/lastmile_qr_scan", "ios": "https://dc.lft.to/lastmile_qr_scan"}, "fusion_lon": 0.0, "is_reserved": 0, "is_disabled": 0, "fusion_lat": 0.0, "type": "electric_scooter", "name": "8e120e0108a5ddda83b66850ba8fedf7", "lat": 38.91678316666667, "bike_id": "8e120e0108a5ddda83b66850ba8fedf7"}, {"lon": -77.03262133333334, "rental_uris": {"android": "https://dc.lft.to/lastmile_qr_scan", "ios": "https://dc.lft.to/lastmile_qr_scan"}, "fusion_lon": 0.0, "is_reserved": 0, "is_disabled": 0, "fusion_lat": 0.0, "type": "electric_scooter", "name": "78d5b95a5ca97a6e15a06b6ad662dedd", "lat": 38.919161333333335, "bike_id": "78d5b95a5ca97a6e15a06b6ad662dedd"}, {"lon": -77.03819716666666, "rental_uris": {"android": "https://dc.lft.to/lastmile_qr_scan", "ios": "https://dc.lft.to/lastmile_qr_scan"}, "fusion_lon": 0.0, "is_reserved": 0, "is_disabled": 0, "fusion_lat": 0.0, "type": "electric_scooter", "name": "6857cd4fb015bc09b02f111de3f42491", "lat": 38.90778266666667, "bike_id": "6857cd4fb015bc09b02f111de3f42491"}, {"lon": -77.02860533333333, "rental_uris": {"android": "https://dc.lft.to/lastmile_qr_scan", "ios": "https://dc.lft.to/lastmile_qr_scan"}, "fusion_lon": 0.0, "is_reserved": 0, "is_disabled": 0, "fusion_lat": 0.0, "type": "electric_scooter", "name": "a9a3fca06acb0b12be55e51af4912976", "lat": 38.887466333333336, "bike_id": "a9a3fca06acb0b12be55e51af4912976"}, {"lon": -77.05555316666667, "rental_uris": {"android": "https://dc.lft.to/lastmile_qr_scan", "ios": "https://dc.lft.to/lastmile_qr_scan"}, "fusion_lon": 0.0, "is_reserved": 0, "is_disabled": 0, "fusion_lat": 0.0, "type": "electric_scooter", "name": "1a9291d8d815a84cc57898163c8bad5c", "lat": 38.930302, "bike_id": "1a9291d8d815a84cc57898163c8bad5c"}, {"lon": -77.0223515, "rental_uris": {"android": "https://dc.lft.to/lastmile_qr_scan", "ios": "https://dc.lft.to/lastmile_qr_scan"},