{"data": {"bikes": [{"is_disabled": 0, "is_reserved": 0, "fusion_lat": 0.0, "lat": 38.91901283333333, "fusion_lon": 0.0, "rental_uris": {"ios": "https://dc.lft.to/lastmile_qr_scan", "android": "https://dc.lft.to/lastmile_qr_scan"}, "lon": -77.060065, "bike_id": "791995aa05f466718534de3e8b3346e6", "type": "electric_bike", "name": "791995aa05f466718534de3e8b3346e6"}, {"is_disabled": 0, "is_reserved": 0, "fusion_lat": 0.0, "lat": 38.874672333333336, "fusion_lon": 0.0, "rental_uris": {"ios": "https://dc.lft.to/lastmile_qr_scan", "android": "https://dc.lft.to/lastmile_qr_scan"}, "lon": -77.005131, "bike_id": "0cb76e00a8ced32f28d95d8c53743e07", "type": "electric_scooter", "name": "0cb76e00a8ced32f28d95d8c53743e07"}, {"is_disabled": 0, "is_reserved": 0, "fusion_lat": 0.0, "lat": 38.89231633333333, "fusion_lon": 0.0, "rental_uris": {"ios": "https://dc.lft.to/lastmile_qr_scan", "android": "https://dc.lft.to/lastmile_qr_scan"}, "lon": -77.02381116666666, "bike_id": "33d9e5089ab9cf6832dbe046bdb8cdf5", "type": "electric_scooter", "name": "33d9e5089ab9cf6832dbe046bdb8cdf5"}, {"is_disabled": 0, "is_reserved": 0, "fusion_lat": 0.0, "lat": 38.92169283333333, "fusion_lon": 0.0, "rental_uris": {"ios": "https://dc.lft.to/lastmile_qr_scan", "android": "https://dc.lft.to/lastmile_qr_scan"}, "lon": -77.01801283333333, "bike_id": "00e4ef14fc7c4779dee1ada74b076145", "type": "electric_scooter", "name": "00e4ef14fc7c4779dee1ada74b076145"}, {"is_disabled": 0, "is_reserved": 0, "fusion_lat": 0.0, "lat": 38.94177466666667, "fusion_lon": 0.0, "rental_uris": {"ios": "https://dc.lft.to/lastmile_qr_scan", "android": "https://dc.lft.to/lastmile_qr_scan"}, "lon": -77.0339265, "bike_id": "0163578269b345f45e227dac1beecc6e", "type": "electric_scooter", "name": "0163578269b345f45e227dac1beecc6e"}, {"is_disabled": 0, "is_reserved": 0, "fusion_lat": 0.0, "lat": 38.915226, "fusion_lon": 0.0, "rental_uris": {"ios": "https://dc.lft.to/lastmile_qr_scan", "android": "https://dc.lft.to/lastmile_qr_scan"}, "lon": -76.98345416666666, "bike_id": "db5d3f155d0a7ed953e3dec79862a52e", "type": "electric_scooter", "name": "db5d3f155d0a7ed953e3dec79862a52e"}, {"is_disabled": 0, "is_reserved": 0, "fusion_lat": 0.0, "lat": 38.923424833333335, "fusion_lon": 0.0, "rental_uris": {"ios": "https://dc.lft.to/lastmile_qr_scan", "android": "https://dc.lft.to/lastmile_qr_scan"}, "lon": -76.998722, "bike_id": "481c1a9d9ad6b23ddac18600e9a76358", "type": "electric_scooter", "name": "481c1a9d9ad6b23ddac18600e9a76358"}, {"is_disabled": 0, "is_reserved": 0, "fusion_lat": 0.0, "lat": 38.87071, "fusion_lon": 0.0, "rental_uris": {"ios": "https://dc.lft.to/lastmile_qr_scan", "android": "https://dc.lft.to/lastmile_qr_scan"}, "lon": -76.98129366666667, "bike_id": "5b82f9a71e9bac32fb58c15fb16912a1", "type": "electric_scooter", "name": "5b82f9a71e9bac32fb58c15fb16912a1"}, {"is_disabled": 0, "is_reserved": 0, "fusion_lat": 0.0, "lat": 38.90736966666667, "fusion_lon": 0.0, "rental_uris": {"ios": "https://dc.lft.to/lastmile_qr_scan", "android": "https://dc.lft.to/lastmile_qr_scan"}, "lon": -77.023195, "bike_id": "1a30fbaddce41797ecdb16b44b41f3af", "type": "electric_scooter", "name": "1a30fbaddce41797ecdb16b44b41f3af"}, {"is_disabled": 0, "is_reserved": 0, "fusion_lat": 0.0, "lat": 38.885155833333336, "fusion_lon": 0.0, "rental_uris": {"ios": "https://dc.lft.to/lastmile_qr_scan", "android": "https://dc.lft.to/lastmile_qr_scan"}, "lon": -77.02820316666667, "bike_id": "816c28c93a822ba48b5649d762e9baf4", "type": "electric_scooter", "name": "816c28c93a822ba48b5649d762e9baf4"}, {"is_disabled": 0, "is_reserved": 0, "fusion_lat": 0.0, "lat": 38.91598416666667, "fusion_lon": 0.0, "rental_uris": {"ios": "https://dc.lft.to/lastmile_qr_scan", "android": "https://dc.lft.to/lastmile_qr_scan"}, "lon": -77.03851633333333, "bike_id": "b1aca4fafa19504217d8b6d4092dd58e", "type": "electric_scooter", "name": "b1aca4fafa19504217d8b6d4092dd58e"}, {"is_disabled": 0, "is_reserved": 0, "fusion_lat": 0.0, "lat": 38.914432833333336, "fusion_lon": 0.0, "rental_uris": {"ios": "https://dc.lft.to/lastmile_qr_scan", "android": "https://dc.lft.to/lastmile_qr_scan"}, "lon": -77.02285316666666, "bike_id": "1b50b4551dda3466323e9d5206e71e81", "type": "electric_scooter", "name": "1b50b4551dda3466323e9d5206e71e81"}, {"is_disabled": 0, "is_reserved": 0, "fusion_lat": 0.0, "lat": 38.875777666666664, "fusion_lon": 0.0, "rental_uris": {"ios": "https://dc.lft.to/lastmile_qr_scan", "android": "https://dc.lft.to/lastmile_qr_scan"}, "lon": -77.2341015, "bike_id": "6bdf8b4f32b04f44639a0c4c547f0675", "type": "electric_bike", "name": "6bdf8b4f32b04f44639a0c4c547f0675"}, {"is_disabled": 0, "is_reserved": 0, "fusion_lat": 0.0, "lat": 38.88046466666667, "fusion_lon": 0.0, "rental_uris": {"ios": "https://dc.lft.to/lastmile_qr_scan", "android": "https://dc.lft.to/lastmile_qr_scan"}, "lon": -76.92719966666667, "bike_id": "4525aaf413f2c1998091c4e95d3ea65b", "type": "electric_scooter", "name": "4525aaf413f2c1998091c4e95d3ea65b"}, {"is_disabled": 0, "is_reserved": 0, "fusion_lat": 0.0, "lat": 38.9303135, "fusion_lon": 0.0, "rental_uris": {"ios": "https://dc.lft.to/lastmile_qr_scan", "android": "https://dc.lft.to/lastmile_qr_scan"}, "lon": -77.06074433333333, "bike_id": "681402f6047d22edcae2cbd70df57970", "type": "electric_scooter", "name": "681402f6047d22edcae2cbd70df57970"}, {"is_disabled": 0, "is_reserved": 0, "fusion_lat": 0.0, "lat": 38.876305, "fusion_lon": 0.0, "rental_uris": {"ios": "https://dc.lft.to/lastmile_qr_scan", "android": "https://dc.lft.to/lastmile_qr_scan"}, "lon": -77.009525, "bike_id": "4d1c39cc00fd63768dd8cc229498f894", "type": "electric_scooter", "name": "4d1c39cc00fd63768dd8cc229498f894"}, {"is_disabled": 0, "is_reserved": 0, "fusion_lat": 0.0, "lat": 38.9117505, "fusion_lon": 0.0, "rental_uris": {"ios": "https://dc.lft.to/lastmile_qr_scan", "android": "https://dc.lft.to/lastmile_qr_scan"}, "lon": -77.02828716666667, "bike_id": "e8a70465bdf4dcdf2ae9f1ce82485384", "type": "electric_scooter", "name": "e8a70465bdf4dcdf2ae9f1ce82485384"}, {"is_disabled": 0, "is_reserved": 0, "fusion_lat": 0.0, "lat": 38.93374416666666, "fusion_lon": 0.0, "rental_uris": {"ios": "https://dc.lft.to/lastmile_qr_scan", "android": "https://dc.lft.to/lastmile_qr_scan"}, "lon": -77.02725566666666, "bike_id": "9c6ca6fedacc54c305424dd803045a6a", "type": "electric_scooter", "name": "9c6ca6fedacc54c305424dd803045a6a"}, {"is_disabled": 0, "is_reserved": 0, "fusion_lat": 0.0, "lat": 38.9060445, "fusion_lon": 0.0, "rental_uris": {"ios": "https://dc.lft.to/lastmile_qr_scan", "android": "https://dc.lft.to/lastmile_qr_scan"}, "lon": -77.056523, "bike_id": "8de5639f08865446530617dcb675fdfb", "type": "electric_scooter", "name": "8de5639f08865446530617dcb675fdfb"}, {"is_disabled": 0, "is_reserved": 0, "fusion_lat": 0.0, "lat": 38.93441116666666, "fusion_lon": 0.0, "rental_uris": {"ios": "https://dc.lft.to/lastmile_qr_scan", "android": "https://dc.lft.to/lastmile_qr_scan"}, "lon": -77.029742, "bike_id": "522dbe5fdab9373475b54cdd1f348c6f", "type": "electric_scooter", "name": "522dbe5fdab9373475b54cdd1f348c6f"}, {"is_disabled": 0, "is_reserved": 0, "fusion_lat": 0.0, "lat": 38.9003155, "fusion_lon": 0.0, "rental_uris": {"ios": "https://dc.lft.to/lastmile_qr_scan", "android": "https://dc.lft.to/lastmile_qr_scan"}, "lon": -77.00371883333334, "bike_id": "157d5b15b9f709eec746c95cd8b1b76b", "type": "electric_scooter", "name": "157d5b15b9f709eec746c95cd8b1b76b"}, {"is_disabled": 0, "is_reserved": 0, "fusion_lat": 0.0, "lat": 38.9025335, "fusion_lon": 0.0, "rental_uris": {"ios": "https://dc.lft.to/lastmile_qr_scan", "android": "https://dc.lft.to/lastmile_qr_scan"}, "lon": -77.01159633333333, "bike_id": "ea5d5a9261891602a118a8758e402e12", "type": "electric_scooter", "name": "ea5d5a9261891602a118a8758e402e12"}, {"is_disabled": 0, "is_reserved": 0, "fusion_lat": 0.0, "lat": 38.93361633333333, "fusion_lon": 0.0, "rental_uris": {"ios": "https://dc.lft.to/lastmile_qr_scan", "android": "https://dc.lft.to/lastmile_qr_scan"}, "lon": -77.02648766666667, "bike_id": "e6332ee403fd3f223f94cc94b872b1e0", "type": "electric_scooter", "name": "e6332ee403fd3f223f94cc94b872b1e0"}, {"is_disabled": 0, "is_reserved": 0, "fusion_lat": 0.0, "lat": 38.91968, "fusion_lon": 0.0, "rental_uris": {"ios": "https://dc.lft.to/lastmile_qr_scan", "android": "https://dc.lft.to/lastmile_qr_scan"}, "lon": -77.00211866666666, "bike_id": "443dc28866ce0d325d5483be74c00ae7", "type": "electric_scooter", "name": "443dc28866ce0d325d5483be74c00ae7"}, {"is_disabled": 0, "is_reserved": 0, "fusion_lat": 0.0, "lat": 38.921020666666664, "fusion_lon": 0.0, "rental_uris": {"ios": "https://dc.lft.to/lastmile_qr_scan", "android": "https://dc.lft.to/lastmile_qr_scan"}, "lon": -77.04689116666667, "bike_id": "78464d39d8f10dd14e254ca4dc6134a4", "type": "electric_scooter", "name": "78464d39d8f10dd14e254ca4dc6134a4"}, {"is_disabled": 0, "is_reserved": 0, "fusion_lat": 0.0, "lat": 38.906029, "fusion_lon": 0.0, "rental_uris": {"ios": "https://dc.lft.to/lastmile_qr_scan", "android": "https://dc.lft.to/lastmile_qr_scan"}, "lon": -77.12889366666667, "bike_id": "4cd27d63800d8d0a70abafb13432e7cb", "type": "electric_bike", "name": "4cd27d63800d8d0a70abafb13432e7cb"}, {"is_disabled": 0, "is_reserved": 0, "fusion_lat": 0.0, "lat": 38.89229516666666, "fusion_lon": 0.0, "rental_uris": {"ios": "https://dc.lft.to/lastmile_qr_scan", "android": "https://dc.lft.to/lastmile_qr_scan"}, "lon": -77.05005283333334, "bike_id": "dba6512c56197b81b4ac4602c6e13e85", "type": "electric_scooter", "name": "dba6512c56197b81b4ac4602c6e13e85"}, {"is_disabled": 0, "is_reserved": 0, "fusion_lat": 0.0, "lat": 38.930754666666665, "fusion_lon": 0.0, "rental_uris": {"ios": "https://dc.lft.to/lastmile_qr_scan", "android": "https://dc.lft.to/lastmile_qr_scan"}, "lon": -77.07765166666667, "bike_id": "8fc943b62f3b460872fb538e069fd82a", "type": "electric_scooter", "name": "8fc943b62f3b460872fb538e069fd82a"}, {"is_disabled": 0, "is_reserved": 0, "fusion_lat": 0.0, "lat": 38.9257345, "fusion_lon": 0.0, "rental_uris": {"ios": "https://dc.lft.to/lastmile_qr_scan", "android": "https://dc.lft.to/lastmile_qr_scan"}, "lon": -76.9949365, "bike_id": "442f9cf78fd6363a979e02a1ccc49f17", "type": "electric_scooter", "name": "442f9cf78fd6363a979e02a1ccc49f17"}, {"is_disabled": 0, "is_reserved": 0, "fusion_lat": 0.0, "lat": 39.00383883333333, "fusion_lon": 0.0, "rental_uris": {"ios": "https://dc.lft.to/lastmile_qr_scan", "android": "https://dc.lft.to/lastmile_qr_scan"}, "lon": -77.01288066666666, "bike_id": "c9935d49fcb777640881b44b4ffaa7f0", "type": "electric_bike", "name": "c9935d49fcb777640881b44b4ffaa7f0"}, {"is_disabled": 0, "is_reserved": 0, "fusion_lat": 0.0, "lat": 38.91676433333333, "fusion_lon": 0.0, "rental_uris": {"ios": "https://dc.lft.to/lastmile_qr_scan", "android": "https://dc.lft.to/lastmile_qr_scan"}, "lon": -77.09571233333334, "bike_id": "49f91cbd27ab5fd9f463de7e5ed77753", "type": "electric_scooter", "name": "49f91cbd27ab5fd9f463de7e5ed77753"}, {"is_disabled": 0, "is_reserved": 0, "fusion_lat": 0.0, "lat": 38.92065483333333, "fusion_lon": 0.0, "rental_uris": {"ios": "https://dc.lft.to/lastmile_qr_scan", "android": "https://dc.lft.to/lastmile_qr_scan"}, "lon": -77.02354333333334, "bike_id": "bd068d327b039e1cb6d8aca3a9b40515", "type": "electric_scooter", "name": "bd068d327b039e1cb6d8aca3a9b40515"}, {"is_disabled": 0, "is_reserved": 0, "fusion_lat": 0.0, "lat": 38.93970433333333, "fusion_lon": 0.0, "rental_uris": {"ios": "https://dc.lft.to/lastmile_qr_scan", "android": "https://dc.lft.to/lastmile_qr_scan"}, "lon": -77.034255, "bike_id": "d4cb632bfec30dcf382185b8983dd81b", "type": "electric_scooter", "name": "d4cb632bfec30dcf382185b8983dd81b"}, {"is_disabled": 0, "is_reserved": 0, "fusion_lat": 0.0, "lat": 38.92035966666667, "fusion_lon": 0.0, "rental_uris": {"ios": "https://dc.lft.to/lastmile_qr_scan", "android": "https://dc.lft.to/lastmile_qr_scan"}, "lon": -76.979568, "bike_id": "9c1e2b51e0701064389d9e98ebf3c643", "type": "electric_bike", "name": "9c1e2b51e0701064389d9e98ebf3c643"}, {"is_disabled": 0, "is_reserved": 0, "fusion_lat": 0.0, "lat": 38.92879683333334, "fusion_lon": 0.0, "rental_uris": {"ios": "https://dc.lft.to/lastmile_qr_scan", "android": "https://dc.lft.to/lastmile_qr_scan"}, "lon": -77.03249766666667, "bike_id": "a06f491fd2e9aea58aad6bd5658724d3", "type": "electric_scooter", "name": "a06f491fd2e9aea58aad6bd5658724d3"}, {"is_disabled": 0, "is_reserved": 0, "fusion_lat": 0.0, "lat": 38.913345666666665, "fusion_lon": 0.0, "rental_uris": {"ios": "https://dc.lft.to/lastmile_qr_scan", "android": "https://dc.lft.to/lastmile_qr_scan"}, "lon": -77.04342266666667, "bike_id": "eda09505adb193823473bd757b3dd5cb", "type": "electric_scooter", "name": "eda09505adb193823473bd757b3dd5cb"}, {"is_disabled": 0, "is_reserved": 0, "fusion_lat": 0.0, "lat": 38.924318, "fusion_lon": 0.0, "rental_uris": {"ios": "https://dc.lft.to/lastmile_qr_scan", "android": "https://dc.lft.to/lastmile_qr_scan"}, "lon": -77.01944, "bike_id": "45581041d2bd186e4025e8aa794fd566", "type": "electric_scooter", "name": "45581041d2bd186e4025e8aa794fd566"}, {"is_disabled": 0, "is_reserved": 0, "fusion_lat": 0.0, "lat": 38.899339833333336, "fusion_lon": 0.0, "rental_uris": {"ios": "https://dc.lft.to/lastmile_qr_scan", "android": "https://dc.lft.to/lastmile_qr_scan"}, "lon": -76.93759816666666, "bike_id": "e348d51606618e4996b8ab13ad266d72", "type": "electric_scooter", "name": "e348d51606618e4996b8ab13ad266d72"}, {"is_disabled": 0, "is_reserved": 0, "fusion_lat": 0.0, "lat": 38.917434166666666, "fusion_lon": 0.0, "rental_uris": {"ios": "https://dc.lft.to/lastmile_qr_scan", "android": "https://dc.lft.to/lastmile_qr_scan"}, "lon": -77.01083516666667, "bike_id": "0b3ca2b13087718cea0a36d68eba20e5", "type": "electric_scooter", "name": "0b3ca2b13087718cea0a36d68eba20e5"}, {"is_disabled": 0, "is_reserved": 0, "fusion_lat": 0.0, "lat": 38.92822433333333, "fusion_lon": 0.0, "rental_uris": {"ios": "https://dc.lft.to/lastmile_qr_scan", "android": "https://dc.lft.to/lastmile_qr_scan"}, "lon": -77.059656, "bike_id": "bae8c1fa3bb27aa6e460882d634df6d9", "type": "electric_bike", "name": "bae8c1fa3bb27aa6e460882d634df6d9"}, {"is_disabled": 0, "is_reserved": 0, "fusion_lat": 0.0, "lat": 38.8708545, "fusion_lon": 0.0, "rental_uris": {"ios": "https://dc.lft.to/lastmile_qr_scan", "android": "https://dc.lft.to/lastmile_qr_scan"}, "lon": -77.01075383333334, "bike_id": "35772a81b4b02efc4ad04d8577992b30", "type": "electric_scooter", "name": "35772a81b4b02efc4ad04d8577992b30"}, {"is_disabled": 0, "is_reserved": 0, "fusion_lat": 0.0, "lat": 38.87622283333333, "fusion_lon": 0.0, "rental_uris": {"ios": "https://dc.lft.to/lastmile_qr_scan", "android": "https://dc.lft.to/lastmile_qr_scan"}, "lon": -77.0020315, "bike_id": "138c32808096337e33ef2540bceefd3c", "type": "electric_scooter", "name": "138c32808096337e33ef2540bceefd3c"}, {"is_disabled": 0, "is_reserved": 0, "fusion_lat": 0.0, "lat": 38.889734833333335, "fusion_lon": 0.0, "rental_uris": {"ios": "https://dc.lft.to/lastmile_qr_scan", "android": "https://dc.lft.to/lastmile_qr_scan"}, "lon": -76.9817805, "bike_id": "8b919e9f289699e4b846763855dfdda1", "type": "electric_scooter", "name": "8b919e9f289699e4b846763855dfdda1"}, {"is_disabled": 0, "is_reserved": 0, "fusion_lat": 0.0, "lat": 38.918076166666665, "fusion_lon": 0.0, "rental_uris": {"ios": "https://dc.lft.to/lastmile_qr_scan", "android": "https://dc.lft.to/lastmile_qr_scan"}, "lon": -77.00001, "bike_id": "9c14804e2fba4882679a1b7013db90e6", "type": "electric_scooter", "name": "9c14804e2fba4882679a1b7013db90e6"}, {"is_disabled": 0, "is_reserved": 0, "fusion_lat": 0.0, "lat": 38.91179366666667, "fusion_lon": 0.0, "rental_uris": {"ios": "https://dc.lft.to/lastmile_qr_scan", "android": "https://dc.lft.to/lastmile_qr_scan"}, "lon": -77.01206366666666, "bike_id": "54a2ecfece8a872744eeb033c9a82d13", "type": "electric_scooter", "name": "54a2ecfece8a872744eeb033c9a82d13"}, {"is_disabled": 0, "is_reserved": 0, "fusion_lat": 0.0, "lat": 38.888332, "fusion_lon": 0.0, "rental_uris": {"ios": "https://dc.lft.to/lastmile_qr_scan", "android": "https://dc.lft.to/lastmile_qr_scan"}, "lon": -77.04906966666667, "bike_id": "d3e84e84be48f70db648d154494ac1a7", "type": "electric_scooter", "name": "d3e84e84be48f70db648d154494ac1a7"}, {"is_disabled": 0, "is_reserved": 0, "fusion_lat": 0.0, "lat": 38.881862, "fusion_lon": 0.0, "rental_uris": {"ios": "https://dc.lft.to/lastmile_qr_scan", "android": "https://dc.lft.to/lastmile_qr_scan"}, "lon": -77.00354283333333, "bike_id": "c7cd0930e8ae518f3245163678743bb0", "type": "electric_scooter", "name": "c7cd0930e8ae518f3245163678743bb0"}, {"is_disabled": 0, "is_reserved": 0, "fusion_lat": 0.0, "lat": 38.90702233333333, "fusion_lon": 0.0, "rental_uris": {"ios": "https://dc.lft.to/lastmile_qr_scan", "android": "https://dc.lft.to/lastmile_qr_scan"}, "lon": -77.04800366666667, "bike_id": "04b02390f23af35f5519df0ef228dc04", "type": "electric_scooter", "name": "04b02390f23af35f5519df0ef228dc04"}, {"is_disabled": 0, "is_reserved": 0, "fusion_lat": 0.0, "lat": 38.91925033333333, "fusion_lon": 0.0, "rental_uris": {"ios": "https://dc.lft.to/lastmile_qr_scan", "android": "https://dc.lft.to/lastmile_qr_scan"}, "lon": -77.00972333333333, "bike_id": "98560e5dc1abdbd0b9a387902b4beca3", "type": "electric_scooter", "name": "98560e5dc1abdbd0b9a387902b4beca3"}, {"is_disabled": 0, "is_reserved": 0, "fusion_lat": 0.0, "lat": 38.930614, "fusion_lon": 0.0, "rental_uris": {"ios": "https://dc.lft.to/lastmile_qr_scan", "android": "https://dc.lft.to/lastmile_qr_scan"}, "lon": -77.04214583333334, "bike_id": "d82e67253b1effd0555837a2845a7bf8", "type": "electric_scooter", "name": "d82e67253b1effd0555837a2845a7bf8"}, {"is_disabled": 0, "is_reserved": 0, "fusion_lat": 0.0, "lat": 38.92478666666667, "fusion_lon": 0.0, "rental_uris": {"ios": "https://dc.lft.to/lastmile_qr_scan", "android": "https://dc.lft.to/lastmile_qr_scan"}, "lon": -77.0283375, "bike_id": "18b60bba4728370d3621e9c3c18bdb45", "type": "electric_scooter", "name": "18b60bba4728370d3621e9c3c18bdb45"}, {"is_disabled": 0, "is_reserved": 0, "fusion_lat": 0.0, "lat": 38.897455666666666, "fusion_lon": 0.0, "rental_uris": {"ios": "https://dc.lft.to/lastmile_qr_scan", "android": "https://dc.lft.to/lastmile_qr_scan"}, "lon": -77.0480885, "bike_id": "0ba570329da720a421e8bf3f09b0f75d", "type": "electric_scooter", "name": "0ba570329da720a421e8bf3f09b0f75d"}, {"is_disabled": 0, "is_reserved": 0, "fusion_lat": 0.0, "lat": 38.93241283333333, "fusion_lon": 0.0, "rental_uris": {"ios": "https://dc.lft.to/lastmile_qr_scan", "android": "https://dc.lft.to/lastmile_qr_scan"}, "lon": -77.03411, "bike_id": "5ccb6269bd5156214de840b1cea72474", "type": "electric_scooter", "name": "5ccb6269bd5156214de840b1cea72474"}, {"is_disabled": 0, "is_reserved": 0, "fusion_lat": 0.0, "lat": 38.906583499999996, "fusion_lon": 0.0, "rental_uris": {"ios": "https://dc.lft.to/lastmile_qr_scan", "android": "https://dc.lft.to/lastmile_qr_scan"}, "lon": -76.985986, "bike_id": "eae640cfeb0cc1345cd5578c74e39d47", "type": "electric_scooter", "name": "eae640cfeb0cc1345cd5578c74e39d47"}, {"is_disabled": 0, "is_reserved": 0, "fusion_lat": 0.0, "lat": 38.9509485, "fusion_lon": 0.0, "rental_uris": {"ios": "https://dc.lft.to/lastmile_qr_scan", "android": "https://dc.lft.to/lastmile_qr_scan"}, "lon": -77.0190525, "bike_id": "9a446aab65555e1e21d4da4979f3114a", "type": "electric_scooter", "name": "9a446aab65555e1e21d4da4979f3114a"}, {"is_disabled": 0, "is_reserved": 0, "fusion_lat": 0.0, "lat": 38.9054, "fusion_lon": 0.0, "rental_uris": {"ios": "https://dc.lft.to/lastmile_qr_scan", "android": "https://dc.lft.to/lastmile_qr_scan"}, "lon": -77.05700266666666, "bike_id": "74f5bb9910a89ace90da4e8a42d28a5d", "type": "electric_scooter", "name": "74f5bb9910a89ace90da4e8a42d28a5d"}, {"is_disabled": 0, "is_reserved": 0, "fusion_lat": 0.0, "lat": 38.94034033333333, "fusion_lon": 0.0, "rental_uris": {"ios": "https://dc.lft.to/lastmile_qr_scan", "android": "https://dc.lft.to/lastmile_qr_scan"}, "lon": -77.02509883333333, "bike_id": "8116ccdf05b9d5f7b008bd0cb67a69ee", "type": "electric_scooter", "name": "8116ccdf05b9d5f7b008bd0cb67a69ee"}, {"is_disabled": 0, "is_reserved": 0, "fusion_lat": 0.0, "lat": 38.913426333333334, "fusion_lon": 0.0, "rental_uris": {"ios": "https://dc.lft.to/lastmile_qr_scan", "android": "https://dc.lft.to/lastmile_qr_scan"}, "lon": -77.0442805, "bike_id": "677a7bf1a8ca93ffb698aadcec697a2d", "type": "electric_scooter", "name": "677a7bf1a8ca93ffb698aadcec697a2d"}, {"is_disabled": 0, "is_reserved": 0, "fusion_lat": 0.0, "lat": 38.92376816666667, "fusion_lon": 0.0, "rental_uris": {"ios": "https://dc.lft.to/lastmile_qr_scan", "android": "https://dc.lft.to/lastmile_qr_scan"}, "lon": -77.02029116666667, "bike_id": "5b9671db0bfca2b7b14f0aaefab51d43", "type": "electric_scooter", "name": "5b9671db0bfca2b7b14f0aaefab51d43"}, {"is_disabled": 0, "is_reserved": 0, "fusion_lat": 0.0, "lat": 38.9064865, "fusion_lon": 0.0, "rental_uris": {"ios": "https://dc.lft.to/lastmile_qr_scan", "android": "https://dc.lft.to/lastmile_qr_scan"}, "lon": -76.97942483333334, "bike_id": "98f25fe61fb70193b063f678f19b008e", "type": "electric_scooter", "name": "98f25fe61fb70193b063f678f19b008e"}, {"is_disabled": 0, "is_reserved": 0, "fusion_lat": 0.0, "lat": 38.941748833333335, "fusion_lon": 0.0, "rental_uris": {"ios": "https://dc.lft.to/lastmile_qr_scan", "android": "https://dc.lft.to/lastmile_qr_scan"}, "lon": -77.02532866666667, "bike_id": "ff133df0b72b09682db83adb8e635e51", "type": "electric_scooter", "name": "ff133df0b72b09682db83adb8e635e51"}, {"is_disabled": 0, "is_reserved": 0, "fusion_lat": 0.0, "lat": 38.914181666666664, "fusion_lon": 0.0, "rental_uris": {"ios": "https://dc.lft.to/lastmile_qr_scan", "android": "https://dc.lft.to/lastmile_qr_scan"}, "lon": -77.021158, "bike_id": "949a60aca70e9e002eeeef6371f2109f", "type": "electric_scooter", "name": "949a60aca70e9e002eeeef6371f2109f"}, {"is_disabled": 0, "is_reserved": 0, "fusion_lat": 0.0, "lat": 38.912271833333335, "fusion_lon": 0.0, "rental_uris": {"ios": "https://dc.lft.to/lastmile_qr_scan", "android": "https://dc.lft.to/lastmile_qr_scan"}, "lon": -77.06404883333333, "bike_id": "61623c2c330245431fbbdda883dc0efa", "type": "electric_scooter", "name": "61623c2c330245431fbbdda883dc0efa"}, {"is_disabled": 0, "is_reserved": 0, "fusion_lat": 0.0, "lat": 38.908831166666666, "fusion_lon": 0.0, "rental_uris": {"ios": "https://dc.lft.to/lastmile_qr_scan", "android": "https://dc.lft.to/lastmile_qr_scan"}, "lon": -77.0743145, "bike_id": "b25bef27e4e87cff95ba73ce5b2b2c23", "type": "electric_scooter", "name": "b25bef27e4e87cff95ba73ce5b2b2c23"}, {"is_disabled": 0, "is_reserved": 0, "fusion_lat": 0.0, "lat": 38.901502, "fusion_lon": 0.0, "rental_uris": {"ios": "https://dc.lft.to/lastmile_qr_scan", "android": "https://dc.lft.to/lastmile_qr_scan"}, "lon": -76.92984716666666, "bike_id": "02cfba38ced5cc13aa35cbbe795f7b9a", "type": "electric_scooter", "name": "02cfba38ced5cc13aa35cbbe795f7b9a"}, {"is_disabled": 0, "is_reserved": 0, "fusion_lat": 0.0, "lat": 38.8967365, "fusion_lon": 0.0, "rental_uris": {"ios": "https://dc.lft.to/lastmile_qr_scan", "android": "https://dc.lft.to/lastmile_qr_scan"}, "lon": -77.04900766666667, "bike_id": "1803414b3da75d44bd607ca0a1642304", "type": "electric_scooter", "name": "1803414b3da75d44bd607ca0a1642304"}, {"is_disabled": 0, "is_reserved": 0, "fusion_lat": 0.0, "lat": 38.89510683333334, "fusion_lon": 0.0, "rental_uris": {"ios": "https://dc.lft.to/lastmile_qr_scan", "android": "https://dc.lft.to/lastmile_qr_scan"}, "lon": -77.0227835, "bike_id": "a61077db9e0af755f2e4b143f7e9eae3", "type": "electric_scooter", "name": "a61077db9e0af755f2e4b143f7e9eae3"}, {"is_disabled": 0, "is_reserved": 0, "fusion_lat": 0.0, "lat": 39.00645333333333, "fusion_lon": 0.0, "rental_uris": {"ios": "https://dc.lft.to/lastmile_qr_scan", "android": "https://dc.lft.to/lastmile_qr_scan"}, "lon": -76.90020116666666, "bike_id": "24590fa66dd18ebb139c75da27b8d17f", "type": "electric_bike", "name": "24590fa66dd18ebb139c75da27b8d17f"}, {"is_disabled": 0, "is_reserved": 0, "fusion_lat": 0.0, "lat": 38.91547766666667, "fusion_lon": 0.0, "rental_uris": {"ios": "https://dc.lft.to/lastmile_qr_scan", "android": "https://dc.lft.to/lastmile_qr_scan"}, "lon": -77.03850733333333, "bike_id": "ca63a798c19aafb4559425fdae6d12a6", "type": "electric_scooter", "name": "ca63a798c19aafb4559425fdae6d12a6"}, {"is_disabled": 0, "is_reserved": 0, "fusion_lat": 0.0, "lat": 38.910437333333334, "fusion_lon": 0.0, "rental_uris": {"ios": "https://dc.lft.to/lastmile_qr_scan", "android": "https://dc.lft.to/lastmile_qr_scan"}, "lon": -76.99806816666667, "bike_id": "3ba4e6cfbddc3fccefc1b854324df470", "type": "electric_scooter", "name": "3ba4e6cfbddc3fccefc1b854324df470"}, {"is_disabled": 0, "is_reserved": 0, "fusion_lat": 0.0, "lat": 38.95215866666667, "fusion_lon": 0.0, "rental_uris": {"ios": "https://dc.lft.to/lastmile_qr_scan", "android": "https://dc.lft.to/lastmile_qr_scan"}, "lon": -77.08868683333333, "bike_id": "c5bf93d14717afe36197361435330acd", "type": "electric_scooter", "name": "c5bf93d14717afe36197361435330acd"}, {"is_disabled": 0, "is_reserved": 0, "fusion_lat": 0.0, "lat": 38.92317666666667, "fusion_lon": 0.0, "rental_uris": {"ios": "https://dc.lft.to/lastmile_qr_scan", "android": "https://dc.lft.to/lastmile_qr_scan"}, "lon": -77.02893083333333, "bike_id": "a894111cd69c47d7261fb028e228c4c4", "type": "electric_scooter", "name": "a894111cd69c47d7261fb028e228c4c4"}, {"is_disabled": 0, "is_reserved": 0, "fusion_lat": 0.0, "lat": 38.9141345, "fusion_lon": 0.0, "rental_uris": {"ios": "https://dc.lft.to/lastmile_qr_scan", "android": "https://dc.lft.to/lastmile_qr_scan"}, "lon": -77.024227, "bike_id": "4ccc48e3808aad9c345a39195636547f", "type": "electric_scooter", "name": "4ccc48e3808aad9c345a39195636547f"}, {"is_disabled": 0, "is_reserved": 0, "fusion_lat": 0.0, "lat": 38.852470333333336, "fusion_lon": 0.0, "rental_uris": {"ios": "https://dc.lft.to/lastmile_qr_scan", "android": "https://dc.lft.to/lastmile_qr_scan"}, "lon": -77.1140945, "bike_id": "ca1021381760818bcaa41a41a92fc2e9", "type": "electric_bike", "name": "ca1021381760818bcaa41a41a92fc2e9"}, {"is_disabled": 0, "is_reserved": 0, "fusion_lat": 0.0, "lat": 38.925690833333334, "fusion_lon": 0.0, "rental_uris": {"ios": "https://dc.lft.to/lastmile_qr_scan", "android": "https://dc.lft.to/lastmile_qr_scan"}, "lon": -77.03133816666667, "bike_id": "a78c88edb442d331629a90f1a2d7a437", "type": "electric_scooter", "name": "a78c88edb442d331629a90f1a2d7a437"}, {"is_disabled": 0, "is_reserved": 0, "fusion_lat": 0.0, "lat": 38.943318833333336, "fusion_lon": 0.0, "rental_uris": {"ios": "https://dc.lft.to/lastmile_qr_scan", "android": "https://dc.lft.to/lastmile_qr_scan"}, "lon": -77.01551633333334, "bike_id": "ba3c7c7fbdf35e9eafd8f23ae868e719", "type": "electric_scooter", "name": "ba3c7c7fbdf35e9eafd8f23ae868e719"}, {"is_disabled": 0, "is_reserved": 0, "fusion_lat": 0.0, "lat": 38.882973, "fusion_lon": 0.0, "rental_uris": {"ios": "https://dc.lft.to/lastmile_qr_scan", "android": "https://dc.lft.to/lastmile_qr_scan"}, "lon": -76.93490333333334, "bike_id": "8749bda6d6a4adc888c87e7f63436de9", "type": "electric_scooter", "name": "8749bda6d6a4adc888c87e7f63436de9"}, {"is_disabled": 0, "is_reserved": 0, "fusion_lat": 0.0, "lat": 38.842766166666664, "fusion_lon": 0.0, "rental_uris": {"ios": "https://dc.lft.to/lastmile_qr_scan", "android": "https://dc.lft.to/lastmile_qr_scan"}, "lon": -76.98842583333334, "bike_id": "8db92fc327e61b669efea3fbfe3000d8", "type": "electric_scooter", "name": "8db92fc327e61b669efea3fbfe3000d8"}, {"is_disabled": 0, "is_reserved": 0, "fusion_lat": 0.0, "lat": 38.90723466666667, "fusion_lon": 0.0, "rental_uris": {"ios": "https://dc.lft.to/lastmile_qr_scan", "android": "https://dc.lft.to/lastmile_qr_scan"}, "lon": -76.9887735, "bike_id": "f5da5aae17a1ef60f4e9e8588a0163ed", "type": "electric_bike", "name": "f5da5aae17a1ef60f4e9e8588a0163ed"}, {"is_disabled": 0, "is_reserved": 0, "fusion_lat": 0.0, "lat": 38.892299333333334, "fusion_lon": 0.0, "rental_uris": {"ios": "https://dc.lft.to/lastmile_qr_scan", "android": "https://dc.lft.to/lastmile_qr_scan"}, "lon": -77.0323815, "bike_id": "ed6bbdf319b16517e8d585567d103d4e", "type": "electric_scooter", "name": "ed6bbdf319b16517e8d585567d103d4e"}, {"is_disabled": 0, "is_reserved": 0, "fusion_lat": 0.0, "lat": 38.9068805, "fusion_lon": 0.0, "rental_uris": {"ios": "https://dc.lft.to/lastmile_qr_scan", "android": "https://dc.lft.to/lastmile_qr_scan"}, "lon": -77.06287066666667, "bike_id": "67482661d6f2b81dfe33919ad8784b78", "type": "electric_scooter", "name": "67482661d6f2b81dfe33919ad8784b78"}, {"is_disabled": 0, "is_reserved": 0, "fusion_lat": 0.0, "lat": 38.9200195, "fusion_lon": 0.0, "rental_uris": {"ios": "https://dc.lft.to/lastmile_qr_scan", "android": "https://dc.lft.to/lastmile_qr_scan"}, "lon": -77.03227516666666, "bike_id": "33a431324f0ca581397ac918192fa1cd", "type": "electric_scooter", "name": "33a431324f0ca581397ac918192fa1cd"}, {"is_disabled": 0, "is_reserved": 0, "fusion_lat": 0.0, "lat": 38.9064775, "fusion_lon": 0.0, "rental_uris": {"ios": "https://dc.lft.to/lastmile_qr_scan", "android": "https://dc.lft.to/lastmile_qr_scan"}, "lon": -77.04546216666667, "bike_id": "b341097a4d11bfa14e3e3be80f37e0de", "type": "electric_scooter", "name": "b341097a4d11bfa14e3e3be80f37e0de"}, {"is_disabled": 0, "is_reserved": 0, "fusion_lat": 0.0, "lat": 38.924148833333334, "fusion_lon": 0.0, "rental_uris": {"ios": "https://dc.lft.to/lastmile_qr_scan", "android": "https://dc.lft.to/lastmile_qr_scan"}, "lon": -77.0230105, "bike_id": "546522a73d59e97940cbbb9bb768ff1d", "type": "electric_scooter", "name": "546522a73d59e97940cbbb9bb768ff1d"}, {"is_disabled": 0, "is_reserved": 0, "fusion_lat": 0.0, "lat": 38.903801, "fusion_lon": 0.0, "rental_uris": {"ios": "https://dc.lft.to/lastmile_qr_scan", "android": "https://dc.lft.to/lastmile_qr_scan"}, "lon": -77.01675166666666, "bike_id": "f166b0b250199bbd53e9e4f34768bdea", "type": "electric_scooter", "name": "f166b0b250199bbd53e9e4f34768bdea"}, {"is_disabled": 0, "is_reserved": 0, "fusion_lat": 0.0, "lat": 38.9182095, "fusion_lon": 0.0, "rental_uris": {"ios": "https://dc.lft.to/lastmile_qr_scan", "android": "https://dc.lft.to/lastmile_qr_scan"}, "lon": -77.02525283333334, "bike_id": "a2a2e2d2315a101f97504e0e8c2476d4", "type": "electric_scooter", "name": "a2a2e2d2315a101f97504e0e8c2476d4"}, {"is_disabled": 0, "is_reserved": 0, "fusion_lat": 0.0, "lat": 38.92597816666667, "fusion_lon": 0.0, "rental_uris": {"ios": "https://dc.lft.to/lastmile_qr_scan", "android": "https://dc.lft.to/lastmile_qr_scan"}, "lon": -77.02497216666667, "bike_id": "23e9e074d98128e7bff1e57a3dc21600", "type": "electric_scooter", "name": "23e9e074d98128e7bff1e57a3dc21600"}, {"is_disabled": 0, "is_reserved": 0, "fusion_lat": 0.0, "lat": 38.9265425, "fusion_lon": 0.0, "rental_uris": {"ios": "https://dc.lft.to/lastmile_qr_scan", "android": "https://dc.lft.to/lastmile_qr_scan"}, "lon": -77.02434716666667, "bike_id": "18df41dfbb05ca858d40ee29965382b9", "type": "electric_scooter", "name": "18df41dfbb05ca858d40ee29965382b9"}, {"is_disabled": 0, "is_reserved": 0, "fusion_lat": 0.0, "lat": 38.9194695, "fusion_lon": 0.0, "rental_uris": {"ios": "https://dc.lft.to/lastmile_qr_scan", "android": "https://dc.lft.to/lastmile_qr_scan"}, "lon": -77.013944, "bike_id": "b43e5f04b9cba7d7c6126714fcf4b1e1", "type": "electric_scooter", "name": "b43e5f04b9cba7d7c6126714fcf4b1e1"}, {"is_disabled": 0, "is_reserved": 0, "fusion_lat": 0.0, "lat": 38.947218666666664, "fusion_lon": 0.0, "rental_uris": {"ios": "https://dc.lft.to/lastmile_qr_scan", "android": "https://dc.lft.to/lastmile_qr_scan"}, "lon": -77.02355116666666, "bike_id": "04fa438f4a04bfd9d0b98b2b6b88678b", "type": "electric_scooter", "name": "04fa438f4a04bfd9d0b98b2b6b88678b"}, {"is_disabled": 0, "is_reserved": 0, "fusion_lat": 0.0, "lat": 38.9132965, "fusion_lon": 0.0, "rental_uris": {"ios": "https://dc.lft.to/lastmile_qr_scan", "android": "https://dc.lft.to/lastmile_qr_scan"}, "lon": -77.03124716666666, "bike_id": "a7daf7a6cd4d96b44f80286c4fdf13d2", "type": "electric_scooter", "name": "a7daf7a6cd4d96b44f80286c4fdf13d2"}, {"is_disabled": 0, "is_reserved": 0, "fusion_lat": 0.0, "lat": 38.92070566666666, "fusion_lon": 0.0, "rental_uris": {"ios": "https://dc.lft.to/lastmile_qr_scan", "android": "https://dc.lft.to/lastmile_qr_scan"}, "lon": -77.02357216666667, "bike_id": "a949dd85ea21f70f267b72f493e6f325", "type": "electric_scooter", "name": "a949dd85ea21f70f267b72f493e6f325"}, {"is_disabled": 0, "is_reserved": 0, "fusion_lat": 0.0, "lat": 38.91206866666667, "fusion_lon": 0.0, "rental_uris": {"ios": "https://dc.lft.to/lastmile_qr_scan", "android": "https://dc.lft.to/lastmile_qr_scan"}, "lon": -77.00221016666667, "bike_id": "255ce88102bf66ea0d20aefef8cab01c", "type": "electric_scooter", "name": "255ce88102bf66ea0d20aefef8cab01c"}, {"is_disabled": 0, "is_reserved": 0, "fusion_lat": 0.0, "lat": 38.9190075, "fusion_lon": 0.0, "rental_uris": {"ios": "https://dc.lft.to/lastmile_qr_scan", "android": "https://dc.lft.to/lastmile_qr_scan"}, "lon": -77.03444433333334, "bike_id": "a6dc0de03a68419ac97e1dc7dc3c17b2", "type": "electric_scooter", "name": "a6dc0de03a68419ac97e1dc7dc3c17b2"}, {"is_disabled": 0, "is_reserved": 0, "fusion_lat": 0.0, "lat": 38.90408733333334, "fusion_lon": 0.0, "rental_uris": {"ios": "https://dc.lft.to/lastmile_qr_scan", "android": "https://dc.lft.to/lastmile_qr_scan"}, "lon": -77.02486983333333, "bike_id": "1e0b6f87b7b7595f6e2d6fc6b74db17d", "type": "electric_scooter", "name": "1e0b6f87b7b7595f6e2d6fc6b74db17d"}, {"is_disabled": 0, "is_reserved": 0, "fusion_lat": 0.0, "lat": 38.920520833333335, "fusion_lon": 0.0, "rental_uris": {"ios": "https://dc.lft.to/lastmile_qr_scan", "android": "https://dc.lft.to/lastmile_qr_scan"}, "lon": -77.03378266666667, "bike_id": "f0b8649e6b25b86c2481059cba9f4b21", "type": "electric_scooter", "name": "f0b8649e6b25b86c2481059cba9f4b21"}, {"is_disabled": 0, "is_reserved": 0, "fusion_lat": 0.0, "lat": 38.90275666666667, "fusion_lon": 0.0, "rental_uris": {"ios": "https://dc.lft.to/lastmile_qr_scan", "android": "https://dc.lft.to/lastmile_qr_scan"}, "lon": -77.03910816666667, "bike_id": "c763e6591eb7df0a6c27f29034208922", "type": "electric_scooter", "name": "c763e6591eb7df0a6c27f29034208922"}, {"is_disabled": 0, "is_reserved": 0, "fusion_lat": 0.0, "lat": 38.930702, "fusion_lon": 0.0, "rental_uris": {"ios": "https://dc.lft.to/lastmile_qr_scan", "android": "https://dc.lft.to/lastmile_qr_scan"}, "lon": -77.02341783333334, "bike_id": "8280d4f00134e867d1bfb983598b0123", "type": "electric_scooter", "name": "8280d4f00134e867d1bfb983598b0123"}, {"is_disabled": 0, "is_reserved": 0, "fusion_lat": 0.0, "lat": 38.885404, "fusion_lon": 0.0, "rental_uris": {"ios": "https://dc.lft.to/lastmile_qr_scan", "android": "https://dc.lft.to/lastmile_qr_scan"}, "lon": -76.9788895, "bike_id": "030835463db0df1a25a2cec5de8b26b2", "type": "electric_scooter", "name": "030835463db0df1a25a2cec5de8b26b2"}, {"is_disabled": 0, "is_reserved": 0, "fusion_lat": 0.0, "lat": 38.964262, "fusion_lon": 0.0, "rental_uris": {"ios": "https://dc.lft.to/lastmile_qr_scan", "android": "https://dc.lft.to/lastmile_qr_scan"}, "lon": -77.07424783333333, "bike_id": "4c86169fe0fb7e6989601285f416a7e1", "type": "electric_scooter", "name": "4c86169fe0fb7e6989601285f416a7e1"}, {"is_disabled": 0, "is_reserved": 0, "fusion_lat": 0.0, "lat": 38.834109166666664, "fusion_lon": 0.0, "rental_uris": {"ios": "https://dc.lft.to/lastmile_qr_scan", "android": "https://dc.lft.to/lastmile_qr_scan"}, "lon": -77.05004666666666, "bike_id": "421237705a5c08b856f7ae5299efc3f4", "type": "electric_bike", "name": "421237705a5c08b856f7ae5299efc3f4"}, {"is_disabled": 0, "is_reserved": 0, "fusion_lat": 0.0, "lat": 38.857152, "fusion_lon": 0.0, "rental_uris": {"ios": "https://dc.lft.to/lastmile_qr_scan", "android": "https://dc.lft.to/lastmile_qr_scan"}, "lon": -76.98094016666667, "bike_id": "9267c76f5e270d56031af80f785a6b35", "type": "electric_scooter", "name": "9267c76f5e270d56031af80f785a6b35"}, {"is_disabled": 0, "is_reserved": 0, "fusion_lat": 0.0, "lat": 38.898732333333335, "fusion_lon": 0.0, "rental_uris": {"ios": "https://dc.lft.to/lastmile_qr_scan", "android": "https://dc.lft.to/lastmile_qr_scan"}, "lon": -76.93139, "bike_id": "6842c147ce8cf4dab4fd14a8f42368d9", "type": "electric_scooter", "name": "6842c147ce8cf4dab4fd14a8f42368d9"}, {"is_disabled": 0, "is_reserved": 0, "fusion_lat": 0.0, "lat": 38.89223966666667, "fusion_lon": 0.0, "rental_uris": {"ios": "https://dc.lft.to/lastmile_qr_scan", "android": "https://dc.lft.to/lastmile_qr_scan"}, "lon": -77.033236, "bike_id": "00a927a12940a93f6603a73de5222d9e", "type": "electric_bike", "name": "00a927a12940a93f6603a73de5222d9e"}, {"is_disabled": 0, "is_reserved": 0, "fusion_lat": 0.0, "lat": 38.90530016666666, "fusion_lon": 0.0, "rental_uris": {"ios": "https://dc.lft.to/lastmile_qr_scan", "android": "https://dc.lft.to/lastmile_qr_scan"}, "lon": -77.04999733333334, "bike_id": "781b5e18016573eb278f0ca44cf879de", "type": "electric_scooter", "name": "781b5e18016573eb278f0ca44cf879de"}, {"is_disabled": 0, "is_reserved": 0, "fusion_lat": 0.0, "lat": 38.896056333333334, "fusion_lon": 0.0, "rental_uris": {"ios": "https://dc.lft.to/lastmile_qr_scan", "android": "https://dc.lft.to/lastmile_qr_scan"}, "lon": -77.00331966666667, "bike_id": "19d9570b5a93b144cb6d7c194129716b", "type": "electric_scooter", "name": "19d9570b5a93b144cb6d7c194129716b"}, {"is_disabled": 0, "is_reserved": 0, "fusion_lat": 0.0, "lat": 38.93749283333333, "fusion_lon": 0.0, "rental_uris": {"ios": "https://dc.lft.to/lastmile_qr_scan", "android": "https://dc.lft.to/lastmile_qr_scan"}, "lon": -77.03436866666667, "bike_id": "b549e074eaa676f03f73b01780443a39", "type": "electric_scooter", "name": "b549e074eaa676f03f73b01780443a39"}, {"is_disabled": 0, "is_reserved": 0, "fusion_lat": 0.0, "lat": 38.94922366666667, "fusion_lon": 0.0, "rental_uris": {"ios": "https://dc.lft.to/lastmile_qr_scan", "android": "https://dc.lft.to/lastmile_qr_scan"}, "lon": -77.02316116666667, "bike_id": "4f8357ff3a538323c50d624a5e8f55a9", "type": "electric_scooter", "name": "4f8357ff3a538323c50d624a5e8f55a9"}, {"is_disabled": 0, "is_reserved": 0, "fusion_lat": 0.0, "lat": 38.924201833333335, "fusion_lon": 0.0, "rental_uris": {"ios": "https://dc.lft.to/lastmile_qr_scan", "android": "https://dc.lft.to/lastmile_qr_scan"}, "lon": -77.0200975, "bike_id": "30c9d3a33b70c5fca6e38dbdb157bcd1", "type": "electric_scooter", "name": "30c9d3a33b70c5fca6e38dbdb157bcd1"}, {"is_disabled": 0, "is_reserved": 0, "fusion_lat": 0.0, "lat": 38.923945833333335, "fusion_lon": 0.0, "rental_uris": {"ios": "https://dc.lft.to/lastmile_qr_scan", "android": "https://dc.lft.to/lastmile_qr_scan"}, "lon": -77.03655933333333, "bike_id": "963de00f26154ffdd9f16a41a2658547", "type": "electric_scooter", "name": "963de00f26154ffdd9f16a41a2658547"}, {"is_disabled": 0, "is_reserved": 0, "fusion_lat": 0.0, "lat": 38.85787783333333, "fusion_lon": 0.0, "rental_uris": {"ios": "https://dc.lft.to/lastmile_qr_scan", "android": "https://dc.lft.to/lastmile_qr_scan"}, "lon": -76.987505, "bike_id": "3afe30ff0618a756920c803e9c9e9c27", "type": "electric_bike", "name": "3afe30ff0618a756920c803e9c9e9c27"}, {"is_disabled": 0, "is_reserved": 0, "fusion_lat": 0.0, "lat": 38.92494033333333, "fusion_lon": 0.0, "rental_uris": {"ios": "https://dc.lft.to/lastmile_qr_scan", "android": "https://dc.lft.to/lastmile_qr_scan"}, "lon": -77.04260333333333, "bike_id": "0c4ad5142e31ca4a3a5ae5a98ee1cbd3", "type": "electric_bike", "name": "0c4ad5142e31ca4a3a5ae5a98ee1cbd3"}, {"is_disabled": 0, "is_reserved": 0, "fusion_lat": 0.0, "lat": 38.8360625, "fusion_lon": 0.0, "rental_uris": {"ios": "https://dc.lft.to/lastmile_qr_scan", "android": "https://dc.lft.to/lastmile_qr_scan"}, "lon": -77.0037515, "bike_id": "da3d53673b21bd3f672dfe15f93691f1", "type": "electric_bike", "name": "da3d53673b21bd3f672dfe15f93691f1"}, {"is_disabled": 0, "is_reserved": 0, "fusion_lat": 0.0, "lat": 38.9231405, "fusion_lon": 0.0, "rental_uris": {"ios": "https://dc.lft.to/lastmile_qr_scan", "android": "https://dc.lft.to/lastmile_qr_scan"}, "lon": -77.02800183333333, "bike_id": "d93df4880c092d0c89ba74c1227fee51", "type": "electric_scooter", "name": "d93df4880c092d0c89ba74c1227fee51"}, {"is_disabled": 0, "is_reserved": 0, "fusion_lat": 0.0, "lat": 38.85841816666667, "fusion_lon": 0.0, "rental_uris": {"ios": "https://dc.lft.to/lastmile_qr_scan", "android": "https://dc.lft.to/lastmile_qr_scan"}, "lon": -76.98824516666667, "bike_id": "f2e7f94389f1570e25d95a4500e635e9", "type": "electric_scooter", "name": "f2e7f94389f1570e25d95a4500e635e9"}, {"is_disabled": 0, "is_reserved": 0, "fusion_lat": 0.0, "lat": 38.918304166666665, "fusion_lon": 0.0, "rental_uris": {"ios": "https://dc.lft.to/lastmile_qr_scan", "android": "https://dc.lft.to/lastmile_qr_scan"}, "lon": -77.04026816666666, "bike_id": "51de381eb998afe9fb70bc19956e2635", "type": "electric_scooter", "name": "51de381eb998afe9fb70bc19956e2635"}, {"is_disabled": 0, "is_reserved": 0, "fusion_lat": 0.0, "lat": 38.844746666666666, "fusion_lon": 0.0, "rental_uris": {"ios": "https://dc.lft.to/lastmile_qr_scan", "android": "https://dc.lft.to/lastmile_qr_scan"}, "lon": -76.99581833333333, "bike_id": "78f8ada5733dc9b896708101237e90e2", "type": "electric_bike", "name": "78f8ada5733dc9b896708101237e90e2"}, {"is_disabled": 0, "is_reserved": 0, "fusion_lat": 0.0, "lat": 38.876963, "fusion_lon": 0.0, "rental_uris": {"ios": "https://dc.lft.to/lastmile_qr_scan", "android": "https://dc.lft.to/lastmile_qr_scan"}, "lon": -76.996243, "bike_id": "5bd2eabe03b2b769e5aa5c8a53f0565a", "type": "electric_scooter", "name": "5bd2eabe03b2b769e5aa5c8a53f0565a"}, {"is_disabled": 0, "is_reserved": 0, "fusion_lat": 0.0, "lat": 38.922417333333335, "fusion_lon": 0.0, "rental_uris": {"ios": "https://dc.lft.to/lastmile_qr_scan", "android": "https://dc.lft.to/lastmile_qr_scan"}, "lon": -77.036595, "bike_id": "7a49d7d2db03bee429eb3623b7c9a27f", "type": "electric_scooter", "name": "7a49d7d2db03bee429eb3623b7c9a27f"}, {"is_disabled": 0, "is_reserved": 0, "fusion_lat": 0.0, "lat": 38.93863783333333, "fusion_lon": 0.0, "rental_uris": {"ios": "https://dc.lft.to/lastmile_qr_scan", "android": "https://dc.lft.to/lastmile_qr_scan"}, "lon": -77.03042816666667, "bike_id": "19ddafd3dd1e1e584150991ddb63a877", "type": "electric_scooter", "name": "19ddafd3dd1e1e584150991ddb63a877"}, {"is_disabled": 0, "is_reserved": 0, "fusion_lat": 0.0, "lat": 38.94715383333333, "fusion_lon": 0.0, "rental_uris": {"ios": "https://dc.lft.to/lastmile_qr_scan", "android": "https://dc.lft.to/lastmile_qr_scan"}, "lon": -77.02609116666666, "bike_id": "4131fd0615bd59beeba08f12cdabbace", "type": "electric_scooter", "name": "4131fd0615bd59beeba08f12cdabbace"}, {"is_disabled": 0, "is_reserved": 0, "fusion_lat": 0.0, "lat": 38.874461333333336, "fusion_lon": 0.0, "rental_uris": {"ios": "https://dc.lft.to/lastmile_qr_scan", "android": "https://dc.lft.to/lastmile_qr_scan"}, "lon": -77.00282166666666, "bike_id": "422c73728bc700d19c9f87426c96d670", "type": "electric_scooter", "name": "422c73728bc700d19c9f87426c96d670"}, {"is_disabled": 0, "is_reserved": 0, "fusion_lat": 0.0, "lat": 38.925273, "fusion_lon": 0.0, "rental_uris": {"ios": "https://dc.lft.to/lastmile_qr_scan", "android": "https://dc.lft.to/lastmile_qr_scan"}, "lon": -77.02621883333333, "bike_id": "a408ea5294b77ed78276ee0f3839c574", "type": "electric_bike", "name": "a408ea5294b77ed78276ee0f3839c574"}, {"is_disabled": 0, "is_reserved": 0, "fusion_lat": 0.0, "lat": 38.804826, "fusion_lon": 0.0, "rental_uris": {"ios": "https://dc.lft.to/lastmile_qr_scan", "android": "https://dc.lft.to/lastmile_qr_scan"}, "lon": -76.99105933333334, "bike_id": "780033f1ead781b6360a77594a7c012a", "type": "electric_bike", "name": "780033f1ead781b6360a77594a7c012a"}, {"is_disabled": 0, "is_reserved": 0, "fusion_lat": 0.0, "lat": 38.91553783333333, "fusion_lon": 0.0, "rental_uris": {"ios": "https://dc.lft.to/lastmile_qr_scan", "android": "https://dc.lft.to/lastmile_qr_scan"}, "lon": -77.0233525, "bike_id": "c623b42132ce39ca88a92facbdfab68b", "type": "electric_scooter", "name": "c623b42132ce39ca88a92facbdfab68b"}, {"is_disabled": 0, "is_reserved": 0, "fusion_lat": 0.0, "lat": 38.90984783333333, "fusion_lon": 0.0, "rental_uris": {"ios": "https://dc.lft.to/lastmile_qr_scan", "android": "https://dc.lft.to/lastmile_qr_scan"}, "lon": -76.99711116666667, "bike_id": "d174f2414b110a639f5078357cc0816d", "type": "electric_scooter", "name": "d174f2414b110a639f5078357cc0816d"}, {"is_disabled": 0, "is_reserved": 0, "fusion_lat": 0.0, "lat": 38.9306475, "fusion_lon": 0.0, "rental_uris": {"ios": "https://dc.lft.to/lastmile_qr_scan", "android": "https://dc.lft.to/lastmile_qr_scan"}, "lon": -77.0318225, "bike_id": "84c0817742829ba94e2de8ba8869aff1", "type": "electric_scooter", "name": "84c0817742829ba94e2de8ba8869aff1"}, {"is_disabled": 0, "is_reserved": 0, "fusion_lat": 0.0, "lat": 38.932066, "fusion_lon": 0.0, "rental_uris": {"ios": "https://dc.lft.to/lastmile_qr_scan", "android": "https://dc.lft.to/lastmile_qr_scan"}, "lon": -77.02281933333333, "bike_id": "c51a2db9d370a260fda49e5b7716e471", "type": "electric_scooter", "name": "c51a2db9d370a260fda49e5b7716e471"}, {"is_disabled": 0, "is_reserved": 0, "fusion_lat": 0.0, "lat": 39.000939, "fusion_lon": 0.0, "rental_uris": {"ios": "https://dc.lft.to/lastmile_qr_scan", "android": "https://dc.lft.to/lastmile_qr_scan"}, "lon": -76.90981866666667, "bike_id": "f226ad8af629b065adfcd817fbd53f5f", "type": "electric_bike", "name": "f226ad8af629b065adfcd817fbd53f5f"}, {"is_disabled": 0, "is_reserved": 0, "fusion_lat": 0.0, "lat": 38.9023585, "fusion_lon": 0.0, "rental_uris": {"ios": "https://dc.lft.to/lastmile_qr_scan", "android": "https://dc.lft.to/lastmile_qr_scan"}, "lon": -77.06066866666667, "bike_id": "4a62a27cc9d38baae07a5065c29f6bc4", "type": "electric_scooter", "name": "4a62a27cc9d38baae07a5065c29f6bc4"}, {"is_disabled": 0, "is_reserved": 0, "fusion_lat": 0.0, "lat": 38.892426, "fusion_lon": 0.0, "rental_uris": {"ios": "https://dc.lft.to/lastmile_qr_scan", "android": "https://dc.lft.to/lastmile_qr_scan"}, "lon": -77.0395765, "bike_id": "b2d2966f76abe57638be5bd0a52c0f8c", "type": "electric_scooter", "name": "b2d2966f76abe57638be5bd0a52c0f8c"}, {"is_disabled": 0, "is_reserved": 0, "fusion_lat": 0.0, "lat": 38.92678433333333, "fusion_lon": 0.0, "rental_uris": {"ios": "https://dc.lft.to/lastmile_qr_scan", "android": "https://dc.lft.to/lastmile_qr_scan"}, "lon": -77.00857583333334, "bike_id": "211181a2e0016b59795f03ce226b5fbb", "type": "electric_scooter", "name": "211181a2e0016b59795f03ce226b5fbb"}, {"is_disabled": 0, "is_reserved": 0, "fusion_lat": 0.0, "lat": 39.02621666666667, "fusion_lon": 0.0, "rental_uris": {"ios": "https://dc.lft.to/lastmile_qr_scan", "android": "https://dc.lft.to/lastmile_qr_scan"}, "lon": -77.03878383333333, "bike_id": "6de03b0615d937e5f6d181a517b8a6c3", "type": "electric_bike", "name": "6de03b0615d937e5f6d181a517b8a6c3"}, {"is_disabled": 0, "is_reserved": 0, "fusion_lat": 0.0, "lat": 38.92616433333333, "fusion_lon": 0.0, "rental_uris": {"ios": "https://dc.lft.to/lastmile_qr_scan", "android": "https://dc.lft.to/lastmile_qr_scan"}, "lon": -76.99053583333334, "bike_id": "de122fdd3c7a6dfdc4b3fcd14aa70494", "type": "electric_scooter", "name": "de122fdd3c7a6dfdc4b3fcd14aa70494"}, {"is_disabled": 0, "is_reserved": 0, "fusion_lat": 0.0, "lat": 38.858019666666664, "fusion_lon": 0.0, "rental_uris": {"ios": "https://dc.lft.to/lastmile_qr_scan", "android": "https://dc.lft.to/lastmile_qr_scan"}, "lon": -76.987551, "bike_id": "e24a2d3f03e13437c3c62b2b789abbf6", "type": "electric_bike", "name": "e24a2d3f03e13437c3c62b2b789abbf6"}, {"is_disabled": 0, "is_reserved": 0, "fusion_lat": 0.0, "lat": 38.9201775, "fusion_lon": 0.0, "rental_uris": {"ios": "https://dc.lft.to/lastmile_qr_scan", "android": "https://dc.lft.to/lastmile_qr_scan"}, "lon": -77.03156266666667, "bike_id": "45416ef5b737cb84d60d51a82acbd862", "type": "electric_scooter", "name": "45416ef5b737cb84d60d51a82acbd862"}, {"is_disabled": 0, "is_reserved": 0, "fusion_lat": 0.0, "lat": 38.88588, "fusion_lon": 0.0, "rental_uris": {"ios": "https://dc.lft.to/lastmile_qr_scan", "android": "https://dc.lft.to/lastmile_qr_scan"}, "lon": -77.01994616666667, "bike_id": "079679832234936c4ecc00406bccc34f", "type": "electric_scooter", "name": "079679832234936c4ecc00406bccc34f"}, {"is_disabled": 0, "is_reserved": 0, "fusion_lat": 0.0, "lat": 38.945862, "fusion_lon": 0.0, "rental_uris": {"ios": "https://dc.lft.to/lastmile_qr_scan", "android": "https://dc.lft.to/lastmile_qr_scan"}, "lon": -77.02028366666667, "bike_id": "a0a4134caba3554673ab7e8fcaf054df", "type": "electric_scooter", "name": "a0a4134caba3554673ab7e8fcaf054df"}, {"is_disabled": 0, "is_reserved": 0, "fusion_lat": 0.0, "lat": 38.923765333333336, "fusion_lon": 0.0, "rental_uris": {"ios": "https://dc.lft.to/lastmile_qr_scan", "android": "https://dc.lft.to/lastmile_qr_scan"}, "lon": -77.04017533333334, "bike_id": "8d7e447b34993bf79c633c6af580816f", "type": "electric_scooter", "name": "8d7e447b34993bf79c633c6af580816f"}, {"is_disabled": 0, "is_reserved": 0, "fusion_lat": 0.0, "lat": 38.842781333333335, "fusion_lon": 0.0, "rental_uris": {"ios": "https://dc.lft.to/lastmile_qr_scan", "android": "https://dc.lft.to/lastmile_qr_scan"}, "lon": -76.98839716666667, "bike_id": "933adc4e511ff21fe17f0675f93f4c30", "type": "electric_bike", "name": "933adc4e511ff21fe17f0675f93f4c30"}, {"is_disabled": 0, "is_reserved": 0, "fusion_lat": 0.0, "lat": 38.91047716666667, "fusion_lon": 0.0, "rental_uris": {"ios": "https://dc.lft.to/lastmile_qr_scan", "android": "https://dc.lft.to/lastmile_qr_scan"}, "lon": -77.01512716666667, "bike_id": "b6a4efffa751fa3aa82ed5d39d87ea94", "type": "electric_scooter", "name": "b6a4efffa751fa3aa82ed5d39d87ea94"}, {"is_disabled": 0, "is_reserved": 0, "fusion_lat": 0.0, "lat": 38.90635966666667, "fusion_lon": 0.0, "rental_uris": {"ios": "https://dc.lft.to/lastmile_qr_scan", "android": "https://dc.lft.to/lastmile_qr_scan"}, "lon": -77.04548533333333, "bike_id": "147fb98703d9334b41babb9ed4b161b0", "type": "electric_scooter", "name": "147fb98703d9334b41babb9ed4b161b0"}, {"is_disabled": 0, "is_reserved": 0, "fusion_lat": 0.0, "lat": 38.93427033333333, "fusion_lon": 0.0, "rental_uris": {"ios": "https://dc.lft.to/lastmile_qr_scan", "android": "https://dc.lft.to/lastmile_qr_scan"}, "lon": -77.04310716666667, "bike_id": "0dfbee9c3f16ac011dd917d24401ba3c", "type": "electric_scooter", "name": "0dfbee9c3f16ac011dd917d24401ba3c"}, {"is_disabled": 0, "is_reserved": 0, "fusion_lat": 0.0, "lat": 38.80675133333333, "fusion_lon": 0.0, "rental_uris": {"ios": "https://dc.lft.to/lastmile_qr_scan", "android": "https://dc.lft.to/lastmile_qr_scan"}, "lon": -77.06914883333333, "bike_id": "a63c1eb89fe37e70c3d042290b4e54bb", "type": "electric_bike", "name": "a63c1eb89fe37e70c3d042290b4e54bb"}, {"is_disabled": 0, "is_reserved": 0, "fusion_lat": 0.0, "lat": 38.94632633333333, "fusion_lon": 0.0, "rental_uris": {"ios": "https://dc.lft.to/lastmile_qr_scan", "android": "https://dc.lft.to/lastmile_qr_scan"}, "lon": -77.018433, "bike_id": "56974dd492a67b44a82fe82247ab02e7", "type": "electric_scooter", "name": "56974dd492a67b44a82fe82247ab02e7"}, {"is_disabled": 0, "is_reserved": 0, "fusion_lat": 0.0, "lat": 38.917665, "fusion_lon": 0.0, "rental_uris": {"ios": "https://dc.lft.to/lastmile_qr_scan", "android": "https://dc.lft.to/lastmile_qr_scan"}, "lon": -77.02342133333333, "bike_id": "242f72040b9de38a29e437cd09c62220", "type": "electric_scooter", "name": "242f72040b9de38a29e437cd09c62220"}, {"is_disabled": 0, "is_reserved": 0, "fusion_lat": 0.0, "lat": 38.90291466666667, "fusion_lon": 0.0, "rental_uris": {"ios": "https://dc.lft.to/lastmile_qr_scan", "android": "https://dc.lft.to/lastmile_qr_scan"}, "lon": -77.01208583333333, "bike_id": "56501312e509b14d6cada4aa5b4e3b51", "type": "electric_scooter", "name": "56501312e509b14d6cada4aa5b4e3b51"}, {"is_disabled": 0, "is_reserved": 0, "fusion_lat": 0.0, "lat": 38.92199033333333, "fusion_lon": 0.0, "rental_uris": {"ios": "https://dc.lft.to/lastmile_qr_scan", "android": "https://dc.lft.to/lastmile_qr_scan"}, "lon": -77.0183335, "bike_id": "ba011db6a1b35a43efd854c696ad57c3", "type": "electric_scooter", "name": "ba011db6a1b35a43efd854c696ad57c3"}, {"is_disabled": 0, "is_reserved": 0, "fusion_lat": 0.0, "lat": 38.939765333333334, "fusion_lon": 0.0, "rental_uris": {"ios": "https://dc.lft.to/lastmile_qr_scan", "android": "https://dc.lft.to/lastmile_qr_scan"}, "lon": -77.02892516666667, "bike_id": "8d78a30b0e0ffc055e66e482acdc7475", "type": "electric_scooter", "name": "8d78a30b0e0ffc055e66e482acdc7475"}, {"is_disabled": 0, "is_reserved": 0, "fusion_lat": 0.0, "lat": 38.89230416666667, "fusion_lon": 0.0, "rental_uris": {"ios": "https://dc.lft.to/lastmile_qr_scan", "android": "https://dc.lft.to/lastmile_qr_scan"}, "lon": -77.0464955, "bike_id": "cda46001cf38fe47781c56698ea4c822", "type": "electric_scooter", "name": "cda46001cf38fe47781c56698ea4c822"}, {"is_disabled": 0, "is_reserved": 0, "fusion_lat": 0.0, "lat": 38.904522166666666, "fusion_lon": 0.0, "rental_uris": {"ios": "https://dc.lft.to/lastmile_qr_scan", "android": "https://dc.lft.to/lastmile_qr_scan"}, "lon": -76.93275366666667, "bike_id": "fbbef67d5efcf26efc4c050949deddcf", "type": "electric_scooter", "name": "fbbef67d5efcf26efc4c050949deddcf"}, {"is_disabled": 0, "is_reserved": 0, "fusion_lat": 0.0, "lat": 38.9235695, "fusion_lon": 0.0, "rental_uris": {"ios": "https://dc.lft.to/lastmile_qr_scan", "android": "https://dc.lft.to/lastmile_qr_scan"}, "lon": -77.03318933333334, "bike_id": "0cfa3e69166f1408baa4e24453ada45c", "type": "electric_scooter", "name": "0cfa3e69166f1408baa4e24453ada45c"}, {"is_disabled": 0, "is_reserved": 0, "fusion_lat": 0.0, "lat": 38.92080283333333, "fusion_lon": 0.0, "rental_uris": {"ios": "https://dc.lft.to/lastmile_qr_scan", "android": "https://dc.lft.to/lastmile_qr_scan"}, "lon": -77.01747133333333, "bike_id": "9ae86d0599e507e999dcbf414bf8c096", "type": "electric_scooter", "name": "9ae86d0599e507e999dcbf414bf8c096"}, {"is_disabled": 0, "is_reserved": 0, "fusion_lat": 0.0, "lat": 38.8710035, "fusion_lon": 0.0, "rental_uris": {"ios": "https://dc.lft.to/lastmile_qr_scan", "android": "https://dc.lft.to/lastmile_qr_scan"}, "lon": -77.01210516666667, "bike_id": "982be9c6ef6c4613a415d8c1662ab1b2", "type": "electric_scooter", "name": "982be9c6ef6c4613a415d8c1662ab1b2"}, {"is_disabled": 0, "is_reserved": 0, "fusion_lat": 0.0, "lat": 38.88474466666667, "fusion_lon": 0.0, "rental_uris": {"ios": "https://dc.lft.to/lastmile_qr_scan", "android": "https://dc.lft.to/lastmile_qr_scan"}, "lon": -77.023625, "bike_id": "2fd32d055e14affd33ed4318d55820ac", "type": "electric_scooter", "name": "2fd32d055e14affd33ed4318d55820ac"}, {"is_disabled": 0, "is_reserved": 0, "fusion_lat": 0.0, "lat": 38.94852866666667, "fusion_lon": 0.0, "rental_uris": {"ios": "https://dc.lft.to/lastmile_qr_scan", "android": "https://dc.lft.to/lastmile_qr_scan"}, "lon": -77.02110883333333, "bike_id": "dbb87529a4abdc4cebc8351ea704821b", "type": "electric_scooter", "name": "dbb87529a4abdc4cebc8351ea704821b"}, {"is_disabled": 0, "is_reserved": 0, "fusion_lat": 0.0, "lat": 38.930219666666666, "fusion_lon": 0.0, "rental_uris": {"ios": "https://dc.lft.to/lastmile_qr_scan", "android": "https://dc.lft.to/lastmile_qr_scan"}, "lon": -77.03802033333334, "bike_id": "4c28ad370548094935180cd20696c687", "type": "electric_scooter", "name": "4c28ad370548094935180cd20696c687"}, {"is_disabled": 0, "is_reserved": 0, "fusion_lat": 0.0, "lat": 38.92212766666667, "fusion_lon": 0.0, "rental_uris": {"ios": "https://dc.lft.to/lastmile_qr_scan", "android": "https://dc.lft.to/lastmile_qr_scan"}, "lon": -77.03293783333334, "bike_id": "d1beb73b8fa1024ab955966d2b149de1", "type": "electric_scooter", "name": "d1beb73b8fa1024ab955966d2b149de1"}, {"is_disabled": 0, "is_reserved": 0, "fusion_lat": 0.0, "lat": 38.9046875, "fusion_lon": 0.0, "rental_uris": {"ios": "https://dc.lft.to/lastmile_qr_scan", "android": "https://dc.lft.to/lastmile_qr_scan"}, "lon": -76.95058366666666, "bike_id": "c3ddc1cbee51113b8bc9edd3cc35d427", "type": "electric_scooter", "name": "c3ddc1cbee51113b8bc9edd3cc35d427"}, {"is_disabled": 0, "is_reserved": 0, "fusion_lat": 0.0, "lat": 38.897036, "fusion_lon": 0.0, "rental_uris": {"ios": "https://dc.lft.to/lastmile_qr_scan", "android": "https://dc.lft.to/lastmile_qr_scan"}, "lon": -77.048773, "bike_id": "e6c397c878c2e2b89b156f1c64e7b986", "type": "electric_scooter", "name": "e6c397c878c2e2b89b156f1c64e7b986"}, {"is_disabled": 0, "is_reserved": 0, "fusion_lat": 0.0, "lat": 38.855253166666664, "fusion_lon": 0.0, "rental_uris": {"ios": "https://dc.lft.to/lastmile_qr_scan", "android": "https://dc.lft.to/lastmile_qr_scan"}, "lon": -76.99150966666667, "bike_id": "fcd77dba108e829732b84a96d878d37b", "type": "electric_scooter", "name": "fcd77dba108e829732b84a96d878d37b"}, {"is_disabled": 0, "is_reserved": 0, "fusion_lat": 0.0, "lat": 38.924263833333335, "fusion_lon": 0.0, "rental_uris": {"ios": "https://dc.lft.to/lastmile_qr_scan", "android": "https://dc.lft.to/lastmile_qr_scan"}, "lon": -77.02974216666667, "bike_id": "eb90bb19a6d8ea80bbdf31a8d2c198d1", "type": "electric_scooter", "name": "eb90bb19a6d8ea80bbdf31a8d2c198d1"}, {"is_disabled": 0, "is_reserved": 0, "fusion_lat": 0.0, "lat": 38.9134845, "fusion_lon": 0.0, "rental_uris": {"ios": "https://dc.lft.to/lastmile_qr_scan", "android": "https://dc.lft.to/lastmile_qr_scan"}, "lon": -76.9713725, "bike_id": "651c6a55f45869d627505e1335641306", "type": "electric_scooter", "name": "651c6a55f45869d627505e1335641306"}, {"is_disabled": 0, "is_reserved": 0, "fusion_lat": 0.0, "lat": 38.92499983333333, "fusion_lon": 0.0, "rental_uris": {"ios": "https://dc.lft.to/lastmile_qr_scan", "android": "https://dc.lft.to/lastmile_qr_scan"}, "lon": -77.0235785, "bike_id": "dd11cb549e61a6979187e9b2a9b6cd7c", "type": "electric_scooter", "name": "dd11cb549e61a6979187e9b2a9b6cd7c"}, {"is_disabled": 0, "is_reserved": 0, "fusion_lat": 0.0, "lat": 38.89941183333333, "fusion_lon": 0.0, "rental_uris": {"ios": "https://dc.lft.to/lastmile_qr_scan", "android": "https://dc.lft.to/lastmile_qr_scan"}, "lon": -77.014974, "bike_id": "14b9ebeaa77069fe226df8f48d08c87c", "type": "electric_scooter", "name": "14b9ebeaa77069fe226df8f48d08c87c"}, {"is_disabled": 0, "is_reserved": 0, "fusion_lat": 0.0, "lat": 38.899804, "fusion_lon": 0.0, "rental_uris": {"ios": "https://dc.lft.to/lastmile_qr_scan", "android": "https://dc.lft.to/lastmile_qr_scan"}, "lon": -77.00683066666667, "bike_id": "29273a3951587cd8a286c5d60934c713", "type": "electric_scooter", "name": "29273a3951587cd8a286c5d60934c713"}, {"is_disabled": 0, "is_reserved": 0, "fusion_lat": 0.0, "lat": 38.93249616666667, "fusion_lon": 0.0, "rental_uris": {"ios": "https://dc.lft.to/lastmile_qr_scan", "android": "https://dc.lft.to/lastmile_qr_scan"}, "lon": -77.02933083333333, "bike_id": "263ff35f8b213ac69b065662aeb3b4fc", "type": "electric_scooter", "name": "263ff35f8b213ac69b065662aeb3b4fc"}, {"is_disabled": 0, "is_reserved": 0, "fusion_lat": 0.0, "lat": 38.909183166666665, "fusion_lon": 0.0, "rental_uris": {"ios": "https://dc.lft.to/lastmile_qr_scan", "android": "https://dc.lft.to/lastmile_qr_scan"}, "lon": -77.04942883333334, "bike_id": "6256b24ae361ee75fcdc5aa2ca05f290", "type": "electric_scooter", "name": "6256b24ae361ee75fcdc5aa2ca05f290"}, {"is_disabled": 0, "is_reserved": 0, "fusion_lat": 0.0, "lat": 38.9298255, "fusion_lon": 0.0, "rental_uris": {"ios": "https://dc.lft.to/lastmile_qr_scan", "android": "https://dc.lft.to/lastmile_qr_scan"}, "lon": -77.03889916666667, "bike_id": "a54c9c546b2b6233f881bc9e4360804b", "type": "electric_scooter", "name": "a54c9c546b2b6233f881bc9e4360804b"}, {"is_disabled": 0, "is_reserved": 0, "fusion_lat": 0.0, "lat": 38.910278, "fusion_lon": 0.0, "rental_uris": {"ios": "https://dc.lft.to/lastmile_qr_scan", "android": "https://dc.lft.to/lastmile_qr_scan"}, "lon": -76.92333316666667, "bike_id": "d60211c9a1bf60b64b136d47c62dad33", "type": "electric_bike", "name": "d60211c9a1bf60b64b136d47c62dad33"}, {"is_disabled": 0, "is_reserved": 0, "fusion_lat": 0.0, "lat": 38.933445666666664, "fusion_lon": 0.0, "rental_uris": {"ios": "https://dc.lft.to/lastmile_qr_scan", "android": "https://dc.lft.to/lastmile_qr_scan"}, "lon": -77.06037833333333, "bike_id": "3ff9b1f12363ef72e5404ad646b58629", "type": "electric_scooter", "name": "3ff9b1f12363ef72e5404ad646b58629"}, {"is_disabled": 0, "is_reserved": 0, "fusion_lat": 0.0, "lat": 38.956298333333336, "fusion_lon": 0.0, "rental_uris": {"ios": "https://dc.lft.to/lastmile_qr_scan", "android": "https://dc.lft.to/lastmile_qr_scan"}, "lon": -77.02209166666667, "bike_id": "a59b1ecd706362107d1a30323a8f69b0", "type": "electric_scooter", "name": "a59b1ecd706362107d1a30323a8f69b0"}, {"is_disabled": 0, "is_reserved": 0, "fusion_lat": 0.0, "lat": 38.9514975, "fusion_lon": 0.0, "rental_uris": {"ios": "https://dc.lft.to/lastmile_qr_scan", "android": "https://dc.lft.to/lastmile_qr_scan"}, "lon": -77.01865583333333, "bike_id": "049a5dc95b4e8ad2edccf5206c97f347", "type": "electric_scooter", "name": "049a5dc95b4e8ad2edccf5206c97f347"}, {"is_disabled": 0, "is_reserved": 0, "fusion_lat": 0.0, "lat": 38.923625333333334, "fusion_lon": 0.0, "rental_uris": {"ios": "https://dc.lft.to/lastmile_qr_scan", "android": "https://dc.lft.to/lastmile_qr_scan"}, "lon": -77.05241516666666, "bike_id": "00477b22b1917d23d801edab55ed0c58", "type": "electric_scooter", "name": "00477b22b1917d23d801edab55ed0c58"}, {"is_disabled": 0, "is_reserved": 0, "fusion_lat": 0.0, "lat": 38.92071633333333, "fusion_lon": 0.0, "rental_uris": {"ios": "https://dc.lft.to/lastmile_qr_scan", "android": "https://dc.lft.to/lastmile_qr_scan"}, "lon": -77.02432633333333, "bike_id": "2c3144dad892ed7fae7f926fed2c0595", "type": "electric_scooter", "name": "2c3144dad892ed7fae7f926fed2c0595"}, {"is_disabled": 0, "is_reserved": 0, "fusion_lat": 0.0, "lat": 38.899011333333334, "fusion_lon": 0.0, "rental_uris": {"ios": "https://dc.lft.to/lastmile_qr_scan", "android": "https://dc.lft.to/lastmile_qr_scan"}, "lon": -77.04992266666666, "bike_id": "6c31ec6de986b67d038b6a582d06b990", "type": "electric_scooter", "name": "6c31ec6de986b67d038b6a582d06b990"}, {"is_disabled": 0, "is_reserved": 0, "fusion_lat": 0.0, "lat": 38.918175833333336, "fusion_lon": 0.0, "rental_uris": {"ios": "https://dc.lft.to/lastmile_qr_scan", "android": "https://dc.lft.to/lastmile_qr_scan"}, "lon": -77.01207533333333, "bike_id": "a12d8ace43bbc864c844943f7009cf54", "type": "electric_scooter", "name": "a12d8ace43bbc864c844943f7009cf54"}, {"is_disabled": 0, "is_reserved": 0, "fusion_lat": 0.0, "lat": 38.93075783333333, "fusion_lon": 0.0, "rental_uris": {"ios": "https://dc.lft.to/lastmile_qr_scan", "android": "https://dc.lft.to/lastmile_qr_scan"}, "lon": -77.019911, "bike_id": "7671bd4a39790ba22edd70fc619edc5c", "type": "electric_scooter", "name": "7671bd4a39790ba22edd70fc619edc5c"}, {"is_disabled": 0, "is_reserved": 0, "fusion_lat": 0.0, "lat": 38.82766133333333, "fusion_lon": 0.0, "rental_uris": {"ios": "https://dc.lft.to/lastmile_qr_scan", "android": "https://dc.lft.to/lastmile_qr_scan"}, "lon": -77.0601485, "bike_id": "3303c330f7cc2048ef3270aa9caf25f6", "type": "electric_bike", "name": "3303c330f7cc2048ef3270aa9caf25f6"}, {"is_disabled": 0, "is_reserved": 0, "fusion_lat": 0.0, "lat": 38.876556666666666, "fusion_lon": 0.0, "rental_uris": {"ios": "https://dc.lft.to/lastmile_qr_scan", "android": "https://dc.lft.to/lastmile_qr_scan"}, "lon": -77.01579833333334, "bike_id": "cef1d3c2efdbacad3a9979406c1fa851", "type": "electric_scooter", "name": "cef1d3c2efdbacad3a9979406c1fa851"}, {"is_disabled": 0, "is_reserved": 0, "fusion_lat": 0.0, "lat": 38.912647166666666, "fusion_lon": 0.0, "rental_uris": {"ios": "https://dc.lft.to/lastmile_qr_scan", "android": "https://dc.lft.to/lastmile_qr_scan"}, "lon": -77.04715333333333, "bike_id": "9ae96f4863ed2e27923b3a1d132f4b29", "type": "electric_scooter", "name": "9ae96f4863ed2e27923b3a1d132f4b29"}, {"is_disabled": 0, "is_reserved": 0, "fusion_lat": 0.0, "lat": 38.868874, "fusion_lon": 0.0, "rental_uris": {"ios": "https://dc.lft.to/lastmile_qr_scan", "android": "https://dc.lft.to/lastmile_qr_scan"}, "lon": -76.9899835, "bike_id": "e75ae8fbdbc1767fb292a1859d3d32d6", "type": "electric_scooter", "name": "e75ae8fbdbc1767fb292a1859d3d32d6"}, {"is_disabled": 0, "is_reserved": 0, "fusion_lat": 0.0, "lat": 38.89606233333333, "fusion_lon": 0.0, "rental_uris": {"ios": "https://dc.lft.to/lastmile_qr_scan", "android": "https://dc.lft.to/lastmile_qr_scan"}, "lon": -76.98310783333334, "bike_id": "75dc6a051d85e3075c78a7e5a1cbefe2", "type": "electric_scooter", "name": "75dc6a051d85e3075c78a7e5a1cbefe2"}, {"is_disabled": 0, "is_reserved": 0, "fusion_lat": 0.0, "lat": 38.900798333333334, "fusion_lon": 0.0, "rental_uris": {"ios": "https://dc.lft.to/lastmile_qr_scan", "android": "https://dc.lft.to/lastmile_qr_scan"}, "lon": -77.05042416666667, "bike_id": "1251699dc433984f50bb69f895cc7ca1", "type": "electric_scooter", "name": "1251699dc433984f50bb69f895cc7ca1"}, {"is_disabled": 0, "is_reserved": 0, "fusion_lat": 0.0, "lat": 38.91728583333333, "fusion_lon": 0.0, "rental_uris": {"ios": "https://dc.lft.to/lastmile_qr_scan", "android": "https://dc.lft.to/lastmile_qr_scan"}, "lon": -77.02612383333333, "bike_id": "3b6c98990c9282fc935c0c6542c1c430", "type": "electric_scooter", "name": "3b6c98990c9282fc935c0c6542c1c430"}, {"is_disabled": 0, "is_reserved": 0, "fusion_lat": 0.0, "lat": 38.92311816666667, "fusion_lon": 0.0, "rental_uris": {"ios": "https://dc.lft.to/lastmile_qr_scan", "android": "https://dc.lft.to/lastmile_qr_scan"}, "lon": -77.038016, "bike_id": "6600e74837567517106144428e9c6156", "type": "electric_scooter", "name": "6600e74837567517106144428e9c6156"}, {"is_disabled": 0, "is_reserved": 0, "fusion_lat": 0.0, "lat": 38.911061, "fusion_lon": 0.0, "rental_uris": {"ios": "https://dc.lft.to/lastmile_qr_scan", "android": "https://dc.lft.to/lastmile_qr_scan"}, "lon": -77.01156516666667, "bike_id": "5455d9e9b48a7457eb72a7a7fe816064", "type": "electric_scooter", "name": "5455d9e9b48a7457eb72a7a7fe816064"}, {"is_disabled": 0, "is_reserved": 0, "fusion_lat": 0.0, "lat": 38.9289245, "fusion_lon": 0.0, "rental_uris": {"ios": "https://dc.lft.to/lastmile_qr_scan", "android": "https://dc.lft.to/lastmile_qr_scan"}, "lon": -77.0228895, "bike_id": "bdd602e0e65445dcc0bae3f4d121ad7c", "type": "electric_scooter", "name": "bdd602e0e65445dcc0bae3f4d121ad7c"}, {"is_disabled": 0, "is_reserved": 0, "fusion_lat": 0.0, "lat": 38.91535666666667, "fusion_lon": 0.0, "rental_uris": {"ios": "https://dc.lft.to/lastmile_qr_scan", "android": "https://dc.lft.to/lastmile_qr_scan"}, "lon": -77.00919133333333, "bike_id": "562b4733013debd797b84458ecade5c4", "type": "electric_scooter", "name": "562b4733013debd797b84458ecade5c4"}, {"is_disabled": 0, "is_reserved": 0, "fusion_lat": 0.0, "lat": 38.928163166666664, "fusion_lon": 0.0, "rental_uris": {"ios": "https://dc.lft.to/lastmile_qr_scan", "android": "https://dc.lft.to/lastmile_qr_scan"}, "lon": -77.01393616666667, "bike_id": "627171025e3bbbdc0b1b8b70f2b4534d", "type": "electric_scooter", "name": "627171025e3bbbdc0b1b8b70f2b4534d"}, {"is_disabled": 0, "is_reserved": 0, "fusion_lat": 0.0, "lat": 38.8924595, "fusion_lon": 0.0, "rental_uris": {"ios": "https://dc.lft.to/lastmile_qr_scan", "android": "https://dc.lft.to/lastmile_qr_scan"}, "lon": -77.03954016666667, "bike_id": "cb759784288ee37e00587a7e9aa858e9", "type": "electric_scooter", "name": "cb759784288ee37e00587a7e9aa858e9"}, {"is_disabled": 0, "is_reserved": 0, "fusion_lat": 0.0, "lat": 38.914730166666665, "fusion_lon": 0.0, "rental_uris": {"ios": "https://dc.lft.to/lastmile_qr_scan", "android": "https://dc.lft.to/lastmile_qr_scan"}, "lon": -77.00199216666667, "bike_id": "8aa31dc0216966e86ea02346cc003a72", "type": "electric_scooter", "name": "8aa31dc0216966e86ea02346cc003a72"}, {"is_disabled": 0, "is_reserved": 0, "fusion_lat": 0.0, "lat": 38.896095833333334, "fusion_lon": 0.0, "rental_uris": {"ios": "https://dc.lft.to/lastmile_qr_scan", "android": "https://dc.lft.to/lastmile_qr_scan"}, "lon": -76.99800766666667, "bike_id": "693ccc2c51becbbdca7fe027f61c5135", "type": "electric_scooter", "name": "693ccc2c51becbbdca7fe027f61c5135"}, {"is_disabled": 0, "is_reserved": 0, "fusion_lat": 0.0, "lat": 38.8051835, "fusion_lon": 0.0, "rental_uris": {"ios": "https://dc.lft.to/lastmile_qr_scan", "android": "https://dc.lft.to/lastmile_qr_scan"}, "lon": -77.043358, "bike_id": "d27837961e360bd5f9ae3332c11baa9a", "type": "electric_bike", "name": "d27837961e360bd5f9ae3332c11baa9a"}, {"is_disabled": 0, "is_reserved": 0, "fusion_lat": 0.0, "lat": 38.965525166666666, "fusion_lon": 0.0, "rental_uris": {"ios": "https://dc.lft.to/lastmile_qr_scan", "android": "https://dc.lft.to/lastmile_qr_scan"}, "lon": -77.01621533333334, "bike_id": "2bd1189ac16047bababa7f69a61849c7", "type": "electric_bike", "name": "2bd1189ac16047bababa7f69a61849c7"}, {"is_disabled": 0, "is_reserved": 0, "fusion_lat": 0.0, "lat": 38.878557, "fusion_lon": 0.0, "rental_uris": {"ios": "https://dc.lft.to/lastmile_qr_scan", "android": "https://dc.lft.to/lastmile_qr_scan"}, "lon": -77.0055855, "bike_id": "3775f9e73fca8af5f86a5b02a346f747", "type": "electric_scooter", "name": "3775f9e73fca8af5f86a5b02a346f747"}, {"is_disabled": 0, "is_reserved": 0, "fusion_lat": 0.0, "lat": 38.908423166666665, "fusion_lon": 0.0, "rental_uris": {"ios": "https://dc.lft.to/lastmile_qr_scan", "android": "https://dc.lft.to/lastmile_qr_scan"}, "lon": -76.93445866666667, "bike_id": "ba496026cbfbab7b55feab2f34be4433", "type": "electric_scooter", "name": "ba496026cbfbab7b55feab2f34be4433"}, {"is_disabled": 0, "is_reserved": 0, "fusion_lat": 0.0, "lat": 38.967998333333334, "fusion_lon": 0.0, "rental_uris": {"ios": "https://dc.lft.to/lastmile_qr_scan", "android": "https://dc.lft.to/lastmile_qr_scan"}, "lon": -77.024302, "bike_id": "df25eeaceb54f257a34f8c5c5abfb162", "type": "electric_scooter", "name": "df25eeaceb54f257a34f8c5c5abfb162"}, {"is_disabled": 0, "is_reserved": 0, "fusion_lat": 0.0, "lat": 38.9015325, "fusion_lon": 0.0, "rental_uris": {"ios": "https://dc.lft.to/lastmile_qr_scan", "android": "https://dc.lft.to/lastmile_qr_scan"}, "lon": -77.02486133333333, "bike_id": "98bd9bde3d868feec1f85daee4eb74f6", "type": "electric_scooter", "name": "98bd9bde3d868feec1f85daee4eb74f6"}, {"is_disabled": 0, "is_reserved": 0, "fusion_lat": 0.0, "lat": 38.94493933333333, "fusion_lon": 0.0, "rental_uris": {"ios": "https://dc.lft.to/lastmile_qr_scan", "android": "https://dc.lft.to/lastmile_qr_scan"}, "lon": -77.00739616666667, "bike_id": "a6293634b365469bd1a2a09ad23e0814", "type": "electric_bike", "name": "a6293634b365469bd1a2a09ad23e0814"}, {"is_disabled": 0, "is_reserved": 0, "fusion_lat": 0.0, "lat": 38.90854566666667, "fusion_lon": 0.0, "rental_uris": {"ios": "https://dc.lft.to/lastmile_qr_scan", "android": "https://dc.lft.to/lastmile_qr_scan"}, "lon": -77.00403933333334, "bike_id": "beb60c4796434a38a63c87982b818df3", "type": "electric_scooter", "name": "beb60c4796434a38a63c87982b818df3"}, {"is_disabled": 0, "is_reserved": 0, "fusion_lat": 0.0, "lat": 38.90428583333333, "fusion_lon": 0.0, "rental_uris": {"ios": "https://dc.lft.to/lastmile_qr_scan", "android": "https://dc.lft.to/lastmile_qr_scan"}, "lon": -77.03097466666667, "bike_id": "7d6d18e5df8f4828d883b407065da775", "type": "electric_scooter", "name": "7d6d18e5df8f4828d883b407065da775"}, {"is_disabled": 0, "is_reserved": 0, "fusion_lat": 0.0, "lat": 38.90505433333333, "fusion_lon": 0.0, "rental_uris": {"ios": "https://dc.lft.to/lastmile_qr_scan", "android": "https://dc.lft.to/lastmile_qr_scan"}, "lon": -77.00698633333333, "bike_id": "688593095261ce09ffaf2d99a5c8a8f0", "type": "electric_scooter", "name": "688593095261ce09ffaf2d99a5c8a8f0"}, {"is_disabled": 0, "is_reserved": 0, "fusion_lat": 0.0, "lat": 38.917557, "fusion_lon": 0.0, "rental_uris": {"ios": "https://dc.lft.to/lastmile_qr_scan", "android": "https://dc.lft.to/lastmile_qr_scan"}, "lon": -77.04762433333333, "bike_id": "bd38c1fd36fb912e4216da4af15361be", "type": "electric_scooter", "name": "bd38c1fd36fb912e4216da4af15361be"}, {"is_disabled": 0, "is_reserved": 0, "fusion_lat": 0.0, "lat": 38.92211116666667, "fusion_lon": 0.0, "rental_uris": {"ios": "https://dc.lft.to/lastmile_qr_scan", "android": "https://dc.lft.to/lastmile_qr_scan"}, "lon": -77.07433883333333, "bike_id": "5b295fb4831a649fa4b2c922260bb6af", "type": "electric_scooter", "name": "5b295fb4831a649fa4b2c922260bb6af"}, {"is_disabled": 0, "is_reserved": 0, "fusion_lat": 0.0, "lat": 38.90588983333333, "fusion_lon": 0.0, "rental_uris": {"ios": "https://dc.lft.to/lastmile_qr_scan", "android": "https://dc.lft.to/lastmile_qr_scan"}, "lon": -77.0161545, "bike_id": "486fd278d029a73d987d8811d97eaaf7", "type": "electric_scooter", "name": "486fd278d029a73d987d8811d97eaaf7"}, {"is_disabled": 0, "is_reserved": 0, "fusion_lat": 0.0, "lat": 38.884191, "fusion_lon": 0.0, "rental_uris": {"ios": "https://dc.lft.to/lastmile_qr_scan", "android": "https://dc.lft.to/lastmile_qr_scan"}, "lon": -77.025276, "bike_id": "916d67e6e4e7d3ce2eba7053480c5400", "type": "electric_scooter", "name": "916d67e6e4e7d3ce2eba7053480c5400"}, {"is_disabled": 0, "is_reserved": 0, "fusion_lat": 0.0, "lat": 38.921321666666664, "fusion_lon": 0.0, "rental_uris": {"ios": "https://dc.lft.to/lastmile_qr_scan", "android": "https://dc.lft.to/lastmile_qr_scan"}, "lon": -77.04564416666666, "bike_id": "15409d4f4337fd504c853649bd28b33f", "type": "electric_scooter", "name": "15409d4f4337fd504c853649bd28b33f"}, {"is_disabled": 0, "is_reserved": 0, "fusion_lat": 0.0, "lat": 38.967958, "fusion_lon": 0.0, "rental_uris": {"ios": "https://dc.lft.to/lastmile_qr_scan", "android": "https://dc.lft.to/lastmile_qr_scan"}, "lon": -77.02559983333333, "bike_id": "fe7f769d5ea31d4d267b6c863b1866e0", "type": "electric_scooter", "name": "fe7f769d5ea31d4d267b6c863b1866e0"}, {"is_disabled": 0, "is_reserved": 0, "fusion_lat": 0.0, "lat": 38.905063, "fusion_lon": 0.0, "rental_uris": {"ios": "https://dc.lft.to/lastmile_qr_scan", "android": "https://dc.lft.to/lastmile_qr_scan"}, "lon": -77.04824166666667, "bike_id": "42f385d5cef50c57ca25bcacf1d7a445", "type": "electric_scooter", "name": "42f385d5cef50c57ca25bcacf1d7a445"}, {"is_disabled": 0, "is_reserved": 0, "fusion_lat": 0.0, "lat": 38.90374333333333, "fusion_lon": 0.0, "rental_uris": {"ios": "https://dc.lft.to/lastmile_qr_scan", "android": "https://dc.lft.to/lastmile_qr_scan"}, "lon": -77.01635266666666, "bike_id": "bd064e2bfe7b9128ccdae5fcd4c471e1", "type": "electric_scooter", "name": "bd064e2bfe7b9128ccdae5fcd4c471e1"}, {"is_disabled": 0, "is_reserved": 0, "fusion_lat": 0.0, "lat": 38.914073, "fusion_lon": 0.0, "rental_uris": {"ios": "https://dc.lft.to/lastmile_qr_scan", "android": "https://dc.lft.to/lastmile_qr_scan"}, "lon": -77.0107085, "bike_id": "a6406295d360c3c27d12040e2254d0e9", "type": "electric_scooter", "name": "a6406295d360c3c27d12040e2254d0e9"}, {"is_disabled": 0, "is_reserved": 0, "fusion_lat": 0.0, "lat": 38.907151666666664, "fusion_lon": 0.0, "rental_uris": {"ios": "https://dc.lft.to/lastmile_qr_scan", "android": "https://dc.lft.to/lastmile_qr_scan"}, "lon": -77.035, "bike_id": "757dff6145c9bda0f709973a100f8ade", "type": "electric_scooter", "name": "757dff6145c9bda0f709973a100f8ade"}, {"is_disabled": 0, "is_reserved": 0, "fusion_lat": 0.0, "lat": 38.9147465, "fusion_lon": 0.0, "rental_uris": {"ios": "https://dc.lft.to/lastmile_qr_scan", "android": "https://dc.lft.to/lastmile_qr_scan"}, "lon": -77.00194583333334, "bike_id": "a341c86ab46ea460ed5ec49db16d2de1", "type": "electric_scooter", "name": "a341c86ab46ea460ed5ec49db16d2de1"}, {"is_disabled": 0, "is_reserved": 0, "fusion_lat": 0.0, "lat": 38.92797683333333, "fusion_lon": 0.0, "rental_uris": {"ios": "https://dc.lft.to/lastmile_qr_scan", "android": "https://dc.lft.to/lastmile_qr_scan"}, "lon": -76.97606683333333, "bike_id": "eddea8ff79c8a148dd14d727002382f4", "type": "electric_scooter", "name": "eddea8ff79c8a148dd14d727002382f4"}, {"is_disabled": 0, "is_reserved": 0, "fusion_lat": 0.0, "lat": 38.892596, "fusion_lon": 0.0, "rental_uris": {"ios": "https://dc.lft.to/lastmile_qr_scan", "android": "https://dc.lft.to/lastmile_qr_scan"}, "lon": -77.04668583333333, "bike_id": "6763c3cd0a32fc7f7f3749728dd758f9", "type": "electric_scooter", "name": "6763c3cd0a32fc7f7f3749728dd758f9"}, {"is_disabled": 0, "is_reserved": 0, "fusion_lat": 0.0, "lat": 38.859458833333335, "fusion_lon": 0.0, "rental_uris": {"ios": "https://dc.lft.to/lastmile_qr_scan", "android": "https://dc.lft.to/lastmile_qr_scan"}, "lon": -77.094245, "bike_id": "c88e3faf0233f909d1610e7cf419883c", "type": "electric_bike", "name": "c88e3faf0233f909d1610e7cf419883c"}, {"is_disabled": 0, "is_reserved": 0, "fusion_lat": 0.0, "lat": 38.9055845, "fusion_lon": 0.0, "rental_uris": {"ios": "https://dc.lft.to/lastmile_qr_scan", "android": "https://dc.lft.to/lastmile_qr_scan"}, "lon": -77.02014733333333, "bike_id": "8f0a5546c29f1325e3cec5ce3dd62911", "type": "electric_scooter", "name": "8f0a5546c29f1325e3cec5ce3dd62911"}, {"is_disabled": 0, "is_reserved": 0, "fusion_lat": 0.0, "lat": 38.894668833333334, "fusion_lon": 0.0, "rental_uris": {"ios": "https://dc.lft.to/lastmile_qr_scan", "android": "https://dc.lft.to/lastmile_qr_scan"}, "lon": -77.01100983333333, "bike_id": "2f421a31548b47ac7df88f237a3db04a", "type": "electric_scooter", "name": "2f421a31548b47ac7df88f237a3db04a"}, {"is_disabled": 0, "is_reserved": 0, "fusion_lat": 0.0, "lat": 38.913569333333335, "fusion_lon": 0.0, "rental_uris": {"ios": "https://dc.lft.to/lastmile_qr_scan", "android": "https://dc.lft.to/lastmile_qr_scan"}, "lon": -77.04660133333333, "bike_id": "195271d155e77479ee930cb507a2bea6", "type": "electric_scooter", "name": "195271d155e77479ee930cb507a2bea6"}, {"is_disabled": 0, "is_reserved": 0, "fusion_lat": 0.0, "lat": 38.9122435, "fusion_lon": 0.0, "rental_uris": {"ios": "https://dc.lft.to/lastmile_qr_scan", "android": "https://dc.lft.to/lastmile_qr_scan"}, "lon": -77.00662833333334, "bike_id": "046ecd6b2e7a7de626146ceca3985fc8", "type": "electric_scooter", "name": "046ecd6b2e7a7de626146ceca3985fc8"}, {"is_disabled": 0, "is_reserved": 0, "fusion_lat": 0.0, "lat": 38.902494833333336, "fusion_lon": 0.0, "rental_uris": {"ios": "https://dc.lft.to/lastmile_qr_scan", "android": "https://dc.lft.to/lastmile_qr_scan"}, "lon": -77.03844466666666, "bike_id": "405c7cfee1256d06bb493f93bdf20b86", "type": "electric_scooter", "name": "405c7cfee1256d06bb493f93bdf20b86"}, {"is_disabled": 0, "is_reserved": 0, "fusion_lat": 0.0, "lat": 38.935186333333334, "fusion_lon": 0.0, "rental_uris": {"ios": "https://dc.lft.to/lastmile_qr_scan", "android": "https://dc.lft.to/lastmile_qr_scan"}, "lon": -77.05445266666666, "bike_id": "a5bab127f7ecb37304b3c1a50a43a572", "type": "electric_scooter", "name": "a5bab127f7ecb37304b3c1a50a43a572"}, {"is_disabled": 0, "is_reserved": 0, "fusion_lat": 0.0, "lat": 38.932815166666664, "fusion_lon": 0.0, "rental_uris": {"ios": "https://dc.lft.to/lastmile_qr_scan", "android": "https://dc.lft.to/lastmile_qr_scan"}, "lon": -77.03477033333333, "bike_id": "f9ee9b0a2a1303352be71b349cc57ed1", "type": "electric_scooter", "name": "f9ee9b0a2a1303352be71b349cc57ed1"}, {"is_disabled": 0, "is_reserved": 0, "fusion_lat": 0.0, "lat": 38.91909116666667, "fusion_lon": 0.0, "rental_uris": {"ios": "https://dc.lft.to/lastmile_qr_scan", "android": "https://dc.lft.to/lastmile_qr_scan"}, "lon": -77.03308566666666, "bike_id": "0f8564efe8f2879b9eabeafc895c737f", "type": "electric_scooter", "name": "0f8564efe8f2879b9eabeafc895c737f"}, {"is_disabled": 0, "is_reserved": 0, "fusion_lat": 0.0, "lat": 39.000001166666664, "fusion_lon": 0.0, "rental_uris": {"ios": "https://dc.lft.to/lastmile_qr_scan", "android": "https://dc.lft.to/lastmile_qr_scan"}, "lon": -76.91803233333333, "bike_id": "fe86f79a17ada14bb2bef963d306bf3e", "type": "electric_bike", "name": "fe86f79a17ada14bb2bef963d306bf3e"}, {"is_disabled": 0, "is_reserved": 0, "fusion_lat": 0.0, "lat": 38.937, "fusion_lon": 0.0, "rental_uris": {"ios": "https://dc.lft.to/lastmile_qr_scan", "android": "https://dc.lft.to/lastmile_qr_scan"}, "lon": -77.056011, "bike_id": "5a9092e2197bd67bd0d2903d5d435d7c", "type": "electric_scooter", "name": "5a9092e2197bd67bd0d2903d5d435d7c"}, {"is_disabled": 0, "is_reserved": 0, "fusion_lat": 0.0, "lat": 38.9309975, "fusion_lon": 0.0, "rental_uris": {"ios": "https://dc.lft.to/lastmile_qr_scan", "android": "https://dc.lft.to/lastmile_qr_scan"}, "lon": -77.02661066666667, "bike_id": "4a21ea4c211ed75500ce5e3f405d3d6d", "type": "electric_scooter", "name": "4a21ea4c211ed75500ce5e3f405d3d6d"}, {"is_disabled": 0, "is_reserved": 0, "fusion_lat": 0.0, "lat": 38.8936155, "fusion_lon": 0.0, "rental_uris": {"ios": "https://dc.lft.to/lastmile_qr_scan", "android": "https://dc.lft.to/lastmile_qr_scan"}, "lon": -76.94106333333333, "bike_id": "99bf9df7bce6395bc23d3923c2d9d70d", "type": "electric_scooter", "name": "99bf9df7bce6395bc23d3923c2d9d70d"}, {"is_disabled": 0, "is_reserved": 0, "fusion_lat": 0.0, "lat": 38.89681216666666, "fusion_lon": 0.0, "rental_uris": {"ios": "https://dc.lft.to/lastmile_qr_scan", "android": "https://dc.lft.to/lastmile_qr_scan"}, "lon": -77.04903066666667, "bike_id": "0738d309b3295bfa3e1398a52dd4bc53", "type": "electric_scooter", "name": "0738d309b3295bfa3e1398a52dd4bc53"}, {"is_disabled": 0, "is_reserved": 0, "fusion_lat": 0.0, "lat": 38.899815833333335, "fusion_lon": 0.0, "rental_uris": {"ios": "https://dc.lft.to/lastmile_qr_scan", "android": "https://dc.lft.to/lastmile_qr_scan"}, "lon": -77.00926583333333, "bike_id": "f94facc77c1ab68560e4570a836800b5", "type": "electric_scooter", "name": "f94facc77c1ab68560e4570a836800b5"}, {"is_disabled": 0, "is_reserved": 0, "fusion_lat": 0.0, "lat": 38.8666315, "fusion_lon": 0.0, "rental_uris": {"ios": "https://dc.lft.to/lastmile_qr_scan", "android": "https://dc.lft.to/lastmile_qr_scan"}, "lon": -77.01069283333334, "bike_id": "586daba54f0c3673a73f20ceeb038b6f", "type": "electric_scooter", "name": "586daba54f0c3673a73f20ceeb038b6f"}, {"is_disabled": 0, "is_reserved": 0, "fusion_lat": 0.0, "lat": 38.885230166666666, "fusion_lon": 0.0, "rental_uris": {"ios": "https://dc.lft.to/lastmile_qr_scan", "android": "https://dc.lft.to/lastmile_qr_scan"}, "lon": -76.99801183333334, "bike_id": "99812e5eb5701019dc60dc3f3c219b87", "type": "electric_scooter", "name": "99812e5eb5701019dc60dc3f3c219b87"}, {"is_disabled": 0, "is_reserved": 0, "fusion_lat": 0.0, "lat": 38.965305, "fusion_lon": 0.0, "rental_uris": {"ios": "https://dc.lft.to/lastmile_qr_scan", "android": "https://dc.lft.to/lastmile_qr_scan"}, "lon": -77.03411983333334, "bike_id": "b1c2b70c734deca7b528d36fd1a6fc28", "type": "electric_bike", "name": "b1c2b70c734deca7b528d36fd1a6fc28"}, {"is_disabled": 0, "is_reserved": 0, "fusion_lat": 0.0, "lat": 38.8717405, "fusion_lon": 0.0, "rental_uris": {"ios": "https://dc.lft.to/lastmile_qr_scan", "android": "https://dc.lft.to/lastmile_qr_scan"}, "lon": -77.23390666666667, "bike_id": "57e5208aca3f3eb74fa116cd36288a33", "type": "electric_bike", "name": "57e5208aca3f3eb74fa116cd36288a33"}, {"is_disabled": 0, "is_reserved": 0, "fusion_lat": 0.0, "lat": 38.900296833333336, "fusion_lon": 0.0, "rental_uris": {"ios": "https://dc.lft.to/lastmile_qr_scan", "android": "https://dc.lft.to/lastmile_qr_scan"}, "lon": -77.03370933333333, "bike_id": "9698cb0d59fcf8bda05325fa9004407a", "type": "electric_scooter", "name": "9698cb0d59fcf8bda05325fa9004407a"}, {"is_disabled": 0, "is_reserved": 0, "fusion_lat": 0.0, "lat": 38.901971833333334, "fusion_lon": 0.0, "rental_uris": {"ios": "https://dc.lft.to/lastmile_qr_scan", "android": "https://dc.lft.to/lastmile_qr_scan"}, "lon": -77.048714, "bike_id": "3cb848460f0a70f035b6414e0da1dc71", "type": "electric_scooter", "name": "3cb848460f0a70f035b6414e0da1dc71"}, {"is_disabled": 0, "is_reserved": 0, "fusion_lat": 0.0, "lat": 38.807385833333335, "fusion_lon": 0.0, "rental_uris": {"ios": "https://dc.lft.to/lastmile_qr_scan", "android": "https://dc.lft.to/lastmile_qr_scan"}, "lon": -77.09686316666667, "bike_id": "0c0af5d073f04c79bf26a60de7fca002", "type": "electric_bike", "name": "0c0af5d073f04c79bf26a60de7fca002"}, {"is_disabled": 0, "is_reserved": 0, "fusion_lat": 0.0, "lat": 38.9497575, "fusion_lon": 0.0, "rental_uris": {"ios": "https://dc.lft.to/lastmile_qr_scan", "android": "https://dc.lft.to/lastmile_qr_scan"}, "lon": -77.024452, "bike_id": "a9e702e8e0dd375f984c0a6e3253438c", "type": "electric_scooter", "name": "a9e702e8e0dd375f984c0a6e3253438c"}, {"is_disabled": 0, "is_reserved": 0, "fusion_lat": 0.0, "lat": 38.94218683333333, "fusion_lon": 0.0, "rental_uris": {"ios": "https://dc.lft.to/lastmile_qr_scan", "android": "https://dc.lft.to/lastmile_qr_scan"}, "lon": -76.96128233333333, "bike_id": "6ee1c87e9ce641c0f9930f929c67ed94", "type": "electric_bike", "name": "6ee1c87e9ce641c0f9930f929c67ed94"}, {"is_disabled": 0, "is_reserved": 0, "fusion_lat": 0.0, "lat": 38.80978133333333, "fusion_lon": 0.0, "rental_uris": {"ios": "https://dc.lft.to/lastmile_qr_scan", "android": "https://dc.lft.to/lastmile_qr_scan"}, "lon": -77.07657483333334, "bike_id": "2b3d18c9067a7ff912c965e1593983dc", "type": "electric_bike", "name": "2b3d18c9067a7ff912c965e1593983dc"}, {"is_disabled": 0, "is_reserved": 0, "fusion_lat": 0.0, "lat": 38.918055333333335, "fusion_lon": 0.0, "rental_uris": {"ios": "https://dc.lft.to/lastmile_qr_scan", "android": "https://dc.lft.to/lastmile_qr_scan"}, "lon": -77.03444616666667, "bike_id": "6d131b3fe883fe1e8c159998eed9aa3d", "type": "electric_scooter", "name": "6d131b3fe883fe1e8c159998eed9aa3d"}, {"is_disabled": 0, "is_reserved": 0, "fusion_lat": 0.0, "lat": 38.909675, "fusion_lon": 0.0, "rental_uris": {"ios": "https://dc.lft.to/lastmile_qr_scan", "android": "https://dc.lft.to/lastmile_qr_scan"}, "lon": -77.0110875, "bike_id": "4f8ab3ae63654b1c0cfdd28893812854", "type": "electric_scooter", "name": "4f8ab3ae63654b1c0cfdd28893812854"}, {"is_disabled": 0, "is_reserved": 0, "fusion_lat": 0.0, "lat": 38.917645666666665, "fusion_lon": 0.0, "rental_uris": {"ios": "https://dc.lft.to/lastmile_qr_scan", "android": "https://dc.lft.to/lastmile_qr_scan"}, "lon": -77.01488383333333, "bike_id": "35c3e39098431e91b1c499f628361100", "type": "electric_scooter", "name": "35c3e39098431e91b1c499f628361100"}, {"is_disabled": 0, "is_reserved": 0, "fusion_lat": 0.0, "lat": 38.925282833333334, "fusion_lon": 0.0, "rental_uris": {"ios": "https://dc.lft.to/lastmile_qr_scan", "android": "https://dc.lft.to/lastmile_qr_scan"}, "lon": -77.02562233333333, "bike_id": "4185de0c9d7619ad7729d0fc16ed05d8", "type": "electric_scooter", "name": "4185de0c9d7619ad7729d0fc16ed05d8"}, {"is_disabled": 0, "is_reserved": 0, "fusion_lat": 0.0, "lat": 38.952374166666665, "fusion_lon": 0.0, "rental_uris": {"ios": "https://dc.lft.to/lastmile_qr_scan", "android": "https://dc.lft.to/lastmile_qr_scan"}, "lon": -76.98245516666667, "bike_id": "e29524b9b03e13ec1661ff2bbec2ed71", "type": "electric_bike", "name": "e29524b9b03e13ec1661ff2bbec2ed71"}, {"is_disabled": 0, "is_reserved": 0, "fusion_lat": 0.0, "lat": 38.9279295, "fusion_lon": 0.0, "rental_uris": {"ios": "https://dc.lft.to/lastmile_qr_scan", "android": "https://dc.lft.to/lastmile_qr_scan"}, "lon": -77.02128133333333, "bike_id": "f9809b49bc07973cb841d73d66822059", "type": "electric_scooter", "name": "f9809b49bc07973cb841d73d66822059"}, {"is_disabled": 0, "is_reserved": 0, "fusion_lat": 0.0, "lat": 38.88765816666667, "fusion_lon": 0.0, "rental_uris": {"ios": "https://dc.lft.to/lastmile_qr_scan", "android": "https://dc.lft.to/lastmile_qr_scan"}, "lon": -77.03330016666666, "bike_id": "94ce01f767e1187508888e497d57475e", "type": "electric_scooter", "name": "94ce01f767e1187508888e497d57475e"}, {"is_disabled": 0, "is_reserved": 0, "fusion_lat": 0.0, "lat": 38.92130616666667, "fusion_lon": 0.0, "rental_uris": {"ios": "https://dc.lft.to/lastmile_qr_scan", "android": "https://dc.lft.to/lastmile_qr_scan"}, "lon": -77.003972, "bike_id": "cac9007f92c9ab6b2eb67e38e08faf9f", "type": "electric_scooter", "name": "cac9007f92c9ab6b2eb67e38e08faf9f"}, {"is_disabled": 0, "is_reserved": 0, "fusion_lat": 0.0, "lat": 38.9612525, "fusion_lon": 0.0, "rental_uris": {"ios": "https://dc.lft.to/lastmile_qr_scan", "android": "https://dc.lft.to/lastmile_qr_scan"}, "lon": -77.0327615, "bike_id": "9bcd504d5b47e00512fc6096c24a81fb", "type": "electric_bike", "name": "9bcd504d5b47e00512fc6096c24a81fb"}, {"is_disabled": 0, "is_reserved": 0, "fusion_lat": 0.0, "lat": 38.92807716666667, "fusion_lon": 0.0, "rental_uris": {"ios": "https://dc.lft.to/lastmile_qr_scan", "android": "https://dc.lft.to/lastmile_qr_scan"}, "lon": -77.04336683333334, "bike_id": "afd34e89b7a180afce193a89a3aaab1b", "type": "electric_scooter", "name": "afd34e89b7a180afce193a89a3aaab1b"}, {"is_disabled": 0, "is_reserved": 0, "fusion_lat": 0.0, "lat": 38.900616, "fusion_lon": 0.0, "rental_uris": {"ios": "https://dc.lft.to/lastmile_qr_scan", "android": "https://dc.lft.to/lastmile_qr_scan"}, "lon": -76.949766, "bike_id": "42e6e93e34259f59a36e0c98f4119ec4", "type": "electric_scooter", "name": "42e6e93e34259f59a36e0c98f4119ec4"}, {"is_disabled": 0, "is_reserved": 0, "fusion_lat": 0.0, "lat": 38.925022, "fusion_lon": 0.0, "rental_uris": {"ios": "https://dc.lft.to/lastmile_qr_scan", "android": "https://dc.lft.to/lastmile_qr_scan"}, "lon": -77.0244535, "bike_id": "2c7ebb4d9530c338bd3307486e74ab36", "type": "electric_scooter", "name": "2c7ebb4d9530c338bd3307486e74ab36"}, {"is_disabled": 0, "is_reserved": 0, "fusion_lat": 0.0, "lat": 38.921345, "fusion_lon": 0.0, "rental_uris": {"ios": "https://dc.lft.to/lastmile_qr_scan", "android": "https://dc.lft.to/lastmile_qr_scan"}, "lon": -76.993668, "bike_id": "c6cf74c4f38046bba07eaaa411c52b08", "type": "electric_scooter", "name": "c6cf74c4f38046bba07eaaa411c52b08"}, {"is_disabled": 0, "is_reserved": 0, "fusion_lat": 0.0, "lat": 38.88270683333333, "fusion_lon": 0.0, "rental_uris": {"ios": "https://dc.lft.to/lastmile_qr_scan", "android": "https://dc.lft.to/lastmile_qr_scan"}, "lon": -77.00646016666667, "bike_id": "b612208c8fce00835e735520abfbfe95", "type": "electric_scooter", "name": "b612208c8fce00835e735520abfbfe95"}, {"is_disabled": 0, "is_reserved": 0, "fusion_lat": 0.0, "lat": 38.92308116666667, "fusion_lon": 0.0, "rental_uris": {"ios": "https://dc.lft.to/lastmile_qr_scan", "android": "https://dc.lft.to/lastmile_qr_scan"}, "lon": -77.03911566666666, "bike_id": "3860f339cd344335d0ede13c066b8d59", "type": "electric_scooter", "name": "3860f339cd344335d0ede13c066b8d59"}, {"is_disabled": 0, "is_reserved": 0, "fusion_lat": 0.0, "lat": 39.010652, "fusion_lon": 0.0, "rental_uris": {"ios": "https://dc.lft.to/lastmile_qr_scan", "android": "https://dc.lft.to/lastmile_qr_scan"}, "lon": -76.9224175, "bike_id": "946b2ea37abb3092f22972883a0b0b64", "type": "electric_bike", "name": "946b2ea37abb3092f22972883a0b0b64"}, {"is_disabled": 0, "is_reserved": 0, "fusion_lat": 0.0, "lat": 38.878406, "fusion_lon": 0.0, "rental_uris": {"ios": "https://dc.lft.to/lastmile_qr_scan", "android": "https://dc.lft.to/lastmile_qr_scan"}, "lon": -76.93122583333333, "bike_id": "4fb6322417829aa1590156039c140fac", "type": "electric_scooter", "name": "4fb6322417829aa1590156039c140fac"}, {"is_disabled": 0, "is_reserved": 0, "fusion_lat": 0.0, "lat": 38.9309965, "fusion_lon": 0.0, "rental_uris": {"ios": "https://dc.lft.to/lastmile_qr_scan", "android": "https://dc.lft.to/lastmile_qr_scan"}, "lon": -77.0343545, "bike_id": "2a0405014a74d495f8bad8089f3f7624", "type": "electric_scooter", "name": "2a0405014a74d495f8bad8089f3f7624"}, {"is_disabled": 0, "is_reserved": 0, "fusion_lat": 0.0, "lat": 38.8829885, "fusion_lon": 0.0, "rental_uris": {"ios": "https://dc.lft.to/lastmile_qr_scan", "android": "https://dc.lft.to/lastmile_qr_scan"}, "lon": -77.02558916666666, "bike_id": "a460ea7c61f3476d78216d169c30972b", "type": "electric_scooter", "name": "a460ea7c61f3476d78216d169c30972b"}, {"is_disabled": 0, "is_reserved": 0, "fusion_lat": 0.0, "lat": 38.91265166666667, "fusion_lon": 0.0, "rental_uris": {"ios": "https://dc.lft.to/lastmile_qr_scan", "android": "https://dc.lft.to/lastmile_qr_scan"}, "lon": -77.00504016666666, "bike_id": "2cea3a268002cc189f6ec12f92818956", "type": "electric_scooter", "name": "2cea3a268002cc189f6ec12f92818956"}, {"is_disabled": 0, "is_reserved": 0, "fusion_lat": 0.0, "lat": 38.830476166666664, "fusion_lon": 0.0, "rental_uris": {"ios": "https://dc.lft.to/lastmile_qr_scan", "android": "https://dc.lft.to/lastmile_qr_scan"}, "lon": -77.00819416666667, "bike_id": "2af6e2d467b950baad909a1ae6fd51c4", "type": "electric_bike", "name": "2af6e2d467b950baad909a1ae6fd51c4"}, {"is_disabled": 0, "is_reserved": 0, "fusion_lat": 0.0, "lat": 38.84581133333333, "fusion_lon": 0.0, "rental_uris": {"ios": "https://dc.lft.to/lastmile_qr_scan", "android": "https://dc.lft.to/lastmile_qr_scan"}, "lon": -77.07464, "bike_id": "4194d7379ba58c8b20def0cc0294f816", "type": "electric_bike", "name": "4194d7379ba58c8b20def0cc0294f816"}, {"is_disabled": 0, "is_reserved": 0, "fusion_lat": 0.0, "lat": 38.92360466666667, "fusion_lon": 0.0, "rental_uris": {"ios": "https://dc.lft.to/lastmile_qr_scan", "android": "https://dc.lft.to/lastmile_qr_scan"}, "lon": -77.01907966666667, "bike_id": "cbc3e5fac46a566acb9e79038f201f7d", "type": "electric_scooter", "name": "cbc3e5fac46a566acb9e79038f201f7d"}, {"is_disabled": 0, "is_reserved": 0, "fusion_lat": 0.0, "lat": 38.89963916666667, "fusion_lon": 0.0, "rental_uris": {"ios": "https://dc.lft.to/lastmile_qr_scan", "android": "https://dc.lft.to/lastmile_qr_scan"}, "lon": -76.93758833333334, "bike_id": "59e697afc7f05d241bd3a59b823a0492", "type": "electric_scooter", "name": "59e697afc7f05d241bd3a59b823a0492"}, {"is_disabled": 0, "is_reserved": 0, "fusion_lat": 0.0, "lat": 38.90343516666667, "fusion_lon": 0.0, "rental_uris": {"ios": "https://dc.lft.to/lastmile_qr_scan", "android": "https://dc.lft.to/lastmile_qr_scan"}, "lon": -76.98274083333334, "bike_id": "0638f0e32fd76a703fc2d03e2dea659c", "type": "electric_scooter", "name": "0638f0e32fd76a703fc2d03e2dea659c"}, {"is_disabled": 0, "is_reserved": 0, "fusion_lat": 0.0, "lat": 38.90892916666667, "fusion_lon": 0.0, "rental_uris": {"ios": "https://dc.lft.to/lastmile_qr_scan", "android": "https://dc.lft.to/lastmile_qr_scan"}, "lon": -77.033914, "bike_id": "ee25f8971289c4472f9e66b2d7bfb68c", "type": "electric_scooter", "name": "ee25f8971289c4472f9e66b2d7bfb68c"}, {"is_disabled": 0, "is_reserved": 0, "fusion_lat": 0.0, "lat": 38.884348833333334, "fusion_lon": 0.0, "rental_uris": {"ios": "https://dc.lft.to/lastmile_qr_scan", "android": "https://dc.lft.to/lastmile_qr_scan"}, "lon": -76.9354475, "bike_id": "d2d621272d2efc10cdccd0ea6c482184", "type": "electric_scooter", "name": "d2d621272d2efc10cdccd0ea6c482184"}, {"is_disabled": 0, "is_reserved": 0, "fusion_lat": 0.0, "lat": 38.92368916666667, "fusion_lon": 0.0, "rental_uris": {"ios": "https://dc.lft.to/lastmile_qr_scan", "android": "https://dc.lft.to/lastmile_qr_scan"}, "lon": -77.031193, "bike_id": "db66e8b478cbca3017b65ce955694044", "type": "electric_scooter", "name": "db66e8b478cbca3017b65ce955694044"}, {"is_disabled": 0, "is_reserved": 0, "fusion_lat": 0.0, "lat": 38.89283283333333, "fusion_lon": 0.0, "rental_uris": {"ios": "https://dc.lft.to/lastmile_qr_scan", "android": "https://dc.lft.to/lastmile_qr_scan"}, "lon": -77.05033583333334, "bike_id": "042cc4f2952d391d31af7188148f8ba0", "type": "electric_scooter", "name": "042cc4f2952d391d31af7188148f8ba0"}, {"is_disabled": 0, "is_reserved": 0, "fusion_lat": 0.0, "lat": 38.9001245, "fusion_lon": 0.0, "rental_uris": {"ios": "https://dc.lft.to/lastmile_qr_scan", "android": "https://dc.lft.to/lastmile_qr_scan"}, "lon": -77.00096316666666, "bike_id": "68b2fe4c8eead63c0992d8d6f88c085f", "type": "electric_scooter", "name": "68b2fe4c8eead63c0992d8d6f88c085f"}, {"is_disabled": 0, "is_reserved": 0, "fusion_lat": 0.0, "lat": 38.876816833333336, "fusion_lon": 0.0, "rental_uris": {"ios": "https://dc.lft.to/lastmile_qr_scan", "android": "https://dc.lft.to/lastmile_qr_scan"}, "lon": -77.00057033333333, "bike_id": "cfb85cdfd3a0c8889b1d2bcd6713f937", "type": "electric_scooter", "name": "cfb85cdfd3a0c8889b1d2bcd6713f937"}, {"is_disabled": 0, "is_reserved": 0, "fusion_lat": 0.0, "lat": 38.904786, "fusion_lon": 0.0, "rental_uris": {"ios": "https://dc.lft.to/lastmile_qr_scan", "android": "https://dc.lft.to/lastmile_qr_scan"}, "lon": -77.00873916666667, "bike_id": "e673c9a15885c7c2f9e92ad0e994a31d", "type": "electric_scooter", "name": "e673c9a15885c7c2f9e92ad0e994a31d"}, {"is_disabled": 0, "is_reserved": 0, "fusion_lat": 0.0, "lat": 38.9820205, "fusion_lon": 0.0, "rental_uris": {"ios": "https://dc.lft.to/lastmile_qr_scan", "android": "https://dc.lft.to/lastmile_qr_scan"}, "lon": -76.97818466666666, "bike_id": "526e107be298a5fcc4658b88638bb3d1", "type": "electric_bike", "name": "526e107be298a5fcc4658b88638bb3d1"}, {"is_disabled": 0, "is_reserved": 0, "fusion_lat": 0.0, "lat": 38.93607566666667, "fusion_lon": 0.0, "rental_uris": {"ios": "https://dc.lft.to/lastmile_qr_scan", "android": "https://dc.lft.to/lastmile_qr_scan"}, "lon": -77.05586183333334, "bike_id": "54fea3f856cd2b78a9d4aca9c762e54c", "type": "electric_scooter", "name": "54fea3f856cd2b78a9d4aca9c762e54c"}, {"is_disabled": 0, "is_reserved": 0, "fusion_lat": 0.0, "lat": 38.92778533333333, "fusion_lon": 0.0, "rental_uris": {"ios": "https://dc.lft.to/lastmile_qr_scan", "android": "https://dc.lft.to/lastmile_qr_scan"}, "lon": -77.05259116666667, "bike_id": "c02219cd26db6aa316fb74676929aef7", "type": "electric_scooter", "name": "c02219cd26db6aa316fb74676929aef7"}, {"is_disabled": 0, "is_reserved": 0, "fusion_lat": 0.0, "lat": 38.87833783333333, "fusion_lon": 0.0, "rental_uris": {"ios": "https://dc.lft.to/lastmile_qr_scan", "android": "https://dc.lft.to/lastmile_qr_scan"}, "lon": -76.9860455, "bike_id": "64ece3268893f70c74a42f26ae9a1276", "type": "electric_scooter", "name": "64ece3268893f70c74a42f26ae9a1276"}, {"is_disabled": 0, "is_reserved": 0, "fusion_lat": 0.0, "lat": 38.93467016666666, "fusion_lon": 0.0, "rental_uris": {"ios": "https://dc.lft.to/lastmile_qr_scan", "android": "https://dc.lft.to/lastmile_qr_scan"}, "lon": -77.02406183333333, "bike_id": "5cf9d4464fa60c371198e8174d9d77e3", "type": "electric_scooter", "name": "5cf9d4464fa60c371198e8174d9d77e3"}, {"is_disabled": 0, "is_reserved": 0, "fusion_lat": 0.0, "lat": 38.92609383333333, "fusion_lon": 0.0, "rental_uris": {"ios": "https://dc.lft.to/lastmile_qr_scan", "android": "https://dc.lft.to/lastmile_qr_scan"}, "lon": -77.006499, "bike_id": "76c7d5aefc29900e6846112da42f8546", "type": "electric_scooter", "name": "76c7d5aefc29900e6846112da42f8546"}, {"is_disabled": 0, "is_reserved": 0, "fusion_lat": 0.0, "lat": 38.939813, "fusion_lon": 0.0, "rental_uris": {"ios": "https://dc.lft.to/lastmile_qr_scan", "android": "https://dc.lft.to/lastmile_qr_scan"}, "lon": -77.01911666666666, "bike_id": "b119f3d494a394e5fc4b6410be906bbf", "type": "electric_scooter", "name": "b119f3d494a394e5fc4b6410be906bbf"}, {"is_disabled": 0, "is_reserved": 0, "fusion_lat": 0.0, "lat": 38.951087666666666, "fusion_lon": 0.0, "rental_uris": {"ios": "https://dc.lft.to/lastmile_qr_scan", "android": "https://dc.lft.to/lastmile_qr_scan"}, "lon": -77.01890333333333, "bike_id": "a5d2e1778e09e8c9b772bec4ec43eb74", "type": "electric_scooter", "name": "a5d2e1778e09e8c9b772bec4ec43eb74"}, {"is_disabled": 0, "is_reserved": 0, "fusion_lat": 0.0, "lat": 38.905289, "fusion_lon": 0.0, "rental_uris": {"ios": "https://dc.lft.to/lastmile_qr_scan", "android": "https://dc.lft.to/lastmile_qr_scan"}, "lon": -77.06403966666667, "bike_id": "98259569e7c29bc35657b0505e5359a8", "type": "electric_bike", "name": "98259569e7c29bc35657b0505e5359a8"},