{"data": {"bikes": [{"name": "a402e5d04495cb4bf0c644b81912c512", "lon": -77.04855683333334, "lat": 38.906343666666665, "type": "electric_scooter", "fusion_lon": 0.0, "is_reserved": 0, "bike_id": "a402e5d04495cb4bf0c644b81912c512", "fusion_lat": 0.0, "is_disabled": 0, "rental_uris": {"ios": "https://dc.lft.to/lastmile_qr_scan", "android": "https://dc.lft.to/lastmile_qr_scan"}}, {"name": "7e29c7e9513a9e45f8a1af100367ee9e", "lon": -77.02706333333333, "lat": 38.900730833333334, "type": "electric_scooter", "fusion_lon": 0.0, "is_reserved": 0, "bike_id": "7e29c7e9513a9e45f8a1af100367ee9e", "fusion_lat": 0.0, "is_disabled": 0, "rental_uris": {"ios": "https://dc.lft.to/lastmile_qr_scan", "android": "https://dc.lft.to/lastmile_qr_scan"}}, {"name": "15f17d11480f5fa031c221410aea03fb", "lon": -77.04261133333333, "lat": 38.90854516666667, "type": "electric_scooter", "fusion_lon": 0.0, "is_reserved": 0, "bike_id": "15f17d11480f5fa031c221410aea03fb", "fusion_lat": 0.0, "is_disabled": 0, "rental_uris": {"ios": "https://dc.lft.to/lastmile_qr_scan", "android": "https://dc.lft.to/lastmile_qr_scan"}}, {"name": "928b8d5f470b7c886d02dafe315e4dfa", "lon": -77.03214766666666, "lat": 38.917883833333335, "type": "electric_scooter", "fusion_lon": 0.0, "is_reserved": 0, "bike_id": "928b8d5f470b7c886d02dafe315e4dfa", "fusion_lat": 0.0, "is_disabled": 0, "rental_uris": {"ios": "https://dc.lft.to/lastmile_qr_scan", "android": "https://dc.lft.to/lastmile_qr_scan"}}, {"name": "7974fe84d7b281457b28ec910dc84279", "lon": -77.02367516666666, "lat": 38.913514666666664, "type": "electric_scooter", "fusion_lon": 0.0, "is_reserved": 0, "bike_id": "7974fe84d7b281457b28ec910dc84279", "fusion_lat": 0.0, "is_disabled": 0, "rental_uris": {"ios": "https://dc.lft.to/lastmile_qr_scan", "android": "https://dc.lft.to/lastmile_qr_scan"}}, {"name": "683b942c33e714be0def6a156cc48e23", "lon": -77.00200666666667, "lat": 38.90022466666667, "type": "electric_scooter", "fusion_lon": 0.0, "is_reserved": 0, "bike_id": "683b942c33e714be0def6a156cc48e23", "fusion_lat": 0.0, "is_disabled": 0, "rental_uris": {"ios": "https://dc.lft.to/lastmile_qr_scan", "android": "https://dc.lft.to/lastmile_qr_scan"}}, {"name": "552acb918cfd7d34ea98604cf72b920e", "lon": -77.01748683333334, "lat": 38.887394666666665, "type": "electric_scooter", "fusion_lon": 0.0, "is_reserved": 0, "bike_id": "552acb918cfd7d34ea98604cf72b920e", "fusion_lat": 0.0, "is_disabled": 0, "rental_uris": {"ios": "https://dc.lft.to/lastmile_qr_scan", "android": "https://dc.lft.to/lastmile_qr_scan"}}, {"name": "f35cb38d74bb3862d2d4f312bacebfe3", "lon": -77.04954116666667, "lat": 38.90089916666667, "type": "electric_scooter", "fusion_lon": 0.0, "is_reserved": 0, "bike_id": "f35cb38d74bb3862d2d4f312bacebfe3", "fusion_lat": 0.0, "is_disabled": 0, "rental_uris": {"ios": "https://dc.lft.to/lastmile_qr_scan", "android": "https://dc.lft.to/lastmile_qr_scan"}}, {"name": "e8da6a88f7c92b0cc38b6b1d9904e200", "lon": -77.0294395, "lat": 38.90746933333333, "type": "electric_scooter", "fusion_lon": 0.0, "is_reserved": 0, "bike_id": "e8da6a88f7c92b0cc38b6b1d9904e200", "fusion_lat": 0.0, "is_disabled": 0, "rental_uris": {"ios": "https://dc.lft.to/lastmile_qr_scan", "android": "https://dc.lft.to/lastmile_qr_scan"}}, {"name": "fe0e73c81f50c0de1554db454e710b44", "lon": -77.04332683333334, "lat": 38.89223333333333, "type": "electric_scooter", "fusion_lon": 0.0, "is_reserved": 0, "bike_id": "fe0e73c81f50c0de1554db454e710b44", "fusion_lat": 0.0, "is_disabled": 0, "rental_uris": {"ios": "https://dc.lft.to/lastmile_qr_scan", "android": "https://dc.lft.to/lastmile_qr_scan"}}, {"name": "14d5bf1ee789567d16f0b94f43ea32ea", "lon": -76.985346, "lat": 38.866515166666666, "type": "electric_scooter", "fusion_lon": 0.0, "is_reserved": 0, "bike_id": "14d5bf1ee789567d16f0b94f43ea32ea", "fusion_lat": 0.0, "is_disabled": 0, "rental_uris": {"ios": "https://dc.lft.to/lastmile_qr_scan", "android": "https://dc.lft.to/lastmile_qr_scan"}}, {"name": "ee5f1a82c51c4d2e8e586d29c754d770", "lon": -77.04427583333333, "lat": 38.90560716666667, "type": "electric_scooter", "fusion_lon": 0.0, "is_reserved": 0, "bike_id": "ee5f1a82c51c4d2e8e586d29c754d770", "fusion_lat": 0.0, "is_disabled": 0, "rental_uris": {"ios": "https://dc.lft.to/lastmile_qr_scan", "android": "https://dc.lft.to/lastmile_qr_scan"}}, {"name": "6701c0598c3bf3900d896e8850ceae86", "lon": -77.0693005, "lat": 38.907762166666664, "type": "electric_scooter", "fusion_lon": 0.0, "is_reserved": 0, "bike_id": "6701c0598c3bf3900d896e8850ceae86", "fusion_lat": 0.0, "is_disabled": 0, "rental_uris": {"ios": "https://dc.lft.to/lastmile_qr_scan", "android": "https://dc.lft.to/lastmile_qr_scan"}}, {"name": "57a2b99b991e7b3d55f4be94af4262ec", "lon": -77.0220095, "lat": 38.91124633333333, "type": "electric_scooter", "fusion_lon": 0.0, "is_reserved": 0, "bike_id": "57a2b99b991e7b3d55f4be94af4262ec", "fusion_lat": 0.0, "is_disabled": 0, "rental_uris": {"ios": "https://dc.lft.to/lastmile_qr_scan", "android": "https://dc.lft.to/lastmile_qr_scan"}}, {"name": "be8ffbd1a53442ae1d049d4ca65e5b4d", "lon": -77.019815, "lat": 38.95024933333333, "type": "electric_scooter", "fusion_lon": 0.0, "is_reserved": 0, "bike_id": "be8ffbd1a53442ae1d049d4ca65e5b4d", "fusion_lat": 0.0, "is_disabled": 0, "rental_uris": {"ios": "https://dc.lft.to/lastmile_qr_scan", "android": "https://dc.lft.to/lastmile_qr_scan"}}, {"name": "4107549e05379f7a117c7267ff820e5e", "lon": -77.03305716666667, "lat": 38.92851866666667, "type": "electric_scooter", "fusion_lon": 0.0, "is_reserved": 0, "bike_id": "4107549e05379f7a117c7267ff820e5e", "fusion_lat": 0.0, "is_disabled": 0, "rental_uris": {"ios": "https://dc.lft.to/lastmile_qr_scan", "android": "https://dc.lft.to/lastmile_qr_scan"}}, {"name": "7728df03bc5067e3c63ae1007b110080", "lon": -77.04651783333334, "lat": 38.915961333333335, "type": "electric_scooter", "fusion_lon": 0.0, "is_reserved": 0, "bike_id": "7728df03bc5067e3c63ae1007b110080", "fusion_lat": 0.0, "is_disabled": 0, "rental_uris": {"ios": "https://dc.lft.to/lastmile_qr_scan", "android": "https://dc.lft.to/lastmile_qr_scan"}}, {"name": "8d97cd04dacc3a06b317849be66aef60", "lon": -77.03091816666667, "lat": 38.93166316666667, "type": "electric_scooter", "fusion_lon": 0.0, "is_reserved": 0, "bike_id": "8d97cd04dacc3a06b317849be66aef60", "fusion_lat": 0.0, "is_disabled": 0, "rental_uris": {"ios": "https://dc.lft.to/lastmile_qr_scan", "android": "https://dc.lft.to/lastmile_qr_scan"}}, {"name": "96ca426abacfba478ef50dc4edd8d56b", "lon": -77.02802116666666, "lat": 38.88178116666667, "type": "electric_scooter", "fusion_lon": 0.0, "is_reserved": 0, "bike_id": "96ca426abacfba478ef50dc4edd8d56b", "fusion_lat": 0.0, "is_disabled": 0, "rental_uris": {"ios": "https://dc.lft.to/lastmile_qr_scan", "android": "https://dc.lft.to/lastmile_qr_scan"}}, {"name": "017d3bb0b4b66784764d375a9166ea7c", "lon": -77.0410645, "lat": 38.91774216666666, "type": "electric_scooter", "fusion_lon": 0.0, "is_reserved": 0, "bike_id": "017d3bb0b4b66784764d375a9166ea7c", "fusion_lat": 0.0, "is_disabled": 0, "rental_uris": {"ios": "https://dc.lft.to/lastmile_qr_scan", "android": "https://dc.lft.to/lastmile_qr_scan"}}, {"name": "94174b351b9cb7ec5ed751001c458231", "lon": -77.01743483333334, "lat": 38.8873275, "type": "electric_scooter", "fusion_lon": 0.0, "is_reserved": 0, "bike_id": "94174b351b9cb7ec5ed751001c458231", "fusion_lat": 0.0, "is_disabled": 0, "rental_uris": {"ios": "https://dc.lft.to/lastmile_qr_scan", "android": "https://dc.lft.to/lastmile_qr_scan"}}, {"name": "dc272879d0b2632aaa38a0dce55dedb2", "lon": -77.03975533333333, "lat": 38.90262083333333, "type": "electric_scooter", "fusion_lon": 0.0, "is_reserved": 0, "bike_id": "dc272879d0b2632aaa38a0dce55dedb2", "fusion_lat": 0.0, "is_disabled": 0, "rental_uris": {"ios": "https://dc.lft.to/lastmile_qr_scan", "android": "https://dc.lft.to/lastmile_qr_scan"}}, {"name": "70e98c1238a8aec0019fed1938383827", "lon": -77.0271035, "lat": 38.906646, "type": "electric_scooter", "fusion_lon": 0.0, "is_reserved": 0, "bike_id": "70e98c1238a8aec0019fed1938383827", "fusion_lat": 0.0, "is_disabled": 0, "rental_uris": {"ios": "https://dc.lft.to/lastmile_qr_scan", "android": "https://dc.lft.to/lastmile_qr_scan"}}, {"name": "a0462103428a47d8edde5fcca5539b08", "lon": -77.043282, "lat": 38.907836, "type": "electric_scooter", "fusion_lon": 0.0, "is_reserved": 0, "bike_id": "a0462103428a47d8edde5fcca5539b08", "fusion_lat": 0.0, "is_disabled": 0, "rental_uris": {"ios": "https://dc.lft.to/lastmile_qr_scan", "android": "https://dc.lft.to/lastmile_qr_scan"}}, {"name": "3814b52e4210cd8a21edf2c436c23b8d", "lon": -76.987149, "lat": 38.8662555, "type": "electric_scooter", "fusion_lon": 0.0, "is_reserved": 0, "bike_id": "3814b52e4210cd8a21edf2c436c23b8d", "fusion_lat": 0.0, "is_disabled": 0, "rental_uris": {"ios": "https://dc.lft.to/lastmile_qr_scan", "android": "https://dc.lft.to/lastmile_qr_scan"}}, {"name": "cb7653ef50a38f8fa65c81acdf25239a", "lon": -77.05502383333334, "lat": 38.9000375, "type": "electric_scooter", "fusion_lon": 0.0, "is_reserved": 0, "bike_id": "cb7653ef50a38f8fa65c81acdf25239a", "fusion_lat": 0.0, "is_disabled": 0, "rental_uris": {"ios": "https://dc.lft.to/lastmile_qr_scan", "android": "https://dc.lft.to/lastmile_qr_scan"}}, {"name": "098309a0edffc813f8e514b9d4c99f44", "lon": -77.041874, "lat": 38.920201666666664, "type": "electric_scooter", "fusion_lon": 0.0, "is_reserved": 0, "bike_id": "098309a0edffc813f8e514b9d4c99f44", "fusion_lat": 0.0, "is_disabled": 0, "rental_uris": {"ios": "https://dc.lft.to/lastmile_qr_scan", "android": "https://dc.lft.to/lastmile_qr_scan"}}, {"name": "e7131af5800623801ab983746a14a273", "lon": -77.02732983333334, "lat": 38.928520166666665, "type": "electric_scooter", "fusion_lon": 0.0, "is_reserved": 0, "bike_id": "e7131af5800623801ab983746a14a273", "fusion_lat": 0.0, "is_disabled": 0, "rental_uris": {"ios": "https://dc.lft.to/lastmile_qr_scan", "android": "https://dc.lft.to/lastmile_qr_scan"}}, {"name": "107d22a1623937a44b85c2b8996dac50", "lon": -77.00094866666667, "lat": 38.92023866666667, "type": "electric_scooter", "fusion_lon": 0.0, "is_reserved": 0, "bike_id": "107d22a1623937a44b85c2b8996dac50", "fusion_lat": 0.0, "is_disabled": 0, "rental_uris": {"ios": "https://dc.lft.to/lastmile_qr_scan", "android": "https://dc.lft.to/lastmile_qr_scan"}}, {"name": "535a9d4496440b4c3eeb07ba2d5f1271", "lon": -77.00879133333333, "lat": 38.87664566666667, "type": "electric_scooter", "fusion_lon": 0.0, "is_reserved": 0, "bike_id": "535a9d4496440b4c3eeb07ba2d5f1271", "fusion_lat": 0.0, "is_disabled": 0, "rental_uris": {"ios": "https://dc.lft.to/lastmile_qr_scan", "android": "https://dc.lft.to/lastmile_qr_scan"}}, {"name": "6a6909a9c4e970fb719b7279e36627bd", "lon": -77.03599, "lat": 38.928536333333334, "type": "electric_scooter", "fusion_lon": 0.0, "is_reserved": 0, "bike_id": "6a6909a9c4e970fb719b7279e36627bd", "fusion_lat": 0.0, "is_disabled": 0, "rental_uris": {"ios": "https://dc.lft.to/lastmile_qr_scan", "android": "https://dc.lft.to/lastmile_qr_scan"}}, {"name": "89f057562f2c6dfc3511a65b08a47339", "lon": -77.10697883333333, "lat": 38.855332, "type": "electric_bike", "fusion_lon": 0.0, "is_reserved": 0, "bike_id": "89f057562f2c6dfc3511a65b08a47339", "fusion_lat": 0.0, "is_disabled": 0, "rental_uris": {"ios": "https://dc.lft.to/lastmile_qr_scan", "android": "https://dc.lft.to/lastmile_qr_scan"}}, {"name": "3bed7dc806f33828bfe49ab135f1b348", "lon": -77.03540233333334, "lat": 38.92319966666667, "type": "electric_scooter", "fusion_lon": 0.0, "is_reserved": 0, "bike_id": "3bed7dc806f33828bfe49ab135f1b348", "fusion_lat": 0.0, "is_disabled": 0, "rental_uris": {"ios": "https://dc.lft.to/lastmile_qr_scan", "android": "https://dc.lft.to/lastmile_qr_scan"}}, {"name": "9e9d4db091f4d88e08cd347a3fc0aa4b", "lon": -77.02701966666666, "lat": 38.906774166666665, "type": "electric_scooter", "fusion_lon": 0.0, "is_reserved": 0, "bike_id": "9e9d4db091f4d88e08cd347a3fc0aa4b", "fusion_lat": 0.0, "is_disabled": 0, "rental_uris": {"ios": "https://dc.lft.to/lastmile_qr_scan", "android": "https://dc.lft.to/lastmile_qr_scan"}}, {"name": "761515b0a4e7c83efc524ba2133e4dca", "lon": -77.023196, "lat": 38.940879833333334, "type": "electric_scooter", "fusion_lon": 0.0, "is_reserved": 0, "bike_id": "761515b0a4e7c83efc524ba2133e4dca", "fusion_lat": 0.0, "is_disabled": 0, "rental_uris": {"ios": "https://dc.lft.to/lastmile_qr_scan", "android": "https://dc.lft.to/lastmile_qr_scan"}}, {"name": "940d6e22d8a3df98d7750f751b676386", "lon": -77.02795366666666, "lat": 38.93079, "type": "electric_scooter", "fusion_lon": 0.0, "is_reserved": 0, "bike_id": "940d6e22d8a3df98d7750f751b676386", "fusion_lat": 0.0, "is_disabled": 0, "rental_uris": {"ios": "https://dc.lft.to/lastmile_qr_scan", "android": "https://dc.lft.to/lastmile_qr_scan"}}, {"name": "9602b8f1bbcad135d96b876e7ff93719", "lon": -76.989913, "lat": 38.8649745, "type": "electric_scooter", "fusion_lon": 0.0, "is_reserved": 0, "bike_id": "9602b8f1bbcad135d96b876e7ff93719", "fusion_lat": 0.0, "is_disabled": 0, "rental_uris": {"ios": "https://dc.lft.to/lastmile_qr_scan", "android": "https://dc.lft.to/lastmile_qr_scan"}}, {"name": "7012869e4dbb089d773f7876a340db51", "lon": -77.00768483333333, "lat": 38.92674483333333, "type": "electric_scooter", "fusion_lon": 0.0, "is_reserved": 0, "bike_id": "7012869e4dbb089d773f7876a340db51", "fusion_lat": 0.0, "is_disabled": 0, "rental_uris": {"ios": "https://dc.lft.to/lastmile_qr_scan", "android": "https://dc.lft.to/lastmile_qr_scan"}}, {"name": "df0888fc4b48849d93b6a14c9bc30f40", "lon": -77.02165033333333, "lat": 38.89720633333334, "type": "electric_scooter", "fusion_lon": 0.0, "is_reserved": 0, "bike_id": "df0888fc4b48849d93b6a14c9bc30f40", "fusion_lat": 0.0, "is_disabled": 0, "rental_uris": {"ios": "https://dc.lft.to/lastmile_qr_scan", "android": "https://dc.lft.to/lastmile_qr_scan"}}, {"name": "529e3fc612325686399e203c9896c0c3", "lon": -77.022937, "lat": 38.916696, "type": "electric_scooter", "fusion_lon": 0.0, "is_reserved": 0, "bike_id": "529e3fc612325686399e203c9896c0c3", "fusion_lat": 0.0, "is_disabled": 0, "rental_uris": {"ios": "https://dc.lft.to/lastmile_qr_scan", "android": "https://dc.lft.to/lastmile_qr_scan"}}, {"name": "cdccf13771ead711983653298171306b", "lon": -76.983711, "lat": 38.9149395, "type": "electric_scooter", "fusion_lon": 0.0, "is_reserved": 0, "bike_id": "cdccf13771ead711983653298171306b", "fusion_lat": 0.0, "is_disabled": 0, "rental_uris": {"ios": "https://dc.lft.to/lastmile_qr_scan", "android": "https://dc.lft.to/lastmile_qr_scan"}}, {"name": "3e8e26633aefaaf106dbea61a0e30c8d", "lon": -77.02988383333333, "lat": 38.907331166666665, "type": "electric_scooter", "fusion_lon": 0.0, "is_reserved": 0, "bike_id": "3e8e26633aefaaf106dbea61a0e30c8d", "fusion_lat": 0.0, "is_disabled": 0, "rental_uris": {"ios": "https://dc.lft.to/lastmile_qr_scan", "android": "https://dc.lft.to/lastmile_qr_scan"}}, {"name": "0ff0962d995970ef22a986eec277effe", "lon": -77.04338616666666, "lat": 38.90474666666667, "type": "electric_scooter", "fusion_lon": 0.0, "is_reserved": 0, "bike_id": "0ff0962d995970ef22a986eec277effe", "fusion_lat": 0.0, "is_disabled": 0, "rental_uris": {"ios": "https://dc.lft.to/lastmile_qr_scan", "android": "https://dc.lft.to/lastmile_qr_scan"}}, {"name": "4bcfa9551def3def305c7e7ac9a6e249", "lon": -77.041785, "lat": 38.922990166666665, "type": "electric_scooter", "fusion_lon": 0.0, "is_reserved": 0, "bike_id": "4bcfa9551def3def305c7e7ac9a6e249", "fusion_lat": 0.0, "is_disabled": 0, "rental_uris": {"ios": "https://dc.lft.to/lastmile_qr_scan", "android": "https://dc.lft.to/lastmile_qr_scan"}}, {"name": "9450d460d2415cf52482eac0af491e8d", "lon": -77.0236475, "lat": 38.902143833333334, "type": "electric_scooter", "fusion_lon": 0.0, "is_reserved": 0, "bike_id": "9450d460d2415cf52482eac0af491e8d", "fusion_lat": 0.0, "is_disabled": 0, "rental_uris": {"ios": "https://dc.lft.to/lastmile_qr_scan", "android": "https://dc.lft.to/lastmile_qr_scan"}}, {"name": "293b72a6160992e4598202109cea8a73", "lon": -77.02693366666666, "lat": 38.8963625, "type": "electric_scooter", "fusion_lon": 0.0, "is_reserved": 0, "bike_id": "293b72a6160992e4598202109cea8a73", "fusion_lat": 0.0, "is_disabled": 0, "rental_uris": {"ios": "https://dc.lft.to/lastmile_qr_scan", "android": "https://dc.lft.to/lastmile_qr_scan"}}, {"name": "44e13b1092cbf94c274b3ce18729c6fd", "lon": -76.9907015, "lat": 38.9041715, "type": "electric_scooter", "fusion_lon": 0.0, "is_reserved": 0, "bike_id": "44e13b1092cbf94c274b3ce18729c6fd", "fusion_lat": 0.0, "is_disabled": 0, "rental_uris": {"ios": "https://dc.lft.to/lastmile_qr_scan", "android": "https://dc.lft.to/lastmile_qr_scan"}}, {"name": "0220db35c56670d11eb197e6efa077ed", "lon": -77.025248, "lat": 38.90957316666667, "type": "electric_scooter", "fusion_lon": 0.0, "is_reserved": 0, "bike_id": "0220db35c56670d11eb197e6efa077ed", "fusion_lat": 0.0, "is_disabled": 0, "rental_uris": {"ios": "https://dc.lft.to/lastmile_qr_scan", "android": "https://dc.lft.to/lastmile_qr_scan"}}, {"name": "c5ce92fddb6c2cf8613e5756c1ba5fde", "lon": -77.05877266666667, "lat": 38.91820966666667, "type": "electric_scooter", "fusion_lon": 0.0, "is_reserved": 0, "bike_id": "c5ce92fddb6c2cf8613e5756c1ba5fde", "fusion_lat": 0.0, "is_disabled": 0, "rental_uris": {"ios": "https://dc.lft.to/lastmile_qr_scan", "android": "https://dc.lft.to/lastmile_qr_scan"}}, {"name": "e9c3d15ddc567cfe938d0c490b4671b9", "lon": -77.032367, "lat": 38.91544533333333, "type": "electric_scooter", "fusion_lon": 0.0, "is_reserved": 0, "bike_id": "e9c3d15ddc567cfe938d0c490b4671b9", "fusion_lat": 0.0, "is_disabled": 0, "rental_uris": {"ios": "https://dc.lft.to/lastmile_qr_scan", "android": "https://dc.lft.to/lastmile_qr_scan"}}, {"name": "519f6a228f443fcafd8fdf2722f2189c", "lon": -76.98402766666666, "lat": 38.867029, "type": "electric_scooter", "fusion_lon": 0.0, "is_reserved": 0, "bike_id": "519f6a228f443fcafd8fdf2722f2189c", "fusion_lat": 0.0, "is_disabled": 0, "rental_uris": {"ios": "https://dc.lft.to/lastmile_qr_scan", "android": "https://dc.lft.to/lastmile_qr_scan"}}, {"name": "e735a8629eb76de0fa52fad0c32d2cb2", "lon": -77.01238233333333, "lat": 38.9154025, "type": "electric_scooter", "fusion_lon": 0.0, "is_reserved": 0, "bike_id": "e735a8629eb76de0fa52fad0c32d2cb2", "fusion_lat": 0.0, "is_disabled": 0, "rental_uris": {"ios": "https://dc.lft.to/lastmile_qr_scan", "android": "https://dc.lft.to/lastmile_qr_scan"}}, {"name": "41ecabcbbd460cc4a438bf07948edf76", "lon": -77.02209233333333, "lat": 38.9056915, "type": "electric_scooter", "fusion_lon": 0.0, "is_reserved": 0, "bike_id": "41ecabcbbd460cc4a438bf07948edf76", "fusion_lat": 0.0, "is_disabled": 0, "rental_uris": {"ios": "https://dc.lft.to/lastmile_qr_scan", "android": "https://dc.lft.to/lastmile_qr_scan"}}, {"name": "a000843d420732a92b4cac9f43ab97f3", "lon": -77.05004666666666, "lat": 38.89230583333333, "type": "electric_scooter", "fusion_lon": 0.0, "is_reserved": 0, "bike_id": "a000843d420732a92b4cac9f43ab97f3", "fusion_lat": 0.0, "is_disabled": 0, "rental_uris": {"ios": "https://dc.lft.to/lastmile_qr_scan", "android": "https://dc.lft.to/lastmile_qr_scan"}}, {"name": "e8fb9c3a91b1dfa82dab9a621c19663b", "lon": -77.0229835, "lat": 38.91547816666667, "type": "electric_scooter", "fusion_lon": 0.0, "is_reserved": 0, "bike_id": "e8fb9c3a91b1dfa82dab9a621c19663b", "fusion_lat": 0.0, "is_disabled": 0, "rental_uris": {"ios": "https://dc.lft.to/lastmile_qr_scan", "android": "https://dc.lft.to/lastmile_qr_scan"}}, {"name": "3869e96a1210ec9b1b82904433e9dfae", "lon": -77.04132283333334, "lat": 38.923124666666666, "type": "electric_scooter", "fusion_lon": 0.0, "is_reserved": 0, "bike_id": "3869e96a1210ec9b1b82904433e9dfae", "fusion_lat": 0.0, "is_disabled": 0, "rental_uris": {"ios": "https://dc.lft.to/lastmile_qr_scan", "android": "https://dc.lft.to/lastmile_qr_scan"}}, {"name": "84aa763f4b8a9055fd4be27623df25bb", "lon": -76.99505966666666, "lat": 38.8820955, "type": "electric_bike", "fusion_lon": 0.0, "is_reserved": 0, "bike_id": "84aa763f4b8a9055fd4be27623df25bb", "fusion_lat": 0.0, "is_disabled": 0, "rental_uris": {"ios": "https://dc.lft.to/lastmile_qr_scan", "android": "https://dc.lft.to/lastmile_qr_scan"}}, {"name": "502644dcd5d593b74f94f950c05ab327", "lon": -77.0178815, "lat": 38.920231666666666, "type": "electric_scooter", "fusion_lon": 0.0, "is_reserved": 0, "bike_id": "502644dcd5d593b74f94f950c05ab327", "fusion_lat": 0.0, "is_disabled": 0, "rental_uris": {"ios": "https://dc.lft.to/lastmile_qr_scan", "android": "https://dc.lft.to/lastmile_qr_scan"}}, {"name": "6d8737bff62d61fc0e8efd39416b6b92", "lon": -77.026099, "lat": 38.92752016666667, "type": "electric_scooter", "fusion_lon": 0.0, "is_reserved": 0, "bike_id": "6d8737bff62d61fc0e8efd39416b6b92", "fusion_lat": 0.0, "is_disabled": 0, "rental_uris": {"ios": "https://dc.lft.to/lastmile_qr_scan", "android": "https://dc.lft.to/lastmile_qr_scan"}}, {"name": "9b2357a7eba87822ed55472c84ac9a03", "lon": -77.00204616666667, "lat": 38.819368, "type": "electric_bike", "fusion_lon": 0.0, "is_reserved": 0, "bike_id": "9b2357a7eba87822ed55472c84ac9a03", "fusion_lat": 0.0, "is_disabled": 0, "rental_uris": {"ios": "https://dc.lft.to/lastmile_qr_scan", "android": "https://dc.lft.to/lastmile_qr_scan"}}, {"name": "e6c5526d80c207bd7f3141c68d4aa110", "lon": -77.04126483333333, "lat": 38.804966666666665, "type": "electric_bike", "fusion_lon": 0.0, "is_reserved": 0, "bike_id": "e6c5526d80c207bd7f3141c68d4aa110", "fusion_lat": 0.0, "is_disabled": 0, "rental_uris": {"ios": "https://dc.lft.to/lastmile_qr_scan", "android": "https://dc.lft.to/lastmile_qr_scan"}}, {"name": "9e8ce56072260b6c80f6e22b046cdf54", "lon": -76.95094366666666, "lat": 38.884490666666665, "type": "electric_scooter", "fusion_lon": 0.0, "is_reserved": 0, "bike_id": "9e8ce56072260b6c80f6e22b046cdf54", "fusion_lat": 0.0, "is_disabled": 0, "rental_uris": {"ios": "https://dc.lft.to/lastmile_qr_scan", "android": "https://dc.lft.to/lastmile_qr_scan"}}, {"name": "ed249d88d679f1293c06183e91489f8c", "lon": -77.016175, "lat": 38.906047666666666, "type": "electric_scooter", "fusion_lon": 0.0, "is_reserved": 0, "bike_id": "ed249d88d679f1293c06183e91489f8c", "fusion_lat": 0.0, "is_disabled": 0, "rental_uris": {"ios": "https://dc.lft.to/lastmile_qr_scan", "android": "https://dc.lft.to/lastmile_qr_scan"}}, {"name": "33227c55c77a80ee0d749e3c18c51b78", "lon": -77.01091783333334, "lat": 38.9155875, "type": "electric_scooter", "fusion_lon": 0.0, "is_reserved": 0, "bike_id": "33227c55c77a80ee0d749e3c18c51b78", "fusion_lat": 0.0, "is_disabled": 0, "rental_uris": {"ios": "https://dc.lft.to/lastmile_qr_scan", "android": "https://dc.lft.to/lastmile_qr_scan"}}, {"name": "662b0923ca0f3058826cb37a391cdc5e", "lon": -77.04228833333333, "lat": 38.92163266666667, "type": "electric_scooter", "fusion_lon": 0.0, "is_reserved": 0, "bike_id": "662b0923ca0f3058826cb37a391cdc5e", "fusion_lat": 0.0, "is_disabled": 0, "rental_uris": {"ios": "https://dc.lft.to/lastmile_qr_scan", "android": "https://dc.lft.to/lastmile_qr_scan"}}, {"name": "2af078543741179a4b4792dc000e0f68", "lon": -77.043138, "lat": 38.90809, "type": "electric_scooter", "fusion_lon": 0.0, "is_reserved": 0, "bike_id": "2af078543741179a4b4792dc000e0f68", "fusion_lat": 0.0, "is_disabled": 0, "rental_uris": {"ios": "https://dc.lft.to/lastmile_qr_scan", "android": "https://dc.lft.to/lastmile_qr_scan"}}, {"name": "5522231b89e0b7c92937ccf73b5492d1", "lon": -77.02687816666666, "lat": 38.90684983333333, "type": "electric_scooter", "fusion_lon": 0.0, "is_reserved": 0, "bike_id": "5522231b89e0b7c92937ccf73b5492d1", "fusion_lat": 0.0, "is_disabled": 0, "rental_uris": {"ios": "https://dc.lft.to/lastmile_qr_scan", "android": "https://dc.lft.to/lastmile_qr_scan"}}, {"name": "0d5db55069238949b67b1bcef76be5c2", "lon": -77.04011283333334, "lat": 38.922647, "type": "electric_scooter", "fusion_lon": 0.0, "is_reserved": 0, "bike_id": "0d5db55069238949b67b1bcef76be5c2", "fusion_lat": 0.0, "is_disabled": 0, "rental_uris": {"ios": "https://dc.lft.to/lastmile_qr_scan", "android": "https://dc.lft.to/lastmile_qr_scan"}}, {"name": "41d506ca7c8c2a878806f07f1f88bca7", "lon": -76.93368533333333, "lat": 38.8991435, "type": "electric_scooter", "fusion_lon": 0.0, "is_reserved": 0, "bike_id": "41d506ca7c8c2a878806f07f1f88bca7", "fusion_lat": 0.0, "is_disabled": 0, "rental_uris": {"ios": "https://dc.lft.to/lastmile_qr_scan", "android": "https://dc.lft.to/lastmile_qr_scan"}}, {"name": "0138f611a0f5c845cc7a3d0653739bdd", "lon": -77.01367433333333, "lat": 38.887017666666665, "type": "electric_scooter", "fusion_lon": 0.0, "is_reserved": 0, "bike_id": "0138f611a0f5c845cc7a3d0653739bdd", "fusion_lat": 0.0, "is_disabled": 0, "rental_uris": {"ios": "https://dc.lft.to/lastmile_qr_scan", "android": "https://dc.lft.to/lastmile_qr_scan"}}, {"name": "523ea20ce3b2d8046d9c2c74dea308d1", "lon": -76.97415283333333, "lat": 38.93234133333333, "type": "electric_bike", "fusion_lon": 0.0, "is_reserved": 0, "bike_id": "523ea20ce3b2d8046d9c2c74dea308d1", "fusion_lat": 0.0, "is_disabled": 0, "rental_uris": {"ios": "https://dc.lft.to/lastmile_qr_scan", "android": "https://dc.lft.to/lastmile_qr_scan"}}, {"name": "dd9034bdf9e324751a4e7f7c83c4c526", "lon": -76.99408533333333, "lat": 38.92106966666667, "type": "electric_scooter", "fusion_lon": 0.0, "is_reserved": 0, "bike_id": "dd9034bdf9e324751a4e7f7c83c4c526", "fusion_lat": 0.0, "is_disabled": 0, "rental_uris": {"ios": "https://dc.lft.to/lastmile_qr_scan", "android": "https://dc.lft.to/lastmile_qr_scan"}}, {"name": "0323154113bce42ddbc2713ecc639290", "lon": -77.03398533333333, "lat": 38.92862183333333, "type": "electric_scooter", "fusion_lon": 0.0, "is_reserved": 0, "bike_id": "0323154113bce42ddbc2713ecc639290", "fusion_lat": 0.0, "is_disabled": 0, "rental_uris": {"ios": "https://dc.lft.to/lastmile_qr_scan", "android": "https://dc.lft.to/lastmile_qr_scan"}}, {"name": "225d066a2dfa3414b810b4d8c135e3e2", "lon": -77.010958, "lat": 38.894906, "type": "electric_scooter", "fusion_lon": 0.0, "is_reserved": 0, "bike_id": "225d066a2dfa3414b810b4d8c135e3e2", "fusion_lat": 0.0, "is_disabled": 0, "rental_uris": {"ios": "https://dc.lft.to/lastmile_qr_scan", "android": "https://dc.lft.to/lastmile_qr_scan"}}, {"name": "2037ea03ff4b73f442acf3f17eb597d2", "lon": -77.04000233333333, "lat": 38.912645166666664, "type": "electric_scooter", "fusion_lon": 0.0, "is_reserved": 0, "bike_id": "2037ea03ff4b73f442acf3f17eb597d2", "fusion_lat": 0.0, "is_disabled": 0, "rental_uris": {"ios": "https://dc.lft.to/lastmile_qr_scan", "android": "https://dc.lft.to/lastmile_qr_scan"}}, {"name": "0a3a376eec4ba3f4c158ef853da1e629", "lon": -77.03202533333334, "lat": 38.914255, "type": "electric_scooter", "fusion_lon": 0.0, "is_reserved": 0, "bike_id": "0a3a376eec4ba3f4c158ef853da1e629", "fusion_lat": 0.0, "is_disabled": 0, "rental_uris": {"ios": "https://dc.lft.to/lastmile_qr_scan", "android": "https://dc.lft.to/lastmile_qr_scan"}}, {"name": "663f6038dc5d685b5954ec71a0d5ce92", "lon": -77.00236816666667, "lat": 38.95718683333333, "type": "electric_scooter", "fusion_lon": 0.0, "is_reserved": 0, "bike_id": "663f6038dc5d685b5954ec71a0d5ce92", "fusion_lat": 0.0, "is_disabled": 0, "rental_uris": {"ios": "https://dc.lft.to/lastmile_qr_scan", "android": "https://dc.lft.to/lastmile_qr_scan"}}, {"name": "3f96b0755b9b2aee31a156d614300d27", "lon": -77.09521883333333, "lat": 38.83813033333333, "type": "electric_bike", "fusion_lon": 0.0, "is_reserved": 0, "bike_id": "3f96b0755b9b2aee31a156d614300d27", "fusion_lat": 0.0, "is_disabled": 0, "rental_uris": {"ios": "https://dc.lft.to/lastmile_qr_scan", "android": "https://dc.lft.to/lastmile_qr_scan"}}, {"name": "3d54b28a9fc8650c3e140785d83ceb01", "lon": -77.03841066666666, "lat": 38.91552516666667, "type": "electric_scooter", "fusion_lon": 0.0, "is_reserved": 0, "bike_id": "3d54b28a9fc8650c3e140785d83ceb01", "fusion_lat": 0.0, "is_disabled": 0, "rental_uris": {"ios": "https://dc.lft.to/lastmile_qr_scan", "android": "https://dc.lft.to/lastmile_qr_scan"}}, {"name": "6c53ef6a691306860a548912f0c5085d", "lon": -77.03208633333334, "lat": 38.89528716666667, "type": "electric_scooter", "fusion_lon": 0.0, "is_reserved": 0, "bike_id": "6c53ef6a691306860a548912f0c5085d", "fusion_lat": 0.0, "is_disabled": 0, "rental_uris": {"ios": "https://dc.lft.to/lastmile_qr_scan", "android": "https://dc.lft.to/lastmile_qr_scan"}}, {"name": "d2f05cc12b549f08df4377f1d036ed95", "lon": -77.04829116666667, "lat": 38.9110045, "type": "electric_scooter", "fusion_lon": 0.0, "is_reserved": 0, "bike_id": "d2f05cc12b549f08df4377f1d036ed95", "fusion_lat": 0.0, "is_disabled": 0, "rental_uris": {"ios": "https://dc.lft.to/lastmile_qr_scan", "android": "https://dc.lft.to/lastmile_qr_scan"}}, {"name": "9d0d32e3db4fd859089888ca9f9a6811", "lon": -77.02486566666667, "lat": 38.90625933333333, "type": "electric_scooter", "fusion_lon": 0.0, "is_reserved": 0, "bike_id": "9d0d32e3db4fd859089888ca9f9a6811", "fusion_lat": 0.0, "is_disabled": 0, "rental_uris": {"ios": "https://dc.lft.to/lastmile_qr_scan", "android": "https://dc.lft.to/lastmile_qr_scan"}}, {"name": "b309ce9cb7d16459fbbbbcafd5a94934", "lon": -77.0428505, "lat": 38.90558883333333, "type": "electric_scooter", "fusion_lon": 0.0, "is_reserved": 0, "bike_id": "b309ce9cb7d16459fbbbbcafd5a94934", "fusion_lat": 0.0, "is_disabled": 0, "rental_uris": {"ios": "https://dc.lft.to/lastmile_qr_scan", "android": "https://dc.lft.to/lastmile_qr_scan"}}, {"name": "6f4ffdde636ce800cf560bc388c77fa5", "lon": -77.00198983333334, "lat": 38.90236433333333, "type": "electric_scooter", "fusion_lon": 0.0, "is_reserved": 0, "bike_id": "6f4ffdde636ce800cf560bc388c77fa5", "fusion_lat": 0.0, "is_disabled": 0, "rental_uris": {"ios": "https://dc.lft.to/lastmile_qr_scan", "android": "https://dc.lft.to/lastmile_qr_scan"}}, {"name": "cd13254979ce78c84926d1c931898435", "lon": -77.02182866666666, "lat": 38.924919333333335, "type": "electric_scooter", "fusion_lon": 0.0, "is_reserved": 0, "bike_id": "cd13254979ce78c84926d1c931898435", "fusion_lat": 0.0, "is_disabled": 0, "rental_uris": {"ios": "https://dc.lft.to/lastmile_qr_scan", "android": "https://dc.lft.to/lastmile_qr_scan"}}, {"name": "bab223c53c5a4f00aa6aa651b5ac9b36", "lon": -77.04557983333333, "lat": 38.924134, "type": "electric_scooter", "fusion_lon": 0.0, "is_reserved": 0, "bike_id": "bab223c53c5a4f00aa6aa651b5ac9b36", "fusion_lat": 0.0, "is_disabled": 0, "rental_uris": {"ios": "https://dc.lft.to/lastmile_qr_scan", "android": "https://dc.lft.to/lastmile_qr_scan"}}, {"name": "44a27f60893701151df619605d1560cc", "lon": -76.97557166666667, "lat": 38.9245695, "type": "electric_bike", "fusion_lon": 0.0, "is_reserved": 0, "bike_id": "44a27f60893701151df619605d1560cc", "fusion_lat": 0.0, "is_disabled": 0, "rental_uris": {"ios": "https://dc.lft.to/lastmile_qr_scan", "android": "https://dc.lft.to/lastmile_qr_scan"}}, {"name": "b03c2e10638bc2a4948de50c568937f7", "lon": -77.22797816666667, "lat": 38.91011316666667, "type": "electric_bike", "fusion_lon": 0.0, "is_reserved": 0, "bike_id": "b03c2e10638bc2a4948de50c568937f7", "fusion_lat": 0.0, "is_disabled": 0, "rental_uris": {"ios": "https://dc.lft.to/lastmile_qr_scan", "android": "https://dc.lft.to/lastmile_qr_scan"}}, {"name": "92265604fd762f7896552800ab2ee241", "lon": -77.04848683333333, "lat": 38.90470783333333, "type": "electric_scooter", "fusion_lon": 0.0, "is_reserved": 0, "bike_id": "92265604fd762f7896552800ab2ee241", "fusion_lat": 0.0, "is_disabled": 0, "rental_uris": {"ios": "https://dc.lft.to/lastmile_qr_scan", "android": "https://dc.lft.to/lastmile_qr_scan"}}, {"name": "fb0087a172e022ce66a6df061247d096", "lon": -77.04092083333333, "lat": 38.91044566666667, "type": "electric_scooter", "fusion_lon": 0.0, "is_reserved": 0, "bike_id": "fb0087a172e022ce66a6df061247d096", "fusion_lat": 0.0, "is_disabled": 0, "rental_uris": {"ios": "https://dc.lft.to/lastmile_qr_scan", "android": "https://dc.lft.to/lastmile_qr_scan"}}, {"name": "054a32ac768b2e9e12b2406ee64243e7", "lon": -77.0141895, "lat": 38.906463, "type": "electric_scooter", "fusion_lon": 0.0, "is_reserved": 0, "bike_id": "054a32ac768b2e9e12b2406ee64243e7", "fusion_lat": 0.0, "is_disabled": 0, "rental_uris": {"ios": "https://dc.lft.to/lastmile_qr_scan", "android": "https://dc.lft.to/lastmile_qr_scan"}}, {"name": "fa1e8dae4f540c2cfe53b2211c6e871e", "lon": -76.99624066666667, "lat": 38.90035016666667, "type": "electric_scooter", "fusion_lon": 0.0, "is_reserved": 0, "bike_id": "fa1e8dae4f540c2cfe53b2211c6e871e", "fusion_lat": 0.0, "is_disabled": 0, "rental_uris": {"ios": "https://dc.lft.to/lastmile_qr_scan", "android": "https://dc.lft.to/lastmile_qr_scan"}}, {"name": "a1d9d1895f30d9d747201611c34bfbe2", "lon": -77.023758, "lat": 38.909495166666666, "type": "electric_scooter", "fusion_lon": 0.0, "is_reserved": 0, "bike_id": "a1d9d1895f30d9d747201611c34bfbe2", "fusion_lat": 0.0, "is_disabled": 0, "rental_uris": {"ios": "https://dc.lft.to/lastmile_qr_scan", "android": "https://dc.lft.to/lastmile_qr_scan"}}, {"name": "7b8cd74e9313464caa3b5e8ba29a215e", "lon": -77.01789683333334, "lat": 38.91982633333333, "type": "electric_scooter", "fusion_lon": 0.0, "is_reserved": 0, "bike_id": "7b8cd74e9313464caa3b5e8ba29a215e", "fusion_lat": 0.0, "is_disabled": 0, "rental_uris": {"ios": "https://dc.lft.to/lastmile_qr_scan", "android": "https://dc.lft.to/lastmile_qr_scan"}}, {"name": "284f0e7ea50ef7c702dbad4268e72740", "lon": -77.0248145, "lat": 38.919191833333336, "type": "electric_bike", "fusion_lon": 0.0, "is_reserved": 0, "bike_id": "284f0e7ea50ef7c702dbad4268e72740", "fusion_lat": 0.0, "is_disabled": 0, "rental_uris": {"ios": "https://dc.lft.to/lastmile_qr_scan", "android": "https://dc.lft.to/lastmile_qr_scan"}}, {"name": "3b64bc7eab68e3023b043362e7335ab0", "lon": -77.04344733333333, "lat": 38.92344883333333, "type": "electric_scooter", "fusion_lon": 0.0, "is_reserved": 0, "bike_id": "3b64bc7eab68e3023b043362e7335ab0", "fusion_lat": 0.0, "is_disabled": 0, "rental_uris": {"ios": "https://dc.lft.to/lastmile_qr_scan", "android": "https://dc.lft.to/lastmile_qr_scan"}}, {"name": "72edef556a0ed92d0ac12656318c1fdb", "lon": -77.02477816666666, "lat": 38.918733, "type": "electric_bike", "fusion_lon": 0.0, "is_reserved": 0, "bike_id": "72edef556a0ed92d0ac12656318c1fdb", "fusion_lat": 0.0, "is_disabled": 0, "rental_uris": {"ios": "https://dc.lft.to/lastmile_qr_scan", "android": "https://dc.lft.to/lastmile_qr_scan"}}, {"name": "e419c49fc2ddcc167d24b8d0bfc24477", "lon": -77.032905, "lat": 38.9563885, "type": "electric_scooter", "fusion_lon": 0.0, "is_reserved": 0, "bike_id": "e419c49fc2ddcc167d24b8d0bfc24477", "fusion_lat": 0.0, "is_disabled": 0, "rental_uris": {"ios": "https://dc.lft.to/lastmile_qr_scan", "android": "https://dc.lft.to/lastmile_qr_scan"}}, {"name": "aeb0e7f7743a4d12976a3fc6dfae14d8", "lon": -76.92994033333333, "lat": 38.90186083333333, "type": "electric_scooter", "fusion_lon": 0.0, "is_reserved": 0, "bike_id": "aeb0e7f7743a4d12976a3fc6dfae14d8", "fusion_lat": 0.0, "is_disabled": 0, "rental_uris": {"ios": "https://dc.lft.to/lastmile_qr_scan", "android": "https://dc.lft.to/lastmile_qr_scan"}}, {"name": "9bd370f01adb1656ad3a99b3e609fc4a", "lon": -77.04631666666667, "lat": 38.90671066666667, "type": "electric_scooter", "fusion_lon": 0.0, "is_reserved": 0, "bike_id": "9bd370f01adb1656ad3a99b3e609fc4a", "fusion_lat": 0.0, "is_disabled": 0, "rental_uris": {"ios": "https://dc.lft.to/lastmile_qr_scan", "android": "https://dc.lft.to/lastmile_qr_scan"}}, {"name": "cee32db34193c38add08850b3e11de6e", "lon": -77.03447216666666, "lat": 38.90581, "type": "electric_scooter", "fusion_lon": 0.0, "is_reserved": 0, "bike_id": "cee32db34193c38add08850b3e11de6e", "fusion_lat": 0.0, "is_disabled": 0, "rental_uris": {"ios": "https://dc.lft.to/lastmile_qr_scan", "android": "https://dc.lft.to/lastmile_qr_scan"}}, {"name": "829591a4337df439b09efae2f942293d", "lon": -77.03540683333334, "lat": 38.923207, "type": "electric_scooter", "fusion_lon": 0.0, "is_reserved": 0, "bike_id": "829591a4337df439b09efae2f942293d", "fusion_lat": 0.0, "is_disabled": 0, "rental_uris": {"ios": "https://dc.lft.to/lastmile_qr_scan", "android": "https://dc.lft.to/lastmile_qr_scan"}}, {"name": "9115d3c98da97a971b8235bf8de6de76", "lon": -77.0140905, "lat": 38.927823333333336, "type": "electric_scooter", "fusion_lon": 0.0, "is_reserved": 0, "bike_id": "9115d3c98da97a971b8235bf8de6de76", "fusion_lat": 0.0, "is_disabled": 0, "rental_uris": {"ios": "https://dc.lft.to/lastmile_qr_scan", "android": "https://dc.lft.to/lastmile_qr_scan"}}, {"name": "2ef16c1d9a9aa027d1336bd3fc05fa4f", "lon": -77.0060425, "lat": 38.89807966666667, "type": "electric_bike", "fusion_lon": 0.0, "is_reserved": 0, "bike_id": "2ef16c1d9a9aa027d1336bd3fc05fa4f", "fusion_lat": 0.0, "is_disabled": 0, "rental_uris": {"ios": "https://dc.lft.to/lastmile_qr_scan", "android": "https://dc.lft.to/lastmile_qr_scan"}}, {"name": "1d77eb73601a3ee3ace3dad25d8b038b", "lon": -76.9729825, "lat": 38.903216666666665, "type": "electric_scooter", "fusion_lon": 0.0, "is_reserved": 0, "bike_id": "1d77eb73601a3ee3ace3dad25d8b038b", "fusion_lat": 0.0, "is_disabled": 0, "rental_uris": {"ios": "https://dc.lft.to/lastmile_qr_scan", "android": "https://dc.lft.to/lastmile_qr_scan"}}, {"name": "0d14d5c5bfdb0b9c4273d5a866b55e27", "lon": -77.02704533333333, "lat": 38.91663883333333, "type": "electric_scooter", "fusion_lon": 0.0, "is_reserved": 0, "bike_id": "0d14d5c5bfdb0b9c4273d5a866b55e27", "fusion_lat": 0.0, "is_disabled": 0, "rental_uris": {"ios": "https://dc.lft.to/lastmile_qr_scan", "android": "https://dc.lft.to/lastmile_qr_scan"}}, {"name": "5fe1c630d8848e6e4da1dc64f546325b", "lon": -77.0427815, "lat": 38.914108166666665, "type": "electric_scooter", "fusion_lon": 0.0, "is_reserved": 0, "bike_id": "5fe1c630d8848e6e4da1dc64f546325b", "fusion_lat": 0.0, "is_disabled": 0, "rental_uris": {"ios": "https://dc.lft.to/lastmile_qr_scan", "android": "https://dc.lft.to/lastmile_qr_scan"}}, {"name": "b05b48fa71b627a1e63ddb87da147066", "lon": -77.10916616666667, "lat": 39.05202033333333, "type": "electric_bike", "fusion_lon": 0.0, "is_reserved": 0, "bike_id": "b05b48fa71b627a1e63ddb87da147066", "fusion_lat": 0.0, "is_disabled": 0, "rental_uris": {"ios": "https://dc.lft.to/lastmile_qr_scan", "android": "https://dc.lft.to/lastmile_qr_scan"}}, {"name": "734ffccb3168d16f7c25507680885130", "lon": -77.0344735, "lat": 38.908047333333336, "type": "electric_scooter", "fusion_lon": 0.0, "is_reserved": 0, "bike_id": "734ffccb3168d16f7c25507680885130", "fusion_lat": 0.0, "is_disabled": 0, "rental_uris": {"ios": "https://dc.lft.to/lastmile_qr_scan", "android": "https://dc.lft.to/lastmile_qr_scan"}}, {"name": "ef19c9ebc3b07ede3311f332849ec89a", "lon": -77.0344335, "lat": 38.9097345, "type": "electric_scooter", "fusion_lon": 0.0, "is_reserved": 0, "bike_id": "ef19c9ebc3b07ede3311f332849ec89a", "fusion_lat": 0.0, "is_disabled": 0, "rental_uris": {"ios": "https://dc.lft.to/lastmile_qr_scan", "android": "https://dc.lft.to/lastmile_qr_scan"}}, {"name": "d7cc38a963cad3d458b23f59a52002db", "lon": -77.0101905, "lat": 38.917019833333335, "type": "electric_scooter", "fusion_lon": 0.0, "is_reserved": 0, "bike_id": "d7cc38a963cad3d458b23f59a52002db", "fusion_lat": 0.0, "is_disabled": 0, "rental_uris": {"ios": "https://dc.lft.to/lastmile_qr_scan", "android": "https://dc.lft.to/lastmile_qr_scan"}}, {"name": "d358c0118557cc759698e078f81e099f", "lon": -77.03991033333334, "lat": 38.91755083333334, "type": "electric_scooter", "fusion_lon": 0.0, "is_reserved": 0, "bike_id": "d358c0118557cc759698e078f81e099f", "fusion_lat": 0.0, "is_disabled": 0, "rental_uris": {"ios": "https://dc.lft.to/lastmile_qr_scan", "android": "https://dc.lft.to/lastmile_qr_scan"}}, {"name": "3fb862b1e3d837a2721b7fe4b1272c16", "lon": -77.0464865, "lat": 38.90552483333333, "type": "electric_scooter", "fusion_lon": 0.0, "is_reserved": 0, "bike_id": "3fb862b1e3d837a2721b7fe4b1272c16", "fusion_lat": 0.0, "is_disabled": 0, "rental_uris": {"ios": "https://dc.lft.to/lastmile_qr_scan", "android": "https://dc.lft.to/lastmile_qr_scan"}}, {"name": "f8b816f202e4d2c483c95d6f7fc52535", "lon": -77.0316845, "lat": 38.921108333333336, "type": "electric_scooter", "fusion_lon": 0.0, "is_reserved": 0, "bike_id": "f8b816f202e4d2c483c95d6f7fc52535", "fusion_lat": 0.0, "is_disabled": 0, "rental_uris": {"ios": "https://dc.lft.to/lastmile_qr_scan", "android": "https://dc.lft.to/lastmile_qr_scan"}}, {"name": "d25f9249843e61ce2ef31702197789ea", "lon": -77.04742133333333, "lat": 38.9094945, "type": "electric_scooter", "fusion_lon": 0.0, "is_reserved": 0, "bike_id": "d25f9249843e61ce2ef31702197789ea", "fusion_lat": 0.0, "is_disabled": 0, "rental_uris": {"ios": "https://dc.lft.to/lastmile_qr_scan", "android": "https://dc.lft.to/lastmile_qr_scan"}}, {"name": "c53849e2fd0534b393e79478bd2f9476", "lon": -77.02176683333333, "lat": 38.909997833333335, "type": "electric_scooter", "fusion_lon": 0.0, "is_reserved": 0, "bike_id": "c53849e2fd0534b393e79478bd2f9476", "fusion_lat": 0.0, "is_disabled": 0, "rental_uris": {"ios": "https://dc.lft.to/lastmile_qr_scan", "android": "https://dc.lft.to/lastmile_qr_scan"}}, {"name": "744b4ee3f8482a37dda6cd350269ca13", "lon": -76.991287, "lat": 38.86201033333333, "type": "electric_scooter", "fusion_lon": 0.0, "is_reserved": 0, "bike_id": "744b4ee3f8482a37dda6cd350269ca13", "fusion_lat": 0.0, "is_disabled": 0, "rental_uris": {"ios": "https://dc.lft.to/lastmile_qr_scan", "android": "https://dc.lft.to/lastmile_qr_scan"}}, {"name": "44e91688d2ae635d8b055a38f52a7c40", "lon": -77.04187866666666, "lat": 38.892881, "type": "electric_scooter", "fusion_lon": 0.0, "is_reserved": 0, "bike_id": "44e91688d2ae635d8b055a38f52a7c40", "fusion_lat": 0.0, "is_disabled": 0, "rental_uris": {"ios": "https://dc.lft.to/lastmile_qr_scan", "android": "https://dc.lft.to/lastmile_qr_scan"}}, {"name": "1a0834252a92ed485c1fadaaf9539d29", "lon": -77.02491466666666, "lat": 38.94181183333333, "type": "electric_scooter", "fusion_lon": 0.0, "is_reserved": 0, "bike_id": "1a0834252a92ed485c1fadaaf9539d29", "fusion_lat": 0.0, "is_disabled": 0, "rental_uris": {"ios": "https://dc.lft.to/lastmile_qr_scan", "android": "https://dc.lft.to/lastmile_qr_scan"}}, {"name": "7bf6194b2c38b9dcc1561cad4c7ec171", "lon": -77.02297033333333, "lat": 38.928060333333335, "type": "electric_scooter", "fusion_lon": 0.0, "is_reserved": 0, "bike_id": "7bf6194b2c38b9dcc1561cad4c7ec171", "fusion_lat": 0.0, "is_disabled": 0, "rental_uris": {"ios": "https://dc.lft.to/lastmile_qr_scan", "android": "https://dc.lft.to/lastmile_qr_scan"}}, {"name": "2947e813f2b98bd83bbebc520583cf0c", "lon": -77.02730533333333, "lat": 38.89494766666667, "type": "electric_scooter", "fusion_lon": 0.0, "is_reserved": 0, "bike_id": "2947e813f2b98bd83bbebc520583cf0c", "fusion_lat": 0.0, "is_disabled": 0, "rental_uris": {"ios": "https://dc.lft.to/lastmile_qr_scan", "android": "https://dc.lft.to/lastmile_qr_scan"}}, {"name": "28353a952dafd1a11800e408ae9d214e", "lon": -77.042533, "lat": 38.90852566666667, "type": "electric_scooter", "fusion_lon": 0.0, "is_reserved": 0, "bike_id": "28353a952dafd1a11800e408ae9d214e", "fusion_lat": 0.0, "is_disabled": 0, "rental_uris": {"ios": "https://dc.lft.to/lastmile_qr_scan", "android": "https://dc.lft.to/lastmile_qr_scan"}}, {"name": "57697ad1abca4f84ea3df8783390716f", "lon": -77.0326145, "lat": 38.93523066666667, "type": "electric_scooter", "fusion_lon": 0.0, "is_reserved": 0, "bike_id": "57697ad1abca4f84ea3df8783390716f", "fusion_lat": 0.0, "is_disabled": 0, "rental_uris": {"ios": "https://dc.lft.to/lastmile_qr_scan", "android": "https://dc.lft.to/lastmile_qr_scan"}}, {"name": "7818cb922180722f7f1b5fcf11924f9e", "lon": -77.02769233333333, "lat": 38.9541945, "type": "electric_scooter", "fusion_lon": 0.0, "is_reserved": 0, "bike_id": "7818cb922180722f7f1b5fcf11924f9e", "fusion_lat": 0.0, "is_disabled": 0, "rental_uris": {"ios": "https://dc.lft.to/lastmile_qr_scan", "android": "https://dc.lft.to/lastmile_qr_scan"}}, {"name": "b105f20086b05a85ccfabf9282710a2c", "lon": -77.02689683333334, "lat": 38.9041015, "type": "electric_scooter", "fusion_lon": 0.0, "is_reserved": 0, "bike_id": "b105f20086b05a85ccfabf9282710a2c", "fusion_lat": 0.0, "is_disabled": 0, "rental_uris": {"ios": "https://dc.lft.to/lastmile_qr_scan", "android": "https://dc.lft.to/lastmile_qr_scan"}}, {"name": "8eee9321401ca98c9d9166203b0001d9", "lon": -77.07146, "lat": 38.94555733333333, "type": "electric_scooter", "fusion_lon": 0.0, "is_reserved": 0, "bike_id": "8eee9321401ca98c9d9166203b0001d9", "fusion_lat": 0.0, "is_disabled": 0, "rental_uris": {"ios": "https://dc.lft.to/lastmile_qr_scan", "android": "https://dc.lft.to/lastmile_qr_scan"}}, {"name": "d908134bb940df5e2d6417d8a4c97a76", "lon": -76.9314235, "lat": 38.893365, "type": "electric_scooter", "fusion_lon": 0.0, "is_reserved": 0, "bike_id": "d908134bb940df5e2d6417d8a4c97a76", "fusion_lat": 0.0, "is_disabled": 0, "rental_uris": {"ios": "https://dc.lft.to/lastmile_qr_scan", "android": "https://dc.lft.to/lastmile_qr_scan"}}, {"name": "49b5e30729a0360a17be46f68c46ce89", "lon": -77.027929, "lat": 38.89928333333334, "type": "electric_scooter", "fusion_lon": 0.0, "is_reserved": 0, "bike_id": "49b5e30729a0360a17be46f68c46ce89", "fusion_lat": 0.0, "is_disabled": 0, "rental_uris": {"ios": "https://dc.lft.to/lastmile_qr_scan", "android": "https://dc.lft.to/lastmile_qr_scan"}}, {"name": "183eae0840500eed9b0fc5c3915cc2c6", "lon": -76.96529083333333, "lat": 38.876295, "type": "electric_scooter", "fusion_lon": 0.0, "is_reserved": 0, "bike_id": "183eae0840500eed9b0fc5c3915cc2c6", "fusion_lat": 0.0, "is_disabled": 0, "rental_uris": {"ios": "https://dc.lft.to/lastmile_qr_scan", "android": "https://dc.lft.to/lastmile_qr_scan"}}, {"name": "8735bd35cb3c0606e9b999d7ba90264b", "lon": -77.03435183333333, "lat": 38.91808433333333, "type": "electric_scooter", "fusion_lon": 0.0, "is_reserved": 0, "bike_id": "8735bd35cb3c0606e9b999d7ba90264b", "fusion_lat": 0.0, "is_disabled": 0, "rental_uris": {"ios": "https://dc.lft.to/lastmile_qr_scan", "android": "https://dc.lft.to/lastmile_qr_scan"}}, {"name": "4a2543587a80757ae8d21df9c01ac65a", "lon": -77.04791, "lat": 38.893728333333335, "type": "electric_scooter", "fusion_lon": 0.0, "is_reserved": 0, "bike_id": "4a2543587a80757ae8d21df9c01ac65a", "fusion_lat": 0.0, "is_disabled": 0, "rental_uris": {"ios": "https://dc.lft.to/lastmile_qr_scan", "android": "https://dc.lft.to/lastmile_qr_scan"}}, {"name": "7028c96fd7dcbf409dcbde2e7912d4e4", "lon": -77.021701, "lat": 38.9428785, "type": "electric_scooter", "fusion_lon": 0.0, "is_reserved": 0, "bike_id": "7028c96fd7dcbf409dcbde2e7912d4e4", "fusion_lat": 0.0, "is_disabled": 0, "rental_uris": {"ios": "https://dc.lft.to/lastmile_qr_scan", "android": "https://dc.lft.to/lastmile_qr_scan"}}, {"name": "a83b956b7601f64b02e48849775eacda", "lon": -77.01604916666666, "lat": 38.899567, "type": "electric_scooter", "fusion_lon": 0.0, "is_reserved": 0, "bike_id": "a83b956b7601f64b02e48849775eacda", "fusion_lat": 0.0, "is_disabled": 0, "rental_uris": {"ios": "https://dc.lft.to/lastmile_qr_scan", "android": "https://dc.lft.to/lastmile_qr_scan"}}, {"name": "7d61117af90196142f132553ac040545", "lon": -77.04386983333333, "lat": 38.9141325, "type": "electric_scooter", "fusion_lon": 0.0, "is_reserved": 0, "bike_id": "7d61117af90196142f132553ac040545", "fusion_lat": 0.0, "is_disabled": 0, "rental_uris": {"ios": "https://dc.lft.to/lastmile_qr_scan", "android": "https://dc.lft.to/lastmile_qr_scan"}}, {"name": "e9e1cfbc1065e26abc30dabbd7272870", "lon": -77.02172216666666, "lat": 38.89856833333333, "type": "electric_scooter", "fusion_lon": 0.0, "is_reserved": 0, "bike_id": "e9e1cfbc1065e26abc30dabbd7272870", "fusion_lat": 0.0, "is_disabled": 0, "rental_uris": {"ios": "https://dc.lft.to/lastmile_qr_scan", "android": "https://dc.lft.to/lastmile_qr_scan"}}, {"name": "a5ad0c8fd8cd48eb5468be2e46ce0e59", "lon": -76.979651, "lat": 38.953732, "type": "electric_bike", "fusion_lon": 0.0, "is_reserved": 0, "bike_id": "a5ad0c8fd8cd48eb5468be2e46ce0e59", "fusion_lat": 0.0, "is_disabled": 0, "rental_uris": {"ios": "https://dc.lft.to/lastmile_qr_scan", "android": "https://dc.lft.to/lastmile_qr_scan"}}, {"name": "9fbc5205bebc1a8a6ffbbd0cd1ed869f", "lon": -77.01769583333333, "lat": 38.90272516666667, "type": "electric_scooter", "fusion_lon": 0.0, "is_reserved": 0, "bike_id": "9fbc5205bebc1a8a6ffbbd0cd1ed869f", "fusion_lat": 0.0, "is_disabled": 0, "rental_uris": {"ios": "https://dc.lft.to/lastmile_qr_scan", "android": "https://dc.lft.to/lastmile_qr_scan"}}, {"name": "78432274c5684620e2c90954450a2ea1", "lon": -77.03269716666667, "lat": 38.92747416666667, "type": "electric_scooter", "fusion_lon": 0.0, "is_reserved": 0, "bike_id": "78432274c5684620e2c90954450a2ea1", "fusion_lat": 0.0, "is_disabled": 0, "rental_uris": {"ios": "https://dc.lft.to/lastmile_qr_scan", "android": "https://dc.lft.to/lastmile_qr_scan"}}, {"name": "58473950c5dca02aaf9c00471bae16d9", "lon": -77.02285, "lat": 38.91678683333333, "type": "electric_scooter", "fusion_lon": 0.0, "is_reserved": 0, "bike_id": "58473950c5dca02aaf9c00471bae16d9", "fusion_lat": 0.0, "is_disabled": 0, "rental_uris": {"ios": "https://dc.lft.to/lastmile_qr_scan", "android": "https://dc.lft.to/lastmile_qr_scan"}}, {"name": "1280f6e226aafe58a763a7e248b3939c", "lon": -77.026323, "lat": 38.96225783333333, "type": "electric_bike", "fusion_lon": 0.0, "is_reserved": 0, "bike_id": "1280f6e226aafe58a763a7e248b3939c", "fusion_lat": 0.0, "is_disabled": 0, "rental_uris": {"ios": "https://dc.lft.to/lastmile_qr_scan", "android": "https://dc.lft.to/lastmile_qr_scan"}}, {"name": "7bd02eff5c12be98d05695f4f81ee61a", "lon": -76.99876783333333, "lat": 38.90127, "type": "electric_scooter", "fusion_lon": 0.0, "is_reserved": 0, "bike_id": "7bd02eff5c12be98d05695f4f81ee61a", "fusion_lat": 0.0, "is_disabled": 0, "rental_uris": {"ios": "https://dc.lft.to/lastmile_qr_scan", "android": "https://dc.lft.to/lastmile_qr_scan"}}, {"name": "e810250c5691eb18c0a1554bbddc5513", "lon": -77.033919, "lat": 38.9192015, "type": "electric_scooter", "fusion_lon": 0.0, "is_reserved": 0, "bike_id": "e810250c5691eb18c0a1554bbddc5513", "fusion_lat": 0.0, "is_disabled": 0, "rental_uris": {"ios": "https://dc.lft.to/lastmile_qr_scan", "android": "https://dc.lft.to/lastmile_qr_scan"}}, {"name": "e7baaa0f84c522d767ed9aced2527cac", "lon": -77.00654133333333, "lat": 38.89699183333333, "type": "electric_scooter", "fusion_lon": 0.0, "is_reserved": 0, "bike_id": "e7baaa0f84c522d767ed9aced2527cac", "fusion_lat": 0.0, "is_disabled": 0, "rental_uris": {"ios": "https://dc.lft.to/lastmile_qr_scan", "android": "https://dc.lft.to/lastmile_qr_scan"}}, {"name": "cc07ca3848359eef3ad0a0d573f7117a", "lon": -77.0385245, "lat": 38.910456833333335, "type": "electric_scooter", "fusion_lon": 0.0, "is_reserved": 0, "bike_id": "cc07ca3848359eef3ad0a0d573f7117a", "fusion_lat": 0.0, "is_disabled": 0, "rental_uris": {"ios": "https://dc.lft.to/lastmile_qr_scan", "android": "https://dc.lft.to/lastmile_qr_scan"}}, {"name": "2235b3199f3abae74d2d6fb07c1c25d9", "lon": -77.0175345, "lat": 38.9171135, "type": "electric_scooter", "fusion_lon": 0.0, "is_reserved": 0, "bike_id": "2235b3199f3abae74d2d6fb07c1c25d9", "fusion_lat": 0.0, "is_disabled": 0, "rental_uris": {"ios": "https://dc.lft.to/lastmile_qr_scan", "android": "https://dc.lft.to/lastmile_qr_scan"}}, {"name": "f8d3c644691de6fe6bbac8b56e95d027", "lon": -77.03841266666667, "lat": 38.912080333333336, "type": "electric_scooter", "fusion_lon": 0.0, "is_reserved": 0, "bike_id": "f8d3c644691de6fe6bbac8b56e95d027", "fusion_lat": 0.0, "is_disabled": 0, "rental_uris": {"ios": "https://dc.lft.to/lastmile_qr_scan", "android": "https://dc.lft.to/lastmile_qr_scan"}}, {"name": "e710016fa99cee05bc3d405d65a18e62", "lon": -77.05037683333333, "lat": 38.923571833333334, "type": "electric_scooter", "fusion_lon": 0.0, "is_reserved": 0, "bike_id": "e710016fa99cee05bc3d405d65a18e62", "fusion_lat": 0.0, "is_disabled": 0, "rental_uris": {"ios": "https://dc.lft.to/lastmile_qr_scan", "android": "https://dc.lft.to/lastmile_qr_scan"}}, {"name": "d855c436bbf9981c1fa7d6c54b47a077", "lon": -77.02205266666667, "lat": 38.919972333333334, "type": "electric_scooter", "fusion_lon": 0.0, "is_reserved": 0, "bike_id": "d855c436bbf9981c1fa7d6c54b47a077", "fusion_lat": 0.0, "is_disabled": 0, "rental_uris": {"ios": "https://dc.lft.to/lastmile_qr_scan", "android": "https://dc.lft.to/lastmile_qr_scan"}}, {"name": "c8081b46ff1c0779a18192a406cdb990", "lon": -77.062684, "lat": 38.90544933333334, "type": "electric_scooter", "fusion_lon": 0.0, "is_reserved": 0, "bike_id": "c8081b46ff1c0779a18192a406cdb990", "fusion_lat": 0.0, "is_disabled": 0, "rental_uris": {"ios": "https://dc.lft.to/lastmile_qr_scan", "android": "https://dc.lft.to/lastmile_qr_scan"}}, {"name": "488954225148368b194ac53887826cfb", "lon": -77.052337, "lat": 38.924629, "type": "electric_scooter", "fusion_lon": 0.0, "is_reserved": 0, "bike_id": "488954225148368b194ac53887826cfb", "fusion_lat": 0.0, "is_disabled": 0, "rental_uris": {"ios": "https://dc.lft.to/lastmile_qr_scan", "android": "https://dc.lft.to/lastmile_qr_scan"}}, {"name": "546f496101573b8c14eb7752bcc3a239", "lon": -77.034474, "lat": 38.908138666666666, "type": "electric_scooter", "fusion_lon": 0.0, "is_reserved": 0, "bike_id": "546f496101573b8c14eb7752bcc3a239", "fusion_lat": 0.0, "is_disabled": 0, "rental_uris": {"ios": "https://dc.lft.to/lastmile_qr_scan", "android": "https://dc.lft.to/lastmile_qr_scan"}}, {"name": "e7a43960367d2c5ba77277519e7d37df", "lon": -77.00710116666667, "lat": 38.88490766666666, "type": "electric_scooter", "fusion_lon": 0.0, "is_reserved": 0, "bike_id": "e7a43960367d2c5ba77277519e7d37df", "fusion_lat": 0.0, "is_disabled": 0, "rental_uris": {"ios": "https://dc.lft.to/lastmile_qr_scan", "android": "https://dc.lft.to/lastmile_qr_scan"}}, {"name": "7ca909823eb260f0a878fd05fd16ae88", "lon": -77.02735716666666, "lat": 38.90113483333333, "type": "electric_scooter", "fusion_lon": 0.0, "is_reserved": 0, "bike_id": "7ca909823eb260f0a878fd05fd16ae88", "fusion_lat": 0.0, "is_disabled": 0, "rental_uris": {"ios": "https://dc.lft.to/lastmile_qr_scan", "android": "https://dc.lft.to/lastmile_qr_scan"}}, {"name": "8721954482e1f91999f03b782309d87c", "lon": -76.97009216666666, "lat": 38.86365933333333, "type": "electric_bike", "fusion_lon": 0.0, "is_reserved": 0, "bike_id": "8721954482e1f91999f03b782309d87c", "fusion_lat": 0.0, "is_disabled": 0, "rental_uris": {"ios": "https://dc.lft.to/lastmile_qr_scan", "android": "https://dc.lft.to/lastmile_qr_scan"}}, {"name": "ba7c8df81868b81b1312dc527a529ef4", "lon": -77.01123966666667, "lat": 38.915850666666664, "type": "electric_scooter", "fusion_lon": 0.0, "is_reserved": 0, "bike_id": "ba7c8df81868b81b1312dc527a529ef4", "fusion_lat": 0.0, "is_disabled": 0, "rental_uris": {"ios": "https://dc.lft.to/lastmile_qr_scan", "android": "https://dc.lft.to/lastmile_qr_scan"}}, {"name": "2025433707c0fc915affba1de0a85298", "lon": -77.11800016666666, "lat": 38.873754, "type": "electric_bike", "fusion_lon": 0.0, "is_reserved": 0, "bike_id": "2025433707c0fc915affba1de0a85298", "fusion_lat": 0.0, "is_disabled": 0, "rental_uris": {"ios": "https://dc.lft.to/lastmile_qr_scan", "android": "https://dc.lft.to/lastmile_qr_scan"}}, {"name": "fa1b0db9e671ffbee3174eec56710d20", "lon": -76.99942183333333, "lat": 38.900175833333336, "type": "electric_scooter", "fusion_lon": 0.0, "is_reserved": 0, "bike_id": "fa1b0db9e671ffbee3174eec56710d20", "fusion_lat": 0.0, "is_disabled": 0, "rental_uris": {"ios": "https://dc.lft.to/lastmile_qr_scan", "android": "https://dc.lft.to/lastmile_qr_scan"}}, {"name": "de886b460642ab3244b4ac0c5ade688b", "lon": -76.96523333333333, "lat": 38.876266666666666, "type": "electric_scooter", "fusion_lon": 0.0, "is_reserved": 0, "bike_id": "de886b460642ab3244b4ac0c5ade688b", "fusion_lat": 0.0, "is_disabled": 0, "rental_uris": {"ios": "https://dc.lft.to/lastmile_qr_scan", "android": "https://dc.lft.to/lastmile_qr_scan"}}, {"name": "f09fca07d2850fd92c6e2337f684e07d", "lon": -76.96524983333333, "lat": 38.87625833333333, "type": "electric_scooter", "fusion_lon": 0.0, "is_reserved": 0, "bike_id": "f09fca07d2850fd92c6e2337f684e07d", "fusion_lat": 0.0, "is_disabled": 0, "rental_uris": {"ios": "https://dc.lft.to/lastmile_qr_scan", "android": "https://dc.lft.to/lastmile_qr_scan"}}, {"name": "7e552b93bb8e7c37a84b245c5bc3588b", "lon": -77.0405785, "lat": 38.911043166666666, "type": "electric_scooter", "fusion_lon": 0.0, "is_reserved": 0, "bike_id": "7e552b93bb8e7c37a84b245c5bc3588b", "fusion_lat": 0.0, "is_disabled": 0, "rental_uris": {"ios": "https://dc.lft.to/lastmile_qr_scan", "android": "https://dc.lft.to/lastmile_qr_scan"}}, {"name": "3e133c8419381e7dddb7c133d9f33ab1", "lon": -77.07795366666667, "lat": 38.996077666666665, "type": "electric_bike", "fusion_lon": 0.0, "is_reserved": 0, "bike_id": "3e133c8419381e7dddb7c133d9f33ab1", "fusion_lat": 0.0, "is_disabled": 0, "rental_uris": {"ios": "https://dc.lft.to/lastmile_qr_scan", "android": "https://dc.lft.to/lastmile_qr_scan"}}, {"name": "01a718fe8838302644dfd901e5cd0deb", "lon": -77.0019955, "lat": 38.902338, "type": "electric_scooter", "fusion_lon": 0.0, "is_reserved": 0, "bike_id": "01a718fe8838302644dfd901e5cd0deb", "fusion_lat": 0.0, "is_disabled": 0, "rental_uris": {"ios": "https://dc.lft.to/lastmile_qr_scan", "android": "https://dc.lft.to/lastmile_qr_scan"}}, {"name": "9ed00e974e26a35c05e5265eb4994dea", "lon": -76.93731366666667, "lat": 38.890144166666666, "type": "electric_scooter", "fusion_lon": 0.0, "is_reserved": 0, "bike_id": "9ed00e974e26a35c05e5265eb4994dea", "fusion_lat": 0.0, "is_disabled": 0, "rental_uris": {"ios": "https://dc.lft.to/lastmile_qr_scan", "android": "https://dc.lft.to/lastmile_qr_scan"}}, {"name": "ed51f6655c08bd624667d11656bcd89f", "lon": -77.03438416666667, "lat": 38.9179835, "type": "electric_scooter", "fusion_lon": 0.0, "is_reserved": 0, "bike_id": "ed51f6655c08bd624667d11656bcd89f", "fusion_lat": 0.0, "is_disabled": 0, "rental_uris": {"ios": "https://dc.lft.to/lastmile_qr_scan", "android": "https://dc.lft.to/lastmile_qr_scan"}}, {"name": "7390916291e181a50e69383a54e6c310", "lon": -76.99765483333333, "lat": 38.900258666666666, "type": "electric_scooter", "fusion_lon": 0.0, "is_reserved": 0, "bike_id": "7390916291e181a50e69383a54e6c310", "fusion_lat": 0.0, "is_disabled": 0, "rental_uris": {"ios": "https://dc.lft.to/lastmile_qr_scan", "android": "https://dc.lft.to/lastmile_qr_scan"}}, {"name": "015fc9eb49a00ff48e4389f61e4a7d31", "lon": -77.00198016666667, "lat": 38.90235283333333, "type": "electric_scooter", "fusion_lon": 0.0, "is_reserved": 0, "bike_id": "015fc9eb49a00ff48e4389f61e4a7d31", "fusion_lat": 0.0, "is_disabled": 0, "rental_uris": {"ios": "https://dc.lft.to/lastmile_qr_scan", "android": "https://dc.lft.to/lastmile_qr_scan"}}, {"name": "972eb999b2a243906b78fa1fd2391358", "lon": -77.045973, "lat": 38.90262716666667, "type": "electric_scooter", "fusion_lon": 0.0, "is_reserved": 0, "bike_id": "972eb999b2a243906b78fa1fd2391358", "fusion_lat": 0.0, "is_disabled": 0, "rental_uris": {"ios": "https://dc.lft.to/lastmile_qr_scan", "android": "https://dc.lft.to/lastmile_qr_scan"}}, {"name": "1046916d106e326936ccdc1521cd78b6", "lon": -76.9892555, "lat": 38.85811733333333, "type": "electric_scooter", "fusion_lon": 0.0, "is_reserved": 0, "bike_id": "1046916d106e326936ccdc1521cd78b6", "fusion_lat": 0.0, "is_disabled": 0, "rental_uris": {"ios": "https://dc.lft.to/lastmile_qr_scan", "android": "https://dc.lft.to/lastmile_qr_scan"}}, {"name": "f8587d38e5598da6d32547ad9549cd95", "lon": -76.99031916666667, "lat": 38.8984845, "type": "electric_scooter", "fusion_lon": 0.0, "is_reserved": 0, "bike_id": "f8587d38e5598da6d32547ad9549cd95", "fusion_lat": 0.0, "is_disabled": 0, "rental_uris": {"ios": "https://dc.lft.to/lastmile_qr_scan", "android": "https://dc.lft.to/lastmile_qr_scan"}}, {"name": "cbf830a1fb203662050c5e16f2c12b86", "lon": -76.90704183333334, "lat": 38.895919166666665, "type": "electric_bike", "fusion_lon": 0.0, "is_reserved": 0, "bike_id": "cbf830a1fb203662050c5e16f2c12b86", "fusion_lat": 0.0, "is_disabled": 0, "rental_uris": {"ios": "https://dc.lft.to/lastmile_qr_scan", "android": "https://dc.lft.to/lastmile_qr_scan"}}, {"name": "0c38c1ad9656fe2fbd34373b7e9507bb", "lon": -77.03824816666666, "lat": 38.90674716666667, "type": "electric_scooter", "fusion_lon": 0.0, "is_reserved": 0, "bike_id": "0c38c1ad9656fe2fbd34373b7e9507bb", "fusion_lat": 0.0, "is_disabled": 0, "rental_uris": {"ios": "https://dc.lft.to/lastmile_qr_scan", "android": "https://dc.lft.to/lastmile_qr_scan"}}, {"name": "9f6b30c1a7d13fd488c2ecb00562c0ae", "lon": -77.01984983333334, "lat": 38.92275866666667, "type": "electric_bike", "fusion_lon": 0.0, "is_reserved": 0, "bike_id": "9f6b30c1a7d13fd488c2ecb00562c0ae", "fusion_lat": 0.0, "is_disabled": 0, "rental_uris": {"ios": "https://dc.lft.to/lastmile_qr_scan", "android": "https://dc.lft.to/lastmile_qr_scan"}}, {"name": "c088d84a375c164a411aa92d28d59033", "lon": -76.99818133333333, "lat": 38.84431716666667, "type": "electric_scooter", "fusion_lon": 0.0, "is_reserved": 0, "bike_id": "c088d84a375c164a411aa92d28d59033", "fusion_lat": 0.0, "is_disabled": 0, "rental_uris": {"ios": "https://dc.lft.to/lastmile_qr_scan", "android": "https://dc.lft.to/lastmile_qr_scan"}}, {"name": "42eb224ce2e204cd8e85455d36146a74", "lon": -77.04339666666667, "lat": 38.907542166666666, "type": "electric_scooter", "fusion_lon": 0.0, "is_reserved": 0, "bike_id": "42eb224ce2e204cd8e85455d36146a74", "fusion_lat": 0.0, "is_disabled": 0, "rental_uris": {"ios": "https://dc.lft.to/lastmile_qr_scan", "android": "https://dc.lft.to/lastmile_qr_scan"}}, {"name": "6dc179f5d8f6a7fe63876749bdb26b48", "lon": -77.0462365, "lat": 38.9193135, "type": "electric_scooter", "fusion_lon": 0.0, "is_reserved": 0, "bike_id": "6dc179f5d8f6a7fe63876749bdb26b48", "fusion_lat": 0.0, "is_disabled": 0, "rental_uris": {"ios": "https://dc.lft.to/lastmile_qr_scan", "android": "https://dc.lft.to/lastmile_qr_scan"}}, {"name": "9581f0052dbc36b417a0db0682f88517", "lon": -77.04556216666667, "lat": 38.940990166666666, "type": "electric_scooter", "fusion_lon": 0.0, "is_reserved": 0, "bike_id": "9581f0052dbc36b417a0db0682f88517", "fusion_lat": 0.0, "is_disabled": 0, "rental_uris": {"ios": "https://dc.lft.to/lastmile_qr_scan", "android": "https://dc.lft.to/lastmile_qr_scan"}}, {"name": "f9e2ddbff9809aa7135caa3b3d5d0e94", "lon": -77.03834166666667, "lat": 38.90717883333333, "type": "electric_scooter", "fusion_lon": 0.0, "is_reserved": 0, "bike_id": "f9e2ddbff9809aa7135caa3b3d5d0e94", "fusion_lat": 0.0, "is_disabled": 0, "rental_uris": {"ios": "https://dc.lft.to/lastmile_qr_scan", "android": "https://dc.lft.to/lastmile_qr_scan"}}, {"name": "a1584a75c974da7035aa9543abbef67c", "lon": -77.02332683333333, "lat": 38.9261755, "type": "electric_scooter", "fusion_lon": 0.0, "is_reserved": 0, "bike_id": "a1584a75c974da7035aa9543abbef67c", "fusion_lat": 0.0, "is_disabled": 0, "rental_uris": {"ios": "https://dc.lft.to/lastmile_qr_scan", "android": "https://dc.lft.to/lastmile_qr_scan"}}, {"name": "783a01f9e3b86796709b6e766ff454ea", "lon": -77.061026, "lat": 38.9369865, "type": "electric_scooter", "fusion_lon": 0.0, "is_reserved": 0, "bike_id": "783a01f9e3b86796709b6e766ff454ea", "fusion_lat": 0.0, "is_disabled": 0, "rental_uris": {"ios": "https://dc.lft.to/lastmile_qr_scan", "android": "https://dc.lft.to/lastmile_qr_scan"}}, {"name": "0235767782aa54ece495cecc636d01f3", "lon": -77.0244605, "lat": 38.923987, "type": "electric_scooter", "fusion_lon": 0.0, "is_reserved": 0, "bike_id": "0235767782aa54ece495cecc636d01f3", "fusion_lat": 0.0, "is_disabled": 0, "rental_uris": {"ios": "https://dc.lft.to/lastmile_qr_scan", "android": "https://dc.lft.to/lastmile_qr_scan"}}, {"name": "a05abed329bda4074028988228179e96", "lon": -77.01766983333333, "lat": 38.88272033333333, "type": "electric_scooter", "fusion_lon": 0.0, "is_reserved": 0, "bike_id": "a05abed329bda4074028988228179e96", "fusion_lat": 0.0, "is_disabled": 0, "rental_uris": {"ios": "https://dc.lft.to/lastmile_qr_scan", "android": "https://dc.lft.to/lastmile_qr_scan"}}, {"name": "e8b287c6fe93f54544be9f3b46b2c3e6", "lon": -76.98843966666666, "lat": 38.9019405, "type": "electric_scooter", "fusion_lon": 0.0, "is_reserved": 0, "bike_id": "e8b287c6fe93f54544be9f3b46b2c3e6", "fusion_lat": 0.0, "is_disabled": 0, "rental_uris": {"ios": "https://dc.lft.to/lastmile_qr_scan", "android": "https://dc.lft.to/lastmile_qr_scan"}}, {"name": "56307ab8f4d0a1db233b21b2796ead27", "lon": -77.03354116666667, "lat": 38.89843166666667, "type": "electric_scooter", "fusion_lon": 0.0, "is_reserved": 0, "bike_id": "56307ab8f4d0a1db233b21b2796ead27", "fusion_lat": 0.0, "is_disabled": 0, "rental_uris": {"ios": "https://dc.lft.to/lastmile_qr_scan", "android": "https://dc.lft.to/lastmile_qr_scan"}}, {"name": "9475df1ed311849cd02ecdd875e5a1f9", "lon": -77.033573, "lat": 38.898471666666666, "type": "electric_scooter", "fusion_lon": 0.0, "is_reserved": 0, "bike_id": "9475df1ed311849cd02ecdd875e5a1f9", "fusion_lat": 0.0, "is_disabled": 0, "rental_uris": {"ios": "https://dc.lft.to/lastmile_qr_scan", "android": "https://dc.lft.to/lastmile_qr_scan"}}, {"name": "6c1253b72ed5a3d004515e75dd9086f3", "lon": -77.0329265, "lat": 38.92048416666667, "type": "electric_scooter", "fusion_lon": 0.0, "is_reserved": 0, "bike_id": "6c1253b72ed5a3d004515e75dd9086f3", "fusion_lat": 0.0, "is_disabled": 0, "rental_uris": {"ios": "https://dc.lft.to/lastmile_qr_scan", "android": "https://dc.lft.to/lastmile_qr_scan"}}, {"name": "58131676c0fb9fe73bb04dbb74c199b8", "lon": -77.02597516666667, "lat": 38.916916, "type": "electric_scooter", "fusion_lon": 0.0, "is_reserved": 0, "bike_id": "58131676c0fb9fe73bb04dbb74c199b8", "fusion_lat": 0.0, "is_disabled": 0, "rental_uris": {"ios": "https://dc.lft.to/lastmile_qr_scan", "android": "https://dc.lft.to/lastmile_qr_scan"}}, {"name": "690b617f9d9637651eaa76ccaa36fe2d", "lon": -77.02178566666667, "lat": 38.915031, "type": "electric_scooter", "fusion_lon": 0.0, "is_reserved": 0, "bike_id": "690b617f9d9637651eaa76ccaa36fe2d", "fusion_lat": 0.0, "is_disabled": 0, "rental_uris": {"ios": "https://dc.lft.to/lastmile_qr_scan", "android": "https://dc.lft.to/lastmile_qr_scan"}}, {"name": "0c6eb906a0014d11dd11aba3d313ee3d", "lon": -76.98475033333334, "lat": 38.91091616666667, "type": "electric_bike", "fusion_lon": 0.0, "is_reserved": 0, "bike_id": "0c6eb906a0014d11dd11aba3d313ee3d", "fusion_lat": 0.0, "is_disabled": 0, "rental_uris": {"ios": "https://dc.lft.to/lastmile_qr_scan", "android": "https://dc.lft.to/lastmile_qr_scan"}}, {"name": "85a139f144b802ab8b0b2f5526816390", "lon": -77.03037816666667, "lat": 38.913284, "type": "electric_scooter", "fusion_lon": 0.0, "is_reserved": 0, "bike_id": "85a139f144b802ab8b0b2f5526816390", "fusion_lat": 0.0, "is_disabled": 0, "rental_uris": {"ios": "https://dc.lft.to/lastmile_qr_scan", "android": "https://dc.lft.to/lastmile_qr_scan"}}, {"name": "cd2ae8a73259e013eef74369868cbede", "lon": -77.0338835, "lat": 38.903944833333334, "type": "electric_scooter", "fusion_lon": 0.0, "is_reserved": 0, "bike_id": "cd2ae8a73259e013eef74369868cbede", "fusion_lat": 0.0, "is_disabled": 0, "rental_uris": {"ios": "https://dc.lft.to/lastmile_qr_scan", "android": "https://dc.lft.to/lastmile_qr_scan"}}, {"name": "38f4556ddfe7fe17de4f4368457cfb4f", "lon": -76.982694, "lat": 38.8852845, "type": "electric_scooter", "fusion_lon": 0.0, "is_reserved": 0, "bike_id": "38f4556ddfe7fe17de4f4368457cfb4f", "fusion_lat": 0.0, "is_disabled": 0, "rental_uris": {"ios": "https://dc.lft.to/lastmile_qr_scan", "android": "https://dc.lft.to/lastmile_qr_scan"}}, {"name": "56abf8079a054d19d3a44d70c1104d84", "lon": -77.03460983333333, "lat": 38.90728583333333, "type": "electric_scooter", "fusion_lon": 0.0, "is_reserved": 0, "bike_id": "56abf8079a054d19d3a44d70c1104d84", "fusion_lat": 0.0, "is_disabled": 0, "rental_uris": {"ios": "https://dc.lft.to/lastmile_qr_scan", "android": "https://dc.lft.to/lastmile_qr_scan"}}, {"name": "f9e1ee5814a61a8231086a961cdff245", "lon": -77.02773166666667, "lat": 38.939606166666664, "type": "electric_scooter", "fusion_lon": 0.0, "is_reserved": 0, "bike_id": "f9e1ee5814a61a8231086a961cdff245", "fusion_lat": 0.0, "is_disabled": 0, "rental_uris": {"ios": "https://dc.lft.to/lastmile_qr_scan", "android": "https://dc.lft.to/lastmile_qr_scan"}}, {"name": "109954a9a04bff055c62a37263210003", "lon": -77.05037133333333, "lat": 38.92355216666667, "type": "electric_scooter", "fusion_lon": 0.0, "is_reserved": 0, "bike_id": "109954a9a04bff055c62a37263210003", "fusion_lat": 0.0, "is_disabled": 0, "rental_uris": {"ios": "https://dc.lft.to/lastmile_qr_scan", "android": "https://dc.lft.to/lastmile_qr_scan"}}, {"name": "a39ba737323789704e5c869c6305c86e", "lon": -76.998354, "lat": 38.890783166666665, "type": "electric_scooter", "fusion_lon": 0.0, "is_reserved": 0, "bike_id": "a39ba737323789704e5c869c6305c86e", "fusion_lat": 0.0, "is_disabled": 0, "rental_uris": {"ios": "https://dc.lft.to/lastmile_qr_scan", "android": "https://dc.lft.to/lastmile_qr_scan"}}, {"name": "cfb74607ae3bbf076058a252f4f4bbbf", "lon": -77.0446775, "lat": 38.921307666666664, "type": "electric_scooter", "fusion_lon": 0.0, "is_reserved": 0, "bike_id": "cfb74607ae3bbf076058a252f4f4bbbf", "fusion_lat": 0.0, "is_disabled": 0, "rental_uris": {"ios": "https://dc.lft.to/lastmile_qr_scan", "android": "https://dc.lft.to/lastmile_qr_scan"}}, {"name": "6cfab3d357b34678179b09d2286a28a2", "lon": -77.03937866666666, "lat": 38.9081385, "type": "electric_scooter", "fusion_lon": 0.0, "is_reserved": 0, "bike_id": "6cfab3d357b34678179b09d2286a28a2", "fusion_lat": 0.0, "is_disabled": 0, "rental_uris": {"ios": "https://dc.lft.to/lastmile_qr_scan", "android": "https://dc.lft.to/lastmile_qr_scan"}}, {"name": "a852f9efd88ad8b35d4feed0d2010f97", "lon": -76.99936283333334, "lat": 38.905686, "type": "electric_scooter", "fusion_lon": 0.0, "is_reserved": 0, "bike_id": "a852f9efd88ad8b35d4feed0d2010f97", "fusion_lat": 0.0, "is_disabled": 0, "rental_uris": {"ios": "https://dc.lft.to/lastmile_qr_scan", "android": "https://dc.lft.to/lastmile_qr_scan"}}, {"name": "5a2980ab7f68ba58a7be99d59cd3a97d", "lon": -77.03631783333333, "lat": 38.924539833333334, "type": "electric_scooter", "fusion_lon": 0.0, "is_reserved": 0, "bike_id": "5a2980ab7f68ba58a7be99d59cd3a97d", "fusion_lat": 0.0, "is_disabled": 0, "rental_uris": {"ios": "https://dc.lft.to/lastmile_qr_scan", "android": "https://dc.lft.to/lastmile_qr_scan"}}, {"name": "6947d73b3a2b1e8ea6c19a5d55427ebc", "lon": -77.02693783333333, "lat": 38.9097525, "type": "electric_scooter", "fusion_lon": 0.0, "is_reserved": 0, "bike_id": "6947d73b3a2b1e8ea6c19a5d55427ebc", "fusion_lat": 0.0, "is_disabled": 0, "rental_uris": {"ios": "https://dc.lft.to/lastmile_qr_scan", "android": "https://dc.lft.to/lastmile_qr_scan"}}, {"name": "ed16c158c2a23cbecf26d52a1413983f", "lon": -77.032342, "lat": 38.914112, "type": "electric_scooter", "fusion_lon": 0.0, "is_reserved": 0, "bike_id": "ed16c158c2a23cbecf26d52a1413983f", "fusion_lat": 0.0, "is_disabled": 0, "rental_uris": {"ios": "https://dc.lft.to/lastmile_qr_scan", "android": "https://dc.lft.to/lastmile_qr_scan"}}, {"name": "e421e1e9bc6afb3b5987e4e2e58ef92f", "lon": -77.039502, "lat": 38.9314775, "type": "electric_scooter", "fusion_lon": 0.0, "is_reserved": 0, "bike_id": "e421e1e9bc6afb3b5987e4e2e58ef92f", "fusion_lat": 0.0, "is_disabled": 0, "rental_uris": {"ios": "https://dc.lft.to/lastmile_qr_scan", "android": "https://dc.lft.to/lastmile_qr_scan"}}, {"name": "36c076deb46b009b3190af329711342d", "lon": -77.01183983333334, "lat": 38.91700383333333, "type": "electric_scooter", "fusion_lon": 0.0, "is_reserved": 0, "bike_id": "36c076deb46b009b3190af329711342d", "fusion_lat": 0.0, "is_disabled": 0, "rental_uris": {"ios": "https://dc.lft.to/lastmile_qr_scan", "android": "https://dc.lft.to/lastmile_qr_scan"}}, {"name": "8e21299ef21a8854b60eca796fe36bdc", "lon": -76.9876555, "lat": 38.85769466666667, "type": "electric_bike", "fusion_lon": 0.0, "is_reserved": 0, "bike_id": "8e21299ef21a8854b60eca796fe36bdc", "fusion_lat": 0.0, "is_disabled": 0, "rental_uris": {"ios": "https://dc.lft.to/lastmile_qr_scan", "android": "https://dc.lft.to/lastmile_qr_scan"}}, {"name": "97d41b4e8860170f485597509b3343f3", "lon": -77.00738383333334, "lat": 38.87092483333333, "type": "electric_scooter", "fusion_lon": 0.0, "is_reserved": 0, "bike_id": "97d41b4e8860170f485597509b3343f3", "fusion_lat": 0.0, "is_disabled": 0, "rental_uris": {"ios": "https://dc.lft.to/lastmile_qr_scan", "android": "https://dc.lft.to/lastmile_qr_scan"}}, {"name": "601366439781535a6e673287c34c869a", "lon": -77.026926, "lat": 38.911308, "type": "electric_scooter", "fusion_lon": 0.0, "is_reserved": 0, "bike_id": "601366439781535a6e673287c34c869a", "fusion_lat": 0.0, "is_disabled": 0, "rental_uris": {"ios": "https://dc.lft.to/lastmile_qr_scan", "android": "https://dc.lft.to/lastmile_qr_scan"}}, {"name": "f8f6b830b2a2f352249755b59de8a324", "lon": -77.03232583333333, "lat": 38.90531266666667, "type": "electric_scooter", "fusion_lon": 0.0, "is_reserved": 0, "bike_id": "f8f6b830b2a2f352249755b59de8a324", "fusion_lat": 0.0, "is_disabled": 0, "rental_uris": {"ios": "https://dc.lft.to/lastmile_qr_scan", "android": "https://dc.lft.to/lastmile_qr_scan"}}, {"name": "fce4593bc0ccb9ef42306bd8a5cd0cd1", "lon": -77.00446016666666, "lat": 38.87653233333333, "type": "electric_scooter", "fusion_lon": 0.0, "is_reserved": 0, "bike_id": "fce4593bc0ccb9ef42306bd8a5cd0cd1", "fusion_lat": 0.0, "is_disabled": 0, "rental_uris": {"ios": "https://dc.lft.to/lastmile_qr_scan", "android": "https://dc.lft.to/lastmile_qr_scan"}}, {"name": "79359b4da727e7ac0709fe012049e22b", "lon": -77.0234315, "lat": 38.94608483333333, "type": "electric_scooter", "fusion_lon": 0.0, "is_reserved": 0, "bike_id": "79359b4da727e7ac0709fe012049e22b", "fusion_lat": 0.0, "is_disabled": 0, "rental_uris": {"ios": "https://dc.lft.to/lastmile_qr_scan", "android": "https://dc.lft.to/lastmile_qr_scan"}}, {"name": "ba81a52c4323f75a2e8c9d3763ebed45", "lon": -77.0269285, "lat": 38.90973533333333, "type": "electric_scooter", "fusion_lon": 0.0, "is_reserved": 0, "bike_id": "ba81a52c4323f75a2e8c9d3763ebed45", "fusion_lat": 0.0, "is_disabled": 0, "rental_uris": {"ios": "https://dc.lft.to/lastmile_qr_scan", "android": "https://dc.lft.to/lastmile_qr_scan"}}, {"name": "594cc2f31755f13fece1f0d54ffd1b61", "lon": -76.9950735, "lat": 38.87914333333333, "type": "electric_scooter", "fusion_lon": 0.0, "is_reserved": 0, "bike_id": "594cc2f31755f13fece1f0d54ffd1b61", "fusion_lat": 0.0, "is_disabled": 0, "rental_uris": {"ios": "https://dc.lft.to/lastmile_qr_scan", "android": "https://dc.lft.to/lastmile_qr_scan"}}, {"name": "7e022871dcf8e382861787a95f45dd55", "lon": -76.99897033333333, "lat": 38.94685966666667, "type": "electric_scooter", "fusion_lon": 0.0, "is_reserved": 0, "bike_id": "7e022871dcf8e382861787a95f45dd55", "fusion_lat": 0.0, "is_disabled": 0, "rental_uris": {"ios": "https://dc.lft.to/lastmile_qr_scan", "android": "https://dc.lft.to/lastmile_qr_scan"}}, {"name": "edd5fca3730c16e19948f12b26dd7169", "lon": -77.03317316666667, "lat": 38.91315433333333, "type": "electric_scooter", "fusion_lon": 0.0, "is_reserved": 0, "bike_id": "edd5fca3730c16e19948f12b26dd7169", "fusion_lat": 0.0, "is_disabled": 0, "rental_uris": {"ios": "https://dc.lft.to/lastmile_qr_scan", "android": "https://dc.lft.to/lastmile_qr_scan"}}, {"name": "7283ec93355825b7a4223c11e96e1017", "lon": -77.04430466666666, "lat": 38.92183266666667, "type": "electric_scooter", "fusion_lon": 0.0, "is_reserved": 0, "bike_id": "7283ec93355825b7a4223c11e96e1017", "fusion_lat": 0.0, "is_disabled": 0, "rental_uris": {"ios": "https://dc.lft.to/lastmile_qr_scan", "android": "https://dc.lft.to/lastmile_qr_scan"}}, {"name": "c62ceaa86e3bfce02b9ee868a7f9fe2c", "lon": -77.02089366666667, "lat": 38.92142033333333, "type": "electric_scooter", "fusion_lon": 0.0, "is_reserved": 0, "bike_id": "c62ceaa86e3bfce02b9ee868a7f9fe2c", "fusion_lat": 0.0, "is_disabled": 0, "rental_uris": {"ios": "https://dc.lft.to/lastmile_qr_scan", "android": "https://dc.lft.to/lastmile_qr_scan"}}, {"name": "4c22bf2fe38acf6e73901e1c14d2cc89", "lon": -77.02004266666667, "lat": 38.90401466666667, "type": "electric_scooter", "fusion_lon": 0.0, "is_reserved": 0, "bike_id": "4c22bf2fe38acf6e73901e1c14d2cc89", "fusion_lat": 0.0, "is_disabled": 0, "rental_uris": {"ios": "https://dc.lft.to/lastmile_qr_scan", "android": "https://dc.lft.to/lastmile_qr_scan"}}, {"name": "4fc75423a9deb2c28bb7a6166ddd52bc", "lon": -76.99064566666667, "lat": 38.8635105, "type": "electric_scooter", "fusion_lon": 0.0, "is_reserved": 0, "bike_id": "4fc75423a9deb2c28bb7a6166ddd52bc", "fusion_lat": 0.0, "is_disabled": 0, "rental_uris": {"ios": "https://dc.lft.to/lastmile_qr_scan", "android": "https://dc.lft.to/lastmile_qr_scan"}}, {"name": "fc960e69ab75c44e6e7b83b8468e9463", "lon": -76.99508966666667, "lat": 38.86253383333333, "type": "electric_scooter", "fusion_lon": 0.0, "is_reserved": 0, "bike_id": "fc960e69ab75c44e6e7b83b8468e9463", "fusion_lat": 0.0, "is_disabled": 0, "rental_uris": {"ios": "https://dc.lft.to/lastmile_qr_scan", "android": "https://dc.lft.to/lastmile_qr_scan"}}, {"name": "23241e71decd828f2c8e32ba41bf0425", "lon": -77.02379683333334, "lat": 38.919925, "type": "electric_scooter", "fusion_lon": 0.0, "is_reserved": 0, "bike_id": "23241e71decd828f2c8e32ba41bf0425", "fusion_lat": 0.0, "is_disabled": 0, "rental_uris": {"ios": "https://dc.lft.to/lastmile_qr_scan", "android": "https://dc.lft.to/lastmile_qr_scan"}}, {"name": "6b449b293179664bebc9a61331135932", "lon": -77.00905416666667, "lat": 38.89556866666667, "type": "electric_scooter", "fusion_lon": 0.0, "is_reserved": 0, "bike_id": "6b449b293179664bebc9a61331135932", "fusion_lat": 0.0, "is_disabled": 0, "rental_uris": {"ios": "https://dc.lft.to/lastmile_qr_scan", "android": "https://dc.lft.to/lastmile_qr_scan"}}, {"name": "51d9a488cfc669767ae882ff07dac707", "lon": -77.0415135, "lat": 38.9195125, "type": "electric_scooter", "fusion_lon": 0.0, "is_reserved": 0, "bike_id": "51d9a488cfc669767ae882ff07dac707", "fusion_lat": 0.0, "is_disabled": 0, "rental_uris": {"ios": "https://dc.lft.to/lastmile_qr_scan", "android": "https://dc.lft.to/lastmile_qr_scan"}}, {"name": "8d16594b4f8756f2f1d420310d91f0eb", "lon": -77.04100783333334, "lat": 38.9279535, "type": "electric_scooter", "fusion_lon": 0.0, "is_reserved": 0, "bike_id": "8d16594b4f8756f2f1d420310d91f0eb", "fusion_lat": 0.0, "is_disabled": 0, "rental_uris": {"ios": "https://dc.lft.to/lastmile_qr_scan", "android": "https://dc.lft.to/lastmile_qr_scan"}}, {"name": "ddf6d781fa8434ffe742c4b2e1aa6224", "lon": -77.04475516666666, "lat": 38.908570166666664, "type": "electric_scooter", "fusion_lon": 0.0, "is_reserved": 0, "bike_id": "ddf6d781fa8434ffe742c4b2e1aa6224", "fusion_lat": 0.0, "is_disabled": 0, "rental_uris": {"ios": "https://dc.lft.to/lastmile_qr_scan", "android": "https://dc.lft.to/lastmile_qr_scan"}}, {"name": "84350f25cde43574d60f69398c543367", "lon": -77.013441, "lat": 38.89906666666667, "type": "electric_scooter", "fusion_lon": 0.0, "is_reserved": 0, "bike_id": "84350f25cde43574d60f69398c543367", "fusion_lat": 0.0, "is_disabled": 0, "rental_uris": {"ios": "https://dc.lft.to/lastmile_qr_scan", "android": "https://dc.lft.to/lastmile_qr_scan"}}, {"name": "5b94f17fa141a9896af4d9c1b87849b2", "lon": -77.02386766666666, "lat": 38.919585833333336, "type": "electric_scooter", "fusion_lon": 0.0, "is_reserved": 0, "bike_id": "5b94f17fa141a9896af4d9c1b87849b2", "fusion_lat": 0.0, "is_disabled": 0, "rental_uris": {"ios": "https://dc.lft.to/lastmile_qr_scan", "android": "https://dc.lft.to/lastmile_qr_scan"}}, {"name": "2abae90f4a35f0ba6fa7c27b21ac3b7c", "lon": -77.02397366666666, "lat": 38.89250216666667, "type": "electric_scooter", "fusion_lon": 0.0, "is_reserved": 0, "bike_id": "2abae90f4a35f0ba6fa7c27b21ac3b7c", "fusion_lat": 0.0, "is_disabled": 0, "rental_uris": {"ios": "https://dc.lft.to/lastmile_qr_scan", "android": "https://dc.lft.to/lastmile_qr_scan"}}, {"name": "09ebcda064ca4860f12808d66b579bc2", "lon": -77.023296, "lat": 38.93600566666667, "type": "electric_scooter", "fusion_lon": 0.0, "is_reserved": 0, "bike_id": "09ebcda064ca4860f12808d66b579bc2", "fusion_lat": 0.0, "is_disabled": 0, "rental_uris": {"ios": "https://dc.lft.to/lastmile_qr_scan", "android": "https://dc.lft.to/lastmile_qr_scan"}}, {"name": "84cc0e676a8dbfef1adf56ac66a6cdd3", "lon": -77.02952533333334, "lat": 38.904978, "type": "electric_scooter", "fusion_lon": 0.0, "is_reserved": 0, "bike_id": "84cc0e676a8dbfef1adf56ac66a6cdd3", "fusion_lat": 0.0, "is_disabled": 0, "rental_uris": {"ios": "https://dc.lft.to/lastmile_qr_scan", "android": "https://dc.lft.to/lastmile_qr_scan"}}, {"name": "c4a1c8cbbcc654616a81d4c62d4db2e0", "lon": -77.0229175, "lat": 38.9166345, "type": "electric_scooter", "fusion_lon": 0.0, "is_reserved": 0, "bike_id": "c4a1c8cbbcc654616a81d4c62d4db2e0", "fusion_lat": 0.0, "is_disabled": 0, "rental_uris": {"ios": "https://dc.lft.to/lastmile_qr_scan", "android": "https://dc.lft.to/lastmile_qr_scan"}}, {"name": "86adc599b41749f4b31a6dd3b6e45c23", "lon": -77.024707, "lat": 38.93298983333333, "type": "electric_scooter", "fusion_lon": 0.0, "is_reserved": 0, "bike_id": "86adc599b41749f4b31a6dd3b6e45c23", "fusion_lat": 0.0, "is_disabled": 0, "rental_uris": {"ios": "https://dc.lft.to/lastmile_qr_scan", "android": "https://dc.lft.to/lastmile_qr_scan"}}, {"name": "9a17b2ce469bdcf9c8bff3fdf663c545", "lon": -77.02925166666667, "lat": 38.898425, "type": "electric_scooter", "fusion_lon": 0.0, "is_reserved": 0, "bike_id": "9a17b2ce469bdcf9c8bff3fdf663c545", "fusion_lat": 0.0, "is_disabled": 0, "rental_uris": {"ios": "https://dc.lft.to/lastmile_qr_scan", "android": "https://dc.lft.to/lastmile_qr_scan"}}, {"name": "4a31bad2e97d2a3471bb72afc6b81f4e", "lon": -77.026944, "lat": 38.91345883333334, "type": "electric_scooter", "fusion_lon": 0.0, "is_reserved": 0, "bike_id": "4a31bad2e97d2a3471bb72afc6b81f4e", "fusion_lat": 0.0, "is_disabled": 0, "rental_uris": {"ios": "https://dc.lft.to/lastmile_qr_scan", "android": "https://dc.lft.to/lastmile_qr_scan"}}, {"name": "ed774f77453be896a9279130a5318b76", "lon": -77.043331, "lat": 38.90693366666667, "type": "electric_scooter", "fusion_lon": 0.0, "is_reserved": 0, "bike_id": "ed774f77453be896a9279130a5318b76", "fusion_lat": 0.0, "is_disabled": 0, "rental_uris": {"ios": "https://dc.lft.to/lastmile_qr_scan", "android": "https://dc.lft.to/lastmile_qr_scan"}}, {"name": "60c3e9195c1b11b5ef585e8920cd569d", "lon": -77.04552183333334, "lat": 38.9176685, "type": "electric_scooter", "fusion_lon": 0.0, "is_reserved": 0, "bike_id": "60c3e9195c1b11b5ef585e8920cd569d", "fusion_lat": 0.0, "is_disabled": 0, "rental_uris": {"ios": "https://dc.lft.to/lastmile_qr_scan", "android": "https://dc.lft.to/lastmile_qr_scan"}}, {"name": "154a8cf89a612c5246ba04e625c24ad0", "lon": -77.03633816666667, "lat": 38.922483666666665, "type": "electric_scooter", "fusion_lon": 0.0, "is_reserved": 0, "bike_id": "154a8cf89a612c5246ba04e625c24ad0", "fusion_lat": 0.0, "is_disabled": 0, "rental_uris": {"ios": "https://dc.lft.to/lastmile_qr_scan", "android": "https://dc.lft.to/lastmile_qr_scan"}}, {"name": "99a56ac08bc109e65afaf15b3ed2f195", "lon": -77.05037716666666, "lat": 38.900767333333334, "type": "electric_scooter", "fusion_lon": 0.0, "is_reserved": 0, "bike_id": "99a56ac08bc109e65afaf15b3ed2f195", "fusion_lat": 0.0, "is_disabled": 0, "rental_uris": {"ios": "https://dc.lft.to/lastmile_qr_scan", "android": "https://dc.lft.to/lastmile_qr_scan"}}, {"name": "0f6d82f0a3de71c2a1b38bcb6a4e89f1", "lon": -77.10130783333334, "lat": 38.8520625, "type": "electric_bike", "fusion_lon": 0.0, "is_reserved": 0, "bike_id": "0f6d82f0a3de71c2a1b38bcb6a4e89f1", "fusion_lat": 0.0, "is_disabled": 0, "rental_uris": {"ios": "https://dc.lft.to/lastmile_qr_scan", "android": "https://dc.lft.to/lastmile_qr_scan"}}, {"name": "b142f5ee8325c894e46e64de244a212d", "lon": -77.04834783333334, "lat": 38.904777333333335, "type": "electric_scooter", "fusion_lon": 0.0, "is_reserved": 0, "bike_id": "b142f5ee8325c894e46e64de244a212d", "fusion_lat": 0.0, "is_disabled": 0, "rental_uris": {"ios": "https://dc.lft.to/lastmile_qr_scan", "android": "https://dc.lft.to/lastmile_qr_scan"}}, {"name": "072bd1250a36de95ba32d7b22677ec11", "lon": -77.0554715, "lat": 38.907636333333336, "type": "electric_scooter", "fusion_lon": 0.0, "is_reserved": 0, "bike_id": "072bd1250a36de95ba32d7b22677ec11", "fusion_lat": 0.0, "is_disabled": 0, "rental_uris": {"ios": "https://dc.lft.to/lastmile_qr_scan", "android": "https://dc.lft.to/lastmile_qr_scan"}}, {"name": "2d42a04f25e3ef7fec52d5cf8e86b0ba", "lon": -77.01759333333334, "lat": 38.87708133333334, "type": "electric_scooter", "fusion_lon": 0.0, "is_reserved": 0, "bike_id": "2d42a04f25e3ef7fec52d5cf8e86b0ba", "fusion_lat": 0.0, "is_disabled": 0, "rental_uris": {"ios": "https://dc.lft.to/lastmile_qr_scan", "android": "https://dc.lft.to/lastmile_qr_scan"}}, {"name": "2e1277f66372b6a2738c9382c7bc92c4", "lon": -77.04767266666667, "lat": 38.917564666666664, "type": "electric_scooter", "fusion_lon": 0.0, "is_reserved": 0, "bike_id": "2e1277f66372b6a2738c9382c7bc92c4", "fusion_lat": 0.0, "is_disabled": 0, "rental_uris": {"ios": "https://dc.lft.to/lastmile_qr_scan", "android": "https://dc.lft.to/lastmile_qr_scan"}}, {"name": "932c69557cb8f5d8b82fe4908d2765ca", "lon": -77.0331445, "lat": 38.947123833333336, "type": "electric_scooter", "fusion_lon": 0.0, "is_reserved": 0, "bike_id": "932c69557cb8f5d8b82fe4908d2765ca", "fusion_lat": 0.0, "is_disabled": 0, "rental_uris": {"ios": "https://dc.lft.to/lastmile_qr_scan", "android": "https://dc.lft.to/lastmile_qr_scan"}}, {"name": "c89cb4958f32afe60597359be665274b", "lon": -77.08578933333334, "lat": 38.874215166666666, "type": "electric_bike", "fusion_lon": 0.0, "is_reserved": 0, "bike_id": "c89cb4958f32afe60597359be665274b", "fusion_lat": 0.0, "is_disabled": 0, "rental_uris": {"ios": "https://dc.lft.to/lastmile_qr_scan", "android": "https://dc.lft.to/lastmile_qr_scan"}}, {"name": "129ce543ad6f1a1ebb7b901b382975ce", "lon": -77.00382683333333, "lat": 38.923635166666664, "type": "electric_scooter", "fusion_lon": 0.0, "is_reserved": 0, "bike_id": "129ce543ad6f1a1ebb7b901b382975ce", "fusion_lat": 0.0, "is_disabled": 0, "rental_uris": {"ios": "https://dc.lft.to/lastmile_qr_scan", "android": "https://dc.lft.to/lastmile_qr_scan"}}, {"name": "b773bdd50f5cfc002318c548f9c0443a", "lon": -76.93185216666667, "lat": 38.898762833333336, "type": "electric_scooter", "fusion_lon": 0.0, "is_reserved": 0, "bike_id": "b773bdd50f5cfc002318c548f9c0443a", "fusion_lat": 0.0, "is_disabled": 0, "rental_uris": {"ios": "https://dc.lft.to/lastmile_qr_scan", "android": "https://dc.lft.to/lastmile_qr_scan"}}, {"name": "65d2555aa41cfecc81b131d32821f80c", "lon": -77.02366633333334, "lat": 38.89219833333333, "type": "electric_scooter", "fusion_lon": 0.0, "is_reserved": 0, "bike_id": "65d2555aa41cfecc81b131d32821f80c", "fusion_lat": 0.0, "is_disabled": 0, "rental_uris": {"ios": "https://dc.lft.to/lastmile_qr_scan", "android": "https://dc.lft.to/lastmile_qr_scan"}}, {"name": "6d7370662a5d4afcca82a2f74e6f5c57", "lon": -77.03347383333333, "lat": 38.90704866666667, "type": "electric_scooter", "fusion_lon": 0.0, "is_reserved": 0, "bike_id": "6d7370662a5d4afcca82a2f74e6f5c57", "fusion_lat": 0.0, "is_disabled": 0, "rental_uris": {"ios": "https://dc.lft.to/lastmile_qr_scan", "android": "https://dc.lft.to/lastmile_qr_scan"}}, {"name": "6b7653e6b31faae6b62e91e4a9a84b97", "lon": -77.034728, "lat": 38.9071925, "type": "electric_scooter", "fusion_lon": 0.0, "is_reserved": 0, "bike_id": "6b7653e6b31faae6b62e91e4a9a84b97", "fusion_lat": 0.0, "is_disabled": 0, "rental_uris": {"ios": "https://dc.lft.to/lastmile_qr_scan", "android": "https://dc.lft.to/lastmile_qr_scan"}}, {"name": "11ef185192ac72db2764667a873efe51", "lon": -76.97329466666666, "lat": 38.90409733333333, "type": "electric_scooter", "fusion_lon": 0.0, "is_reserved": 0, "bike_id": "11ef185192ac72db2764667a873efe51", "fusion_lat": 0.0, "is_disabled": 0, "rental_uris": {"ios": "https://dc.lft.to/lastmile_qr_scan", "android": "https://dc.lft.to/lastmile_qr_scan"}}, {"name": "795078bf9b9d23103d6a049cdee6e1d9", "lon": -77.02482983333333, "lat": 38.93853416666666, "type": "electric_scooter", "fusion_lon": 0.0, "is_reserved": 0, "bike_id": "795078bf9b9d23103d6a049cdee6e1d9", "fusion_lat": 0.0, "is_disabled": 0, "rental_uris": {"ios": "https://dc.lft.to/lastmile_qr_scan", "android": "https://dc.lft.to/lastmile_qr_scan"}}, {"name": "00c1aee223065323f011bf3aa4f17746", "lon": -76.98361366666667, "lat": 38.91532466666666, "type": "electric_scooter", "fusion_lon": 0.0, "is_reserved": 0, "bike_id": "00c1aee223065323f011bf3aa4f17746", "fusion_lat": 0.0, "is_disabled": 0, "rental_uris": {"ios": "https://dc.lft.to/lastmile_qr_scan", "android": "https://dc.lft.to/lastmile_qr_scan"}}, {"name": "bd9a9356cb2b722bafeda132f54dc907", "lon": -77.052417, "lat": 38.923580666666666, "type": "electric_scooter", "fusion_lon": 0.0, "is_reserved": 0, "bike_id": "bd9a9356cb2b722bafeda132f54dc907", "fusion_lat": 0.0, "is_disabled": 0, "rental_uris": {"ios": "https://dc.lft.to/lastmile_qr_scan", "android": "https://dc.lft.to/lastmile_qr_scan"}}, {"name": "44a50ae0b10cbcd6cad9b38d382e8ccf", "lon": -77.03048133333333, "lat": 38.9266355, "type": "electric_scooter", "fusion_lon": 0.0, "is_reserved": 0, "bike_id": "44a50ae0b10cbcd6cad9b38d382e8ccf", "fusion_lat": 0.0, "is_disabled": 0, "rental_uris": {"ios": "https://dc.lft.to/lastmile_qr_scan", "android": "https://dc.lft.to/lastmile_qr_scan"}}, {"name": "13e7ad3bc7d101965085a8b8e7f1c5c3", "lon": -77.03516533333334, "lat": 38.92150733333333, "type": "electric_scooter", "fusion_lon": 0.0, "is_reserved": 0, "bike_id": "13e7ad3bc7d101965085a8b8e7f1c5c3", "fusion_lat": 0.0, "is_disabled": 0, "rental_uris": {"ios": "https://dc.lft.to/lastmile_qr_scan", "android": "https://dc.lft.to/lastmile_qr_scan"}}, {"name": "9a82f6efb13e9e0be96d1b04d575bd28", "lon": -77.03212666666667, "lat": 38.91900716666667, "type": "electric_scooter", "fusion_lon": 0.0, "is_reserved": 0, "bike_id": "9a82f6efb13e9e0be96d1b04d575bd28", "fusion_lat": 0.0, "is_disabled": 0, "rental_uris": {"ios": "https://dc.lft.to/lastmile_qr_scan", "android": "https://dc.lft.to/lastmile_qr_scan"}}, {"name": "bb30ac79f3072aafc8cc907ea0535f79", "lon": -77.02787583333334, "lat": 38.953906833333335, "type": "electric_scooter", "fusion_lon": 0.0, "is_reserved": 0, "bike_id": "bb30ac79f3072aafc8cc907ea0535f79", "fusion_lat": 0.0, "is_disabled": 0, "rental_uris": {"ios": "https://dc.lft.to/lastmile_qr_scan", "android": "https://dc.lft.to/lastmile_qr_scan"}}, {"name": "d2f4991c32d89ebb2caeffe46b70174c", "lon": -77.05120933333333, "lat": 38.92342933333333, "type": "electric_scooter", "fusion_lon": 0.0, "is_reserved": 0, "bike_id": "d2f4991c32d89ebb2caeffe46b70174c", "fusion_lat": 0.0, "is_disabled": 0, "rental_uris": {"ios": "https://dc.lft.to/lastmile_qr_scan", "android": "https://dc.lft.to/lastmile_qr_scan"}}, {"name": "6b997c708cbc7afaff9f44b943a3d956", "lon": -77.0209895, "lat": 38.92176416666667, "type": "electric_scooter", "fusion_lon": 0.0, "is_reserved": 0, "bike_id": "6b997c708cbc7afaff9f44b943a3d956", "fusion_lat": 0.0, "is_disabled": 0, "rental_uris": {"ios": "https://dc.lft.to/lastmile_qr_scan", "android": "https://dc.lft.to/lastmile_qr_scan"}}, {"name": "a23fb21c7c0ee111298870ae9cee85d0", "lon": -77.012302, "lat": 38.931075, "type": "electric_scooter", "fusion_lon": 0.0, "is_reserved": 0, "bike_id": "a23fb21c7c0ee111298870ae9cee85d0", "fusion_lat": 0.0, "is_disabled": 0, "rental_uris": {"ios": "https://dc.lft.to/lastmile_qr_scan", "android": "https://dc.lft.to/lastmile_qr_scan"}}, {"name": "1429bc3e8b9666103d7aa9854e1c62c4", "lon": -76.99775333333334, "lat": 38.84426233333333, "type": "electric_scooter", "fusion_lon": 0.0, "is_reserved": 0, "bike_id": "1429bc3e8b9666103d7aa9854e1c62c4", "fusion_lat": 0.0, "is_disabled": 0, "rental_uris": {"ios": "https://dc.lft.to/lastmile_qr_scan", "android": "https://dc.lft.to/lastmile_qr_scan"}}, {"name": "302e28eeb9b3f53bcf7886b52b00113d", "lon": -77.0374835, "lat": 38.92909216666666, "type": "electric_scooter", "fusion_lon": 0.0, "is_reserved": 0, "bike_id": "302e28eeb9b3f53bcf7886b52b00113d", "fusion_lat": 0.0, "is_disabled": 0, "rental_uris": {"ios": "https://dc.lft.to/lastmile_qr_scan", "android": "https://dc.lft.to/lastmile_qr_scan"}}, {"name": "179724f84d5363121dee02ebc8cbacaf", "lon": -76.97823133333333, "lat": 38.843677, "type": "electric_bike", "fusion_lon": 0.0, "is_reserved": 0, "bike_id": "179724f84d5363121dee02ebc8cbacaf", "fusion_lat": 0.0, "is_disabled": 0, "rental_uris": {"ios": "https://dc.lft.to/lastmile_qr_scan", "android": "https://dc.lft.to/lastmile_qr_scan"}}, {"name": "b3afbed14ab1efea1d42011e28edb764", "lon": -77.02081466666667, "lat": 38.92121683333333, "type": "electric_scooter", "fusion_lon": 0.0, "is_reserved": 0, "bike_id": "b3afbed14ab1efea1d42011e28edb764", "fusion_lat": 0.0, "is_disabled": 0, "rental_uris": {"ios": "https://dc.lft.to/lastmile_qr_scan", "android": "https://dc.lft.to/lastmile_qr_scan"}}, {"name": "c4e6590ff58d623e57dc8f02b3c503a5", "lon": -76.94380633333333, "lat": 38.893213, "type": "electric_scooter", "fusion_lon": 0.0, "is_reserved": 0, "bike_id": "c4e6590ff58d623e57dc8f02b3c503a5", "fusion_lat": 0.0, "is_disabled": 0, "rental_uris": {"ios": "https://dc.lft.to/lastmile_qr_scan", "android": "https://dc.lft.to/lastmile_qr_scan"}}, {"name": "320c5b10d940eb4f88b25138ca81c331", "lon": -76.97444066666667, "lat": 38.90444433333333, "type": "electric_scooter", "fusion_lon": 0.0, "is_reserved": 0, "bike_id": "320c5b10d940eb4f88b25138ca81c331", "fusion_lat": 0.0, "is_disabled": 0, "rental_uris": {"ios": "https://dc.lft.to/lastmile_qr_scan", "android": "https://dc.lft.to/lastmile_qr_scan"}}, {"name": "0445a94c091bb13001bf183dceb89aba", "lon": -76.949589, "lat": 38.89436033333333, "type": "electric_scooter", "fusion_lon": 0.0, "is_reserved": 0, "bike_id": "0445a94c091bb13001bf183dceb89aba", "fusion_lat": 0.0, "is_disabled": 0, "rental_uris": {"ios": "https://dc.lft.to/lastmile_qr_scan", "android": "https://dc.lft.to/lastmile_qr_scan"}}, {"name": "a4b0a03aa627e3050c51b1284aa18f1f", "lon": -77.07306333333334, "lat": 38.864832666666665, "type": "electric_bike", "fusion_lon": 0.0, "is_reserved": 0, "bike_id": "a4b0a03aa627e3050c51b1284aa18f1f", "fusion_lat": 0.0, "is_disabled": 0, "rental_uris": {"ios": "https://dc.lft.to/lastmile_qr_scan", "android": "https://dc.lft.to/lastmile_qr_scan"}}, {"name": "5762f0735d96c1fb24ae51631aa45f5f", "lon": -76.937513, "lat": 38.89044616666666, "type": "electric_scooter", "fusion_lon": 0.0, "is_reserved": 0, "bike_id": "5762f0735d96c1fb24ae51631aa45f5f", "fusion_lat": 0.0, "is_disabled": 0, "rental_uris": {"ios": "https://dc.lft.to/lastmile_qr_scan", "android": "https://dc.lft.to/lastmile_qr_scan"}}, {"name": "397bc08c57ea9aaaa345f3d973092964", "lon": -77.03210033333333, "lat": 38.919018, "type": "electric_scooter", "fusion_lon": 0.0, "is_reserved": 0, "bike_id": "397bc08c57ea9aaaa345f3d973092964", "fusion_lat": 0.0, "is_disabled": 0, "rental_uris": {"ios": "https://dc.lft.to/lastmile_qr_scan", "android": "https://dc.lft.to/lastmile_qr_scan"}}, {"name": "d872a67f7d872c15569c82ac4e181a17", "lon": -77.03884466666666, "lat": 38.932492, "type": "electric_scooter", "fusion_lon": 0.0, "is_reserved": 0, "bike_id": "d872a67f7d872c15569c82ac4e181a17", "fusion_lat": 0.0, "is_disabled": 0, "rental_uris": {"ios": "https://dc.lft.to/lastmile_qr_scan", "android": "https://dc.lft.to/lastmile_qr_scan"}}, {"name": "c0d2dfb0f0cc0990ea785cd34a726ad6", "lon": -77.03195116666667, "lat": 38.896762, "type": "electric_scooter", "fusion_lon": 0.0, "is_reserved": 0, "bike_id": "c0d2dfb0f0cc0990ea785cd34a726ad6", "fusion_lat": 0.0, "is_disabled": 0, "rental_uris": {"ios": "https://dc.lft.to/lastmile_qr_scan", "android": "https://dc.lft.to/lastmile_qr_scan"}}, {"name": "43a93afdec75ca9f27224ee32ed8636d", "lon": -77.00782033333333, "lat": 38.90728166666667, "type": "electric_scooter", "fusion_lon": 0.0, "is_reserved": 0, "bike_id": "43a93afdec75ca9f27224ee32ed8636d", "fusion_lat": 0.0, "is_disabled": 0, "rental_uris": {"ios": "https://dc.lft.to/lastmile_qr_scan", "android": "https://dc.lft.to/lastmile_qr_scan"}}, {"name": "2a333093aab1cdb10b7362888c6e1f7c", "lon": -77.02182483333333, "lat": 38.898673, "type": "electric_scooter", "fusion_lon": 0.0, "is_reserved": 0, "bike_id": "2a333093aab1cdb10b7362888c6e1f7c", "fusion_lat": 0.0, "is_disabled": 0, "rental_uris": {"ios": "https://dc.lft.to/lastmile_qr_scan", "android": "https://dc.lft.to/lastmile_qr_scan"}}, {"name": "1e8c027aaddde79314dd6f60247d9d01", "lon": -77.043376, "lat": 38.917800666666665, "type": "electric_scooter", "fusion_lon": 0.0, "is_reserved": 0, "bike_id": "1e8c027aaddde79314dd6f60247d9d01", "fusion_lat": 0.0, "is_disabled": 0, "rental_uris": {"ios": "https://dc.lft.to/lastmile_qr_scan", "android": "https://dc.lft.to/lastmile_qr_scan"}}, {"name": "6bc1045907d9b41e5839a6aaf5694533", "lon": -77.024376, "lat": 38.90973183333333, "type": "electric_scooter", "fusion_lon": 0.0, "is_reserved": 0, "bike_id": "6bc1045907d9b41e5839a6aaf5694533", "fusion_lat": 0.0, "is_disabled": 0, "rental_uris": {"ios": "https://dc.lft.to/lastmile_qr_scan", "android": "https://dc.lft.to/lastmile_qr_scan"}}, {"name": "5d6ed185310fef004f7070ab5b41a6e6", "lon": -77.00889316666667, "lat": 38.92482783333333, "type": "electric_scooter", "fusion_lon": 0.0, "is_reserved": 0, "bike_id": "5d6ed185310fef004f7070ab5b41a6e6", "fusion_lat": 0.0, "is_disabled": 0, "rental_uris": {"ios": "https://dc.lft.to/lastmile_qr_scan", "android": "https://dc.lft.to/lastmile_qr_scan"}}, {"name": "0dc96463aa97eb62e1d3fd8126dabb7d", "lon": -77.07146933333334, "lat": 38.92038, "type": "electric_scooter", "fusion_lon": 0.0, "is_reserved": 0, "bike_id": "0dc96463aa97eb62e1d3fd8126dabb7d", "fusion_lat": 0.0, "is_disabled": 0, "rental_uris": {"ios": "https://dc.lft.to/lastmile_qr_scan", "android": "https://dc.lft.to/lastmile_qr_scan"}}, {"name": "2fa64a36cea80907e963bf4267584329", "lon": -77.0402165, "lat": 38.923509333333335, "type": "electric_scooter", "fusion_lon": 0.0, "is_reserved": 0, "bike_id": "2fa64a36cea80907e963bf4267584329", "fusion_lat": 0.0, "is_disabled": 0, "rental_uris": {"ios": "https://dc.lft.to/lastmile_qr_scan", "android": "https://dc.lft.to/lastmile_qr_scan"}}, {"name": "e0ef0085371aa439d6340f9957247830", "lon": -76.969412, "lat": 38.897474, "type": "electric_bike", "fusion_lon": 0.0, "is_reserved": 0, "bike_id": "e0ef0085371aa439d6340f9957247830", "fusion_lat": 0.0, "is_disabled": 0, "rental_uris": {"ios": "https://dc.lft.to/lastmile_qr_scan", "android": "https://dc.lft.to/lastmile_qr_scan"}}, {"name": "4f51b1c168573b365675e702b8b8da15", "lon": -77.03315183333333, "lat": 38.903487166666665, "type": "electric_scooter", "fusion_lon": 0.0, "is_reserved": 0, "bike_id": "4f51b1c168573b365675e702b8b8da15", "fusion_lat": 0.0, "is_disabled": 0, "rental_uris": {"ios": "https://dc.lft.to/lastmile_qr_scan", "android": "https://dc.lft.to/lastmile_qr_scan"}}, {"name": "bcd0e27646e4db4a70f6b0d5a8c3e1c2", "lon": -77.002591, "lat": 38.922389333333335, "type": "electric_scooter", "fusion_lon": 0.0, "is_reserved": 0, "bike_id": "bcd0e27646e4db4a70f6b0d5a8c3e1c2", "fusion_lat": 0.0, "is_disabled": 0, "rental_uris": {"ios": "https://dc.lft.to/lastmile_qr_scan", "android": "https://dc.lft.to/lastmile_qr_scan"}}, {"name": "ce1a186494e65c3f7419649674ac8860", "lon": -76.99420983333333, "lat": 38.9211635, "type": "electric_scooter", "fusion_lon": 0.0, "is_reserved": 0, "bike_id": "ce1a186494e65c3f7419649674ac8860", "fusion_lat": 0.0, "is_disabled": 0, "rental_uris": {"ios": "https://dc.lft.to/lastmile_qr_scan", "android": "https://dc.lft.to/lastmile_qr_scan"}},