{"data": {"bikes": [{"rental_uris": {"ios": "https://dc.lft.to/lastmile_qr_scan", "android": "https://dc.lft.to/lastmile_qr_scan"}, "is_reserved": 0, "fusion_lat": 0.0, "type": "electric_scooter", "bike_id": "870dbd2a2e5ad1920b71415523c81ae7", "is_disabled": 0, "lon": -77.02266916666666, "fusion_lon": 0.0, "name": "870dbd2a2e5ad1920b71415523c81ae7", "lat": 38.924716833333335}, {"rental_uris": {"ios": "https://dc.lft.to/lastmile_qr_scan", "android": "https://dc.lft.to/lastmile_qr_scan"}, "is_reserved": 0, "fusion_lat": 0.0, "type": "electric_scooter", "bike_id": "802889e5a25f4593522a1ff665275be0", "is_disabled": 0, "lon": -77.03562066666667, "fusion_lon": 0.0, "name": "802889e5a25f4593522a1ff665275be0", "lat": 38.9015145}, {"rental_uris": {"ios": "https://dc.lft.to/lastmile_qr_scan", "android": "https://dc.lft.to/lastmile_qr_scan"}, "is_reserved": 0, "fusion_lat": 0.0, "type": "electric_scooter", "bike_id": "023fbad8b59f9c1eaffadfaf788552bc", "is_disabled": 0, "lon": -77.03639766666667, "fusion_lon": 0.0, "name": "023fbad8b59f9c1eaffadfaf788552bc", "lat": 38.92575933333333}, {"rental_uris": {"ios": "https://dc.lft.to/lastmile_qr_scan", "android": "https://dc.lft.to/lastmile_qr_scan"}, "is_reserved": 0, "fusion_lat": 0.0, "type": "electric_scooter", "bike_id": "96a0a33880974313f98253767b8f1ab8", "is_disabled": 0, "lon": -76.9334095, "fusion_lon": 0.0, "name": "96a0a33880974313f98253767b8f1ab8", "lat": 38.90867766666667}, {"rental_uris": {"ios": "https://dc.lft.to/lastmile_qr_scan", "android": "https://dc.lft.to/lastmile_qr_scan"}, "is_reserved": 0, "fusion_lat": 0.0, "type": "electric_scooter", "bike_id": "f0ea44685f297348afa9108c3c697a34", "is_disabled": 0, "lon": -77.03496016666666, "fusion_lon": 0.0, "name": "f0ea44685f297348afa9108c3c697a34", "lat": 38.921512}, {"rental_uris": {"ios": "https://dc.lft.to/lastmile_qr_scan", "android": "https://dc.lft.to/lastmile_qr_scan"}, "is_reserved": 0, "fusion_lat": 0.0, "type": "electric_scooter", "bike_id": "085a98686a51bd7131577c0b58bb7905", "is_disabled": 0, "lon": -77.031796, "fusion_lon": 0.0, "name": "085a98686a51bd7131577c0b58bb7905", "lat": 38.910236833333336}, {"rental_uris": {"ios": "https://dc.lft.to/lastmile_qr_scan", "android": "https://dc.lft.to/lastmile_qr_scan"}, "is_reserved": 0, "fusion_lat": 0.0, "type": "electric_scooter", "bike_id": "db260d64d81e56b21c49f338da33d8c5", "is_disabled": 0, "lon": -77.01517833333334, "fusion_lon": 0.0, "name": "db260d64d81e56b21c49f338da33d8c5", "lat": 38.88531716666667}, {"rental_uris": {"ios": "https://dc.lft.to/lastmile_qr_scan", "android": "https://dc.lft.to/lastmile_qr_scan"}, "is_reserved": 0, "fusion_lat": 0.0, "type": "electric_scooter", "bike_id": "6dd79eaff1d298d3c4594bc3e2077f1a", "is_disabled": 0, "lon": -77.00476233333333, "fusion_lon": 0.0, "name": "6dd79eaff1d298d3c4594bc3e2077f1a", "lat": 38.88050166666667}, {"rental_uris": {"ios": "https://dc.lft.to/lastmile_qr_scan", "android": "https://dc.lft.to/lastmile_qr_scan"}, "is_reserved": 0, "fusion_lat": 0.0, "type": "electric_scooter", "bike_id": "04828d1de6b503fa0faede1b12a83438", "is_disabled": 0, "lon": -77.02740366666667, "fusion_lon": 0.0, "name": "04828d1de6b503fa0faede1b12a83438", "lat": 38.927706666666666}, {"rental_uris": {"ios": "https://dc.lft.to/lastmile_qr_scan", "android": "https://dc.lft.to/lastmile_qr_scan"}, "is_reserved": 0, "fusion_lat": 0.0, "type": "electric_scooter", "bike_id": "90360ce6f690cea2bdf24672b9c88f9c", "is_disabled": 0, "lon": -77.009277, "fusion_lon": 0.0, "name": "90360ce6f690cea2bdf24672b9c88f9c", "lat": 38.897291333333335}, {"rental_uris": {"ios": "https://dc.lft.to/lastmile_qr_scan", "android": "https://dc.lft.to/lastmile_qr_scan"}, "is_reserved": 0, "fusion_lat": 0.0, "type": "electric_scooter", "bike_id": "3153c9aae64df8c38f4b930cd16e758b", "is_disabled": 0, "lon": -77.031996, "fusion_lon": 0.0, "name": "3153c9aae64df8c38f4b930cd16e758b", "lat": 38.9154825}, {"rental_uris": {"ios": "https://dc.lft.to/lastmile_qr_scan", "android": "https://dc.lft.to/lastmile_qr_scan"}, "is_reserved": 0, "fusion_lat": 0.0, "type": "electric_scooter", "bike_id": "537b85578d74eb6d54d08fbf111efad8", "is_disabled": 0, "lon": -76.9963515, "fusion_lon": 0.0, "name": "537b85578d74eb6d54d08fbf111efad8", "lat": 38.905287333333334}, {"rental_uris": {"ios": "https://dc.lft.to/lastmile_qr_scan", "android": "https://dc.lft.to/lastmile_qr_scan"}, "is_reserved": 0, "fusion_lat": 0.0, "type": "electric_scooter", "bike_id": "37214d225d00000ae9f2dce7b17bda5f", "is_disabled": 0, "lon": -77.03730983333334, "fusion_lon": 0.0, "name": "37214d225d00000ae9f2dce7b17bda5f", "lat": 38.926581666666664}, {"rental_uris": {"ios": "https://dc.lft.to/lastmile_qr_scan", "android": "https://dc.lft.to/lastmile_qr_scan"}, "is_reserved": 0, "fusion_lat": 0.0, "type": "electric_scooter", "bike_id": "9ad407480dbaa64b29095c26c40e9c78", "is_disabled": 0, "lon": -77.0234625, "fusion_lon": 0.0, "name": "9ad407480dbaa64b29095c26c40e9c78", "lat": 38.92057466666667}, {"rental_uris": {"ios": "https://dc.lft.to/lastmile_qr_scan", "android": "https://dc.lft.to/lastmile_qr_scan"}, "is_reserved": 0, "fusion_lat": 0.0, "type": "electric_bike", "bike_id": "61536452001272a92253eaec3270b40a", "is_disabled": 0, "lon": -77.02839033333333, "fusion_lon": 0.0, "name": "61536452001272a92253eaec3270b40a", "lat": 38.921425}, {"rental_uris": {"ios": "https://dc.lft.to/lastmile_qr_scan", "android": "https://dc.lft.to/lastmile_qr_scan"}, "is_reserved": 0, "fusion_lat": 0.0, "type": "electric_scooter", "bike_id": "218893ea591123d579f92a1372f17ec2", "is_disabled": 0, "lon": -77.02325416666666, "fusion_lon": 0.0, "name": "218893ea591123d579f92a1372f17ec2", "lat": 38.917015166666665}, {"rental_uris": {"ios": "https://dc.lft.to/lastmile_qr_scan", "android": "https://dc.lft.to/lastmile_qr_scan"}, "is_reserved": 0, "fusion_lat": 0.0, "type": "electric_scooter", "bike_id": "021dbb7f672927dccceebd60b7fbef30", "is_disabled": 0, "lon": -77.0229525, "fusion_lon": 0.0, "name": "021dbb7f672927dccceebd60b7fbef30", "lat": 38.917161166666666}, {"rental_uris": {"ios": "https://dc.lft.to/lastmile_qr_scan", "android": "https://dc.lft.to/lastmile_qr_scan"}, "is_reserved": 0, "fusion_lat": 0.0, "type": "electric_scooter", "bike_id": "d932aca6d07d1bf5499460f806760428", "is_disabled": 0, "lon": -77.02387716666667, "fusion_lon": 0.0, "name": "d932aca6d07d1bf5499460f806760428", "lat": 38.919872166666664}, {"rental_uris": {"ios": "https://dc.lft.to/lastmile_qr_scan", "android": "https://dc.lft.to/lastmile_qr_scan"}, "is_reserved": 0, "fusion_lat": 0.0, "type": "electric_bike", "bike_id": "5a1bbe0ae7a2fb240d3f8de8135ac8bb", "is_disabled": 0, "lon": -77.13155733333333, "fusion_lon": 0.0, "name": "5a1bbe0ae7a2fb240d3f8de8135ac8bb", "lat": 38.869450666666665}, {"rental_uris": {"ios": "https://dc.lft.to/lastmile_qr_scan", "android": "https://dc.lft.to/lastmile_qr_scan"}, "is_reserved": 0, "fusion_lat": 0.0, "type": "electric_scooter", "bike_id": "33e27bb407391cf24e76e2ef03f4170f", "is_disabled": 0, "lon": -77.05757916666667, "fusion_lon": 0.0, "name": "33e27bb407391cf24e76e2ef03f4170f", "lat": 38.9250675}, {"rental_uris": {"ios": "https://dc.lft.to/lastmile_qr_scan", "android": "https://dc.lft.to/lastmile_qr_scan"}, "is_reserved": 0, "fusion_lat": 0.0, "type": "electric_bike", "bike_id": "33a580e690afaa6dbee94f8599bad02a", "is_disabled": 0, "lon": -77.21125983333333, "fusion_lon": 0.0, "name": "33a580e690afaa6dbee94f8599bad02a", "lat": 38.874932666666666}, {"rental_uris": {"ios": "https://dc.lft.to/lastmile_qr_scan", "android": "https://dc.lft.to/lastmile_qr_scan"}, "is_reserved": 0, "fusion_lat": 0.0, "type": "electric_bike", "bike_id": "0927cacceaef08063d8f0bf9759d43b7", "is_disabled": 0, "lon": -76.90732516666667, "fusion_lon": 0.0, "name": "0927cacceaef08063d8f0bf9759d43b7", "lat": 38.896205333333334}, {"rental_uris": {"ios": "https://dc.lft.to/lastmile_qr_scan", "android": "https://dc.lft.to/lastmile_qr_scan"}, "is_reserved": 0, "fusion_lat": 0.0, "type": "electric_scooter", "bike_id": "de9d45784ffc92ead18adbdbd75e3fc2", "is_disabled": 0, "lon": -76.99801, "fusion_lon": 0.0, "name": "de9d45784ffc92ead18adbdbd75e3fc2", "lat": 38.90853766666667}, {"rental_uris": {"ios": "https://dc.lft.to/lastmile_qr_scan", "android": "https://dc.lft.to/lastmile_qr_scan"}, "is_reserved": 0, "fusion_lat": 0.0, "type": "electric_bike", "bike_id": "841bbd01c6718a9040645fd83982b64b", "is_disabled": 0, "lon": -76.93481483333333, "fusion_lon": 0.0, "name": "841bbd01c6718a9040645fd83982b64b", "lat": 38.891020833333336}, {"rental_uris": {"ios": "https://dc.lft.to/lastmile_qr_scan", "android": "https://dc.lft.to/lastmile_qr_scan"}, "is_reserved": 0, "fusion_lat": 0.0, "type": "electric_scooter", "bike_id": "2bb57528d0873317029a6b0411ea5b59", "is_disabled": 0, "lon": -77.0316545, "fusion_lon": 0.0, "name": "2bb57528d0873317029a6b0411ea5b59", "lat": 38.901223}, {"rental_uris": {"ios": "https://dc.lft.to/lastmile_qr_scan", "android": "https://dc.lft.to/lastmile_qr_scan"}, "is_reserved": 0, "fusion_lat": 0.0, "type": "electric_bike", "bike_id": "d1c9679ddd25b9010930e1e59884d4df", "is_disabled": 0, "lon": -77.085658, "fusion_lon": 0.0, "name": "d1c9679ddd25b9010930e1e59884d4df", "lat": 38.8742685}, {"rental_uris": {"ios": "https://dc.lft.to/lastmile_qr_scan", "android": "https://dc.lft.to/lastmile_qr_scan"}, "is_reserved": 0, "fusion_lat": 0.0, "type": "electric_bike", "bike_id": "c124a580ebf8a243f639c9cb52261bea", "is_disabled": 0, "lon": -76.96912233333333, "fusion_lon": 0.0, "name": "c124a580ebf8a243f639c9cb52261bea", "lat": 38.846166}, {"rental_uris": {"ios": "https://dc.lft.to/lastmile_qr_scan", "android": "https://dc.lft.to/lastmile_qr_scan"}, "is_reserved": 0, "fusion_lat": 0.0, "type": "electric_scooter", "bike_id": "e999e4f0072ce65960ba861c312b6c27", "is_disabled": 0, "lon": -77.02095933333334, "fusion_lon": 0.0, "name": "e999e4f0072ce65960ba861c312b6c27", "lat": 38.932661333333336}, {"rental_uris": {"ios": "https://dc.lft.to/lastmile_qr_scan", "android": "https://dc.lft.to/lastmile_qr_scan"}, "is_reserved": 0, "fusion_lat": 0.0, "type": "electric_bike", "bike_id": "52368a4ee19a98e8c3ecd4f3452344ed", "is_disabled": 0, "lon": -77.01047583333333, "fusion_lon": 0.0, "name": "52368a4ee19a98e8c3ecd4f3452344ed", "lat": 38.920187166666665}, {"rental_uris": {"ios": "https://dc.lft.to/lastmile_qr_scan", "android": "https://dc.lft.to/lastmile_qr_scan"}, "is_reserved": 0, "fusion_lat": 0.0, "type": "electric_scooter", "bike_id": "7f27acf0903b7e25eeb27c916413f465", "is_disabled": 0, "lon": -76.92901933333333, "fusion_lon": 0.0, "name": "7f27acf0903b7e25eeb27c916413f465", "lat": 38.90181583333333}, {"rental_uris": {"ios": "https://dc.lft.to/lastmile_qr_scan", "android": "https://dc.lft.to/lastmile_qr_scan"}, "is_reserved": 0, "fusion_lat": 0.0, "type": "electric_scooter", "bike_id": "c1e56838a1da6c2a6c0ebb7be831363f", "is_disabled": 0, "lon": -77.04101583333333, "fusion_lon": 0.0, "name": "c1e56838a1da6c2a6c0ebb7be831363f", "lat": 38.917744666666664}, {"rental_uris": {"ios": "https://dc.lft.to/lastmile_qr_scan", "android": "https://dc.lft.to/lastmile_qr_scan"}, "is_reserved": 0, "fusion_lat": 0.0, "type": "electric_scooter", "bike_id": "36aa5c45564fc6b709abd778fbdf4cbb", "is_disabled": 0, "lon": -77.01798183333334, "fusion_lon": 0.0, "name": "36aa5c45564fc6b709abd778fbdf4cbb", "lat": 38.8874655}, {"rental_uris": {"ios": "https://dc.lft.to/lastmile_qr_scan", "android": "https://dc.lft.to/lastmile_qr_scan"}, "is_reserved": 0, "fusion_lat": 0.0, "type": "electric_scooter", "bike_id": "0e5c87b41facef019cacae394468cb00", "is_disabled": 0, "lon": -76.99479883333333, "fusion_lon": 0.0, "name": "0e5c87b41facef019cacae394468cb00", "lat": 38.882702}, {"rental_uris": {"ios": "https://dc.lft.to/lastmile_qr_scan", "android": "https://dc.lft.to/lastmile_qr_scan"}, "is_reserved": 0, "fusion_lat": 0.0, "type": "electric_scooter", "bike_id": "776128f7a9e6efab46d07b63a2613346", "is_disabled": 0, "lon": -77.00201883333334, "fusion_lon": 0.0, "name": "776128f7a9e6efab46d07b63a2613346", "lat": 38.902392666666664}, {"rental_uris": {"ios": "https://dc.lft.to/lastmile_qr_scan", "android": "https://dc.lft.to/lastmile_qr_scan"}, "is_reserved": 0, "fusion_lat": 0.0, "type": "electric_scooter", "bike_id": "107b29051b0aaf6c39ad92b6a444925d", "is_disabled": 0, "lon": -77.01569616666667, "fusion_lon": 0.0, "name": "107b29051b0aaf6c39ad92b6a444925d", "lat": 38.89995183333333}, {"rental_uris": {"ios": "https://dc.lft.to/lastmile_qr_scan", "android": "https://dc.lft.to/lastmile_qr_scan"}, "is_reserved": 0, "fusion_lat": 0.0, "type": "electric_scooter", "bike_id": "c9104afd39499ad6e9d0f6ce7d0ebcf7", "is_disabled": 0, "lon": -77.0480685, "fusion_lon": 0.0, "name": "c9104afd39499ad6e9d0f6ce7d0ebcf7", "lat": 38.89223916666667}, {"rental_uris": {"ios": "https://dc.lft.to/lastmile_qr_scan", "android": "https://dc.lft.to/lastmile_qr_scan"}, "is_reserved": 0, "fusion_lat": 0.0, "type": "electric_scooter", "bike_id": "f61d73383c1726b44113f9f6edb6fdd8", "is_disabled": 0, "lon": -77.03151066666666, "fusion_lon": 0.0, "name": "f61d73383c1726b44113f9f6edb6fdd8", "lat": 38.911161}, {"rental_uris": {"ios": "https://dc.lft.to/lastmile_qr_scan", "android": "https://dc.lft.to/lastmile_qr_scan"}, "is_reserved": 0, "fusion_lat": 0.0, "type": "electric_scooter", "bike_id": "a0ec308c23c6bfc44cb408db21648055", "is_disabled": 0, "lon": -77.04187616666667, "fusion_lon": 0.0, "name": "a0ec308c23c6bfc44cb408db21648055", "lat": 38.923329833333334}, {"rental_uris": {"ios": "https://dc.lft.to/lastmile_qr_scan", "android": "https://dc.lft.to/lastmile_qr_scan"}, "is_reserved": 0, "fusion_lat": 0.0, "type": "electric_scooter", "bike_id": "1b2830b69c2230df3f96d1a52b91fc32", "is_disabled": 0, "lon": -77.02531466666667, "fusion_lon": 0.0, "name": "1b2830b69c2230df3f96d1a52b91fc32", "lat": 38.924922}, {"rental_uris": {"ios": "https://dc.lft.to/lastmile_qr_scan", "android": "https://dc.lft.to/lastmile_qr_scan"}, "is_reserved": 0, "fusion_lat": 0.0, "type": "electric_scooter", "bike_id": "248b059857d303ec28644c4cee203c8b", "is_disabled": 0, "lon": -77.02210016666666, "fusion_lon": 0.0, "name": "248b059857d303ec28644c4cee203c8b", "lat": 38.879046}, {"rental_uris": {"ios": "https://dc.lft.to/lastmile_qr_scan", "android": "https://dc.lft.to/lastmile_qr_scan"}, "is_reserved": 0, "fusion_lat": 0.0, "type": "electric_scooter", "bike_id": "a93b53e407f103de5b170cd9e7edaeba", "is_disabled": 0, "lon": -77.01522166666666, "fusion_lon": 0.0, "name": "a93b53e407f103de5b170cd9e7edaeba", "lat": 38.886135333333335}, {"rental_uris": {"ios": "https://dc.lft.to/lastmile_qr_scan", "android": "https://dc.lft.to/lastmile_qr_scan"}, "is_reserved": 0, "fusion_lat": 0.0, "type": "electric_bike", "bike_id": "d2cf4a5cef8d420f17e9957a09c6966c", "is_disabled": 0, "lon": -77.03868216666666, "fusion_lon": 0.0, "name": "d2cf4a5cef8d420f17e9957a09c6966c", "lat": 38.990521333333334}, {"rental_uris": {"ios": "https://dc.lft.to/lastmile_qr_scan", "android": "https://dc.lft.to/lastmile_qr_scan"}, "is_reserved": 0, "fusion_lat": 0.0, "type": "electric_scooter", "bike_id": "0ef42fbc413a0b8da661fa6a6e90077b", "is_disabled": 0, "lon": -77.04257633333333, "fusion_lon": 0.0, "name": "0ef42fbc413a0b8da661fa6a6e90077b", "lat": 38.907791333333336}, {"rental_uris": {"ios": "https://dc.lft.to/lastmile_qr_scan", "android": "https://dc.lft.to/lastmile_qr_scan"}, "is_reserved": 0, "fusion_lat": 0.0, "type": "electric_scooter", "bike_id": "4eb29af16080ec6d56cb93cd799dab4b", "is_disabled": 0, "lon": -77.0119505, "fusion_lon": 0.0, "name": "4eb29af16080ec6d56cb93cd799dab4b", "lat": 38.9169465}, {"rental_uris": {"ios": "https://dc.lft.to/lastmile_qr_scan", "android": "https://dc.lft.to/lastmile_qr_scan"}, "is_reserved": 0, "fusion_lat": 0.0, "type": "electric_scooter", "bike_id": "a1f21ca13f52c1a6aa6e8d504faec64c", "is_disabled": 0, "lon": -77.04775383333333, "fusion_lon": 0.0, "name": "a1f21ca13f52c1a6aa6e8d504faec64c", "lat": 38.892238166666665}, {"rental_uris": {"ios": "https://dc.lft.to/lastmile_qr_scan", "android": "https://dc.lft.to/lastmile_qr_scan"}, "is_reserved": 0, "fusion_lat": 0.0, "type": "electric_bike", "bike_id": "276924b8e5c32805221c87fb26c60cbf", "is_disabled": 0, "lon": -76.987273, "fusion_lon": 0.0, "name": "276924b8e5c32805221c87fb26c60cbf", "lat": 38.83548033333334}, {"rental_uris": {"ios": "https://dc.lft.to/lastmile_qr_scan", "android": "https://dc.lft.to/lastmile_qr_scan"}, "is_reserved": 0, "fusion_lat": 0.0, "type": "electric_scooter", "bike_id": "07de783d4f9098e99e3a9428e2268ddb", "is_disabled": 0, "lon": -77.03215066666667, "fusion_lon": 0.0, "name": "07de783d4f9098e99e3a9428e2268ddb", "lat": 38.907680166666665}, {"rental_uris": {"ios": "https://dc.lft.to/lastmile_qr_scan", "android": "https://dc.lft.to/lastmile_qr_scan"}, "is_reserved": 0, "fusion_lat": 0.0, "type": "electric_scooter", "bike_id": "5edc7275ef3f72d576a423283f0f1eec", "is_disabled": 0, "lon": -77.0333175, "fusion_lon": 0.0, "name": "5edc7275ef3f72d576a423283f0f1eec", "lat": 38.928943333333336}, {"rental_uris": {"ios": "https://dc.lft.to/lastmile_qr_scan", "android": "https://dc.lft.to/lastmile_qr_scan"}, "is_reserved": 0, "fusion_lat": 0.0, "type": "electric_scooter", "bike_id": "f902e65fac69836b6869efa76b125b54", "is_disabled": 0, "lon": -77.02383, "fusion_lon": 0.0, "name": "f902e65fac69836b6869efa76b125b54", "lat": 38.911558166666666}, {"rental_uris": {"ios": "https://dc.lft.to/lastmile_qr_scan", "android": "https://dc.lft.to/lastmile_qr_scan"}, "is_reserved": 0, "fusion_lat": 0.0, "type": "electric_scooter", "bike_id": "c805d659712c3584a9a6cdb4dfd66d7f", "is_disabled": 0, "lon": -77.01000666666667, "fusion_lon": 0.0, "name": "c805d659712c3584a9a6cdb4dfd66d7f", "lat": 38.902625666666665}, {"rental_uris": {"ios": "https://dc.lft.to/lastmile_qr_scan", "android": "https://dc.lft.to/lastmile_qr_scan"}, "is_reserved": 0, "fusion_lat": 0.0, "type": "electric_scooter", "bike_id": "a2b074208147bc2ce558eca297046e28", "is_disabled": 0, "lon": -76.99947633333333, "fusion_lon": 0.0, "name": "a2b074208147bc2ce558eca297046e28", "lat": 38.900414166666664}, {"rental_uris": {"ios": "https://dc.lft.to/lastmile_qr_scan", "android": "https://dc.lft.to/lastmile_qr_scan"}, "is_reserved": 0, "fusion_lat": 0.0, "type": "electric_scooter", "bike_id": "df83059ac76e73af8800f6f713299c93", "is_disabled": 0, "lon": -77.00580616666667, "fusion_lon": 0.0, "name": "df83059ac76e73af8800f6f713299c93", "lat": 38.88515233333333}, {"rental_uris": {"ios": "https://dc.lft.to/lastmile_qr_scan", "android": "https://dc.lft.to/lastmile_qr_scan"}, "is_reserved": 0, "fusion_lat": 0.0, "type": "electric_scooter", "bike_id": "0b1a12c0378e28012eed2abec9837bde", "is_disabled": 0, "lon": -77.01792883333333, "fusion_lon": 0.0, "name": "0b1a12c0378e28012eed2abec9837bde", "lat": 38.9014145}, {"rental_uris": {"ios": "https://dc.lft.to/lastmile_qr_scan", "android": "https://dc.lft.to/lastmile_qr_scan"}, "is_reserved": 0, "fusion_lat": 0.0, "type": "electric_scooter", "bike_id": "47ca7c6427219434bf96256e182fff59", "is_disabled": 0, "lon": -77.00838133333333, "fusion_lon": 0.0, "name": "47ca7c6427219434bf96256e182fff59", "lat": 38.897143166666666}, {"rental_uris": {"ios": "https://dc.lft.to/lastmile_qr_scan", "android": "https://dc.lft.to/lastmile_qr_scan"}, "is_reserved": 0, "fusion_lat": 0.0, "type": "electric_scooter", "bike_id": "84b1c72ab9915067ed846a9855a9241e", "is_disabled": 0, "lon": -77.03216783333333, "fusion_lon": 0.0, "name": "84b1c72ab9915067ed846a9855a9241e", "lat": 38.907708}, {"rental_uris": {"ios": "https://dc.lft.to/lastmile_qr_scan", "android": "https://dc.lft.to/lastmile_qr_scan"}, "is_reserved": 0, "fusion_lat": 0.0, "type": "electric_scooter", "bike_id": "855bb5cbdc8f0b0c8a567c2ba0c11b0f", "is_disabled": 0, "lon": -77.0464035, "fusion_lon": 0.0, "name": "855bb5cbdc8f0b0c8a567c2ba0c11b0f", "lat": 38.92234116666667}, {"rental_uris": {"ios": "https://dc.lft.to/lastmile_qr_scan", "android": "https://dc.lft.to/lastmile_qr_scan"}, "is_reserved": 0, "fusion_lat": 0.0, "type": "electric_scooter", "bike_id": "345b1d76bad7d105a0565684a9b5ce46", "is_disabled": 0, "lon": -77.03455466666666, "fusion_lon": 0.0, "name": "345b1d76bad7d105a0565684a9b5ce46", "lat": 38.904715333333336}, {"rental_uris": {"ios": "https://dc.lft.to/lastmile_qr_scan", "android": "https://dc.lft.to/lastmile_qr_scan"}, "is_reserved": 0, "fusion_lat": 0.0, "type": "electric_scooter", "bike_id": "990ef16444ba878f6dd84d2ff5f0c2e9", "is_disabled": 0, "lon": -77.03466966666667, "fusion_lon": 0.0, "name": "990ef16444ba878f6dd84d2ff5f0c2e9", "lat": 38.90568566666666}, {"rental_uris": {"ios": "https://dc.lft.to/lastmile_qr_scan", "android": "https://dc.lft.to/lastmile_qr_scan"}, "is_reserved": 0, "fusion_lat": 0.0, "type": "electric_scooter", "bike_id": "7a937152ab8db628e4f68e634ff4042c", "is_disabled": 0, "lon": -77.03840316666667, "fusion_lon": 0.0, "name": "7a937152ab8db628e4f68e634ff4042c", "lat": 38.94191166666667}, {"rental_uris": {"ios": "https://dc.lft.to/lastmile_qr_scan", "android": "https://dc.lft.to/lastmile_qr_scan"}, "is_reserved": 0, "fusion_lat": 0.0, "type": "electric_scooter", "bike_id": "e07abb51f3aba51c6fea9c52713dcae6", "is_disabled": 0, "lon": -77.04067283333333, "fusion_lon": 0.0, "name": "e07abb51f3aba51c6fea9c52713dcae6", "lat": 38.904946333333335}, {"rental_uris": {"ios": "https://dc.lft.to/lastmile_qr_scan", "android": "https://dc.lft.to/lastmile_qr_scan"}, "is_reserved": 0, "fusion_lat": 0.0, "type": "electric_scooter", "bike_id": "0b81ac0f0a653bfc7a15b096c8f8561d", "is_disabled": 0, "lon": -77.0060905, "fusion_lon": 0.0, "name": "0b81ac0f0a653bfc7a15b096c8f8561d", "lat": 38.908138}, {"rental_uris": {"ios": "https://dc.lft.to/lastmile_qr_scan", "android": "https://dc.lft.to/lastmile_qr_scan"}, "is_reserved": 0, "fusion_lat": 0.0, "type": "electric_scooter", "bike_id": "5e40c0989dd9d21f36e3f22f3d7b4601", "is_disabled": 0, "lon": -77.0495315, "fusion_lon": 0.0, "name": "5e40c0989dd9d21f36e3f22f3d7b4601", "lat": 38.905411666666666}, {"rental_uris": {"ios": "https://dc.lft.to/lastmile_qr_scan", "android": "https://dc.lft.to/lastmile_qr_scan"}, "is_reserved": 0, "fusion_lat": 0.0, "type": "electric_scooter", "bike_id": "c09f3eadabe3f25ddef671404797c3b6", "is_disabled": 0, "lon": -77.07692316666666, "fusion_lon": 0.0, "name": "c09f3eadabe3f25ddef671404797c3b6", "lat": 38.91222283333333}, {"rental_uris": {"ios": "https://dc.lft.to/lastmile_qr_scan", "android": "https://dc.lft.to/lastmile_qr_scan"}, "is_reserved": 0, "fusion_lat": 0.0, "type": "electric_scooter", "bike_id": "3d40ddbfd0340c90cc98874f5c856aac", "is_disabled": 0, "lon": -77.0002235, "fusion_lon": 0.0, "name": "3d40ddbfd0340c90cc98874f5c856aac", "lat": 38.90791316666667}, {"rental_uris": {"ios": "https://dc.lft.to/lastmile_qr_scan", "android": "https://dc.lft.to/lastmile_qr_scan"}, "is_reserved": 0, "fusion_lat": 0.0, "type": "electric_scooter", "bike_id": "5a0e175074c68fa65a01e72b1897f322", "is_disabled": 0, "lon": -77.01871066666666, "fusion_lon": 0.0, "name": "5a0e175074c68fa65a01e72b1897f322", "lat": 38.901212666666666}, {"rental_uris": {"ios": "https://dc.lft.to/lastmile_qr_scan", "android": "https://dc.lft.to/lastmile_qr_scan"}, "is_reserved": 0, "fusion_lat": 0.0, "type": "electric_scooter", "bike_id": "0a505a6515440613af5a1a8a9a69a558", "is_disabled": 0, "lon": -77.051114, "fusion_lon": 0.0, "name": "0a505a6515440613af5a1a8a9a69a558", "lat": 38.92498116666667}, {"rental_uris": {"ios": "https://dc.lft.to/lastmile_qr_scan", "android": "https://dc.lft.to/lastmile_qr_scan"}, "is_reserved": 0, "fusion_lat": 0.0, "type": "electric_scooter", "bike_id": "6a54b8eb7286e8cc0baff15104afa96d", "is_disabled": 0, "lon": -76.97423883333333, "fusion_lon": 0.0, "name": "6a54b8eb7286e8cc0baff15104afa96d", "lat": 38.904476333333335}, {"rental_uris": {"ios": "https://dc.lft.to/lastmile_qr_scan", "android": "https://dc.lft.to/lastmile_qr_scan"}, "is_reserved": 0, "fusion_lat": 0.0, "type": "electric_scooter", "bike_id": "09b65c164de5564b94870c63731258a4", "is_disabled": 0, "lon": -77.03103716666666, "fusion_lon": 0.0, "name": "09b65c164de5564b94870c63731258a4", "lat": 38.932598166666665}, {"rental_uris": {"ios": "https://dc.lft.to/lastmile_qr_scan", "android": "https://dc.lft.to/lastmile_qr_scan"}, "is_reserved": 0, "fusion_lat": 0.0, "type": "electric_scooter", "bike_id": "9a291cfba354961cae45ae9365f32870", "is_disabled": 0, "lon": -77.0272635, "fusion_lon": 0.0, "name": "9a291cfba354961cae45ae9365f32870", "lat": 38.898802333333336}, {"rental_uris": {"ios": "https://dc.lft.to/lastmile_qr_scan", "android": "https://dc.lft.to/lastmile_qr_scan"}, "is_reserved": 0, "fusion_lat": 0.0, "type": "electric_scooter", "bike_id": "df2bbc4f8c4d41f7b9aa99bf5f044860", "is_disabled": 0, "lon": -77.071629, "fusion_lon": 0.0, "name": "df2bbc4f8c4d41f7b9aa99bf5f044860", "lat": 38.908738}, {"rental_uris": {"ios": "https://dc.lft.to/lastmile_qr_scan", "android": "https://dc.lft.to/lastmile_qr_scan"}, "is_reserved": 0, "fusion_lat": 0.0, "type": "electric_scooter", "bike_id": "25bb9fb394440a4a8f3309713bff23a7", "is_disabled": 0, "lon": -76.99264116666667, "fusion_lon": 0.0, "name": "25bb9fb394440a4a8f3309713bff23a7", "lat": 38.908224833333335}, {"rental_uris": {"ios": "https://dc.lft.to/lastmile_qr_scan", "android": "https://dc.lft.to/lastmile_qr_scan"}, "is_reserved": 0, "fusion_lat": 0.0, "type": "electric_scooter", "bike_id": "648d60039d0642132b231f6236294757", "is_disabled": 0, "lon": -76.9901515, "fusion_lon": 0.0, "name": "648d60039d0642132b231f6236294757", "lat": 38.88272283333333}, {"rental_uris": {"ios": "https://dc.lft.to/lastmile_qr_scan", "android": "https://dc.lft.to/lastmile_qr_scan"}, "is_reserved": 0, "fusion_lat": 0.0, "type": "electric_scooter", "bike_id": "7a7062d51ef2dbf89e79a1467084591d", "is_disabled": 0, "lon": -77.03214116666666, "fusion_lon": 0.0, "name": "7a7062d51ef2dbf89e79a1467084591d", "lat": 38.89899033333333}, {"rental_uris": {"ios": "https://dc.lft.to/lastmile_qr_scan", "android": "https://dc.lft.to/lastmile_qr_scan"}, "is_reserved": 0, "fusion_lat": 0.0, "type": "electric_scooter", "bike_id": "20bf26d7919d8232e8ebd02d731ca97a", "is_disabled": 0, "lon": -77.012182, "fusion_lon": 0.0, "name": "20bf26d7919d8232e8ebd02d731ca97a", "lat": 38.9183215}, {"rental_uris": {"ios": "https://dc.lft.to/lastmile_qr_scan", "android": "https://dc.lft.to/lastmile_qr_scan"}, "is_reserved": 0, "fusion_lat": 0.0, "type": "electric_scooter", "bike_id": "bc42256a65cf6b1dedb6cac2ef8d8c74", "is_disabled": 0, "lon": -77.00135266666666, "fusion_lon": 0.0, "name": "bc42256a65cf6b1dedb6cac2ef8d8c74", "lat": 38.8788045}, {"rental_uris": {"ios": "https://dc.lft.to/lastmile_qr_scan", "android": "https://dc.lft.to/lastmile_qr_scan"}, "is_reserved": 0, "fusion_lat": 0.0, "type": "electric_scooter", "bike_id": "95b5672dba85a33ff3db5e5a2f46cdac", "is_disabled": 0, "lon": -76.99012116666667, "fusion_lon": 0.0, "name": "95b5672dba85a33ff3db5e5a2f46cdac", "lat": 38.886032666666665}, {"rental_uris": {"ios": "https://dc.lft.to/lastmile_qr_scan", "android": "https://dc.lft.to/lastmile_qr_scan"}, "is_reserved": 0, "fusion_lat": 0.0, "type": "electric_scooter", "bike_id": "540cd98b6fb58874017f4a5e710754ea", "is_disabled": 0, "lon": -77.0311675, "fusion_lon": 0.0, "name": "540cd98b6fb58874017f4a5e710754ea", "lat": 38.959357}, {"rental_uris": {"ios": "https://dc.lft.to/lastmile_qr_scan", "android": "https://dc.lft.to/lastmile_qr_scan"}, "is_reserved": 0, "fusion_lat": 0.0, "type": "electric_scooter", "bike_id": "83767ccb715c9c8394dd08c0de730fbe", "is_disabled": 0, "lon": -77.0238195, "fusion_lon": 0.0, "name": "83767ccb715c9c8394dd08c0de730fbe", "lat": 38.919447166666664}, {"rental_uris": {"ios": "https://dc.lft.to/lastmile_qr_scan", "android": "https://dc.lft.to/lastmile_qr_scan"}, "is_reserved": 0, "fusion_lat": 0.0, "type": "electric_scooter", "bike_id": "0c8c17cc22e5c700bfa7959acbeebc64", "is_disabled": 0, "lon": -77.0161605, "fusion_lon": 0.0, "name": "0c8c17cc22e5c700bfa7959acbeebc64", "lat": 38.902536833333336}, {"rental_uris": {"ios": "https://dc.lft.to/lastmile_qr_scan", "android": "https://dc.lft.to/lastmile_qr_scan"}, "is_reserved": 0, "fusion_lat": 0.0, "type": "electric_scooter", "bike_id": "cbbc17a5effbddd6682398ccaa71470e", "is_disabled": 0, "lon": -77.02562716666667, "fusion_lon": 0.0, "name": "cbbc17a5effbddd6682398ccaa71470e", "lat": 38.920991666666666}, {"rental_uris": {"ios": "https://dc.lft.to/lastmile_qr_scan", "android": "https://dc.lft.to/lastmile_qr_scan"}, "is_reserved": 0, "fusion_lat": 0.0, "type": "electric_scooter", "bike_id": "5e08ab91f3c76c02f45c20da3aa6bc58", "is_disabled": 0, "lon": -77.02979, "fusion_lon": 0.0, "name": "5e08ab91f3c76c02f45c20da3aa6bc58", "lat": 38.90726383333333}, {"rental_uris": {"ios": "https://dc.lft.to/lastmile_qr_scan", "android": "https://dc.lft.to/lastmile_qr_scan"}, "is_reserved": 0, "fusion_lat": 0.0, "type": "electric_scooter", "bike_id": "512bc71d1dfc2036112fb71ce364649a", "is_disabled": 0, "lon": -77.04671216666667, "fusion_lon": 0.0, "name": "512bc71d1dfc2036112fb71ce364649a", "lat": 38.90998616666667}, {"rental_uris": {"ios": "https://dc.lft.to/lastmile_qr_scan", "android": "https://dc.lft.to/lastmile_qr_scan"}, "is_reserved": 0, "fusion_lat": 0.0, "type": "electric_scooter", "bike_id": "148e07185997ae500f0c0770842acdc8", "is_disabled": 0, "lon": -77.045458, "fusion_lon": 0.0, "name": "148e07185997ae500f0c0770842acdc8", "lat": 38.909605}, {"rental_uris": {"ios": "https://dc.lft.to/lastmile_qr_scan", "android": "https://dc.lft.to/lastmile_qr_scan"}, "is_reserved": 0, "fusion_lat": 0.0, "type": "electric_scooter", "bike_id": "682555b59f10cd1740a51f631883d685", "is_disabled": 0, "lon": -77.025801, "fusion_lon": 0.0, "name": "682555b59f10cd1740a51f631883d685", "lat": 38.88739133333333}, {"rental_uris": {"ios": "https://dc.lft.to/lastmile_qr_scan", "android": "https://dc.lft.to/lastmile_qr_scan"}, "is_reserved": 0, "fusion_lat": 0.0, "type": "electric_scooter", "bike_id": "d01c8fc4f30971d1c5cfb45b03909d4c", "is_disabled": 0, "lon": -77.03382733333333, "fusion_lon": 0.0, "name": "d01c8fc4f30971d1c5cfb45b03909d4c", "lat": 38.901993166666664}, {"rental_uris": {"ios": "https://dc.lft.to/lastmile_qr_scan", "android": "https://dc.lft.to/lastmile_qr_scan"}, "is_reserved": 0, "fusion_lat": 0.0, "type": "electric_scooter", "bike_id": "c3849e5c2aa131285b70943c21ff9f94", "is_disabled": 0, "lon": -77.00579966666666, "fusion_lon": 0.0, "name": "c3849e5c2aa131285b70943c21ff9f94", "lat": 38.8851725}, {"rental_uris": {"ios": "https://dc.lft.to/lastmile_qr_scan", "android": "https://dc.lft.to/lastmile_qr_scan"}, "is_reserved": 0, "fusion_lat": 0.0, "type": "electric_scooter", "bike_id": "1e10ed9d0b1a791b460b5fe98a5d4335", "is_disabled": 0, "lon": -77.017242, "fusion_lon": 0.0, "name": "1e10ed9d0b1a791b460b5fe98a5d4335", "lat": 38.902577666666666}, {"rental_uris": {"ios": "https://dc.lft.to/lastmile_qr_scan", "android": "https://dc.lft.to/lastmile_qr_scan"}, "is_reserved": 0, "fusion_lat": 0.0, "type": "electric_scooter", "bike_id": "22831cb3f35d3232b24e921418548f67", "is_disabled": 0, "lon": -77.041041, "fusion_lon": 0.0, "name": "22831cb3f35d3232b24e921418548f67", "lat": 38.9177185}, {"rental_uris": {"ios": "https://dc.lft.to/lastmile_qr_scan", "android": "https://dc.lft.to/lastmile_qr_scan"}, "is_reserved": 0, "fusion_lat": 0.0, "type": "electric_bike", "bike_id": "85e828c89d45afc118249b4b1b22af97", "is_disabled": 0, "lon": -77.06737433333333, "fusion_lon": 0.0, "name": "85e828c89d45afc118249b4b1b22af97", "lat": 38.92455733333333}, {"rental_uris": {"ios": "https://dc.lft.to/lastmile_qr_scan", "android": "https://dc.lft.to/lastmile_qr_scan"}, "is_reserved": 0, "fusion_lat": 0.0, "type": "electric_scooter", "bike_id": "6a09421c031b9bb6d7f327f8b2e331fc", "is_disabled": 0, "lon": -77.03125383333334, "fusion_lon": 0.0, "name": "6a09421c031b9bb6d7f327f8b2e331fc", "lat": 38.90532116666667}, {"rental_uris": {"ios": "https://dc.lft.to/lastmile_qr_scan", "android": "https://dc.lft.to/lastmile_qr_scan"}, "is_reserved": 0, "fusion_lat": 0.0, "type": "electric_scooter", "bike_id": "fd5d218d4a93bdcb06330c868bf2c22e", "is_disabled": 0, "lon": -77.02439416666667, "fusion_lon": 0.0, "name": "fd5d218d4a93bdcb06330c868bf2c22e", "lat": 38.907218666666665}, {"rental_uris": {"ios": "https://dc.lft.to/lastmile_qr_scan", "android": "https://dc.lft.to/lastmile_qr_scan"}, "is_reserved": 0, "fusion_lat": 0.0, "type": "electric_scooter", "bike_id": "d5fd2ee4728969099646133127971450", "is_disabled": 0, "lon": -77.01764066666667, "fusion_lon": 0.0, "name": "d5fd2ee4728969099646133127971450", "lat": 38.88334}, {"rental_uris": {"ios": "https://dc.lft.to/lastmile_qr_scan", "android": "https://dc.lft.to/lastmile_qr_scan"}, "is_reserved": 0, "fusion_lat": 0.0, "type": "electric_scooter", "bike_id": "006870aa100f8d92945192047dc158a8", "is_disabled": 0, "lon": -76.98431666666667, "fusion_lon": 0.0, "name": "006870aa100f8d92945192047dc158a8", "lat": 38.905806166666665}, {"rental_uris": {"ios": "https://dc.lft.to/lastmile_qr_scan", "android": "https://dc.lft.to/lastmile_qr_scan"}, "is_reserved": 0, "fusion_lat": 0.0, "type": "electric_scooter", "bike_id": "ede7a1557a895f9bb7e592eedff7a1c1", "is_disabled": 0, "lon": -77.031633, "fusion_lon": 0.0, "name": "ede7a1557a895f9bb7e592eedff7a1c1", "lat": 38.898218}, {"rental_uris": {"ios": "https://dc.lft.to/lastmile_qr_scan", "android": "https://dc.lft.to/lastmile_qr_scan"}, "is_reserved": 0, "fusion_lat": 0.0, "type": "electric_scooter", "bike_id": "9c3abfc84a3acc7bd8d3812e0f6701ae", "is_disabled": 0, "lon": -77.00432033333334, "fusion_lon": 0.0, "name": "9c3abfc84a3acc7bd8d3812e0f6701ae", "lat": 38.87713683333333}, {"rental_uris": {"ios": "https://dc.lft.to/lastmile_qr_scan", "android": "https://dc.lft.to/lastmile_qr_scan"}, "is_reserved": 0, "fusion_lat": 0.0, "type": "electric_scooter", "bike_id": "bfbe4c03889a5a0591c26b426c25c178", "is_disabled": 0, "lon": -77.031255, "fusion_lon": 0.0, "name": "bfbe4c03889a5a0591c26b426c25c178", "lat": 38.9169925}, {"rental_uris": {"ios": "https://dc.lft.to/lastmile_qr_scan", "android": "https://dc.lft.to/lastmile_qr_scan"}, "is_reserved": 0, "fusion_lat": 0.0, "type": "electric_scooter", "bike_id": "7014411ff833b46db7433da9be303db0", "is_disabled": 0, "lon": -77.022826, "fusion_lon": 0.0, "name": "7014411ff833b46db7433da9be303db0", "lat": 38.90281133333333}, {"rental_uris": {"ios": "https://dc.lft.to/lastmile_qr_scan", "android": "https://dc.lft.to/lastmile_qr_scan"}, "is_reserved": 0, "fusion_lat": 0.0, "type": "electric_scooter", "bike_id": "87ed625486795e88d49843a040866b78", "is_disabled": 0, "lon": -77.0324275, "fusion_lon": 0.0, "name": "87ed625486795e88d49843a040866b78", "lat": 38.90135383333333}, {"rental_uris": {"ios": "https://dc.lft.to/lastmile_qr_scan", "android": "https://dc.lft.to/lastmile_qr_scan"}, "is_reserved": 0, "fusion_lat": 0.0, "type": "electric_bike", "bike_id": "a9aceb0ff410279b609844ae63058efa", "is_disabled": 0, "lon": -77.066533, "fusion_lon": 0.0, "name": "a9aceb0ff410279b609844ae63058efa", "lat": 38.950773166666664}, {"rental_uris": {"ios": "https://dc.lft.to/lastmile_qr_scan", "android": "https://dc.lft.to/lastmile_qr_scan"}, "is_reserved": 0, "fusion_lat": 0.0, "type": "electric_scooter", "bike_id": "7e6086c77f790002f091f04c34fdf58e", "is_disabled": 0, "lon": -77.03827083333333, "fusion_lon": 0.0, "name": "7e6086c77f790002f091f04c34fdf58e", "lat": 38.92057766666667}, {"rental_uris": {"ios": "https://dc.lft.to/lastmile_qr_scan", "android": "https://dc.lft.to/lastmile_qr_scan"}, "is_reserved": 0, "fusion_lat": 0.0, "type": "electric_bike", "bike_id": "a0fc461b9c6f34a7b07f13ef410235ca", "is_disabled": 0, "lon": -76.97224566666667, "fusion_lon": 0.0, "name": "a0fc461b9c6f34a7b07f13ef410235ca", "lat": 38.900399}, {"rental_uris": {"ios": "https://dc.lft.to/lastmile_qr_scan", "android": "https://dc.lft.to/lastmile_qr_scan"}, "is_reserved": 0, "fusion_lat": 0.0, "type": "electric_scooter", "bike_id": "7ead734b46cac84cc5161aef29d3dc60", "is_disabled": 0, "lon": -77.03331333333334, "fusion_lon": 0.0, "name": "7ead734b46cac84cc5161aef29d3dc60", "lat": 38.898438}, {"rental_uris": {"ios": "https://dc.lft.to/lastmile_qr_scan", "android": "https://dc.lft.to/lastmile_qr_scan"}, "is_reserved": 0, "fusion_lat": 0.0, "type": "electric_scooter", "bike_id": "fd36c36df48548e4f2024fe4439c98da", "is_disabled": 0, "lon": -77.0613985, "fusion_lon": 0.0, "name": "fd36c36df48548e4f2024fe4439c98da", "lat": 38.9049495}, {"rental_uris": {"ios": "https://dc.lft.to/lastmile_qr_scan", "android": "https://dc.lft.to/lastmile_qr_scan"}, "is_reserved": 0, "fusion_lat": 0.0, "type": "electric_scooter", "bike_id": "550d5b26fba8840c0b592e8402dc062e", "is_disabled": 0, "lon": -77.02150866666666, "fusion_lon": 0.0, "name": "550d5b26fba8840c0b592e8402dc062e", "lat": 38.92447816666667}, {"rental_uris": {"ios": "https://dc.lft.to/lastmile_qr_scan", "android": "https://dc.lft.to/lastmile_qr_scan"}, "is_reserved": 0, "fusion_lat": 0.0, "type": "electric_scooter", "bike_id": "77975900064ffaac2028398290ed3e81", "is_disabled": 0, "lon": -76.98209483333333, "fusion_lon": 0.0, "name": "77975900064ffaac2028398290ed3e81", "lat": 38.865974}, {"rental_uris": {"ios": "https://dc.lft.to/lastmile_qr_scan", "android": "https://dc.lft.to/lastmile_qr_scan"}, "is_reserved": 0, "fusion_lat": 0.0, "type": "electric_scooter", "bike_id": "a0a5dff090c504f6963d2ddbd7876f93", "is_disabled": 0, "lon": -77.02440866666667, "fusion_lon": 0.0, "name": "a0a5dff090c504f6963d2ddbd7876f93", "lat": 38.93471266666667}, {"rental_uris": {"ios": "https://dc.lft.to/lastmile_qr_scan", "android": "https://dc.lft.to/lastmile_qr_scan"}, "is_reserved": 0, "fusion_lat": 0.0, "type": "electric_scooter", "bike_id": "bc9e35320d5e25296b0ae28774ef4517", "is_disabled": 0, "lon": -77.04374916666667, "fusion_lon": 0.0, "name": "bc9e35320d5e25296b0ae28774ef4517", "lat": 38.904155333333335}, {"rental_uris": {"ios": "https://dc.lft.to/lastmile_qr_scan", "android": "https://dc.lft.to/lastmile_qr_scan"}, "is_reserved": 0, "fusion_lat": 0.0, "type": "electric_scooter", "bike_id": "cebe948565923a348d58a6d53fe73a3a", "is_disabled": 0, "lon": -77.00028566666667, "fusion_lon": 0.0, "name": "cebe948565923a348d58a6d53fe73a3a", "lat": 38.873929}, {"rental_uris": {"ios": "https://dc.lft.to/lastmile_qr_scan", "android": "https://dc.lft.to/lastmile_qr_scan"}, "is_reserved": 0, "fusion_lat": 0.0, "type": "electric_bike", "bike_id": "6a7e7af9314bfeb500a3f21431052a44", "is_disabled": 0, "lon": -77.07105966666667, "fusion_lon": 0.0, "name": "6a7e7af9314bfeb500a3f21431052a44", "lat": 38.933530166666664}, {"rental_uris": {"ios": "https://dc.lft.to/lastmile_qr_scan", "android": "https://dc.lft.to/lastmile_qr_scan"}, "is_reserved": 0, "fusion_lat": 0.0, "type": "electric_scooter", "bike_id": "dc62618da36bd9679fa4dc3453c86130", "is_disabled": 0, "lon": -77.01989083333333, "fusion_lon": 0.0, "name": "dc62618da36bd9679fa4dc3453c86130", "lat": 38.90264916666667}, {"rental_uris": {"ios": "https://dc.lft.to/lastmile_qr_scan", "android": "https://dc.lft.to/lastmile_qr_scan"}, "is_reserved": 0, "fusion_lat": 0.0, "type": "electric_scooter", "bike_id": "d47e690b822bed41ad46a7d5567becad", "is_disabled": 0, "lon": -77.01524883333333, "fusion_lon": 0.0, "name": "d47e690b822bed41ad46a7d5567becad", "lat": 38.885245166666664}, {"rental_uris": {"ios": "https://dc.lft.to/lastmile_qr_scan", "android": "https://dc.lft.to/lastmile_qr_scan"}, "is_reserved": 0, "fusion_lat": 0.0, "type": "electric_scooter", "bike_id": "76712811196760a7f24d95b68c0671aa", "is_disabled": 0, "lon": -77.00883616666667, "fusion_lon": 0.0, "name": "76712811196760a7f24d95b68c0671aa", "lat": 38.876674}, {"rental_uris": {"ios": "https://dc.lft.to/lastmile_qr_scan", "android": "https://dc.lft.to/lastmile_qr_scan"}, "is_reserved": 0, "fusion_lat": 0.0, "type": "electric_scooter", "bike_id": "a69cc582171e0b447cdb14d618aa7a87", "is_disabled": 0, "lon": -76.99409166666666, "fusion_lon": 0.0, "name": "a69cc582171e0b447cdb14d618aa7a87", "lat": 38.91003966666667}, {"rental_uris": {"ios": "https://dc.lft.to/lastmile_qr_scan", "android": "https://dc.lft.to/lastmile_qr_scan"}, "is_reserved": 0, "fusion_lat": 0.0, "type": "electric_scooter", "bike_id": "7ef675c83dff35feb8e1fa0584bdf0e4", "is_disabled": 0, "lon": -77.05942583333334, "fusion_lon": 0.0, "name": "7ef675c83dff35feb8e1fa0584bdf0e4", "lat": 38.902362}, {"rental_uris": {"ios": "https://dc.lft.to/lastmile_qr_scan", "android": "https://dc.lft.to/lastmile_qr_scan"}, "is_reserved": 0, "fusion_lat": 0.0, "type": "electric_scooter", "bike_id": "bfce7ecf12dcd24e5c4ad7fe2f29512d", "is_disabled": 0, "lon": -77.0192005, "fusion_lon": 0.0, "name": "bfce7ecf12dcd24e5c4ad7fe2f29512d", "lat": 38.921768166666666}, {"rental_uris": {"ios": "https://dc.lft.to/lastmile_qr_scan", "android": "https://dc.lft.to/lastmile_qr_scan"}, "is_reserved": 0, "fusion_lat": 0.0, "type": "electric_scooter", "bike_id": "062bc54e09d1afe25b9f5cd3341436bd", "is_disabled": 0, "lon": -77.0453415, "fusion_lon": 0.0, "name": "062bc54e09d1afe25b9f5cd3341436bd", "lat": 38.900705333333335}, {"rental_uris": {"ios": "https://dc.lft.to/lastmile_qr_scan", "android": "https://dc.lft.to/lastmile_qr_scan"}, "is_reserved": 0, "fusion_lat": 0.0, "type": "electric_scooter", "bike_id": "02a02a8556b0dfc9fd209b2529f8ea98", "is_disabled": 0, "lon": -77.03465633333333, "fusion_lon": 0.0, "name": "02a02a8556b0dfc9fd209b2529f8ea98", "lat": 38.91731216666667}, {"rental_uris": {"ios": "https://dc.lft.to/lastmile_qr_scan", "android": "https://dc.lft.to/lastmile_qr_scan"}, "is_reserved": 0, "fusion_lat": 0.0, "type": "electric_scooter", "bike_id": "c3249ec4dde5e6b1eae25088459f6369", "is_disabled": 0, "lon": -76.99691083333333, "fusion_lon": 0.0, "name": "c3249ec4dde5e6b1eae25088459f6369", "lat": 38.88718566666667}, {"rental_uris": {"ios": "https://dc.lft.to/lastmile_qr_scan", "android": "https://dc.lft.to/lastmile_qr_scan"}, "is_reserved": 0, "fusion_lat": 0.0, "type": "electric_scooter", "bike_id": "4672312e92125f7e7553b035430fc509", "is_disabled": 0, "lon": -77.03943933333333, "fusion_lon": 0.0, "name": "4672312e92125f7e7553b035430fc509", "lat": 38.898556}, {"rental_uris": {"ios": "https://dc.lft.to/lastmile_qr_scan", "android": "https://dc.lft.to/lastmile_qr_scan"}, "is_reserved": 0, "fusion_lat": 0.0, "type": "electric_scooter", "bike_id": "fc9ec6c60649ce96328f25c33cec7437", "is_disabled": 0, "lon": -77.0076235, "fusion_lon": 0.0, "name": "fc9ec6c60649ce96328f25c33cec7437", "lat": 38.896996666666666}, {"rental_uris": {"ios": "https://dc.lft.to/lastmile_qr_scan", "android": "https://dc.lft.to/lastmile_qr_scan"}, "is_reserved": 0, "fusion_lat": 0.0, "type": "electric_scooter", "bike_id": "158ff6da821d26e2d5ef1e21fb91bcf6", "is_disabled": 0, "lon": -77.02375433333333, "fusion_lon": 0.0, "name": "158ff6da821d26e2d5ef1e21fb91bcf6", "lat": 38.8962105}, {"rental_uris": {"ios": "https://dc.lft.to/lastmile_qr_scan", "android": "https://dc.lft.to/lastmile_qr_scan"}, "is_reserved": 0, "fusion_lat": 0.0, "type": "electric_scooter", "bike_id": "a65b76e4be2348ab060b8f4fb0821989", "is_disabled": 0, "lon": -77.02124133333334, "fusion_lon": 0.0, "name": "a65b76e4be2348ab060b8f4fb0821989", "lat": 38.922489166666665}, {"rental_uris": {"ios": "https://dc.lft.to/lastmile_qr_scan", "android": "https://dc.lft.to/lastmile_qr_scan"}, "is_reserved": 0, "fusion_lat": 0.0, "type": "electric_scooter", "bike_id": "d7851536e266801f14b9e9a5bbc0be39", "is_disabled": 0, "lon": -77.04160566666667, "fusion_lon": 0.0, "name": "d7851536e266801f14b9e9a5bbc0be39", "lat": 38.916524}, {"rental_uris": {"ios": "https://dc.lft.to/lastmile_qr_scan", "android": "https://dc.lft.to/lastmile_qr_scan"}, "is_reserved": 0, "fusion_lat": 0.0, "type": "electric_scooter", "bike_id": "c96c4a2c4bbdd0416ca8ceb91760f2dd", "is_disabled": 0, "lon": -77.03629916666667, "fusion_lon": 0.0, "name": "c96c4a2c4bbdd0416ca8ceb91760f2dd", "lat": 38.93674766666667}, {"rental_uris": {"ios": "https://dc.lft.to/lastmile_qr_scan", "android": "https://dc.lft.to/lastmile_qr_scan"}, "is_reserved": 0, "fusion_lat": 0.0, "type": "electric_scooter", "bike_id": "5c99aa9f1b9daa814850a05e07a0a9e3", "is_disabled": 0, "lon": -76.99857733333333, "fusion_lon": 0.0, "name": "5c99aa9f1b9daa814850a05e07a0a9e3", "lat": 38.907782}, {"rental_uris": {"ios": "https://dc.lft.to/lastmile_qr_scan", "android": "https://dc.lft.to/lastmile_qr_scan"}, "is_reserved": 0, "fusion_lat": 0.0, "type": "electric_scooter", "bike_id": "89c463cd02582b2769487d76973b9939", "is_disabled": 0, "lon": -77.03626166666666, "fusion_lon": 0.0, "name": "89c463cd02582b2769487d76973b9939", "lat": 38.93680333333333}, {"rental_uris": {"ios": "https://dc.lft.to/lastmile_qr_scan", "android": "https://dc.lft.to/lastmile_qr_scan"}, "is_reserved": 0, "fusion_lat": 0.0, "type": "electric_scooter", "bike_id": "91460fcef2a793c7b833a587bd8e8f0c", "is_disabled": 0, "lon": -76.989792, "fusion_lon": 0.0, "name": "91460fcef2a793c7b833a587bd8e8f0c", "lat": 38.8822585}, {"rental_uris": {"ios": "https://dc.lft.to/lastmile_qr_scan", "android": "https://dc.lft.to/lastmile_qr_scan"}, "is_reserved": 0, "fusion_lat": 0.0, "type": "electric_scooter", "bike_id": "24542c5b2b0d50d20a26d2430286ba98", "is_disabled": 0, "lon": -77.02194633333333, "fusion_lon": 0.0, "name": "24542c5b2b0d50d20a26d2430286ba98", "lat": 38.9146025}, {"rental_uris": {"ios": "https://dc.lft.to/lastmile_qr_scan", "android": "https://dc.lft.to/lastmile_qr_scan"}, "is_reserved": 0, "fusion_lat": 0.0, "type": "electric_scooter", "bike_id": "a3ad42593c4e692269d4adaf2aff06fb", "is_disabled": 0, "lon": -77.07981933333333, "fusion_lon": 0.0, "name": "a3ad42593c4e692269d4adaf2aff06fb", "lat": 38.920402}, {"rental_uris": {"ios": "https://dc.lft.to/lastmile_qr_scan", "android": "https://dc.lft.to/lastmile_qr_scan"}, "is_reserved": 0, "fusion_lat": 0.0, "type": "electric_scooter", "bike_id": "4ed606b650ea2499258715404346f69d", "is_disabled": 0, "lon": -77.00936916666667, "fusion_lon": 0.0, "name": "4ed606b650ea2499258715404346f69d", "lat": 38.87564233333333}, {"rental_uris": {"ios": "https://dc.lft.to/lastmile_qr_scan", "android": "https://dc.lft.to/lastmile_qr_scan"}, "is_reserved": 0, "fusion_lat": 0.0, "type": "electric_bike", "bike_id": "925e6f65452ded6cdfd2d8d552f37274", "is_disabled": 0, "lon": -77.05346183333333, "fusion_lon": 0.0, "name": "925e6f65452ded6cdfd2d8d552f37274", "lat": 38.8204145}, {"rental_uris": {"ios": "https://dc.lft.to/lastmile_qr_scan", "android": "https://dc.lft.to/lastmile_qr_scan"}, "is_reserved": 0, "fusion_lat": 0.0, "type": "electric_scooter", "bike_id": "0a4a7cfeae7e75a717ad176d220985d1", "is_disabled": 0, "lon": -76.99625733333333, "fusion_lon": 0.0, "name": "0a4a7cfeae7e75a717ad176d220985d1", "lat": 38.884452833333334}, {"rental_uris": {"ios": "https://dc.lft.to/lastmile_qr_scan", "android": "https://dc.lft.to/lastmile_qr_scan"}, "is_reserved": 0, "fusion_lat": 0.0, "type": "electric_scooter", "bike_id": "3d7320562e0f89e7fdb5082bd5da83ef", "is_disabled": 0, "lon": -77.02285216666667, "fusion_lon": 0.0, "name": "3d7320562e0f89e7fdb5082bd5da83ef", "lat": 38.8951475}, {"rental_uris": {"ios": "https://dc.lft.to/lastmile_qr_scan", "android": "https://dc.lft.to/lastmile_qr_scan"}, "is_reserved": 0, "fusion_lat": 0.0, "type": "electric_scooter", "bike_id": "c6dadebaedae2ff15bf85bcca57518ac", "is_disabled": 0, "lon": -77.03860733333333, "fusion_lon": 0.0, "name": "c6dadebaedae2ff15bf85bcca57518ac", "lat": 38.92524133333333}, {"rental_uris": {"ios": "https://dc.lft.to/lastmile_qr_scan", "android": "https://dc.lft.to/lastmile_qr_scan"}, "is_reserved": 0, "fusion_lat": 0.0, "type": "electric_scooter", "bike_id": "8aaead6f1ac8aa0a5118bd538f451ff5", "is_disabled": 0, "lon": -77.0093135, "fusion_lon": 0.0, "name": "8aaead6f1ac8aa0a5118bd538f451ff5", "lat": 38.87626183333333}, {"rental_uris": {"ios": "https://dc.lft.to/lastmile_qr_scan", "android": "https://dc.lft.to/lastmile_qr_scan"}, "is_reserved": 0, "fusion_lat": 0.0, "type": "electric_bike", "bike_id": "af4c63ba3186943d48dfa707a93a3278", "is_disabled": 0, "lon": -76.9625905, "fusion_lon": 0.0, "name": "af4c63ba3186943d48dfa707a93a3278", "lat": 38.88245516666667}, {"rental_uris": {"ios": "https://dc.lft.to/lastmile_qr_scan", "android": "https://dc.lft.to/lastmile_qr_scan"}, "is_reserved": 0, "fusion_lat": 0.0, "type": "electric_scooter", "bike_id": "80d573faa42d93922b3d7a9abe3dcf20", "is_disabled": 0, "lon": -76.9762925, "fusion_lon": 0.0, "name": "80d573faa42d93922b3d7a9abe3dcf20", "lat": 38.901612666666665}, {"rental_uris": {"ios": "https://dc.lft.to/lastmile_qr_scan", "android": "https://dc.lft.to/lastmile_qr_scan"}, "is_reserved": 0, "fusion_lat": 0.0, "type": "electric_scooter", "bike_id": "00deca63051cad6a14303a0119f0a51e", "is_disabled": 0, "lon": -77.044647, "fusion_lon": 0.0, "name": "00deca63051cad6a14303a0119f0a51e", "lat": 38.92313933333333}, {"rental_uris": {"ios": "https://dc.lft.to/lastmile_qr_scan", "android": "https://dc.lft.to/lastmile_qr_scan"}, "is_reserved": 0, "fusion_lat": 0.0, "type": "electric_scooter", "bike_id": "c20a60e575edeb03ac3e35d9e273ed86", "is_disabled": 0, "lon": -77.018414, "fusion_lon": 0.0, "name": "c20a60e575edeb03ac3e35d9e273ed86", "lat": 38.89892583333334}, {"rental_uris": {"ios": "https://dc.lft.to/lastmile_qr_scan", "android": "https://dc.lft.to/lastmile_qr_scan"}, "is_reserved": 0, "fusion_lat": 0.0, "type": "electric_scooter", "bike_id": "df5d296cc226fa3adfd48c4cf2f07ae9", "is_disabled": 0, "lon": -77.01983833333334, "fusion_lon": 0.0, "name": "df5d296cc226fa3adfd48c4cf2f07ae9", "lat": 38.893082666666665}, {"rental_uris": {"ios": "https://dc.lft.to/lastmile_qr_scan", "android": "https://dc.lft.to/lastmile_qr_scan"}, "is_reserved": 0, "fusion_lat": 0.0, "type": "electric_scooter", "bike_id": "4828fa583eb579e25e78ce719634d9d6", "is_disabled": 0, "lon": -77.04265133333334, "fusion_lon": 0.0, "name": "4828fa583eb579e25e78ce719634d9d6", "lat": 38.908722}, {"rental_uris": {"ios": "https://dc.lft.to/lastmile_qr_scan", "android": "https://dc.lft.to/lastmile_qr_scan"}, "is_reserved": 0, "fusion_lat": 0.0, "type": "electric_scooter", "bike_id": "b12ea9d40ede777a4ad56e5a7342b199", "is_disabled": 0, "lon": -77.04125733333333, "fusion_lon": 0.0, "name": "b12ea9d40ede777a4ad56e5a7342b199", "lat": 38.91709816666667}, {"rental_uris": {"ios": "https://dc.lft.to/lastmile_qr_scan", "android": "https://dc.lft.to/lastmile_qr_scan"}, "is_reserved": 0, "fusion_lat": 0.0, "type": "electric_scooter", "bike_id": "4fade747fe9b0f455892480d64d43d65", "is_disabled": 0, "lon": -77.03185883333333, "fusion_lon": 0.0, "name": "4fade747fe9b0f455892480d64d43d65", "lat": 38.9157275}, {"rental_uris": {"ios": "https://dc.lft.to/lastmile_qr_scan", "android": "https://dc.lft.to/lastmile_qr_scan"}, "is_reserved": 0, "fusion_lat": 0.0, "type": "electric_scooter", "bike_id": "86c8a8355f2c57da5347e8c0fd5e3d5a", "is_disabled": 0, "lon": -77.02115866666666, "fusion_lon": 0.0, "name": "86c8a8355f2c57da5347e8c0fd5e3d5a", "lat": 38.90184683333333}, {"rental_uris": {"ios": "https://dc.lft.to/lastmile_qr_scan", "android": "https://dc.lft.to/lastmile_qr_scan"}, "is_reserved": 0, "fusion_lat": 0.0, "type": "electric_scooter", "bike_id": "12284ea23c8cc38a7376dcf4e2c535b8", "is_disabled": 0, "lon": -77.0491355, "fusion_lon": 0.0, "name": "12284ea23c8cc38a7376dcf4e2c535b8", "lat": 38.89687033333333}, {"rental_uris": {"ios": "https://dc.lft.to/lastmile_qr_scan", "android": "https://dc.lft.to/lastmile_qr_scan"}, "is_reserved": 0, "fusion_lat": 0.0, "type": "electric_scooter", "bike_id": "41f1bc9399c750c016d56b25d386959d", "is_disabled": 0, "lon": -76.98558, "fusion_lon": 0.0, "name": "41f1bc9399c750c016d56b25d386959d", "lat": 38.900395833333334}, {"rental_uris": {"ios": "https://dc.lft.to/lastmile_qr_scan", "android": "https://dc.lft.to/lastmile_qr_scan"}, "is_reserved": 0, "fusion_lat": 0.0, "type": "electric_scooter", "bike_id": "f45d6a8fc333d820527c7a3182d13593", "is_disabled": 0, "lon": -77.02844783333333, "fusion_lon": 0.0, "name": "f45d6a8fc333d820527c7a3182d13593", "lat": 38.887481333333334}, {"rental_uris": {"ios": "https://dc.lft.to/lastmile_qr_scan", "android": "https://dc.lft.to/lastmile_qr_scan"}, "is_reserved": 0, "fusion_lat": 0.0, "type": "electric_scooter", "bike_id": "1ca64771713477932d91c48bfd61c9ef", "is_disabled": 0, "lon": -77.01677416666666, "fusion_lon": 0.0, "name": "1ca64771713477932d91c48bfd61c9ef", "lat": 38.92042516666667}, {"rental_uris": {"ios": "https://dc.lft.to/lastmile_qr_scan", "android": "https://dc.lft.to/lastmile_qr_scan"}, "is_reserved": 0, "fusion_lat": 0.0, "type": "electric_scooter", "bike_id": "d367a222b3c3a109e6ee3ba5aa7b29bf", "is_disabled": 0, "lon": -77.023506, "fusion_lon": 0.0, "name": "d367a222b3c3a109e6ee3ba5aa7b29bf", "lat": 38.935307333333334}, {"rental_uris": {"ios": "https://dc.lft.to/lastmile_qr_scan", "android": "https://dc.lft.to/lastmile_qr_scan"}, "is_reserved": 0, "fusion_lat": 0.0, "type": "electric_scooter", "bike_id": "8207cc82a605a5276b208208fee41158", "is_disabled": 0, "lon": -77.0423495, "fusion_lon": 0.0, "name": "8207cc82a605a5276b208208fee41158", "lat": 38.9215195}, {"rental_uris": {"ios": "https://dc.lft.to/lastmile_qr_scan", "android": "https://dc.lft.to/lastmile_qr_scan"}, "is_reserved": 0, "fusion_lat": 0.0, "type": "electric_scooter", "bike_id": "9ca92ba1bdc4db64e5486e33565e4597", "is_disabled": 0, "lon": -77.02185383333334, "fusion_lon": 0.0, "name": "9ca92ba1bdc4db64e5486e33565e4597", "lat": 38.892327333333334}, {"rental_uris": {"ios": "https://dc.lft.to/lastmile_qr_scan", "android": "https://dc.lft.to/lastmile_qr_scan"}, "is_reserved": 0, "fusion_lat": 0.0, "type": "electric_scooter", "bike_id": "a4838ced4aa49767600fcd486dbb24de", "is_disabled": 0, "lon": -77.00203966666666, "fusion_lon": 0.0, "name": "a4838ced4aa49767600fcd486dbb24de", "lat": 38.900302333333336}, {"rental_uris": {"ios": "https://dc.lft.to/lastmile_qr_scan", "android": "https://dc.lft.to/lastmile_qr_scan"}, "is_reserved": 0, "fusion_lat": 0.0, "type": "electric_bike", "bike_id": "e2cd9db90d0d822100beadab896367f6", "is_disabled": 0, "lon": -77.03175633333333, "fusion_lon": 0.0, "name": "e2cd9db90d0d822100beadab896367f6", "lat": 38.91414183333333}, {"rental_uris": {"ios": "https://dc.lft.to/lastmile_qr_scan", "android": "https://dc.lft.to/lastmile_qr_scan"}, "is_reserved": 0, "fusion_lat": 0.0, "type": "electric_scooter", "bike_id": "a1372a90046ea56f88348b2a7faa6830", "is_disabled": 0, "lon": -77.00067666666666, "fusion_lon": 0.0, "name": "a1372a90046ea56f88348b2a7faa6830", "lat": 38.9255345}, {"rental_uris": {"ios": "https://dc.lft.to/lastmile_qr_scan", "android": "https://dc.lft.to/lastmile_qr_scan"}, "is_reserved": 0, "fusion_lat": 0.0, "type": "electric_scooter", "bike_id": "d0b4317550b2f50fc491e2093c50b5d5", "is_disabled": 0, "lon": -77.03627583333333, "fusion_lon": 0.0, "name": "d0b4317550b2f50fc491e2093c50b5d5", "lat": 38.936802}, {"rental_uris": {"ios": "https://dc.lft.to/lastmile_qr_scan", "android": "https://dc.lft.to/lastmile_qr_scan"}, "is_reserved": 0, "fusion_lat": 0.0, "type": "electric_scooter", "bike_id": "35221b7025ae3397ee79f5dad7b19097", "is_disabled": 0, "lon": -77.03944333333334, "fusion_lon": 0.0, "name": "35221b7025ae3397ee79f5dad7b19097", "lat": 38.90265}, {"rental_uris": {"ios": "https://dc.lft.to/lastmile_qr_scan", "android": "https://dc.lft.to/lastmile_qr_scan"}, "is_reserved": 0, "fusion_lat": 0.0, "type": "electric_scooter", "bike_id": "c4885c2fb84fa91658b5b1ab2502d705", "is_disabled": 0, "lon": -77.005508, "fusion_lon": 0.0, "name": "c4885c2fb84fa91658b5b1ab2502d705", "lat": 38.879093}, {"rental_uris": {"ios": "https://dc.lft.to/lastmile_qr_scan", "android": "https://dc.lft.to/lastmile_qr_scan"}, "is_reserved": 0, "fusion_lat": 0.0, "type": "electric_scooter", "bike_id": "c425b91a7ac12c7dfcbcbae4d35337bb", "is_disabled": 0, "lon": -76.9961245, "fusion_lon": 0.0, "name": "c425b91a7ac12c7dfcbcbae4d35337bb", "lat": 38.8872845}, {"rental_uris": {"ios": "https://dc.lft.to/lastmile_qr_scan", "android": "https://dc.lft.to/lastmile_qr_scan"}, "is_reserved": 0, "fusion_lat": 0.0, "type": "electric_bike", "bike_id": "351f268bbbdeb361972b9ff4b258db68", "is_disabled": 0, "lon": -76.95196916666667, "fusion_lon": 0.0, "name": "351f268bbbdeb361972b9ff4b258db68", "lat": 39.0844365}, {"rental_uris": {"ios": "https://dc.lft.to/lastmile_qr_scan", "android": "https://dc.lft.to/lastmile_qr_scan"}, "is_reserved": 0, "fusion_lat": 0.0, "type": "electric_scooter", "bike_id": "77edf3cfb078b65aaeeafcc4268c207f", "is_disabled": 0, "lon": -77.05824283333334, "fusion_lon": 0.0, "name": "77edf3cfb078b65aaeeafcc4268c207f", "lat": 38.93542133333333}, {"rental_uris": {"ios": "https://dc.lft.to/lastmile_qr_scan", "android": "https://dc.lft.to/lastmile_qr_scan"}, "is_reserved": 0, "fusion_lat": 0.0, "type": "electric_bike", "bike_id": "36d1069d4d6ad6decf49f289c93fd1c1", "is_disabled": 0, "lon": -77.18737416666667, "fusion_lon": 0.0, "name": "36d1069d4d6ad6decf49f289c93fd1c1", "lat": 38.89349933333333}, {"rental_uris": {"ios": "https://dc.lft.to/lastmile_qr_scan", "android": "https://dc.lft.to/lastmile_qr_scan"}, "is_reserved": 0, "fusion_lat": 0.0, "type": "electric_scooter", "bike_id": "0dce7c0e2edf392c17f98b4831b906e8", "is_disabled": 0, "lon": -77.047626, "fusion_lon": 0.0, "name": "0dce7c0e2edf392c17f98b4831b906e8", "lat": 38.90076}, {"rental_uris": {"ios": "https://dc.lft.to/lastmile_qr_scan", "android": "https://dc.lft.to/lastmile_qr_scan"}, "is_reserved": 0, "fusion_lat": 0.0, "type": "electric_scooter", "bike_id": "03f7d0312086adaadb8a7c0904d13a46", "is_disabled": 0, "lon": -77.02685866666667, "fusion_lon": 0.0, "name": "03f7d0312086adaadb8a7c0904d13a46", "lat": 38.92387216666667}, {"rental_uris": {"ios": "https://dc.lft.to/lastmile_qr_scan", "android": "https://dc.lft.to/lastmile_qr_scan"}, "is_reserved": 0, "fusion_lat": 0.0, "type": "electric_scooter", "bike_id": "32dc89e2b09233b5bfb9cc6da491adfc", "is_disabled": 0, "lon": -77.057222, "fusion_lon": 0.0, "name": "32dc89e2b09233b5bfb9cc6da491adfc", "lat": 38.90693516666666}, {"rental_uris": {"ios": "https://dc.lft.to/lastmile_qr_scan", "android": "https://dc.lft.to/lastmile_qr_scan"}, "is_reserved": 0, "fusion_lat": 0.0, "type": "electric_scooter", "bike_id": "ea93580507350dc342c3b86a895f6898", "is_disabled": 0, "lon": -77.028206, "fusion_lon": 0.0, "name": "ea93580507350dc342c3b86a895f6898", "lat": 38.95619816666667}, {"rental_uris": {"ios": "https://dc.lft.to/lastmile_qr_scan", "android": "https://dc.lft.to/lastmile_qr_scan"}, "is_reserved": 0, "fusion_lat": 0.0, "type": "electric_scooter", "bike_id": "ffb085f4f30ad5a097df23a712fa1d20", "is_disabled": 0, "lon": -77.04299683333333, "fusion_lon": 0.0, "name": "ffb085f4f30ad5a097df23a712fa1d20", "lat": 38.92646516666667}, {"rental_uris": {"ios": "https://dc.lft.to/lastmile_qr_scan", "android": "https://dc.lft.to/lastmile_qr_scan"}, "is_reserved": 0, "fusion_lat": 0.0, "type": "electric_scooter", "bike_id": "4bb832382b9faf03881afb944ed1bca4", "is_disabled": 0, "lon": -76.98789166666667, "fusion_lon": 0.0, "name": "4bb832382b9faf03881afb944ed1bca4", "lat": 38.900196}, {"rental_uris": {"ios": "https://dc.lft.to/lastmile_qr_scan", "android": "https://dc.lft.to/lastmile_qr_scan"}, "is_reserved": 0, "fusion_lat": 0.0, "type": "electric_bike", "bike_id": "29e43f82d7f73a49db8c8f3c866623cd", "is_disabled": 0, "lon": -77.00270566666667, "fusion_lon": 0.0, "name": "29e43f82d7f73a49db8c8f3c866623cd", "lat": 38.952385}, {"rental_uris": {"ios": "https://dc.lft.to/lastmile_qr_scan", "android": "https://dc.lft.to/lastmile_qr_scan"}, "is_reserved": 0, "fusion_lat": 0.0, "type": "electric_scooter", "bike_id": "a3a8bf2689ad96bc9984607d5540fedc", "is_disabled": 0, "lon": -76.9977635, "fusion_lon": 0.0, "name": "a3a8bf2689ad96bc9984607d5540fedc", "lat": 38.844389166666666}, {"rental_uris": {"ios": "https://dc.lft.to/lastmile_qr_scan", "android": "https://dc.lft.to/lastmile_qr_scan"}, "is_reserved": 0, "fusion_lat": 0.0, "type": "electric_scooter", "bike_id": "0957a26f4519ed062be53cf6308cde7a", "is_disabled": 0, "lon": -77.0467365, "fusion_lon": 0.0, "name": "0957a26f4519ed062be53cf6308cde7a", "lat": 38.904184666666666}, {"rental_uris": {"ios": "https://dc.lft.to/lastmile_qr_scan", "android": "https://dc.lft.to/lastmile_qr_scan"}, "is_reserved": 0, "fusion_lat": 0.0, "type": "electric_scooter", "bike_id": "5f8f1d4928788e3530c1d7754fff77fc", "is_disabled": 0, "lon": -77.03185166666667, "fusion_lon": 0.0, "name": "5f8f1d4928788e3530c1d7754fff77fc", "lat": 38.914285}, {"rental_uris": {"ios": "https://dc.lft.to/lastmile_qr_scan", "android": "https://dc.lft.to/lastmile_qr_scan"}, "is_reserved": 0, "fusion_lat": 0.0, "type": "electric_scooter", "bike_id": "2aec3f710f9dcbc08c3b39bff72581d8", "is_disabled": 0, "lon": -77.02387966666667, "fusion_lon": 0.0, "name": "2aec3f710f9dcbc08c3b39bff72581d8", "lat": 38.916835166666665}, {"rental_uris": {"ios": "https://dc.lft.to/lastmile_qr_scan", "android": "https://dc.lft.to/lastmile_qr_scan"}, "is_reserved": 0, "fusion_lat": 0.0, "type": "electric_scooter", "bike_id": "ca9836822c2cf9c408c676a26b8e8acc", "is_disabled": 0, "lon": -77.04339966666667, "fusion_lon": 0.0, "name": "ca9836822c2cf9c408c676a26b8e8acc", "lat": 38.905620666666664}, {"rental_uris": {"ios": "https://dc.lft.to/lastmile_qr_scan", "android": "https://dc.lft.to/lastmile_qr_scan"}, "is_reserved": 0, "fusion_lat": 0.0, "type": "electric_bike", "bike_id": "2771965f1925d26032b51c13a54a0474", "is_disabled": 0, "lon": -77.02049133333334, "fusion_lon": 0.0, "name": "2771965f1925d26032b51c13a54a0474", "lat": 38.941356666666664}, {"rental_uris": {"ios": "https://dc.lft.to/lastmile_qr_scan", "android": "https://dc.lft.to/lastmile_qr_scan"}, "is_reserved": 0, "fusion_lat": 0.0, "type": "electric_scooter", "bike_id": "cec95a83f13d6712a7d1c432cb07bee9", "is_disabled": 0, "lon": -77.04195516666667, "fusion_lon": 0.0, "name": "cec95a83f13d6712a7d1c432cb07bee9", "lat": 38.8922335}, {"rental_uris": {"ios": "https://dc.lft.to/lastmile_qr_scan", "android": "https://dc.lft.to/lastmile_qr_scan"}, "is_reserved": 0, "fusion_lat": 0.0, "type": "electric_scooter", "bike_id": "95921d9a6a40f4f0790e1c131ca5c06d", "is_disabled": 0, "lon": -77.04380366666666, "fusion_lon": 0.0, "name": "95921d9a6a40f4f0790e1c131ca5c06d", "lat": 38.910649666666664}, {"rental_uris": {"ios": "https://dc.lft.to/lastmile_qr_scan", "android": "https://dc.lft.to/lastmile_qr_scan"}, "is_reserved": 0, "fusion_lat": 0.0, "type": "electric_scooter", "bike_id": "d34c2d3cfc006c53004468e2f15811c8", "is_disabled": 0, "lon": -77.0190005, "fusion_lon": 0.0, "name": "d34c2d3cfc006c53004468e2f15811c8", "lat": 38.923658333333336}, {"rental_uris": {"ios": "https://dc.lft.to/lastmile_qr_scan", "android": "https://dc.lft.to/lastmile_qr_scan"}, "is_reserved": 0, "fusion_lat": 0.0, "type": "electric_scooter", "bike_id": "9132fe3cb05369cc6e59d506617d81e8", "is_disabled": 0, "lon": -77.02699233333334, "fusion_lon": 0.0, "name": "9132fe3cb05369cc6e59d506617d81e8", "lat": 38.918015833333335}, {"rental_uris": {"ios": "https://dc.lft.to/lastmile_qr_scan", "android": "https://dc.lft.to/lastmile_qr_scan"}, "is_reserved": 0, "fusion_lat": 0.0, "type": "electric_scooter", "bike_id": "e41cf3d3d776e51eebfefbf30e580d72", "is_disabled": 0, "lon": -77.01724866666666, "fusion_lon": 0.0, "name": "e41cf3d3d776e51eebfefbf30e580d72", "lat": 38.954953}, {"rental_uris": {"ios": "https://dc.lft.to/lastmile_qr_scan", "android": "https://dc.lft.to/lastmile_qr_scan"}, "is_reserved": 0, "fusion_lat": 0.0, "type": "electric_scooter", "bike_id": "bb9d03e3930cfe4abd26b45a6f618a43", "is_disabled": 0, "lon": -77.01417566666667, "fusion_lon": 0.0, "name": "bb9d03e3930cfe4abd26b45a6f618a43", "lat": 38.92823116666667}, {"rental_uris": {"ios": "https://dc.lft.to/lastmile_qr_scan", "android": "https://dc.lft.to/lastmile_qr_scan"}, "is_reserved": 0, "fusion_lat": 0.0, "type": "electric_scooter", "bike_id": "257d42a0b061bee2ed9724210122ac1f", "is_disabled": 0, "lon": -77.03823283333334, "fusion_lon": 0.0, "name": "257d42a0b061bee2ed9724210122ac1f", "lat": 38.92475066666667}, {"rental_uris": {"ios": "https://dc.lft.to/lastmile_qr_scan", "android": "https://dc.lft.to/lastmile_qr_scan"}, "is_reserved": 0, "fusion_lat": 0.0, "type": "electric_scooter", "bike_id": "d9c8ca3b52f1bd985473d694fb4adb2a", "is_disabled": 0, "lon": -77.0061025, "fusion_lon": 0.0, "name": "d9c8ca3b52f1bd985473d694fb4adb2a", "lat": 38.87577816666666}, {"rental_uris": {"ios": "https://dc.lft.to/lastmile_qr_scan", "android": "https://dc.lft.to/lastmile_qr_scan"}, "is_reserved": 0, "fusion_lat": 0.0, "type": "electric_bike", "bike_id": "f9961838a09e88391c69e952633e1a1a", "is_disabled": 0, "lon": -77.0122545, "fusion_lon": 0.0, "name": "f9961838a09e88391c69e952633e1a1a", "lat": 38.90040333333334}, {"rental_uris": {"ios": "https://dc.lft.to/lastmile_qr_scan", "android": "https://dc.lft.to/lastmile_qr_scan"}, "is_reserved": 0, "fusion_lat": 0.0, "type": "electric_scooter", "bike_id": "93056ed30c349feb2ceb71fd9dcae21c", "is_disabled": 0, "lon": -77.02817783333333, "fusion_lon": 0.0, "name": "93056ed30c349feb2ceb71fd9dcae21c", "lat": 38.88348116666667}, {"rental_uris": {"ios": "https://dc.lft.to/lastmile_qr_scan", "android": "https://dc.lft.to/lastmile_qr_scan"}, "is_reserved": 0, "fusion_lat": 0.0, "type": "electric_scooter", "bike_id": "9c21ca4ff1ffce937f94446639a529d3", "is_disabled": 0, "lon": -77.0396835, "fusion_lon": 0.0, "name": "9c21ca4ff1ffce937f94446639a529d3", "lat": 38.898884}, {"rental_uris": {"ios": "https://dc.lft.to/lastmile_qr_scan", "android": "https://dc.lft.to/lastmile_qr_scan"}, "is_reserved": 0, "fusion_lat": 0.0, "type": "electric_bike", "bike_id": "ae5a75f85e90ed39566963c55ccd2a36", "is_disabled": 0, "lon": -77.023519, "fusion_lon": 0.0, "name": "ae5a75f85e90ed39566963c55ccd2a36", "lat": 38.929975}, {"rental_uris": {"ios": "https://dc.lft.to/lastmile_qr_scan", "android": "https://dc.lft.to/lastmile_qr_scan"}, "is_reserved": 0, "fusion_lat": 0.0, "type": "electric_scooter", "bike_id": "7d069324ee8d051731054573a7c5ef5f", "is_disabled": 0, "lon": -77.035894, "fusion_lon": 0.0, "name": "7d069324ee8d051731054573a7c5ef5f", "lat": 38.93674883333333}, {"rental_uris": {"ios": "https://dc.lft.to/lastmile_qr_scan", "android": "https://dc.lft.to/lastmile_qr_scan"}, "is_reserved": 0, "fusion_lat": 0.0, "type": "electric_scooter", "bike_id": "883133781e19105da6305090c106112b", "is_disabled": 0, "lon": -77.02837983333333, "fusion_lon": 0.0, "name": "883133781e19105da6305090c106112b", "lat": 38.91698383333333}, {"rental_uris": {"ios": "https://dc.lft.to/lastmile_qr_scan", "android": "https://dc.lft.to/lastmile_qr_scan"}, "is_reserved": 0, "fusion_lat": 0.0, "type": "electric_scooter", "bike_id": "4df12bef81ca4767c8c4311cbac43ccc", "is_disabled": 0, "lon": -77.03280333333333, "fusion_lon": 0.0, "name": "4df12bef81ca4767c8c4311cbac43ccc", "lat": 38.937060333333335}, {"rental_uris": {"ios": "https://dc.lft.to/lastmile_qr_scan", "android": "https://dc.lft.to/lastmile_qr_scan"}, "is_reserved": 0, "fusion_lat": 0.0, "type": "electric_scooter", "bike_id": "ff82800450896d0987223c70ebf5166f", "is_disabled": 0, "lon": -77.00731566666667, "fusion_lon": 0.0, "name": "ff82800450896d0987223c70ebf5166f", "lat": 38.89714166666667}, {"rental_uris": {"ios": "https://dc.lft.to/lastmile_qr_scan", "android": "https://dc.lft.to/lastmile_qr_scan"}, "is_reserved": 0, "fusion_lat": 0.0, "type": "electric_scooter", "bike_id": "fb9aef9593ed0e3396296df9146be9d6", "is_disabled": 0, "lon": -77.0432945, "fusion_lon": 0.0, "name": "fb9aef9593ed0e3396296df9146be9d6", "lat": 38.89226133333333}, {"rental_uris": {"ios": "https://dc.lft.to/lastmile_qr_scan", "android": "https://dc.lft.to/lastmile_qr_scan"}, "is_reserved": 0, "fusion_lat": 0.0, "type": "electric_scooter", "bike_id": "7b54551261843ae35c49a4e128caac2e", "is_disabled": 0, "lon": -76.93075483333334, "fusion_lon": 0.0, "name": "7b54551261843ae35c49a4e128caac2e", "lat": 38.90161966666667}, {"rental_uris": {"ios": "https://dc.lft.to/lastmile_qr_scan", "android": "https://dc.lft.to/lastmile_qr_scan"}, "is_reserved": 0, "fusion_lat": 0.0, "type": "electric_scooter", "bike_id": "b6e9c7f0f38d3e09eca0cc97ef21dfde", "is_disabled": 0, "lon": -77.03612483333333, "fusion_lon": 0.0, "name": "b6e9c7f0f38d3e09eca0cc97ef21dfde", "lat": 38.928558833333334}, {"rental_uris": {"ios": "https://dc.lft.to/lastmile_qr_scan", "android": "https://dc.lft.to/lastmile_qr_scan"}, "is_reserved": 0, "fusion_lat": 0.0, "type": "electric_scooter", "bike_id": "33008a4dcde353fa4b8ff94576dad51f", "is_disabled": 0, "lon": -77.03168283333333, "fusion_lon": 0.0, "name": "33008a4dcde353fa4b8ff94576dad51f", "lat": 38.91819366666667}, {"rental_uris": {"ios": "https://dc.lft.to/lastmile_qr_scan", "android": "https://dc.lft.to/lastmile_qr_scan"}, "is_reserved": 0, "fusion_lat": 0.0, "type": "electric_scooter", "bike_id": "0893b36f506fc288b28677ed16dd0d29", "is_disabled": 0, "lon": -77.00204666666667, "fusion_lon": 0.0, "name": "0893b36f506fc288b28677ed16dd0d29", "lat": 38.89528683333333}, {"rental_uris": {"ios": "https://dc.lft.to/lastmile_qr_scan", "android": "https://dc.lft.to/lastmile_qr_scan"}, "is_reserved": 0, "fusion_lat": 0.0, "type": "electric_bike", "bike_id": "bf946021ab2ff3a78a8b047d5ad55f23", "is_disabled": 0, "lon": -77.02128416666666, "fusion_lon": 0.0, "name": "bf946021ab2ff3a78a8b047d5ad55f23", "lat": 38.899912}, {"rental_uris": {"ios": "https://dc.lft.to/lastmile_qr_scan", "android": "https://dc.lft.to/lastmile_qr_scan"}, "is_reserved": 0, "fusion_lat": 0.0, "type": "electric_scooter", "bike_id": "0797bbd810c12d72644d816aec9d8893", "is_disabled": 0, "lon": -76.99756416666666, "fusion_lon": 0.0, "name": "0797bbd810c12d72644d816aec9d8893", "lat": 38.885047666666665}, {"rental_uris": {"ios": "https://dc.lft.to/lastmile_qr_scan", "android": "https://dc.lft.to/lastmile_qr_scan"}, "is_reserved": 0, "fusion_lat": 0.0, "type": "electric_scooter", "bike_id": "3cc88229b8cf36614c407187e6d9e864", "is_disabled": 0, "lon": -77.01924533333333, "fusion_lon": 0.0, "name": "3cc88229b8cf36614c407187e6d9e864", "lat": 38.91773533333333}, {"rental_uris": {"ios": "https://dc.lft.to/lastmile_qr_scan", "android": "https://dc.lft.to/lastmile_qr_scan"}, "is_reserved": 0, "fusion_lat": 0.0, "type": "electric_scooter", "bike_id": "a950e949e1e8cbdaef1110b38b1ce700", "is_disabled": 0, "lon": -76.98636116666667, "fusion_lon": 0.0, "name": "a950e949e1e8cbdaef1110b38b1ce700", "lat": 38.9091325}, {"rental_uris": {"ios": "https://dc.lft.to/lastmile_qr_scan", "android": "https://dc.lft.to/lastmile_qr_scan"}, "is_reserved": 0, "fusion_lat": 0.0, "type": "electric_bike", "bike_id": "2ace931e5f0ae3445ee8241b7b57acbe", "is_disabled": 0, "lon": -76.99654733333334, "fusion_lon": 0.0, "name": "2ace931e5f0ae3445ee8241b7b57acbe", "lat": 38.816133}, {"rental_uris": {"ios": "https://dc.lft.to/lastmile_qr_scan", "android": "https://dc.lft.to/lastmile_qr_scan"}, "is_reserved": 0, "fusion_lat": 0.0, "type": "electric_scooter", "bike_id": "808c6e850912c09026c331a65f84f9d5", "is_disabled": 0, "lon": -77.0094515, "fusion_lon": 0.0, "name": "808c6e850912c09026c331a65f84f9d5", "lat": 38.96114583333333}, {"rental_uris": {"ios": "https://dc.lft.to/lastmile_qr_scan", "android": "https://dc.lft.to/lastmile_qr_scan"}, "is_reserved": 0, "fusion_lat": 0.0, "type": "electric_bike", "bike_id": "ba7e653b42bf93a251e7b9699b493cab", "is_disabled": 0, "lon": -77.04497716666667, "fusion_lon": 0.0, "name": "ba7e653b42bf93a251e7b9699b493cab", "lat": 39.01414483333333}, {"rental_uris": {"ios": "https://dc.lft.to/lastmile_qr_scan", "android": "https://dc.lft.to/lastmile_qr_scan"}, "is_reserved": 0, "fusion_lat": 0.0, "type": "electric_bike", "bike_id": "f7318726cef1762236313b8df8ac82db", "is_disabled": 0, "lon": -77.09959766666667, "fusion_lon": 0.0, "name": "f7318726cef1762236313b8df8ac82db", "lat": 38.857908333333334}, {"rental_uris": {"ios": "https://dc.lft.to/lastmile_qr_scan", "android": "https://dc.lft.to/lastmile_qr_scan"}, "is_reserved": 0, "fusion_lat": 0.0, "type": "electric_bike", "bike_id": "a46849e430ec550a4b15a490bf54bfb7", "is_disabled": 0, "lon": -76.9583715, "fusion_lon": 0.0, "name": "a46849e430ec550a4b15a490bf54bfb7", "lat": 38.93048666666667}, {"rental_uris": {"ios": "https://dc.lft.to/lastmile_qr_scan", "android": "https://dc.lft.to/lastmile_qr_scan"}, "is_reserved": 0, "fusion_lat": 0.0, "type": "electric_scooter", "bike_id": "476b2e5353de376b544c549031ba0086", "is_disabled": 0, "lon": -77.02635933333333, "fusion_lon": 0.0, "name": "476b2e5353de376b544c549031ba0086", "lat": 38.894394166666665}, {"rental_uris": {"ios": "https://dc.lft.to/lastmile_qr_scan", "android": "https://dc.lft.to/lastmile_qr_scan"}, "is_reserved": 0, "fusion_lat": 0.0, "type": "electric_scooter", "bike_id": "1c92d24686454ceb0fc1cfec714b2366", "is_disabled": 0, "lon": -76.999626, "fusion_lon": 0.0, "name": "1c92d24686454ceb0fc1cfec714b2366", "lat": 38.874186}, {"rental_uris": {"ios": "https://dc.lft.to/lastmile_qr_scan", "android": "https://dc.lft.to/lastmile_qr_scan"}, "is_reserved": 0, "fusion_lat": 0.0, "type": "electric_bike", "bike_id": "bb12f72bbadbcc58ea921380c8036a03", "is_disabled": 0, "lon": -76.9725285, "fusion_lon": 0.0, "name": "bb12f72bbadbcc58ea921380c8036a03", "lat": 38.95739616666667}, {"rental_uris": {"ios": "https://dc.lft.to/lastmile_qr_scan", "android": "https://dc.lft.to/lastmile_qr_scan"}, "is_reserved": 0, "fusion_lat": 0.0, "type": "electric_scooter", "bike_id": "da1a04a8adcc42af57cef54db711443c", "is_disabled": 0, "lon": -77.0260425, "fusion_lon": 0.0, "name": "da1a04a8adcc42af57cef54db711443c", "lat": 38.906706166666666}, {"rental_uris": {"ios": "https://dc.lft.to/lastmile_qr_scan", "android": "https://dc.lft.to/lastmile_qr_scan"}, "is_reserved": 0, "fusion_lat": 0.0, "type": "electric_scooter", "bike_id": "82e9569406bd99f57b6617373b5cc418", "is_disabled": 0, "lon": -77.0232325, "fusion_lon": 0.0, "name": "82e9569406bd99f57b6617373b5cc418", "lat": 38.920907}, {"rental_uris": {"ios": "https://dc.lft.to/lastmile_qr_scan", "android": "https://dc.lft.to/lastmile_qr_scan"}, "is_reserved": 0, "fusion_lat": 0.0, "type": "electric_scooter", "bike_id": "4c99cbdaf77de96f8c28503dc3d0c484", "is_disabled": 0, "lon": -77.04346216666667, "fusion_lon": 0.0, "name": "4c99cbdaf77de96f8c28503dc3d0c484", "lat": 38.90415983333333}, {"rental_uris": {"ios": "https://dc.lft.to/lastmile_qr_scan", "android": "https://dc.lft.to/lastmile_qr_scan"}, "is_reserved": 0, "fusion_lat": 0.0, "type": "electric_scooter", "bike_id": "3f0fc6f99198639d66b183db2bb30b24", "is_disabled": 0, "lon": -76.998987, "fusion_lon": 0.0, "name": "3f0fc6f99198639d66b183db2bb30b24", "lat": 38.90034333333333}, {"rental_uris": {"ios": "https://dc.lft.to/lastmile_qr_scan", "android": "https://dc.lft.to/lastmile_qr_scan"}, "is_reserved": 0, "fusion_lat": 0.0, "type": "electric_bike", "bike_id": "3f125e2d7b5be590b2e52ab90c68de8a", "is_disabled": 0, "lon": -76.972536, "fusion_lon": 0.0, "name": "3f125e2d7b5be590b2e52ab90c68de8a", "lat": 38.95747}, {"rental_uris": {"ios": "https://dc.lft.to/lastmile_qr_scan", "android": "https://dc.lft.to/lastmile_qr_scan"}, "is_reserved": 0, "fusion_lat": 0.0, "type": "electric_scooter", "bike_id": "ec58dd600c1b16fca73145bf990859d9", "is_disabled": 0, "lon": -77.00072916666667, "fusion_lon": 0.0, "name": "ec58dd600c1b16fca73145bf990859d9", "lat": 38.9255245}, {"rental_uris": {"ios": "https://dc.lft.to/lastmile_qr_scan", "android": "https://dc.lft.to/lastmile_qr_scan"}, "is_reserved": 0, "fusion_lat": 0.0, "type": "electric_scooter", "bike_id": "59c41e883614472c0d685fd79ec9fb8c", "is_disabled": 0, "lon": -77.01485516666666, "fusion_lon": 0.0, "name": "59c41e883614472c0d685fd79ec9fb8c", "lat": 38.91406516666667}, {"rental_uris": {"ios": "https://dc.lft.to/lastmile_qr_scan", "android": "https://dc.lft.to/lastmile_qr_scan"}, "is_reserved": 0, "fusion_lat": 0.0, "type": "electric_scooter", "bike_id": "39574087173de81359b7cb89a0f168b8", "is_disabled": 0, "lon": -77.0010365, "fusion_lon": 0.0, "name": "39574087173de81359b7cb89a0f168b8", "lat": 38.90028933333333}, {"rental_uris": {"ios": "https://dc.lft.to/lastmile_qr_scan", "android": "https://dc.lft.to/lastmile_qr_scan"}, "is_reserved": 0, "fusion_lat": 0.0, "type": "electric_scooter", "bike_id": "77ffe5e29bc00bfac6625f1aab2a1e6b", "is_disabled": 0, "lon": -77.02006683333333, "fusion_lon": 0.0, "name": "77ffe5e29bc00bfac6625f1aab2a1e6b", "lat": 38.89739016666667}, {"rental_uris": {"ios": "https://dc.lft.to/lastmile_qr_scan", "android": "https://dc.lft.to/lastmile_qr_scan"}, "is_reserved": 0, "fusion_lat": 0.0, "type": "electric_scooter", "bike_id": "4b2d0d645f304c38940c1dcf97274cbb", "is_disabled": 0, "lon": -77.03992966666667, "fusion_lon": 0.0, "name": "4b2d0d645f304c38940c1dcf97274cbb", "lat": 38.9058345}, {"rental_uris": {"ios": "https://dc.lft.to/lastmile_qr_scan", "android": "https://dc.lft.to/lastmile_qr_scan"}, "is_reserved": 0, "fusion_lat": 0.0, "type": "electric_scooter", "bike_id": "b14dad5a0ced1706cd0493b00be8d936", "is_disabled": 0, "lon": -77.05533766666667, "fusion_lon": 0.0, "name": "b14dad5a0ced1706cd0493b00be8d936", "lat": 38.927972833333335}, {"rental_uris": {"ios": "https://dc.lft.to/lastmile_qr_scan", "android": "https://dc.lft.to/lastmile_qr_scan"}, "is_reserved": 0, "fusion_lat": 0.0, "type": "electric_scooter", "bike_id": "21cdaddcdc98bccf4e3f5df5f36c3e2d", "is_disabled": 0, "lon": -77.00847516666667, "fusion_lon": 0.0, "name": "21cdaddcdc98bccf4e3f5df5f36c3e2d", "lat": 38.87478633333333}, {"rental_uris": {"ios": "https://dc.lft.to/lastmile_qr_scan", "android": "https://dc.lft.to/lastmile_qr_scan"}, "is_reserved": 0, "fusion_lat": 0.0, "type": "electric_scooter", "bike_id": "c89399bd42c07579b9ab28d6519a48cc", "is_disabled": 0, "lon": -77.046553, "fusion_lon": 0.0, "name": "c89399bd42c07579b9ab28d6519a48cc", "lat": 38.9136205}, {"rental_uris": {"ios": "https://dc.lft.to/lastmile_qr_scan", "android": "https://dc.lft.to/lastmile_qr_scan"}, "is_reserved": 0, "fusion_lat": 0.0, "type": "electric_scooter", "bike_id": "7063196cd8e8ab6ab1fd45970b23ed68", "is_disabled": 0, "lon": -77.02523933333333, "fusion_lon": 0.0, "name": "7063196cd8e8ab6ab1fd45970b23ed68", "lat": 38.9065565}, {"rental_uris": {"ios": "https://dc.lft.to/lastmile_qr_scan", "android": "https://dc.lft.to/lastmile_qr_scan"}, "is_reserved": 0, "fusion_lat": 0.0, "type": "electric_bike", "bike_id": "2b4ecb13449e8a96a722f464168da0ba", "is_disabled": 0, "lon": -76.95663183333333, "fusion_lon": 0.0, "name": "2b4ecb13449e8a96a722f464168da0ba", "lat": 38.8847285}, {"rental_uris": {"ios": "https://dc.lft.to/lastmile_qr_scan", "android": "https://dc.lft.to/lastmile_qr_scan"}, "is_reserved": 0, "fusion_lat": 0.0, "type": "electric_scooter", "bike_id": "a7d0b6446410b942d68caf533478442e", "is_disabled": 0, "lon": -76.98495683333333, "fusion_lon": 0.0, "name": "a7d0b6446410b942d68caf533478442e", "lat": 38.906892666666664}, {"rental_uris": {"ios": "https://dc.lft.to/lastmile_qr_scan", "android": "https://dc.lft.to/lastmile_qr_scan"}, "is_reserved": 0, "fusion_lat": 0.0, "type": "electric_scooter", "bike_id": "ffb656057c77224fcf02a05d332193f2", "is_disabled": 0, "lon": -77.03887283333333, "fusion_lon": 0.0, "name": "ffb656057c77224fcf02a05d332193f2", "lat": 38.918371}, {"rental_uris": {"ios": "https://dc.lft.to/lastmile_qr_scan", "android": "https://dc.lft.to/lastmile_qr_scan"}, "is_reserved": 0, "fusion_lat": 0.0, "type": "electric_scooter", "bike_id": "25b1020c4ad92bae62353db2fa880ba8", "is_disabled": 0, "lon": -77.055739, "fusion_lon": 0.0, "name": "25b1020c4ad92bae62353db2fa880ba8", "lat": 38.9084245}, {"rental_uris": {"ios": "https://dc.lft.to/lastmile_qr_scan", "android": "https://dc.lft.to/lastmile_qr_scan"}, "is_reserved": 0, "fusion_lat": 0.0, "type": "electric_scooter", "bike_id": "2b3fd165bbd9f2a0eaf26f873c5ddaed", "is_disabled": 0, "lon": -77.02411066666667, "fusion_lon": 0.0, "name": "2b3fd165bbd9f2a0eaf26f873c5ddaed", "lat": 38.935081333333336}, {"rental_uris": {"ios": "https://dc.lft.to/lastmile_qr_scan", "android": "https://dc.lft.to/lastmile_qr_scan"}, "is_reserved": 0, "fusion_lat": 0.0, "type": "electric_scooter", "bike_id": "ac6226313ca808b32efba4cc828efce5", "is_disabled": 0, "lon": -77.02206083333333, "fusion_lon": 0.0, "name": "ac6226313ca808b32efba4cc828efce5", "lat": 38.92471366666667}, {"rental_uris": {"ios": "https://dc.lft.to/lastmile_qr_scan", "android": "https://dc.lft.to/lastmile_qr_scan"}, "is_reserved": 0, "fusion_lat": 0.0, "type": "electric_scooter", "bike_id": "172782e52177c058a0ced143f04afff0", "is_disabled": 0, "lon": -77.02879116666666, "fusion_lon": 0.0, "name": "172782e52177c058a0ced143f04afff0", "lat": 38.9572365}, {"rental_uris": {"ios": "https://dc.lft.to/lastmile_qr_scan", "android": "https://dc.lft.to/lastmile_qr_scan"}, "is_reserved": 0, "fusion_lat": 0.0, "type": "electric_scooter", "bike_id": "c185c53a7d57a372d498db1a8643e0d0", "is_disabled": 0, "lon": -77.00991833333333, "fusion_lon": 0.0, "name": "c185c53a7d57a372d498db1a8643e0d0", "lat": 38.87636}, {"rental_uris": {"ios": "https://dc.lft.to/lastmile_qr_scan", "android": "https://dc.lft.to/lastmile_qr_scan"}, "is_reserved": 0, "fusion_lat": 0.0, "type": "electric_scooter", "bike_id": "a8f0728aea5f799538007bf56cd72405", "is_disabled": 0, "lon": -77.01533283333333, "fusion_lon": 0.0, "name": "a8f0728aea5f799538007bf56cd72405", "lat": 38.886228}, {"rental_uris": {"ios": "https://dc.lft.to/lastmile_qr_scan", "android": "https://dc.lft.to/lastmile_qr_scan"}, "is_reserved": 0, "fusion_lat": 0.0, "type": "electric_scooter", "bike_id": "51fbf54a1a00496cb5bc057cf7398511", "is_disabled": 0, "lon": -77.00710783333334, "fusion_lon": 0.0, "name": "51fbf54a1a00496cb5bc057cf7398511", "lat": 38.88488433333333}, {"rental_uris": {"ios": "https://dc.lft.to/lastmile_qr_scan", "android": "https://dc.lft.to/lastmile_qr_scan"}, "is_reserved": 0, "fusion_lat": 0.0, "type": "electric_bike", "bike_id": "8f70a7a39464c162a3b2a0f83b169765", "is_disabled": 0, "lon": -77.04173666666667, "fusion_lon": 0.0, "name": "8f70a7a39464c162a3b2a0f83b169765", "lat": 39.034091833333335}, {"rental_uris": {"ios": "https://dc.lft.to/lastmile_qr_scan", "android": "https://dc.lft.to/lastmile_qr_scan"}, "is_reserved": 0, "fusion_lat": 0.0, "type": "electric_scooter", "bike_id": "c2248dfbce7e443b333637069535d82e", "is_disabled": 0, "lon": -77.04338666666666, "fusion_lon": 0.0, "name": "c2248dfbce7e443b333637069535d82e", "lat": 38.91786316666666}, {"rental_uris": {"ios": "https://dc.lft.to/lastmile_qr_scan", "android": "https://dc.lft.to/lastmile_qr_scan"}, "is_reserved": 0, "fusion_lat": 0.0, "type": "electric_scooter", "bike_id": "3d50b127a535d9e7a90232f033644abb", "is_disabled": 0, "lon": -76.94631183333334, "fusion_lon": 0.0, "name": "3d50b127a535d9e7a90232f033644abb", "lat": 38.898671666666665}, {"rental_uris": {"ios": "https://dc.lft.to/lastmile_qr_scan", "android": "https://dc.lft.to/lastmile_qr_scan"}, "is_reserved": 0, "fusion_lat": 0.0, "type": "electric_scooter", "bike_id": "780db45ee386d6888f465ae1c92d2062", "is_disabled": 0, "lon": -77.02563816666667, "fusion_lon": 0.0, "name": "780db45ee386d6888f465ae1c92d2062", "lat": 38.92094566666667}, {"rental_uris": {"ios": "https://dc.lft.to/lastmile_qr_scan", "android": "https://dc.lft.to/lastmile_qr_scan"}, "is_reserved": 0, "fusion_lat": 0.0, "type": "electric_scooter", "bike_id": "246f1c4a5c69ebae08b9f8ddec9a9305", "is_disabled": 0, "lon": -77.057413, "fusion_lon": 0.0, "name": "246f1c4a5c69ebae08b9f8ddec9a9305", "lat": 38.933940666666665}, {"rental_uris": {"ios": "https://dc.lft.to/lastmile_qr_scan", "android": "https://dc.lft.to/lastmile_qr_scan"}, "is_reserved": 0, "fusion_lat": 0.0, "type": "electric_scooter", "bike_id": "2c3717f9cd4afdc3e3289b0b2b3c69e7", "is_disabled": 0, "lon": -77.055249, "fusion_lon": 0.0, "name": "2c3717f9cd4afdc3e3289b0b2b3c69e7", "lat": 38.8973415}, {"rental_uris": {"ios": "https://dc.lft.to/lastmile_qr_scan", "android": "https://dc.lft.to/lastmile_qr_scan"}, "is_reserved": 0, "fusion_lat": 0.0, "type": "electric_scooter", "bike_id": "e1ca4c422f8e5567378749c7e410f19a", "is_disabled": 0, "lon": -77.05701266666667, "fusion_lon": 0.0, "name": "e1ca4c422f8e5567378749c7e410f19a", "lat": 38.905506833333334}, {"rental_uris": {"ios": "https://dc.lft.to/lastmile_qr_scan", "android": "https://dc.lft.to/lastmile_qr_scan"}, "is_reserved": 0, "fusion_lat": 0.0, "type": "electric_scooter", "bike_id": "01ef6809d549b9074c8e829a390916ec", "is_disabled": 0, "lon": -77.02470483333333, "fusion_lon": 0.0, "name": "01ef6809d549b9074c8e829a390916ec", "lat": 38.938706}, {"rental_uris": {"ios": "https://dc.lft.to/lastmile_qr_scan", "android": "https://dc.lft.to/lastmile_qr_scan"}, "is_reserved": 0, "fusion_lat": 0.0, "type": "electric_scooter", "bike_id": "95a8c23758a96b073a4875b98a49d55f", "is_disabled": 0, "lon": -77.04583333333333, "fusion_lon": 0.0, "name": "95a8c23758a96b073a4875b98a49d55f", "lat": 38.913632666666665}, {"rental_uris": {"ios": "https://dc.lft.to/lastmile_qr_scan", "android": "https://dc.lft.to/lastmile_qr_scan"}, "is_reserved": 0, "fusion_lat": 0.0, "type": "electric_scooter", "bike_id": "1aa72a9a7d0a3a0c88685e259146472a", "is_disabled": 0, "lon": -77.02004716666667, "fusion_lon": 0.0, "name": "1aa72a9a7d0a3a0c88685e259146472a", "lat": 38.924125}, {"rental_uris": {"ios": "https://dc.lft.to/lastmile_qr_scan", "android": "https://dc.lft.to/lastmile_qr_scan"}, "is_reserved": 0, "fusion_lat": 0.0, "type": "electric_scooter", "bike_id": "c565150123e36ce283de68d6e61e3e37", "is_disabled": 0, "lon": -77.03654316666666, "fusion_lon": 0.0, "name": "c565150123e36ce283de68d6e61e3e37", "lat": 38.9118995}, {"rental_uris": {"ios": "https://dc.lft.to/lastmile_qr_scan", "android": "https://dc.lft.to/lastmile_qr_scan"}, "is_reserved": 0, "fusion_lat": 0.0, "type": "electric_scooter", "bike_id": "ab9b1e28880967d043f62f80201c7c31", "is_disabled": 0, "lon": -77.02616016666667, "fusion_lon": 0.0, "name": "ab9b1e28880967d043f62f80201c7c31", "lat": 38.91920916666667}, {"rental_uris": {"ios": "https://dc.lft.to/lastmile_qr_scan", "android": "https://dc.lft.to/lastmile_qr_scan"}, "is_reserved": 0, "fusion_lat": 0.0, "type": "electric_scooter", "bike_id": "5087009e734b67cd905c3104de35f6a0", "is_disabled": 0, "lon": -77.0418605, "fusion_lon": 0.0, "name": "5087009e734b67cd905c3104de35f6a0", "lat": 38.9014735}, {"rental_uris": {"ios": "https://dc.lft.to/lastmile_qr_scan", "android": "https://dc.lft.to/lastmile_qr_scan"}, "is_reserved": 0, "fusion_lat": 0.0, "type": "electric_scooter", "bike_id": "71c107c5a1b250b138b358a7f42e3369", "is_disabled": 0, "lon": -77.02003583333334, "fusion_lon": 0.0, "name": "71c107c5a1b250b138b358a7f42e3369", "lat": 38.90403933333333}, {"rental_uris": {"ios": "https://dc.lft.to/lastmile_qr_scan", "android": "https://dc.lft.to/lastmile_qr_scan"}, "is_reserved": 0, "fusion_lat": 0.0, "type": "electric_bike", "bike_id": "23c1b44f01d654c451b6269150e1653e", "is_disabled": 0, "lon": -77.06471983333333, "fusion_lon": 0.0, "name": "23c1b44f01d654c451b6269150e1653e", "lat": 38.973812833333334}, {"rental_uris": {"ios": "https://dc.lft.to/lastmile_qr_scan", "android": "https://dc.lft.to/lastmile_qr_scan"}, "is_reserved": 0, "fusion_lat": 0.0, "type": "electric_scooter", "bike_id": "d43f2aa7165afadea5478f699fc38ee2", "is_disabled": 0, "lon": -77.04873716666667, "fusion_lon": 0.0, "name": "d43f2aa7165afadea5478f699fc38ee2", "lat": 38.916224666666665}, {"rental_uris": {"ios": "https://dc.lft.to/lastmile_qr_scan", "android": "https://dc.lft.to/lastmile_qr_scan"}, "is_reserved": 0, "fusion_lat": 0.0, "type": "electric_scooter", "bike_id": "4a3326fd9e108c0f9ea8cd105ff7d4cf", "is_disabled": 0, "lon": -77.06533633333333, "fusion_lon": 0.0, "name": "4a3326fd9e108c0f9ea8cd105ff7d4cf", "lat": 38.904737833333336}, {"rental_uris": {"ios": "https://dc.lft.to/lastmile_qr_scan", "android": "https://dc.lft.to/lastmile_qr_scan"}, "is_reserved": 0, "fusion_lat": 0.0, "type": "electric_scooter", "bike_id": "623b3c0f92eb2e2ba43e99928cc8b9d9", "is_disabled": 0, "lon": -77.04653583333334, "fusion_lon": 0.0, "name": "623b3c0f92eb2e2ba43e99928cc8b9d9", "lat": 38.900187}, {"rental_uris": {"ios": "https://dc.lft.to/lastmile_qr_scan", "android": "https://dc.lft.to/lastmile_qr_scan"}, "is_reserved": 0, "fusion_lat": 0.0, "type": "electric_scooter", "bike_id": "bd5079bb6a03a9244afab07cefe6e123", "is_disabled": 0, "lon": -76.9311575, "fusion_lon": 0.0, "name": "bd5079bb6a03a9244afab07cefe6e123", "lat": 38.8979395}, {"rental_uris": {"ios": "https://dc.lft.to/lastmile_qr_scan", "android": "https://dc.lft.to/lastmile_qr_scan"}, "is_reserved": 0, "fusion_lat": 0.0, "type": "electric_bike", "bike_id": "374cc19fd5c9ddbb38c138dfe3e39a94", "is_disabled": 0, "lon": -77.00761366666667, "fusion_lon": 0.0, "name": "374cc19fd5c9ddbb38c138dfe3e39a94", "lat": 38.9174355}, {"rental_uris": {"ios": "https://dc.lft.to/lastmile_qr_scan", "android": "https://dc.lft.to/lastmile_qr_scan"}, "is_reserved": 0, "fusion_lat": 0.0, "type": "electric_scooter", "bike_id": "24b5e0437188036a60d65a78af4d0353", "is_disabled": 0, "lon": -76.98786183333333, "fusion_lon": 0.0, "name": "24b5e0437188036a60d65a78af4d0353", "lat": 38.912392}, {"rental_uris": {"ios": "https://dc.lft.to/lastmile_qr_scan", "android": "https://dc.lft.to/lastmile_qr_scan"}, "is_reserved": 0, "fusion_lat": 0.0, "type": "electric_scooter", "bike_id": "6f2e6cbe822853005dd2dd345a89d68f", "is_disabled": 0, "lon": -77.02170183333334, "fusion_lon": 0.0, "name": "6f2e6cbe822853005dd2dd345a89d68f", "lat": 38.9155775}, {"rental_uris": {"ios": "https://dc.lft.to/lastmile_qr_scan", "android": "https://dc.lft.to/lastmile_qr_scan"}, "is_reserved": 0, "fusion_lat": 0.0, "type": "electric_scooter", "bike_id": "5a9adf7f536605aede55747df26c5b0e", "is_disabled": 0, "lon": -77.05504183333333, "fusion_lon": 0.0, "name": "5a9adf7f536605aede55747df26c5b0e", "lat": 38.929766}, {"rental_uris": {"ios": "https://dc.lft.to/lastmile_qr_scan", "android": "https://dc.lft.to/lastmile_qr_scan"}, "is_reserved": 0, "fusion_lat": 0.0, "type": "electric_scooter", "bike_id": "eb77268e92d0ac800bad4c4c070c426d", "is_disabled": 0, "lon": -76.990017, "fusion_lon": 0.0, "name": "eb77268e92d0ac800bad4c4c070c426d", "lat": 38.86506}, {"rental_uris": {"ios": "https://dc.lft.to/lastmile_qr_scan", "android": "https://dc.lft.to/lastmile_qr_scan"}, "is_reserved": 0, "fusion_lat": 0.0, "type": "electric_scooter", "bike_id": "8dd4643246d8c0cb10fa81ebde0a5714", "is_disabled": 0, "lon": -77.01581583333333, "fusion_lon": 0.0, "name": "8dd4643246d8c0cb10fa81ebde0a5714", "lat": 38.901266166666666}, {"rental_uris": {"ios": "https://dc.lft.to/lastmile_qr_scan", "android": "https://dc.lft.to/lastmile_qr_scan"}, "is_reserved": 0, "fusion_lat": 0.0, "type": "electric_scooter", "bike_id": "77fd94fad1dcfa49fcc7e1cbf9473cf3", "is_disabled": 0, "lon": -77.00224466666667, "fusion_lon": 0.0, "name": "77fd94fad1dcfa49fcc7e1cbf9473cf3", "lat": 38.900457333333335}, {"rental_uris": {"ios": "https://dc.lft.to/lastmile_qr_scan", "android": "https://dc.lft.to/lastmile_qr_scan"}, "is_reserved": 0, "fusion_lat": 0.0, "type": "electric_scooter", "bike_id": "6de8356de4e302ddf6fc46b9c9b7889f", "is_disabled": 0, "lon": -77.0110865, "fusion_lon": 0.0, "name": "6de8356de4e302ddf6fc46b9c9b7889f", "lat": 38.909700666666666}, {"rental_uris": {"ios": "https://dc.lft.to/lastmile_qr_scan", "android": "https://dc.lft.to/lastmile_qr_scan"}, "is_reserved": 0, "fusion_lat": 0.0, "type": "electric_scooter", "bike_id": "d6e0d05a6d2853d97e2b8b7b2d8d87e8", "is_disabled": 0, "lon": -77.02665916666666, "fusion_lon": 0.0, "name": "d6e0d05a6d2853d97e2b8b7b2d8d87e8", "lat": 38.8952125}, {"rental_uris": {"ios": "https://dc.lft.to/lastmile_qr_scan", "android": "https://dc.lft.to/lastmile_qr_scan"}, "is_reserved": 0, "fusion_lat": 0.0, "type": "electric_scooter", "bike_id": "2304d103cb2cec529cb123fa3f06af11", "is_disabled": 0, "lon": -77.04436883333334, "fusion_lon": 0.0, "name": "2304d103cb2cec529cb123fa3f06af11", "lat": 38.909571666666665}, {"rental_uris": {"ios": "https://dc.lft.to/lastmile_qr_scan", "android": "https://dc.lft.to/lastmile_qr_scan"}, "is_reserved": 0, "fusion_lat": 0.0, "type": "electric_scooter", "bike_id": "0a17c72dec57fe5427c9fcc77b044d0d", "is_disabled": 0, "lon": -77.04377233333334, "fusion_lon": 0.0, "name": "0a17c72dec57fe5427c9fcc77b044d0d", "lat": 38.89222483333333}, {"rental_uris": {"ios": "https://dc.lft.to/lastmile_qr_scan", "android": "https://dc.lft.to/lastmile_qr_scan"}, "is_reserved": 0, "fusion_lat": 0.0, "type": "electric_scooter", "bike_id": "070e0707ddad32ae4fa2824259499c2d", "is_disabled": 0, "lon": -77.01357, "fusion_lon": 0.0, "name": "070e0707ddad32ae4fa2824259499c2d", "lat": 38.901646666666664}, {"rental_uris": {"ios": "https://dc.lft.to/lastmile_qr_scan", "android": "https://dc.lft.to/lastmile_qr_scan"}, "is_reserved": 0, "fusion_lat": 0.0, "type": "electric_scooter", "bike_id": "b64936d903d1a72496e43269a3ced69b", "is_disabled": 0, "lon": -77.01810733333333, "fusion_lon": 0.0, "name": "b64936d903d1a72496e43269a3ced69b", "lat": 38.97380316666667}, {"rental_uris": {"ios": "https://dc.lft.to/lastmile_qr_scan", "android": "https://dc.lft.to/lastmile_qr_scan"}, "is_reserved": 0, "fusion_lat": 0.0, "type": "electric_scooter", "bike_id": "638929d819407eb73bbc39876f4cb2e4", "is_disabled": 0, "lon": -77.02814366666667, "fusion_lon": 0.0, "name": "638929d819407eb73bbc39876f4cb2e4", "lat": 38.91649316666667}, {"rental_uris": {"ios": "https://dc.lft.to/lastmile_qr_scan", "android": "https://dc.lft.to/lastmile_qr_scan"}, "is_reserved": 0, "fusion_lat": 0.0, "type": "electric_scooter", "bike_id": "89f6c86393ca8b53f89658ad4e8f8f96", "is_disabled": 0, "lon": -77.01889966666667, "fusion_lon": 0.0, "name": "89f6c86393ca8b53f89658ad4e8f8f96", "lat": 38.93988683333333}, {"rental_uris": {"ios": "https://dc.lft.to/lastmile_qr_scan", "android": "https://dc.lft.to/lastmile_qr_scan"}, "is_reserved": 0, "fusion_lat": 0.0, "type": "electric_scooter", "bike_id": "db5e9395ed15d4bd4c20cd8ce27a0e59", "is_disabled": 0, "lon": -77.01205983333334, "fusion_lon": 0.0, "name": "db5e9395ed15d4bd4c20cd8ce27a0e59", "lat": 38.9172015}, {"rental_uris": {"ios": "https://dc.lft.to/lastmile_qr_scan", "android": "https://dc.lft.to/lastmile_qr_scan"}, "is_reserved": 0, "fusion_lat": 0.0, "type": "electric_scooter", "bike_id": "2c829a607ba942d13be051ce1c61a54e", "is_disabled": 0, "lon": -77.026706, "fusion_lon": 0.0, "name": "2c829a607ba942d13be051ce1c61a54e", "lat": 38.895315}, {"rental_uris": {"ios": "https://dc.lft.to/lastmile_qr_scan", "android": "https://dc.lft.to/lastmile_qr_scan"}, "is_reserved": 0, "fusion_lat": 0.0, "type": "electric_scooter", "bike_id": "843dc6ee464ceb64c2ab5776d0d08d82", "is_disabled": 0, "lon": -77.02197633333333, "fusion_lon": 0.0, "name": "843dc6ee464ceb64c2ab5776d0d08d82", "lat": 38.928280666666666}, {"rental_uris": {"ios": "https://dc.lft.to/lastmile_qr_scan", "android": "https://dc.lft.to/lastmile_qr_scan"}, "is_reserved": 0, "fusion_lat": 0.0, "type": "electric_scooter", "bike_id": "92220dc8cfa8ec1e1e34c31327049dac", "is_disabled": 0, "lon": -77.03638566666666, "fusion_lon": 0.0, "name": "92220dc8cfa8ec1e1e34c31327049dac", "lat": 38.931841}, {"rental_uris": {"ios": "https://dc.lft.to/lastmile_qr_scan", "android": "https://dc.lft.to/lastmile_qr_scan"}, "is_reserved": 0, "fusion_lat": 0.0, "type": "electric_scooter", "bike_id": "3fef6ce7649d65adeaf879a4cc19bbc9", "is_disabled": 0, "lon": -76.99832483333333, "fusion_lon": 0.0, "name": "3fef6ce7649d65adeaf879a4cc19bbc9", "lat": 38.90043433333334}, {"rental_uris": {"ios": "https://dc.lft.to/lastmile_qr_scan", "android": "https://dc.lft.to/lastmile_qr_scan"}, "is_reserved": 0, "fusion_lat": 0.0, "type": "electric_scooter", "bike_id": "4e52a80925af8604383d18b6a7ef2840", "is_disabled": 0, "lon": -77.023707, "fusion_lon": 0.0, "name": "4e52a80925af8604383d18b6a7ef2840", "lat": 38.933235333333336}, {"rental_uris": {"ios": "https://dc.lft.to/lastmile_qr_scan", "android": "https://dc.lft.to/lastmile_qr_scan"}, "is_reserved": 0, "fusion_lat": 0.0, "type": "electric_scooter", "bike_id": "194d644fb61782c8b7b12eb4b13e4246", "is_disabled": 0, "lon": -77.01515183333333, "fusion_lon": 0.0, "name": "194d644fb61782c8b7b12eb4b13e4246", "lat": 38.89483166666667}, {"rental_uris": {"ios": "https://dc.lft.to/lastmile_qr_scan", "android": "https://dc.lft.to/lastmile_qr_scan"}, "is_reserved": 0, "fusion_lat": 0.0, "type": "electric_scooter", "bike_id": "3616904cc54c00b453ebbe74390e690b", "is_disabled": 0, "lon": -77.02760233333333, "fusion_lon": 0.0, "name": "3616904cc54c00b453ebbe74390e690b", "lat": 38.91692}, {"rental_uris": {"ios": "https://dc.lft.to/lastmile_qr_scan", "android": "https://dc.lft.to/lastmile_qr_scan"}, "is_reserved": 0, "fusion_lat": 0.0, "type": "electric_scooter", "bike_id": "6de30a35bc62df5a1a1d2afb9e425ba7", "is_disabled": 0, "lon": -77.032105, "fusion_lon": 0.0, "name": "6de30a35bc62df5a1a1d2afb9e425ba7", "lat": 38.907763}, {"rental_uris": {"ios": "https://dc.lft.to/lastmile_qr_scan", "android": "https://dc.lft.to/lastmile_qr_scan"}, "is_reserved": 0, "fusion_lat": 0.0, "type": "electric_bike", "bike_id": "0d96fe5c67a32fe867aa25e1a0828817", "is_disabled": 0, "lon": -77.039349, "fusion_lon": 0.0, "name": "0d96fe5c67a32fe867aa25e1a0828817", "lat": 38.996357333333336}, {"rental_uris": {"ios": "https://dc.lft.to/lastmile_qr_scan", "android": "https://dc.lft.to/lastmile_qr_scan"}, "is_reserved": 0, "fusion_lat": 0.0, "type": "electric_scooter", "bike_id": "f44d08d029108ba009020c22e90c358b", "is_disabled": 0, "lon": -77.00203433333333, "fusion_lon": 0.0, "name": "f44d08d029108ba009020c22e90c358b", "lat": 38.887429166666664}, {"rental_uris": {"ios": "https://dc.lft.to/lastmile_qr_scan", "android": "https://dc.lft.to/lastmile_qr_scan"}, "is_reserved": 0, "fusion_lat": 0.0, "type": "electric_scooter", "bike_id": "65da3a759158ecfc828aff6b97a3cbc7", "is_disabled": 0, "lon": -77.03535216666667, "fusion_lon": 0.0, "name": "65da3a759158ecfc828aff6b97a3cbc7", "lat": 38.92498916666667}, {"rental_uris": {"ios": "https://dc.lft.to/lastmile_qr_scan", "android": "https://dc.lft.to/lastmile_qr_scan"}, "is_reserved": 0, "fusion_lat": 0.0, "type": "electric_scooter", "bike_id": "7b447d636df0d17e49b266dce38c3249", "is_disabled": 0, "lon": -77.0320925, "fusion_lon": 0.0, "name": "7b447d636df0d17e49b266dce38c3249", "lat": 38.913917}, {"rental_uris": {"ios": "https://dc.lft.to/lastmile_qr_scan", "android": "https://dc.lft.to/lastmile_qr_scan"}, "is_reserved": 0, "fusion_lat": 0.0, "type": "electric_scooter", "bike_id": "596f0d832cb1305cd29c162b028903ea", "is_disabled": 0, "lon": -77.02465683333334, "fusion_lon": 0.0, "name": "596f0d832cb1305cd29c162b028903ea", "lat": 38.938707666666666}, {"rental_uris": {"ios": "https://dc.lft.to/lastmile_qr_scan", "android": "https://dc.lft.to/lastmile_qr_scan"}, "is_reserved": 0, "fusion_lat": 0.0, "type": "electric_scooter", "bike_id": "de7dcd199bfaa0a33bce6bef639148d7", "is_disabled": 0, "lon": -77.00126716666666, "fusion_lon": 0.0, "name": "de7dcd199bfaa0a33bce6bef639148d7", "lat": 38.89436466666667}, {"rental_uris": {"ios": "https://dc.lft.to/lastmile_qr_scan", "android": "https://dc.lft.to/lastmile_qr_scan"}, "is_reserved": 0, "fusion_lat": 0.0, "type": "electric_scooter", "bike_id": "44b077e1392e8295a90eb8207d83404b", "is_disabled": 0, "lon": -77.031879, "fusion_lon": 0.0, "name": "44b077e1392e8295a90eb8207d83404b", "lat": 38.91420516666667}, {"rental_uris": {"ios": "https://dc.lft.to/lastmile_qr_scan", "android": "https://dc.lft.to/lastmile_qr_scan"}, "is_reserved": 0, "fusion_lat": 0.0, "type": "electric_bike", "bike_id": "6c30613ac62afa37f45e218933cfb50c", "is_disabled": 0, "lon": -77.0232455, "fusion_lon": 0.0, "name": "6c30613ac62afa37f45e218933cfb50c", "lat": 38.8789325}, {"rental_uris": {"ios": "https://dc.lft.to/lastmile_qr_scan", "android": "https://dc.lft.to/lastmile_qr_scan"},