{"data": {"bikes": [{"fusion_lat": 0.0, "is_reserved": 0, "is_disabled": 0, "rental_uris": {"android": "https://dc.lft.to/lastmile_qr_scan", "ios": "https://dc.lft.to/lastmile_qr_scan"}, "fusion_lon": 0.0, "lat": 38.9230545, "lon": -77.04261883333334, "type": "electric_scooter", "bike_id": "8c69a7c4fce7d9f4aa419e122d6ce7e9", "name": "8c69a7c4fce7d9f4aa419e122d6ce7e9"}, {"fusion_lat": 0.0, "is_reserved": 0, "is_disabled": 0, "rental_uris": {"android": "https://dc.lft.to/lastmile_qr_scan", "ios": "https://dc.lft.to/lastmile_qr_scan"}, "fusion_lon": 0.0, "lat": 38.887566166666666, "lon": -77.02075233333333, "type": "electric_scooter", "bike_id": "bb199b1f5f3a04b70aad98877ff6eabf", "name": "bb199b1f5f3a04b70aad98877ff6eabf"}, {"fusion_lat": 0.0, "is_reserved": 0, "is_disabled": 0, "rental_uris": {"android": "https://dc.lft.to/lastmile_qr_scan", "ios": "https://dc.lft.to/lastmile_qr_scan"}, "fusion_lon": 0.0, "lat": 38.8723655, "lon": -77.0120725, "type": "electric_scooter", "bike_id": "4821e2dd902bae93272a9d39fb4fcea2", "name": "4821e2dd902bae93272a9d39fb4fcea2"}, {"fusion_lat": 0.0, "is_reserved": 0, "is_disabled": 0, "rental_uris": {"android": "https://dc.lft.to/lastmile_qr_scan", "ios": "https://dc.lft.to/lastmile_qr_scan"}, "fusion_lon": 0.0, "lat": 38.903823, "lon": -77.04571633333333, "type": "electric_scooter", "bike_id": "16ea49494da3a5797cef48858fc4db7a", "name": "16ea49494da3a5797cef48858fc4db7a"}, {"fusion_lat": 0.0, "is_reserved": 0, "is_disabled": 0, "rental_uris": {"android": "https://dc.lft.to/lastmile_qr_scan", "ios": "https://dc.lft.to/lastmile_qr_scan"}, "fusion_lon": 0.0, "lat": 38.9037775, "lon": -77.04671633333334, "type": "electric_scooter", "bike_id": "79361811872a38cc084db03f15f6247f", "name": "79361811872a38cc084db03f15f6247f"}, {"fusion_lat": 0.0, "is_reserved": 0, "is_disabled": 0, "rental_uris": {"android": "https://dc.lft.to/lastmile_qr_scan", "ios": "https://dc.lft.to/lastmile_qr_scan"}, "fusion_lon": 0.0, "lat": 38.91699, "lon": -77.0362605, "type": "electric_scooter", "bike_id": "1001036933ab926d7b38e973bdcb0aab", "name": "1001036933ab926d7b38e973bdcb0aab"}, {"fusion_lat": 0.0, "is_reserved": 0, "is_disabled": 0, "rental_uris": {"android": "https://dc.lft.to/lastmile_qr_scan", "ios": "https://dc.lft.to/lastmile_qr_scan"}, "fusion_lon": 0.0, "lat": 38.90735983333333, "lon": -77.03990383333333, "type": "electric_scooter", "bike_id": "ff6669b6faa6888a7e68d010593aa7c4", "name": "ff6669b6faa6888a7e68d010593aa7c4"}, {"fusion_lat": 0.0, "is_reserved": 0, "is_disabled": 0, "rental_uris": {"android": "https://dc.lft.to/lastmile_qr_scan", "ios": "https://dc.lft.to/lastmile_qr_scan"}, "fusion_lon": 0.0, "lat": 38.8936165, "lon": -77.00327316666667, "type": "electric_scooter", "bike_id": "ec33de8b76ad7b8179b218ff56d4246d", "name": "ec33de8b76ad7b8179b218ff56d4246d"}, {"fusion_lat": 0.0, "is_reserved": 0, "is_disabled": 0, "rental_uris": {"android": "https://dc.lft.to/lastmile_qr_scan", "ios": "https://dc.lft.to/lastmile_qr_scan"}, "fusion_lon": 0.0, "lat": 38.91907616666667, "lon": -77.04108633333334, "type": "electric_scooter", "bike_id": "7bd14944bc135fc568f949af52351ae0", "name": "7bd14944bc135fc568f949af52351ae0"}, {"fusion_lat": 0.0, "is_reserved": 0, "is_disabled": 0, "rental_uris": {"android": "https://dc.lft.to/lastmile_qr_scan", "ios": "https://dc.lft.to/lastmile_qr_scan"}, "fusion_lon": 0.0, "lat": 38.9311195, "lon": -77.02401766666667, "type": "electric_scooter", "bike_id": "7d3b6b332b1ed4a410aa3db4e616b68d", "name": "7d3b6b332b1ed4a410aa3db4e616b68d"}, {"fusion_lat": 0.0, "is_reserved": 0, "is_disabled": 0, "rental_uris": {"android": "https://dc.lft.to/lastmile_qr_scan", "ios": "https://dc.lft.to/lastmile_qr_scan"}, "fusion_lon": 0.0, "lat": 38.91421866666666, "lon": -77.03257733333334, "type": "electric_scooter", "bike_id": "7afc8b7df57615d78bc6aeda5b88c301", "name": "7afc8b7df57615d78bc6aeda5b88c301"}, {"fusion_lat": 0.0, "is_reserved": 0, "is_disabled": 0, "rental_uris": {"android": "https://dc.lft.to/lastmile_qr_scan", "ios": "https://dc.lft.to/lastmile_qr_scan"}, "fusion_lon": 0.0, "lat": 38.896285, "lon": -76.9565255, "type": "electric_scooter", "bike_id": "ce8846b5d1a0ab4a9fe9460761a49008", "name": "ce8846b5d1a0ab4a9fe9460761a49008"}, {"fusion_lat": 0.0, "is_reserved": 0, "is_disabled": 0, "rental_uris": {"android": "https://dc.lft.to/lastmile_qr_scan", "ios": "https://dc.lft.to/lastmile_qr_scan"}, "fusion_lon": 0.0, "lat": 38.916433166666664, "lon": -77.0317985, "type": "electric_scooter", "bike_id": "aeaa3c0e9f8bf191f08af3c8e396293e", "name": "aeaa3c0e9f8bf191f08af3c8e396293e"}, {"fusion_lat": 0.0, "is_reserved": 0, "is_disabled": 0, "rental_uris": {"android": "https://dc.lft.to/lastmile_qr_scan", "ios": "https://dc.lft.to/lastmile_qr_scan"}, "fusion_lon": 0.0, "lat": 38.935906833333334, "lon": -77.0351185, "type": "electric_scooter", "bike_id": "86a6e05bc6e0cf72845bff4b52e811ea", "name": "86a6e05bc6e0cf72845bff4b52e811ea"}, {"fusion_lat": 0.0, "is_reserved": 0, "is_disabled": 0, "rental_uris": {"android": "https://dc.lft.to/lastmile_qr_scan", "ios": "https://dc.lft.to/lastmile_qr_scan"}, "fusion_lon": 0.0, "lat": 38.89695066666667, "lon": -77.004906, "type": "electric_scooter", "bike_id": "2119814c0fe28c0174a186868114a1b1", "name": "2119814c0fe28c0174a186868114a1b1"}, {"fusion_lat": 0.0, "is_reserved": 0, "is_disabled": 0, "rental_uris": {"android": "https://dc.lft.to/lastmile_qr_scan", "ios": "https://dc.lft.to/lastmile_qr_scan"}, "fusion_lon": 0.0, "lat": 38.937055666666666, "lon": -77.0211645, "type": "electric_bike", "bike_id": "61b74861f4b3dc48479875cb093f8000", "name": "61b74861f4b3dc48479875cb093f8000"}, {"fusion_lat": 0.0, "is_reserved": 0, "is_disabled": 0, "rental_uris": {"android": "https://dc.lft.to/lastmile_qr_scan", "ios": "https://dc.lft.to/lastmile_qr_scan"}, "fusion_lon": 0.0, "lat": 38.9226085, "lon": -77.04140533333333, "type": "electric_scooter", "bike_id": "e1bc1ff2d583f881f46a500002835327", "name": "e1bc1ff2d583f881f46a500002835327"}, {"fusion_lat": 0.0, "is_reserved": 0, "is_disabled": 0, "rental_uris": {"android": "https://dc.lft.to/lastmile_qr_scan", "ios": "https://dc.lft.to/lastmile_qr_scan"}, "fusion_lon": 0.0, "lat": 38.90322233333333, "lon": -76.97296383333334, "type": "electric_scooter", "bike_id": "0d5fc6a706ab9b34d84a1735f7236fa7", "name": "0d5fc6a706ab9b34d84a1735f7236fa7"}, {"fusion_lat": 0.0, "is_reserved": 0, "is_disabled": 0, "rental_uris": {"android": "https://dc.lft.to/lastmile_qr_scan", "ios": "https://dc.lft.to/lastmile_qr_scan"}, "fusion_lon": 0.0, "lat": 38.960270333333334, "lon": -77.028334, "type": "electric_scooter", "bike_id": "79839e990076475eb9e864998f9b9dd6", "name": "79839e990076475eb9e864998f9b9dd6"}, {"fusion_lat": 0.0, "is_reserved": 0, "is_disabled": 0, "rental_uris": {"android": "https://dc.lft.to/lastmile_qr_scan", "ios": "https://dc.lft.to/lastmile_qr_scan"}, "fusion_lon": 0.0, "lat": 38.8747375, "lon": -77.0054745, "type": "electric_scooter", "bike_id": "27a1a807e971ab83fe82ebb2730dd9d5", "name": "27a1a807e971ab83fe82ebb2730dd9d5"}, {"fusion_lat": 0.0, "is_reserved": 0, "is_disabled": 0, "rental_uris": {"android": "https://dc.lft.to/lastmile_qr_scan", "ios": "https://dc.lft.to/lastmile_qr_scan"}, "fusion_lon": 0.0, "lat": 38.91418316666667, "lon": -77.01281633333333, "type": "electric_scooter", "bike_id": "1e1969033e8b2e38dba530b40a1a7e7d", "name": "1e1969033e8b2e38dba530b40a1a7e7d"}, {"fusion_lat": 0.0, "is_reserved": 0, "is_disabled": 0, "rental_uris": {"android": "https://dc.lft.to/lastmile_qr_scan", "ios": "https://dc.lft.to/lastmile_qr_scan"}, "fusion_lon": 0.0, "lat": 38.89740966666667, "lon": -77.044958, "type": "electric_scooter", "bike_id": "d3b4258a96894e71dd8e1d31409694c9", "name": "d3b4258a96894e71dd8e1d31409694c9"}, {"fusion_lat": 0.0, "is_reserved": 0, "is_disabled": 0, "rental_uris": {"android": "https://dc.lft.to/lastmile_qr_scan", "ios": "https://dc.lft.to/lastmile_qr_scan"}, "fusion_lon": 0.0, "lat": 38.906612333333335, "lon": -77.00061133333334, "type": "electric_scooter", "bike_id": "986b1ea3652312f9595c3d6120760004", "name": "986b1ea3652312f9595c3d6120760004"}, {"fusion_lat": 0.0, "is_reserved": 0, "is_disabled": 0, "rental_uris": {"android": "https://dc.lft.to/lastmile_qr_scan", "ios": "https://dc.lft.to/lastmile_qr_scan"}, "fusion_lon": 0.0, "lat": 38.92192683333333, "lon": -77.03801016666667, "type": "electric_scooter", "bike_id": "75a87d01cb01c773bc1006519a5395ae", "name": "75a87d01cb01c773bc1006519a5395ae"}, {"fusion_lat": 0.0, "is_reserved": 0, "is_disabled": 0, "rental_uris": {"android": "https://dc.lft.to/lastmile_qr_scan", "ios": "https://dc.lft.to/lastmile_qr_scan"}, "fusion_lon": 0.0, "lat": 38.928685, "lon": -77.03243816666667, "type": "electric_scooter", "bike_id": "c576d3ec5dde2228a5c0341c4cc1e49b", "name": "c576d3ec5dde2228a5c0341c4cc1e49b"}, {"fusion_lat": 0.0, "is_reserved": 0, "is_disabled": 0, "rental_uris": {"android": "https://dc.lft.to/lastmile_qr_scan", "ios": "https://dc.lft.to/lastmile_qr_scan"}, "fusion_lon": 0.0, "lat": 38.92875266666667, "lon": -77.03439283333333, "type": "electric_scooter", "bike_id": "1a94e10bbb5b50a1fe7de278250af3f8", "name": "1a94e10bbb5b50a1fe7de278250af3f8"}, {"fusion_lat": 0.0, "is_reserved": 0, "is_disabled": 0, "rental_uris": {"android": "https://dc.lft.to/lastmile_qr_scan", "ios": "https://dc.lft.to/lastmile_qr_scan"}, "fusion_lon": 0.0, "lat": 38.90050566666667, "lon": -77.00163633333334, "type": "electric_scooter", "bike_id": "28d7531cd2fdd4a78789f96d9f21aa9f", "name": "28d7531cd2fdd4a78789f96d9f21aa9f"}, {"fusion_lat": 0.0, "is_reserved": 0, "is_disabled": 0, "rental_uris": {"android": "https://dc.lft.to/lastmile_qr_scan", "ios": "https://dc.lft.to/lastmile_qr_scan"}, "fusion_lon": 0.0, "lat": 38.900298, "lon": -76.99766183333334, "type": "electric_scooter", "bike_id": "afe3d58e928127c8f33deef72fcb8f62", "name": "afe3d58e928127c8f33deef72fcb8f62"}, {"fusion_lat": 0.0, "is_reserved": 0, "is_disabled": 0, "rental_uris": {"android": "https://dc.lft.to/lastmile_qr_scan", "ios": "https://dc.lft.to/lastmile_qr_scan"}, "fusion_lon": 0.0, "lat": 38.918723166666666, "lon": -77.0450095, "type": "electric_scooter", "bike_id": "094fed84991f1538650b4449ffbd7808", "name": "094fed84991f1538650b4449ffbd7808"}, {"fusion_lat": 0.0, "is_reserved": 0, "is_disabled": 0, "rental_uris": {"android": "https://dc.lft.to/lastmile_qr_scan", "ios": "https://dc.lft.to/lastmile_qr_scan"}, "fusion_lon": 0.0, "lat": 38.94216016666667, "lon": -77.02025233333333, "type": "electric_scooter", "bike_id": "7ef9b6db95356798ac6ad94e76add9df", "name": "7ef9b6db95356798ac6ad94e76add9df"}, {"fusion_lat": 0.0, "is_reserved": 0, "is_disabled": 0, "rental_uris": {"android": "https://dc.lft.to/lastmile_qr_scan", "ios": "https://dc.lft.to/lastmile_qr_scan"}, "fusion_lon": 0.0, "lat": 38.90426383333333, "lon": -76.99064666666666, "type": "electric_scooter", "bike_id": "dbc4e498ceb89c236c32ca133c803bf7", "name": "dbc4e498ceb89c236c32ca133c803bf7"}, {"fusion_lat": 0.0, "is_reserved": 0, "is_disabled": 0, "rental_uris": {"android": "https://dc.lft.to/lastmile_qr_scan", "ios": "https://dc.lft.to/lastmile_qr_scan"}, "fusion_lon": 0.0, "lat": 38.90521666666667, "lon": -77.06256316666666, "type": "electric_scooter", "bike_id": "f58ecdb0804554fa541130644d737603", "name": "f58ecdb0804554fa541130644d737603"}, {"fusion_lat": 0.0, "is_reserved": 0, "is_disabled": 0, "rental_uris": {"android": "https://dc.lft.to/lastmile_qr_scan", "ios": "https://dc.lft.to/lastmile_qr_scan"}, "fusion_lon": 0.0, "lat": 38.90017066666667, "lon": -77.04472966666667, "type": "electric_scooter", "bike_id": "db645bb7243ae64ffdb7eec45ef79aa5", "name": "db645bb7243ae64ffdb7eec45ef79aa5"}, {"fusion_lat": 0.0, "is_reserved": 0, "is_disabled": 0, "rental_uris": {"android": "https://dc.lft.to/lastmile_qr_scan", "ios": "https://dc.lft.to/lastmile_qr_scan"}, "fusion_lon": 0.0, "lat": 38.899385, "lon": -77.0399435, "type": "electric_scooter", "bike_id": "b093ad82862500be9ff8c0ce0e80d7cd", "name": "b093ad82862500be9ff8c0ce0e80d7cd"}, {"fusion_lat": 0.0, "is_reserved": 0, "is_disabled": 0, "rental_uris": {"android": "https://dc.lft.to/lastmile_qr_scan", "ios": "https://dc.lft.to/lastmile_qr_scan"}, "fusion_lon": 0.0, "lat": 38.9052965, "lon": -77.04775216666667, "type": "electric_scooter", "bike_id": "b7702ade5d423813fa1bc936a198ad4e", "name": "b7702ade5d423813fa1bc936a198ad4e"}, {"fusion_lat": 0.0, "is_reserved": 0, "is_disabled": 0, "rental_uris": {"android": "https://dc.lft.to/lastmile_qr_scan", "ios": "https://dc.lft.to/lastmile_qr_scan"}, "fusion_lon": 0.0, "lat": 38.89329016666667, "lon": -76.929886, "type": "electric_scooter", "bike_id": "cb1e055872e8504d413ce24e386d8559", "name": "cb1e055872e8504d413ce24e386d8559"}, {"fusion_lat": 0.0, "is_reserved": 0, "is_disabled": 0, "rental_uris": {"android": "https://dc.lft.to/lastmile_qr_scan", "ios": "https://dc.lft.to/lastmile_qr_scan"}, "fusion_lon": 0.0, "lat": 38.919448, "lon": -77.02507466666667, "type": "electric_scooter", "bike_id": "632302952a592630ad4da47f8a172345", "name": "632302952a592630ad4da47f8a172345"}, {"fusion_lat": 0.0, "is_reserved": 0, "is_disabled": 0, "rental_uris": {"android": "https://dc.lft.to/lastmile_qr_scan", "ios": "https://dc.lft.to/lastmile_qr_scan"}, "fusion_lon": 0.0, "lat": 38.87631983333333, "lon": -76.96523433333333, "type": "electric_scooter", "bike_id": "489ac27a338cd8a86ad26378c64af3ec", "name": "489ac27a338cd8a86ad26378c64af3ec"}, {"fusion_lat": 0.0, "is_reserved": 0, "is_disabled": 0, "rental_uris": {"android": "https://dc.lft.to/lastmile_qr_scan", "ios": "https://dc.lft.to/lastmile_qr_scan"}, "fusion_lon": 0.0, "lat": 38.91727783333333, "lon": -77.02899633333334, "type": "electric_scooter", "bike_id": "6e0414ae93bbc9c1448992abed01bb15", "name": "6e0414ae93bbc9c1448992abed01bb15"}, {"fusion_lat": 0.0, "is_reserved": 0, "is_disabled": 0, "rental_uris": {"android": "https://dc.lft.to/lastmile_qr_scan", "ios": "https://dc.lft.to/lastmile_qr_scan"}, "fusion_lon": 0.0, "lat": 38.910280666666665, "lon": -77.03445816666667, "type": "electric_scooter", "bike_id": "0fa8f6344bfa885f9b153ec10737bfa5", "name": "0fa8f6344bfa885f9b153ec10737bfa5"}, {"fusion_lat": 0.0, "is_reserved": 0, "is_disabled": 0, "rental_uris": {"android": "https://dc.lft.to/lastmile_qr_scan", "ios": "https://dc.lft.to/lastmile_qr_scan"}, "fusion_lon": 0.0, "lat": 38.8737675, "lon": -77.000856, "type": "electric_scooter", "bike_id": "971d5862be50b8ef281141f64b9c758b", "name": "971d5862be50b8ef281141f64b9c758b"}, {"fusion_lat": 0.0, "is_reserved": 0, "is_disabled": 0, "rental_uris": {"android": "https://dc.lft.to/lastmile_qr_scan", "ios": "https://dc.lft.to/lastmile_qr_scan"}, "fusion_lon": 0.0, "lat": 39.03411716666667, "lon": -77.042134, "type": "electric_bike", "bike_id": "ae4cc09367ef1561349c36f634a985a7", "name": "ae4cc09367ef1561349c36f634a985a7"}, {"fusion_lat": 0.0, "is_reserved": 0, "is_disabled": 0, "rental_uris": {"android": "https://dc.lft.to/lastmile_qr_scan", "ios": "https://dc.lft.to/lastmile_qr_scan"}, "fusion_lon": 0.0, "lat": 38.896212166666665, "lon": -76.99852483333333, "type": "electric_scooter", "bike_id": "e1d21bc3fba1b58678cbae413474d899", "name": "e1d21bc3fba1b58678cbae413474d899"}, {"fusion_lat": 0.0, "is_reserved": 0, "is_disabled": 0, "rental_uris": {"android": "https://dc.lft.to/lastmile_qr_scan", "ios": "https://dc.lft.to/lastmile_qr_scan"}, "fusion_lon": 0.0, "lat": 38.900958, "lon": -77.01363866666667, "type": "electric_scooter", "bike_id": "2739fa1fc3c443b83ee90e0cc515640a", "name": "2739fa1fc3c443b83ee90e0cc515640a"}, {"fusion_lat": 0.0, "is_reserved": 0, "is_disabled": 0, "rental_uris": {"android": "https://dc.lft.to/lastmile_qr_scan", "ios": "https://dc.lft.to/lastmile_qr_scan"}, "fusion_lon": 0.0, "lat": 38.903203833333336, "lon": -77.02051466666667, "type": "electric_scooter", "bike_id": "c05d62feadabab06aa6b8b1184839f10", "name": "c05d62feadabab06aa6b8b1184839f10"}, {"fusion_lat": 0.0, "is_reserved": 0, "is_disabled": 0, "rental_uris": {"android": "https://dc.lft.to/lastmile_qr_scan", "ios": "https://dc.lft.to/lastmile_qr_scan"}, "fusion_lon": 0.0, "lat": 38.92181166666667, "lon": -77.0320975, "type": "electric_scooter", "bike_id": "8d8d320894bedca0ca60efb86002c435", "name": "8d8d320894bedca0ca60efb86002c435"}, {"fusion_lat": 0.0, "is_reserved": 0, "is_disabled": 0, "rental_uris": {"android": "https://dc.lft.to/lastmile_qr_scan", "ios": "https://dc.lft.to/lastmile_qr_scan"}, "fusion_lon": 0.0, "lat": 38.94188166666667, "lon": -77.02493133333333, "type": "electric_scooter", "bike_id": "75b31650bf9ba1a41f83246ea29bdbaf", "name": "75b31650bf9ba1a41f83246ea29bdbaf"}, {"fusion_lat": 0.0, "is_reserved": 0, "is_disabled": 0, "rental_uris": {"android": "https://dc.lft.to/lastmile_qr_scan", "ios": "https://dc.lft.to/lastmile_qr_scan"}, "fusion_lon": 0.0, "lat": 38.91707666666667, "lon": -77.03883483333334, "type": "electric_scooter", "bike_id": "33d572da851fd9b127caccd157878ad7", "name": "33d572da851fd9b127caccd157878ad7"}, {"fusion_lat": 0.0, "is_reserved": 0, "is_disabled": 0, "rental_uris": {"android": "https://dc.lft.to/lastmile_qr_scan", "ios": "https://dc.lft.to/lastmile_qr_scan"}, "fusion_lon": 0.0, "lat": 38.845958833333334, "lon": -77.07681983333333, "type": "electric_bike", "bike_id": "73981d9b105f463e514a677cf66401a4", "name": "73981d9b105f463e514a677cf66401a4"}, {"fusion_lat": 0.0, "is_reserved": 0, "is_disabled": 0, "rental_uris": {"android": "https://dc.lft.to/lastmile_qr_scan", "ios": "https://dc.lft.to/lastmile_qr_scan"}, "fusion_lon": 0.0, "lat": 38.89614566666667, "lon": -77.04496083333333, "type": "electric_scooter", "bike_id": "630df6a58fdb5a91d1eb8a09f7b7fd05", "name": "630df6a58fdb5a91d1eb8a09f7b7fd05"}, {"fusion_lat": 0.0, "is_reserved": 0, "is_disabled": 0, "rental_uris": {"android": "https://dc.lft.to/lastmile_qr_scan", "ios": "https://dc.lft.to/lastmile_qr_scan"}, "fusion_lon": 0.0, "lat": 38.966135333333334, "lon": -77.03653633333333, "type": "electric_bike", "bike_id": "94067d8e19e349f4207c1696df6408e6", "name": "94067d8e19e349f4207c1696df6408e6"}, {"fusion_lat": 0.0, "is_reserved": 0, "is_disabled": 0, "rental_uris": {"android": "https://dc.lft.to/lastmile_qr_scan", "ios": "https://dc.lft.to/lastmile_qr_scan"}, "fusion_lon": 0.0, "lat": 38.8662, "lon": -76.98667183333333, "type": "electric_scooter", "bike_id": "f4c3d09ae0093eb0d872f78f2c63e362", "name": "f4c3d09ae0093eb0d872f78f2c63e362"}, {"fusion_lat": 0.0, "is_reserved": 0, "is_disabled": 0, "rental_uris": {"android": "https://dc.lft.to/lastmile_qr_scan", "ios": "https://dc.lft.to/lastmile_qr_scan"}, "fusion_lon": 0.0, "lat": 38.90735083333333, "lon": -77.040037, "type": "electric_scooter", "bike_id": "4766033614846efd736f5a527011e269", "name": "4766033614846efd736f5a527011e269"}, {"fusion_lat": 0.0, "is_reserved": 0, "is_disabled": 0, "rental_uris": {"android": "https://dc.lft.to/lastmile_qr_scan", "ios": "https://dc.lft.to/lastmile_qr_scan"}, "fusion_lon": 0.0, "lat": 38.905700833333334, "lon": -77.02207816666666, "type": "electric_scooter", "bike_id": "d4d27f3054c386ba6691eeabd6d79ad7", "name": "d4d27f3054c386ba6691eeabd6d79ad7"}, {"fusion_lat": 0.0, "is_reserved": 0, "is_disabled": 0, "rental_uris": {"android": "https://dc.lft.to/lastmile_qr_scan", "ios": "https://dc.lft.to/lastmile_qr_scan"}, "fusion_lon": 0.0, "lat": 38.90980166666667, "lon": -77.0218035, "type": "electric_scooter", "bike_id": "8b98496c2fdd6d83ef3f765a0a99d3be", "name": "8b98496c2fdd6d83ef3f765a0a99d3be"}, {"fusion_lat": 0.0, "is_reserved": 0, "is_disabled": 0, "rental_uris": {"android": "https://dc.lft.to/lastmile_qr_scan", "ios": "https://dc.lft.to/lastmile_qr_scan"}, "fusion_lon": 0.0, "lat": 38.92346083333333, "lon": -77.05074733333333, "type": "electric_scooter", "bike_id": "7b2c0763aca7521c0db78e3f2ca9ab44", "name": "7b2c0763aca7521c0db78e3f2ca9ab44"}, {"fusion_lat": 0.0, "is_reserved": 0, "is_disabled": 0, "rental_uris": {"android": "https://dc.lft.to/lastmile_qr_scan", "ios": "https://dc.lft.to/lastmile_qr_scan"}, "fusion_lon": 0.0, "lat": 38.92177683333333, "lon": -77.04018983333333, "type": "electric_scooter", "bike_id": "2ec0df1e32d4f5126becae78bbc2d3c7", "name": "2ec0df1e32d4f5126becae78bbc2d3c7"}, {"fusion_lat": 0.0, "is_reserved": 0, "is_disabled": 0, "rental_uris": {"android": "https://dc.lft.to/lastmile_qr_scan", "ios": "https://dc.lft.to/lastmile_qr_scan"}, "fusion_lon": 0.0, "lat": 38.91701616666667, "lon": -77.04287833333333, "type": "electric_scooter", "bike_id": "e0fd95c84f41cc7c509c377807790ddf", "name": "e0fd95c84f41cc7c509c377807790ddf"}, {"fusion_lat": 0.0, "is_reserved": 0, "is_disabled": 0, "rental_uris": {"android": "https://dc.lft.to/lastmile_qr_scan", "ios": "https://dc.lft.to/lastmile_qr_scan"}, "fusion_lon": 0.0, "lat": 38.892946, "lon": -76.99853816666666, "type": "electric_scooter", "bike_id": "a48cd3194fc189f2e345f7a499e7351a", "name": "a48cd3194fc189f2e345f7a499e7351a"}, {"fusion_lat": 0.0, "is_reserved": 0, "is_disabled": 0, "rental_uris": {"android": "https://dc.lft.to/lastmile_qr_scan", "ios": "https://dc.lft.to/lastmile_qr_scan"}, "fusion_lon": 0.0, "lat": 38.92589133333333, "lon": -77.0336225, "type": "electric_scooter", "bike_id": "5ba97d0a11b95959d312115a82559277", "name": "5ba97d0a11b95959d312115a82559277"}, {"fusion_lat": 0.0, "is_reserved": 0, "is_disabled": 0, "rental_uris": {"android": "https://dc.lft.to/lastmile_qr_scan", "ios": "https://dc.lft.to/lastmile_qr_scan"}, "fusion_lon": 0.0, "lat": 38.92865166666667, "lon": -77.01394716666667, "type": "electric_scooter", "bike_id": "e2f015b8a6a4d23ecd0e0bc14b277588", "name": "e2f015b8a6a4d23ecd0e0bc14b277588"}, {"fusion_lat": 0.0, "is_reserved": 0, "is_disabled": 0, "rental_uris": {"android": "https://dc.lft.to/lastmile_qr_scan", "ios": "https://dc.lft.to/lastmile_qr_scan"}, "fusion_lon": 0.0, "lat": 38.93431566666667, "lon": -77.0400155, "type": "electric_scooter", "bike_id": "7192eec555698a1b3b8c40f29095a8c3", "name": "7192eec555698a1b3b8c40f29095a8c3"}, {"fusion_lat": 0.0, "is_reserved": 0, "is_disabled": 0, "rental_uris": {"android": "https://dc.lft.to/lastmile_qr_scan", "ios": "https://dc.lft.to/lastmile_qr_scan"}, "fusion_lon": 0.0, "lat": 38.917807, "lon": -77.02301283333334, "type": "electric_scooter", "bike_id": "1658b3d9bcdec64595db368cae7588a4", "name": "1658b3d9bcdec64595db368cae7588a4"}, {"fusion_lat": 0.0, "is_reserved": 0, "is_disabled": 0, "rental_uris": {"android": "https://dc.lft.to/lastmile_qr_scan", "ios": "https://dc.lft.to/lastmile_qr_scan"}, "fusion_lon": 0.0, "lat": 38.837318333333336, "lon": -76.99760816666667, "type": "electric_bike", "bike_id": "5e0d289abf78cf6f4e4ebd4a9c6a8734", "name": "5e0d289abf78cf6f4e4ebd4a9c6a8734"}, {"fusion_lat": 0.0, "is_reserved": 0, "is_disabled": 0, "rental_uris": {"android": "https://dc.lft.to/lastmile_qr_scan", "ios": "https://dc.lft.to/lastmile_qr_scan"}, "fusion_lon": 0.0, "lat": 38.89738366666667, "lon": -77.04607933333334, "type": "electric_scooter", "bike_id": "d168dd9f5090b8865d5d467357d95759", "name": "d168dd9f5090b8865d5d467357d95759"}, {"fusion_lat": 0.0, "is_reserved": 0, "is_disabled": 0, "rental_uris": {"android": "https://dc.lft.to/lastmile_qr_scan", "ios": "https://dc.lft.to/lastmile_qr_scan"}, "fusion_lon": 0.0, "lat": 38.884963666666664, "lon": -77.00346216666667, "type": "electric_scooter", "bike_id": "1ff63c89af36c40f388ea9965fa288a9", "name": "1ff63c89af36c40f388ea9965fa288a9"}, {"fusion_lat": 0.0, "is_reserved": 0, "is_disabled": 0, "rental_uris": {"android": "https://dc.lft.to/lastmile_qr_scan", "ios": "https://dc.lft.to/lastmile_qr_scan"}, "fusion_lon": 0.0, "lat": 38.9041155, "lon": -77.02144166666666, "type": "electric_scooter", "bike_id": "cd4c71621d78ee329d2d0635b38b932a", "name": "cd4c71621d78ee329d2d0635b38b932a"}, {"fusion_lat": 0.0, "is_reserved": 0, "is_disabled": 0, "rental_uris": {"android": "https://dc.lft.to/lastmile_qr_scan", "ios": "https://dc.lft.to/lastmile_qr_scan"}, "fusion_lon": 0.0, "lat": 38.8551515, "lon": -76.984295, "type": "electric_bike", "bike_id": "005e5fdb4c5b3b9356a5775722e4f60b", "name": "005e5fdb4c5b3b9356a5775722e4f60b"}, {"fusion_lat": 0.0, "is_reserved": 0, "is_disabled": 0, "rental_uris": {"android": "https://dc.lft.to/lastmile_qr_scan", "ios": "https://dc.lft.to/lastmile_qr_scan"}, "fusion_lon": 0.0, "lat": 38.889965333333336, "lon": -76.95565766666667, "type": "electric_scooter", "bike_id": "b9bccc8b9701b5529f705d86c72bddee", "name": "b9bccc8b9701b5529f705d86c72bddee"}, {"fusion_lat": 0.0, "is_reserved": 0, "is_disabled": 0, "rental_uris": {"android": "https://dc.lft.to/lastmile_qr_scan", "ios": "https://dc.lft.to/lastmile_qr_scan"}, "fusion_lon": 0.0, "lat": 38.90682, "lon": -77.07188016666667, "type": "electric_scooter", "bike_id": "1902bdb125094fad5e84c884045fe055", "name": "1902bdb125094fad5e84c884045fe055"}, {"fusion_lat": 0.0, "is_reserved": 0, "is_disabled": 0, "rental_uris": {"android": "https://dc.lft.to/lastmile_qr_scan", "ios": "https://dc.lft.to/lastmile_qr_scan"}, "fusion_lon": 0.0, "lat": 38.95328416666667, "lon": -76.99904433333333, "type": "electric_bike", "bike_id": "d87834871b660373088d551e4a26becc", "name": "d87834871b660373088d551e4a26becc"}, {"fusion_lat": 0.0, "is_reserved": 0, "is_disabled": 0, "rental_uris": {"android": "https://dc.lft.to/lastmile_qr_scan", "ios": "https://dc.lft.to/lastmile_qr_scan"}, "fusion_lon": 0.0, "lat": 38.9156805, "lon": -77.03031883333334, "type": "electric_scooter", "bike_id": "852a329c5aebbf15915bd1c6ad831350", "name": "852a329c5aebbf15915bd1c6ad831350"}, {"fusion_lat": 0.0, "is_reserved": 0, "is_disabled": 0, "rental_uris": {"android": "https://dc.lft.to/lastmile_qr_scan", "ios": "https://dc.lft.to/lastmile_qr_scan"}, "fusion_lon": 0.0, "lat": 38.9285025, "lon": -77.013884, "type": "electric_scooter", "bike_id": "391114cef127d21e1f23bfff7bbcaa33", "name": "391114cef127d21e1f23bfff7bbcaa33"}, {"fusion_lat": 0.0, "is_reserved": 0, "is_disabled": 0, "rental_uris": {"android": "https://dc.lft.to/lastmile_qr_scan", "ios": "https://dc.lft.to/lastmile_qr_scan"}, "fusion_lon": 0.0, "lat": 38.89685566666667, "lon": -76.99626983333333, "type": "electric_scooter", "bike_id": "2736016b69c3dff1cd8115a4fb2a76ab", "name": "2736016b69c3dff1cd8115a4fb2a76ab"}, {"fusion_lat": 0.0, "is_reserved": 0, "is_disabled": 0, "rental_uris": {"android": "https://dc.lft.to/lastmile_qr_scan", "ios": "https://dc.lft.to/lastmile_qr_scan"}, "fusion_lon": 0.0, "lat": 38.88722966666667, "lon": -76.95473183333333, "type": "electric_scooter", "bike_id": "999de8b7c726c677431bbe1d0f488cf0", "name": "999de8b7c726c677431bbe1d0f488cf0"}, {"fusion_lat": 0.0, "is_reserved": 0, "is_disabled": 0, "rental_uris": {"android": "https://dc.lft.to/lastmile_qr_scan", "ios": "https://dc.lft.to/lastmile_qr_scan"}, "fusion_lon": 0.0, "lat": 38.91602016666667, "lon": -77.03196683333333, "type": "electric_scooter", "bike_id": "ad774f1a277cdc0681fc7d8d3a244d9d", "name": "ad774f1a277cdc0681fc7d8d3a244d9d"}, {"fusion_lat": 0.0, "is_reserved": 0, "is_disabled": 0, "rental_uris": {"android": "https://dc.lft.to/lastmile_qr_scan", "ios": "https://dc.lft.to/lastmile_qr_scan"}, "fusion_lon": 0.0, "lat": 38.899196333333336, "lon": -76.933787, "type": "electric_scooter", "bike_id": "465fccf7688be690f6d3e6ddb52559bd", "name": "465fccf7688be690f6d3e6ddb52559bd"}, {"fusion_lat": 0.0, "is_reserved": 0, "is_disabled": 0, "rental_uris": {"android": "https://dc.lft.to/lastmile_qr_scan", "ios": "https://dc.lft.to/lastmile_qr_scan"}, "fusion_lon": 0.0, "lat": 38.90440483333333, "lon": -77.01885066666667, "type": "electric_scooter", "bike_id": "c5e59ed7834a3c773ad94320df3ed9e9", "name": "c5e59ed7834a3c773ad94320df3ed9e9"}, {"fusion_lat": 0.0, "is_reserved": 0, "is_disabled": 0, "rental_uris": {"android": "https://dc.lft.to/lastmile_qr_scan", "ios": "https://dc.lft.to/lastmile_qr_scan"}, "fusion_lon": 0.0, "lat": 38.89980533333333, "lon": -77.05546733333334, "type": "electric_scooter", "bike_id": "eb8d0764a771c8793b39712e063d6624", "name": "eb8d0764a771c8793b39712e063d6624"}, {"fusion_lat": 0.0, "is_reserved": 0, "is_disabled": 0, "rental_uris": {"android": "https://dc.lft.to/lastmile_qr_scan", "ios": "https://dc.lft.to/lastmile_qr_scan"}, "fusion_lon": 0.0, "lat": 38.89497883333333, "lon": -77.02275666666667, "type": "electric_scooter", "bike_id": "889bfe14c2395c50de9baf294213d739", "name": "889bfe14c2395c50de9baf294213d739"}, {"fusion_lat": 0.0, "is_reserved": 0, "is_disabled": 0, "rental_uris": {"android": "https://dc.lft.to/lastmile_qr_scan", "ios": "https://dc.lft.to/lastmile_qr_scan"}, "fusion_lon": 0.0, "lat": 38.876471333333335, "lon": -77.003766, "type": "electric_bike", "bike_id": "0fa5e74ec165f36510fa51ad4cc774fd", "name": "0fa5e74ec165f36510fa51ad4cc774fd"}, {"fusion_lat": 0.0, "is_reserved": 0, "is_disabled": 0, "rental_uris": {"android": "https://dc.lft.to/lastmile_qr_scan", "ios": "https://dc.lft.to/lastmile_qr_scan"}, "fusion_lon": 0.0, "lat": 38.89547966666667, "lon": -76.93371966666666, "type": "electric_scooter", "bike_id": "5c4b11b1c018a22ad31d507254176b00", "name": "5c4b11b1c018a22ad31d507254176b00"}, {"fusion_lat": 0.0, "is_reserved": 0, "is_disabled": 0, "rental_uris": {"android": "https://dc.lft.to/lastmile_qr_scan", "ios": "https://dc.lft.to/lastmile_qr_scan"}, "fusion_lon": 0.0, "lat": 38.896485166666665, "lon": -77.02311766666666, "type": "electric_scooter", "bike_id": "d7fd7b54dab008e6d77ee3465518c540", "name": "d7fd7b54dab008e6d77ee3465518c540"}, {"fusion_lat": 0.0, "is_reserved": 0, "is_disabled": 0, "rental_uris": {"android": "https://dc.lft.to/lastmile_qr_scan", "ios": "https://dc.lft.to/lastmile_qr_scan"}, "fusion_lon": 0.0, "lat": 38.90324366666667, "lon": -77.01631533333334, "type": "electric_scooter", "bike_id": "606c6966c3b77acd7bfaf499fe3b933f", "name": "606c6966c3b77acd7bfaf499fe3b933f"}, {"fusion_lat": 0.0, "is_reserved": 0, "is_disabled": 0, "rental_uris": {"android": "https://dc.lft.to/lastmile_qr_scan", "ios": "https://dc.lft.to/lastmile_qr_scan"}, "fusion_lon": 0.0, "lat": 38.898313333333334, "lon": -77.0249365, "type": "electric_scooter", "bike_id": "caf554b4d3d9b9acc614131bb3911a3f", "name": "caf554b4d3d9b9acc614131bb3911a3f"}, {"fusion_lat": 0.0, "is_reserved": 0, "is_disabled": 0, "rental_uris": {"android": "https://dc.lft.to/lastmile_qr_scan", "ios": "https://dc.lft.to/lastmile_qr_scan"}, "fusion_lon": 0.0, "lat": 38.88071266666667, "lon": -77.086386, "type": "electric_bike", "bike_id": "d4877142465800234a9f1920133dbe4c", "name": "d4877142465800234a9f1920133dbe4c"}, {"fusion_lat": 0.0, "is_reserved": 0, "is_disabled": 0, "rental_uris": {"android": "https://dc.lft.to/lastmile_qr_scan", "ios": "https://dc.lft.to/lastmile_qr_scan"}, "fusion_lon": 0.0, "lat": 38.92660566666667, "lon": -77.03730666666667, "type": "electric_scooter", "bike_id": "2f9f32743ea700a4ad8fb90e7da66df6", "name": "2f9f32743ea700a4ad8fb90e7da66df6"}, {"fusion_lat": 0.0, "is_reserved": 0, "is_disabled": 0, "rental_uris": {"android": "https://dc.lft.to/lastmile_qr_scan", "ios": "https://dc.lft.to/lastmile_qr_scan"}, "fusion_lon": 0.0, "lat": 38.880288, "lon": -76.93130733333334, "type": "electric_scooter", "bike_id": "1200b4d9ace1bef33fa93bdc8094e512", "name": "1200b4d9ace1bef33fa93bdc8094e512"}, {"fusion_lat": 0.0, "is_reserved": 0, "is_disabled": 0, "rental_uris": {"android": "https://dc.lft.to/lastmile_qr_scan", "ios": "https://dc.lft.to/lastmile_qr_scan"}, "fusion_lon": 0.0, "lat": 38.912807666666666, "lon": -77.0450675, "type": "electric_scooter", "bike_id": "672833515714c996529cd77683985242", "name": "672833515714c996529cd77683985242"}, {"fusion_lat": 0.0, "is_reserved": 0, "is_disabled": 0, "rental_uris": {"android": "https://dc.lft.to/lastmile_qr_scan", "ios": "https://dc.lft.to/lastmile_qr_scan"}, "fusion_lon": 0.0, "lat": 38.89833733333333, "lon": -77.04273183333333, "type": "electric_scooter", "bike_id": "930c0516a20565840f4e852aa16ee77a", "name": "930c0516a20565840f4e852aa16ee77a"}, {"fusion_lat": 0.0, "is_reserved": 0, "is_disabled": 0, "rental_uris": {"android": "https://dc.lft.to/lastmile_qr_scan", "ios": "https://dc.lft.to/lastmile_qr_scan"}, "fusion_lon": 0.0, "lat": 38.92228516666667, "lon": -77.04382733333334, "type": "electric_scooter", "bike_id": "a42280f9f7fc1e2d4b652e0194cfed9b", "name": "a42280f9f7fc1e2d4b652e0194cfed9b"}, {"fusion_lat": 0.0, "is_reserved": 0, "is_disabled": 0, "rental_uris": {"android": "https://dc.lft.to/lastmile_qr_scan", "ios": "https://dc.lft.to/lastmile_qr_scan"}, "fusion_lon": 0.0, "lat": 38.892178, "lon": -77.0213755, "type": "electric_scooter", "bike_id": "5f2c50255e065f311a321d67bc51be0a", "name": "5f2c50255e065f311a321d67bc51be0a"}, {"fusion_lat": 0.0, "is_reserved": 0, "is_disabled": 0, "rental_uris": {"android": "https://dc.lft.to/lastmile_qr_scan", "ios": "https://dc.lft.to/lastmile_qr_scan"}, "fusion_lon": 0.0, "lat": 38.90036416666667, "lon": -77.00535266666667, "type": "electric_scooter", "bike_id": "0dca0cc15e7e1491083e1cb6c9681025", "name": "0dca0cc15e7e1491083e1cb6c9681025"}, {"fusion_lat": 0.0, "is_reserved": 0, "is_disabled": 0, "rental_uris": {"android": "https://dc.lft.to/lastmile_qr_scan", "ios": "https://dc.lft.to/lastmile_qr_scan"}, "fusion_lon": 0.0, "lat": 38.8865845, "lon": -77.033879, "type": "electric_scooter", "bike_id": "058f2f09dec2f142e61107fc4f3982bc", "name": "058f2f09dec2f142e61107fc4f3982bc"}, {"fusion_lat": 0.0, "is_reserved": 0, "is_disabled": 0, "rental_uris": {"android": "https://dc.lft.to/lastmile_qr_scan", "ios": "https://dc.lft.to/lastmile_qr_scan"}, "fusion_lon": 0.0, "lat": 38.904437, "lon": -77.0434685, "type": "electric_scooter", "bike_id": "a214238f98335cb49452ac9ad789550d", "name": "a214238f98335cb49452ac9ad789550d"}, {"fusion_lat": 0.0, "is_reserved": 0, "is_disabled": 0, "rental_uris": {"android": "https://dc.lft.to/lastmile_qr_scan", "ios": "https://dc.lft.to/lastmile_qr_scan"}, "fusion_lon": 0.0, "lat": 38.907385166666664, "lon": -77.001043, "type": "electric_scooter", "bike_id": "3a55d377f84231899db54838fb8fc4cb", "name": "3a55d377f84231899db54838fb8fc4cb"}, {"fusion_lat": 0.0, "is_reserved": 0, "is_disabled": 0, "rental_uris": {"android": "https://dc.lft.to/lastmile_qr_scan", "ios": "https://dc.lft.to/lastmile_qr_scan"}, "fusion_lon": 0.0, "lat": 38.926639, "lon": -77.05592316666667, "type": "electric_scooter", "bike_id": "0fff3922fa2f4cf36901c30ecff9e4e2", "name": "0fff3922fa2f4cf36901c30ecff9e4e2"}, {"fusion_lat": 0.0, "is_reserved": 0, "is_disabled": 0, "rental_uris": {"android": "https://dc.lft.to/lastmile_qr_scan", "ios": "https://dc.lft.to/lastmile_qr_scan"}, "fusion_lon": 0.0, "lat": 38.884848833333336, "lon": -77.03352783333334, "type": "electric_scooter", "bike_id": "82036074e02bd0e4bef919f4d4af7d62", "name": "82036074e02bd0e4bef919f4d4af7d62"}, {"fusion_lat": 0.0, "is_reserved": 0, "is_disabled": 0, "rental_uris": {"android": "https://dc.lft.to/lastmile_qr_scan", "ios": "https://dc.lft.to/lastmile_qr_scan"}, "fusion_lon": 0.0, "lat": 38.9247515, "lon": -77.05259016666666, "type": "electric_scooter", "bike_id": "d4b816e6d5df6dbd73d3e8438238739f", "name": "d4b816e6d5df6dbd73d3e8438238739f"}, {"fusion_lat": 0.0, "is_reserved": 0, "is_disabled": 0, "rental_uris": {"android": "https://dc.lft.to/lastmile_qr_scan", "ios": "https://dc.lft.to/lastmile_qr_scan"}, "fusion_lon": 0.0, "lat": 38.9401475, "lon": -77.07176183333333, "type": "electric_scooter", "bike_id": "44c5297c03d9c19132dfd5d507fa6a09", "name": "44c5297c03d9c19132dfd5d507fa6a09"}, {"fusion_lat": 0.0, "is_reserved": 0, "is_disabled": 0, "rental_uris": {"android": "https://dc.lft.to/lastmile_qr_scan", "ios": "https://dc.lft.to/lastmile_qr_scan"}, "fusion_lon": 0.0, "lat": 38.903992333333335, "lon": -77.035917, "type": "electric_scooter", "bike_id": "3cf3c3670adbe3162a127cd90808c685", "name": "3cf3c3670adbe3162a127cd90808c685"}, {"fusion_lat": 0.0, "is_reserved": 0, "is_disabled": 0, "rental_uris": {"android": "https://dc.lft.to/lastmile_qr_scan", "ios": "https://dc.lft.to/lastmile_qr_scan"}, "fusion_lon": 0.0, "lat": 38.8852235, "lon": -77.03338733333334, "type": "electric_scooter", "bike_id": "5f028f7fb05da79d45da466731396efc", "name": "5f028f7fb05da79d45da466731396efc"}, {"fusion_lat": 0.0, "is_reserved": 0, "is_disabled": 0, "rental_uris": {"android": "https://dc.lft.to/lastmile_qr_scan", "ios": "https://dc.lft.to/lastmile_qr_scan"}, "fusion_lon": 0.0, "lat": 38.89867983333333, "lon": -77.04376, "type": "electric_scooter", "bike_id": "07a8e0fe25ef7e7178d80c0b9b7246d0", "name": "07a8e0fe25ef7e7178d80c0b9b7246d0"}, {"fusion_lat": 0.0, "is_reserved": 0, "is_disabled": 0, "rental_uris": {"android": "https://dc.lft.to/lastmile_qr_scan", "ios": "https://dc.lft.to/lastmile_qr_scan"}, "fusion_lon": 0.0, "lat": 38.924195, "lon": -77.0223555, "type": "electric_scooter", "bike_id": "09e9919361df855ba6002425b8a107b0", "name": "09e9919361df855ba6002425b8a107b0"}, {"fusion_lat": 0.0, "is_reserved": 0, "is_disabled": 0, "rental_uris": {"android": "https://dc.lft.to/lastmile_qr_scan", "ios": "https://dc.lft.to/lastmile_qr_scan"}, "fusion_lon": 0.0, "lat": 38.899064333333335, "lon": -76.933509, "type": "electric_scooter", "bike_id": "6020e5b728af95a037dde9118c2ae386", "name": "6020e5b728af95a037dde9118c2ae386"}, {"fusion_lat": 0.0, "is_reserved": 0, "is_disabled": 0, "rental_uris": {"android": "https://dc.lft.to/lastmile_qr_scan", "ios": "https://dc.lft.to/lastmile_qr_scan"}, "fusion_lon": 0.0, "lat": 38.904149833333335, "lon": -77.02082383333334, "type": "electric_scooter", "bike_id": "b73b848f7c5b49941b7e1833a14b6992", "name": "b73b848f7c5b49941b7e1833a14b6992"}, {"fusion_lat": 0.0, "is_reserved": 0, "is_disabled": 0, "rental_uris": {"android": "https://dc.lft.to/lastmile_qr_scan", "ios": "https://dc.lft.to/lastmile_qr_scan"}, "fusion_lon": 0.0, "lat": 38.89202, "lon": -77.02383, "type": "electric_scooter", "bike_id": "7ea74aa0f4c25a0b022c34a2fa589165", "name": "7ea74aa0f4c25a0b022c34a2fa589165"}, {"fusion_lat": 0.0, "is_reserved": 0, "is_disabled": 0, "rental_uris": {"android": "https://dc.lft.to/lastmile_qr_scan", "ios": "https://dc.lft.to/lastmile_qr_scan"}, "fusion_lon": 0.0, "lat": 38.897504833333336, "lon": -77.04545966666667, "type": "electric_scooter", "bike_id": "6b490e178e35e36ca7650075be62d9b1", "name": "6b490e178e35e36ca7650075be62d9b1"}, {"fusion_lat": 0.0, "is_reserved": 0, "is_disabled": 0, "rental_uris": {"android": "https://dc.lft.to/lastmile_qr_scan", "ios": "https://dc.lft.to/lastmile_qr_scan"}, "fusion_lon": 0.0, "lat": 38.858105333333334, "lon": -76.989959, "type": "electric_scooter", "bike_id": "a3997fdb3f09e840c8c811f7f2a816cf", "name": "a3997fdb3f09e840c8c811f7f2a816cf"}, {"fusion_lat": 0.0, "is_reserved": 0, "is_disabled": 0, "rental_uris": {"android": "https://dc.lft.to/lastmile_qr_scan", "ios": "https://dc.lft.to/lastmile_qr_scan"}, "fusion_lon": 0.0, "lat": 38.8977465, "lon": -77.03223466666667, "type": "electric_scooter", "bike_id": "2632c0812e230aa5b602044816765af1", "name": "2632c0812e230aa5b602044816765af1"}, {"fusion_lat": 0.0, "is_reserved": 0, "is_disabled": 0, "rental_uris": {"android": "https://dc.lft.to/lastmile_qr_scan", "ios": "https://dc.lft.to/lastmile_qr_scan"}, "fusion_lon": 0.0, "lat": 38.91699583333333, "lon": -77.03332833333333, "type": "electric_scooter", "bike_id": "8b37a488ebc9b2418b92b706e262d360", "name": "8b37a488ebc9b2418b92b706e262d360"}, {"fusion_lat": 0.0, "is_reserved": 0, "is_disabled": 0, "rental_uris": {"android": "https://dc.lft.to/lastmile_qr_scan", "ios": "https://dc.lft.to/lastmile_qr_scan"}, "fusion_lon": 0.0, "lat": 38.90094, "lon": -77.047638, "type": "electric_scooter", "bike_id": "100dbbb75c60febea3486d3682965c9a", "name": "100dbbb75c60febea3486d3682965c9a"}, {"fusion_lat": 0.0, "is_reserved": 0, "is_disabled": 0, "rental_uris": {"android": "https://dc.lft.to/lastmile_qr_scan", "ios": "https://dc.lft.to/lastmile_qr_scan"}, "fusion_lon": 0.0, "lat": 38.9136205, "lon": -77.03964733333333, "type": "electric_scooter", "bike_id": "24fbda21b1cbdd34f4ded02776e1e7ae", "name": "24fbda21b1cbdd34f4ded02776e1e7ae"}, {"fusion_lat": 0.0, "is_reserved": 0, "is_disabled": 0, "rental_uris": {"android": "https://dc.lft.to/lastmile_qr_scan", "ios": "https://dc.lft.to/lastmile_qr_scan"}, "fusion_lon": 0.0, "lat": 38.917689, "lon": -77.03190333333333, "type": "electric_scooter", "bike_id": "48ffa913158e513c65c595a7d4441ee0", "name": "48ffa913158e513c65c595a7d4441ee0"}, {"fusion_lat": 0.0, "is_reserved": 0, "is_disabled": 0, "rental_uris": {"android": "https://dc.lft.to/lastmile_qr_scan", "ios": "https://dc.lft.to/lastmile_qr_scan"}, "fusion_lon": 0.0, "lat": 38.9245065, "lon": -77.05753633333333, "type": "electric_scooter", "bike_id": "a2d056c4ab1033d539aef3fe017a5cdb", "name": "a2d056c4ab1033d539aef3fe017a5cdb"}, {"fusion_lat": 0.0, "is_reserved": 0, "is_disabled": 0, "rental_uris": {"android": "https://dc.lft.to/lastmile_qr_scan", "ios": "https://dc.lft.to/lastmile_qr_scan"}, "fusion_lon": 0.0, "lat": 38.9349875, "lon": -77.0580375, "type": "electric_scooter", "bike_id": "b6e68656d7f4634bda1b41023cf57568", "name": "b6e68656d7f4634bda1b41023cf57568"}, {"fusion_lat": 0.0, "is_reserved": 0, "is_disabled": 0, "rental_uris": {"android": "https://dc.lft.to/lastmile_qr_scan", "ios": "https://dc.lft.to/lastmile_qr_scan"}, "fusion_lon": 0.0, "lat": 38.91278916666667, "lon": -77.04508383333334, "type": "electric_scooter", "bike_id": "db1125fe6f094619a09c77dec019a766", "name": "db1125fe6f094619a09c77dec019a766"}, {"fusion_lat": 0.0, "is_reserved": 0, "is_disabled": 0, "rental_uris": {"android": "https://dc.lft.to/lastmile_qr_scan", "ios": "https://dc.lft.to/lastmile_qr_scan"}, "fusion_lon": 0.0, "lat": 38.87014966666667, "lon": -76.96020416666667, "type": "electric_bike", "bike_id": "ca9c10f0491db24495af3f7a073b4951", "name": "ca9c10f0491db24495af3f7a073b4951"}, {"fusion_lat": 0.0, "is_reserved": 0, "is_disabled": 0, "rental_uris": {"android": "https://dc.lft.to/lastmile_qr_scan", "ios": "https://dc.lft.to/lastmile_qr_scan"}, "fusion_lon": 0.0, "lat": 38.904894, "lon": -76.97928716666667, "type": "electric_scooter", "bike_id": "c1c51b5e8f7e7a5ca5c7aab58b6ee3ed", "name": "c1c51b5e8f7e7a5ca5c7aab58b6ee3ed"}, {"fusion_lat": 0.0, "is_reserved": 0, "is_disabled": 0, "rental_uris": {"android": "https://dc.lft.to/lastmile_qr_scan", "ios": "https://dc.lft.to/lastmile_qr_scan"}, "fusion_lon": 0.0, "lat": 38.88046033333333, "lon": -77.01923983333333, "type": "electric_scooter", "bike_id": "44b498f182f7ba415d1ff281840fddc4", "name": "44b498f182f7ba415d1ff281840fddc4"}, {"fusion_lat": 0.0, "is_reserved": 0, "is_disabled": 0, "rental_uris": {"android": "https://dc.lft.to/lastmile_qr_scan", "ios": "https://dc.lft.to/lastmile_qr_scan"}, "fusion_lon": 0.0, "lat": 38.83687233333333, "lon": -77.006025, "type": "electric_scooter", "bike_id": "307a2a8ac9c97cfdef9beb17266e6160", "name": "307a2a8ac9c97cfdef9beb17266e6160"}, {"fusion_lat": 0.0, "is_reserved": 0, "is_disabled": 0, "rental_uris": {"android": "https://dc.lft.to/lastmile_qr_scan", "ios": "https://dc.lft.to/lastmile_qr_scan"}, "fusion_lon": 0.0, "lat": 38.896567, "lon": -77.027251, "type": "electric_scooter", "bike_id": "82db8a86fa6ef89aa1f9539c3f553902", "name": "82db8a86fa6ef89aa1f9539c3f553902"}, {"fusion_lat": 0.0, "is_reserved": 0, "is_disabled": 0, "rental_uris": {"android": "https://dc.lft.to/lastmile_qr_scan", "ios": "https://dc.lft.to/lastmile_qr_scan"}, "fusion_lon": 0.0, "lat": 38.93598183333334, "lon": -77.08181783333333, "type": "electric_scooter", "bike_id": "86e2d80b8d87905ecd4d7dc3d9a9e4ea", "name": "86e2d80b8d87905ecd4d7dc3d9a9e4ea"}, {"fusion_lat": 0.0, "is_reserved": 0, "is_disabled": 0, "rental_uris": {"android": "https://dc.lft.to/lastmile_qr_scan", "ios": "https://dc.lft.to/lastmile_qr_scan"}, "fusion_lon": 0.0, "lat": 38.88432566666667, "lon": -77.03030733333334, "type": "electric_scooter", "bike_id": "bf5519b0eb52025ec19cfa064886b857", "name": "bf5519b0eb52025ec19cfa064886b857"}, {"fusion_lat": 0.0, "is_reserved": 0, "is_disabled": 0, "rental_uris": {"android": "https://dc.lft.to/lastmile_qr_scan", "ios": "https://dc.lft.to/lastmile_qr_scan"}, "fusion_lon": 0.0, "lat": 38.8963365, "lon": -77.029417, "type": "electric_scooter", "bike_id": "ad5ef85433660e7133451a2e425ddffc", "name": "ad5ef85433660e7133451a2e425ddffc"}, {"fusion_lat": 0.0, "is_reserved": 0, "is_disabled": 0, "rental_uris": {"android": "https://dc.lft.to/lastmile_qr_scan", "ios": "https://dc.lft.to/lastmile_qr_scan"}, "fusion_lon": 0.0, "lat": 38.901831333333334, "lon": -77.00001816666666, "type": "electric_scooter", "bike_id": "cf555ec20c1d9cca3c4284ee40278682", "name": "cf555ec20c1d9cca3c4284ee40278682"}, {"fusion_lat": 0.0, "is_reserved": 0, "is_disabled": 0, "rental_uris": {"android": "https://dc.lft.to/lastmile_qr_scan", "ios": "https://dc.lft.to/lastmile_qr_scan"}, "fusion_lon": 0.0, "lat": 38.92364116666667, "lon": -77.05747733333334, "type": "electric_scooter", "bike_id": "bb498a2b5366be206272322d0e310c0f", "name": "bb498a2b5366be206272322d0e310c0f"}, {"fusion_lat": 0.0, "is_reserved": 0, "is_disabled": 0, "rental_uris": {"android": "https://dc.lft.to/lastmile_qr_scan", "ios": "https://dc.lft.to/lastmile_qr_scan"}, "fusion_lon": 0.0, "lat": 38.8979925, "lon": -77.02178633333334, "type": "electric_scooter", "bike_id": "60d610aeeabf7aa634880371f74d2f89", "name": "60d610aeeabf7aa634880371f74d2f89"}, {"fusion_lat": 0.0, "is_reserved": 0, "is_disabled": 0, "rental_uris": {"android": "https://dc.lft.to/lastmile_qr_scan", "ios": "https://dc.lft.to/lastmile_qr_scan"}, "fusion_lon": 0.0, "lat": 38.903195833333335, "lon": -77.03467216666667, "type": "electric_scooter", "bike_id": "5b381af20ac5e4efa61e08fff7fa6724", "name": "5b381af20ac5e4efa61e08fff7fa6724"}, {"fusion_lat": 0.0, "is_reserved": 0, "is_disabled": 0, "rental_uris": {"android": "https://dc.lft.to/lastmile_qr_scan", "ios": "https://dc.lft.to/lastmile_qr_scan"}, "fusion_lon": 0.0, "lat": 38.93208666666666, "lon": -76.974258, "type": "electric_bike", "bike_id": "4925cbb519df81111adedcdfe6c7d8f1", "name": "4925cbb519df81111adedcdfe6c7d8f1"}, {"fusion_lat": 0.0, "is_reserved": 0, "is_disabled": 0, "rental_uris": {"android": "https://dc.lft.to/lastmile_qr_scan", "ios": "https://dc.lft.to/lastmile_qr_scan"}, "fusion_lon": 0.0, "lat": 38.8723395, "lon": -77.0177045, "type": "electric_scooter", "bike_id": "c9282c7dd4dcd36417a4fac2d8d9b5e7", "name": "c9282c7dd4dcd36417a4fac2d8d9b5e7"}, {"fusion_lat": 0.0, "is_reserved": 0, "is_disabled": 0, "rental_uris": {"android": "https://dc.lft.to/lastmile_qr_scan", "ios": "https://dc.lft.to/lastmile_qr_scan"}, "fusion_lon": 0.0, "lat": 38.92924933333333, "lon": -77.0325095, "type": "electric_scooter", "bike_id": "0118c1e7b1b3c08322d6ebe2e0b15129", "name": "0118c1e7b1b3c08322d6ebe2e0b15129"}, {"fusion_lat": 0.0, "is_reserved": 0, "is_disabled": 0, "rental_uris": {"android": "https://dc.lft.to/lastmile_qr_scan", "ios": "https://dc.lft.to/lastmile_qr_scan"}, "fusion_lon": 0.0, "lat": 38.92587916666667, "lon": -77.05754083333333, "type": "electric_scooter", "bike_id": "33bd3bf26e673edef7e95fa05775436c", "name": "33bd3bf26e673edef7e95fa05775436c"}, {"fusion_lat": 0.0, "is_reserved": 0, "is_disabled": 0, "rental_uris": {"android": "https://dc.lft.to/lastmile_qr_scan", "ios": "https://dc.lft.to/lastmile_qr_scan"}, "fusion_lon": 0.0, "lat": 38.9012085, "lon": -77.01620383333334, "type": "electric_scooter", "bike_id": "6663098e57c21de06729144cfe2dae66", "name": "6663098e57c21de06729144cfe2dae66"}, {"fusion_lat": 0.0, "is_reserved": 0, "is_disabled": 0, "rental_uris": {"android": "https://dc.lft.to/lastmile_qr_scan", "ios": "https://dc.lft.to/lastmile_qr_scan"}, "fusion_lon": 0.0, "lat": 38.93471983333333, "lon": -77.019282, "type": "electric_scooter", "bike_id": "509c43930b210f92d9dd50b77e28d727", "name": "509c43930b210f92d9dd50b77e28d727"}, {"fusion_lat": 0.0, "is_reserved": 0, "is_disabled": 0, "rental_uris": {"android": "https://dc.lft.to/lastmile_qr_scan", "ios": "https://dc.lft.to/lastmile_qr_scan"}, "fusion_lon": 0.0, "lat": 38.902779833333334, "lon": -77.03833633333333, "type": "electric_scooter", "bike_id": "f81e13a0dbd670f558c9f3a1555f0700", "name": "f81e13a0dbd670f558c9f3a1555f0700"}, {"fusion_lat": 0.0, "is_reserved": 0, "is_disabled": 0, "rental_uris": {"android": "https://dc.lft.to/lastmile_qr_scan", "ios": "https://dc.lft.to/lastmile_qr_scan"}, "fusion_lon": 0.0, "lat": 38.894062166666664, "lon": -77.01084816666666, "type": "electric_scooter", "bike_id": "90104bcc8a6cfc376b303fcc8dddf0b3", "name": "90104bcc8a6cfc376b303fcc8dddf0b3"}, {"fusion_lat": 0.0, "is_reserved": 0, "is_disabled": 0, "rental_uris": {"android": "https://dc.lft.to/lastmile_qr_scan", "ios": "https://dc.lft.to/lastmile_qr_scan"}, "fusion_lon": 0.0, "lat": 38.88510933333333, "lon": -77.0056785, "type": "electric_scooter", "bike_id": "b18c44d856df356406d2a84f7c4baf08", "name": "b18c44d856df356406d2a84f7c4baf08"}, {"fusion_lat": 0.0, "is_reserved": 0, "is_disabled": 0, "rental_uris": {"android": "https://dc.lft.to/lastmile_qr_scan", "ios": "https://dc.lft.to/lastmile_qr_scan"}, "fusion_lon": 0.0, "lat": 38.9443995, "lon": -76.992058, "type": "electric_scooter", "bike_id": "bb0917a24e35ea67af2c7d852ad8bf79", "name": "bb0917a24e35ea67af2c7d852ad8bf79"}, {"fusion_lat": 0.0, "is_reserved": 0, "is_disabled": 0, "rental_uris": {"android": "https://dc.lft.to/lastmile_qr_scan", "ios": "https://dc.lft.to/lastmile_qr_scan"}, "fusion_lon": 0.0, "lat": 38.91948083333333, "lon": -77.0414765, "type": "electric_scooter", "bike_id": "8d07818f77a8ad0cf7b174562027beed", "name": "8d07818f77a8ad0cf7b174562027beed"}, {"fusion_lat": 0.0, "is_reserved": 0, "is_disabled": 0, "rental_uris": {"android": "https://dc.lft.to/lastmile_qr_scan", "ios": "https://dc.lft.to/lastmile_qr_scan"}, "fusion_lon": 0.0, "lat": 38.905864, "lon": -77.04096366666667, "type": "electric_scooter", "bike_id": "23e8673bf69c35e01559784a4e932a1e", "name": "23e8673bf69c35e01559784a4e932a1e"}, {"fusion_lat": 0.0, "is_reserved": 0, "is_disabled": 0, "rental_uris": {"android": "https://dc.lft.to/lastmile_qr_scan", "ios": "https://dc.lft.to/lastmile_qr_scan"}, "fusion_lon": 0.0, "lat": 38.89508883333333, "lon": -77.07368616666666, "type": "electric_bike", "bike_id": "6a2c317fbfa79964d4a562503cabe02f", "name": "6a2c317fbfa79964d4a562503cabe02f"}, {"fusion_lat": 0.0, "is_reserved": 0, "is_disabled": 0, "rental_uris": {"android": "https://dc.lft.to/lastmile_qr_scan", "ios": "https://dc.lft.to/lastmile_qr_scan"}, "fusion_lon": 0.0, "lat": 38.915986, "lon": -77.03176466666666, "type": "electric_scooter", "bike_id": "09029757cb2d857ce5528974a13c25ec", "name": "09029757cb2d857ce5528974a13c25ec"}, {"fusion_lat": 0.0, "is_reserved": 0, "is_disabled": 0, "rental_uris": {"android": "https://dc.lft.to/lastmile_qr_scan", "ios": "https://dc.lft.to/lastmile_qr_scan"}, "fusion_lon": 0.0, "lat": 38.8812895, "lon": -77.00101416666666, "type": "electric_scooter", "bike_id": "7ae25ebbc1446e20d85a93877c0114f0", "name": "7ae25ebbc1446e20d85a93877c0114f0"}, {"fusion_lat": 0.0, "is_reserved": 0, "is_disabled": 0, "rental_uris": {"android": "https://dc.lft.to/lastmile_qr_scan", "ios": "https://dc.lft.to/lastmile_qr_scan"}, "fusion_lon": 0.0, "lat": 38.8935255, "lon": -76.9493405, "type": "electric_scooter", "bike_id": "520f4f3e397ac32649a6c6a4cd734279", "name": "520f4f3e397ac32649a6c6a4cd734279"}, {"fusion_lat": 0.0, "is_reserved": 0, "is_disabled": 0, "rental_uris": {"android": "https://dc.lft.to/lastmile_qr_scan", "ios": "https://dc.lft.to/lastmile_qr_scan"}, "fusion_lon": 0.0, "lat": 38.921677333333335, "lon": -77.0338275, "type": "electric_scooter", "bike_id": "d54d7b15aa5bf41b9adb359aae575a68", "name": "d54d7b15aa5bf41b9adb359aae575a68"}, {"fusion_lat": 0.0, "is_reserved": 0, "is_disabled": 0, "rental_uris": {"android": "https://dc.lft.to/lastmile_qr_scan", "ios": "https://dc.lft.to/lastmile_qr_scan"}, "fusion_lon": 0.0, "lat": 38.887015833333336, "lon": -77.03216, "type": "electric_scooter", "bike_id": "92abd8f3d51508bd8b6d25a16bdfc6a7", "name": "92abd8f3d51508bd8b6d25a16bdfc6a7"}, {"fusion_lat": 0.0, "is_reserved": 0, "is_disabled": 0, "rental_uris": {"android": "https://dc.lft.to/lastmile_qr_scan", "ios": "https://dc.lft.to/lastmile_qr_scan"}, "fusion_lon": 0.0, "lat": 38.894982, "lon": -77.022801, "type": "electric_scooter", "bike_id": "73f6f58bb1be5c09d82f6907a4154b6d", "name": "73f6f58bb1be5c09d82f6907a4154b6d"}, {"fusion_lat": 0.0, "is_reserved": 0, "is_disabled": 0, "rental_uris": {"android": "https://dc.lft.to/lastmile_qr_scan", "ios": "https://dc.lft.to/lastmile_qr_scan"}, "fusion_lon": 0.0, "lat": 38.94786383333334, "lon": -77.07940333333333, "type": "electric_scooter", "bike_id": "cbb807671943224bd7b9085f8f2caf04", "name": "cbb807671943224bd7b9085f8f2caf04"}, {"fusion_lat": 0.0, "is_reserved": 0, "is_disabled": 0, "rental_uris": {"android": "https://dc.lft.to/lastmile_qr_scan", "ios": "https://dc.lft.to/lastmile_qr_scan"}, "fusion_lon": 0.0, "lat": 38.90527683333333, "lon": -77.064441, "type": "electric_scooter", "bike_id": "52e7cab11cd750458fc422162fcb7444", "name": "52e7cab11cd750458fc422162fcb7444"}, {"fusion_lat": 0.0, "is_reserved": 0, "is_disabled": 0, "rental_uris": {"android": "https://dc.lft.to/lastmile_qr_scan", "ios": "https://dc.lft.to/lastmile_qr_scan"}, "fusion_lon": 0.0, "lat": 38.941864, "lon": -77.0248475, "type": "electric_scooter", "bike_id": "905607a088b33d00d4c24a8d1bf19429", "name": "905607a088b33d00d4c24a8d1bf19429"}, {"fusion_lat": 0.0, "is_reserved": 0, "is_disabled": 0, "rental_uris": {"android": "https://dc.lft.to/lastmile_qr_scan", "ios": "https://dc.lft.to/lastmile_qr_scan"}, "fusion_lon": 0.0, "lat": 38.90405066666667, "lon": -77.03898266666667, "type": "electric_scooter", "bike_id": "17de774816c55638279c2f8ce5444432", "name": "17de774816c55638279c2f8ce5444432"}, {"fusion_lat": 0.0, "is_reserved": 0, "is_disabled": 0, "rental_uris": {"android": "https://dc.lft.to/lastmile_qr_scan", "ios": "https://dc.lft.to/lastmile_qr_scan"}, "fusion_lon": 0.0, "lat": 38.893601, "lon": -77.00332283333333, "type": "electric_scooter", "bike_id": "e06b85e3636465b77f7aae24ced6496a", "name": "e06b85e3636465b77f7aae24ced6496a"}, {"fusion_lat": 0.0, "is_reserved": 0, "is_disabled": 0, "rental_uris": {"android": "https://dc.lft.to/lastmile_qr_scan", "ios": "https://dc.lft.to/lastmile_qr_scan"}, "fusion_lon": 0.0, "lat": 38.89248716666667, "lon": -76.9433005, "type": "electric_scooter", "bike_id": "454ace2c3ecaf6765427c1c636077c56", "name": "454ace2c3ecaf6765427c1c636077c56"}, {"fusion_lat": 0.0, "is_reserved": 0, "is_disabled": 0, "rental_uris": {"android": "https://dc.lft.to/lastmile_qr_scan", "ios": "https://dc.lft.to/lastmile_qr_scan"}, "fusion_lon": 0.0, "lat": 38.911082, "lon": -77.04196366666666, "type": "electric_scooter", "bike_id": "127c0e2a5f3e6f981ff090803aef1f37", "name": "127c0e2a5f3e6f981ff090803aef1f37"}, {"fusion_lat": 0.0, "is_reserved": 0, "is_disabled": 0, "rental_uris": {"android": "https://dc.lft.to/lastmile_qr_scan", "ios": "https://dc.lft.to/lastmile_qr_scan"}, "fusion_lon": 0.0, "lat": 38.8988465, "lon": -77.03275, "type": "electric_scooter", "bike_id": "c27d4de9f3aca1cdc8459da083e6502f", "name": "c27d4de9f3aca1cdc8459da083e6502f"}, {"fusion_lat": 0.0, "is_reserved": 0, "is_disabled": 0, "rental_uris": {"android": "https://dc.lft.to/lastmile_qr_scan", "ios": "https://dc.lft.to/lastmile_qr_scan"}, "fusion_lon": 0.0, "lat": 38.92050616666667, "lon": -77.024225, "type": "electric_scooter", "bike_id": "1d15d4dcc160dc6d0cf31ac6b8601baf", "name": "1d15d4dcc160dc6d0cf31ac6b8601baf"}, {"fusion_lat": 0.0, "is_reserved": 0, "is_disabled": 0, "rental_uris": {"android": "https://dc.lft.to/lastmile_qr_scan", "ios": "https://dc.lft.to/lastmile_qr_scan"}, "fusion_lon": 0.0, "lat": 38.9491415, "lon": -77.00796983333333, "type": "electric_bike", "bike_id": "1f61b314b89091aa3c41f84994873f1d", "name": "1f61b314b89091aa3c41f84994873f1d"}, {"fusion_lat": 0.0, "is_reserved": 0, "is_disabled": 0, "rental_uris": {"android": "https://dc.lft.to/lastmile_qr_scan", "ios": "https://dc.lft.to/lastmile_qr_scan"}, "fusion_lon": 0.0, "lat": 38.94429983333333, "lon": -77.06303783333334, "type": "electric_scooter", "bike_id": "9636c6caf521c11790f24ea6dc9b855a", "name": "9636c6caf521c11790f24ea6dc9b855a"}, {"fusion_lat": 0.0, "is_reserved": 0, "is_disabled": 0, "rental_uris": {"android": "https://dc.lft.to/lastmile_qr_scan", "ios": "https://dc.lft.to/lastmile_qr_scan"}, "fusion_lon": 0.0, "lat": 38.905227, "lon": -77.05105466666667, "type": "electric_scooter", "bike_id": "44e258c7ee1d333bbeefc276dc059c5f", "name": "44e258c7ee1d333bbeefc276dc059c5f"}, {"fusion_lat": 0.0, "is_reserved": 0, "is_disabled": 0, "rental_uris": {"android": "https://dc.lft.to/lastmile_qr_scan", "ios": "https://dc.lft.to/lastmile_qr_scan"}, "fusion_lon": 0.0, "lat": 38.87154816666666, "lon": -76.93670133333333, "type": "electric_bike", "bike_id": "806b5cdf2b5ae874d67bde53595ab785", "name": "806b5cdf2b5ae874d67bde53595ab785"}, {"fusion_lat": 0.0, "is_reserved": 0, "is_disabled": 0, "rental_uris": {"android": "https://dc.lft.to/lastmile_qr_scan", "ios": "https://dc.lft.to/lastmile_qr_scan"}, "fusion_lon": 0.0, "lat": 38.87476616666667, "lon": -77.0054595, "type": "electric_scooter", "bike_id": "b457afd3fa2f8095372a8f5ebe501103", "name": "b457afd3fa2f8095372a8f5ebe501103"}, {"fusion_lat": 0.0, "is_reserved": 0, "is_disabled": 0, "rental_uris": {"android": "https://dc.lft.to/lastmile_qr_scan", "ios": "https://dc.lft.to/lastmile_qr_scan"}, "fusion_lon": 0.0, "lat": 38.92340016666667, "lon": -77.03530233333333, "type": "electric_scooter", "bike_id": "a880c9a1910269f9b8c0a772b4b9e477", "name": "a880c9a1910269f9b8c0a772b4b9e477"}, {"fusion_lat": 0.0, "is_reserved": 0, "is_disabled": 0, "rental_uris": {"android": "https://dc.lft.to/lastmile_qr_scan", "ios": "https://dc.lft.to/lastmile_qr_scan"}, "fusion_lon": 0.0, "lat": 38.91046333333333, "lon": -77.038681, "type": "electric_scooter", "bike_id": "2ba7d8d0e2d6ed77cf705c9bacdfee15", "name": "2ba7d8d0e2d6ed77cf705c9bacdfee15"}, {"fusion_lat": 0.0, "is_reserved": 0, "is_disabled": 0, "rental_uris": {"android": "https://dc.lft.to/lastmile_qr_scan", "ios": "https://dc.lft.to/lastmile_qr_scan"}, "fusion_lon": 0.0, "lat": 38.90166083333333, "lon": -77.05321666666667, "type": "electric_scooter", "bike_id": "21adcfc9e53764dde5cb006232f4f37a", "name": "21adcfc9e53764dde5cb006232f4f37a"}, {"fusion_lat": 0.0, "is_reserved": 0, "is_disabled": 0, "rental_uris": {"android": "https://dc.lft.to/lastmile_qr_scan", "ios": "https://dc.lft.to/lastmile_qr_scan"}, "fusion_lon": 0.0, "lat": 38.921953333333335, "lon": -77.03181766666667, "type": "electric_scooter", "bike_id": "de1a8d883991b5dc030e62f358331984", "name": "de1a8d883991b5dc030e62f358331984"}, {"fusion_lat": 0.0, "is_reserved": 0, "is_disabled": 0, "rental_uris": {"android": "https://dc.lft.to/lastmile_qr_scan", "ios": "https://dc.lft.to/lastmile_qr_scan"}, "fusion_lon": 0.0, "lat": 38.9246855, "lon": -77.05238616666666, "type": "electric_scooter", "bike_id": "0086856d8907ef7732143b807ce105e1", "name": "0086856d8907ef7732143b807ce105e1"}, {"fusion_lat": 0.0, "is_reserved": 0, "is_disabled": 0, "rental_uris": {"android": "https://dc.lft.to/lastmile_qr_scan", "ios": "https://dc.lft.to/lastmile_qr_scan"}, "fusion_lon": 0.0, "lat": 38.900632333333334, "lon": -77.0060645, "type": "electric_scooter", "bike_id": "e2a9f436871cf9bc54600ecfedcc0674", "name": "e2a9f436871cf9bc54600ecfedcc0674"}, {"fusion_lat": 0.0, "is_reserved": 0, "is_disabled": 0, "rental_uris": {"android": "https://dc.lft.to/lastmile_qr_scan", "ios": "https://dc.lft.to/lastmile_qr_scan"}, "fusion_lon": 0.0, "lat": 38.88319716666667, "lon": -77.00938533333333, "type": "electric_scooter", "bike_id": "d6c5f99e9636d535e1802fa37da9574b", "name": "d6c5f99e9636d535e1802fa37da9574b"}, {"fusion_lat": 0.0, "is_reserved": 0, "is_disabled": 0, "rental_uris": {"android": "https://dc.lft.to/lastmile_qr_scan", "ios": "https://dc.lft.to/lastmile_qr_scan"}, "fusion_lon": 0.0, "lat": 38.9004315, "lon": -77.002199, "type": "electric_scooter", "bike_id": "67f81decd7e77139e129c7b1560c2008", "name": "67f81decd7e77139e129c7b1560c2008"}, {"fusion_lat": 0.0, "is_reserved": 0, "is_disabled": 0, "rental_uris": {"android": "https://dc.lft.to/lastmile_qr_scan", "ios": "https://dc.lft.to/lastmile_qr_scan"}, "fusion_lon": 0.0, "lat": 38.917148833333336, "lon": -77.03182266666667, "type": "electric_scooter", "bike_id": "add513af3b40a9cc1dcdd4da2d84bab8", "name": "add513af3b40a9cc1dcdd4da2d84bab8"}, {"fusion_lat": 0.0, "is_reserved": 0, "is_disabled": 0, "rental_uris": {"android": "https://dc.lft.to/lastmile_qr_scan", "ios": "https://dc.lft.to/lastmile_qr_scan"}, "fusion_lon": 0.0, "lat": 38.95711166666667, "lon": -77.0028415, "type": "electric_scooter", "bike_id": "965e3401a4acc557e897f82edc47cf25", "name": "965e3401a4acc557e897f82edc47cf25"}, {"fusion_lat": 0.0, "is_reserved": 0, "is_disabled": 0, "rental_uris": {"android": "https://dc.lft.to/lastmile_qr_scan", "ios": "https://dc.lft.to/lastmile_qr_scan"}, "fusion_lon": 0.0, "lat": 38.9189915, "lon": -77.04152266666667, "type": "electric_scooter", "bike_id": "0d1285a2038e4a419a8666fe8d340838", "name": "0d1285a2038e4a419a8666fe8d340838"}, {"fusion_lat": 0.0, "is_reserved": 0, "is_disabled": 0, "rental_uris": {"android": "https://dc.lft.to/lastmile_qr_scan", "ios": "https://dc.lft.to/lastmile_qr_scan"}, "fusion_lon": 0.0, "lat": 38.95074866666667, "lon": -77.00877366666667, "type": "electric_scooter", "bike_id": "d1d4385aacd91deebbc58d20f07ac185", "name": "d1d4385aacd91deebbc58d20f07ac185"}, {"fusion_lat": 0.0, "is_reserved": 0, "is_disabled": 0, "rental_uris": {"android": "https://dc.lft.to/lastmile_qr_scan", "ios": "https://dc.lft.to/lastmile_qr_scan"}, "fusion_lon": 0.0, "lat": 38.88281533333333, "lon": -76.99366933333333, "type": "electric_scooter", "bike_id": "f8d5ac6fb89de24e0b44fc3de9b09244", "name": "f8d5ac6fb89de24e0b44fc3de9b09244"}, {"fusion_lat": 0.0, "is_reserved": 0, "is_disabled": 0, "rental_uris": {"android": "https://dc.lft.to/lastmile_qr_scan", "ios": "https://dc.lft.to/lastmile_qr_scan"}, "fusion_lon": 0.0, "lat": 39.029335, "lon": -77.04926133333333, "type": "electric_bike", "bike_id": "6b5313f9bce5b17d91b3683f02e72f62", "name": "6b5313f9bce5b17d91b3683f02e72f62"}, {"fusion_lat": 0.0, "is_reserved": 0, "is_disabled": 0, "rental_uris": {"android": "https://dc.lft.to/lastmile_qr_scan", "ios": "https://dc.lft.to/lastmile_qr_scan"}, "fusion_lon": 0.0, "lat": 38.87562766666667, "lon": -77.01289083333333, "type": "electric_scooter", "bike_id": "fe684b83183251854224bf6a94a757ef", "name": "fe684b83183251854224bf6a94a757ef"}, {"fusion_lat": 0.0, "is_reserved": 0, "is_disabled": 0, "rental_uris": {"android": "https://dc.lft.to/lastmile_qr_scan", "ios": "https://dc.lft.to/lastmile_qr_scan"}, "fusion_lon": 0.0, "lat": 38.88758216666667, "lon": -77.02024516666667, "type": "electric_scooter", "bike_id": "f46e64983345b76fae5c9346907f2916", "name": "f46e64983345b76fae5c9346907f2916"}, {"fusion_lat": 0.0, "is_reserved": 0, "is_disabled": 0, "rental_uris": {"android": "https://dc.lft.to/lastmile_qr_scan", "ios": "https://dc.lft.to/lastmile_qr_scan"}, "fusion_lon": 0.0, "lat": 38.879803833333334, "lon": -76.98527033333333, "type": "electric_scooter", "bike_id": "76ea2a27afc54cd00af8daa85624ec69", "name": "76ea2a27afc54cd00af8daa85624ec69"}, {"fusion_lat": 0.0, "is_reserved": 0, "is_disabled": 0, "rental_uris": {"android": "https://dc.lft.to/lastmile_qr_scan", "ios": "https://dc.lft.to/lastmile_qr_scan"}, "fusion_lon": 0.0, "lat": 38.96025133333333, "lon": -77.01725283333333, "type": "electric_bike", "bike_id": "eb962df5079d592cec3120dfebee8478", "name": "eb962df5079d592cec3120dfebee8478"}, {"fusion_lat": 0.0, "is_reserved": 0, "is_disabled": 0, "rental_uris": {"android": "https://dc.lft.to/lastmile_qr_scan", "ios": "https://dc.lft.to/lastmile_qr_scan"}, "fusion_lon": 0.0, "lat": 38.91994583333334, "lon": -76.97305766666666, "type": "electric_scooter", "bike_id": "68112806a080d64098acdf1cd79f2473", "name": "68112806a080d64098acdf1cd79f2473"}, {"fusion_lat": 0.0, "is_reserved": 0, "is_disabled": 0, "rental_uris": {"android": "https://dc.lft.to/lastmile_qr_scan", "ios": "https://dc.lft.to/lastmile_qr_scan"}, "fusion_lon": 0.0, "lat": 38.9149055, "lon": -77.01859283333333, "type": "electric_scooter", "bike_id": "f756cf1790b0e1de9856d5f66ab7590c", "name": "f756cf1790b0e1de9856d5f66ab7590c"}, {"fusion_lat": 0.0, "is_reserved": 0, "is_disabled": 0, "rental_uris": {"android": "https://dc.lft.to/lastmile_qr_scan", "ios": "https://dc.lft.to/lastmile_qr_scan"}, "fusion_lon": 0.0, "lat": 38.954060166666665, "lon": -77.0275045, "type": "electric_scooter", "bike_id": "4031b19f6efb272b95e845f9cdf333b7", "name": "4031b19f6efb272b95e845f9cdf333b7"}, {"fusion_lat": 0.0, "is_reserved": 0, "is_disabled": 0, "rental_uris": {"android": "https://dc.lft.to/lastmile_qr_scan", "ios": "https://dc.lft.to/lastmile_qr_scan"}, "fusion_lon": 0.0, "lat": 38.9086345, "lon": -77.08079116666667, "type": "electric_bike", "bike_id": "3d79bf793de497c6a2183c2579934ff3", "name": "3d79bf793de497c6a2183c2579934ff3"}, {"fusion_lat": 0.0, "is_reserved": 0, "is_disabled": 0, "rental_uris": {"android": "https://dc.lft.to/lastmile_qr_scan", "ios": "https://dc.lft.to/lastmile_qr_scan"}, "fusion_lon": 0.0, "lat": 38.902713166666665, "lon": -77.0266475, "type": "electric_scooter", "bike_id": "51059d3ac6692cd8e3eb2cea22b15bbd", "name": "51059d3ac6692cd8e3eb2cea22b15bbd"}, {"fusion_lat": 0.0, "is_reserved": 0, "is_disabled": 0, "rental_uris": {"android": "https://dc.lft.to/lastmile_qr_scan", "ios": "https://dc.lft.to/lastmile_qr_scan"}, "fusion_lon": 0.0, "lat": 38.86531983333333, "lon": -76.99019466666667, "type": "electric_scooter", "bike_id": "303fd2d7740f659d7d02b8313b77b61e", "name": "303fd2d7740f659d7d02b8313b77b61e"}, {"fusion_lat": 0.0, "is_reserved": 0, "is_disabled": 0, "rental_uris": {"android": "https://dc.lft.to/lastmile_qr_scan", "ios": "https://dc.lft.to/lastmile_qr_scan"}, "fusion_lon": 0.0, "lat": 38.97905816666667, "lon": -77.00441833333333, "type": "electric_bike", "bike_id": "ebd4254bc985c8e4ccffc2a705983d26", "name": "ebd4254bc985c8e4ccffc2a705983d26"}, {"fusion_lat": 0.0, "is_reserved": 0, "is_disabled": 0, "rental_uris": {"android": "https://dc.lft.to/lastmile_qr_scan", "ios": "https://dc.lft.to/lastmile_qr_scan"}, "fusion_lon": 0.0, "lat": 38.90514916666667, "lon": -77.05134916666667, "type": "electric_scooter", "bike_id": "6a7051ca89d4e05fe1ca446d8674451e", "name": "6a7051ca89d4e05fe1ca446d8674451e"}, {"fusion_lat": 0.0, "is_reserved": 0, "is_disabled": 0, "rental_uris": {"android": "https://dc.lft.to/lastmile_qr_scan", "ios": "https://dc.lft.to/lastmile_qr_scan"}, "fusion_lon": 0.0, "lat": 38.857994166666664, "lon": -77.09964366666667, "type": "electric_bike", "bike_id": "dbbe92a3c3245a656bdca770be982d3e", "name": "dbbe92a3c3245a656bdca770be982d3e"}, {"fusion_lat": 0.0, "is_reserved": 0, "is_disabled": 0, "rental_uris": {"android": "https://dc.lft.to/lastmile_qr_scan", "ios": "https://dc.lft.to/lastmile_qr_scan"}, "fusion_lon": 0.0, "lat": 38.952876333333336, "lon": -77.0698075, "type": "electric_bike", "bike_id": "f647971fc6a6fd11681f4c2d622f5eb1", "name": "f647971fc6a6fd11681f4c2d622f5eb1"}, {"fusion_lat": 0.0, "is_reserved": 0, "is_disabled": 0, "rental_uris": {"android": "https://dc.lft.to/lastmile_qr_scan", "ios": "https://dc.lft.to/lastmile_qr_scan"}, "fusion_lon": 0.0, "lat": 38.91915933333333, "lon": -77.04628866666667, "type": "electric_scooter", "bike_id": "bc56c233018f6fdee2e2ac02ef8c2d26", "name": "bc56c233018f6fdee2e2ac02ef8c2d26"}, {"fusion_lat": 0.0, "is_reserved": 0, "is_disabled": 0, "rental_uris": {"android": "https://dc.lft.to/lastmile_qr_scan", "ios": "https://dc.lft.to/lastmile_qr_scan"}, "fusion_lon": 0.0, "lat": 38.902315, "lon": -77.0239265, "type": "electric_scooter", "bike_id": "047a98e9a11a9749571d84540880d10a", "name": "047a98e9a11a9749571d84540880d10a"}, {"fusion_lat": 0.0, "is_reserved": 0, "is_disabled": 0, "rental_uris": {"android": "https://dc.lft.to/lastmile_qr_scan", "ios": "https://dc.lft.to/lastmile_qr_scan"}, "fusion_lon": 0.0, "lat": 38.8766585, "lon": -77.00413066666667, "type": "electric_scooter", "bike_id": "143e1be24a353028fc491a173e6657ee", "name": "143e1be24a353028fc491a173e6657ee"}, {"fusion_lat": 0.0, "is_reserved": 0, "is_disabled": 0, "rental_uris": {"android": "https://dc.lft.to/lastmile_qr_scan", "ios": "https://dc.lft.to/lastmile_qr_scan"}, "fusion_lon": 0.0, "lat": 38.912136, "lon": -77.03844166666667, "type": "electric_scooter", "bike_id": "9a14fdd1127aa6548e17d12079ccbff4", "name": "9a14fdd1127aa6548e17d12079ccbff4"}, {"fusion_lat": 0.0, "is_reserved": 0, "is_disabled": 0, "rental_uris": {"android": "https://dc.lft.to/lastmile_qr_scan", "ios": "https://dc.lft.to/lastmile_qr_scan"}, "fusion_lon": 0.0, "lat": 38.922502, "lon": -77.022163, "type": "electric_scooter", "bike_id": "72fd510ac91fdd4a21af1ceb0a8db510", "name": "72fd510ac91fdd4a21af1ceb0a8db510"}, {"fusion_lat": 0.0, "is_reserved": 0, "is_disabled": 0, "rental_uris": {"android": "https://dc.lft.to/lastmile_qr_scan", "ios": "https://dc.lft.to/lastmile_qr_scan"}, "fusion_lon": 0.0, "lat": 38.93906166666667, "lon": -77.06041183333333, "type": "electric_scooter", "bike_id": "a5277d015f927b098441aea78d4d1281", "name": "a5277d015f927b098441aea78d4d1281"}, {"fusion_lat": 0.0, "is_reserved": 0, "is_disabled": 0, "rental_uris": {"android": "https://dc.lft.to/lastmile_qr_scan", "ios": "https://dc.lft.to/lastmile_qr_scan"}, "fusion_lon": 0.0, "lat": 38.932603666666665, "lon": -77.0296015, "type": "electric_scooter", "bike_id": "9eaea425a8ac44688479c402d1b03ebf", "name": "9eaea425a8ac44688479c402d1b03ebf"}, {"fusion_lat": 0.0, "is_reserved": 0, "is_disabled": 0, "rental_uris": {"android": "https://dc.lft.to/lastmile_qr_scan", "ios": "https://dc.lft.to/lastmile_qr_scan"}, "fusion_lon": 0.0, "lat": 38.910283666666665, "lon": -77.00755316666667, "type": "electric_scooter", "bike_id": "49a381ebbb07a7b30559721edc0249c6", "name": "49a381ebbb07a7b30559721edc0249c6"}, {"fusion_lat": 0.0, "is_reserved": 0, "is_disabled": 0, "rental_uris": {"android": "https://dc.lft.to/lastmile_qr_scan", "ios": "https://dc.lft.to/lastmile_qr_scan"}, "fusion_lon": 0.0, "lat": 38.86374966666666, "lon": -76.99060966666667, "type": "electric_scooter", "bike_id": "7fef4a51bf6bd66c5bdf3071fc321b9e", "name": "7fef4a51bf6bd66c5bdf3071fc321b9e"}, {"fusion_lat": 0.0, "is_reserved": 0, "is_disabled": 0, "rental_uris": {"android": "https://dc.lft.to/lastmile_qr_scan", "ios": "https://dc.lft.to/lastmile_qr_scan"}, "fusion_lon": 0.0, "lat": 38.91714616666667, "lon": -77.0249605, "type": "electric_scooter", "bike_id": "16a5759590eece375ee64b356f3f7c8c", "name": "16a5759590eece375ee64b356f3f7c8c"}, {"fusion_lat": 0.0, "is_reserved": 0, "is_disabled": 0, "rental_uris": {"android": "https://dc.lft.to/lastmile_qr_scan", "ios": "https://dc.lft.to/lastmile_qr_scan"}, "fusion_lon": 0.0, "lat": 38.89376716666666, "lon": -76.949886, "type": "electric_scooter", "bike_id": "c36396f1af3676e25993c11c66c0b49c", "name": "c36396f1af3676e25993c11c66c0b49c"}, {"fusion_lat": 0.0, "is_reserved": 0, "is_disabled": 0, "rental_uris": {"android": "https://dc.lft.to/lastmile_qr_scan", "ios": "https://dc.lft.to/lastmile_qr_scan"}, "fusion_lon": 0.0, "lat": 38.888822, "lon": -77.07940533333333, "type": "electric_bike", "bike_id": "38a5477ee8324e0e5b57f37ac8cbeaf0", "name": "38a5477ee8324e0e5b57f37ac8cbeaf0"}, {"fusion_lat": 0.0, "is_reserved": 0, "is_disabled": 0, "rental_uris": {"android": "https://dc.lft.to/lastmile_qr_scan", "ios": "https://dc.lft.to/lastmile_qr_scan"}, "fusion_lon": 0.0, "lat": 38.87629883333334, "lon": -77.000404, "type": "electric_scooter", "bike_id": "408e55cbecaf3d285b7734e7b481aaa1", "name": "408e55cbecaf3d285b7734e7b481aaa1"}, {"fusion_lat": 0.0, "is_reserved": 0, "is_disabled": 0, "rental_uris": {"android": "https://dc.lft.to/lastmile_qr_scan", "ios": "https://dc.lft.to/lastmile_qr_scan"}, "fusion_lon": 0.0, "lat": 38.920652833333335, "lon": -77.02357733333334, "type": "electric_scooter", "bike_id": "97cc233cd036e3f2ab653f4af63c193a", "name": "97cc233cd036e3f2ab653f4af63c193a"}, {"fusion_lat": 0.0, "is_reserved": 0, "is_disabled": 0, "rental_uris": {"android": "https://dc.lft.to/lastmile_qr_scan", "ios": "https://dc.lft.to/lastmile_qr_scan"}, "fusion_lon": 0.0, "lat": 38.88089883333333, "lon": -76.9272805, "type": "electric_scooter", "bike_id": "4eb095b409b9dda7ca214c46a54db6b7", "name": "4eb095b409b9dda7ca214c46a54db6b7"}, {"fusion_lat": 0.0, "is_reserved": 0, "is_disabled": 0, "rental_uris": {"android": "https://dc.lft.to/lastmile_qr_scan", "ios": "https://dc.lft.to/lastmile_qr_scan"}, "fusion_lon": 0.0, "lat": 38.92499166666666, "lon": -77.00891033333333, "type": "electric_scooter", "bike_id": "324da48e81bd7b01224002c85daa6a66", "name": "324da48e81bd7b01224002c85daa6a66"}, {"fusion_lat": 0.0, "is_reserved": 0, "is_disabled": 0, "rental_uris": {"android": "https://dc.lft.to/lastmile_qr_scan", "ios": "https://dc.lft.to/lastmile_qr_scan"}, "fusion_lon": 0.0, "lat": 38.90229683333333, "lon": -77.02384533333333, "type": "electric_scooter", "bike_id": "be9a0f59cce019178dcc51711bf5f95e", "name": "be9a0f59cce019178dcc51711bf5f95e"}, {"fusion_lat": 0.0, "is_reserved": 0, "is_disabled": 0, "rental_uris": {"android": "https://dc.lft.to/lastmile_qr_scan", "ios": "https://dc.lft.to/lastmile_qr_scan"}, "fusion_lon": 0.0, "lat": 38.89346883333333, "lon": -77.01205466666667, "type": "electric_scooter", "bike_id": "65f6ea831ca5b41c21c1db27e7371610", "name": "65f6ea831ca5b41c21c1db27e7371610"}, {"fusion_lat": 0.0, "is_reserved": 0, "is_disabled": 0, "rental_uris": {"android": "https://dc.lft.to/lastmile_qr_scan", "ios": "https://dc.lft.to/lastmile_qr_scan"}, "fusion_lon": 0.0, "lat": 38.920079666666666, "lon": -77.0321995, "type": "electric_scooter", "bike_id": "62d1c65721619c30e24781e39e566197", "name": "62d1c65721619c30e24781e39e566197"}, {"fusion_lat": 0.0, "is_reserved": 0, "is_disabled": 0, "rental_uris": {"android": "https://dc.lft.to/lastmile_qr_scan", "ios": "https://dc.lft.to/lastmile_qr_scan"}, "fusion_lon": 0.0, "lat": 38.839383833333336, "lon": -77.07897983333334, "type": "electric_bike", "bike_id": "724083bf883a9ada24c8c4af8aa9363c", "name": "724083bf883a9ada24c8c4af8aa9363c"}, {"fusion_lat": 0.0, "is_reserved": 0, "is_disabled": 0, "rental_uris": {"android": "https://dc.lft.to/lastmile_qr_scan", "ios": "https://dc.lft.to/lastmile_qr_scan"}, "fusion_lon": 0.0, "lat": 38.983677666666665, "lon": -77.02645583333333, "type": "electric_scooter", "bike_id": "51cd439a39530a28e08483f124e60a08", "name": "51cd439a39530a28e08483f124e60a08"}, {"fusion_lat": 0.0, "is_reserved": 0, "is_disabled": 0, "rental_uris": {"android": "https://dc.lft.to/lastmile_qr_scan", "ios": "https://dc.lft.to/lastmile_qr_scan"}, "fusion_lon": 0.0, "lat": 38.928555, "lon": -77.2221585, "type": "electric_bike", "bike_id": "32aaa53df2e3a5dc30b08834fa94f36f", "name": "32aaa53df2e3a5dc30b08834fa94f36f"}, {"fusion_lat": 0.0, "is_reserved": 0, "is_disabled": 0, "rental_uris": {"android": "https://dc.lft.to/lastmile_qr_scan", "ios": "https://dc.lft.to/lastmile_qr_scan"}, "fusion_lon": 0.0, "lat": 38.88735166666667, "lon": -77.01393316666666, "type": "electric_scooter", "bike_id": "99a6fd98cc6a2424a50e986dbcdd5513", "name": "99a6fd98cc6a2424a50e986dbcdd5513"}, {"fusion_lat": 0.0, "is_reserved": 0, "is_disabled": 0, "rental_uris": {"android": "https://dc.lft.to/lastmile_qr_scan", "ios": "https://dc.lft.to/lastmile_qr_scan"}, "fusion_lon": 0.0, "lat": 38.89854016666666, "lon": -76.9319015, "type": "electric_bike", "bike_id": "0b384a9327a5cc97456e8809f90bbe3d", "name": "0b384a9327a5cc97456e8809f90bbe3d"}, {"fusion_lat": 0.0, "is_reserved": 0, "is_disabled": 0, "rental_uris": {"android": "https://dc.lft.to/lastmile_qr_scan", "ios": "https://dc.lft.to/lastmile_qr_scan"}, "fusion_lon": 0.0, "lat": 38.921961333333336, "lon": -77.0328575, "type": "electric_scooter", "bike_id": "56c7971060e7f3811c6cda84c9229943", "name": "56c7971060e7f3811c6cda84c9229943"}, {"fusion_lat": 0.0, "is_reserved": 0, "is_disabled": 0, "rental_uris": {"android": "https://dc.lft.to/lastmile_qr_scan", "ios": "https://dc.lft.to/lastmile_qr_scan"}, "fusion_lon": 0.0, "lat": 38.915522833333334, "lon": -77.03841533333333, "type": "electric_scooter", "bike_id": "4913eb231b7f06e36ed37e9beb34cdf5", "name": "4913eb231b7f06e36ed37e9beb34cdf5"}, {"fusion_lat": 0.0, "is_reserved": 0, "is_disabled": 0, "rental_uris": {"android": "https://dc.lft.to/lastmile_qr_scan", "ios": "https://dc.lft.to/lastmile_qr_scan"}, "fusion_lon": 0.0, "lat": 38.904991333333335, "lon": -77.04326016666667, "type": "electric_scooter", "bike_id": "1b3e0b4b2e9d959d43d821327d06e354", "name": "1b3e0b4b2e9d959d43d821327d06e354"}, {"fusion_lat": 0.0, "is_reserved": 0, "is_disabled": 0, "rental_uris": {"android": "https://dc.lft.to/lastmile_qr_scan", "ios": "https://dc.lft.to/lastmile_qr_scan"}, "fusion_lon": 0.0, "lat": 38.9072935, "lon": -77.0401385, "type": "electric_scooter", "bike_id": "1f8b42276f35ebb664b08b78a4c98cda", "name": "1f8b42276f35ebb664b08b78a4c98cda"}, {"fusion_lat": 0.0, "is_reserved": 0, "is_disabled": 0, "rental_uris": {"android": "https://dc.lft.to/lastmile_qr_scan", "ios": "https://dc.lft.to/lastmile_qr_scan"}, "fusion_lon": 0.0, "lat": 38.915650666666664, "lon": -77.03862116666667, "type": "electric_scooter", "bike_id": "bdb945d16db742d86dba5446c122e5b2", "name": "bdb945d16db742d86dba5446c122e5b2"}, {"fusion_lat": 0.0, "is_reserved": 0, "is_disabled": 0, "rental_uris": {"android": "https://dc.lft.to/lastmile_qr_scan", "ios": "https://dc.lft.to/lastmile_qr_scan"}, "fusion_lon": 0.0, "lat": 39.0886335, "lon": -77.17843766666667, "type": "electric_bike", "bike_id": "2ee7e9e4e46409b49553f40b74695f01", "name": "2ee7e9e4e46409b49553f40b74695f01"}, {"fusion_lat": 0.0, "is_reserved": 0, "is_disabled": 0, "rental_uris": {"android": "https://dc.lft.to/lastmile_qr_scan", "ios": "https://dc.lft.to/lastmile_qr_scan"}, "fusion_lon": 0.0, "lat": 38.92883483333333, "lon": -77.02706133333334, "type": "electric_scooter", "bike_id": "e34861f96de2627941aaca943addb981", "name": "e34861f96de2627941aaca943addb981"}, {"fusion_lat": 0.0, "is_reserved": 0, "is_disabled": 0, "rental_uris": {"android": "https://dc.lft.to/lastmile_qr_scan", "ios": "https://dc.lft.to/lastmile_qr_scan"}, "fusion_lon": 0.0, "lat": 38.93135783333334, "lon": -77.05618633333333, "type": "electric_scooter", "bike_id": "a7c3e0cd09c20255a9a885b851bceeb6", "name": "a7c3e0cd09c20255a9a885b851bceeb6"}, {"fusion_lat": 0.0, "is_reserved": 0, "is_disabled": 0, "rental_uris": {"android": "https://dc.lft.to/lastmile_qr_scan", "ios": "https://dc.lft.to/lastmile_qr_scan"}, "fusion_lon": 0.0, "lat": 38.90240933333333, "lon": -77.017343, "type": "electric_scooter", "bike_id": "bff65bb71bf6802a05de40789cc5cc06", "name": "bff65bb71bf6802a05de40789cc5cc06"}, {"fusion_lat": 0.0, "is_reserved": 0, "is_disabled": 0, "rental_uris": {"android": "https://dc.lft.to/lastmile_qr_scan", "ios": "https://dc.lft.to/lastmile_qr_scan"}, "fusion_lon": 0.0, "lat": 38.9324125, "lon": -77.03279283333333, "type": "electric_scooter", "bike_id": "6285d1ded2cf86c3fb6db3ac87f9552c", "name": "6285d1ded2cf86c3fb6db3ac87f9552c"}, {"fusion_lat": 0.0, "is_reserved": 0, "is_disabled": 0, "rental_uris": {"android": "https://dc.lft.to/lastmile_qr_scan", "ios": "https://dc.lft.to/lastmile_qr_scan"}, "fusion_lon": 0.0, "lat": 38.887510166666665, "lon": -77.02169033333334, "type": "electric_scooter", "bike_id": "77b467e25b66b5e5f2b02ddb31f998d7", "name": "77b467e25b66b5e5f2b02ddb31f998d7"}, {"fusion_lat": 0.0, "is_reserved": 0, "is_disabled": 0, "rental_uris": {"android": "https://dc.lft.to/lastmile_qr_scan", "ios": "https://dc.lft.to/lastmile_qr_scan"}, "fusion_lon": 0.0, "lat": 38.91558116666667, "lon": -77.03172316666667, "type": "electric_scooter", "bike_id": "225ff66817770b83f4abecf23e03b771", "name": "225ff66817770b83f4abecf23e03b771"}, {"fusion_lat": 0.0, "is_reserved": 0, "is_disabled": 0, "rental_uris": {"android": "https://dc.lft.to/lastmile_qr_scan", "ios": "https://dc.lft.to/lastmile_qr_scan"}, "fusion_lon": 0.0, "lat": 38.92206983333333, "lon": -77.04023733333334, "type": "electric_scooter", "bike_id": "280d8cbb48196f753497bf470483e6da", "name": "280d8cbb48196f753497bf470483e6da"}, {"fusion_lat": 0.0, "is_reserved": 0, "is_disabled": 0, "rental_uris": {"android": "https://dc.lft.to/lastmile_qr_scan", "ios": "https://dc.lft.to/lastmile_qr_scan"}, "fusion_lon": 0.0, "lat": 38.9038155, "lon": -77.04277233333333, "type": "electric_scooter", "bike_id": "d63f732771f32eda88ca87929518f1df", "name": "d63f732771f32eda88ca87929518f1df"}, {"fusion_lat": 0.0, "is_reserved": 0, "is_disabled": 0, "rental_uris": {"android": "https://dc.lft.to/lastmile_qr_scan", "ios": "https://dc.lft.to/lastmile_qr_scan"}, "fusion_lon": 0.0, "lat": 38.9203025, "lon": -77.04070216666666, "type": "electric_scooter", "bike_id": "dfee338fcfd455ad3891a755f3e073a0", "name": "dfee338fcfd455ad3891a755f3e073a0"}, {"fusion_lat": 0.0, "is_reserved": 0, "is_disabled": 0, "rental_uris": {"android": "https://dc.lft.to/lastmile_qr_scan", "ios": "https://dc.lft.to/lastmile_qr_scan"}, "fusion_lon": 0.0, "lat": 38.920684, "lon": -77.02180933333334, "type": "electric_scooter", "bike_id": "0a11382012042f2c80fac4b535ee251b", "name": "0a11382012042f2c80fac4b535ee251b"}, {"fusion_lat": 0.0, "is_reserved": 0, "is_disabled": 0, "rental_uris": {"android": "https://dc.lft.to/lastmile_qr_scan", "ios": "https://dc.lft.to/lastmile_qr_scan"}, "fusion_lon": 0.0, "lat": 38.887583166666666, "lon": -77.020759, "type": "electric_scooter", "bike_id": "9ee07c3ddae1db0e61bdb14d5f5eeb0c", "name": "9ee07c3ddae1db0e61bdb14d5f5eeb0c"}, {"fusion_lat": 0.0, "is_reserved": 0, "is_disabled": 0, "rental_uris": {"android": "https://dc.lft.to/lastmile_qr_scan", "ios": "https://dc.lft.to/lastmile_qr_scan"}, "fusion_lon": 0.0, "lat": 38.947621, "lon": -77.06565383333333, "type": "electric_scooter", "bike_id": "857fa526c30cbdb4620be4b9584d8743", "name": "857fa526c30cbdb4620be4b9584d8743"}, {"fusion_lat": 0.0, "is_reserved": 0, "is_disabled": 0, "rental_uris": {"android": "https://dc.lft.to/lastmile_qr_scan", "ios": "https://dc.lft.to/lastmile_qr_scan"}, "fusion_lon": 0.0, "lat": 38.934264, "lon": -77.02387183333333, "type": "electric_scooter", "bike_id": "23f5668ef0893c74b7be1e31a5ae2128", "name": "23f5668ef0893c74b7be1e31a5ae2128"}, {"fusion_lat": 0.0, "is_reserved": 0, "is_disabled": 0, "rental_uris": {"android": "https://dc.lft.to/lastmile_qr_scan", "ios": "https://dc.lft.to/lastmile_qr_scan"}, "fusion_lon": 0.0, "lat": 38.89833766666667, "lon": -77.043495, "type": "electric_bike", "bike_id": "6375b2fa88d53d3c3a6bc858b364da7f", "name": "6375b2fa88d53d3c3a6bc858b364da7f"}, {"fusion_lat": 0.0, "is_reserved": 0, "is_disabled": 0, "rental_uris": {"android": "https://dc.lft.to/lastmile_qr_scan", "ios": "https://dc.lft.to/lastmile_qr_scan"}, "fusion_lon": 0.0, "lat": 38.92170466666666, "lon": -76.9945575, "type": "electric_scooter", "bike_id": "6425006c0aec94370f6dcbc37d89bf16", "name": "6425006c0aec94370f6dcbc37d89bf16"}, {"fusion_lat": 0.0, "is_reserved": 0, "is_disabled": 0, "rental_uris": {"android": "https://dc.lft.to/lastmile_qr_scan", "ios": "https://dc.lft.to/lastmile_qr_scan"}, "fusion_lon": 0.0, "lat": 38.902284333333334, "lon": -77.04868183333333, "type": "electric_scooter", "bike_id": "44e35dbce10c977e0436c21e9e358b05", "name": "44e35dbce10c977e0436c21e9e358b05"}, {"fusion_lat": 0.0, "is_reserved": 0, "is_disabled": 0, "rental_uris": {"android": "https://dc.lft.to/lastmile_qr_scan", "ios": "https://dc.lft.to/lastmile_qr_scan"}, "fusion_lon": 0.0, "lat": 38.9096135, "lon": -77.04057266666666, "type": "electric_scooter", "bike_id": "fc7d0a3f322cac5eb6f642a1faf988b7", "name": "fc7d0a3f322cac5eb6f642a1faf988b7"}, {"fusion_lat": 0.0, "is_reserved": 0, "is_disabled": 0, "rental_uris": {"android": "https://dc.lft.to/lastmile_qr_scan", "ios": "https://dc.lft.to/lastmile_qr_scan"}, "fusion_lon": 0.0, "lat": 38.9056255, "lon": -77.056888, "type": "electric_scooter", "bike_id": "1e6ba30330cfe681298645c166b9c9cd", "name": "1e6ba30330cfe681298645c166b9c9cd"}, {"fusion_lat": 0.0, "is_reserved": 0, "is_disabled": 0, "rental_uris": {"android": "https://dc.lft.to/lastmile_qr_scan", "ios": "https://dc.lft.to/lastmile_qr_scan"}, "fusion_lon": 0.0, "lat": 38.9300415, "lon": -77.03657883333334, "type": "electric_scooter", "bike_id": "77bacdac6a573bde5fe2020d0a3f5884", "name": "77bacdac6a573bde5fe2020d0a3f5884"}, {"fusion_lat": 0.0, "is_reserved": 0, "is_disabled": 0, "rental_uris": {"android": "https://dc.lft.to/lastmile_qr_scan", "ios": "https://dc.lft.to/lastmile_qr_scan"}, "fusion_lon": 0.0, "lat": 38.954086, "lon": -77.0274315, "type": "electric_scooter", "bike_id": "61bc2d0351e4e39b5b6fb17fa82c8e75", "name": "61bc2d0351e4e39b5b6fb17fa82c8e75"}, {"fusion_lat": 0.0, "is_reserved": 0, "is_disabled": 0, "rental_uris": {"android": "https://dc.lft.to/lastmile_qr_scan", "ios": "https://dc.lft.to/lastmile_qr_scan"}, "fusion_lon": 0.0, "lat": 38.92231116666667, "lon": -77.04231133333333, "type": "electric_scooter", "bike_id": "e28a15aa7bbfc4031b813dc323eda6b0", "name": "e28a15aa7bbfc4031b813dc323eda6b0"}, {"fusion_lat": 0.0, "is_reserved": 0, "is_disabled": 0, "rental_uris": {"android": "https://dc.lft.to/lastmile_qr_scan", "ios": "https://dc.lft.to/lastmile_qr_scan"}, "fusion_lon": 0.0, "lat": 38.888094333333335, "lon": -77.0382755, "type": "electric_bike", "bike_id": "b19006124961708ba96b2385f7ebfb92", "name": "b19006124961708ba96b2385f7ebfb92"}, {"fusion_lat": 0.0, "is_reserved": 0, "is_disabled": 0, "rental_uris": {"android": "https://dc.lft.to/lastmile_qr_scan", "ios": "https://dc.lft.to/lastmile_qr_scan"}, "fusion_lon": 0.0, "lat": 38.900711, "lon": -77.01726266666667, "type": "electric_scooter", "bike_id": "7d1a013f99c178328c1a33ea4ff6c8c1", "name": "7d1a013f99c178328c1a33ea4ff6c8c1"}, {"fusion_lat": 0.0, "is_reserved": 0, "is_disabled": 0, "rental_uris": {"android": "https://dc.lft.to/lastmile_qr_scan", "ios": "https://dc.lft.to/lastmile_qr_scan"}, "fusion_lon": 0.0, "lat": 38.893491833333336, "lon": -77.18737683333333, "type": "electric_bike", "bike_id": "c6d432a8a09146ac97c754f0600e5edd", "name": "c6d432a8a09146ac97c754f0600e5edd"}, {"fusion_lat": 0.0, "is_reserved": 0, "is_disabled": 0, "rental_uris": {"android": "https://dc.lft.to/lastmile_qr_scan", "ios": "https://dc.lft.to/lastmile_qr_scan"}, "fusion_lon": 0.0, "lat": 38.88869416666667, "lon": -77.00015833333333, "type": "electric_scooter", "bike_id": "0011298637b64d2545763ee51eb0498b", "name": "0011298637b64d2545763ee51eb0498b"}, {"fusion_lat": 0.0, "is_reserved": 0, "is_disabled": 0, "rental_uris": {"android": "https://dc.lft.to/lastmile_qr_scan", "ios": "https://dc.lft.to/lastmile_qr_scan"}, "fusion_lon": 0.0, "lat": 38.90554983333333, "lon": -77.05695283333333, "type": "electric_scooter", "bike_id": "cbc0cfafb97b03d4365ab060e18d78d6", "name": "cbc0cfafb97b03d4365ab060e18d78d6"}, {"fusion_lat": 0.0, "is_reserved": 0, "is_disabled": 0, "rental_uris": {"android": "https://dc.lft.to/lastmile_qr_scan", "ios": "https://dc.lft.to/lastmile_qr_scan"}, "fusion_lon": 0.0, "lat": 38.8763315, "lon": -76.965254, "type": "electric_scooter", "bike_id": "465525cf6fbad390e243ea46500b2e5e", "name": "465525cf6fbad390e243ea46500b2e5e"}, {"fusion_lat": 0.0, "is_reserved": 0, "is_disabled": 0, "rental_uris": {"android": "https://dc.lft.to/lastmile_qr_scan", "ios": "https://dc.lft.to/lastmile_qr_scan"}, "fusion_lon": 0.0, "lat": 38.912072, "lon": -77.03643733333334, "type": "electric_scooter", "bike_id": "1979fc59d5110204a9befa1c0bb2645a", "name": "1979fc59d5110204a9befa1c0bb2645a"}, {"fusion_lat": 0.0, "is_reserved": 0, "is_disabled": 0, "rental_uris": {"android": "https://dc.lft.to/lastmile_qr_scan", "ios": "https://dc.lft.to/lastmile_qr_scan"}, "fusion_lon": 0.0, "lat": 38.90731133333333, "lon": -77.04780916666667, "type": "electric_scooter", "bike_id": "d9484178d376c991e7943f60c1106094", "name": "d9484178d376c991e7943f60c1106094"}, {"fusion_lat": 0.0, "is_reserved": 0, "is_disabled": 0, "rental_uris": {"android": "https://dc.lft.to/lastmile_qr_scan", "ios": "https://dc.lft.to/lastmile_qr_scan"}, "fusion_lon": 0.0, "lat": 38.8990775, "lon": -77.04067566666667, "type": "electric_scooter", "bike_id": "093b3ad17ff45c5645d402dded21951a", "name": "093b3ad17ff45c5645d402dded21951a"}, {"fusion_lat": 0.0, "is_reserved": 0, "is_disabled": 0, "rental_uris": {"android": "https://dc.lft.to/lastmile_qr_scan", "ios": "https://dc.lft.to/lastmile_qr_scan"}, "fusion_lon": 0.0, "lat": 38.86241016666666, "lon": -76.9947725, "type": "electric_scooter", "bike_id": "6f83e10e999da3476bb474bd1f5763ed", "name": "6f83e10e999da3476bb474bd1f5763ed"}, {"fusion_lat": 0.0, "is_reserved": 0, "is_disabled": 0, "rental_uris": {"android": "https://dc.lft.to/lastmile_qr_scan", "ios": "https://dc.lft.to/lastmile_qr_scan"}, "fusion_lon": 0.0, "lat": 38.9187965, "lon": -77.02173583333334, "type": "electric_scooter", "bike_id": "d1881e3a2d047665e72663e3c02cd6a3", "name": "d1881e3a2d047665e72663e3c02cd6a3"}, {"fusion_lat": 0.0, "is_reserved": 0, "is_disabled": 0, "rental_uris": {"android": "https://dc.lft.to/lastmile_qr_scan", "ios": "https://dc.lft.to/lastmile_qr_scan"}, "fusion_lon": 0.0, "lat": 38.93316016666667, "lon": -77.03287283333333, "type": "electric_scooter", "bike_id": "500cd3faabb167cb81a62e555f28da8a", "name": "500cd3faabb167cb81a62e555f28da8a"}, {"fusion_lat": 0.0, "is_reserved": 0, "is_disabled": 0, "rental_uris": {"android": "https://dc.lft.to/lastmile_qr_scan", "ios": "https://dc.lft.to/lastmile_qr_scan"}, "fusion_lon": 0.0, "lat": 38.94175666666667, "lon": -77.02499616666667, "type": "electric_scooter", "bike_id": "03b3fb5f851ab8e9f08427f78a572559", "name": "03b3fb5f851ab8e9f08427f78a572559"}, {"fusion_lat": 0.0, "is_reserved": 0, "is_disabled": 0, "rental_uris": {"android": "https://dc.lft.to/lastmile_qr_scan", "ios": "https://dc.lft.to/lastmile_qr_scan"}, "fusion_lon": 0.0, "lat": 38.84294966666667, "lon": -76.99946133333333, "type": "electric_scooter", "bike_id": "ad1983956532a866350953389064cc69", "name": "ad1983956532a866350953389064cc69"}, {"fusion_lat": 0.0, "is_reserved": 0, "is_disabled": 0, "rental_uris": {"android": "https://dc.lft.to/lastmile_qr_scan", "ios": "https://dc.lft.to/lastmile_qr_scan"}, "fusion_lon": 0.0, "lat": 38.894917666666665, "lon": -77.02193966666667, "type": "electric_scooter", "bike_id": "24dcbb224837844b17b098fde1454f33", "name": "24dcbb224837844b17b098fde1454f33"}, {"fusion_lat": 0.0, "is_reserved": 0, "is_disabled": 0, "rental_uris": {"android": "https://dc.lft.to/lastmile_qr_scan", "ios": "https://dc.lft.to/lastmile_qr_scan"}, "fusion_lon": 0.0, "lat": 38.973270166666666, "lon": -77.021454, "type": "electric_bike", "bike_id": "32d9ca9d7a9fec8d74d1dbc095218fd5", "name": "32d9ca9d7a9fec8d74d1dbc095218fd5"}, {"fusion_lat": 0.0, "is_reserved": 0, "is_disabled": 0, "rental_uris": {"android": "https://dc.lft.to/lastmile_qr_scan", "ios": "https://dc.lft.to/lastmile_qr_scan"}, "fusion_lon": 0.0, "lat": 38.902459, "lon": -77.00201166666666, "type": "electric_scooter", "bike_id": "7ab37e9f19f583696e0cf0a97ffdaae5", "name": "7ab37e9f19f583696e0cf0a97ffdaae5"}, {"fusion_lat": 0.0, "is_reserved": 0, "is_disabled": 0, "rental_uris": {"android": "https://dc.lft.to/lastmile_qr_scan", "ios": "https://dc.lft.to/lastmile_qr_scan"}, "fusion_lon": 0.0, "lat": 38.91863416666666, "lon": -77.04500816666666, "type": "electric_scooter", "bike_id": "d73b2fdc308cde63bcc9775bc0810d47", "name": "d73b2fdc308cde63bcc9775bc0810d47"}, {"fusion_lat": 0.0, "is_reserved": 0, "is_disabled": 0, "rental_uris": {"android": "https://dc.lft.to/lastmile_qr_scan", "ios": "https://dc.lft.to/lastmile_qr_scan"}, "fusion_lon": 0.0, "lat": 38.9073305, "lon": -77.00148933333334, "type": "electric_scooter", "bike_id": "9a39e6714924c7ef1bed26339569d2ef", "name": "9a39e6714924c7ef1bed26339569d2ef"}, {"fusion_lat": 0.0, "is_reserved": 0, "is_disabled": 0, "rental_uris": {"android": "https://dc.lft.to/lastmile_qr_scan", "ios": "https://dc.lft.to/lastmile_qr_scan"}, "fusion_lon": 0.0, "lat": 38.91169933333333, "lon": -77.06858916666667, "type": "electric_scooter", "bike_id": "850994dea6444b7f1d7d1661024ae480", "name": "850994dea6444b7f1d7d1661024ae480"}, {"fusion_lat": 0.0, "is_reserved": 0, "is_disabled": 0, "rental_uris": {"android": "https://dc.lft.to/lastmile_qr_scan", "ios": "https://dc.lft.to/lastmile_qr_scan"}, "fusion_lon": 0.0, "lat": 38.862226166666666, "lon": -76.99461866666667, "type": "electric_scooter", "bike_id": "6f4ca00f98013a7c55fdc0af717451da", "name": "6f4ca00f98013a7c55fdc0af717451da"}, {"fusion_lat": 0.0, "is_reserved": 0, "is_disabled": 0, "rental_uris": {"android": "https://dc.lft.to/lastmile_qr_scan", "ios": "https://dc.lft.to/lastmile_qr_scan"}, "fusion_lon": 0.0, "lat": 38.921746166666665, "lon": -77.032364, "type": "electric_scooter", "bike_id": "bcdb5211231ad72ee35986c98d5fe333", "name": "bcdb5211231ad72ee35986c98d5fe333"}, {"fusion_lat": 0.0, "is_reserved": 0, "is_disabled": 0, "rental_uris": {"android": "https://dc.lft.to/lastmile_qr_scan", "ios": "https://dc.lft.to/lastmile_qr_scan"}, "fusion_lon": 0.0, "lat": 38.9251795, "lon": -77.03880966666667, "type": "electric_scooter", "bike_id": "82abbabbb889e6811862d91f68cd4393", "name": "82abbabbb889e6811862d91f68cd4393"}, {"fusion_lat": 0.0, "is_reserved": 0, "is_disabled": 0, "rental_uris": {"android": "https://dc.lft.to/lastmile_qr_scan", "ios": "https://dc.lft.to/lastmile_qr_scan"}, "fusion_lon": 0.0, "lat": 38.898325666666665, "lon": -76.94635283333334, "type": "electric_scooter", "bike_id": "6335cbbbc29af237073352b702396b91", "name": "6335cbbbc29af237073352b702396b91"}, {"fusion_lat": 0.0, "is_reserved": 0, "is_disabled": 0, "rental_uris": {"android": "https://dc.lft.to/lastmile_qr_scan", "ios": "https://dc.lft.to/lastmile_qr_scan"}, "fusion_lon": 0.0, "lat": 38.93323866666667, "lon": -77.03431616666667, "type": "electric_scooter", "bike_id": "3db5142dfcd56e46e5527171d6231833", "name": "3db5142dfcd56e46e5527171d6231833"}, {"fusion_lat": 0.0, "is_reserved": 0, "is_disabled": 0, "rental_uris": {"android": "https://dc.lft.to/lastmile_qr_scan", "ios": "https://dc.lft.to/lastmile_qr_scan"}, "fusion_lon": 0.0, "lat": 38.90281733333333, "lon": -77.03830733333334, "type": "electric_scooter", "bike_id": "d294b0591bbd4d46da6eb557acd5a09a", "name": "d294b0591bbd4d46da6eb557acd5a09a"}, {"fusion_lat": 0.0, "is_reserved": 0, "is_disabled": 0, "rental_uris": {"android": "https://dc.lft.to/lastmile_qr_scan", "ios": "https://dc.lft.to/lastmile_qr_scan"}, "fusion_lon": 0.0, "lat": 38.8977965, "lon": -77.03223483333333, "type": "electric_scooter", "bike_id": "3fee95dec36b49fc49e9f0bfedcfc1c1", "name": "3fee95dec36b49fc49e9f0bfedcfc1c1"}, {"fusion_lat": 0.0, "is_reserved": 0, "is_disabled": 0, "rental_uris": {"android": "https://dc.lft.to/lastmile_qr_scan", "ios": "https://dc.lft.to/lastmile_qr_scan"}, "fusion_lon": 0.0, "lat": 38.91787466666667, "lon": -77.02302466666667, "type": "electric_scooter", "bike_id": "f2e4b19bc0a555e25590179d3a2ba0eb", "name": "f2e4b19bc0a555e25590179d3a2ba0eb"}, {"fusion_lat": 0.0, "is_reserved": 0, "is_disabled": 0, "rental_uris": {"android": "https://dc.lft.to/lastmile_qr_scan", "ios": "https://dc.lft.to/lastmile_qr_scan"}, "fusion_lon": 0.0, "lat": 38.94560383333334, "lon": -76.8953445, "type": "electric_bike", "bike_id": "60b10c644c54b950a79806fad840f3bf", "name": "60b10c644c54b950a79806fad840f3bf"}, {"fusion_lat": 0.0, "is_reserved": 0, "is_disabled": 0, "rental_uris": {"android": "https://dc.lft.to/lastmile_qr_scan", "ios": "https://dc.lft.to/lastmile_qr_scan"}, "fusion_lon": 0.0, "lat": 38.9171385, "lon": -77.026287, "type": "electric_scooter", "bike_id": "261f48fc9433eb858d6566d99d0cc1d0", "name": "261f48fc9433eb858d6566d99d0cc1d0"}, {"fusion_lat": 0.0, "is_reserved": 0, "is_disabled": 0, "rental_uris": {"android": "https://dc.lft.to/lastmile_qr_scan", "ios": "https://dc.lft.to/lastmile_qr_scan"}, "fusion_lon": 0.0, "lat": 38.905726333333334, "lon": -77.06269016666667, "type": "electric_scooter", "bike_id": "c9ee57d74f0bb195f69cfa81617dbd70", "name": "c9ee57d74f0bb195f69cfa81617dbd70"}, {"fusion_lat": 0.0, "is_reserved": 0, "is_disabled": 0, "rental_uris": {"android": "https://dc.lft.to/lastmile_qr_scan", "ios": "https://dc.lft.to/lastmile_qr_scan"}, "fusion_lon": 0.0, "lat": 38.946984666666665, "lon": -77.09267333333334, "type": "electric_scooter", "bike_id": "6c52c9e5930ca2593e02a040256cdf54", "name": "6c52c9e5930ca2593e02a040256cdf54"}, {"fusion_lat": 0.0, "is_reserved": 0, "is_disabled": 0, "rental_uris": {"android": "https://dc.lft.to/lastmile_qr_scan", "ios": "https://dc.lft.to/lastmile_qr_scan"}, "fusion_lon": 0.0, "lat": 38.9071865, "lon": -77.04353583333334, "type": "electric_scooter", "bike_id": "e1a30614017693d03dce64e959eb9c2c", "name": "e1a30614017693d03dce64e959eb9c2c"}, {"fusion_lat": 0.0, "is_reserved": 0, "is_disabled": 0, "rental_uris": {"android": "https://dc.lft.to/lastmile_qr_scan", "ios": "https://dc.lft.to/lastmile_qr_scan"}, "fusion_lon": 0.0, "lat": 38.920712333333334, "lon": -77.04380533333334, "type": "electric_scooter", "bike_id": "7dd2b5a083ef98a57d8bfb53e1440b64", "name": "7dd2b5a083ef98a57d8bfb53e1440b64"}, {"fusion_lat": 0.0, "is_reserved": 0, "is_disabled": 0, "rental_uris": {"android": "https://dc.lft.to/lastmile_qr_scan", "ios": "https://dc.lft.to/lastmile_qr_scan"}, "fusion_lon": 0.0, "lat": 38.844368333333335, "lon": -76.9977745, "type": "electric_scooter", "bike_id": "b408a14b3ab4bca00e0bde52d9e0fb05", "name": "b408a14b3ab4bca00e0bde52d9e0fb05"}, {"fusion_lat": 0.0, "is_reserved": 0, "is_disabled": 0, "rental_uris": {"android": "https://dc.lft.to/lastmile_qr_scan", "ios": "https://dc.lft.to/lastmile_qr_scan"}, "fusion_lon": 0.0, "lat": 38.86910833333334, "lon": -77.13177, "type": "electric_bike", "bike_id": "de5cbbbea95ef9df844726b50b433fb9", "name": "de5cbbbea95ef9df844726b50b433fb9"}, {"fusion_lat": 0.0, "is_reserved": 0, "is_disabled": 0, "rental_uris": {"android": "https://dc.lft.to/lastmile_qr_scan", "ios": "https://dc.lft.to/lastmile_qr_scan"}, "fusion_lon": 0.0, "lat": 38.911071666666665, "lon": -77.04840033333333, "type": "electric_scooter", "bike_id": "6c34b49a70b21341d2eadc1b5266d79b", "name": "6c34b49a70b21341d2eadc1b5266d79b"}, {"fusion_lat": 0.0, "is_reserved": 0, "is_disabled": 0, "rental_uris": {"android": "https://dc.lft.to/lastmile_qr_scan", "ios": "https://dc.lft.to/lastmile_qr_scan"}, "fusion_lon": 0.0, "lat": 38.871851, "lon": -77.0840815, "type": "electric_bike", "bike_id": "4d26092463a7f4ec00ee39ff48263531", "name": "4d26092463a7f4ec00ee39ff48263531"}, {"fusion_lat": 0.0, "is_reserved": 0, "is_disabled": 0, "rental_uris": {"android": "https://dc.lft.to/lastmile_qr_scan", "ios": "https://dc.lft.to/lastmile_qr_scan"}, "fusion_lon": 0.0, "lat": 38.9155405, "lon": -77.03171633333334, "type": "electric_scooter", "bike_id": "5d91ff7a44f826103244467754ef7c4b", "name": "5d91ff7a44f826103244467754ef7c4b"}, {"fusion_lat": 0.0, "is_reserved": 0, "is_disabled": 0, "rental_uris": {"android": "https://dc.lft.to/lastmile_qr_scan", "ios": "https://dc.lft.to/lastmile_qr_scan"}, "fusion_lon": 0.0, "lat": 38.937991833333335, "lon": -77.02446216666667, "type": "electric_scooter", "bike_id": "e3ae761092e1b7c4ba097a7d29c8ffc8", "name": "e3ae761092e1b7c4ba097a7d29c8ffc8"}, {"fusion_lat": 0.0, "is_reserved": 0, "is_disabled": 0, "rental_uris": {"android": "https://dc.lft.to/lastmile_qr_scan", "ios": "https://dc.lft.to/lastmile_qr_scan"}, "fusion_lon": 0.0, "lat": 38.925082333333336, "lon": -77.02154483333334, "type": "electric_scooter", "bike_id": "5eee9f653248f0d8c0b7632df51cf60a", "name": "5eee9f653248f0d8c0b7632df51cf60a"}, {"fusion_lat": 0.0, "is_reserved": 0, "is_disabled": 0, "rental_uris": {"android": "https://dc.lft.to/lastmile_qr_scan", "ios": "https://dc.lft.to/lastmile_qr_scan"},