{"data": {"bikes": [{"rental_uris": {"ios": "https://dc.lft.to/lastmile_qr_scan", "android": "https://dc.lft.to/lastmile_qr_scan"}, "type": "electric_scooter", "name": "1abc78c1cc0c095ba6a6a8ace38edb9e", "is_reserved": 0, "lon": -77.0039525, "is_disabled": 0, "fusion_lat": 0.0, "lat": 38.905643, "bike_id": "1abc78c1cc0c095ba6a6a8ace38edb9e", "fusion_lon": 0.0}, {"rental_uris": {"ios": "https://dc.lft.to/lastmile_qr_scan", "android": "https://dc.lft.to/lastmile_qr_scan"}, "type": "electric_scooter", "name": "2b5a38444c42bd300f477d59f1c127c0", "is_reserved": 0, "lon": -77.0237805, "is_disabled": 0, "fusion_lat": 0.0, "lat": 38.91700683333333, "bike_id": "2b5a38444c42bd300f477d59f1c127c0", "fusion_lon": 0.0}, {"rental_uris": {"ios": "https://dc.lft.to/lastmile_qr_scan", "android": "https://dc.lft.to/lastmile_qr_scan"}, "type": "electric_scooter", "name": "2290adf668298b16d7c9361ebe33c5a8", "is_reserved": 0, "lon": -76.941924, "is_disabled": 0, "fusion_lat": 0.0, "lat": 38.90220766666667, "bike_id": "2290adf668298b16d7c9361ebe33c5a8", "fusion_lon": 0.0}, {"rental_uris": {"ios": "https://dc.lft.to/lastmile_qr_scan", "android": "https://dc.lft.to/lastmile_qr_scan"}, "type": "electric_scooter", "name": "ebabb8cd03eb7b541b52c13e11e7f10e", "is_reserved": 0, "lon": -77.07553, "is_disabled": 0, "fusion_lat": 0.0, "lat": 38.920881333333334, "bike_id": "ebabb8cd03eb7b541b52c13e11e7f10e", "fusion_lon": 0.0}, {"rental_uris": {"ios": "https://dc.lft.to/lastmile_qr_scan", "android": "https://dc.lft.to/lastmile_qr_scan"}, "type": "electric_scooter", "name": "c48fc1d6bf3e5efb78b4ea3a83541a9e", "is_reserved": 0, "lon": -77.0230635, "is_disabled": 0, "fusion_lat": 0.0, "lat": 38.92865, "bike_id": "c48fc1d6bf3e5efb78b4ea3a83541a9e", "fusion_lon": 0.0}, {"rental_uris": {"ios": "https://dc.lft.to/lastmile_qr_scan", "android": "https://dc.lft.to/lastmile_qr_scan"}, "type": "electric_scooter", "name": "806de68c2dfc013a5c0da35cf8b84572", "is_reserved": 0, "lon": -77.03749983333333, "is_disabled": 0, "fusion_lat": 0.0, "lat": 38.931992, "bike_id": "806de68c2dfc013a5c0da35cf8b84572", "fusion_lon": 0.0}, {"rental_uris": {"ios": "https://dc.lft.to/lastmile_qr_scan", "android": "https://dc.lft.to/lastmile_qr_scan"}, "type": "electric_scooter", "name": "04fe3446e96b5287c356f9ad26d385bc", "is_reserved": 0, "lon": -77.03863783333334, "is_disabled": 0, "fusion_lat": 0.0, "lat": 38.916481166666664, "bike_id": "04fe3446e96b5287c356f9ad26d385bc", "fusion_lon": 0.0}, {"rental_uris": {"ios": "https://dc.lft.to/lastmile_qr_scan", "android": "https://dc.lft.to/lastmile_qr_scan"}, "type": "electric_scooter", "name": "683574adb94dabd8b63353308f6b6ff2", "is_reserved": 0, "lon": -77.02207283333334, "is_disabled": 0, "fusion_lat": 0.0, "lat": 38.92058983333333, "bike_id": "683574adb94dabd8b63353308f6b6ff2", "fusion_lon": 0.0}, {"rental_uris": {"ios": "https://dc.lft.to/lastmile_qr_scan", "android": "https://dc.lft.to/lastmile_qr_scan"}, "type": "electric_scooter", "name": "372a5e359171e1338b9c366d3606a445", "is_reserved": 0, "lon": -76.99470133333334, "is_disabled": 0, "fusion_lat": 0.0, "lat": 38.905486833333335, "bike_id": "372a5e359171e1338b9c366d3606a445", "fusion_lon": 0.0}, {"rental_uris": {"ios": "https://dc.lft.to/lastmile_qr_scan", "android": "https://dc.lft.to/lastmile_qr_scan"}, "type": "electric_scooter", "name": "5db7fb03f3e07eb2bdc26a941ec41941", "is_reserved": 0, "lon": -77.01792933333333, "is_disabled": 0, "fusion_lat": 0.0, "lat": 38.900809333333335, "bike_id": "5db7fb03f3e07eb2bdc26a941ec41941", "fusion_lon": 0.0}, {"rental_uris": {"ios": "https://dc.lft.to/lastmile_qr_scan", "android": "https://dc.lft.to/lastmile_qr_scan"}, "type": "electric_scooter", "name": "848d1ad3807b881402d33abd27673cee", "is_reserved": 0, "lon": -77.03025383333333, "is_disabled": 0, "fusion_lat": 0.0, "lat": 38.9224185, "bike_id": "848d1ad3807b881402d33abd27673cee", "fusion_lon": 0.0}, {"rental_uris": {"ios": "https://dc.lft.to/lastmile_qr_scan", "android": "https://dc.lft.to/lastmile_qr_scan"}, "type": "electric_scooter", "name": "5e350b8f2b7f87534378a283db9facbf", "is_reserved": 0, "lon": -77.03272866666667, "is_disabled": 0, "fusion_lat": 0.0, "lat": 38.932675833333334, "bike_id": "5e350b8f2b7f87534378a283db9facbf", "fusion_lon": 0.0}, {"rental_uris": {"ios": "https://dc.lft.to/lastmile_qr_scan", "android": "https://dc.lft.to/lastmile_qr_scan"}, "type": "electric_scooter", "name": "835de331936d12c15a9c6ea394259f06", "is_reserved": 0, "lon": -76.99595583333334, "is_disabled": 0, "fusion_lat": 0.0, "lat": 38.900333833333335, "bike_id": "835de331936d12c15a9c6ea394259f06", "fusion_lon": 0.0}, {"rental_uris": {"ios": "https://dc.lft.to/lastmile_qr_scan", "android": "https://dc.lft.to/lastmile_qr_scan"}, "type": "electric_scooter", "name": "7584510544ae18a82e5a56e0eeb35c8a", "is_reserved": 0, "lon": -77.0272205, "is_disabled": 0, "fusion_lat": 0.0, "lat": 38.9248205, "bike_id": "7584510544ae18a82e5a56e0eeb35c8a", "fusion_lon": 0.0}, {"rental_uris": {"ios": "https://dc.lft.to/lastmile_qr_scan", "android": "https://dc.lft.to/lastmile_qr_scan"}, "type": "electric_scooter", "name": "0d56dce529ba0f6ed1aba288629e7308", "is_reserved": 0, "lon": -77.03448916666666, "is_disabled": 0, "fusion_lat": 0.0, "lat": 38.909793, "bike_id": "0d56dce529ba0f6ed1aba288629e7308", "fusion_lon": 0.0}, {"rental_uris": {"ios": "https://dc.lft.to/lastmile_qr_scan", "android": "https://dc.lft.to/lastmile_qr_scan"}, "type": "electric_scooter", "name": "1b28d04ebfd15258e584c118507f404d", "is_reserved": 0, "lon": -77.00650316666666, "is_disabled": 0, "fusion_lat": 0.0, "lat": 38.87703066666667, "bike_id": "1b28d04ebfd15258e584c118507f404d", "fusion_lon": 0.0}, {"rental_uris": {"ios": "https://dc.lft.to/lastmile_qr_scan", "android": "https://dc.lft.to/lastmile_qr_scan"}, "type": "electric_scooter", "name": "e75691a07d0caeb897eaebc64fa73600", "is_reserved": 0, "lon": -77.03795483333333, "is_disabled": 0, "fusion_lat": 0.0, "lat": 38.9154185, "bike_id": "e75691a07d0caeb897eaebc64fa73600", "fusion_lon": 0.0}, {"rental_uris": {"ios": "https://dc.lft.to/lastmile_qr_scan", "android": "https://dc.lft.to/lastmile_qr_scan"}, "type": "electric_scooter", "name": "9da9480a3618344ba8834d59fb964c82", "is_reserved": 0, "lon": -76.98072183333333, "is_disabled": 0, "fusion_lat": 0.0, "lat": 38.90158783333333, "bike_id": "9da9480a3618344ba8834d59fb964c82", "fusion_lon": 0.0}, {"rental_uris": {"ios": "https://dc.lft.to/lastmile_qr_scan", "android": "https://dc.lft.to/lastmile_qr_scan"}, "type": "electric_scooter", "name": "78c333c4d3a814f22def943c97224be3", "is_reserved": 0, "lon": -77.00682533333334, "is_disabled": 0, "fusion_lat": 0.0, "lat": 38.87935216666666, "bike_id": "78c333c4d3a814f22def943c97224be3", "fusion_lon": 0.0}, {"rental_uris": {"ios": "https://dc.lft.to/lastmile_qr_scan", "android": "https://dc.lft.to/lastmile_qr_scan"}, "type": "electric_scooter", "name": "73bed81f068d24f0febb8d84e1e02190", "is_reserved": 0, "lon": -77.02414866666666, "is_disabled": 0, "fusion_lat": 0.0, "lat": 38.899028666666666, "bike_id": "73bed81f068d24f0febb8d84e1e02190", "fusion_lon": 0.0}, {"rental_uris": {"ios": "https://dc.lft.to/lastmile_qr_scan", "android": "https://dc.lft.to/lastmile_qr_scan"}, "type": "electric_scooter", "name": "f01c3c6293c75ac8dc79463d9674fc60", "is_reserved": 0, "lon": -76.98826266666667, "is_disabled": 0, "fusion_lat": 0.0, "lat": 38.89492883333333, "bike_id": "f01c3c6293c75ac8dc79463d9674fc60", "fusion_lon": 0.0}, {"rental_uris": {"ios": "https://dc.lft.to/lastmile_qr_scan", "android": "https://dc.lft.to/lastmile_qr_scan"}, "type": "electric_scooter", "name": "fccfd42567feaa9338333739d877d2f4", "is_reserved": 0, "lon": -77.01770216666667, "is_disabled": 0, "fusion_lat": 0.0, "lat": 38.883228333333335, "bike_id": "fccfd42567feaa9338333739d877d2f4", "fusion_lon": 0.0}, {"rental_uris": {"ios": "https://dc.lft.to/lastmile_qr_scan", "android": "https://dc.lft.to/lastmile_qr_scan"}, "type": "electric_scooter", "name": "6ddf4d04d8d91cda6de6310e7a70a59d", "is_reserved": 0, "lon": -77.0336215, "is_disabled": 0, "fusion_lat": 0.0, "lat": 38.92240666666667, "bike_id": "6ddf4d04d8d91cda6de6310e7a70a59d", "fusion_lon": 0.0}, {"rental_uris": {"ios": "https://dc.lft.to/lastmile_qr_scan", "android": "https://dc.lft.to/lastmile_qr_scan"}, "type": "electric_scooter", "name": "1f66b0212a94d5dcda41c474dab7a2df", "is_reserved": 0, "lon": -77.03443166666666, "is_disabled": 0, "fusion_lat": 0.0, "lat": 38.9056525, "bike_id": "1f66b0212a94d5dcda41c474dab7a2df", "fusion_lon": 0.0}, {"rental_uris": {"ios": "https://dc.lft.to/lastmile_qr_scan", "android": "https://dc.lft.to/lastmile_qr_scan"}, "type": "electric_scooter", "name": "70434248dcacbb51df48ae169700870a", "is_reserved": 0, "lon": -77.02264133333334, "is_disabled": 0, "fusion_lat": 0.0, "lat": 38.927438, "bike_id": "70434248dcacbb51df48ae169700870a", "fusion_lon": 0.0}, {"rental_uris": {"ios": "https://dc.lft.to/lastmile_qr_scan", "android": "https://dc.lft.to/lastmile_qr_scan"}, "type": "electric_bike", "name": "e3a1786ea7c19570a023ecc23323cf0f", "is_reserved": 0, "lon": -76.987598, "is_disabled": 0, "fusion_lat": 0.0, "lat": 38.857647166666666, "bike_id": "e3a1786ea7c19570a023ecc23323cf0f", "fusion_lon": 0.0}, {"rental_uris": {"ios": "https://dc.lft.to/lastmile_qr_scan", "android": "https://dc.lft.to/lastmile_qr_scan"}, "type": "electric_scooter", "name": "2091b4d0f8273d03c0a4fa8f3d3f6c79", "is_reserved": 0, "lon": -77.05676933333334, "is_disabled": 0, "fusion_lat": 0.0, "lat": 38.9338895, "bike_id": "2091b4d0f8273d03c0a4fa8f3d3f6c79", "fusion_lon": 0.0}, {"rental_uris": {"ios": "https://dc.lft.to/lastmile_qr_scan", "android": "https://dc.lft.to/lastmile_qr_scan"}, "type": "electric_bike", "name": "7434e01e82805faca0f80af76295c052", "is_reserved": 0, "lon": -76.97422066666667, "is_disabled": 0, "fusion_lat": 0.0, "lat": 38.93237966666667, "bike_id": "7434e01e82805faca0f80af76295c052", "fusion_lon": 0.0}, {"rental_uris": {"ios": "https://dc.lft.to/lastmile_qr_scan", "android": "https://dc.lft.to/lastmile_qr_scan"}, "type": "electric_scooter", "name": "037dc9aa49bc20d1f4f3bb8601699377", "is_reserved": 0, "lon": -77.01820633333334, "is_disabled": 0, "fusion_lat": 0.0, "lat": 38.91112183333333, "bike_id": "037dc9aa49bc20d1f4f3bb8601699377", "fusion_lon": 0.0}, {"rental_uris": {"ios": "https://dc.lft.to/lastmile_qr_scan", "android": "https://dc.lft.to/lastmile_qr_scan"}, "type": "electric_scooter", "name": "83207be26be9fcd0419eadb66930859e", "is_reserved": 0, "lon": -76.99853466666667, "is_disabled": 0, "fusion_lat": 0.0, "lat": 38.900413666666665, "bike_id": "83207be26be9fcd0419eadb66930859e", "fusion_lon": 0.0}, {"rental_uris": {"ios": "https://dc.lft.to/lastmile_qr_scan", "android": "https://dc.lft.to/lastmile_qr_scan"}, "type": "electric_scooter", "name": "64220c2d4235e7e5b2ecc2af419d43dd", "is_reserved": 0, "lon": -77.02632283333334, "is_disabled": 0, "fusion_lat": 0.0, "lat": 38.892162666666664, "bike_id": "64220c2d4235e7e5b2ecc2af419d43dd", "fusion_lon": 0.0}, {"rental_uris": {"ios": "https://dc.lft.to/lastmile_qr_scan", "android": "https://dc.lft.to/lastmile_qr_scan"}, "type": "electric_scooter", "name": "eb4d522900b1eed9904fc641950d83d6", "is_reserved": 0, "lon": -77.02264016666666, "is_disabled": 0, "fusion_lat": 0.0, "lat": 38.92742833333333, "bike_id": "eb4d522900b1eed9904fc641950d83d6", "fusion_lon": 0.0}, {"rental_uris": {"ios": "https://dc.lft.to/lastmile_qr_scan", "android": "https://dc.lft.to/lastmile_qr_scan"}, "type": "electric_scooter", "name": "7d2aaa7c46597b6f5f9de7dacc5cab6c", "is_reserved": 0, "lon": -77.050147, "is_disabled": 0, "fusion_lat": 0.0, "lat": 38.90551583333333, "bike_id": "7d2aaa7c46597b6f5f9de7dacc5cab6c", "fusion_lon": 0.0}, {"rental_uris": {"ios": "https://dc.lft.to/lastmile_qr_scan", "android": "https://dc.lft.to/lastmile_qr_scan"}, "type": "electric_scooter", "name": "7e7564f97337fc6c4b30ff1fda0695a3", "is_reserved": 0, "lon": -77.0308085, "is_disabled": 0, "fusion_lat": 0.0, "lat": 38.93875966666667, "bike_id": "7e7564f97337fc6c4b30ff1fda0695a3", "fusion_lon": 0.0}, {"rental_uris": {"ios": "https://dc.lft.to/lastmile_qr_scan", "android": "https://dc.lft.to/lastmile_qr_scan"}, "type": "electric_scooter", "name": "c3e29a7891baeec6d34f5e3398ef4b29", "is_reserved": 0, "lon": -76.998808, "is_disabled": 0, "fusion_lat": 0.0, "lat": 38.920552, "bike_id": "c3e29a7891baeec6d34f5e3398ef4b29", "fusion_lon": 0.0}, {"rental_uris": {"ios": "https://dc.lft.to/lastmile_qr_scan", "android": "https://dc.lft.to/lastmile_qr_scan"}, "type": "electric_scooter", "name": "905a4cea27ef788655e70f3252493a7e", "is_reserved": 0, "lon": -77.077167, "is_disabled": 0, "fusion_lat": 0.0, "lat": 38.942929, "bike_id": "905a4cea27ef788655e70f3252493a7e", "fusion_lon": 0.0}, {"rental_uris": {"ios": "https://dc.lft.to/lastmile_qr_scan", "android": "https://dc.lft.to/lastmile_qr_scan"}, "type": "electric_scooter", "name": "7e14cf5a34583d851c3d442cb589978a", "is_reserved": 0, "lon": -77.03436583333334, "is_disabled": 0, "fusion_lat": 0.0, "lat": 38.93436616666666, "bike_id": "7e14cf5a34583d851c3d442cb589978a", "fusion_lon": 0.0}, {"rental_uris": {"ios": "https://dc.lft.to/lastmile_qr_scan", "android": "https://dc.lft.to/lastmile_qr_scan"}, "type": "electric_scooter", "name": "c120cfe960f09337c0fd9af15ecb5034", "is_reserved": 0, "lon": -77.0221085, "is_disabled": 0, "fusion_lat": 0.0, "lat": 38.88740583333333, "bike_id": "c120cfe960f09337c0fd9af15ecb5034", "fusion_lon": 0.0}, {"rental_uris": {"ios": "https://dc.lft.to/lastmile_qr_scan", "android": "https://dc.lft.to/lastmile_qr_scan"}, "type": "electric_scooter", "name": "38703ec314ce50bab38b9092c5522761", "is_reserved": 0, "lon": -77.04879983333333, "is_disabled": 0, "fusion_lat": 0.0, "lat": 38.89906416666667, "bike_id": "38703ec314ce50bab38b9092c5522761", "fusion_lon": 0.0}, {"rental_uris": {"ios": "https://dc.lft.to/lastmile_qr_scan", "android": "https://dc.lft.to/lastmile_qr_scan"}, "type": "electric_scooter", "name": "1ede5a148b00e28ca754c0074c2357b9", "is_reserved": 0, "lon": -77.0314085, "is_disabled": 0, "fusion_lat": 0.0, "lat": 38.912772, "bike_id": "1ede5a148b00e28ca754c0074c2357b9", "fusion_lon": 0.0}, {"rental_uris": {"ios": "https://dc.lft.to/lastmile_qr_scan", "android": "https://dc.lft.to/lastmile_qr_scan"}, "type": "electric_bike", "name": "287ee0d125c997a065c8f989b3c93784", "is_reserved": 0, "lon": -76.9752905, "is_disabled": 0, "fusion_lat": 0.0, "lat": 38.90330983333333, "bike_id": "287ee0d125c997a065c8f989b3c93784", "fusion_lon": 0.0}, {"rental_uris": {"ios": "https://dc.lft.to/lastmile_qr_scan", "android": "https://dc.lft.to/lastmile_qr_scan"}, "type": "electric_scooter", "name": "199f4f3cf83f2e5c0a10791692426fb3", "is_reserved": 0, "lon": -76.993834, "is_disabled": 0, "fusion_lat": 0.0, "lat": 38.910134166666666, "bike_id": "199f4f3cf83f2e5c0a10791692426fb3", "fusion_lon": 0.0}, {"rental_uris": {"ios": "https://dc.lft.to/lastmile_qr_scan", "android": "https://dc.lft.to/lastmile_qr_scan"}, "type": "electric_scooter", "name": "d7dbfa6c8109472c3af16561e0bc3fe0", "is_reserved": 0, "lon": -77.03180816666666, "is_disabled": 0, "fusion_lat": 0.0, "lat": 38.89226083333333, "bike_id": "d7dbfa6c8109472c3af16561e0bc3fe0", "fusion_lon": 0.0}, {"rental_uris": {"ios": "https://dc.lft.to/lastmile_qr_scan", "android": "https://dc.lft.to/lastmile_qr_scan"}, "type": "electric_scooter", "name": "0dcf416f1c605cbf7c8fee092d43b5e3", "is_reserved": 0, "lon": -77.047803, "is_disabled": 0, "fusion_lat": 0.0, "lat": 38.908613833333334, "bike_id": "0dcf416f1c605cbf7c8fee092d43b5e3", "fusion_lon": 0.0}, {"rental_uris": {"ios": "https://dc.lft.to/lastmile_qr_scan", "android": "https://dc.lft.to/lastmile_qr_scan"}, "type": "electric_bike", "name": "8bf12c2ad8a46e1d659c85dac2316a29", "is_reserved": 0, "lon": -77.050901, "is_disabled": 0, "fusion_lat": 0.0, "lat": 38.813340333333336, "bike_id": "8bf12c2ad8a46e1d659c85dac2316a29", "fusion_lon": 0.0}, {"rental_uris": {"ios": "https://dc.lft.to/lastmile_qr_scan", "android": "https://dc.lft.to/lastmile_qr_scan"}, "type": "electric_scooter", "name": "2e088a6ebfbce5ea5c5e956e34c67ef4", "is_reserved": 0, "lon": -77.00986916666666, "is_disabled": 0, "fusion_lat": 0.0, "lat": 38.92030666666667, "bike_id": "2e088a6ebfbce5ea5c5e956e34c67ef4", "fusion_lon": 0.0}, {"rental_uris": {"ios": "https://dc.lft.to/lastmile_qr_scan", "android": "https://dc.lft.to/lastmile_qr_scan"}, "type": "electric_scooter", "name": "78bf1b7a237a45603705e36de1355d3b", "is_reserved": 0, "lon": -77.00220483333334, "is_disabled": 0, "fusion_lat": 0.0, "lat": 38.89453833333334, "bike_id": "78bf1b7a237a45603705e36de1355d3b", "fusion_lon": 0.0}, {"rental_uris": {"ios": "https://dc.lft.to/lastmile_qr_scan", "android": "https://dc.lft.to/lastmile_qr_scan"}, "type": "electric_scooter", "name": "1ce323aca0e9857d523ab9adf9a856e1", "is_reserved": 0, "lon": -77.00916166666667, "is_disabled": 0, "fusion_lat": 0.0, "lat": 38.90765966666667, "bike_id": "1ce323aca0e9857d523ab9adf9a856e1", "fusion_lon": 0.0}, {"rental_uris": {"ios": "https://dc.lft.to/lastmile_qr_scan", "android": "https://dc.lft.to/lastmile_qr_scan"}, "type": "electric_scooter", "name": "c9b4f933b2876ebf291c67e75390836e", "is_reserved": 0, "lon": -77.014849, "is_disabled": 0, "fusion_lat": 0.0, "lat": 38.8874395, "bike_id": "c9b4f933b2876ebf291c67e75390836e", "fusion_lon": 0.0}, {"rental_uris": {"ios": "https://dc.lft.to/lastmile_qr_scan", "android": "https://dc.lft.to/lastmile_qr_scan"}, "type": "electric_scooter", "name": "aebc5ae3bd1f6af7107ffb6c8c5dc14a", "is_reserved": 0, "lon": -77.0353115, "is_disabled": 0, "fusion_lat": 0.0, "lat": 38.92334666666667, "bike_id": "aebc5ae3bd1f6af7107ffb6c8c5dc14a", "fusion_lon": 0.0}, {"rental_uris": {"ios": "https://dc.lft.to/lastmile_qr_scan", "android": "https://dc.lft.to/lastmile_qr_scan"}, "type": "electric_bike", "name": "8750f1068c6c5d90f5368320e885571d", "is_reserved": 0, "lon": -76.972802, "is_disabled": 0, "fusion_lat": 0.0, "lat": 38.865117, "bike_id": "8750f1068c6c5d90f5368320e885571d", "fusion_lon": 0.0}, {"rental_uris": {"ios": "https://dc.lft.to/lastmile_qr_scan", "android": "https://dc.lft.to/lastmile_qr_scan"}, "type": "electric_scooter", "name": "aebaf71353de5af1614441d97fa43e21", "is_reserved": 0, "lon": -77.020655, "is_disabled": 0, "fusion_lat": 0.0, "lat": 38.90846716666667, "bike_id": "aebaf71353de5af1614441d97fa43e21", "fusion_lon": 0.0}, {"rental_uris": {"ios": "https://dc.lft.to/lastmile_qr_scan", "android": "https://dc.lft.to/lastmile_qr_scan"}, "type": "electric_scooter", "name": "4f1ebad746820d2b91f88b4d44b08af1", "is_reserved": 0, "lon": -77.03852233333333, "is_disabled": 0, "fusion_lat": 0.0, "lat": 38.912851, "bike_id": "4f1ebad746820d2b91f88b4d44b08af1", "fusion_lon": 0.0}, {"rental_uris": {"ios": "https://dc.lft.to/lastmile_qr_scan", "android": "https://dc.lft.to/lastmile_qr_scan"}, "type": "electric_scooter", "name": "e601552bcdbfdfa3ec04159d82c9dc57", "is_reserved": 0, "lon": -77.02495266666666, "is_disabled": 0, "fusion_lat": 0.0, "lat": 38.9259785, "bike_id": "e601552bcdbfdfa3ec04159d82c9dc57", "fusion_lon": 0.0}, {"rental_uris": {"ios": "https://dc.lft.to/lastmile_qr_scan", "android": "https://dc.lft.to/lastmile_qr_scan"}, "type": "electric_scooter", "name": "026cabf1d7355b234157fb42624422a6", "is_reserved": 0, "lon": -77.07280116666666, "is_disabled": 0, "fusion_lat": 0.0, "lat": 38.935125666666664, "bike_id": "026cabf1d7355b234157fb42624422a6", "fusion_lon": 0.0}, {"rental_uris": {"ios": "https://dc.lft.to/lastmile_qr_scan", "android": "https://dc.lft.to/lastmile_qr_scan"}, "type": "electric_scooter", "name": "10fa1b45c46ae680b27d8316da5e911c", "is_reserved": 0, "lon": -77.034453, "is_disabled": 0, "fusion_lat": 0.0, "lat": 38.909756, "bike_id": "10fa1b45c46ae680b27d8316da5e911c", "fusion_lon": 0.0}, {"rental_uris": {"ios": "https://dc.lft.to/lastmile_qr_scan", "android": "https://dc.lft.to/lastmile_qr_scan"}, "type": "electric_scooter", "name": "572c76fa2896b10dba6863b16d3f91da", "is_reserved": 0, "lon": -77.01579866666667, "is_disabled": 0, "fusion_lat": 0.0, "lat": 38.9167655, "bike_id": "572c76fa2896b10dba6863b16d3f91da", "fusion_lon": 0.0}, {"rental_uris": {"ios": "https://dc.lft.to/lastmile_qr_scan", "android": "https://dc.lft.to/lastmile_qr_scan"}, "type": "electric_scooter", "name": "415887e0301a7e0e0323b603babe315c", "is_reserved": 0, "lon": -77.038746, "is_disabled": 0, "fusion_lat": 0.0, "lat": 38.933656666666664, "bike_id": "415887e0301a7e0e0323b603babe315c", "fusion_lon": 0.0}, {"rental_uris": {"ios": "https://dc.lft.to/lastmile_qr_scan", "android": "https://dc.lft.to/lastmile_qr_scan"}, "type": "electric_scooter", "name": "08328ccdea127f4a31e4b06fdcebde27", "is_reserved": 0, "lon": -77.01084283333333, "is_disabled": 0, "fusion_lat": 0.0, "lat": 38.903346166666665, "bike_id": "08328ccdea127f4a31e4b06fdcebde27", "fusion_lon": 0.0}, {"rental_uris": {"ios": "https://dc.lft.to/lastmile_qr_scan", "android": "https://dc.lft.to/lastmile_qr_scan"}, "type": "electric_scooter", "name": "2166f3e4b7af974e3d9b33b226f00ba1", "is_reserved": 0, "lon": -77.05602966666666, "is_disabled": 0, "fusion_lat": 0.0, "lat": 38.9370385, "bike_id": "2166f3e4b7af974e3d9b33b226f00ba1", "fusion_lon": 0.0}, {"rental_uris": {"ios": "https://dc.lft.to/lastmile_qr_scan", "android": "https://dc.lft.to/lastmile_qr_scan"}, "type": "electric_bike", "name": "12c16490029e98df8462fa9f4477059c", "is_reserved": 0, "lon": -77.022833, "is_disabled": 0, "fusion_lat": 0.0, "lat": 38.9270475, "bike_id": "12c16490029e98df8462fa9f4477059c", "fusion_lon": 0.0}, {"rental_uris": {"ios": "https://dc.lft.to/lastmile_qr_scan", "android": "https://dc.lft.to/lastmile_qr_scan"}, "type": "electric_bike", "name": "d562e2174a1b8e5860ec13a226a0358e", "is_reserved": 0, "lon": -76.997934, "is_disabled": 0, "fusion_lat": 0.0, "lat": 38.88120983333334, "bike_id": "d562e2174a1b8e5860ec13a226a0358e", "fusion_lon": 0.0}, {"rental_uris": {"ios": "https://dc.lft.to/lastmile_qr_scan", "android": "https://dc.lft.to/lastmile_qr_scan"}, "type": "electric_scooter", "name": "f6ea3cb8bfab680e713062746fadcbf2", "is_reserved": 0, "lon": -77.0075845, "is_disabled": 0, "fusion_lat": 0.0, "lat": 38.92676083333333, "bike_id": "f6ea3cb8bfab680e713062746fadcbf2", "fusion_lon": 0.0}, {"rental_uris": {"ios": "https://dc.lft.to/lastmile_qr_scan", "android": "https://dc.lft.to/lastmile_qr_scan"}, "type": "electric_scooter", "name": "61c13e2765fc7e61a3d35eb4a0da5847", "is_reserved": 0, "lon": -77.04503816666667, "is_disabled": 0, "fusion_lat": 0.0, "lat": 38.89254483333333, "bike_id": "61c13e2765fc7e61a3d35eb4a0da5847", "fusion_lon": 0.0}, {"rental_uris": {"ios": "https://dc.lft.to/lastmile_qr_scan", "android": "https://dc.lft.to/lastmile_qr_scan"}, "type": "electric_scooter", "name": "79bb239881595e47d03482b156105801", "is_reserved": 0, "lon": -77.0366435, "is_disabled": 0, "fusion_lat": 0.0, "lat": 38.917618, "bike_id": "79bb239881595e47d03482b156105801", "fusion_lon": 0.0}, {"rental_uris": {"ios": "https://dc.lft.to/lastmile_qr_scan", "android": "https://dc.lft.to/lastmile_qr_scan"}, "type": "electric_scooter", "name": "9761639460e78f796b668050fec55f5c", "is_reserved": 0, "lon": -77.035552, "is_disabled": 0, "fusion_lat": 0.0, "lat": 38.9046705, "bike_id": "9761639460e78f796b668050fec55f5c", "fusion_lon": 0.0}, {"rental_uris": {"ios": "https://dc.lft.to/lastmile_qr_scan", "android": "https://dc.lft.to/lastmile_qr_scan"}, "type": "electric_scooter", "name": "15e35daab10b3d4908b7465e682b1940", "is_reserved": 0, "lon": -77.00458316666666, "is_disabled": 0, "fusion_lat": 0.0, "lat": 38.920717, "bike_id": "15e35daab10b3d4908b7465e682b1940", "fusion_lon": 0.0}, {"rental_uris": {"ios": "https://dc.lft.to/lastmile_qr_scan", "android": "https://dc.lft.to/lastmile_qr_scan"}, "type": "electric_bike", "name": "ec105c5ebce9845a378508591cfc13e5", "is_reserved": 0, "lon": -76.97344466666667, "is_disabled": 0, "fusion_lat": 0.0, "lat": 38.897249, "bike_id": "ec105c5ebce9845a378508591cfc13e5", "fusion_lon": 0.0}, {"rental_uris": {"ios": "https://dc.lft.to/lastmile_qr_scan", "android": "https://dc.lft.to/lastmile_qr_scan"}, "type": "electric_scooter", "name": "affe9e3ade8c459fc032fa4ec0b9707f", "is_reserved": 0, "lon": -77.02417166666666, "is_disabled": 0, "fusion_lat": 0.0, "lat": 38.9095705, "bike_id": "affe9e3ade8c459fc032fa4ec0b9707f", "fusion_lon": 0.0}, {"rental_uris": {"ios": "https://dc.lft.to/lastmile_qr_scan", "android": "https://dc.lft.to/lastmile_qr_scan"}, "type": "electric_scooter", "name": "fc40d03cda59124a55bb7250ddca4c9f", "is_reserved": 0, "lon": -77.0383805, "is_disabled": 0, "fusion_lat": 0.0, "lat": 38.91074316666667, "bike_id": "fc40d03cda59124a55bb7250ddca4c9f", "fusion_lon": 0.0}, {"rental_uris": {"ios": "https://dc.lft.to/lastmile_qr_scan", "android": "https://dc.lft.to/lastmile_qr_scan"}, "type": "electric_scooter", "name": "6d57ad3252c203333934dbddb48e5468", "is_reserved": 0, "lon": -77.01761366666666, "is_disabled": 0, "fusion_lat": 0.0, "lat": 38.8832445, "bike_id": "6d57ad3252c203333934dbddb48e5468", "fusion_lon": 0.0}, {"rental_uris": {"ios": "https://dc.lft.to/lastmile_qr_scan", "android": "https://dc.lft.to/lastmile_qr_scan"}, "type": "electric_scooter", "name": "3bc0c9cbacd31c118e715d20a170f55c", "is_reserved": 0, "lon": -77.05925633333334, "is_disabled": 0, "fusion_lat": 0.0, "lat": 38.94308183333333, "bike_id": "3bc0c9cbacd31c118e715d20a170f55c", "fusion_lon": 0.0}, {"rental_uris": {"ios": "https://dc.lft.to/lastmile_qr_scan", "android": "https://dc.lft.to/lastmile_qr_scan"}, "type": "electric_scooter", "name": "98ae39de5826bc69b5112acea5f8a2d7", "is_reserved": 0, "lon": -77.00707333333334, "is_disabled": 0, "fusion_lat": 0.0, "lat": 38.88488366666667, "bike_id": "98ae39de5826bc69b5112acea5f8a2d7", "fusion_lon": 0.0}, {"rental_uris": {"ios": "https://dc.lft.to/lastmile_qr_scan", "android": "https://dc.lft.to/lastmile_qr_scan"}, "type": "electric_scooter", "name": "39b2faac817e77cc3c7461f16680e511", "is_reserved": 0, "lon": -77.02597183333333, "is_disabled": 0, "fusion_lat": 0.0, "lat": 38.919538333333335, "bike_id": "39b2faac817e77cc3c7461f16680e511", "fusion_lon": 0.0}, {"rental_uris": {"ios": "https://dc.lft.to/lastmile_qr_scan", "android": "https://dc.lft.to/lastmile_qr_scan"}, "type": "electric_scooter", "name": "490d62f8aed93d719bd479cae22bd016", "is_reserved": 0, "lon": -77.02710016666667, "is_disabled": 0, "fusion_lat": 0.0, "lat": 38.92403816666667, "bike_id": "490d62f8aed93d719bd479cae22bd016", "fusion_lon": 0.0}, {"rental_uris": {"ios": "https://dc.lft.to/lastmile_qr_scan", "android": "https://dc.lft.to/lastmile_qr_scan"}, "type": "electric_scooter", "name": "d4cc6ffa8f5953fcfcb867edd721e891", "is_reserved": 0, "lon": -77.0464275, "is_disabled": 0, "fusion_lat": 0.0, "lat": 38.919674, "bike_id": "d4cc6ffa8f5953fcfcb867edd721e891", "fusion_lon": 0.0}, {"rental_uris": {"ios": "https://dc.lft.to/lastmile_qr_scan", "android": "https://dc.lft.to/lastmile_qr_scan"}, "type": "electric_scooter", "name": "9dce98d389a00bd284590ab16bab6729", "is_reserved": 0, "lon": -77.0192945, "is_disabled": 0, "fusion_lat": 0.0, "lat": 38.92880383333333, "bike_id": "9dce98d389a00bd284590ab16bab6729", "fusion_lon": 0.0}, {"rental_uris": {"ios": "https://dc.lft.to/lastmile_qr_scan", "android": "https://dc.lft.to/lastmile_qr_scan"}, "type": "electric_scooter", "name": "e4c9cb12f8fe89d1d7bce1f5ea6e54b9", "is_reserved": 0, "lon": -77.0176225, "is_disabled": 0, "fusion_lat": 0.0, "lat": 38.921075, "bike_id": "e4c9cb12f8fe89d1d7bce1f5ea6e54b9", "fusion_lon": 0.0}, {"rental_uris": {"ios": "https://dc.lft.to/lastmile_qr_scan", "android": "https://dc.lft.to/lastmile_qr_scan"}, "type": "electric_bike", "name": "4e23b1fcf1af40274414087a9229f5e6", "is_reserved": 0, "lon": -77.00380783333334, "is_disabled": 0, "fusion_lat": 0.0, "lat": 38.836086333333334, "bike_id": "4e23b1fcf1af40274414087a9229f5e6", "fusion_lon": 0.0}, {"rental_uris": {"ios": "https://dc.lft.to/lastmile_qr_scan", "android": "https://dc.lft.to/lastmile_qr_scan"}, "type": "electric_scooter", "name": "2fcc2dc2d951f07624adf62eabb69eae", "is_reserved": 0, "lon": -77.01219033333334, "is_disabled": 0, "fusion_lat": 0.0, "lat": 38.920382333333336, "bike_id": "2fcc2dc2d951f07624adf62eabb69eae", "fusion_lon": 0.0}, {"rental_uris": {"ios": "https://dc.lft.to/lastmile_qr_scan", "android": "https://dc.lft.to/lastmile_qr_scan"}, "type": "electric_scooter", "name": "850f17b3875724e0621c13c9ae675ca4", "is_reserved": 0, "lon": -77.0092345, "is_disabled": 0, "fusion_lat": 0.0, "lat": 38.88201566666667, "bike_id": "850f17b3875724e0621c13c9ae675ca4", "fusion_lon": 0.0}, {"rental_uris": {"ios": "https://dc.lft.to/lastmile_qr_scan", "android": "https://dc.lft.to/lastmile_qr_scan"}, "type": "electric_scooter", "name": "b6182f724b6eea3316a129da888e33c7", "is_reserved": 0, "lon": -77.032665, "is_disabled": 0, "fusion_lat": 0.0, "lat": 38.91986416666667, "bike_id": "b6182f724b6eea3316a129da888e33c7", "fusion_lon": 0.0}, {"rental_uris": {"ios": "https://dc.lft.to/lastmile_qr_scan", "android": "https://dc.lft.to/lastmile_qr_scan"}, "type": "electric_scooter", "name": "0b0c2944817c1838e404d38659df30d9", "is_reserved": 0, "lon": -76.9803215, "is_disabled": 0, "fusion_lat": 0.0, "lat": 38.91677816666667, "bike_id": "0b0c2944817c1838e404d38659df30d9", "fusion_lon": 0.0}, {"rental_uris": {"ios": "https://dc.lft.to/lastmile_qr_scan", "android": "https://dc.lft.to/lastmile_qr_scan"}, "type": "electric_scooter", "name": "1a94540ea87ab6df83fb2dad7d440b97", "is_reserved": 0, "lon": -77.0486835, "is_disabled": 0, "fusion_lat": 0.0, "lat": 38.913404666666665, "bike_id": "1a94540ea87ab6df83fb2dad7d440b97", "fusion_lon": 0.0}, {"rental_uris": {"ios": "https://dc.lft.to/lastmile_qr_scan", "android": "https://dc.lft.to/lastmile_qr_scan"}, "type": "electric_scooter", "name": "8660a407c97c5f409d030563a000de03", "is_reserved": 0, "lon": -77.04610666666666, "is_disabled": 0, "fusion_lat": 0.0, "lat": 38.914918666666665, "bike_id": "8660a407c97c5f409d030563a000de03", "fusion_lon": 0.0}, {"rental_uris": {"ios": "https://dc.lft.to/lastmile_qr_scan", "android": "https://dc.lft.to/lastmile_qr_scan"}, "type": "electric_bike", "name": "60611615368fe7cf64f27e7937def7ca", "is_reserved": 0, "lon": -76.94162366666667, "is_disabled": 0, "fusion_lat": 0.0, "lat": 38.86551266666667, "bike_id": "60611615368fe7cf64f27e7937def7ca", "fusion_lon": 0.0}, {"rental_uris": {"ios": "https://dc.lft.to/lastmile_qr_scan", "android": "https://dc.lft.to/lastmile_qr_scan"}, "type": "electric_scooter", "name": "c5797995330d551913729a204764cc7a", "is_reserved": 0, "lon": -77.00316766666667, "is_disabled": 0, "fusion_lat": 0.0, "lat": 38.91899433333333, "bike_id": "c5797995330d551913729a204764cc7a", "fusion_lon": 0.0}, {"rental_uris": {"ios": "https://dc.lft.to/lastmile_qr_scan", "android": "https://dc.lft.to/lastmile_qr_scan"}, "type": "electric_scooter", "name": "6d870023522b42ab11039455d7461f76", "is_reserved": 0, "lon": -77.0271045, "is_disabled": 0, "fusion_lat": 0.0, "lat": 38.89734933333333, "bike_id": "6d870023522b42ab11039455d7461f76", "fusion_lon": 0.0}, {"rental_uris": {"ios": "https://dc.lft.to/lastmile_qr_scan", "android": "https://dc.lft.to/lastmile_qr_scan"}, "type": "electric_scooter", "name": "47f1ea68b748eb280496d6f9ab802a9f", "is_reserved": 0, "lon": -77.00200183333334, "is_disabled": 0, "fusion_lat": 0.0, "lat": 38.900471833333334, "bike_id": "47f1ea68b748eb280496d6f9ab802a9f", "fusion_lon": 0.0}, {"rental_uris": {"ios": "https://dc.lft.to/lastmile_qr_scan", "android": "https://dc.lft.to/lastmile_qr_scan"}, "type": "electric_scooter", "name": "c4d2e44b9d4eacfcdd48408916591f23", "is_reserved": 0, "lon": -77.04967816666667, "is_disabled": 0, "fusion_lat": 0.0, "lat": 38.913302333333334, "bike_id": "c4d2e44b9d4eacfcdd48408916591f23", "fusion_lon": 0.0}, {"rental_uris": {"ios": "https://dc.lft.to/lastmile_qr_scan", "android": "https://dc.lft.to/lastmile_qr_scan"}, "type": "electric_scooter", "name": "e03210cf0d4694736ed2019c3139b081", "is_reserved": 0, "lon": -77.03956066666667, "is_disabled": 0, "fusion_lat": 0.0, "lat": 38.892487833333334, "bike_id": "e03210cf0d4694736ed2019c3139b081", "fusion_lon": 0.0}, {"rental_uris": {"ios": "https://dc.lft.to/lastmile_qr_scan", "android": "https://dc.lft.to/lastmile_qr_scan"}, "type": "electric_scooter", "name": "b2cb6e40a084981b33a4fcfaa1b077b9", "is_reserved": 0, "lon": -77.04109933333334, "is_disabled": 0, "fusion_lat": 0.0, "lat": 38.934675, "bike_id": "b2cb6e40a084981b33a4fcfaa1b077b9", "fusion_lon": 0.0}, {"rental_uris": {"ios": "https://dc.lft.to/lastmile_qr_scan", "android": "https://dc.lft.to/lastmile_qr_scan"}, "type": "electric_scooter", "name": "9699b37212a84bb1880a31d3cc6911bd", "is_reserved": 0, "lon": -77.019871, "is_disabled": 0, "fusion_lat": 0.0, "lat": 38.900509666666665, "bike_id": "9699b37212a84bb1880a31d3cc6911bd", "fusion_lon": 0.0}, {"rental_uris": {"ios": "https://dc.lft.to/lastmile_qr_scan", "android": "https://dc.lft.to/lastmile_qr_scan"}, "type": "electric_scooter", "name": "ca1064f8e8f9c4a2d5a71aadae6ad09b", "is_reserved": 0, "lon": -77.01608983333334, "is_disabled": 0, "fusion_lat": 0.0, "lat": 38.89960583333333, "bike_id": "ca1064f8e8f9c4a2d5a71aadae6ad09b", "fusion_lon": 0.0}, {"rental_uris": {"ios": "https://dc.lft.to/lastmile_qr_scan", "android": "https://dc.lft.to/lastmile_qr_scan"}, "type": "electric_scooter", "name": "d10e4970dca9aca344b4ba41067370ba", "is_reserved": 0, "lon": -77.02330883333333, "is_disabled": 0, "fusion_lat": 0.0, "lat": 38.922924, "bike_id": "d10e4970dca9aca344b4ba41067370ba", "fusion_lon": 0.0}, {"rental_uris": {"ios": "https://dc.lft.to/lastmile_qr_scan", "android": "https://dc.lft.to/lastmile_qr_scan"}, "type": "electric_scooter", "name": "e9b8adca609bd8b0eba169f5aa77fc57", "is_reserved": 0, "lon": -77.03035666666666, "is_disabled": 0, "fusion_lat": 0.0, "lat": 38.8839365, "bike_id": "e9b8adca609bd8b0eba169f5aa77fc57", "fusion_lon": 0.0}, {"rental_uris": {"ios": "https://dc.lft.to/lastmile_qr_scan", "android": "https://dc.lft.to/lastmile_qr_scan"}, "type": "electric_scooter", "name": "518eecd0c3740d087b4aaeecc49ccb14", "is_reserved": 0, "lon": -76.98261666666667, "is_disabled": 0, "fusion_lat": 0.0, "lat": 38.866321, "bike_id": "518eecd0c3740d087b4aaeecc49ccb14", "fusion_lon": 0.0}, {"rental_uris": {"ios": "https://dc.lft.to/lastmile_qr_scan", "android": "https://dc.lft.to/lastmile_qr_scan"}, "type": "electric_scooter", "name": "09c175ca982f8f02e247312c7922113e", "is_reserved": 0, "lon": -77.0421525, "is_disabled": 0, "fusion_lat": 0.0, "lat": 38.921297, "bike_id": "09c175ca982f8f02e247312c7922113e", "fusion_lon": 0.0}, {"rental_uris": {"ios": "https://dc.lft.to/lastmile_qr_scan", "android": "https://dc.lft.to/lastmile_qr_scan"}, "type": "electric_bike", "name": "aae26ab3154cbb6dd2d1ffcabcbf62f1", "is_reserved": 0, "lon": -77.07948083333333, "is_disabled": 0, "fusion_lat": 0.0, "lat": 38.8489645, "bike_id": "aae26ab3154cbb6dd2d1ffcabcbf62f1", "fusion_lon": 0.0}, {"rental_uris": {"ios": "https://dc.lft.to/lastmile_qr_scan", "android": "https://dc.lft.to/lastmile_qr_scan"}, "type": "electric_scooter", "name": "f182d7ba2b2bfeea053d75a5a8c8b54b", "is_reserved": 0, "lon": -77.03665233333334, "is_disabled": 0, "fusion_lat": 0.0, "lat": 38.922839833333335, "bike_id": "f182d7ba2b2bfeea053d75a5a8c8b54b", "fusion_lon": 0.0}, {"rental_uris": {"ios": "https://dc.lft.to/lastmile_qr_scan", "android": "https://dc.lft.to/lastmile_qr_scan"}, "type": "electric_scooter", "name": "9e6eac536d9e41a68af2732ec7291c2e", "is_reserved": 0, "lon": -77.02043916666666, "is_disabled": 0, "fusion_lat": 0.0, "lat": 38.92245783333333, "bike_id": "9e6eac536d9e41a68af2732ec7291c2e", "fusion_lon": 0.0}, {"rental_uris": {"ios": "https://dc.lft.to/lastmile_qr_scan", "android": "https://dc.lft.to/lastmile_qr_scan"}, "type": "electric_bike", "name": "889dcd5de9a668e144dd3e4004dd31a1", "is_reserved": 0, "lon": -77.02010983333334, "is_disabled": 0, "fusion_lat": 0.0, "lat": 38.964433666666665, "bike_id": "889dcd5de9a668e144dd3e4004dd31a1", "fusion_lon": 0.0}, {"rental_uris": {"ios": "https://dc.lft.to/lastmile_qr_scan", "android": "https://dc.lft.to/lastmile_qr_scan"}, "type": "electric_scooter", "name": "b6cc30425ea7f1e48642f356b220f7bf", "is_reserved": 0, "lon": -77.034469, "is_disabled": 0, "fusion_lat": 0.0, "lat": 38.909774166666665, "bike_id": "b6cc30425ea7f1e48642f356b220f7bf", "fusion_lon": 0.0}, {"rental_uris": {"ios": "https://dc.lft.to/lastmile_qr_scan", "android": "https://dc.lft.to/lastmile_qr_scan"}, "type": "electric_scooter", "name": "431c15be991091ca7940d7f5c203ef70", "is_reserved": 0, "lon": -77.01966883333333, "is_disabled": 0, "fusion_lat": 0.0, "lat": 38.899445666666665, "bike_id": "431c15be991091ca7940d7f5c203ef70", "fusion_lon": 0.0}, {"rental_uris": {"ios": "https://dc.lft.to/lastmile_qr_scan", "android": "https://dc.lft.to/lastmile_qr_scan"}, "type": "electric_scooter", "name": "1ff10ea23f653b7003866dc565fde363", "is_reserved": 0, "lon": -77.0010435, "is_disabled": 0, "fusion_lat": 0.0, "lat": 38.881265, "bike_id": "1ff10ea23f653b7003866dc565fde363", "fusion_lon": 0.0}, {"rental_uris": {"ios": "https://dc.lft.to/lastmile_qr_scan", "android": "https://dc.lft.to/lastmile_qr_scan"}, "type": "electric_scooter", "name": "2528202de00b422de7620ef687203975", "is_reserved": 0, "lon": -77.01854266666666, "is_disabled": 0, "fusion_lat": 0.0, "lat": 38.948903666666666, "bike_id": "2528202de00b422de7620ef687203975", "fusion_lon": 0.0}, {"rental_uris": {"ios": "https://dc.lft.to/lastmile_qr_scan", "android": "https://dc.lft.to/lastmile_qr_scan"}, "type": "electric_scooter", "name": "f23d522bd187775096ff18a764b94e45", "is_reserved": 0, "lon": -76.99507916666667, "is_disabled": 0, "fusion_lat": 0.0, "lat": 38.903316333333336, "bike_id": "f23d522bd187775096ff18a764b94e45", "fusion_lon": 0.0}, {"rental_uris": {"ios": "https://dc.lft.to/lastmile_qr_scan", "android": "https://dc.lft.to/lastmile_qr_scan"}, "type": "electric_scooter", "name": "15e30a137ec073ad804b23fb4909867a", "is_reserved": 0, "lon": -77.045001, "is_disabled": 0, "fusion_lat": 0.0, "lat": 38.91412866666667, "bike_id": "15e30a137ec073ad804b23fb4909867a", "fusion_lon": 0.0}, {"rental_uris": {"ios": "https://dc.lft.to/lastmile_qr_scan", "android": "https://dc.lft.to/lastmile_qr_scan"}, "type": "electric_scooter", "name": "33b663d0885e91b802098c7f8b6dd660", "is_reserved": 0, "lon": -77.04151183333333, "is_disabled": 0, "fusion_lat": 0.0, "lat": 38.905709, "bike_id": "33b663d0885e91b802098c7f8b6dd660", "fusion_lon": 0.0}, {"rental_uris": {"ios": "https://dc.lft.to/lastmile_qr_scan", "android": "https://dc.lft.to/lastmile_qr_scan"}, "type": "electric_scooter", "name": "743cd34fb299cf126acfb49258ea98b6", "is_reserved": 0, "lon": -77.02550633333334, "is_disabled": 0, "fusion_lat": 0.0, "lat": 38.951679, "bike_id": "743cd34fb299cf126acfb49258ea98b6", "fusion_lon": 0.0}, {"rental_uris": {"ios": "https://dc.lft.to/lastmile_qr_scan", "android": "https://dc.lft.to/lastmile_qr_scan"}, "type": "electric_scooter", "name": "58586abbb8e69bfd96ae10c081571ece", "is_reserved": 0, "lon": -77.03466833333333, "is_disabled": 0, "fusion_lat": 0.0, "lat": 38.90728133333333, "bike_id": "58586abbb8e69bfd96ae10c081571ece", "fusion_lon": 0.0}, {"rental_uris": {"ios": "https://dc.lft.to/lastmile_qr_scan", "android": "https://dc.lft.to/lastmile_qr_scan"}, "type": "electric_scooter", "name": "5a01f529b5aa59713abd737eb3314dbf", "is_reserved": 0, "lon": -77.04869883333333, "is_disabled": 0, "fusion_lat": 0.0, "lat": 38.91023466666667, "bike_id": "5a01f529b5aa59713abd737eb3314dbf", "fusion_lon": 0.0}, {"rental_uris": {"ios": "https://dc.lft.to/lastmile_qr_scan", "android": "https://dc.lft.to/lastmile_qr_scan"}, "type": "electric_scooter", "name": "732b43f2a834750be2300eacf2b5e261", "is_reserved": 0, "lon": -77.0229685, "is_disabled": 0, "fusion_lat": 0.0, "lat": 38.916819333333336, "bike_id": "732b43f2a834750be2300eacf2b5e261", "fusion_lon": 0.0}, {"rental_uris": {"ios": "https://dc.lft.to/lastmile_qr_scan", "android": "https://dc.lft.to/lastmile_qr_scan"}, "type": "electric_scooter", "name": "d172f5f11d5ff5cb8084fb5bd1066612", "is_reserved": 0, "lon": -77.02220733333333, "is_disabled": 0, "fusion_lat": 0.0, "lat": 38.924776, "bike_id": "d172f5f11d5ff5cb8084fb5bd1066612", "fusion_lon": 0.0}, {"rental_uris": {"ios": "https://dc.lft.to/lastmile_qr_scan", "android": "https://dc.lft.to/lastmile_qr_scan"}, "type": "electric_scooter", "name": "a105435adaa19a8ef93119e0e8f85a0b", "is_reserved": 0, "lon": -77.04052916666667, "is_disabled": 0, "fusion_lat": 0.0, "lat": 38.930151, "bike_id": "a105435adaa19a8ef93119e0e8f85a0b", "fusion_lon": 0.0}, {"rental_uris": {"ios": "https://dc.lft.to/lastmile_qr_scan", "android": "https://dc.lft.to/lastmile_qr_scan"}, "type": "electric_scooter", "name": "a2bb3e0df26897f7940b68d016b6372e", "is_reserved": 0, "lon": -77.0274655, "is_disabled": 0, "fusion_lat": 0.0, "lat": 38.9660925, "bike_id": "a2bb3e0df26897f7940b68d016b6372e", "fusion_lon": 0.0}, {"rental_uris": {"ios": "https://dc.lft.to/lastmile_qr_scan", "android": "https://dc.lft.to/lastmile_qr_scan"}, "type": "electric_scooter", "name": "f8bb46a2d9c59c75095512ba4acd9687", "is_reserved": 0, "lon": -77.07523816666667, "is_disabled": 0, "fusion_lat": 0.0, "lat": 38.939527, "bike_id": "f8bb46a2d9c59c75095512ba4acd9687", "fusion_lon": 0.0}, {"rental_uris": {"ios": "https://dc.lft.to/lastmile_qr_scan", "android": "https://dc.lft.to/lastmile_qr_scan"}, "type": "electric_scooter", "name": "f37e3a4d31984532c1e1fd67d446b9c0", "is_reserved": 0, "lon": -77.0280025, "is_disabled": 0, "fusion_lat": 0.0, "lat": 38.9231915, "bike_id": "f37e3a4d31984532c1e1fd67d446b9c0", "fusion_lon": 0.0}, {"rental_uris": {"ios": "https://dc.lft.to/lastmile_qr_scan", "android": "https://dc.lft.to/lastmile_qr_scan"}, "type": "electric_scooter", "name": "56c1be3002734d765f46a8f8d87863c4", "is_reserved": 0, "lon": -77.03621, "is_disabled": 0, "fusion_lat": 0.0, "lat": 38.928527833333334, "bike_id": "56c1be3002734d765f46a8f8d87863c4", "fusion_lon": 0.0}, {"rental_uris": {"ios": "https://dc.lft.to/lastmile_qr_scan", "android": "https://dc.lft.to/lastmile_qr_scan"}, "type": "electric_scooter", "name": "a7caf91444be82e905b37d73f4baed86", "is_reserved": 0, "lon": -77.04550016666667, "is_disabled": 0, "fusion_lat": 0.0, "lat": 38.899911333333336, "bike_id": "a7caf91444be82e905b37d73f4baed86", "fusion_lon": 0.0}, {"rental_uris": {"ios": "https://dc.lft.to/lastmile_qr_scan", "android": "https://dc.lft.to/lastmile_qr_scan"}, "type": "electric_scooter", "name": "16c30c894f3f75e270eb3698a0d859b2", "is_reserved": 0, "lon": -77.00583266666666, "is_disabled": 0, "fusion_lat": 0.0, "lat": 38.87554733333333, "bike_id": "16c30c894f3f75e270eb3698a0d859b2", "fusion_lon": 0.0}, {"rental_uris": {"ios": "https://dc.lft.to/lastmile_qr_scan", "android": "https://dc.lft.to/lastmile_qr_scan"}, "type": "electric_scooter", "name": "be71c621e9b2d967e3a82282750e0c12", "is_reserved": 0, "lon": -76.99529433333333, "is_disabled": 0, "fusion_lat": 0.0, "lat": 38.862700333333336, "bike_id": "be71c621e9b2d967e3a82282750e0c12", "fusion_lon": 0.0}, {"rental_uris": {"ios": "https://dc.lft.to/lastmile_qr_scan", "android": "https://dc.lft.to/lastmile_qr_scan"}, "type": "electric_scooter", "name": "68ca9d7e173b7f06b2d0099ab77b9f55", "is_reserved": 0, "lon": -77.03476616666667, "is_disabled": 0, "fusion_lat": 0.0, "lat": 38.90729266666666, "bike_id": "68ca9d7e173b7f06b2d0099ab77b9f55", "fusion_lon": 0.0}, {"rental_uris": {"ios": "https://dc.lft.to/lastmile_qr_scan", "android": "https://dc.lft.to/lastmile_qr_scan"}, "type": "electric_scooter", "name": "62f4f2a3fea6ae488c8f24cb43809bd8", "is_reserved": 0, "lon": -76.985169, "is_disabled": 0, "fusion_lat": 0.0, "lat": 38.86006066666667, "bike_id": "62f4f2a3fea6ae488c8f24cb43809bd8", "fusion_lon": 0.0}, {"rental_uris": {"ios": "https://dc.lft.to/lastmile_qr_scan", "android": "https://dc.lft.to/lastmile_qr_scan"}, "type": "electric_scooter", "name": "9517ac8999bbd3e4d8cdd86d9b81fb3e", "is_reserved": 0, "lon": -77.01060066666666, "is_disabled": 0, "fusion_lat": 0.0, "lat": 38.916450833333336, "bike_id": "9517ac8999bbd3e4d8cdd86d9b81fb3e", "fusion_lon": 0.0}, {"rental_uris": {"ios": "https://dc.lft.to/lastmile_qr_scan", "android": "https://dc.lft.to/lastmile_qr_scan"}, "type": "electric_scooter", "name": "46f88227bc6951b9d39a572931da53f5", "is_reserved": 0, "lon": -77.0467885, "is_disabled": 0, "fusion_lat": 0.0, "lat": 38.9028955, "bike_id": "46f88227bc6951b9d39a572931da53f5", "fusion_lon": 0.0}, {"rental_uris": {"ios": "https://dc.lft.to/lastmile_qr_scan", "android": "https://dc.lft.to/lastmile_qr_scan"}, "type": "electric_scooter", "name": "702273f2362093ccb943bb4eca5c004a", "is_reserved": 0, "lon": -77.00614783333333, "is_disabled": 0, "fusion_lat": 0.0, "lat": 38.9055555, "bike_id": "702273f2362093ccb943bb4eca5c004a", "fusion_lon": 0.0}, {"rental_uris": {"ios": "https://dc.lft.to/lastmile_qr_scan", "android": "https://dc.lft.to/lastmile_qr_scan"}, "type": "electric_bike", "name": "bf6d6f5052b9c3887b4b381daf563237", "is_reserved": 0, "lon": -77.012261, "is_disabled": 0, "fusion_lat": 0.0, "lat": 38.950873666666666, "bike_id": "bf6d6f5052b9c3887b4b381daf563237", "fusion_lon": 0.0}, {"rental_uris": {"ios": "https://dc.lft.to/lastmile_qr_scan", "android": "https://dc.lft.to/lastmile_qr_scan"}, "type": "electric_bike", "name": "51308bbb0faa62c58ca6959e12561bca", "is_reserved": 0, "lon": -77.1272975, "is_disabled": 0, "fusion_lat": 0.0, "lat": 38.8956195, "bike_id": "51308bbb0faa62c58ca6959e12561bca", "fusion_lon": 0.0}, {"rental_uris": {"ios": "https://dc.lft.to/lastmile_qr_scan", "android": "https://dc.lft.to/lastmile_qr_scan"}, "type": "electric_scooter", "name": "e129637bf36c3337bf4256c26cafdbc3", "is_reserved": 0, "lon": -77.03714266666667, "is_disabled": 0, "fusion_lat": 0.0, "lat": 38.926615, "bike_id": "e129637bf36c3337bf4256c26cafdbc3", "fusion_lon": 0.0}, {"rental_uris": {"ios": "https://dc.lft.to/lastmile_qr_scan", "android": "https://dc.lft.to/lastmile_qr_scan"}, "type": "electric_scooter", "name": "ea57eded4c29b0a229d742c76d9d84cc", "is_reserved": 0, "lon": -76.93472433333334, "is_disabled": 0, "fusion_lat": 0.0, "lat": 38.895010666666664, "bike_id": "ea57eded4c29b0a229d742c76d9d84cc", "fusion_lon": 0.0}, {"rental_uris": {"ios": "https://dc.lft.to/lastmile_qr_scan", "android": "https://dc.lft.to/lastmile_qr_scan"}, "type": "electric_scooter", "name": "79820421fae968608f7af04ad16d826f", "is_reserved": 0, "lon": -77.04336833333333, "is_disabled": 0, "fusion_lat": 0.0, "lat": 38.907293333333335, "bike_id": "79820421fae968608f7af04ad16d826f", "fusion_lon": 0.0}, {"rental_uris": {"ios": "https://dc.lft.to/lastmile_qr_scan", "android": "https://dc.lft.to/lastmile_qr_scan"}, "type": "electric_scooter", "name": "30334028f6e61eafa61b9dc304184cae", "is_reserved": 0, "lon": -77.03655933333333, "is_disabled": 0, "fusion_lat": 0.0, "lat": 38.9395265, "bike_id": "30334028f6e61eafa61b9dc304184cae", "fusion_lon": 0.0}, {"rental_uris": {"ios": "https://dc.lft.to/lastmile_qr_scan", "android": "https://dc.lft.to/lastmile_qr_scan"}, "type": "electric_scooter", "name": "e69881aff7610dad4788ba3eed01c7b7", "is_reserved": 0, "lon": -77.03486616666666, "is_disabled": 0, "fusion_lat": 0.0, "lat": 38.93555633333333, "bike_id": "e69881aff7610dad4788ba3eed01c7b7", "fusion_lon": 0.0}, {"rental_uris": {"ios": "https://dc.lft.to/lastmile_qr_scan", "android": "https://dc.lft.to/lastmile_qr_scan"}, "type": "electric_scooter", "name": "8c7f0aad8c975e237b7947482fb74a2c", "is_reserved": 0, "lon": -77.03241033333333, "is_disabled": 0, "fusion_lat": 0.0, "lat": 38.905464, "bike_id": "8c7f0aad8c975e237b7947482fb74a2c", "fusion_lon": 0.0}, {"rental_uris": {"ios": "https://dc.lft.to/lastmile_qr_scan", "android": "https://dc.lft.to/lastmile_qr_scan"}, "type": "electric_bike", "name": "30e6c962434210a5bffa4c5e778b8623", "is_reserved": 0, "lon": -77.03656783333334, "is_disabled": 0, "fusion_lat": 0.0, "lat": 38.93634566666667, "bike_id": "30e6c962434210a5bffa4c5e778b8623", "fusion_lon": 0.0}, {"rental_uris": {"ios": "https://dc.lft.to/lastmile_qr_scan", "android": "https://dc.lft.to/lastmile_qr_scan"}, "type": "electric_scooter", "name": "3e2a09b01ea02047ea136d44c7c99a08", "is_reserved": 0, "lon": -77.0583835, "is_disabled": 0, "fusion_lat": 0.0, "lat": 38.93057666666667, "bike_id": "3e2a09b01ea02047ea136d44c7c99a08", "fusion_lon": 0.0}, {"rental_uris": {"ios": "https://dc.lft.to/lastmile_qr_scan", "android": "https://dc.lft.to/lastmile_qr_scan"}, "type": "electric_bike", "name": "0a411aa68598290ce835b03e969fda07", "is_reserved": 0, "lon": -76.979589, "is_disabled": 0, "fusion_lat": 0.0, "lat": 38.9203725, "bike_id": "0a411aa68598290ce835b03e969fda07", "fusion_lon": 0.0}, {"rental_uris": {"ios": "https://dc.lft.to/lastmile_qr_scan", "android": "https://dc.lft.to/lastmile_qr_scan"}, "type": "electric_scooter", "name": "a0c58346569ac5e23208b2455ace453c", "is_reserved": 0, "lon": -77.0352035, "is_disabled": 0, "fusion_lat": 0.0, "lat": 38.92260516666666, "bike_id": "a0c58346569ac5e23208b2455ace453c", "fusion_lon": 0.0}, {"rental_uris": {"ios": "https://dc.lft.to/lastmile_qr_scan", "android": "https://dc.lft.to/lastmile_qr_scan"}, "type": "electric_scooter", "name": "0104c610c2f7662287502c848a781f78", "is_reserved": 0, "lon": -77.02447716666667, "is_disabled": 0, "fusion_lat": 0.0, "lat": 38.8972535, "bike_id": "0104c610c2f7662287502c848a781f78", "fusion_lon": 0.0}, {"rental_uris": {"ios": "https://dc.lft.to/lastmile_qr_scan", "android": "https://dc.lft.to/lastmile_qr_scan"}, "type": "electric_scooter", "name": "c6b6f30f93c51ead0880f6de1cdb3947", "is_reserved": 0, "lon": -77.04902066666666, "is_disabled": 0, "fusion_lat": 0.0, "lat": 38.90381583333333, "bike_id": "c6b6f30f93c51ead0880f6de1cdb3947", "fusion_lon": 0.0}, {"rental_uris": {"ios": "https://dc.lft.to/lastmile_qr_scan", "android": "https://dc.lft.to/lastmile_qr_scan"}, "type": "electric_scooter", "name": "23c2bcc54341d9f9008345bdb39cd414", "is_reserved": 0, "lon": -77.01202366666666, "is_disabled": 0, "fusion_lat": 0.0, "lat": 38.8717355, "bike_id": "23c2bcc54341d9f9008345bdb39cd414", "fusion_lon": 0.0}, {"rental_uris": {"ios": "https://dc.lft.to/lastmile_qr_scan", "android": "https://dc.lft.to/lastmile_qr_scan"}, "type": "electric_scooter", "name": "c6c5bcfb1a13758b6c7ff919ba8c78c6", "is_reserved": 0, "lon": -77.006909, "is_disabled": 0, "fusion_lat": 0.0, "lat": 38.90570733333333, "bike_id": "c6c5bcfb1a13758b6c7ff919ba8c78c6", "fusion_lon": 0.0}, {"rental_uris": {"ios": "https://dc.lft.to/lastmile_qr_scan", "android": "https://dc.lft.to/lastmile_qr_scan"}, "type": "electric_scooter", "name": "b19db4238bf08854f161e46db19ae642", "is_reserved": 0, "lon": -77.04561, "is_disabled": 0, "fusion_lat": 0.0, "lat": 38.9182945, "bike_id": "b19db4238bf08854f161e46db19ae642", "fusion_lon": 0.0}, {"rental_uris": {"ios": "https://dc.lft.to/lastmile_qr_scan", "android": "https://dc.lft.to/lastmile_qr_scan"}, "type": "electric_scooter", "name": "2c8fb38ec347637c0f39d3183d2713f4", "is_reserved": 0, "lon": -77.04671033333334, "is_disabled": 0, "fusion_lat": 0.0, "lat": 38.896301, "bike_id": "2c8fb38ec347637c0f39d3183d2713f4", "fusion_lon": 0.0}, {"rental_uris": {"ios": "https://dc.lft.to/lastmile_qr_scan", "android": "https://dc.lft.to/lastmile_qr_scan"}, "type": "electric_bike", "name": "b6116c55f7148b5c7b7357ffd43f6eb5", "is_reserved": 0, "lon": -77.06946883333333, "is_disabled": 0, "fusion_lat": 0.0, "lat": 38.8362895, "bike_id": "b6116c55f7148b5c7b7357ffd43f6eb5", "fusion_lon": 0.0}, {"rental_uris": {"ios": "https://dc.lft.to/lastmile_qr_scan", "android": "https://dc.lft.to/lastmile_qr_scan"}, "type": "electric_scooter", "name": "6d60d4e27a593f6984d8a47a704adcfc", "is_reserved": 0, "lon": -77.03249616666666, "is_disabled": 0, "fusion_lat": 0.0, "lat": 38.917157, "bike_id": "6d60d4e27a593f6984d8a47a704adcfc", "fusion_lon": 0.0}, {"rental_uris": {"ios": "https://dc.lft.to/lastmile_qr_scan", "android": "https://dc.lft.to/lastmile_qr_scan"}, "type": "electric_scooter", "name": "6c1f61964a2b39a3e8628275655ab414", "is_reserved": 0, "lon": -77.02417716666666, "is_disabled": 0, "fusion_lat": 0.0, "lat": 38.929993, "bike_id": "6c1f61964a2b39a3e8628275655ab414", "fusion_lon": 0.0}, {"rental_uris": {"ios": "https://dc.lft.to/lastmile_qr_scan", "android": "https://dc.lft.to/lastmile_qr_scan"}, "type": "electric_scooter", "name": "4bc2ef90388f0829ee185ae21b1a301f", "is_reserved": 0, "lon": -77.048247, "is_disabled": 0, "fusion_lat": 0.0, "lat": 38.914904, "bike_id": "4bc2ef90388f0829ee185ae21b1a301f", "fusion_lon": 0.0}, {"rental_uris": {"ios": "https://dc.lft.to/lastmile_qr_scan", "android": "https://dc.lft.to/lastmile_qr_scan"}, "type": "electric_scooter", "name": "746acd6f77953e64d768afbbc5f6270c", "is_reserved": 0, "lon": -77.00739483333334, "is_disabled": 0, "fusion_lat": 0.0, "lat": 38.876968833333336, "bike_id": "746acd6f77953e64d768afbbc5f6270c", "fusion_lon": 0.0}, {"rental_uris": {"ios": "https://dc.lft.to/lastmile_qr_scan", "android": "https://dc.lft.to/lastmile_qr_scan"}, "type": "electric_bike", "name": "e19d93aec9266ecb8e851f726637e040", "is_reserved": 0, "lon": -76.99356016666667, "is_disabled": 0, "fusion_lat": 0.0, "lat": 38.84503616666667, "bike_id": "e19d93aec9266ecb8e851f726637e040", "fusion_lon": 0.0}, {"rental_uris": {"ios": "https://dc.lft.to/lastmile_qr_scan", "android": "https://dc.lft.to/lastmile_qr_scan"}, "type": "electric_scooter", "name": "f71d6b856694320c17a65fa6c0604eba", "is_reserved": 0, "lon": -76.99179083333334, "is_disabled": 0, "fusion_lat": 0.0, "lat": 38.90507, "bike_id": "f71d6b856694320c17a65fa6c0604eba", "fusion_lon": 0.0}, {"rental_uris": {"ios": "https://dc.lft.to/lastmile_qr_scan", "android": "https://dc.lft.to/lastmile_qr_scan"}, "type": "electric_scooter", "name": "8f5bcd6e7ba299ba1764efea53722202", "is_reserved": 0, "lon": -77.046579, "is_disabled": 0, "fusion_lat": 0.0, "lat": 38.9054495, "bike_id": "8f5bcd6e7ba299ba1764efea53722202", "fusion_lon": 0.0}, {"rental_uris": {"ios": "https://dc.lft.to/lastmile_qr_scan", "android": "https://dc.lft.to/lastmile_qr_scan"}, "type": "electric_scooter", "name": "d940b900583971096cb8965265f063fb", "is_reserved": 0, "lon": -76.995901, "is_disabled": 0, "fusion_lat": 0.0, "lat": 38.909429833333334, "bike_id": "d940b900583971096cb8965265f063fb", "fusion_lon": 0.0}, {"rental_uris": {"ios": "https://dc.lft.to/lastmile_qr_scan", "android": "https://dc.lft.to/lastmile_qr_scan"}, "type": "electric_scooter", "name": "de4e4631b8abe8e2283e6ba3272e6ed9", "is_reserved": 0, "lon": -76.97327816666666, "is_disabled": 0, "fusion_lat": 0.0, "lat": 38.904119666666666, "bike_id": "de4e4631b8abe8e2283e6ba3272e6ed9", "fusion_lon": 0.0}, {"rental_uris": {"ios": "https://dc.lft.to/lastmile_qr_scan", "android": "https://dc.lft.to/lastmile_qr_scan"}, "type": "electric_scooter", "name": "3f51f5edb68b67e043470c9eb139fb91", "is_reserved": 0, "lon": -77.0396525, "is_disabled": 0, "fusion_lat": 0.0, "lat": 38.93155, "bike_id": "3f51f5edb68b67e043470c9eb139fb91", "fusion_lon": 0.0}, {"rental_uris": {"ios": "https://dc.lft.to/lastmile_qr_scan", "android": "https://dc.lft.to/lastmile_qr_scan"}, "type": "electric_scooter", "name": "5d807c73ef69b6de6843ec01c851fdc4", "is_reserved": 0, "lon": -77.0107785, "is_disabled": 0, "fusion_lat": 0.0, "lat": 38.911911833333335, "bike_id": "5d807c73ef69b6de6843ec01c851fdc4", "fusion_lon": 0.0}, {"rental_uris": {"ios": "https://dc.lft.to/lastmile_qr_scan", "android": "https://dc.lft.to/lastmile_qr_scan"}, "type": "electric_scooter", "name": "23caa624a5e9eccfd6425610056b7cd2", "is_reserved": 0, "lon": -77.03073933333333, "is_disabled": 0, "fusion_lat": 0.0, "lat": 38.931668, "bike_id": "23caa624a5e9eccfd6425610056b7cd2", "fusion_lon": 0.0}, {"rental_uris": {"ios": "https://dc.lft.to/lastmile_qr_scan", "android": "https://dc.lft.to/lastmile_qr_scan"}, "type": "electric_scooter", "name": "6b45b14b659e38d31736438f02d5568d", "is_reserved": 0, "lon": -77.04384433333334, "is_disabled": 0, "fusion_lat": 0.0, "lat": 38.916609, "bike_id": "6b45b14b659e38d31736438f02d5568d", "fusion_lon": 0.0}, {"rental_uris": {"ios": "https://dc.lft.to/lastmile_qr_scan", "android": "https://dc.lft.to/lastmile_qr_scan"}, "type": "electric_scooter", "name": "ec2484504dbb1480c086c341d43c4718", "is_reserved": 0, "lon": -77.03472416666666, "is_disabled": 0, "fusion_lat": 0.0, "lat": 38.917134, "bike_id": "ec2484504dbb1480c086c341d43c4718", "fusion_lon": 0.0}, {"rental_uris": {"ios": "https://dc.lft.to/lastmile_qr_scan", "android": "https://dc.lft.to/lastmile_qr_scan"}, "type": "electric_scooter", "name": "3c357e8ac2eb932b7cc1acfb0c81bd5b", "is_reserved": 0, "lon": -76.97799583333334, "is_disabled": 0, "fusion_lat": 0.0, "lat": 38.90310083333333, "bike_id": "3c357e8ac2eb932b7cc1acfb0c81bd5b", "fusion_lon": 0.0}, {"rental_uris": {"ios": "https://dc.lft.to/lastmile_qr_scan", "android": "https://dc.lft.to/lastmile_qr_scan"}, "type": "electric_scooter", "name": "42aecef06e4bbd198e1b2c8ba51f151d", "is_reserved": 0, "lon": -77.02770533333333, "is_disabled": 0, "fusion_lat": 0.0, "lat": 38.92388866666667, "bike_id": "42aecef06e4bbd198e1b2c8ba51f151d", "fusion_lon": 0.0}, {"rental_uris": {"ios": "https://dc.lft.to/lastmile_qr_scan", "android": "https://dc.lft.to/lastmile_qr_scan"}, "type": "electric_scooter", "name": "20984fc673905df4f42fcf8053c8f478", "is_reserved": 0, "lon": -77.01213416666667, "is_disabled": 0, "fusion_lat": 0.0, "lat": 38.9168985, "bike_id": "20984fc673905df4f42fcf8053c8f478", "fusion_lon": 0.0}, {"rental_uris": {"ios": "https://dc.lft.to/lastmile_qr_scan", "android": "https://dc.lft.to/lastmile_qr_scan"}, "type": "electric_scooter", "name": "860fbb0f6a483cc4f394a4ecc8899b14", "is_reserved": 0, "lon": -77.03333716666667, "is_disabled": 0, "fusion_lat": 0.0, "lat": 38.896359, "bike_id": "860fbb0f6a483cc4f394a4ecc8899b14", "fusion_lon": 0.0}, {"rental_uris": {"ios": "https://dc.lft.to/lastmile_qr_scan", "android": "https://dc.lft.to/lastmile_qr_scan"}, "type": "electric_scooter", "name": "6715f29a7f0e2d0fa3d69e3b3e1a1c6f", "is_reserved": 0, "lon": -76.9698135, "is_disabled": 0, "fusion_lat": 0.0, "lat": 38.87404566666667, "bike_id": "6715f29a7f0e2d0fa3d69e3b3e1a1c6f", "fusion_lon": 0.0}, {"rental_uris": {"ios": "https://dc.lft.to/lastmile_qr_scan", "android": "https://dc.lft.to/lastmile_qr_scan"}, "type": "electric_scooter", "name": "4d250e98f20edfa7effe03535e57f60c", "is_reserved": 0, "lon": -77.02230083333333, "is_disabled": 0, "fusion_lat": 0.0, "lat": 38.892218166666666, "bike_id": "4d250e98f20edfa7effe03535e57f60c", "fusion_lon": 0.0}, {"rental_uris": {"ios": "https://dc.lft.to/lastmile_qr_scan", "android": "https://dc.lft.to/lastmile_qr_scan"}, "type": "electric_scooter", "name": "85c7adb5f58fea43e9a98d2e00d797d1", "is_reserved": 0, "lon": -77.02986333333334, "is_disabled": 0, "fusion_lat": 0.0, "lat": 38.92373466666667, "bike_id": "85c7adb5f58fea43e9a98d2e00d797d1", "fusion_lon": 0.0}, {"rental_uris": {"ios": "https://dc.lft.to/lastmile_qr_scan", "android": "https://dc.lft.to/lastmile_qr_scan"}, "type": "electric_scooter", "name": "e54a6700a0486fdca2d1b6932fd5d88d", "is_reserved": 0, "lon": -76.96155283333333, "is_disabled": 0, "fusion_lat": 0.0, "lat": 38.8836115, "bike_id": "e54a6700a0486fdca2d1b6932fd5d88d", "fusion_lon": 0.0}, {"rental_uris": {"ios": "https://dc.lft.to/lastmile_qr_scan", "android": "https://dc.lft.to/lastmile_qr_scan"}, "type": "electric_scooter", "name": "6627bce3d792db3595b42b5f0ecda6e9", "is_reserved": 0, "lon": -76.96564366666667, "is_disabled": 0, "fusion_lat": 0.0, "lat": 38.87610466666667, "bike_id": "6627bce3d792db3595b42b5f0ecda6e9", "fusion_lon": 0.0}, {"rental_uris": {"ios": "https://dc.lft.to/lastmile_qr_scan", "android": "https://dc.lft.to/lastmile_qr_scan"}, "type": "electric_scooter", "name": "d03f2d2ef6ab90e4ed34623612750631", "is_reserved": 0, "lon": -77.0440845, "is_disabled": 0, "fusion_lat": 0.0, "lat": 38.92953333333333, "bike_id": "d03f2d2ef6ab90e4ed34623612750631", "fusion_lon": 0.0}, {"rental_uris": {"ios": "https://dc.lft.to/lastmile_qr_scan", "android": "https://dc.lft.to/lastmile_qr_scan"}, "type": "electric_scooter", "name": "eed070fcb20808aadfb16e017a904e78", "is_reserved": 0, "lon": -77.036587, "is_disabled": 0, "fusion_lat": 0.0, "lat": 38.922898333333336, "bike_id": "eed070fcb20808aadfb16e017a904e78", "fusion_lon": 0.0}, {"rental_uris": {"ios": "https://dc.lft.to/lastmile_qr_scan", "android": "https://dc.lft.to/lastmile_qr_scan"}, "type": "electric_scooter", "name": "7c1581a24c030b33dbfc299c9c60cb2f", "is_reserved": 0, "lon": -76.9438405, "is_disabled": 0, "fusion_lat": 0.0, "lat": 38.89115983333333, "bike_id": "7c1581a24c030b33dbfc299c9c60cb2f", "fusion_lon": 0.0}, {"rental_uris": {"ios": "https://dc.lft.to/lastmile_qr_scan", "android": "https://dc.lft.to/lastmile_qr_scan"}, "type": "electric_scooter", "name": "068bd7b754a54d40cc381260d1f4358f", "is_reserved": 0, "lon": -77.01459566666666, "is_disabled": 0, "fusion_lat": 0.0, "lat": 38.90302916666667, "bike_id": "068bd7b754a54d40cc381260d1f4358f", "fusion_lon": 0.0}, {"rental_uris": {"ios": "https://dc.lft.to/lastmile_qr_scan", "android": "https://dc.lft.to/lastmile_qr_scan"}, "type": "electric_bike", "name": "7188d7e921fd075d236e82bd97bbc560", "is_reserved": 0, "lon": -77.07014216666667, "is_disabled": 0, "fusion_lat": 0.0, "lat": 38.841142166666664, "bike_id": "7188d7e921fd075d236e82bd97bbc560", "fusion_lon": 0.0}, {"rental_uris": {"ios": "https://dc.lft.to/lastmile_qr_scan", "android": "https://dc.lft.to/lastmile_qr_scan"}, "type": "electric_scooter", "name": "63071f27833ae3a6f65fca6b8cb5428b", "is_reserved": 0, "lon": -77.03813433333333, "is_disabled": 0, "fusion_lat": 0.0, "lat": 38.9155905, "bike_id": "63071f27833ae3a6f65fca6b8cb5428b", "fusion_lon": 0.0}, {"rental_uris": {"ios": "https://dc.lft.to/lastmile_qr_scan", "android": "https://dc.lft.to/lastmile_qr_scan"}, "type": "electric_scooter", "name": "08eff0b2d9a83d53c1803da049224c21", "is_reserved": 0, "lon": -77.071043, "is_disabled": 0, "fusion_lat": 0.0, "lat": 38.89728683333333, "bike_id": "08eff0b2d9a83d53c1803da049224c21", "fusion_lon": 0.0}, {"rental_uris": {"ios": "https://dc.lft.to/lastmile_qr_scan", "android": "https://dc.lft.to/lastmile_qr_scan"}, "type": "electric_scooter", "name": "0e573d35a8bbf6a8e7f923376a434546", "is_reserved": 0, "lon": -77.02411316666667, "is_disabled": 0, "fusion_lat": 0.0, "lat": 38.90959516666667, "bike_id": "0e573d35a8bbf6a8e7f923376a434546", "fusion_lon": 0.0}, {"rental_uris": {"ios": "https://dc.lft.to/lastmile_qr_scan", "android": "https://dc.lft.to/lastmile_qr_scan"}, "type": "electric_scooter", "name": "7a24d1b7a2af2591fbfea9be7dec7bb9", "is_reserved": 0, "lon": -77.01745566666666, "is_disabled": 0, "fusion_lat": 0.0, "lat": 38.902779833333334, "bike_id": "7a24d1b7a2af2591fbfea9be7dec7bb9", "fusion_lon": 0.0}, {"rental_uris": {"ios": "https://dc.lft.to/lastmile_qr_scan", "android": "https://dc.lft.to/lastmile_qr_scan"}, "type": "electric_scooter", "name": "032f8af2c052f888a54e5da4f52743f4", "is_reserved": 0, "lon": -77.00584066666667, "is_disabled": 0, "fusion_lat": 0.0, "lat": 38.879491333333334, "bike_id": "032f8af2c052f888a54e5da4f52743f4", "fusion_lon": 0.0}, {"rental_uris": {"ios": "https://dc.lft.to/lastmile_qr_scan", "android": "https://dc.lft.to/lastmile_qr_scan"}, "type": "electric_scooter", "name": "8161b98a889149d34b88bd4515cfc204", "is_reserved": 0, "lon": -77.044556, "is_disabled": 0, "fusion_lat": 0.0, "lat": 38.918953333333334, "bike_id": "8161b98a889149d34b88bd4515cfc204", "fusion_lon": 0.0}, {"rental_uris": {"ios": "https://dc.lft.to/lastmile_qr_scan", "android": "https://dc.lft.to/lastmile_qr_scan"}, "type": "electric_bike", "name": "e8cacff2ee612652288b6f3c2900fc3f", "is_reserved": 0, "lon": -77.0206565, "is_disabled": 0, "fusion_lat": 0.0, "lat": 38.92835933333333, "bike_id": "e8cacff2ee612652288b6f3c2900fc3f", "fusion_lon": 0.0}, {"rental_uris": {"ios": "https://dc.lft.to/lastmile_qr_scan", "android": "https://dc.lft.to/lastmile_qr_scan"}, "type": "electric_scooter", "name": "76d7f50f67b683ab29bfb3dd76cbeceb", "is_reserved": 0, "lon": -77.03265216666667, "is_disabled": 0, "fusion_lat": 0.0, "lat": 38.932380333333334, "bike_id": "76d7f50f67b683ab29bfb3dd76cbeceb", "fusion_lon": 0.0}, {"rental_uris": {"ios": "https://dc.lft.to/lastmile_qr_scan", "android": "https://dc.lft.to/lastmile_qr_scan"}, "type": "electric_scooter", "name": "0a963cc14c3f726c9dfb4b1050c67c72", "is_reserved": 0, "lon": -77.03254683333333, "is_disabled": 0, "fusion_lat": 0.0, "lat": 38.919906, "bike_id": "0a963cc14c3f726c9dfb4b1050c67c72", "fusion_lon": 0.0}, {"rental_uris": {"ios": "https://dc.lft.to/lastmile_qr_scan", "android": "https://dc.lft.to/lastmile_qr_scan"}, "type": "electric_scooter", "name": "51ac8b6434f81a11f938f8e157f9d10b", "is_reserved": 0, "lon": -76.9407265, "is_disabled": 0, "fusion_lat": 0.0, "lat": 38.88583233333333, "bike_id": "51ac8b6434f81a11f938f8e157f9d10b", "fusion_lon": 0.0}, {"rental_uris": {"ios": "https://dc.lft.to/lastmile_qr_scan", "android": "https://dc.lft.to/lastmile_qr_scan"}, "type": "electric_scooter", "name": "bd2f9c036fc72d0c8a583e7b57f725bd", "is_reserved": 0, "lon": -77.02547833333334, "is_disabled": 0, "fusion_lat": 0.0, "lat": 38.95171216666667, "bike_id": "bd2f9c036fc72d0c8a583e7b57f725bd", "fusion_lon": 0.0}, {"rental_uris": {"ios": "https://dc.lft.to/lastmile_qr_scan", "android": "https://dc.lft.to/lastmile_qr_scan"}, "type": "electric_scooter", "name": "5a7431d8f32eff4eb6a3122c4b45c09a", "is_reserved": 0, "lon": -76.95293283333334, "is_disabled": 0, "fusion_lat": 0.0, "lat": 38.885240833333334, "bike_id": "5a7431d8f32eff4eb6a3122c4b45c09a", "fusion_lon": 0.0}, {"rental_uris": {"ios": "https://dc.lft.to/lastmile_qr_scan", "android": "https://dc.lft.to/lastmile_qr_scan"}, "type": "electric_scooter", "name": "0c677c63c4f91faa837c8001d52a13b2", "is_reserved": 0, "lon": -77.01946633333333, "is_disabled": 0, "fusion_lat": 0.0, "lat": 38.924228166666666, "bike_id": "0c677c63c4f91faa837c8001d52a13b2", "fusion_lon": 0.0}, {"rental_uris": {"ios": "https://dc.lft.to/lastmile_qr_scan", "android": "https://dc.lft.to/lastmile_qr_scan"}, "type": "electric_scooter", "name": "8f2bc1d6933def0aad0cec4ac327b2f4", "is_reserved": 0, "lon": -76.99506266666667, "is_disabled": 0, "fusion_lat": 0.0, "lat": 38.90976166666667, "bike_id": "8f2bc1d6933def0aad0cec4ac327b2f4", "fusion_lon": 0.0}, {"rental_uris": {"ios": "https://dc.lft.to/lastmile_qr_scan", "android": "https://dc.lft.to/lastmile_qr_scan"}, "type": "electric_bike", "name": "cd49e7214836a5918fa995add7e2aa8a", "is_reserved": 0, "lon": -77.02584333333333, "is_disabled": 0, "fusion_lat": 0.0, "lat": 38.97872266666667, "bike_id": "cd49e7214836a5918fa995add7e2aa8a", "fusion_lon": 0.0}, {"rental_uris": {"ios": "https://dc.lft.to/lastmile_qr_scan", "android": "https://dc.lft.to/lastmile_qr_scan"}, "type": "electric_scooter", "name": "4912f8e8a7c3c1fdd8b6ff3f97b23e2e", "is_reserved": 0, "lon": -77.03440983333333, "is_disabled": 0, "fusion_lat": 0.0, "lat": 38.90567733333334, "bike_id": "4912f8e8a7c3c1fdd8b6ff3f97b23e2e", "fusion_lon": 0.0}, {"rental_uris": {"ios": "https://dc.lft.to/lastmile_qr_scan", "android": "https://dc.lft.to/lastmile_qr_scan"}, "type": "electric_scooter", "name": "5fea5b7cb5e4adf5bc0bbf3b02da46bf", "is_reserved": 0, "lon": -77.02304633333334, "is_disabled": 0, "fusion_lat": 0.0, "lat": 38.91110833333333, "bike_id": "5fea5b7cb5e4adf5bc0bbf3b02da46bf", "fusion_lon": 0.0}, {"rental_uris": {"ios": "https://dc.lft.to/lastmile_qr_scan", "android": "https://dc.lft.to/lastmile_qr_scan"}, "type": "electric_scooter", "name": "4cb3b6ea4d0bd23c8d052ca8420c9874", "is_reserved": 0, "lon": -77.03445583333334, "is_disabled": 0, "fusion_lat": 0.0, "lat": 38.907353666666666, "bike_id": "4cb3b6ea4d0bd23c8d052ca8420c9874", "fusion_lon": 0.0}, {"rental_uris": {"ios": "https://dc.lft.to/lastmile_qr_scan", "android": "https://dc.lft.to/lastmile_qr_scan"}, "type": "electric_scooter", "name": "ed9c4bf578c571d683baaf106946358d", "is_reserved": 0, "lon": -77.040742, "is_disabled": 0, "fusion_lat": 0.0, "lat": 38.94778383333333, "bike_id": "ed9c4bf578c571d683baaf106946358d", "fusion_lon": 0.0}, {"rental_uris": {"ios": "https://dc.lft.to/lastmile_qr_scan", "android": "https://dc.lft.to/lastmile_qr_scan"}, "type": "electric_bike", "name": "6f05e86c4618f728bc1cc23377324476", "is_reserved": 0, "lon": -76.99914166666667, "is_disabled": 0, "fusion_lat": 0.0, "lat": 38.864461, "bike_id": "6f05e86c4618f728bc1cc23377324476", "fusion_lon": 0.0}, {"rental_uris": {"ios": "https://dc.lft.to/lastmile_qr_scan", "android": "https://dc.lft.to/lastmile_qr_scan"}, "type": "electric_scooter", "name": "27818b0556088de21638ba55b06b49ac", "is_reserved": 0, "lon": -77.04334966666667, "is_disabled": 0, "fusion_lat": 0.0, "lat": 38.90732783333333, "bike_id": "27818b0556088de21638ba55b06b49ac", "fusion_lon": 0.0}, {"rental_uris": {"ios": "https://dc.lft.to/lastmile_qr_scan", "android": "https://dc.lft.to/lastmile_qr_scan"}, "type": "electric_scooter", "name": "93cb1aa9900c7e26c942cf5e5f511e4a", "is_reserved": 0, "lon": -77.039588, "is_disabled": 0, "fusion_lat": 0.0, "lat": 38.89247666666667, "bike_id": "93cb1aa9900c7e26c942cf5e5f511e4a", "fusion_lon": 0.0}, {"rental_uris": {"ios": "https://dc.lft.to/lastmile_qr_scan", "android": "https://dc.lft.to/lastmile_qr_scan"}, "type": "electric_scooter", "name": "c1e7894324327484f5ca3465d1a40751", "is_reserved": 0, "lon": -77.049378, "is_disabled": 0, "fusion_lat": 0.0, "lat": 38.900693833333335, "bike_id": "c1e7894324327484f5ca3465d1a40751", "fusion_lon": 0.0}, {"rental_uris": {"ios": "https://dc.lft.to/lastmile_qr_scan", "android": "https://dc.lft.to/lastmile_qr_scan"}, "type": "electric_scooter", "name": "1d3b846e1822364821a56ad7cda9e237", "is_reserved": 0, "lon": -77.0073215, "is_disabled": 0, "fusion_lat": 0.0, "lat": 38.89706183333333, "bike_id": "1d3b846e1822364821a56ad7cda9e237", "fusion_lon": 0.0}, {"rental_uris": {"ios": "https://dc.lft.to/lastmile_qr_scan", "android": "https://dc.lft.to/lastmile_qr_scan"}, "type": "electric_scooter", "name": "79aa4d736a9ced7bc004d5d78e5a3dd8", "is_reserved": 0, "lon": -77.03172766666667, "is_disabled": 0, "fusion_lat": 0.0, "lat": 38.921107666666664, "bike_id": "79aa4d736a9ced7bc004d5d78e5a3dd8", "fusion_lon": 0.0}, {"rental_uris": {"ios": "https://dc.lft.to/lastmile_qr_scan", "android": "https://dc.lft.to/lastmile_qr_scan"}, "type": "electric_scooter", "name": "f621a0ec8555cd08668ffb24c45ddae6", "is_reserved": 0, "lon": -77.036652, "is_disabled": 0, "fusion_lat": 0.0, "lat": 38.91822333333333, "bike_id": "f621a0ec8555cd08668ffb24c45ddae6", "fusion_lon": 0.0}, {"rental_uris": {"ios": "https://dc.lft.to/lastmile_qr_scan", "android": "https://dc.lft.to/lastmile_qr_scan"}, "type": "electric_scooter", "name": "2749c0863e8f61082981db10cedc1bde", "is_reserved": 0, "lon": -77.00674083333334, "is_disabled": 0, "fusion_lat": 0.0, "lat": 38.87147016666667, "bike_id": "2749c0863e8f61082981db10cedc1bde", "fusion_lon": 0.0}, {"rental_uris": {"ios": "https://dc.lft.to/lastmile_qr_scan", "android": "https://dc.lft.to/lastmile_qr_scan"}, "type": "electric_scooter", "name": "f8cc681ac5f68624419e27f11934fd40", "is_reserved": 0, "lon": -76.9783465, "is_disabled": 0, "fusion_lat": 0.0, "lat": 38.8720965, "bike_id": "f8cc681ac5f68624419e27f11934fd40", "fusion_lon": 0.0}, {"rental_uris": {"ios": "https://dc.lft.to/lastmile_qr_scan", "android": "https://dc.lft.to/lastmile_qr_scan"}, "type": "electric_scooter", "name": "fac5d797c29c7ba43cf0206d4ba1fca2", "is_reserved": 0, "lon": -77.04851183333334, "is_disabled": 0, "fusion_lat": 0.0, "lat": 38.90471933333333, "bike_id": "fac5d797c29c7ba43cf0206d4ba1fca2", "fusion_lon": 0.0}, {"rental_uris": {"ios": "https://dc.lft.to/lastmile_qr_scan", "android": "https://dc.lft.to/lastmile_qr_scan"}, "type": "electric_scooter", "name": "815e5a7be898e5ce25b250d0e3a5fc6f", "is_reserved": 0, "lon": -77.04127383333334, "is_disabled": 0, "fusion_lat": 0.0, "lat": 38.903866666666666, "bike_id": "815e5a7be898e5ce25b250d0e3a5fc6f", "fusion_lon": 0.0}, {"rental_uris": {"ios": "https://dc.lft.to/lastmile_qr_scan", "android": "https://dc.lft.to/lastmile_qr_scan"}, "type": "electric_scooter", "name": "c55dd3da4b2a663c1bc62661266be819", "is_reserved": 0, "lon": -77.03978083333334, "is_disabled": 0, "fusion_lat": 0.0, "lat": 38.92465133333334, "bike_id": "c55dd3da4b2a663c1bc62661266be819", "fusion_lon": 0.0}, {"rental_uris": {"ios": "https://dc.lft.to/lastmile_qr_scan", "android": "https://dc.lft.to/lastmile_qr_scan"}, "type": "electric_scooter", "name": "9f859e2c9e19d6b71ab5024f7d72afb8", "is_reserved": 0, "lon": -77.0464415, "is_disabled": 0, "fusion_lat": 0.0, "lat": 38.897292, "bike_id": "9f859e2c9e19d6b71ab5024f7d72afb8", "fusion_lon": 0.0}, {"rental_uris": {"ios": "https://dc.lft.to/lastmile_qr_scan", "android": "https://dc.lft.to/lastmile_qr_scan"}, "type": "electric_scooter", "name": "064157975748fc0c71d1b560f4862c00", "is_reserved": 0, "lon": -77.000599, "is_disabled": 0, "fusion_lat": 0.0, "lat": 38.961335, "bike_id": "064157975748fc0c71d1b560f4862c00", "fusion_lon": 0.0}, {"rental_uris": {"ios": "https://dc.lft.to/lastmile_qr_scan", "android": "https://dc.lft.to/lastmile_qr_scan"}, "type": "electric_scooter", "name": "08259cb4a3413cec5efeedb672b4a88a", "is_reserved": 0, "lon": -77.02805266666667, "is_disabled": 0, "fusion_lat": 0.0, "lat": 38.90738916666667, "bike_id": "08259cb4a3413cec5efeedb672b4a88a", "fusion_lon": 0.0}, {"rental_uris": {"ios": "https://dc.lft.to/lastmile_qr_scan", "android": "https://dc.lft.to/lastmile_qr_scan"}, "type": "electric_scooter", "name": "dd10ad1b247ea9ec6c2a2265b3d6d1b8", "is_reserved": 0, "lon": -76.97626933333333, "is_disabled": 0, "fusion_lat": 0.0, "lat": 38.9057015, "bike_id": "dd10ad1b247ea9ec6c2a2265b3d6d1b8", "fusion_lon": 0.0}, {"rental_uris": {"ios": "https://dc.lft.to/lastmile_qr_scan", "android": "https://dc.lft.to/lastmile_qr_scan"}, "type": "electric_bike", "name": "3eaf5c0b24606fcaecb315432f355551", "is_reserved": 0, "lon": -77.2341155, "is_disabled": 0, "fusion_lat": 0.0, "lat": 38.87579383333333, "bike_id": "3eaf5c0b24606fcaecb315432f355551", "fusion_lon": 0.0}, {"rental_uris": {"ios": "https://dc.lft.to/lastmile_qr_scan", "android": "https://dc.lft.to/lastmile_qr_scan"}, "type": "electric_scooter", "name": "b40a766428989d11dd2cee8b34637223", "is_reserved": 0, "lon": -77.03495033333333, "is_disabled": 0, "fusion_lat": 0.0, "lat": 38.9327295, "bike_id": "b40a766428989d11dd2cee8b34637223", "fusion_lon": 0.0}, {"rental_uris": {"ios": "https://dc.lft.to/lastmile_qr_scan", "android": "https://dc.lft.to/lastmile_qr_scan"}, "type": "electric_scooter", "name": "92874440f9c6be6e30e2e53eff98d082", "is_reserved": 0, "lon": -77.05526683333333, "is_disabled": 0, "fusion_lat": 0.0, "lat": 38.897281666666665, "bike_id": "92874440f9c6be6e30e2e53eff98d082", "fusion_lon": 0.0}, {"rental_uris": {"ios": "https://dc.lft.to/lastmile_qr_scan", "android": "https://dc.lft.to/lastmile_qr_scan"}, "type": "electric_scooter", "name": "33b9a453a40af3588c99a77624b3472d", "is_reserved": 0, "lon": -77.021044, "is_disabled": 0, "fusion_lat": 0.0, "lat": 38.912065, "bike_id": "33b9a453a40af3588c99a77624b3472d", "fusion_lon": 0.0}, {"rental_uris": {"ios": "https://dc.lft.to/lastmile_qr_scan", "android": "https://dc.lft.to/lastmile_qr_scan"}, "type": "electric_scooter", "name": "1548efc6f7c3c75501ea70c2131e5005", "is_reserved": 0, "lon": -77.04946316666667, "is_disabled": 0, "fusion_lat": 0.0, "lat": 38.92021316666667, "bike_id": "1548efc6f7c3c75501ea70c2131e5005", "fusion_lon": 0.0}, {"rental_uris": {"ios": "https://dc.lft.to/lastmile_qr_scan", "android": "https://dc.lft.to/lastmile_qr_scan"}, "type": "electric_scooter", "name": "7f039296c19234a14ab108c77db23952", "is_reserved": 0, "lon": -77.02957533333333, "is_disabled": 0, "fusion_lat": 0.0, "lat": 38.922708166666666, "bike_id": "7f039296c19234a14ab108c77db23952", "fusion_lon": 0.0}, {"rental_uris": {"ios": "https://dc.lft.to/lastmile_qr_scan", "android": "https://dc.lft.to/lastmile_qr_scan"}, "type": "electric_scooter", "name": "43f793405eb4158bb27bcd1f4ac83462", "is_reserved": 0, "lon": -76.98940016666667, "is_disabled": 0, "fusion_lat": 0.0, "lat": 38.90396366666667, "bike_id": "43f793405eb4158bb27bcd1f4ac83462", "fusion_lon": 0.0}, {"rental_uris": {"ios": "https://dc.lft.to/lastmile_qr_scan", "android": "https://dc.lft.to/lastmile_qr_scan"}, "type": "electric_bike", "name": "11e7a808ed3577379c1c65d473277ac8", "is_reserved": 0, "lon": -77.02029833333333, "is_disabled": 0, "fusion_lat": 0.0, "lat": 38.96557516666667, "bike_id": "11e7a808ed3577379c1c65d473277ac8", "fusion_lon": 0.0}, {"rental_uris": {"ios": "https://dc.lft.to/lastmile_qr_scan", "android": "https://dc.lft.to/lastmile_qr_scan"}, "type": "electric_scooter", "name": "acc2eef29295a6f57d44d2bac45bf7c5", "is_reserved": 0, "lon": -77.02387666666667, "is_disabled": 0, "fusion_lat": 0.0, "lat": 38.9207655, "bike_id": "acc2eef29295a6f57d44d2bac45bf7c5", "fusion_lon": 0.0}, {"rental_uris": {"ios": "https://dc.lft.to/lastmile_qr_scan", "android": "https://dc.lft.to/lastmile_qr_scan"}, "type": "electric_scooter", "name": "9cd633ebf481e988fea16e5562250524", "is_reserved": 0, "lon": -77.0467585, "is_disabled": 0, "fusion_lat": 0.0, "lat": 38.91407, "bike_id": "9cd633ebf481e988fea16e5562250524", "fusion_lon": 0.0}, {"rental_uris": {"ios": "https://dc.lft.to/lastmile_qr_scan", "android": "https://dc.lft.to/lastmile_qr_scan"}, "type": "electric_scooter", "name": "ec0504e18f8c521d526890c467f92c30", "is_reserved": 0, "lon": -77.048783, "is_disabled": 0, "fusion_lat": 0.0, "lat": 38.902873666666665, "bike_id": "ec0504e18f8c521d526890c467f92c30", "fusion_lon": 0.0}, {"rental_uris": {"ios": "https://dc.lft.to/lastmile_qr_scan", "android": "https://dc.lft.to/lastmile_qr_scan"}, "type": "electric_scooter", "name": "378743ae5fefc3a1898932ed67477833", "is_reserved": 0, "lon": -77.04541366666666, "is_disabled": 0, "fusion_lat": 0.0, "lat": 38.93272983333333, "bike_id": "378743ae5fefc3a1898932ed67477833", "fusion_lon": 0.0}, {"rental_uris": {"ios": "https://dc.lft.to/lastmile_qr_scan", "android": "https://dc.lft.to/lastmile_qr_scan"}, "type": "electric_bike", "name": "fd96a25c187d6387ee2c4375bb21ed84", "is_reserved": 0, "lon": -77.10869083333333, "is_disabled": 0, "fusion_lat": 0.0, "lat": 38.935812166666665, "bike_id": "fd96a25c187d6387ee2c4375bb21ed84", "fusion_lon": 0.0}, {"rental_uris": {"ios": "https://dc.lft.to/lastmile_qr_scan", "android": "https://dc.lft.to/lastmile_qr_scan"}, "type": "electric_scooter", "name": "ac72e42ce8fbc4be9f3cc29f2420b342", "is_reserved": 0, "lon": -77.02233, "is_disabled": 0, "fusion_lat": 0.0, "lat": 38.878212166666664, "bike_id": "ac72e42ce8fbc4be9f3cc29f2420b342", "fusion_lon": 0.0}, {"rental_uris": {"ios": "https://dc.lft.to/lastmile_qr_scan", "android": "https://dc.lft.to/lastmile_qr_scan"}, "type": "electric_bike", "name": "c4bf7478aaa4b3d2a10c04675b523cea", "is_reserved": 0, "lon": -76.98283383333333, "is_disabled": 0, "fusion_lat": 0.0, "lat": 38.846845333333334, "bike_id": "c4bf7478aaa4b3d2a10c04675b523cea", "fusion_lon": 0.0}, {"rental_uris": {"ios": "https://dc.lft.to/lastmile_qr_scan", "android": "https://dc.lft.to/lastmile_qr_scan"}, "type": "electric_scooter", "name": "7860ea105a0547aa1341257b4e1660bd", "is_reserved": 0, "lon": -77.02521933333334, "is_disabled": 0, "fusion_lat": 0.0, "lat": 38.916880166666665, "bike_id": "7860ea105a0547aa1341257b4e1660bd", "fusion_lon": 0.0}, {"rental_uris": {"ios": "https://dc.lft.to/lastmile_qr_scan", "android": "https://dc.lft.to/lastmile_qr_scan"}, "type": "electric_scooter", "name": "09ee99f1eec49ec50632051cd9ecbc4b", "is_reserved": 0, "lon": -77.02585933333333, "is_disabled": 0, "fusion_lat": 0.0, "lat": 38.905019833333334, "bike_id": "09ee99f1eec49ec50632051cd9ecbc4b", "fusion_lon": 0.0}, {"rental_uris": {"ios": "https://dc.lft.to/lastmile_qr_scan", "android": "https://dc.lft.to/lastmile_qr_scan"}, "type": "electric_bike", "name": "edd31269d7fe11ab5f358466e905aa27", "is_reserved": 0, "lon": -76.975731, "is_disabled": 0, "fusion_lat": 0.0, "lat": 38.899462166666666, "bike_id": "edd31269d7fe11ab5f358466e905aa27", "fusion_lon": 0.0}, {"rental_uris": {"ios": "https://dc.lft.to/lastmile_qr_scan", "android": "https://dc.lft.to/lastmile_qr_scan"}, "type": "electric_scooter", "name": "c20f41b2e14179e1645e26f882a8db34", "is_reserved": 0, "lon": -77.0277985, "is_disabled": 0, "fusion_lat": 0.0, "lat": 38.9624615, "bike_id": "c20f41b2e14179e1645e26f882a8db34", "fusion_lon": 0.0}, {"rental_uris": {"ios": "https://dc.lft.to/lastmile_qr_scan", "android": "https://dc.lft.to/lastmile_qr_scan"}, "type": "electric_scooter", "name": "8b00e722f0a96c100a42d6ef40249bd7", "is_reserved": 0, "lon": -77.05120066666667, "is_disabled": 0, "fusion_lat": 0.0, "lat": 38.92523633333333, "bike_id": "8b00e722f0a96c100a42d6ef40249bd7", "fusion_lon": 0.0}, {"rental_uris": {"ios": "https://dc.lft.to/lastmile_qr_scan", "android": "https://dc.lft.to/lastmile_qr_scan"}, "type": "electric_scooter", "name": "570adf0d01dc70c3c56fee5fc53c1a77", "is_reserved": 0, "lon": -77.04683733333333, "is_disabled": 0, "fusion_lat": 0.0, "lat": 38.892228833333334, "bike_id": "570adf0d01dc70c3c56fee5fc53c1a77", "fusion_lon": 0.0}, {"rental_uris": {"ios": "https://dc.lft.to/lastmile_qr_scan", "android": "https://dc.lft.to/lastmile_qr_scan"}, "type": "electric_scooter", "name": "731bc8886fb3b177714eba40c0cc63e6", "is_reserved": 0, "lon": -77.0467345, "is_disabled": 0, "fusion_lat": 0.0, "lat": 38.892813, "bike_id": "731bc8886fb3b177714eba40c0cc63e6", "fusion_lon": 0.0}, {"rental_uris": {"ios": "https://dc.lft.to/lastmile_qr_scan", "android": "https://dc.lft.to/lastmile_qr_scan"}, "type": "electric_scooter", "name": "0f9bdf735932c1b5b81828c664e1e64d", "is_reserved": 0, "lon": -77.0038235, "is_disabled": 0, "fusion_lat": 0.0, "lat": 38.940654, "bike_id": "0f9bdf735932c1b5b81828c664e1e64d", "fusion_lon": 0.0}, {"rental_uris": {"ios": "https://dc.lft.to/lastmile_qr_scan", "android": "https://dc.lft.to/lastmile_qr_scan"}, "type": "electric_scooter", "name": "18b79f3d215f3a43f19bddb3e2cfb0e6", "is_reserved": 0, "lon": -77.039591, "is_disabled": 0, "fusion_lat": 0.0, "lat": 38.8924675, "bike_id": "18b79f3d215f3a43f19bddb3e2cfb0e6", "fusion_lon": 0.0}, {"rental_uris": {"ios": "https://dc.lft.to/lastmile_qr_scan", "android": "https://dc.lft.to/lastmile_qr_scan"}, "type": "electric_scooter", "name": "299b4b8e11f6efaef5bf857c201ef6c2", "is_reserved": 0, "lon": -77.034369, "is_disabled": 0, "fusion_lat": 0.0, "lat": 38.9180095, "bike_id": "299b4b8e11f6efaef5bf857c201ef6c2", "fusion_lon": 0.0}, {"rental_uris": {"ios": "https://dc.lft.to/lastmile_qr_scan", "android": "https://dc.lft.to/lastmile_qr_scan"}, "type": "electric_scooter", "name": "05bc9ee110151f987e0ca6f11b0e44e4", "is_reserved": 0, "lon": -77.0466695, "is_disabled": 0, "fusion_lat": 0.0, "lat": 38.905541, "bike_id": "05bc9ee110151f987e0ca6f11b0e44e4", "fusion_lon": 0.0}, {"rental_uris": {"ios": "https://dc.lft.to/lastmile_qr_scan", "android": "https://dc.lft.to/lastmile_qr_scan"}, "type": "electric_scooter", "name": "c387bd71ab0519fd55c178557454d85a", "is_reserved": 0, "lon": -77.02936366666667, "is_disabled": 0, "fusion_lat": 0.0, "lat": 38.9073085, "bike_id": "c387bd71ab0519fd55c178557454d85a", "fusion_lon": 0.0}, {"rental_uris": {"ios": "https://dc.lft.to/lastmile_qr_scan", "android": "https://dc.lft.to/lastmile_qr_scan"}, "type": "electric_scooter", "name": "ac970cf7f204ed940a1e51c775be4828", "is_reserved": 0, "lon": -77.04471833333334, "is_disabled": 0, "fusion_lat": 0.0, "lat": 38.922904, "bike_id": "ac970cf7f204ed940a1e51c775be4828", "fusion_lon": 0.0}, {"rental_uris": {"ios": "https://dc.lft.to/lastmile_qr_scan", "android": "https://dc.lft.to/lastmile_qr_scan"}, "type": "electric_scooter", "name": "53e83cbd63f56e5a3827d2d7dfe5d317", "is_reserved": 0, "lon": -77.06609416666667, "is_disabled": 0, "fusion_lat": 0.0, "lat": 38.911077, "bike_id": "53e83cbd63f56e5a3827d2d7dfe5d317", "fusion_lon": 0.0}, {"rental_uris": {"ios": "https://dc.lft.to/lastmile_qr_scan", "android": "https://dc.lft.to/lastmile_qr_scan"}, "type": "electric_bike", "name": "fd87404299f66a015059a6d50b34fb7f", "is_reserved": 0, "lon": -76.999194, "is_disabled": 0, "fusion_lat": 0.0, "lat": 38.994722333333335, "bike_id": "fd87404299f66a015059a6d50b34fb7f", "fusion_lon": 0.0}, {"rental_uris": {"ios": "https://dc.lft.to/lastmile_qr_scan", "android": "https://dc.lft.to/lastmile_qr_scan"}, "type": "electric_bike", "name": "aae9ba697b450a156bd05c5c436af3a5", "is_reserved": 0, "lon": -77.05517416666666, "is_disabled": 0, "fusion_lat": 0.0, "lat": 38.94414233333333, "bike_id": "aae9ba697b450a156bd05c5c436af3a5", "fusion_lon": 0.0}, {"rental_uris": {"ios": "https://dc.lft.to/lastmile_qr_scan", "android": "https://dc.lft.to/lastmile_qr_scan"}, "type": "electric_scooter", "name": "676b085ad76ef19ab229931235c922ca", "is_reserved": 0, "lon": -77.0228855, "is_disabled": 0, "fusion_lat": 0.0, "lat": 38.909578, "bike_id": "676b085ad76ef19ab229931235c922ca", "fusion_lon": 0.0}, {"rental_uris": {"ios": "https://dc.lft.to/lastmile_qr_scan", "android": "https://dc.lft.to/lastmile_qr_scan"}, "type": "electric_scooter", "name": "ac85d60b44a233a518e367597020b67b", "is_reserved": 0, "lon": -76.96545, "is_disabled": 0, "fusion_lat": 0.0, "lat": 38.878862166666664, "bike_id": "ac85d60b44a233a518e367597020b67b", "fusion_lon": 0.0}, {"rental_uris": {"ios": "https://dc.lft.to/lastmile_qr_scan", "android": "https://dc.lft.to/lastmile_qr_scan"}, "type": "electric_scooter", "name": "5bc38a6c499f8eb2b79d2ee8d643e1c8", "is_reserved": 0, "lon": -77.0270935, "is_disabled": 0, "fusion_lat": 0.0, "lat": 38.91527383333333, "bike_id": "5bc38a6c499f8eb2b79d2ee8d643e1c8", "fusion_lon": 0.0}, {"rental_uris": {"ios": "https://dc.lft.to/lastmile_qr_scan", "android": "https://dc.lft.to/lastmile_qr_scan"}, "type": "electric_scooter", "name": "952a4e5bb282e3d9c779400cad9258fc", "is_reserved": 0, "lon": -77.02154133333333, "is_disabled": 0, "fusion_lat": 0.0, "lat": 38.915403833333336, "bike_id": "952a4e5bb282e3d9c779400cad9258fc", "fusion_lon": 0.0}, {"rental_uris": {"ios": "https://dc.lft.to/lastmile_qr_scan", "android": "https://dc.lft.to/lastmile_qr_scan"}, "type": "electric_scooter", "name": "522c79a145df435587944f2add06a0dc", "is_reserved": 0, "lon": -77.03805466666667, "is_disabled": 0, "fusion_lat": 0.0, "lat": 38.915555499999996, "bike_id": "522c79a145df435587944f2add06a0dc", "fusion_lon": 0.0}, {"rental_uris": {"ios": "https://dc.lft.to/lastmile_qr_scan", "android": "https://dc.lft.to/lastmile_qr_scan"}, "type": "electric_bike", "name": "89e262927ffb2d0140c3761210aa4015", "is_reserved": 0, "lon": -76.99443966666666, "is_disabled": 0, "fusion_lat": 0.0, "lat": 38.83107433333333, "bike_id": "89e262927ffb2d0140c3761210aa4015", "fusion_lon": 0.0}, {"rental_uris": {"ios": "https://dc.lft.to/lastmile_qr_scan", "android": "https://dc.lft.to/lastmile_qr_scan"}, "type": "electric_bike", "name": "e7bc181f2bcfcd5fc761c881f65a06bf", "is_reserved": 0, "lon": -77.083187, "is_disabled": 0, "fusion_lat": 0.0, "lat": 38.8543665, "bike_id": "e7bc181f2bcfcd5fc761c881f65a06bf", "fusion_lon": 0.0}, {"rental_uris": {"ios": "https://dc.lft.to/lastmile_qr_scan", "android": "https://dc.lft.to/lastmile_qr_scan"}, "type": "electric_scooter", "name": "3d628db4589edd06196dec1e22d58368", "is_reserved": 0, "lon": -77.00482083333333, "is_disabled": 0, "fusion_lat": 0.0, "lat": 38.879500166666666, "bike_id": "3d628db4589edd06196dec1e22d58368", "fusion_lon": 0.0}, {"rental_uris": {"ios": "https://dc.lft.to/lastmile_qr_scan", "android": "https://dc.lft.to/lastmile_qr_scan"}, "type": "electric_scooter", "name": "6e6c40284277578fe43c4aff7061568b", "is_reserved": 0, "lon": -77.00426, "is_disabled": 0, "fusion_lat": 0.0, "lat": 38.911924666666664, "bike_id": "6e6c40284277578fe43c4aff7061568b", "fusion_lon": 0.0}, {"rental_uris": {"ios": "https://dc.lft.to/lastmile_qr_scan", "android": "https://dc.lft.to/lastmile_qr_scan"}, "type": "electric_scooter", "name": "3854fd8dccc2e7dd4807bf9c3384d84d", "is_reserved": 0, "lon": -77.04685316666666, "is_disabled": 0, "fusion_lat": 0.0, "lat": 38.89224816666667, "bike_id": "3854fd8dccc2e7dd4807bf9c3384d84d", "fusion_lon": 0.0}, {"rental_uris": {"ios": "https://dc.lft.to/lastmile_qr_scan", "android": "https://dc.lft.to/lastmile_qr_scan"}, "type": "electric_scooter", "name": "4f1a0ba7cdd9ff1da322ec3c5cca275f", "is_reserved": 0, "lon": -77.01440216666667, "is_disabled": 0, "fusion_lat": 0.0, "lat": 38.911089833333335, "bike_id": "4f1a0ba7cdd9ff1da322ec3c5cca275f", "fusion_lon": 0.0}, {"rental_uris": {"ios": "https://dc.lft.to/lastmile_qr_scan", "android": "https://dc.lft.to/lastmile_qr_scan"}, "type": "electric_scooter", "name": "dfcc9cbd85a13cec40fdcd9593832572", "is_reserved": 0, "lon": -76.9971215, "is_disabled": 0, "fusion_lat": 0.0, "lat": 38.9111185, "bike_id": "dfcc9cbd85a13cec40fdcd9593832572", "fusion_lon": 0.0}, {"rental_uris": {"ios": "https://dc.lft.to/lastmile_qr_scan", "android": "https://dc.lft.to/lastmile_qr_scan"}, "type": "electric_scooter", "name": "cdd8f9e375850ed01b5a55d8894ce9b6", "is_reserved": 0, "lon": -77.08406066666667, "is_disabled": 0, "fusion_lat": 0.0, "lat": 38.908047333333336, "bike_id": "cdd8f9e375850ed01b5a55d8894ce9b6", "fusion_lon": 0.0}, {"rental_uris": {"ios": "https://dc.lft.to/lastmile_qr_scan", "android": "https://dc.lft.to/lastmile_qr_scan"}, "type": "electric_bike", "name": "579f1a57689ac5598a79f22764999921", "is_reserved": 0, "lon": -77.0791815, "is_disabled": 0, "fusion_lat": 0.0, "lat": 38.83830433333333, "bike_id": "579f1a57689ac5598a79f22764999921", "fusion_lon": 0.0}, {"rental_uris": {"ios": "https://dc.lft.to/lastmile_qr_scan", "android": "https://dc.lft.to/lastmile_qr_scan"}, "type": "electric_scooter", "name": "3d069d5042c45fd268b26a99ac3420c8", "is_reserved": 0, "lon": -77.04374966666667, "is_disabled": 0, "fusion_lat": 0.0, "lat": 38.9349795, "bike_id": "3d069d5042c45fd268b26a99ac3420c8", "fusion_lon": 0.0}, {"rental_uris": {"ios": "https://dc.lft.to/lastmile_qr_scan", "android": "https://dc.lft.to/lastmile_qr_scan"}, "type": "electric_scooter", "name": "1328011d8096a27587be4ba4032bb678", "is_reserved": 0, "lon": -77.07355133333333, "is_disabled": 0, "fusion_lat": 0.0, "lat": 38.93737333333333, "bike_id": "1328011d8096a27587be4ba4032bb678", "fusion_lon": 0.0}, {"rental_uris": {"ios": "https://dc.lft.to/lastmile_qr_scan", "android": "https://dc.lft.to/lastmile_qr_scan"}, "type": "electric_scooter", "name": "f4c978b6da7e64a2f553da58bd2e61d5", "is_reserved": 0, "lon": -77.0670035, "is_disabled": 0, "fusion_lat": 0.0, "lat": 38.9479655, "bike_id": "f4c978b6da7e64a2f553da58bd2e61d5", "fusion_lon": 0.0}, {"rental_uris": {"ios": "https://dc.lft.to/lastmile_qr_scan", "android": "https://dc.lft.to/lastmile_qr_scan"}, "type": "electric_bike", "name": "ff59891387393b451cfb0bf00a05a0d0", "is_reserved": 0, "lon": -76.94550433333333, "is_disabled": 0, "fusion_lat": 0.0, "lat": 38.982946166666665, "bike_id": "ff59891387393b451cfb0bf00a05a0d0", "fusion_lon": 0.0}, {"rental_uris": {"ios": "https://dc.lft.to/lastmile_qr_scan", "android": "https://dc.lft.to/lastmile_qr_scan"}, "type": "electric_bike", "name": "94ad422f7b90e1edfd19c0af409c0400", "is_reserved": 0, "lon": -76.9524145, "is_disabled": 0, "fusion_lat": 0.0, "lat": 38.8846895, "bike_id": "94ad422f7b90e1edfd19c0af409c0400", "fusion_lon": 0.0}, {"rental_uris": {"ios": "https://dc.lft.to/lastmile_qr_scan", "android": "https://dc.lft.to/lastmile_qr_scan"}, "type": "electric_bike", "name": "5a504f3060815100b2fd4a95e7e5572c", "is_reserved": 0, "lon": -76.99667383333333, "is_disabled": 0, "fusion_lat": 0.0, "lat": 38.9012925, "bike_id": "5a504f3060815100b2fd4a95e7e5572c", "fusion_lon": 0.0}, {"rental_uris": {"ios": "https://dc.lft.to/lastmile_qr_scan", "android": "https://dc.lft.to/lastmile_qr_scan"}, "type": "electric_bike", "name": "96b059ad8ef36e54248245085b456e91", "is_reserved": 0, "lon": -77.0407265, "is_disabled": 0, "fusion_lat": 0.0, "lat": 38.99380466666667, "bike_id": "96b059ad8ef36e54248245085b456e91", "fusion_lon": 0.0}, {"rental_uris": {"ios": "https://dc.lft.to/lastmile_qr_scan", "android": "https://dc.lft.to/lastmile_qr_scan"}, "type": "electric_scooter", "name": "e5acfb4f6fa057d455e3ea6ea5808f0e", "is_reserved": 0, "lon": -77.036567, "is_disabled": 0, "fusion_lat": 0.0, "lat": 38.93282466666667, "bike_id": "e5acfb4f6fa057d455e3ea6ea5808f0e", "fusion_lon": 0.0}, {"rental_uris": {"ios": "https://dc.lft.to/lastmile_qr_scan", "android": "https://dc.lft.to/lastmile_qr_scan"}, "type": "electric_scooter", "name": "f3d159cb1f163d6c1a6ef1de3943d395", "is_reserved": 0, "lon": -77.019222, "is_disabled": 0, "fusion_lat": 0.0, "lat": 38.900066333333335, "bike_id": "f3d159cb1f163d6c1a6ef1de3943d395", "fusion_lon": 0.0}, {"rental_uris": {"ios": "https://dc.lft.to/lastmile_qr_scan", "android": "https://dc.lft.to/lastmile_qr_scan"}, "type": "electric_scooter", "name": "cbc370e64b1e9bb21898730a1b926648", "is_reserved": 0, "lon": -76.99032883333334, "is_disabled": 0, "fusion_lat": 0.0, "lat": 38.89850066666666, "bike_id": "cbc370e64b1e9bb21898730a1b926648", "fusion_lon": 0.0}, {"rental_uris": {"ios": "https://dc.lft.to/lastmile_qr_scan", "android": "https://dc.lft.to/lastmile_qr_scan"}, "type": "electric_scooter", "name": "a213a2a0025213a27a85c430d93aa480", "is_reserved": 0, "lon": -77.01770233333333, "is_disabled": 0, "fusion_lat": 0.0, "lat": 38.8872605, "bike_id": "a213a2a0025213a27a85c430d93aa480", "fusion_lon": 0.0}, {"rental_uris": {"ios": "https://dc.lft.to/lastmile_qr_scan", "android": "https://dc.lft.to/lastmile_qr_scan"}, "type": "electric_scooter", "name": "acb0b796642e714fad1fe994c79945c9", "is_reserved": 0, "lon": -77.04831383333334, "is_disabled": 0, "fusion_lat": 0.0, "lat": 38.92107983333333, "bike_id": "acb0b796642e714fad1fe994c79945c9", "fusion_lon": 0.0}, {"rental_uris": {"ios": "https://dc.lft.to/lastmile_qr_scan", "android": "https://dc.lft.to/lastmile_qr_scan"}, "type": "electric_bike", "name": "8f624b4bb11484990624d103f759bcb7", "is_reserved": 0, "lon": -76.94975833333334, "is_disabled": 0, "fusion_lat": 0.0, "lat": 38.88301366666666, "bike_id": "8f624b4bb11484990624d103f759bcb7", "fusion_lon": 0.0}, {"rental_uris": {"ios": "https://dc.lft.to/lastmile_qr_scan", "android": "https://dc.lft.to/lastmile_qr_scan"}, "type": "electric_scooter", "name": "dc1269d1ff513ce6971722e872c37441", "is_reserved": 0, "lon": -77.02723466666667, "is_disabled": 0, "fusion_lat": 0.0, "lat": 38.924842, "bike_id": "dc1269d1ff513ce6971722e872c37441", "fusion_lon": 0.0}, {"rental_uris": {"ios": "https://dc.lft.to/lastmile_qr_scan", "android": "https://dc.lft.to/lastmile_qr_scan"}, "type": "electric_scooter", "name": "4d22b043ba1243a2d4f0da74ba48eaa6", "is_reserved": 0, "lon": -77.0326075, "is_disabled": 0, "fusion_lat": 0.0, "lat": 38.93985416666666, "bike_id": "4d22b043ba1243a2d4f0da74ba48eaa6", "fusion_lon": 0.0}, {"rental_uris": {"ios": "https://dc.lft.to/lastmile_qr_scan", "android": "https://dc.lft.to/lastmile_qr_scan"}, "type": "electric_scooter", "name": "549daa13377905a05705428c9613cfe9", "is_reserved": 0, "lon": -77.04855816666667, "is_disabled": 0, "fusion_lat": 0.0, "lat": 38.90438366666667, "bike_id": "549daa13377905a05705428c9613cfe9", "fusion_lon": 0.0}, {"rental_uris": {"ios": "https://dc.lft.to/lastmile_qr_scan", "android": "https://dc.lft.to/lastmile_qr_scan"}, "type": "electric_scooter", "name": "f55d6b77314dec475f8d50a9ac9211e6", "is_reserved": 0, "lon": -77.00501, "is_disabled": 0, "fusion_lat": 0.0, "lat": 38.9441335, "bike_id": "f55d6b77314dec475f8d50a9ac9211e6", "fusion_lon": 0.0}, {"rental_uris": {"ios": "https://dc.lft.to/lastmile_qr_scan", "android": "https://dc.lft.to/lastmile_qr_scan"}, "type": "electric_scooter", "name": "613f04733e5f9d83507c87d3048af64b", "is_reserved": 0, "lon": -77.03868733333333, "is_disabled": 0, "fusion_lat": 0.0, "lat": 38.932524666666666, "bike_id": "613f04733e5f9d83507c87d3048af64b", "fusion_lon": 0.0}, {"rental_uris": {"ios": "https://dc.lft.to/lastmile_qr_scan", "android": "https://dc.lft.to/lastmile_qr_scan"}, "type": "electric_scooter", "name": "045d50f9266615ebbada2a0490d69f5f", "is_reserved": 0, "lon": -77.02148116666666, "is_disabled": 0, "fusion_lat": 0.0, "lat": 38.9191155, "bike_id": "045d50f9266615ebbada2a0490d69f5f", "fusion_lon": 0.0}, {"rental_uris": {"ios": "https://dc.lft.to/lastmile_qr_scan", "android": "https://dc.lft.to/lastmile_qr_scan"}, "type": "electric_scooter", "name": "f0c0a1c7b023bc8e1f504209f2179f61", "is_reserved": 0, "lon": -77.027182, "is_disabled": 0, "fusion_lat": 0.0, "lat": 38.93398583333333, "bike_id": "f0c0a1c7b023bc8e1f504209f2179f61", "fusion_lon": 0.0}, {"rental_uris": {"ios": "https://dc.lft.to/lastmile_qr_scan", "android": "https://dc.lft.to/lastmile_qr_scan"}, "type": "electric_scooter", "name": "b734bcdb702910d742abf1fae87d70a0", "is_reserved": 0, "lon": -77.03785766666667, "is_disabled": 0, "fusion_lat": 0.0, "lat": 38.91267716666667, "bike_id": "b734bcdb702910d742abf1fae87d70a0", "fusion_lon": 0.0}, {"rental_uris": {"ios": "https://dc.lft.to/lastmile_qr_scan", "android": "https://dc.lft.to/lastmile_qr_scan"}, "type": "electric_scooter", "name": "fd2e4f59a9a71446114c9c988f67d2c8", "is_reserved": 0, "lon": -77.07850383333333, "is_disabled": 0, "fusion_lat": 0.0, "lat": 38.9313315, "bike_id": "fd2e4f59a9a71446114c9c988f67d2c8", "fusion_lon": 0.0}, {"rental_uris": {"ios": "https://dc.lft.to/lastmile_qr_scan", "android": "https://dc.lft.to/lastmile_qr_scan"}, "type": "electric_scooter", "name": "458403fe90f049dab3fb40f44d80623a", "is_reserved": 0, "lon": -77.00064433333333, "is_disabled": 0, "fusion_lat": 0.0, "lat": 38.91917016666667, "bike_id": "458403fe90f049dab3fb40f44d80623a", "fusion_lon": 0.0}, {"rental_uris": {"ios": "https://dc.lft.to/lastmile_qr_scan", "android": "https://dc.lft.to/lastmile_qr_scan"}, "type": "electric_scooter", "name": "1db42cbf38d278f38228c9363e009e4a", "is_reserved": 0, "lon": -77.00951416666666, "is_disabled": 0, "fusion_lat": 0.0, "lat": 38.897710833333335, "bike_id": "1db42cbf38d278f38228c9363e009e4a", "fusion_lon": 0.0}, {"rental_uris": {"ios": "https://dc.lft.to/lastmile_qr_scan", "android": "https://dc.lft.to/lastmile_qr_scan"}, "type": "electric_scooter", "name": "53c3d68e3ab0c6706c8767d860724d6f", "is_reserved": 0, "lon": -77.0400145, "is_disabled": 0, "fusion_lat": 0.0, "lat": 38.9418605, "bike_id": "53c3d68e3ab0c6706c8767d860724d6f", "fusion_lon": 0.0}, {"rental_uris": {"ios": "https://dc.lft.to/lastmile_qr_scan", "android": "https://dc.lft.to/lastmile_qr_scan"}, "type": "electric_bike", "name": "162cf958ef12a0d85cf45ab13666439a", "is_reserved": 0, "lon": -76.96321416666666, "is_disabled": 0, "fusion_lat": 0.0, "lat": 38.93892666666667, "bike_id": "162cf958ef12a0d85cf45ab13666439a", "fusion_lon": 0.0}, {"rental_uris": {"ios": "https://dc.lft.to/lastmile_qr_scan", "android": "https://dc.lft.to/lastmile_qr_scan"}, "type": "electric_scooter", "name": "8fb646c0556f986a28f129a97785a18f", "is_reserved": 0, "lon": -77.0344795, "is_disabled": 0, "fusion_lat": 0.0, "lat": 38.90734883333333, "bike_id": "8fb646c0556f986a28f129a97785a18f", "fusion_lon": 0.0}, {"rental_uris": {"ios": "https://dc.lft.to/lastmile_qr_scan", "android": "https://dc.lft.to/lastmile_qr_scan"}, "type": "electric_scooter", "name": "e89dac239e036dae6aeda365f9e41ffc", "is_reserved": 0, "lon": -77.04481183333333, "is_disabled": 0, "fusion_lat": 0.0, "lat": 38.918560666666664, "bike_id": "e89dac239e036dae6aeda365f9e41ffc", "fusion_lon": 0.0}, {"rental_uris": {"ios": "https://dc.lft.to/lastmile_qr_scan", "android": "https://dc.lft.to/lastmile_qr_scan"},