{"data": {"bikes": [{"rental_uris": {"ios": "https://dc.lft.to/lastmile_qr_scan", "android": "https://dc.lft.to/lastmile_qr_scan"}, "lon": -77.0317015, "type": "electric_scooter", "fusion_lat": 0.0, "lat": 38.88343116666667, "name": "5b1310a01e77c01dc08a065810463c01", "fusion_lon": 0.0, "bike_id": "5b1310a01e77c01dc08a065810463c01", "is_disabled": 0, "is_reserved": 0}, {"rental_uris": {"ios": "https://dc.lft.to/lastmile_qr_scan", "android": "https://dc.lft.to/lastmile_qr_scan"}, "lon": -77.04416283333333, "type": "electric_scooter", "fusion_lat": 0.0, "lat": 38.919821, "name": "87613ec9aa53273d139c39644c20e227", "fusion_lon": 0.0, "bike_id": "87613ec9aa53273d139c39644c20e227", "is_disabled": 0, "is_reserved": 0}, {"rental_uris": {"ios": "https://dc.lft.to/lastmile_qr_scan", "android": "https://dc.lft.to/lastmile_qr_scan"}, "lon": -77.011627, "type": "electric_bike", "fusion_lat": 0.0, "lat": 38.87232083333333, "name": "314967d4cecde4e0bb2095800260e48f", "fusion_lon": 0.0, "bike_id": "314967d4cecde4e0bb2095800260e48f", "is_disabled": 0, "is_reserved": 0}, {"rental_uris": {"ios": "https://dc.lft.to/lastmile_qr_scan", "android": "https://dc.lft.to/lastmile_qr_scan"}, "lon": -76.99373533333333, "type": "electric_scooter", "fusion_lat": 0.0, "lat": 38.8796965, "name": "a102d1f08fcd695283595cfd54bf9821", "fusion_lon": 0.0, "bike_id": "a102d1f08fcd695283595cfd54bf9821", "is_disabled": 0, "is_reserved": 0}, {"rental_uris": {"ios": "https://dc.lft.to/lastmile_qr_scan", "android": "https://dc.lft.to/lastmile_qr_scan"}, "lon": -77.02583983333334, "type": "electric_scooter", "fusion_lat": 0.0, "lat": 38.887366166666666, "name": "84805fc6a19a9f85acb78302355ec8bd", "fusion_lon": 0.0, "bike_id": "84805fc6a19a9f85acb78302355ec8bd", "is_disabled": 0, "is_reserved": 0}, {"rental_uris": {"ios": "https://dc.lft.to/lastmile_qr_scan", "android": "https://dc.lft.to/lastmile_qr_scan"}, "lon": -77.02316283333333, "type": "electric_scooter", "fusion_lat": 0.0, "lat": 38.8819325, "name": "9c6627befe1608c62e6921badce9b03a", "fusion_lon": 0.0, "bike_id": "9c6627befe1608c62e6921badce9b03a", "is_disabled": 0, "is_reserved": 0}, {"rental_uris": {"ios": "https://dc.lft.to/lastmile_qr_scan", "android": "https://dc.lft.to/lastmile_qr_scan"}, "lon": -77.0280725, "type": "electric_scooter", "fusion_lat": 0.0, "lat": 38.892269166666665, "name": "a88c79a3a11c6b987db9354240e12b59", "fusion_lon": 0.0, "bike_id": "a88c79a3a11c6b987db9354240e12b59", "is_disabled": 0, "is_reserved": 0}, {"rental_uris": {"ios": "https://dc.lft.to/lastmile_qr_scan", "android": "https://dc.lft.to/lastmile_qr_scan"}, "lon": -77.04170633333334, "type": "electric_scooter", "fusion_lat": 0.0, "lat": 38.89945733333333, "name": "1677ddca07e0d8fba15599d366773f18", "fusion_lon": 0.0, "bike_id": "1677ddca07e0d8fba15599d366773f18", "is_disabled": 0, "is_reserved": 0}, {"rental_uris": {"ios": "https://dc.lft.to/lastmile_qr_scan", "android": "https://dc.lft.to/lastmile_qr_scan"}, "lon": -77.0020485, "type": "electric_scooter", "fusion_lat": 0.0, "lat": 38.9003025, "name": "7355fa744b8c27a2c23ee549d981149c", "fusion_lon": 0.0, "bike_id": "7355fa744b8c27a2c23ee549d981149c", "is_disabled": 0, "is_reserved": 0}, {"rental_uris": {"ios": "https://dc.lft.to/lastmile_qr_scan", "android": "https://dc.lft.to/lastmile_qr_scan"}, "lon": -76.97313033333333, "type": "electric_bike", "fusion_lat": 0.0, "lat": 38.91765816666667, "name": "a74974dcc60557c6515bbd8a0423b07d", "fusion_lon": 0.0, "bike_id": "a74974dcc60557c6515bbd8a0423b07d", "is_disabled": 0, "is_reserved": 0}, {"rental_uris": {"ios": "https://dc.lft.to/lastmile_qr_scan", "android": "https://dc.lft.to/lastmile_qr_scan"}, "lon": -77.050134, "type": "electric_scooter", "fusion_lat": 0.0, "lat": 38.90182683333333, "name": "b2556daba2ab531f1855aad01b63c437", "fusion_lon": 0.0, "bike_id": "b2556daba2ab531f1855aad01b63c437", "is_disabled": 0, "is_reserved": 0}, {"rental_uris": {"ios": "https://dc.lft.to/lastmile_qr_scan", "android": "https://dc.lft.to/lastmile_qr_scan"}, "lon": -77.01583966666666, "type": "electric_scooter", "fusion_lat": 0.0, "lat": 38.916450833333336, "name": "883d8bf0c91a2c532fa306de8c11ba1d", "fusion_lon": 0.0, "bike_id": "883d8bf0c91a2c532fa306de8c11ba1d", "is_disabled": 0, "is_reserved": 0}, {"rental_uris": {"ios": "https://dc.lft.to/lastmile_qr_scan", "android": "https://dc.lft.to/lastmile_qr_scan"}, "lon": -76.9309755, "type": "electric_scooter", "fusion_lat": 0.0, "lat": 38.90140316666667, "name": "56a9f999664841c909e75652f9571d97", "fusion_lon": 0.0, "bike_id": "56a9f999664841c909e75652f9571d97", "is_disabled": 0, "is_reserved": 0}, {"rental_uris": {"ios": "https://dc.lft.to/lastmile_qr_scan", "android": "https://dc.lft.to/lastmile_qr_scan"}, "lon": -77.01415733333333, "type": "electric_scooter", "fusion_lat": 0.0, "lat": 38.91560333333334, "name": "4688b3a4357b1783289fa2c1079bf316", "fusion_lon": 0.0, "bike_id": "4688b3a4357b1783289fa2c1079bf316", "is_disabled": 0, "is_reserved": 0}, {"rental_uris": {"ios": "https://dc.lft.to/lastmile_qr_scan", "android": "https://dc.lft.to/lastmile_qr_scan"}, "lon": -77.02395883333334, "type": "electric_scooter", "fusion_lat": 0.0, "lat": 38.89530716666667, "name": "75763c70d809bcc7affe429ceb7f5772", "fusion_lon": 0.0, "bike_id": "75763c70d809bcc7affe429ceb7f5772", "is_disabled": 0, "is_reserved": 0}, {"rental_uris": {"ios": "https://dc.lft.to/lastmile_qr_scan", "android": "https://dc.lft.to/lastmile_qr_scan"}, "lon": -77.00918983333334, "type": "electric_scooter", "fusion_lat": 0.0, "lat": 38.910959166666665, "name": "47b485f5337262af8e3ef434c3402813", "fusion_lon": 0.0, "bike_id": "47b485f5337262af8e3ef434c3402813", "is_disabled": 0, "is_reserved": 0}, {"rental_uris": {"ios": "https://dc.lft.to/lastmile_qr_scan", "android": "https://dc.lft.to/lastmile_qr_scan"}, "lon": -76.98004383333334, "type": "electric_bike", "fusion_lat": 0.0, "lat": 38.86282083333333, "name": "f4a9759447e8537c7a95ed0c176319b7", "fusion_lon": 0.0, "bike_id": "f4a9759447e8537c7a95ed0c176319b7", "is_disabled": 0, "is_reserved": 0}, {"rental_uris": {"ios": "https://dc.lft.to/lastmile_qr_scan", "android": "https://dc.lft.to/lastmile_qr_scan"}, "lon": -77.05351116666667, "type": "electric_scooter", "fusion_lat": 0.0, "lat": 38.9026645, "name": "ae86d18e4c23831f0b1e998d7599a58f", "fusion_lon": 0.0, "bike_id": "ae86d18e4c23831f0b1e998d7599a58f", "is_disabled": 0, "is_reserved": 0}, {"rental_uris": {"ios": "https://dc.lft.to/lastmile_qr_scan", "android": "https://dc.lft.to/lastmile_qr_scan"}, "lon": -76.99805383333333, "type": "electric_bike", "fusion_lat": 0.0, "lat": 38.9085075, "name": "960f65fa962c8664c69ec6843d99e33b", "fusion_lon": 0.0, "bike_id": "960f65fa962c8664c69ec6843d99e33b", "is_disabled": 0, "is_reserved": 0}, {"rental_uris": {"ios": "https://dc.lft.to/lastmile_qr_scan", "android": "https://dc.lft.to/lastmile_qr_scan"}, "lon": -77.0504455, "type": "electric_scooter", "fusion_lat": 0.0, "lat": 38.92359183333333, "name": "7b84e0a4af2d3a695ea8e17a1ae2ce04", "fusion_lon": 0.0, "bike_id": "7b84e0a4af2d3a695ea8e17a1ae2ce04", "is_disabled": 0, "is_reserved": 0}, {"rental_uris": {"ios": "https://dc.lft.to/lastmile_qr_scan", "android": "https://dc.lft.to/lastmile_qr_scan"}, "lon": -77.01588566666666, "type": "electric_scooter", "fusion_lat": 0.0, "lat": 38.90188166666667, "name": "5517533d1689454c06ebe95900c5dc74", "fusion_lon": 0.0, "bike_id": "5517533d1689454c06ebe95900c5dc74", "is_disabled": 0, "is_reserved": 0}, {"rental_uris": {"ios": "https://dc.lft.to/lastmile_qr_scan", "android": "https://dc.lft.to/lastmile_qr_scan"}, "lon": -77.02963633333333, "type": "electric_scooter", "fusion_lat": 0.0, "lat": 38.908455333333336, "name": "cff0eefe590a8edf0661741e11415627", "fusion_lon": 0.0, "bike_id": "cff0eefe590a8edf0661741e11415627", "is_disabled": 0, "is_reserved": 0}, {"rental_uris": {"ios": "https://dc.lft.to/lastmile_qr_scan", "android": "https://dc.lft.to/lastmile_qr_scan"}, "lon": -77.05042633333333, "type": "electric_scooter", "fusion_lat": 0.0, "lat": 38.923617666666665, "name": "87d91244151bfadb22bcf8e61ddb6a20", "fusion_lon": 0.0, "bike_id": "87d91244151bfadb22bcf8e61ddb6a20", "is_disabled": 0, "is_reserved": 0}, {"rental_uris": {"ios": "https://dc.lft.to/lastmile_qr_scan", "android": "https://dc.lft.to/lastmile_qr_scan"}, "lon": -76.99040366666667, "type": "electric_scooter", "fusion_lat": 0.0, "lat": 38.8566415, "name": "7f89c3a81c98fd4bd2016180dc315e2e", "fusion_lon": 0.0, "bike_id": "7f89c3a81c98fd4bd2016180dc315e2e", "is_disabled": 0, "is_reserved": 0}, {"rental_uris": {"ios": "https://dc.lft.to/lastmile_qr_scan", "android": "https://dc.lft.to/lastmile_qr_scan"}, "lon": -77.04645816666667, "type": "electric_bike", "fusion_lat": 0.0, "lat": 38.852118833333336, "name": "fafd5f120c6ddaeb1516f6d99f21837d", "fusion_lon": 0.0, "bike_id": "fafd5f120c6ddaeb1516f6d99f21837d", "is_disabled": 0, "is_reserved": 0}, {"rental_uris": {"ios": "https://dc.lft.to/lastmile_qr_scan", "android": "https://dc.lft.to/lastmile_qr_scan"}, "lon": -77.04662616666667, "type": "electric_scooter", "fusion_lat": 0.0, "lat": 38.93298216666667, "name": "1bfa90b3fc3eede46ed2d947de11a5f7", "fusion_lon": 0.0, "bike_id": "1bfa90b3fc3eede46ed2d947de11a5f7", "is_disabled": 0, "is_reserved": 0}, {"rental_uris": {"ios": "https://dc.lft.to/lastmile_qr_scan", "android": "https://dc.lft.to/lastmile_qr_scan"}, "lon": -76.93242966666666, "type": "electric_scooter", "fusion_lat": 0.0, "lat": 38.894066, "name": "8b6ca32bb7a4da58c862298b97c7f188", "fusion_lon": 0.0, "bike_id": "8b6ca32bb7a4da58c862298b97c7f188", "is_disabled": 0, "is_reserved": 0}, {"rental_uris": {"ios": "https://dc.lft.to/lastmile_qr_scan", "android": "https://dc.lft.to/lastmile_qr_scan"}, "lon": -77.03203983333333, "type": "electric_scooter", "fusion_lat": 0.0, "lat": 38.91544733333333, "name": "0dee90edc2c2ca67aa77d7968f0f68ab", "fusion_lon": 0.0, "bike_id": "0dee90edc2c2ca67aa77d7968f0f68ab", "is_disabled": 0, "is_reserved": 0}, {"rental_uris": {"ios": "https://dc.lft.to/lastmile_qr_scan", "android": "https://dc.lft.to/lastmile_qr_scan"}, "lon": -77.05523966666667, "type": "electric_scooter", "fusion_lat": 0.0, "lat": 38.92798766666667, "name": "da557da3238d11b72841c94570c9f4e0", "fusion_lon": 0.0, "bike_id": "da557da3238d11b72841c94570c9f4e0", "is_disabled": 0, "is_reserved": 0}, {"rental_uris": {"ios": "https://dc.lft.to/lastmile_qr_scan", "android": "https://dc.lft.to/lastmile_qr_scan"}, "lon": -77.1296545, "type": "electric_bike", "fusion_lat": 0.0, "lat": 38.8079095, "name": "b61660e5719d775f4a058a1da1eb06ef", "fusion_lon": 0.0, "bike_id": "b61660e5719d775f4a058a1da1eb06ef", "is_disabled": 0, "is_reserved": 0}, {"rental_uris": {"ios": "https://dc.lft.to/lastmile_qr_scan", "android": "https://dc.lft.to/lastmile_qr_scan"}, "lon": -77.03177433333333, "type": "electric_scooter", "fusion_lat": 0.0, "lat": 38.88744166666667, "name": "96a3d21245163865979915a84110790b", "fusion_lon": 0.0, "bike_id": "96a3d21245163865979915a84110790b", "is_disabled": 0, "is_reserved": 0}, {"rental_uris": {"ios": "https://dc.lft.to/lastmile_qr_scan", "android": "https://dc.lft.to/lastmile_qr_scan"}, "lon": -77.02852966666667, "type": "electric_scooter", "fusion_lat": 0.0, "lat": 38.88874766666667, "name": "ad5fc07831206003da85445d3c926550", "fusion_lon": 0.0, "bike_id": "ad5fc07831206003da85445d3c926550", "is_disabled": 0, "is_reserved": 0}, {"rental_uris": {"ios": "https://dc.lft.to/lastmile_qr_scan", "android": "https://dc.lft.to/lastmile_qr_scan"}, "lon": -77.01287166666667, "type": "electric_bike", "fusion_lat": 0.0, "lat": 39.003842666666664, "name": "33d53003d35a23e9db524ee1cb22bc92", "fusion_lon": 0.0, "bike_id": "33d53003d35a23e9db524ee1cb22bc92", "is_disabled": 0, "is_reserved": 0}, {"rental_uris": {"ios": "https://dc.lft.to/lastmile_qr_scan", "android": "https://dc.lft.to/lastmile_qr_scan"}, "lon": -76.98865966666666, "type": "electric_scooter", "fusion_lat": 0.0, "lat": 38.83222116666666, "name": "e1cd6816243bfc5cd121040a7cffb153", "fusion_lon": 0.0, "bike_id": "e1cd6816243bfc5cd121040a7cffb153", "is_disabled": 0, "is_reserved": 0}, {"rental_uris": {"ios": "https://dc.lft.to/lastmile_qr_scan", "android": "https://dc.lft.to/lastmile_qr_scan"}, "lon": -77.0280105, "type": "electric_scooter", "fusion_lat": 0.0, "lat": 38.892258166666664, "name": "3814a71279dfef957526cdf3acc5064a", "fusion_lon": 0.0, "bike_id": "3814a71279dfef957526cdf3acc5064a", "is_disabled": 0, "is_reserved": 0}, {"rental_uris": {"ios": "https://dc.lft.to/lastmile_qr_scan", "android": "https://dc.lft.to/lastmile_qr_scan"}, "lon": -77.05383233333333, "type": "electric_scooter", "fusion_lat": 0.0, "lat": 38.90268716666667, "name": "0b919e91b7e1b4850af785960717c0e4", "fusion_lon": 0.0, "bike_id": "0b919e91b7e1b4850af785960717c0e4", "is_disabled": 0, "is_reserved": 0}, {"rental_uris": {"ios": "https://dc.lft.to/lastmile_qr_scan", "android": "https://dc.lft.to/lastmile_qr_scan"}, "lon": -77.0168535, "type": "electric_bike", "fusion_lat": 0.0, "lat": 38.975231666666666, "name": "ceeaeda47c4c7c9edaeb4d2ca05afcf4", "fusion_lon": 0.0, "bike_id": "ceeaeda47c4c7c9edaeb4d2ca05afcf4", "is_disabled": 0, "is_reserved": 0}, {"rental_uris": {"ios": "https://dc.lft.to/lastmile_qr_scan", "android": "https://dc.lft.to/lastmile_qr_scan"}, "lon": -76.99277033333334, "type": "electric_scooter", "fusion_lat": 0.0, "lat": 38.9213705, "name": "a4aabd74c81d302d6cd1a377e96b81c8", "fusion_lon": 0.0, "bike_id": "a4aabd74c81d302d6cd1a377e96b81c8", "is_disabled": 0, "is_reserved": 0}, {"rental_uris": {"ios": "https://dc.lft.to/lastmile_qr_scan", "android": "https://dc.lft.to/lastmile_qr_scan"}, "lon": -77.064014, "type": "electric_bike", "fusion_lat": 0.0, "lat": 38.84348333333333, "name": "ce9cc205dd1d8354c3747d63737e9b4d", "fusion_lon": 0.0, "bike_id": "ce9cc205dd1d8354c3747d63737e9b4d", "is_disabled": 0, "is_reserved": 0}, {"rental_uris": {"ios": "https://dc.lft.to/lastmile_qr_scan", "android": "https://dc.lft.to/lastmile_qr_scan"}, "lon": -77.03178933333334, "type": "electric_scooter", "fusion_lat": 0.0, "lat": 38.899620666666664, "name": "15fe69e240b92303fdd166b1c8ba4acf", "fusion_lon": 0.0, "bike_id": "15fe69e240b92303fdd166b1c8ba4acf", "is_disabled": 0, "is_reserved": 0}, {"rental_uris": {"ios": "https://dc.lft.to/lastmile_qr_scan", "android": "https://dc.lft.to/lastmile_qr_scan"}, "lon": -77.05907916666666, "type": "electric_bike", "fusion_lat": 0.0, "lat": 38.902324166666666, "name": "f143e366284a64463bc20d963c71081a", "fusion_lon": 0.0, "bike_id": "f143e366284a64463bc20d963c71081a", "is_disabled": 0, "is_reserved": 0}, {"rental_uris": {"ios": "https://dc.lft.to/lastmile_qr_scan", "android": "https://dc.lft.to/lastmile_qr_scan"}, "lon": -77.06286833333333, "type": "electric_scooter", "fusion_lat": 0.0, "lat": 38.9066555, "name": "ef7595afa5065f1cfb32e2bdb3ddf086", "fusion_lon": 0.0, "bike_id": "ef7595afa5065f1cfb32e2bdb3ddf086", "is_disabled": 0, "is_reserved": 0}, {"rental_uris": {"ios": "https://dc.lft.to/lastmile_qr_scan", "android": "https://dc.lft.to/lastmile_qr_scan"}, "lon": -76.98126583333334, "type": "electric_scooter", "fusion_lat": 0.0, "lat": 38.85713033333333, "name": "923cc033a09ac8931d6d6c48b8e1b3f5", "fusion_lon": 0.0, "bike_id": "923cc033a09ac8931d6d6c48b8e1b3f5", "is_disabled": 0, "is_reserved": 0}, {"rental_uris": {"ios": "https://dc.lft.to/lastmile_qr_scan", "android": "https://dc.lft.to/lastmile_qr_scan"}, "lon": -77.08046133333333, "type": "electric_bike", "fusion_lat": 0.0, "lat": 38.848433166666666, "name": "e5616d7d21ae49d2801fab2f3a87231a", "fusion_lon": 0.0, "bike_id": "e5616d7d21ae49d2801fab2f3a87231a", "is_disabled": 0, "is_reserved": 0}, {"rental_uris": {"ios": "https://dc.lft.to/lastmile_qr_scan", "android": "https://dc.lft.to/lastmile_qr_scan"}, "lon": -77.05472066666667, "type": "electric_scooter", "fusion_lat": 0.0, "lat": 38.9106515, "name": "b08db5fbc83f7766d659a6f1722a9727", "fusion_lon": 0.0, "bike_id": "b08db5fbc83f7766d659a6f1722a9727", "is_disabled": 0, "is_reserved": 0}, {"rental_uris": {"ios": "https://dc.lft.to/lastmile_qr_scan", "android": "https://dc.lft.to/lastmile_qr_scan"}, "lon": -77.04716766666667, "type": "electric_scooter", "fusion_lat": 0.0, "lat": 38.8997015, "name": "26fc4f885a74c7aa0c948ac7977b71a2", "fusion_lon": 0.0, "bike_id": "26fc4f885a74c7aa0c948ac7977b71a2", "is_disabled": 0, "is_reserved": 0}, {"rental_uris": {"ios": "https://dc.lft.to/lastmile_qr_scan", "android": "https://dc.lft.to/lastmile_qr_scan"}, "lon": -76.98607083333333, "type": "electric_scooter", "fusion_lat": 0.0, "lat": 38.8783555, "name": "8a3d066fbc235916b39b28927b5b61e4", "fusion_lon": 0.0, "bike_id": "8a3d066fbc235916b39b28927b5b61e4", "is_disabled": 0, "is_reserved": 0}, {"rental_uris": {"ios": "https://dc.lft.to/lastmile_qr_scan", "android": "https://dc.lft.to/lastmile_qr_scan"}, "lon": -76.99459966666667, "type": "electric_scooter", "fusion_lat": 0.0, "lat": 38.85161933333333, "name": "4ccd3be69e132db63e5a15be0b8b7cb4", "fusion_lon": 0.0, "bike_id": "4ccd3be69e132db63e5a15be0b8b7cb4", "is_disabled": 0, "is_reserved": 0}, {"rental_uris": {"ios": "https://dc.lft.to/lastmile_qr_scan", "android": "https://dc.lft.to/lastmile_qr_scan"}, "lon": -77.055515, "type": "electric_scooter", "fusion_lat": 0.0, "lat": 38.925298833333336, "name": "d9ad5365e5196b5d879dca733dec5faf", "fusion_lon": 0.0, "bike_id": "d9ad5365e5196b5d879dca733dec5faf", "is_disabled": 0, "is_reserved": 0}, {"rental_uris": {"ios": "https://dc.lft.to/lastmile_qr_scan", "android": "https://dc.lft.to/lastmile_qr_scan"}, "lon": -77.022885, "type": "electric_scooter", "fusion_lat": 0.0, "lat": 38.897082, "name": "37a875878b978bcfdb37e0e8bb7eac74", "fusion_lon": 0.0, "bike_id": "37a875878b978bcfdb37e0e8bb7eac74", "is_disabled": 0, "is_reserved": 0}, {"rental_uris": {"ios": "https://dc.lft.to/lastmile_qr_scan", "android": "https://dc.lft.to/lastmile_qr_scan"}, "lon": -77.00430933333334, "type": "electric_scooter", "fusion_lat": 0.0, "lat": 38.9183125, "name": "3c649b71f1c86afad44624cc51fbf397", "fusion_lon": 0.0, "bike_id": "3c649b71f1c86afad44624cc51fbf397", "is_disabled": 0, "is_reserved": 0}, {"rental_uris": {"ios": "https://dc.lft.to/lastmile_qr_scan", "android": "https://dc.lft.to/lastmile_qr_scan"}, "lon": -77.035605, "type": "electric_scooter", "fusion_lat": 0.0, "lat": 38.93983083333333, "name": "3b7b44b42521fd4ef70a9d9a6492178b", "fusion_lon": 0.0, "bike_id": "3b7b44b42521fd4ef70a9d9a6492178b", "is_disabled": 0, "is_reserved": 0}, {"rental_uris": {"ios": "https://dc.lft.to/lastmile_qr_scan", "android": "https://dc.lft.to/lastmile_qr_scan"}, "lon": -77.04171183333334, "type": "electric_scooter", "fusion_lat": 0.0, "lat": 38.905323833333334, "name": "1bfd42780c32ad9d6e5db4ce4876a9b5", "fusion_lon": 0.0, "bike_id": "1bfd42780c32ad9d6e5db4ce4876a9b5", "is_disabled": 0, "is_reserved": 0}, {"rental_uris": {"ios": "https://dc.lft.to/lastmile_qr_scan", "android": "https://dc.lft.to/lastmile_qr_scan"}, "lon": -77.03977516666667, "type": "electric_scooter", "fusion_lat": 0.0, "lat": 38.89899333333334, "name": "417411a7784874c40318002dc309c080", "fusion_lon": 0.0, "bike_id": "417411a7784874c40318002dc309c080", "is_disabled": 0, "is_reserved": 0}, {"rental_uris": {"ios": "https://dc.lft.to/lastmile_qr_scan", "android": "https://dc.lft.to/lastmile_qr_scan"}, "lon": -76.93963733333334, "type": "electric_scooter", "fusion_lat": 0.0, "lat": 38.8996665, "name": "3c7cb74c56f2811e4742ae333727b5a5", "fusion_lon": 0.0, "bike_id": "3c7cb74c56f2811e4742ae333727b5a5", "is_disabled": 0, "is_reserved": 0}, {"rental_uris": {"ios": "https://dc.lft.to/lastmile_qr_scan", "android": "https://dc.lft.to/lastmile_qr_scan"}, "lon": -77.02141583333334, "type": "electric_scooter", "fusion_lat": 0.0, "lat": 38.8949625, "name": "6f52076494688a4ec6083eba903b35b0", "fusion_lon": 0.0, "bike_id": "6f52076494688a4ec6083eba903b35b0", "is_disabled": 0, "is_reserved": 0}, {"rental_uris": {"ios": "https://dc.lft.to/lastmile_qr_scan", "android": "https://dc.lft.to/lastmile_qr_scan"}, "lon": -76.95752533333334, "type": "electric_scooter", "fusion_lat": 0.0, "lat": 38.884280833333335, "name": "6b0e960b79f9742bd1ec67f1e34c82d7", "fusion_lon": 0.0, "bike_id": "6b0e960b79f9742bd1ec67f1e34c82d7", "is_disabled": 0, "is_reserved": 0}, {"rental_uris": {"ios": "https://dc.lft.to/lastmile_qr_scan", "android": "https://dc.lft.to/lastmile_qr_scan"}, "lon": -77.01894333333334, "type": "electric_scooter", "fusion_lat": 0.0, "lat": 38.9119185, "name": "bd551a2662a27f9476058cd83478251c", "fusion_lon": 0.0, "bike_id": "bd551a2662a27f9476058cd83478251c", "is_disabled": 0, "is_reserved": 0}, {"rental_uris": {"ios": "https://dc.lft.to/lastmile_qr_scan", "android": "https://dc.lft.to/lastmile_qr_scan"}, "lon": -77.03347933333333, "type": "electric_scooter", "fusion_lat": 0.0, "lat": 38.91713416666666, "name": "85968b4798e4fdd93b3cb8ffe242267a", "fusion_lon": 0.0, "bike_id": "85968b4798e4fdd93b3cb8ffe242267a", "is_disabled": 0, "is_reserved": 0}, {"rental_uris": {"ios": "https://dc.lft.to/lastmile_qr_scan", "android": "https://dc.lft.to/lastmile_qr_scan"}, "lon": -77.04167183333334, "type": "electric_scooter", "fusion_lat": 0.0, "lat": 38.9078825, "name": "b53bfe3ef23985885b26f70657c43019", "fusion_lon": 0.0, "bike_id": "b53bfe3ef23985885b26f70657c43019", "is_disabled": 0, "is_reserved": 0}, {"rental_uris": {"ios": "https://dc.lft.to/lastmile_qr_scan", "android": "https://dc.lft.to/lastmile_qr_scan"}, "lon": -77.0129255, "type": "electric_bike", "fusion_lat": 0.0, "lat": 38.88124233333333, "name": "204253d5c428a93bba30a7ffe788d120", "fusion_lon": 0.0, "bike_id": "204253d5c428a93bba30a7ffe788d120", "is_disabled": 0, "is_reserved": 0}, {"rental_uris": {"ios": "https://dc.lft.to/lastmile_qr_scan", "android": "https://dc.lft.to/lastmile_qr_scan"}, "lon": -77.03198883333333, "type": "electric_scooter", "fusion_lat": 0.0, "lat": 38.907872166666664, "name": "8f5fab028e21a95559ca066ec3c01f96", "fusion_lon": 0.0, "bike_id": "8f5fab028e21a95559ca066ec3c01f96", "is_disabled": 0, "is_reserved": 0}, {"rental_uris": {"ios": "https://dc.lft.to/lastmile_qr_scan", "android": "https://dc.lft.to/lastmile_qr_scan"}, "lon": -77.045121, "type": "electric_scooter", "fusion_lat": 0.0, "lat": 38.912884166666664, "name": "6cd14618bcef934fe99ec02b761adddf", "fusion_lon": 0.0, "bike_id": "6cd14618bcef934fe99ec02b761adddf", "is_disabled": 0, "is_reserved": 0}, {"rental_uris": {"ios": "https://dc.lft.to/lastmile_qr_scan", "android": "https://dc.lft.to/lastmile_qr_scan"}, "lon": -77.041554, "type": "electric_scooter", "fusion_lat": 0.0, "lat": 38.901316333333334, "name": "803a68296d9e261f3ada8289cdd3871a", "fusion_lon": 0.0, "bike_id": "803a68296d9e261f3ada8289cdd3871a", "is_disabled": 0, "is_reserved": 0}, {"rental_uris": {"ios": "https://dc.lft.to/lastmile_qr_scan", "android": "https://dc.lft.to/lastmile_qr_scan"}, "lon": -77.0110525, "type": "electric_scooter", "fusion_lat": 0.0, "lat": 38.9078785, "name": "59594c27e50376d8f70c0620c7754014", "fusion_lon": 0.0, "bike_id": "59594c27e50376d8f70c0620c7754014", "is_disabled": 0, "is_reserved": 0}, {"rental_uris": {"ios": "https://dc.lft.to/lastmile_qr_scan", "android": "https://dc.lft.to/lastmile_qr_scan"}, "lon": -77.02288766666666, "type": "electric_scooter", "fusion_lat": 0.0, "lat": 38.897073666666664, "name": "4da876d18b1eada2594ce140c800af95", "fusion_lon": 0.0, "bike_id": "4da876d18b1eada2594ce140c800af95", "is_disabled": 0, "is_reserved": 0}, {"rental_uris": {"ios": "https://dc.lft.to/lastmile_qr_scan", "android": "https://dc.lft.to/lastmile_qr_scan"}, "lon": -77.04316383333334, "type": "electric_scooter", "fusion_lat": 0.0, "lat": 38.918776666666666, "name": "b0c50e443e917297a3d1d1bf99294da3", "fusion_lon": 0.0, "bike_id": "b0c50e443e917297a3d1d1bf99294da3", "is_disabled": 0, "is_reserved": 0}, {"rental_uris": {"ios": "https://dc.lft.to/lastmile_qr_scan", "android": "https://dc.lft.to/lastmile_qr_scan"}, "lon": -77.00577316666667, "type": "electric_scooter", "fusion_lat": 0.0, "lat": 38.844985, "name": "d7eff25f7d4ae9e0c045f6a646852ca5", "fusion_lon": 0.0, "bike_id": "d7eff25f7d4ae9e0c045f6a646852ca5", "is_disabled": 0, "is_reserved": 0}, {"rental_uris": {"ios": "https://dc.lft.to/lastmile_qr_scan", "android": "https://dc.lft.to/lastmile_qr_scan"}, "lon": -77.02154366666667, "type": "electric_scooter", "fusion_lat": 0.0, "lat": 38.92604133333333, "name": "9dddb4fdfcfa7fc00c10f5ef0100e302", "fusion_lon": 0.0, "bike_id": "9dddb4fdfcfa7fc00c10f5ef0100e302", "is_disabled": 0, "is_reserved": 0}, {"rental_uris": {"ios": "https://dc.lft.to/lastmile_qr_scan", "android": "https://dc.lft.to/lastmile_qr_scan"}, "lon": -76.98754866666667, "type": "electric_scooter", "fusion_lat": 0.0, "lat": 38.8450015, "name": "1298b2a806431b68edf8c6c88c09497e", "fusion_lon": 0.0, "bike_id": "1298b2a806431b68edf8c6c88c09497e", "is_disabled": 0, "is_reserved": 0}, {"rental_uris": {"ios": "https://dc.lft.to/lastmile_qr_scan", "android": "https://dc.lft.to/lastmile_qr_scan"}, "lon": -77.02236933333333, "type": "electric_scooter", "fusion_lat": 0.0, "lat": 38.962214333333336, "name": "60fce5f98953f6d3db4639323a572e3a", "fusion_lon": 0.0, "bike_id": "60fce5f98953f6d3db4639323a572e3a", "is_disabled": 0, "is_reserved": 0}, {"rental_uris": {"ios": "https://dc.lft.to/lastmile_qr_scan", "android": "https://dc.lft.to/lastmile_qr_scan"}, "lon": -77.033262, "type": "electric_scooter", "fusion_lat": 0.0, "lat": 38.9002965, "name": "b2a9f234795f74ae72ddbcede3527aff", "fusion_lon": 0.0, "bike_id": "b2a9f234795f74ae72ddbcede3527aff", "is_disabled": 0, "is_reserved": 0}, {"rental_uris": {"ios": "https://dc.lft.to/lastmile_qr_scan", "android": "https://dc.lft.to/lastmile_qr_scan"}, "lon": -76.94652083333334, "type": "electric_scooter", "fusion_lat": 0.0, "lat": 38.898255166666665, "name": "c51ede9acf9f1957dd0ea9488790abb5", "fusion_lon": 0.0, "bike_id": "c51ede9acf9f1957dd0ea9488790abb5", "is_disabled": 0, "is_reserved": 0}, {"rental_uris": {"ios": "https://dc.lft.to/lastmile_qr_scan", "android": "https://dc.lft.to/lastmile_qr_scan"}, "lon": -76.97665616666667, "type": "electric_scooter", "fusion_lat": 0.0, "lat": 38.89857216666667, "name": "bcc7de12b1de6654e5d146a3feae80f7", "fusion_lon": 0.0, "bike_id": "bcc7de12b1de6654e5d146a3feae80f7", "is_disabled": 0, "is_reserved": 0}, {"rental_uris": {"ios": "https://dc.lft.to/lastmile_qr_scan", "android": "https://dc.lft.to/lastmile_qr_scan"}, "lon": -77.00356183333334, "type": "electric_scooter", "fusion_lat": 0.0, "lat": 38.89775516666667, "name": "0849b19178ae93a450f4c41bc218b4e0", "fusion_lon": 0.0, "bike_id": "0849b19178ae93a450f4c41bc218b4e0", "is_disabled": 0, "is_reserved": 0}, {"rental_uris": {"ios": "https://dc.lft.to/lastmile_qr_scan", "android": "https://dc.lft.to/lastmile_qr_scan"}, "lon": -76.98573483333334, "type": "electric_scooter", "fusion_lat": 0.0, "lat": 38.8988535, "name": "90616becfb508f5e3483d6270dcc0a2c", "fusion_lon": 0.0, "bike_id": "90616becfb508f5e3483d6270dcc0a2c", "is_disabled": 0, "is_reserved": 0}, {"rental_uris": {"ios": "https://dc.lft.to/lastmile_qr_scan", "android": "https://dc.lft.to/lastmile_qr_scan"}, "lon": -77.02595383333333, "type": "electric_scooter", "fusion_lat": 0.0, "lat": 38.89652433333333, "name": "1afceacce96228e62a9f4b3e128d4f67", "fusion_lon": 0.0, "bike_id": "1afceacce96228e62a9f4b3e128d4f67", "is_disabled": 0, "is_reserved": 0}, {"rental_uris": {"ios": "https://dc.lft.to/lastmile_qr_scan", "android": "https://dc.lft.to/lastmile_qr_scan"}, "lon": -77.03197683333333, "type": "electric_scooter", "fusion_lat": 0.0, "lat": 38.909901, "name": "df83fbe6bcdd73c9db34dc018ad8ebb1", "fusion_lon": 0.0, "bike_id": "df83fbe6bcdd73c9db34dc018ad8ebb1", "is_disabled": 0, "is_reserved": 0}, {"rental_uris": {"ios": "https://dc.lft.to/lastmile_qr_scan", "android": "https://dc.lft.to/lastmile_qr_scan"}, "lon": -77.10029883333333, "type": "electric_bike", "fusion_lat": 0.0, "lat": 38.990629166666665, "name": "b36e010f5e055ae4fe2a13b0844bd8a8", "fusion_lon": 0.0, "bike_id": "b36e010f5e055ae4fe2a13b0844bd8a8", "is_disabled": 0, "is_reserved": 0}, {"rental_uris": {"ios": "https://dc.lft.to/lastmile_qr_scan", "android": "https://dc.lft.to/lastmile_qr_scan"}, "lon": -76.98656716666666, "type": "electric_scooter", "fusion_lat": 0.0, "lat": 38.858053, "name": "d1ca0ed03622ac47da7f975377fb2840", "fusion_lon": 0.0, "bike_id": "d1ca0ed03622ac47da7f975377fb2840", "is_disabled": 0, "is_reserved": 0}, {"rental_uris": {"ios": "https://dc.lft.to/lastmile_qr_scan", "android": "https://dc.lft.to/lastmile_qr_scan"}, "lon": -76.9920385, "type": "electric_scooter", "fusion_lat": 0.0, "lat": 38.84682433333333, "name": "c9c9a44505efdd5081f728724128e94f", "fusion_lon": 0.0, "bike_id": "c9c9a44505efdd5081f728724128e94f", "is_disabled": 0, "is_reserved": 0}, {"rental_uris": {"ios": "https://dc.lft.to/lastmile_qr_scan", "android": "https://dc.lft.to/lastmile_qr_scan"}, "lon": -76.98087766666667, "type": "electric_scooter", "fusion_lat": 0.0, "lat": 38.85718833333333, "name": "c5162852190cdccf653ada49a9d464cd", "fusion_lon": 0.0, "bike_id": "c5162852190cdccf653ada49a9d464cd", "is_disabled": 0, "is_reserved": 0}, {"rental_uris": {"ios": "https://dc.lft.to/lastmile_qr_scan", "android": "https://dc.lft.to/lastmile_qr_scan"}, "lon": -77.03772116666667, "type": "electric_scooter", "fusion_lat": 0.0, "lat": 38.91691133333333, "name": "51f569270204945f47155b33875b7853", "fusion_lon": 0.0, "bike_id": "51f569270204945f47155b33875b7853", "is_disabled": 0, "is_reserved": 0}, {"rental_uris": {"ios": "https://dc.lft.to/lastmile_qr_scan", "android": "https://dc.lft.to/lastmile_qr_scan"}, "lon": -77.01978316666667, "type": "electric_scooter", "fusion_lat": 0.0, "lat": 38.89754666666666, "name": "b55b7fdb412cb30926cecac21aac68a1", "fusion_lon": 0.0, "bike_id": "b55b7fdb412cb30926cecac21aac68a1", "is_disabled": 0, "is_reserved": 0}, {"rental_uris": {"ios": "https://dc.lft.to/lastmile_qr_scan", "android": "https://dc.lft.to/lastmile_qr_scan"}, "lon": -77.04782566666667, "type": "electric_scooter", "fusion_lat": 0.0, "lat": 38.897721, "name": "fa4360523fe9b6015e7aff3443c768fe", "fusion_lon": 0.0, "bike_id": "fa4360523fe9b6015e7aff3443c768fe", "is_disabled": 0, "is_reserved": 0}, {"rental_uris": {"ios": "https://dc.lft.to/lastmile_qr_scan", "android": "https://dc.lft.to/lastmile_qr_scan"}, "lon": -76.965242, "type": "electric_scooter", "fusion_lat": 0.0, "lat": 38.87629033333333, "name": "e2540b23f0e2cdf803bd7347a478ab38", "fusion_lon": 0.0, "bike_id": "e2540b23f0e2cdf803bd7347a478ab38", "is_disabled": 0, "is_reserved": 0}, {"rental_uris": {"ios": "https://dc.lft.to/lastmile_qr_scan", "android": "https://dc.lft.to/lastmile_qr_scan"}, "lon": -77.0596065, "type": "electric_scooter", "fusion_lat": 0.0, "lat": 38.911969166666665, "name": "01055ff70d5a3fa347854ced8bc70cf6", "fusion_lon": 0.0, "bike_id": "01055ff70d5a3fa347854ced8bc70cf6", "is_disabled": 0, "is_reserved": 0}, {"rental_uris": {"ios": "https://dc.lft.to/lastmile_qr_scan", "android": "https://dc.lft.to/lastmile_qr_scan"}, "lon": -77.0660915, "type": "electric_scooter", "fusion_lat": 0.0, "lat": 38.90543666666667, "name": "123af23206d3ab942e3b554f25e4ef7a", "fusion_lon": 0.0, "bike_id": "123af23206d3ab942e3b554f25e4ef7a", "is_disabled": 0, "is_reserved": 0}, {"rental_uris": {"ios": "https://dc.lft.to/lastmile_qr_scan", "android": "https://dc.lft.to/lastmile_qr_scan"}, "lon": -77.04088133333333, "type": "electric_scooter", "fusion_lat": 0.0, "lat": 38.914831666666664, "name": "f0f46f715dc55b39fde56afe973ba7a0", "fusion_lon": 0.0, "bike_id": "f0f46f715dc55b39fde56afe973ba7a0", "is_disabled": 0, "is_reserved": 0}, {"rental_uris": {"ios": "https://dc.lft.to/lastmile_qr_scan", "android": "https://dc.lft.to/lastmile_qr_scan"}, "lon": -77.02689216666667, "type": "electric_scooter", "fusion_lat": 0.0, "lat": 38.9183215, "name": "a496b2a4d1867f4067a9e8ca8d652d06", "fusion_lon": 0.0, "bike_id": "a496b2a4d1867f4067a9e8ca8d652d06", "is_disabled": 0, "is_reserved": 0}, {"rental_uris": {"ios": "https://dc.lft.to/lastmile_qr_scan", "android": "https://dc.lft.to/lastmile_qr_scan"}, "lon": -77.0882105, "type": "electric_bike", "fusion_lat": 0.0, "lat": 38.909727833333335, "name": "4ad356e69e99b35fa0ac3a2cdfb4b4ac", "fusion_lon": 0.0, "bike_id": "4ad356e69e99b35fa0ac3a2cdfb4b4ac", "is_disabled": 0, "is_reserved": 0}, {"rental_uris": {"ios": "https://dc.lft.to/lastmile_qr_scan", "android": "https://dc.lft.to/lastmile_qr_scan"}, "lon": -77.03228566666667, "type": "electric_scooter", "fusion_lat": 0.0, "lat": 38.9199235, "name": "6aa7a2aa208c060c114bee406309b391", "fusion_lon": 0.0, "bike_id": "6aa7a2aa208c060c114bee406309b391", "is_disabled": 0, "is_reserved": 0}, {"rental_uris": {"ios": "https://dc.lft.to/lastmile_qr_scan", "android": "https://dc.lft.to/lastmile_qr_scan"}, "lon": -77.0202065, "type": "electric_scooter", "fusion_lat": 0.0, "lat": 38.932493, "name": "4a69f680100de63130d9de37a573e07d", "fusion_lon": 0.0, "bike_id": "4a69f680100de63130d9de37a573e07d", "is_disabled": 0, "is_reserved": 0}, {"rental_uris": {"ios": "https://dc.lft.to/lastmile_qr_scan", "android": "https://dc.lft.to/lastmile_qr_scan"}, "lon": -77.02946766666666, "type": "electric_scooter", "fusion_lat": 0.0, "lat": 38.905079, "name": "46bcc2ad44654e335282773f4be461ca", "fusion_lon": 0.0, "bike_id": "46bcc2ad44654e335282773f4be461ca", "is_disabled": 0, "is_reserved": 0}, {"rental_uris": {"ios": "https://dc.lft.to/lastmile_qr_scan", "android": "https://dc.lft.to/lastmile_qr_scan"}, "lon": -76.99774633333334, "type": "electric_scooter", "fusion_lat": 0.0, "lat": 38.8442645, "name": "edac15f14db735d366c1a04127958550", "fusion_lon": 0.0, "bike_id": "edac15f14db735d366c1a04127958550", "is_disabled": 0, "is_reserved": 0}, {"rental_uris": {"ios": "https://dc.lft.to/lastmile_qr_scan", "android": "https://dc.lft.to/lastmile_qr_scan"}, "lon": -77.02285483333333, "type": "electric_scooter", "fusion_lat": 0.0, "lat": 38.897057833333335, "name": "9b83d14dc7d3be5cda90114bcf629c5a", "fusion_lon": 0.0, "bike_id": "9b83d14dc7d3be5cda90114bcf629c5a", "is_disabled": 0, "is_reserved": 0}, {"rental_uris": {"ios": "https://dc.lft.to/lastmile_qr_scan", "android": "https://dc.lft.to/lastmile_qr_scan"}, "lon": -77.03265333333333, "type": "electric_scooter", "fusion_lat": 0.0, "lat": 38.94416416666667, "name": "6a88a2173cf4a3d872d5fa299056eb94", "fusion_lon": 0.0, "bike_id": "6a88a2173cf4a3d872d5fa299056eb94", "is_disabled": 0, "is_reserved": 0}, {"rental_uris": {"ios": "https://dc.lft.to/lastmile_qr_scan", "android": "https://dc.lft.to/lastmile_qr_scan"}, "lon": -77.01782766666666, "type": "electric_scooter", "fusion_lat": 0.0, "lat": 38.94118233333333, "name": "459d83460a49a5a00c99bcb9e1fefd93", "fusion_lon": 0.0, "bike_id": "459d83460a49a5a00c99bcb9e1fefd93", "is_disabled": 0, "is_reserved": 0}, {"rental_uris": {"ios": "https://dc.lft.to/lastmile_qr_scan", "android": "https://dc.lft.to/lastmile_qr_scan"}, "lon": -77.12625583333333, "type": "electric_bike", "fusion_lat": 0.0, "lat": 39.058142, "name": "c72b34a5b81ecae5194dc8bc89f823a3", "fusion_lon": 0.0, "bike_id": "c72b34a5b81ecae5194dc8bc89f823a3", "is_disabled": 0, "is_reserved": 0}, {"rental_uris": {"ios": "https://dc.lft.to/lastmile_qr_scan", "android": "https://dc.lft.to/lastmile_qr_scan"}, "lon": -77.01398666666667, "type": "electric_scooter", "fusion_lat": 0.0, "lat": 38.928469, "name": "2b53b7f3956dfd2727d521f2cee540f7", "fusion_lon": 0.0, "bike_id": "2b53b7f3956dfd2727d521f2cee540f7", "is_disabled": 0, "is_reserved": 0}, {"rental_uris": {"ios": "https://dc.lft.to/lastmile_qr_scan", "android": "https://dc.lft.to/lastmile_qr_scan"}, "lon": -77.178482, "type": "electric_bike", "fusion_lat": 0.0, "lat": 39.089052333333335, "name": "82084ba9b609825308087c07d57dfdb2", "fusion_lon": 0.0, "bike_id": "82084ba9b609825308087c07d57dfdb2", "is_disabled": 0, "is_reserved": 0}, {"rental_uris": {"ios": "https://dc.lft.to/lastmile_qr_scan", "android": "https://dc.lft.to/lastmile_qr_scan"}, "lon": -76.97826166666667, "type": "electric_bike", "fusion_lat": 0.0, "lat": 38.8460915, "name": "13db9823dce36a8c92095a5b68370743", "fusion_lon": 0.0, "bike_id": "13db9823dce36a8c92095a5b68370743", "is_disabled": 0, "is_reserved": 0}, {"rental_uris": {"ios": "https://dc.lft.to/lastmile_qr_scan", "android": "https://dc.lft.to/lastmile_qr_scan"}, "lon": -77.03440033333334, "type": "electric_scooter", "fusion_lat": 0.0, "lat": 38.918253166666666, "name": "05a9cf2c48c93f0cc0f6ead186dd53e6", "fusion_lon": 0.0, "bike_id": "05a9cf2c48c93f0cc0f6ead186dd53e6", "is_disabled": 0, "is_reserved": 0}, {"rental_uris": {"ios": "https://dc.lft.to/lastmile_qr_scan", "android": "https://dc.lft.to/lastmile_qr_scan"}, "lon": -76.9990135, "type": "electric_bike", "fusion_lat": 0.0, "lat": 38.953044, "name": "eea7329c87f48e56cbc973866168dbf6", "fusion_lon": 0.0, "bike_id": "eea7329c87f48e56cbc973866168dbf6", "is_disabled": 0, "is_reserved": 0}, {"rental_uris": {"ios": "https://dc.lft.to/lastmile_qr_scan", "android": "https://dc.lft.to/lastmile_qr_scan"}, "lon": -77.04670866666666, "type": "electric_scooter", "fusion_lat": 0.0, "lat": 38.90534483333333, "name": "5b1e47ef3d5f98ed4e82e94e9f760f65", "fusion_lon": 0.0, "bike_id": "5b1e47ef3d5f98ed4e82e94e9f760f65", "is_disabled": 0, "is_reserved": 0}, {"rental_uris": {"ios": "https://dc.lft.to/lastmile_qr_scan", "android": "https://dc.lft.to/lastmile_qr_scan"}, "lon": -77.0294125, "type": "electric_scooter", "fusion_lat": 0.0, "lat": 38.90508883333333, "name": "a8dc2aee6cd63e5b3876476e97bb381b", "fusion_lon": 0.0, "bike_id": "a8dc2aee6cd63e5b3876476e97bb381b", "is_disabled": 0, "is_reserved": 0}, {"rental_uris": {"ios": "https://dc.lft.to/lastmile_qr_scan", "android": "https://dc.lft.to/lastmile_qr_scan"}, "lon": -77.03723583333333, "type": "electric_scooter", "fusion_lat": 0.0, "lat": 38.93359066666667, "name": "5225f99f120c348db2bb61f3db0eca35", "fusion_lon": 0.0, "bike_id": "5225f99f120c348db2bb61f3db0eca35", "is_disabled": 0, "is_reserved": 0}, {"rental_uris": {"ios": "https://dc.lft.to/lastmile_qr_scan", "android": "https://dc.lft.to/lastmile_qr_scan"}, "lon": -77.1120155, "type": "electric_bike", "fusion_lat": 0.0, "lat": 38.813058, "name": "a40ec7e333ebb5b3a8692b29e1af5fc4", "fusion_lon": 0.0, "bike_id": "a40ec7e333ebb5b3a8692b29e1af5fc4", "is_disabled": 0, "is_reserved": 0}, {"rental_uris": {"ios": "https://dc.lft.to/lastmile_qr_scan", "android": "https://dc.lft.to/lastmile_qr_scan"}, "lon": -77.12260433333333, "type": "electric_bike", "fusion_lat": 0.0, "lat": 38.891897166666666, "name": "015e84fffa5763710cc5d3cbef3a6adc", "fusion_lon": 0.0, "bike_id": "015e84fffa5763710cc5d3cbef3a6adc", "is_disabled": 0, "is_reserved": 0}, {"rental_uris": {"ios": "https://dc.lft.to/lastmile_qr_scan", "android": "https://dc.lft.to/lastmile_qr_scan"}, "lon": -76.93545516666667, "type": "electric_bike", "fusion_lat": 0.0, "lat": 38.95559466666667, "name": "1f8a8dd64b63b40f3ce12a92750f0b55", "fusion_lon": 0.0, "bike_id": "1f8a8dd64b63b40f3ce12a92750f0b55", "is_disabled": 0, "is_reserved": 0}, {"rental_uris": {"ios": "https://dc.lft.to/lastmile_qr_scan", "android": "https://dc.lft.to/lastmile_qr_scan"}, "lon": -77.05134633333333, "type": "electric_scooter", "fusion_lat": 0.0, "lat": 38.90234266666667, "name": "fc0adfdbc59f78309e2af71835c4ec13", "fusion_lon": 0.0, "bike_id": "fc0adfdbc59f78309e2af71835c4ec13", "is_disabled": 0, "is_reserved": 0}, {"rental_uris": {"ios": "https://dc.lft.to/lastmile_qr_scan", "android": "https://dc.lft.to/lastmile_qr_scan"}, "lon": -77.04172583333333, "type": "electric_scooter", "fusion_lat": 0.0, "lat": 38.9115235, "name": "21787afff289f47da40e592a2f513353", "fusion_lon": 0.0, "bike_id": "21787afff289f47da40e592a2f513353", "is_disabled": 0, "is_reserved": 0}, {"rental_uris": {"ios": "https://dc.lft.to/lastmile_qr_scan", "android": "https://dc.lft.to/lastmile_qr_scan"}, "lon": -77.076836, "type": "electric_bike", "fusion_lat": 0.0, "lat": 38.83196066666667, "name": "4e94fe6d327a40746256c44d9991484d", "fusion_lon": 0.0, "bike_id": "4e94fe6d327a40746256c44d9991484d", "is_disabled": 0, "is_reserved": 0}, {"rental_uris": {"ios": "https://dc.lft.to/lastmile_qr_scan", "android": "https://dc.lft.to/lastmile_qr_scan"}, "lon": -77.02415016666667, "type": "electric_scooter", "fusion_lat": 0.0, "lat": 38.89217583333333, "name": "ea5844e7dc3a6b79b4e748c973184593", "fusion_lon": 0.0, "bike_id": "ea5844e7dc3a6b79b4e748c973184593", "is_disabled": 0, "is_reserved": 0}, {"rental_uris": {"ios": "https://dc.lft.to/lastmile_qr_scan", "android": "https://dc.lft.to/lastmile_qr_scan"}, "lon": -77.04378433333333, "type": "electric_scooter", "fusion_lat": 0.0, "lat": 38.920699166666665, "name": "c6aad873af52c14dfb1d01c40a908d0a", "fusion_lon": 0.0, "bike_id": "c6aad873af52c14dfb1d01c40a908d0a", "is_disabled": 0, "is_reserved": 0}, {"rental_uris": {"ios": "https://dc.lft.to/lastmile_qr_scan", "android": "https://dc.lft.to/lastmile_qr_scan"}, "lon": -77.03206083333333, "type": "electric_scooter", "fusion_lat": 0.0, "lat": 38.918326, "name": "6401d0cab74732c304f6c317b39b76f8", "fusion_lon": 0.0, "bike_id": "6401d0cab74732c304f6c317b39b76f8", "is_disabled": 0, "is_reserved": 0}, {"rental_uris": {"ios": "https://dc.lft.to/lastmile_qr_scan", "android": "https://dc.lft.to/lastmile_qr_scan"}, "lon": -77.02663633333333, "type": "electric_scooter", "fusion_lat": 0.0, "lat": 38.93222816666667, "name": "1b588861172a5cd642c8222508089043", "fusion_lon": 0.0, "bike_id": "1b588861172a5cd642c8222508089043", "is_disabled": 0, "is_reserved": 0}, {"rental_uris": {"ios": "https://dc.lft.to/lastmile_qr_scan", "android": "https://dc.lft.to/lastmile_qr_scan"}, "lon": -77.03222066666666, "type": "electric_scooter", "fusion_lat": 0.0, "lat": 38.9258605, "name": "885c6e85f625d12222002d16f65635d0", "fusion_lon": 0.0, "bike_id": "885c6e85f625d12222002d16f65635d0", "is_disabled": 0, "is_reserved": 0}, {"rental_uris": {"ios": "https://dc.lft.to/lastmile_qr_scan", "android": "https://dc.lft.to/lastmile_qr_scan"}, "lon": -76.97812083333334, "type": "electric_scooter", "fusion_lat": 0.0, "lat": 38.9067405, "name": "e9fd7383f0e9a7b5b99a8c1619a09230", "fusion_lon": 0.0, "bike_id": "e9fd7383f0e9a7b5b99a8c1619a09230", "is_disabled": 0, "is_reserved": 0}, {"rental_uris": {"ios": "https://dc.lft.to/lastmile_qr_scan", "android": "https://dc.lft.to/lastmile_qr_scan"}, "lon": -76.9905845, "type": "electric_scooter", "fusion_lat": 0.0, "lat": 38.86353166666667, "name": "1c995775fe16189865fadc3e4cd5c1fa", "fusion_lon": 0.0, "bike_id": "1c995775fe16189865fadc3e4cd5c1fa", "is_disabled": 0, "is_reserved": 0}, {"rental_uris": {"ios": "https://dc.lft.to/lastmile_qr_scan", "android": "https://dc.lft.to/lastmile_qr_scan"}, "lon": -77.032298, "type": "electric_scooter", "fusion_lat": 0.0, "lat": 38.91994783333333, "name": "6bbddf6d0da80e67a57e2aefbfe43e61", "fusion_lon": 0.0, "bike_id": "6bbddf6d0da80e67a57e2aefbfe43e61", "is_disabled": 0, "is_reserved": 0}, {"rental_uris": {"ios": "https://dc.lft.to/lastmile_qr_scan", "android": "https://dc.lft.to/lastmile_qr_scan"}, "lon": -77.0415785, "type": "electric_scooter", "fusion_lat": 0.0, "lat": 38.91615383333333, "name": "98944b64fcf8f43a2b5caf02bf9de8bc", "fusion_lon": 0.0, "bike_id": "98944b64fcf8f43a2b5caf02bf9de8bc", "is_disabled": 0, "is_reserved": 0}, {"rental_uris": {"ios": "https://dc.lft.to/lastmile_qr_scan", "android": "https://dc.lft.to/lastmile_qr_scan"}, "lon": -77.00774, "type": "electric_scooter", "fusion_lat": 0.0, "lat": 38.90735383333333, "name": "908bdb47c4c189be76dac968040b2340", "fusion_lon": 0.0, "bike_id": "908bdb47c4c189be76dac968040b2340", "is_disabled": 0, "is_reserved": 0}, {"rental_uris": {"ios": "https://dc.lft.to/lastmile_qr_scan", "android": "https://dc.lft.to/lastmile_qr_scan"}, "lon": -77.02962683333334, "type": "electric_scooter", "fusion_lat": 0.0, "lat": 38.925660666666666, "name": "1c8ddd708542fb39d21dafff58fe02f7", "fusion_lon": 0.0, "bike_id": "1c8ddd708542fb39d21dafff58fe02f7", "is_disabled": 0, "is_reserved": 0}, {"rental_uris": {"ios": "https://dc.lft.to/lastmile_qr_scan", "android": "https://dc.lft.to/lastmile_qr_scan"}, "lon": -77.01245116666666, "type": "electric_scooter", "fusion_lat": 0.0, "lat": 38.91708633333333, "name": "a1f52fe3775e734e13ed580df8386c68", "fusion_lon": 0.0, "bike_id": "a1f52fe3775e734e13ed580df8386c68", "is_disabled": 0, "is_reserved": 0}, {"rental_uris": {"ios": "https://dc.lft.to/lastmile_qr_scan", "android": "https://dc.lft.to/lastmile_qr_scan"}, "lon": -77.05220616666666, "type": "electric_scooter", "fusion_lat": 0.0, "lat": 38.8980755, "name": "2f4c7fe42362b4e0307844897cbed7a5", "fusion_lon": 0.0, "bike_id": "2f4c7fe42362b4e0307844897cbed7a5", "is_disabled": 0, "is_reserved": 0}, {"rental_uris": {"ios": "https://dc.lft.to/lastmile_qr_scan", "android": "https://dc.lft.to/lastmile_qr_scan"}, "lon": -77.00942783333333, "type": "electric_scooter", "fusion_lat": 0.0, "lat": 38.871924166666666, "name": "9a1ab2de66e09ce7f436393f14a958a9", "fusion_lon": 0.0, "bike_id": "9a1ab2de66e09ce7f436393f14a958a9", "is_disabled": 0, "is_reserved": 0}, {"rental_uris": {"ios": "https://dc.lft.to/lastmile_qr_scan", "android": "https://dc.lft.to/lastmile_qr_scan"}, "lon": -77.04121733333334, "type": "electric_scooter", "fusion_lat": 0.0, "lat": 38.93336716666666, "name": "50203aa9f4c0676dfe1bbe53fa228131", "fusion_lon": 0.0, "bike_id": "50203aa9f4c0676dfe1bbe53fa228131", "is_disabled": 0, "is_reserved": 0}, {"rental_uris": {"ios": "https://dc.lft.to/lastmile_qr_scan", "android": "https://dc.lft.to/lastmile_qr_scan"}, "lon": -77.0598175, "type": "electric_scooter", "fusion_lat": 0.0, "lat": 38.93551466666667, "name": "4e2fdd97cb56fb628fc9ebba3df4e583", "fusion_lon": 0.0, "bike_id": "4e2fdd97cb56fb628fc9ebba3df4e583", "is_disabled": 0, "is_reserved": 0}, {"rental_uris": {"ios": "https://dc.lft.to/lastmile_qr_scan", "android": "https://dc.lft.to/lastmile_qr_scan"}, "lon": -77.015135, "type": "electric_scooter", "fusion_lat": 0.0, "lat": 38.88735766666667, "name": "57bb87b00f2b42b01f15a354e412b4c6", "fusion_lon": 0.0, "bike_id": "57bb87b00f2b42b01f15a354e412b4c6", "is_disabled": 0, "is_reserved": 0}, {"rental_uris": {"ios": "https://dc.lft.to/lastmile_qr_scan", "android": "https://dc.lft.to/lastmile_qr_scan"}, "lon": -77.0269645, "type": "electric_scooter", "fusion_lat": 0.0, "lat": 38.916325666666665, "name": "28696f0b7c845ed03fe0ffbf21f2eac5", "fusion_lon": 0.0, "bike_id": "28696f0b7c845ed03fe0ffbf21f2eac5", "is_disabled": 0, "is_reserved": 0}, {"rental_uris": {"ios": "https://dc.lft.to/lastmile_qr_scan", "android": "https://dc.lft.to/lastmile_qr_scan"}, "lon": -77.04242583333334, "type": "electric_scooter", "fusion_lat": 0.0, "lat": 38.90936166666667, "name": "c23ed0ecceac351db168c5a5b7a77e72", "fusion_lon": 0.0, "bike_id": "c23ed0ecceac351db168c5a5b7a77e72", "is_disabled": 0, "is_reserved": 0}, {"rental_uris": {"ios": "https://dc.lft.to/lastmile_qr_scan", "android": "https://dc.lft.to/lastmile_qr_scan"}, "lon": -77.032061, "type": "electric_scooter", "fusion_lat": 0.0, "lat": 38.9003105, "name": "429f536ac332eb1791ccce6523d7b708", "fusion_lon": 0.0, "bike_id": "429f536ac332eb1791ccce6523d7b708", "is_disabled": 0, "is_reserved": 0}, {"rental_uris": {"ios": "https://dc.lft.to/lastmile_qr_scan", "android": "https://dc.lft.to/lastmile_qr_scan"}, "lon": -76.954667, "type": "electric_bike", "fusion_lat": 0.0, "lat": 38.88641783333333, "name": "bcdd0f7cd979ec95bf6d651afc53783c", "fusion_lon": 0.0, "bike_id": "bcdd0f7cd979ec95bf6d651afc53783c", "is_disabled": 0, "is_reserved": 0}, {"rental_uris": {"ios": "https://dc.lft.to/lastmile_qr_scan", "android": "https://dc.lft.to/lastmile_qr_scan"}, "lon": -77.11801016666666, "type": "electric_bike", "fusion_lat": 0.0, "lat": 38.89836666666667, "name": "f71c12440291bc093ef4ee0f70dba16d", "fusion_lon": 0.0, "bike_id": "f71c12440291bc093ef4ee0f70dba16d", "is_disabled": 0, "is_reserved": 0}, {"rental_uris": {"ios": "https://dc.lft.to/lastmile_qr_scan", "android": "https://dc.lft.to/lastmile_qr_scan"}, "lon": -76.98790266666667, "type": "electric_bike", "fusion_lat": 0.0, "lat": 38.90416066666667, "name": "e73b452885d907353344617da73d05e6", "fusion_lon": 0.0, "bike_id": "e73b452885d907353344617da73d05e6", "is_disabled": 0, "is_reserved": 0}, {"rental_uris": {"ios": "https://dc.lft.to/lastmile_qr_scan", "android": "https://dc.lft.to/lastmile_qr_scan"}, "lon": -76.97454966666666, "type": "electric_scooter", "fusion_lat": 0.0, "lat": 38.865408, "name": "06b4e2a1910a6c25f3fdde071ca6bf58", "fusion_lon": 0.0, "bike_id": "06b4e2a1910a6c25f3fdde071ca6bf58", "is_disabled": 0, "is_reserved": 0}, {"rental_uris": {"ios": "https://dc.lft.to/lastmile_qr_scan", "android": "https://dc.lft.to/lastmile_qr_scan"}, "lon": -77.03214766666666, "type": "electric_scooter", "fusion_lat": 0.0, "lat": 38.91247383333334, "name": "1859e139146d6281ab6adfe9a2f48205", "fusion_lon": 0.0, "bike_id": "1859e139146d6281ab6adfe9a2f48205", "is_disabled": 0, "is_reserved": 0}, {"rental_uris": {"ios": "https://dc.lft.to/lastmile_qr_scan", "android": "https://dc.lft.to/lastmile_qr_scan"}, "lon": -77.0461745, "type": "electric_bike", "fusion_lat": 0.0, "lat": 38.99911516666667, "name": "d1a8bb1ccffedc7fa72fadba8edd9a70", "fusion_lon": 0.0, "bike_id": "d1a8bb1ccffedc7fa72fadba8edd9a70", "is_disabled": 0, "is_reserved": 0}, {"rental_uris": {"ios": "https://dc.lft.to/lastmile_qr_scan", "android": "https://dc.lft.to/lastmile_qr_scan"}, "lon": -77.035752, "type": "electric_scooter", "fusion_lat": 0.0, "lat": 38.93390516666667, "name": "13d865d4b0b32d50eb40945fa0d227b3", "fusion_lon": 0.0, "bike_id": "13d865d4b0b32d50eb40945fa0d227b3", "is_disabled": 0, "is_reserved": 0}, {"rental_uris": {"ios": "https://dc.lft.to/lastmile_qr_scan", "android": "https://dc.lft.to/lastmile_qr_scan"}, "lon": -77.000682, "type": "electric_scooter", "fusion_lat": 0.0, "lat": 38.920586166666666, "name": "992d4ebb6ddfb4194a6c2a464949263a", "fusion_lon": 0.0, "bike_id": "992d4ebb6ddfb4194a6c2a464949263a", "is_disabled": 0, "is_reserved": 0}, {"rental_uris": {"ios": "https://dc.lft.to/lastmile_qr_scan", "android": "https://dc.lft.to/lastmile_qr_scan"}, "lon": -77.09621266666667, "type": "electric_bike", "fusion_lat": 0.0, "lat": 38.84573116666667, "name": "aab9a035cfb286b5ada3f1f91cba28b6", "fusion_lon": 0.0, "bike_id": "aab9a035cfb286b5ada3f1f91cba28b6", "is_disabled": 0, "is_reserved": 0}, {"rental_uris": {"ios": "https://dc.lft.to/lastmile_qr_scan", "android": "https://dc.lft.to/lastmile_qr_scan"}, "lon": -77.03266266666667, "type": "electric_scooter", "fusion_lat": 0.0, "lat": 38.93526933333333, "name": "1b3c69862cc6c8803b988943545be44e", "fusion_lon": 0.0, "bike_id": "1b3c69862cc6c8803b988943545be44e", "is_disabled": 0, "is_reserved": 0}, {"rental_uris": {"ios": "https://dc.lft.to/lastmile_qr_scan", "android": "https://dc.lft.to/lastmile_qr_scan"}, "lon": -77.06470916666666, "type": "electric_bike", "fusion_lat": 0.0, "lat": 38.9738245, "name": "d73e6f4785543a9cf1614f34c5672bb0", "fusion_lon": 0.0, "bike_id": "d73e6f4785543a9cf1614f34c5672bb0", "is_disabled": 0, "is_reserved": 0}, {"rental_uris": {"ios": "https://dc.lft.to/lastmile_qr_scan", "android": "https://dc.lft.to/lastmile_qr_scan"}, "lon": -77.038234, "type": "electric_scooter", "fusion_lat": 0.0, "lat": 38.93114966666667, "name": "bb4d556db192acbba86a517e0ff5067e", "fusion_lon": 0.0, "bike_id": "bb4d556db192acbba86a517e0ff5067e", "is_disabled": 0, "is_reserved": 0}, {"rental_uris": {"ios": "https://dc.lft.to/lastmile_qr_scan", "android": "https://dc.lft.to/lastmile_qr_scan"}, "lon": -77.043637, "type": "electric_scooter", "fusion_lat": 0.0, "lat": 38.901212666666666, "name": "0bb5bcc142bb6d9000380df435381636", "fusion_lon": 0.0, "bike_id": "0bb5bcc142bb6d9000380df435381636", "is_disabled": 0, "is_reserved": 0}, {"rental_uris": {"ios": "https://dc.lft.to/lastmile_qr_scan", "android": "https://dc.lft.to/lastmile_qr_scan"}, "lon": -77.03974883333333, "type": "electric_scooter", "fusion_lat": 0.0, "lat": 38.89884266666667, "name": "ba4d446ac7b74a9087f62681806aa038", "fusion_lon": 0.0, "bike_id": "ba4d446ac7b74a9087f62681806aa038", "is_disabled": 0, "is_reserved": 0}, {"rental_uris": {"ios": "https://dc.lft.to/lastmile_qr_scan", "android": "https://dc.lft.to/lastmile_qr_scan"}, "lon": -76.9917775, "type": "electric_scooter", "fusion_lat": 0.0, "lat": 38.904558333333334, "name": "35da093883508d4816210d15091f2aec", "fusion_lon": 0.0, "bike_id": "35da093883508d4816210d15091f2aec", "is_disabled": 0, "is_reserved": 0}, {"rental_uris": {"ios": "https://dc.lft.to/lastmile_qr_scan", "android": "https://dc.lft.to/lastmile_qr_scan"}, "lon": -77.1122195, "type": "electric_bike", "fusion_lat": 0.0, "lat": 38.828721333333334, "name": "f5d4b08004f1465f1185c80a8dc2fb05", "fusion_lon": 0.0, "bike_id": "f5d4b08004f1465f1185c80a8dc2fb05", "is_disabled": 0, "is_reserved": 0}, {"rental_uris": {"ios": "https://dc.lft.to/lastmile_qr_scan", "android": "https://dc.lft.to/lastmile_qr_scan"}, "lon": -77.05378633333333, "type": "electric_scooter", "fusion_lat": 0.0, "lat": 38.89079683333333, "name": "ba629063879e489d6ddcb15f321dcc1f", "fusion_lon": 0.0, "bike_id": "ba629063879e489d6ddcb15f321dcc1f", "is_disabled": 0, "is_reserved": 0}, {"rental_uris": {"ios": "https://dc.lft.to/lastmile_qr_scan", "android": "https://dc.lft.to/lastmile_qr_scan"}, "lon": -76.87493466666666, "type": "electric_bike", "fusion_lat": 0.0, "lat": 38.990908833333336, "name": "ef9094f42cc4195bc0b2ec4d82ae7386", "fusion_lon": 0.0, "bike_id": "ef9094f42cc4195bc0b2ec4d82ae7386", "is_disabled": 0, "is_reserved": 0}, {"rental_uris": {"ios": "https://dc.lft.to/lastmile_qr_scan", "android": "https://dc.lft.to/lastmile_qr_scan"}, "lon": -77.0273775, "type": "electric_scooter", "fusion_lat": 0.0, "lat": 38.881571666666666, "name": "11f7a91f9e74260b64937c39c9fb2dce", "fusion_lon": 0.0, "bike_id": "11f7a91f9e74260b64937c39c9fb2dce", "is_disabled": 0, "is_reserved": 0}, {"rental_uris": {"ios": "https://dc.lft.to/lastmile_qr_scan", "android": "https://dc.lft.to/lastmile_qr_scan"}, "lon": -77.04959966666667, "type": "electric_scooter", "fusion_lat": 0.0, "lat": 38.915970333333334, "name": "587929d848e75b9034324d124ca5275c", "fusion_lon": 0.0, "bike_id": "587929d848e75b9034324d124ca5275c", "is_disabled": 0, "is_reserved": 0}, {"rental_uris": {"ios": "https://dc.lft.to/lastmile_qr_scan", "android": "https://dc.lft.to/lastmile_qr_scan"}, "lon": -77.02153133333333, "type": "electric_scooter", "fusion_lat": 0.0, "lat": 38.926055166666664, "name": "57a7c34cca63409abf9b2ed85d30aee5", "fusion_lon": 0.0, "bike_id": "57a7c34cca63409abf9b2ed85d30aee5", "is_disabled": 0, "is_reserved": 0}, {"rental_uris": {"ios": "https://dc.lft.to/lastmile_qr_scan", "android": "https://dc.lft.to/lastmile_qr_scan"}, "lon": -77.02479433333333, "type": "electric_scooter", "fusion_lat": 0.0, "lat": 38.938121833333334, "name": "a54cb638cee17337ff74c06dde277dd0", "fusion_lon": 0.0, "bike_id": "a54cb638cee17337ff74c06dde277dd0", "is_disabled": 0, "is_reserved": 0}, {"rental_uris": {"ios": "https://dc.lft.to/lastmile_qr_scan", "android": "https://dc.lft.to/lastmile_qr_scan"}, "lon": -77.00206766666666, "type": "electric_scooter", "fusion_lat": 0.0, "lat": 38.900290166666665, "name": "79d6b6095d5287cf248fcc162365ea5e", "fusion_lon": 0.0, "bike_id": "79d6b6095d5287cf248fcc162365ea5e", "is_disabled": 0, "is_reserved": 0}, {"rental_uris": {"ios": "https://dc.lft.to/lastmile_qr_scan", "android": "https://dc.lft.to/lastmile_qr_scan"}, "lon": -77.00587816666666, "type": "electric_scooter", "fusion_lat": 0.0, "lat": 38.91564233333333, "name": "d097e0382c41f48f664d3f320d02a656", "fusion_lon": 0.0, "bike_id": "d097e0382c41f48f664d3f320d02a656", "is_disabled": 0, "is_reserved": 0}, {"rental_uris": {"ios": "https://dc.lft.to/lastmile_qr_scan", "android": "https://dc.lft.to/lastmile_qr_scan"}, "lon": -77.00097016666666, "type": "electric_scooter", "fusion_lat": 0.0, "lat": 38.907634, "name": "a484e2498ddffff070e030cc38582688", "fusion_lon": 0.0, "bike_id": "a484e2498ddffff070e030cc38582688", "is_disabled": 0, "is_reserved": 0}, {"rental_uris": {"ios": "https://dc.lft.to/lastmile_qr_scan", "android": "https://dc.lft.to/lastmile_qr_scan"}, "lon": -77.04688683333333, "type": "electric_scooter", "fusion_lat": 0.0, "lat": 38.897420833333335, "name": "7f9a78221452a10b6847906a4a3ab2ca", "fusion_lon": 0.0, "bike_id": "7f9a78221452a10b6847906a4a3ab2ca", "is_disabled": 0, "is_reserved": 0}, {"rental_uris": {"ios": "https://dc.lft.to/lastmile_qr_scan", "android": "https://dc.lft.to/lastmile_qr_scan"}, "lon": -77.02467816666666, "type": "electric_scooter", "fusion_lat": 0.0, "lat": 38.93103333333333, "name": "79dc4fcfd41de8c97a6a2f1a87f8c284", "fusion_lon": 0.0, "bike_id": "79dc4fcfd41de8c97a6a2f1a87f8c284", "is_disabled": 0, "is_reserved": 0}, {"rental_uris": {"ios": "https://dc.lft.to/lastmile_qr_scan", "android": "https://dc.lft.to/lastmile_qr_scan"}, "lon": -77.038746, "type": "electric_scooter", "fusion_lat": 0.0, "lat": 38.902781, "name": "4c85d693b1fbdeed2de8bb3baa661957", "fusion_lon": 0.0, "bike_id": "4c85d693b1fbdeed2de8bb3baa661957", "is_disabled": 0, "is_reserved": 0}, {"rental_uris": {"ios": "https://dc.lft.to/lastmile_qr_scan", "android": "https://dc.lft.to/lastmile_qr_scan"}, "lon": -77.0451555, "type": "electric_scooter", "fusion_lat": 0.0, "lat": 38.91289733333333, "name": "09fb3685adcd6ce472ed3d029c12e384", "fusion_lon": 0.0, "bike_id": "09fb3685adcd6ce472ed3d029c12e384", "is_disabled": 0, "is_reserved": 0}, {"rental_uris": {"ios": "https://dc.lft.to/lastmile_qr_scan", "android": "https://dc.lft.to/lastmile_qr_scan"}, "lon": -77.01356633333333, "type": "electric_scooter", "fusion_lat": 0.0, "lat": 38.89570466666667, "name": "447c0516bfb59dc62a8bc33e1d2c4bee", "fusion_lon": 0.0, "bike_id": "447c0516bfb59dc62a8bc33e1d2c4bee", "is_disabled": 0, "is_reserved": 0}, {"rental_uris": {"ios": "https://dc.lft.to/lastmile_qr_scan", "android": "https://dc.lft.to/lastmile_qr_scan"}, "lon": -77.024754, "type": "electric_scooter", "fusion_lat": 0.0, "lat": 38.938569333333334, "name": "8b0810ee5c5b7f260c4aab0f81850992", "fusion_lon": 0.0, "bike_id": "8b0810ee5c5b7f260c4aab0f81850992", "is_disabled": 0, "is_reserved": 0}, {"rental_uris": {"ios": "https://dc.lft.to/lastmile_qr_scan", "android": "https://dc.lft.to/lastmile_qr_scan"}, "lon": -77.02649216666667, "type": "electric_scooter", "fusion_lat": 0.0, "lat": 38.90561866666667, "name": "7048e3247e36c2a29499ae200fa0a015", "fusion_lon": 0.0, "bike_id": "7048e3247e36c2a29499ae200fa0a015", "is_disabled": 0, "is_reserved": 0}, {"rental_uris": {"ios": "https://dc.lft.to/lastmile_qr_scan", "android": "https://dc.lft.to/lastmile_qr_scan"}, "lon": -77.02760766666667, "type": "electric_scooter", "fusion_lat": 0.0, "lat": 38.9155175, "name": "8645b0399de8d80e25f6df3e350ec92f", "fusion_lon": 0.0, "bike_id": "8645b0399de8d80e25f6df3e350ec92f", "is_disabled": 0, "is_reserved": 0}, {"rental_uris": {"ios": "https://dc.lft.to/lastmile_qr_scan", "android": "https://dc.lft.to/lastmile_qr_scan"}, "lon": -77.12497683333333, "type": "electric_bike", "fusion_lat": 0.0, "lat": 39.024189666666665, "name": "b2656bbbb3db56ed139f481eb304c13e", "fusion_lon": 0.0, "bike_id": "b2656bbbb3db56ed139f481eb304c13e", "is_disabled": 0, "is_reserved": 0}, {"rental_uris": {"ios": "https://dc.lft.to/lastmile_qr_scan", "android": "https://dc.lft.to/lastmile_qr_scan"}, "lon": -77.03845483333333, "type": "electric_scooter", "fusion_lat": 0.0, "lat": 38.91661083333334, "name": "759292634ec87ab62c14ace5ce8916a1", "fusion_lon": 0.0, "bike_id": "759292634ec87ab62c14ace5ce8916a1", "is_disabled": 0, "is_reserved": 0}, {"rental_uris": {"ios": "https://dc.lft.to/lastmile_qr_scan", "android": "https://dc.lft.to/lastmile_qr_scan"}, "lon": -77.04151283333333, "type": "electric_scooter", "fusion_lat": 0.0, "lat": 38.912002333333334, "name": "8e0b682469f3a65a45dbb1546c6020af", "fusion_lon": 0.0, "bike_id": "8e0b682469f3a65a45dbb1546c6020af", "is_disabled": 0, "is_reserved": 0}, {"rental_uris": {"ios": "https://dc.lft.to/lastmile_qr_scan", "android": "https://dc.lft.to/lastmile_qr_scan"}, "lon": -77.04083283333334, "type": "electric_scooter", "fusion_lat": 0.0, "lat": 38.90582, "name": "7b8a47a0cdbe3f5858c1a70e0e6a25c8", "fusion_lon": 0.0, "bike_id": "7b8a47a0cdbe3f5858c1a70e0e6a25c8", "is_disabled": 0, "is_reserved": 0}, {"rental_uris": {"ios": "https://dc.lft.to/lastmile_qr_scan", "android": "https://dc.lft.to/lastmile_qr_scan"}, "lon": -77.0143545, "type": "electric_scooter", "fusion_lat": 0.0, "lat": 38.92990133333333, "name": "97517f83eef40e74c552ac00f8e6d841", "fusion_lon": 0.0, "bike_id": "97517f83eef40e74c552ac00f8e6d841", "is_disabled": 0, "is_reserved": 0}, {"rental_uris": {"ios": "https://dc.lft.to/lastmile_qr_scan", "android": "https://dc.lft.to/lastmile_qr_scan"}, "lon": -77.04836216666666, "type": "electric_scooter", "fusion_lat": 0.0, "lat": 38.903848333333336, "name": "aa294b9beeb219182075a95711a18693", "fusion_lon": 0.0, "bike_id": "aa294b9beeb219182075a95711a18693", "is_disabled": 0, "is_reserved": 0}, {"rental_uris": {"ios": "https://dc.lft.to/lastmile_qr_scan", "android": "https://dc.lft.to/lastmile_qr_scan"}, "lon": -77.0134745, "type": "electric_scooter", "fusion_lat": 0.0, "lat": 38.919326833333336, "name": "c69f0a707aecebb8dd54e64c4cab8731", "fusion_lon": 0.0, "bike_id": "c69f0a707aecebb8dd54e64c4cab8731", "is_disabled": 0, "is_reserved": 0}, {"rental_uris": {"ios": "https://dc.lft.to/lastmile_qr_scan", "android": "https://dc.lft.to/lastmile_qr_scan"}, "lon": -77.04219766666667, "type": "electric_scooter", "fusion_lat": 0.0, "lat": 38.9209725, "name": "059ca7f1da9bfe63e4e97c9a97ebc8ac", "fusion_lon": 0.0, "bike_id": "059ca7f1da9bfe63e4e97c9a97ebc8ac", "is_disabled": 0, "is_reserved": 0}, {"rental_uris": {"ios": "https://dc.lft.to/lastmile_qr_scan", "android": "https://dc.lft.to/lastmile_qr_scan"}, "lon": -76.99493533333333, "type": "electric_scooter", "fusion_lat": 0.0, "lat": 38.86244033333333, "name": "08ee7c8ad0405f998be7a8479025b8b0", "fusion_lon": 0.0, "bike_id": "08ee7c8ad0405f998be7a8479025b8b0", "is_disabled": 0, "is_reserved": 0}, {"rental_uris": {"ios": "https://dc.lft.to/lastmile_qr_scan", "android": "https://dc.lft.to/lastmile_qr_scan"}, "lon": -77.03969616666667, "type": "electric_scooter", "fusion_lat": 0.0, "lat": 38.89885316666667, "name": "ac063ac40d39181f292cc2eedd78386b", "fusion_lon": 0.0, "bike_id": "ac063ac40d39181f292cc2eedd78386b", "is_disabled": 0, "is_reserved": 0}, {"rental_uris": {"ios": "https://dc.lft.to/lastmile_qr_scan", "android": "https://dc.lft.to/lastmile_qr_scan"}, "lon": -76.93174883333333, "type": "electric_scooter", "fusion_lat": 0.0, "lat": 38.89884816666667, "name": "58cb3a84f22e369b36e561b1879dcd49", "fusion_lon": 0.0, "bike_id": "58cb3a84f22e369b36e561b1879dcd49", "is_disabled": 0, "is_reserved": 0}, {"rental_uris": {"ios": "https://dc.lft.to/lastmile_qr_scan", "android": "https://dc.lft.to/lastmile_qr_scan"}, "lon": -77.0366445, "type": "electric_scooter", "fusion_lat": 0.0, "lat": 38.918144, "name": "d7e73d41ce38f3f6744e279de10cd49d", "fusion_lon": 0.0, "bike_id": "d7e73d41ce38f3f6744e279de10cd49d", "is_disabled": 0, "is_reserved": 0}, {"rental_uris": {"ios": "https://dc.lft.to/lastmile_qr_scan", "android": "https://dc.lft.to/lastmile_qr_scan"}, "lon": -77.03604333333334, "type": "electric_scooter", "fusion_lat": 0.0, "lat": 38.92859033333333, "name": "c6c76927fe015177ef176e5123479f57", "fusion_lon": 0.0, "bike_id": "c6c76927fe015177ef176e5123479f57", "is_disabled": 0, "is_reserved": 0}, {"rental_uris": {"ios": "https://dc.lft.to/lastmile_qr_scan", "android": "https://dc.lft.to/lastmile_qr_scan"}, "lon": -77.112827, "type": "electric_bike", "fusion_lat": 0.0, "lat": 38.85626666666667, "name": "64797a883290dafb3e43057ae339d628", "fusion_lon": 0.0, "bike_id": "64797a883290dafb3e43057ae339d628", "is_disabled": 0, "is_reserved": 0}, {"rental_uris": {"ios": "https://dc.lft.to/lastmile_qr_scan", "android": "https://dc.lft.to/lastmile_qr_scan"}, "lon": -77.02978616666667, "type": "electric_scooter", "fusion_lat": 0.0, "lat": 38.94602883333334, "name": "358f34eb62747aaf94ef6beb78fa00cf", "fusion_lon": 0.0, "bike_id": "358f34eb62747aaf94ef6beb78fa00cf", "is_disabled": 0, "is_reserved": 0}, {"rental_uris": {"ios": "https://dc.lft.to/lastmile_qr_scan", "android": "https://dc.lft.to/lastmile_qr_scan"}, "lon": -77.002014, "type": "electric_scooter", "fusion_lat": 0.0, "lat": 38.90034816666667, "name": "e68eb58c3dfa255fa7f5accd590a4419", "fusion_lon": 0.0, "bike_id": "e68eb58c3dfa255fa7f5accd590a4419", "is_disabled": 0, "is_reserved": 0}, {"rental_uris": {"ios": "https://dc.lft.to/lastmile_qr_scan", "android": "https://dc.lft.to/lastmile_qr_scan"}, "lon": -77.03279666666667, "type": "electric_scooter", "fusion_lat": 0.0, "lat": 38.92944716666667, "name": "04493962f95c08544bfc847daf3abab8", "fusion_lon": 0.0, "bike_id": "04493962f95c08544bfc847daf3abab8", "is_disabled": 0, "is_reserved": 0}, {"rental_uris": {"ios": "https://dc.lft.to/lastmile_qr_scan", "android": "https://dc.lft.to/lastmile_qr_scan"}, "lon": -77.113132, "type": "electric_bike", "fusion_lat": 0.0, "lat": 38.855644, "name": "6f3acc553c754fef9f30e95bdb2a9159", "fusion_lon": 0.0, "bike_id": "6f3acc553c754fef9f30e95bdb2a9159", "is_disabled": 0, "is_reserved": 0}, {"rental_uris": {"ios": "https://dc.lft.to/lastmile_qr_scan", "android": "https://dc.lft.to/lastmile_qr_scan"}, "lon": -77.0106225, "type": "electric_scooter", "fusion_lat": 0.0, "lat": 38.875808166666665, "name": "dcca492afce9b73bcbc153d9d3455085", "fusion_lon": 0.0, "bike_id": "dcca492afce9b73bcbc153d9d3455085", "is_disabled": 0, "is_reserved": 0}, {"rental_uris": {"ios": "https://dc.lft.to/lastmile_qr_scan", "android": "https://dc.lft.to/lastmile_qr_scan"}, "lon": -77.019598, "type": "electric_scooter", "fusion_lat": 0.0, "lat": 38.886175, "name": "9983d59cc412799397ace32ce69716f0", "fusion_lon": 0.0, "bike_id": "9983d59cc412799397ace32ce69716f0", "is_disabled": 0, "is_reserved": 0}, {"rental_uris": {"ios": "https://dc.lft.to/lastmile_qr_scan", "android": "https://dc.lft.to/lastmile_qr_scan"}, "lon": -76.99594716666667, "type": "electric_scooter", "fusion_lat": 0.0, "lat": 38.88430366666667, "name": "5bbeb7baef72ff17c4bedcb200a46af7", "fusion_lon": 0.0, "bike_id": "5bbeb7baef72ff17c4bedcb200a46af7", "is_disabled": 0, "is_reserved": 0}, {"rental_uris": {"ios": "https://dc.lft.to/lastmile_qr_scan", "android": "https://dc.lft.to/lastmile_qr_scan"}, "lon": -77.03218733333334, "type": "electric_scooter", "fusion_lat": 0.0, "lat": 38.892228, "name": "7563947311669ac4ceacbe22383be069", "fusion_lon": 0.0, "bike_id": "7563947311669ac4ceacbe22383be069", "is_disabled": 0, "is_reserved": 0}, {"rental_uris": {"ios": "https://dc.lft.to/lastmile_qr_scan", "android": "https://dc.lft.to/lastmile_qr_scan"}, "lon": -77.02659866666667, "type": "electric_scooter", "fusion_lat": 0.0, "lat": 38.89600983333333, "name": "387f05e0db2e4a353692a9e62ddcfe8d", "fusion_lon": 0.0, "bike_id": "387f05e0db2e4a353692a9e62ddcfe8d", "is_disabled": 0, "is_reserved": 0}, {"rental_uris": {"ios": "https://dc.lft.to/lastmile_qr_scan", "android": "https://dc.lft.to/lastmile_qr_scan"}, "lon": -77.03223816666667, "type": "electric_scooter", "fusion_lat": 0.0, "lat": 38.90868716666667, "name": "e5866eba50de847f28ff645ec720954f", "fusion_lon": 0.0, "bike_id": "e5866eba50de847f28ff645ec720954f", "is_disabled": 0, "is_reserved": 0}, {"rental_uris": {"ios": "https://dc.lft.to/lastmile_qr_scan", "android": "https://dc.lft.to/lastmile_qr_scan"}, "lon": -77.070875, "type": "electric_bike", "fusion_lat": 0.0, "lat": 38.955592833333334, "name": "70bd658d8907fd7388c99ea58ff46c14", "fusion_lon": 0.0, "bike_id": "70bd658d8907fd7388c99ea58ff46c14", "is_disabled": 0, "is_reserved": 0}, {"rental_uris": {"ios": "https://dc.lft.to/lastmile_qr_scan", "android": "https://dc.lft.to/lastmile_qr_scan"}, "lon": -77.10589083333333, "type": "electric_bike", "fusion_lat": 0.0, "lat": 38.885367, "name": "1860d8c87a58d97f02cd7d921220063e", "fusion_lon": 0.0, "bike_id": "1860d8c87a58d97f02cd7d921220063e", "is_disabled": 0, "is_reserved": 0}, {"rental_uris": {"ios": "https://dc.lft.to/lastmile_qr_scan", "android": "https://dc.lft.to/lastmile_qr_scan"}, "lon": -77.03010433333333, "type": "electric_scooter", "fusion_lat": 0.0, "lat": 38.91261816666667, "name": "3674810651f8566886defe1a54a9bc8a", "fusion_lon": 0.0, "bike_id": "3674810651f8566886defe1a54a9bc8a", "is_disabled": 0, "is_reserved": 0}, {"rental_uris": {"ios": "https://dc.lft.to/lastmile_qr_scan", "android": "https://dc.lft.to/lastmile_qr_scan"}, "lon": -77.01606816666667, "type": "electric_scooter", "fusion_lat": 0.0, "lat": 38.9003635, "name": "b89b3955f053f518d913a35caabcc8b4", "fusion_lon": 0.0, "bike_id": "b89b3955f053f518d913a35caabcc8b4", "is_disabled": 0, "is_reserved": 0}, {"rental_uris": {"ios": "https://dc.lft.to/lastmile_qr_scan", "android": "https://dc.lft.to/lastmile_qr_scan"}, "lon": -76.9888755, "type": "electric_scooter", "fusion_lat": 0.0, "lat": 38.86658416666667, "name": "c7db1d0da3605083adf387f44d2ac8f7", "fusion_lon": 0.0, "bike_id": "c7db1d0da3605083adf387f44d2ac8f7", "is_disabled": 0, "is_reserved": 0}, {"rental_uris": {"ios": "https://dc.lft.to/lastmile_qr_scan", "android": "https://dc.lft.to/lastmile_qr_scan"}, "lon": -77.038286, "type": "electric_scooter", "fusion_lat": 0.0, "lat": 38.93121383333333, "name": "99501bd8a96e4bf299a4c1e21b951568", "fusion_lon": 0.0, "bike_id": "99501bd8a96e4bf299a4c1e21b951568", "is_disabled": 0, "is_reserved": 0}, {"rental_uris": {"ios": "https://dc.lft.to/lastmile_qr_scan", "android": "https://dc.lft.to/lastmile_qr_scan"}, "lon": -76.9317375, "type": "electric_scooter", "fusion_lat": 0.0, "lat": 38.898858, "name": "0182a2faacd08ac71bdd90b7c9a7ab4b", "fusion_lon": 0.0, "bike_id": "0182a2faacd08ac71bdd90b7c9a7ab4b", "is_disabled": 0, "is_reserved": 0}, {"rental_uris": {"ios": "https://dc.lft.to/lastmile_qr_scan", "android": "https://dc.lft.to/lastmile_qr_scan"}, "lon": -77.02118033333333, "type": "electric_bike", "fusion_lat": 0.0, "lat": 38.9370175, "name": "701c073330b3c57099a48d3d47187924", "fusion_lon": 0.0, "bike_id": "701c073330b3c57099a48d3d47187924", "is_disabled": 0, "is_reserved": 0}, {"rental_uris": {"ios": "https://dc.lft.to/lastmile_qr_scan", "android": "https://dc.lft.to/lastmile_qr_scan"}, "lon": -77.032043, "type": "electric_scooter", "fusion_lat": 0.0, "lat": 38.911053, "name": "003f9def364877342e468bdd5cf84faf", "fusion_lon": 0.0, "bike_id": "003f9def364877342e468bdd5cf84faf", "is_disabled": 0, "is_reserved": 0}, {"rental_uris": {"ios": "https://dc.lft.to/lastmile_qr_scan", "android": "https://dc.lft.to/lastmile_qr_scan"}, "lon": -77.01183433333334, "type": "electric_scooter", "fusion_lat": 0.0, "lat": 38.911081833333334, "name": "fc4c6ffdf262a0fbe59aec0ad04cdb2d", "fusion_lon": 0.0, "bike_id": "fc4c6ffdf262a0fbe59aec0ad04cdb2d", "is_disabled": 0, "is_reserved": 0}, {"rental_uris": {"ios": "https://dc.lft.to/lastmile_qr_scan", "android": "https://dc.lft.to/lastmile_qr_scan"}, "lon": -77.03341016666667, "type": "electric_scooter", "fusion_lat": 0.0, "lat": 38.89745583333333, "name": "d53f1304453406afd5507883b3bf5368", "fusion_lon": 0.0, "bike_id": "d53f1304453406afd5507883b3bf5368", "is_disabled": 0, "is_reserved": 0}, {"rental_uris": {"ios": "https://dc.lft.to/lastmile_qr_scan", "android": "https://dc.lft.to/lastmile_qr_scan"}, "lon": -77.03249316666667, "type": "electric_scooter", "fusion_lat": 0.0, "lat": 38.909727333333336, "name": "02e3e2734edde5210ebedeaf5f823614", "fusion_lon": 0.0, "bike_id": "02e3e2734edde5210ebedeaf5f823614", "is_disabled": 0, "is_reserved": 0}, {"rental_uris": {"ios": "https://dc.lft.to/lastmile_qr_scan", "android": "https://dc.lft.to/lastmile_qr_scan"}, "lon": -76.96522033333333, "type": "electric_bike", "fusion_lat": 0.0, "lat": 38.874794666666666, "name": "0e036b1077340d11f64634a3d086a4ca", "fusion_lon": 0.0, "bike_id": "0e036b1077340d11f64634a3d086a4ca", "is_disabled": 0, "is_reserved": 0}, {"rental_uris": {"ios": "https://dc.lft.to/lastmile_qr_scan", "android": "https://dc.lft.to/lastmile_qr_scan"}, "lon": -77.0215575, "type": "electric_scooter", "fusion_lat": 0.0, "lat": 38.942326333333334, "name": "23a38f1159ae565b0a206854bfda460e", "fusion_lon": 0.0, "bike_id": "23a38f1159ae565b0a206854bfda460e", "is_disabled": 0, "is_reserved": 0}, {"rental_uris": {"ios": "https://dc.lft.to/lastmile_qr_scan", "android": "https://dc.lft.to/lastmile_qr_scan"}, "lon": -77.0208535, "type": "electric_scooter", "fusion_lat": 0.0, "lat": 38.892189, "name": "49d5b5f1529665c28b29b222583ee488", "fusion_lon": 0.0, "bike_id": "49d5b5f1529665c28b29b222583ee488", "is_disabled": 0, "is_reserved": 0}, {"rental_uris": {"ios": "https://dc.lft.to/lastmile_qr_scan", "android": "https://dc.lft.to/lastmile_qr_scan"}, "lon": -77.027194, "type": "electric_scooter", "fusion_lat": 0.0, "lat": 38.9110115, "name": "8931a02e74b1684da7607f5c17fdeb8b", "fusion_lon": 0.0, "bike_id": "8931a02e74b1684da7607f5c17fdeb8b", "is_disabled": 0, "is_reserved": 0}, {"rental_uris": {"ios": "https://dc.lft.to/lastmile_qr_scan", "android": "https://dc.lft.to/lastmile_qr_scan"}, "lon": -77.04503166666667, "type": "electric_scooter", "fusion_lat": 0.0, "lat": 38.911899, "name": "54c26f360e6dd828d4f2723791f9ec8d", "fusion_lon": 0.0, "bike_id": "54c26f360e6dd828d4f2723791f9ec8d", "is_disabled": 0, "is_reserved": 0}, {"rental_uris": {"ios": "https://dc.lft.to/lastmile_qr_scan", "android": "https://dc.lft.to/lastmile_qr_scan"}, "lon": -77.02220433333333, "type": "electric_scooter", "fusion_lat": 0.0, "lat": 38.938707666666666, "name": "3016dd85514a137a9172094e4db4cb9e", "fusion_lon": 0.0, "bike_id": "3016dd85514a137a9172094e4db4cb9e", "is_disabled": 0, "is_reserved": 0}, {"rental_uris": {"ios": "https://dc.lft.to/lastmile_qr_scan", "android": "https://dc.lft.to/lastmile_qr_scan"}, "lon": -77.02160133333334, "type": "electric_scooter", "fusion_lat": 0.0, "lat": 38.9260995, "name": "b9a252e6f97e4297d00d66c25909273a", "fusion_lon": 0.0, "bike_id": "b9a252e6f97e4297d00d66c25909273a", "is_disabled": 0, "is_reserved": 0}, {"rental_uris": {"ios": "https://dc.lft.to/lastmile_qr_scan", "android": "https://dc.lft.to/lastmile_qr_scan"}, "lon": -77.0425615, "type": "electric_scooter", "fusion_lat": 0.0, "lat": 38.915928666666666, "name": "f1f34fc84188e60784b8442c5304558d", "fusion_lon": 0.0, "bike_id": "f1f34fc84188e60784b8442c5304558d", "is_disabled": 0, "is_reserved": 0}, {"rental_uris": {"ios": "https://dc.lft.to/lastmile_qr_scan", "android": "https://dc.lft.to/lastmile_qr_scan"}, "lon": -76.98616633333333, "type": "electric_scooter", "fusion_lat": 0.0, "lat": 38.86829483333333, "name": "ab9f326f0759238f62b397bcc4f7f16b", "fusion_lon": 0.0, "bike_id": "ab9f326f0759238f62b397bcc4f7f16b", "is_disabled": 0, "is_reserved": 0}, {"rental_uris": {"ios": "https://dc.lft.to/lastmile_qr_scan", "android": "https://dc.lft.to/lastmile_qr_scan"}, "lon": -76.996235, "type": "electric_scooter", "fusion_lat": 0.0, "lat": 38.92189616666667, "name": "00b58635e22da51e56d211dd97261796", "fusion_lon": 0.0, "bike_id": "00b58635e22da51e56d211dd97261796", "is_disabled": 0, "is_reserved": 0}, {"rental_uris": {"ios": "https://dc.lft.to/lastmile_qr_scan", "android": "https://dc.lft.to/lastmile_qr_scan"}, "lon": -77.03710916666667, "type": "electric_scooter", "fusion_lat": 0.0, "lat": 38.905591, "name": "e61ec7a16820d5cff073dd0e9308f2b3", "fusion_lon": 0.0, "bike_id": "e61ec7a16820d5cff073dd0e9308f2b3", "is_disabled": 0, "is_reserved": 0}, {"rental_uris": {"ios": "https://dc.lft.to/lastmile_qr_scan", "android": "https://dc.lft.to/lastmile_qr_scan"}, "lon": -77.02230533333334, "type": "electric_scooter", "fusion_lat": 0.0, "lat": 38.91425233333333, "name": "1105adec698fce73f350313b1f8973c1", "fusion_lon": 0.0, "bike_id": "1105adec698fce73f350313b1f8973c1", "is_disabled": 0, "is_reserved": 0}, {"rental_uris": {"ios": "https://dc.lft.to/lastmile_qr_scan", "android": "https://dc.lft.to/lastmile_qr_scan"}, "lon": -77.05881283333333, "type": "electric_scooter", "fusion_lat": 0.0, "lat": 38.936350833333336, "name": "4b69ca35e7d27afbfedcb328c8af72e3", "fusion_lon": 0.0, "bike_id": "4b69ca35e7d27afbfedcb328c8af72e3", "is_disabled": 0, "is_reserved": 0}, {"rental_uris": {"ios": "https://dc.lft.to/lastmile_qr_scan", "android": "https://dc.lft.to/lastmile_qr_scan"}, "lon": -77.03227516666666, "type": "electric_scooter", "fusion_lat": 0.0, "lat": 38.91708933333334, "name": "9edb0722faf1c5856526e26781f58789", "fusion_lon": 0.0, "bike_id": "9edb0722faf1c5856526e26781f58789", "is_disabled": 0, "is_reserved": 0}, {"rental_uris": {"ios": "https://dc.lft.to/lastmile_qr_scan", "android": "https://dc.lft.to/lastmile_qr_scan"}, "lon": -77.03640983333334, "type": "electric_scooter", "fusion_lat": 0.0, "lat": 38.90285633333333, "name": "acb498bff897c61ba8daeb0ba8fa4f04", "fusion_lon": 0.0, "bike_id": "acb498bff897c61ba8daeb0ba8fa4f04", "is_disabled": 0, "is_reserved": 0}, {"rental_uris": {"ios": "https://dc.lft.to/lastmile_qr_scan", "android": "https://dc.lft.to/lastmile_qr_scan"}, "lon": -77.0118535, "type": "electric_scooter", "fusion_lat": 0.0, "lat": 38.90025583333333, "name": "41bfa3340c59b03f7c8d6d6da2ba478b", "fusion_lon": 0.0, "bike_id": "41bfa3340c59b03f7c8d6d6da2ba478b", "is_disabled": 0, "is_reserved": 0}, {"rental_uris": {"ios": "https://dc.lft.to/lastmile_qr_scan", "android": "https://dc.lft.to/lastmile_qr_scan"}, "lon": -77.032465, "type": "electric_scooter", "fusion_lat": 0.0, "lat": 38.9277295, "name": "fc37deaddff3d33702918550cb2f92f5", "fusion_lon": 0.0, "bike_id": "fc37deaddff3d33702918550cb2f92f5", "is_disabled": 0, "is_reserved": 0}, {"rental_uris": {"ios": "https://dc.lft.to/lastmile_qr_scan", "android": "https://dc.lft.to/lastmile_qr_scan"}, "lon": -77.00780933333333, "type": "electric_scooter", "fusion_lat": 0.0, "lat": 38.90644066666667, "name": "bcde27b6d66adcbc3b7a252fcb7c4f67", "fusion_lon": 0.0, "bike_id": "bcde27b6d66adcbc3b7a252fcb7c4f67", "is_disabled": 0, "is_reserved": 0}, {"rental_uris": {"ios": "https://dc.lft.to/lastmile_qr_scan", "android": "https://dc.lft.to/lastmile_qr_scan"}, "lon": -77.01432716666666, "type": "electric_scooter", "fusion_lat": 0.0, "lat": 38.90645416666667, "name": "22e0702ba3507f167f3fb3a61dadaf6a", "fusion_lon": 0.0, "bike_id": "22e0702ba3507f167f3fb3a61dadaf6a", "is_disabled": 0, "is_reserved": 0}, {"rental_uris": {"ios": "https://dc.lft.to/lastmile_qr_scan", "android": "https://dc.lft.to/lastmile_qr_scan"}, "lon": -77.035615, "type": "electric_scooter", "fusion_lat": 0.0, "lat": 38.91806416666667, "name": "9138ebdf62b4c475bc77cc0be07f9e12", "fusion_lon": 0.0, "bike_id": "9138ebdf62b4c475bc77cc0be07f9e12", "is_disabled": 0, "is_reserved": 0}, {"rental_uris": {"ios": "https://dc.lft.to/lastmile_qr_scan", "android": "https://dc.lft.to/lastmile_qr_scan"}, "lon": -77.01363583333334, "type": "electric_scooter", "fusion_lat": 0.0, "lat": 38.863702333333336, "name": "471f22260655e18a07032e89f07c9c19", "fusion_lon": 0.0, "bike_id": "471f22260655e18a07032e89f07c9c19", "is_disabled": 0, "is_reserved": 0}, {"rental_uris": {"ios": "https://dc.lft.to/lastmile_qr_scan", "android": "https://dc.lft.to/lastmile_qr_scan"}, "lon": -77.07165766666667, "type": "electric_scooter", "fusion_lat": 0.0, "lat": 38.91455933333334, "name": "4c86d7051dbb342325e58e927d018b47", "fusion_lon": 0.0, "bike_id": "4c86d7051dbb342325e58e927d018b47", "is_disabled": 0, "is_reserved": 0}, {"rental_uris": {"ios": "https://dc.lft.to/lastmile_qr_scan", "android": "https://dc.lft.to/lastmile_qr_scan"}, "lon": -77.06940266666666, "type": "electric_scooter", "fusion_lat": 0.0, "lat": 38.90507433333333, "name": "a18ede6228c26d593890373318dd3ded", "fusion_lon": 0.0, "bike_id": "a18ede6228c26d593890373318dd3ded", "is_disabled": 0, "is_reserved": 0}, {"rental_uris": {"ios": "https://dc.lft.to/lastmile_qr_scan", "android": "https://dc.lft.to/lastmile_qr_scan"}, "lon": -77.042643, "type": "electric_scooter", "fusion_lat": 0.0, "lat": 38.92244383333333, "name": "5dd8a195a18c9da3a7bbe3149f9cd381", "fusion_lon": 0.0, "bike_id": "5dd8a195a18c9da3a7bbe3149f9cd381", "is_disabled": 0, "is_reserved": 0}, {"rental_uris": {"ios": "https://dc.lft.to/lastmile_qr_scan", "android": "https://dc.lft.to/lastmile_qr_scan"}, "lon": -77.04470633333334, "type": "electric_scooter", "fusion_lat": 0.0, "lat": 38.911172666666666, "name": "c0c11b1dd3f4e91708aa7b97f0db0b4f", "fusion_lon": 0.0, "bike_id": "c0c11b1dd3f4e91708aa7b97f0db0b4f", "is_disabled": 0, "is_reserved": 0}, {"rental_uris": {"ios": "https://dc.lft.to/lastmile_qr_scan", "android": "https://dc.lft.to/lastmile_qr_scan"}, "lon": -77.07095733333334, "type": "electric_scooter", "fusion_lat": 0.0, "lat": 38.89911433333333, "name": "6b3ad3d9a76c508538e30dd842c65e70", "fusion_lon": 0.0, "bike_id": "6b3ad3d9a76c508538e30dd842c65e70", "is_disabled": 0, "is_reserved": 0}, {"rental_uris": {"ios": "https://dc.lft.to/lastmile_qr_scan", "android": "https://dc.lft.to/lastmile_qr_scan"}, "lon": -77.05509966666666, "type": "electric_scooter", "fusion_lat": 0.0, "lat": 38.92972366666667, "name": "6acf69c50b56fdb32ab2c6c7c9025898", "fusion_lon": 0.0, "bike_id": "6acf69c50b56fdb32ab2c6c7c9025898", "is_disabled": 0, "is_reserved": 0}, {"rental_uris": {"ios": "https://dc.lft.to/lastmile_qr_scan", "android": "https://dc.lft.to/lastmile_qr_scan"}, "lon": -76.98187933333334, "type": "electric_scooter", "fusion_lat": 0.0, "lat": 38.90393783333333, "name": "c394045696d4b68e08efad6b7252a892", "fusion_lon": 0.0, "bike_id": "c394045696d4b68e08efad6b7252a892", "is_disabled": 0, "is_reserved": 0}, {"rental_uris": {"ios": "https://dc.lft.to/lastmile_qr_scan", "android": "https://dc.lft.to/lastmile_qr_scan"}, "lon": -77.0021235, "type": "electric_scooter", "fusion_lat": 0.0, "lat": 38.897225, "name": "50ba7b5b26aab9a3f5c7a4a2acb5e3ba", "fusion_lon": 0.0, "bike_id": "50ba7b5b26aab9a3f5c7a4a2acb5e3ba", "is_disabled": 0, "is_reserved": 0}, {"rental_uris": {"ios": "https://dc.lft.to/lastmile_qr_scan", "android": "https://dc.lft.to/lastmile_qr_scan"}, "lon": -77.0314095, "type": "electric_scooter", "fusion_lat": 0.0, "lat": 38.911184666666664, "name": "a567705dc941fd7b6cd03e12e9662b5d", "fusion_lon": 0.0, "bike_id": "a567705dc941fd7b6cd03e12e9662b5d", "is_disabled": 0, "is_reserved": 0}, {"rental_uris": {"ios": "https://dc.lft.to/lastmile_qr_scan", "android": "https://dc.lft.to/lastmile_qr_scan"}, "lon": -76.9925905, "type": "electric_scooter", "fusion_lat": 0.0, "lat": 38.91973633333333, "name": "7ef3e78a03be0813ed5c7c5007bb15af", "fusion_lon": 0.0, "bike_id": "7ef3e78a03be0813ed5c7c5007bb15af", "is_disabled": 0, "is_reserved": 0}, {"rental_uris": {"ios": "https://dc.lft.to/lastmile_qr_scan", "android": "https://dc.lft.to/lastmile_qr_scan"}, "lon": -77.0318, "type": "electric_scooter", "fusion_lat": 0.0, "lat": 38.88738016666667, "name": "6dc4efe39846e4205985959a71ad70e5", "fusion_lon": 0.0, "bike_id": "6dc4efe39846e4205985959a71ad70e5", "is_disabled": 0, "is_reserved": 0}, {"rental_uris": {"ios": "https://dc.lft.to/lastmile_qr_scan", "android": "https://dc.lft.to/lastmile_qr_scan"}, "lon": -77.05148783333334, "type": "electric_scooter", "fusion_lat": 0.0, "lat": 38.906246333333335, "name": "d9f4c67bfaac79400e9baff20854bb7b", "fusion_lon": 0.0, "bike_id": "d9f4c67bfaac79400e9baff20854bb7b", "is_disabled": 0, "is_reserved": 0}, {"rental_uris": {"ios": "https://dc.lft.to/lastmile_qr_scan", "android": "https://dc.lft.to/lastmile_qr_scan"}, "lon": -77.11522533333333, "type": "electric_bike", "fusion_lat": 0.0, "lat": 38.85492266666667, "name": "b089bdd52136a69a85901a15359cb187", "fusion_lon": 0.0, "bike_id": "b089bdd52136a69a85901a15359cb187", "is_disabled": 0, "is_reserved": 0}, {"rental_uris": {"ios": "https://dc.lft.to/lastmile_qr_scan", "android": "https://dc.lft.to/lastmile_qr_scan"}, "lon": -77.01662883333333, "type": "electric_scooter", "fusion_lat": 0.0, "lat": 38.90041383333333, "name": "642fe25f176048b0226d62cfd1d35e31", "fusion_lon": 0.0, "bike_id": "642fe25f176048b0226d62cfd1d35e31", "is_disabled": 0, "is_reserved": 0}, {"rental_uris": {"ios": "https://dc.lft.to/lastmile_qr_scan", "android": "https://dc.lft.to/lastmile_qr_scan"}, "lon": -77.0414595, "type": "electric_scooter", "fusion_lat": 0.0, "lat": 38.900203166666664, "name": "40fca3cecfb88e0647a0908265a9fd7d", "fusion_lon": 0.0, "bike_id": "40fca3cecfb88e0647a0908265a9fd7d", "is_disabled": 0, "is_reserved": 0}, {"rental_uris": {"ios": "https://dc.lft.to/lastmile_qr_scan", "android": "https://dc.lft.to/lastmile_qr_scan"}, "lon": -77.03224066666667, "type": "electric_scooter", "fusion_lat": 0.0, "lat": 38.91992166666667, "name": "14f7e7dde758a6d19b32d581d5adc5cd", "fusion_lon": 0.0, "bike_id": "14f7e7dde758a6d19b32d581d5adc5cd", "is_disabled": 0, "is_reserved": 0}, {"rental_uris": {"ios": "https://dc.lft.to/lastmile_qr_scan", "android": "https://dc.lft.to/lastmile_qr_scan"}, "lon": -77.01964666666667, "type": "electric_scooter", "fusion_lat": 0.0, "lat": 38.8861455, "name": "41238ac81f13a4e18c71a2925b7f2dfd", "fusion_lon": 0.0, "bike_id": "41238ac81f13a4e18c71a2925b7f2dfd", "is_disabled": 0, "is_reserved": 0}, {"rental_uris": {"ios": "https://dc.lft.to/lastmile_qr_scan", "android": "https://dc.lft.to/lastmile_qr_scan"}, "lon": -77.01216683333334, "type": "electric_scooter", "fusion_lat": 0.0, "lat": 38.914267333333335, "name": "d7dcde34279f1b46f5dc7805b11478e2", "fusion_lon": 0.0, "bike_id": "d7dcde34279f1b46f5dc7805b11478e2", "is_disabled": 0, "is_reserved": 0}, {"rental_uris": {"ios": "https://dc.lft.to/lastmile_qr_scan", "android": "https://dc.lft.to/lastmile_qr_scan"}, "lon": -77.04898566666667, "type": "electric_scooter", "fusion_lat": 0.0, "lat": 38.89666166666667, "name": "31db9fbfb080f95e87a9309471b1a707", "fusion_lon": 0.0, "bike_id": "31db9fbfb080f95e87a9309471b1a707", "is_disabled": 0, "is_reserved": 0}, {"rental_uris": {"ios": "https://dc.lft.to/lastmile_qr_scan", "android": "https://dc.lft.to/lastmile_qr_scan"}, "lon": -77.021861, "type": "electric_scooter", "fusion_lat": 0.0, "lat": 38.90024833333333, "name": "42f65560927ee66ceb8575c6386d443d", "fusion_lon": 0.0, "bike_id": "42f65560927ee66ceb8575c6386d443d", "is_disabled": 0, "is_reserved": 0}, {"rental_uris": {"ios": "https://dc.lft.to/lastmile_qr_scan", "android": "https://dc.lft.to/lastmile_qr_scan"}, "lon": -77.023864, "type": "electric_scooter", "fusion_lat": 0.0, "lat": 38.92505666666667, "name": "5bee252eef61be3a1531983245725dce", "fusion_lon": 0.0, "bike_id": "5bee252eef61be3a1531983245725dce", "is_disabled": 0, "is_reserved": 0}, {"rental_uris": {"ios": "https://dc.lft.to/lastmile_qr_scan", "android": "https://dc.lft.to/lastmile_qr_scan"}, "lon": -77.03550916666667, "type": "electric_scooter", "fusion_lat": 0.0, "lat": 38.92629933333333, "name": "e93424b9b67ed5a475284b6106094486", "fusion_lon": 0.0, "bike_id": "e93424b9b67ed5a475284b6106094486", "is_disabled": 0, "is_reserved": 0}, {"rental_uris": {"ios": "https://dc.lft.to/lastmile_qr_scan", "android": "https://dc.lft.to/lastmile_qr_scan"}, "lon": -77.03559183333333, "type": "electric_scooter", "fusion_lat": 0.0, "lat": 38.91805183333334, "name": "f1181bcd67ddc01a60c0a3a68d928bad", "fusion_lon": 0.0, "bike_id": "f1181bcd67ddc01a60c0a3a68d928bad", "is_disabled": 0, "is_reserved": 0}, {"rental_uris": {"ios": "https://dc.lft.to/lastmile_qr_scan", "android": "https://dc.lft.to/lastmile_qr_scan"}, "lon": -76.97703, "type": "electric_scooter", "fusion_lat": 0.0, "lat": 38.8971015, "name": "86ef2d697b205a47763b7bbbbf11a3f3", "fusion_lon": 0.0, "bike_id": "86ef2d697b205a47763b7bbbbf11a3f3", "is_disabled": 0, "is_reserved": 0}, {"rental_uris": {"ios": "https://dc.lft.to/lastmile_qr_scan", "android": "https://dc.lft.to/lastmile_qr_scan"}, "lon": -77.03331333333334, "type": "electric_scooter", "fusion_lat": 0.0, "lat": 38.90034433333334, "name": "c0739b7fa93e428910a5d4f49595acd6", "fusion_lon": 0.0, "bike_id": "c0739b7fa93e428910a5d4f49595acd6", "is_disabled": 0, "is_reserved": 0}, {"rental_uris": {"ios": "https://dc.lft.to/lastmile_qr_scan", "android": "https://dc.lft.to/lastmile_qr_scan"}, "lon": -77.0555415, "type": "electric_bike", "fusion_lat": 0.0, "lat": 38.92529066666667, "name": "2a5d6535af80d1a194f8a1f3c1a73969", "fusion_lon": 0.0, "bike_id": "2a5d6535af80d1a194f8a1f3c1a73969", "is_disabled": 0, "is_reserved": 0}, {"rental_uris": {"ios": "https://dc.lft.to/lastmile_qr_scan", "android": "https://dc.lft.to/lastmile_qr_scan"}, "lon": -77.02945566666666, "type": "electric_scooter", "fusion_lat": 0.0, "lat": 38.908434, "name": "cbda0b1e855d890ba6f0b6be98f58c62", "fusion_lon": 0.0, "bike_id": "cbda0b1e855d890ba6f0b6be98f58c62", "is_disabled": 0, "is_reserved": 0}, {"rental_uris": {"ios": "https://dc.lft.to/lastmile_qr_scan", "android": "https://dc.lft.to/lastmile_qr_scan"}, "lon": -77.04860083333334, "type": "electric_scooter", "fusion_lat": 0.0, "lat": 38.892273833333334, "name": "96dc821a1f88038c213a060bc477dca6", "fusion_lon": 0.0, "bike_id": "96dc821a1f88038c213a060bc477dca6", "is_disabled": 0, "is_reserved": 0}, {"rental_uris": {"ios": "https://dc.lft.to/lastmile_qr_scan", "android": "https://dc.lft.to/lastmile_qr_scan"}, "lon": -77.04364566666666, "type": "electric_scooter", "fusion_lat": 0.0, "lat": 38.9333525, "name": "93571ae5622362fe028e42ea902c2684", "fusion_lon": 0.0, "bike_id": "93571ae5622362fe028e42ea902c2684", "is_disabled": 0, "is_reserved": 0}, {"rental_uris": {"ios": "https://dc.lft.to/lastmile_qr_scan", "android": "https://dc.lft.to/lastmile_qr_scan"}, "lon": -76.946247, "type": "electric_bike", "fusion_lat": 0.0, "lat": 38.832355166666666, "name": "cf3669f01d3d378f771ac02c7c812564", "fusion_lon": 0.0, "bike_id": "cf3669f01d3d378f771ac02c7c812564", "is_disabled": 0, "is_reserved": 0}, {"rental_uris": {"ios": "https://dc.lft.to/lastmile_qr_scan", "android": "https://dc.lft.to/lastmile_qr_scan"}, "lon": -76.985427, "type": "electric_scooter", "fusion_lat": 0.0, "lat": 38.904201666666665, "name": "0db1e36ad5a53aa0ea13eca3b0b76356", "fusion_lon": 0.0, "bike_id": "0db1e36ad5a53aa0ea13eca3b0b76356", "is_disabled": 0, "is_reserved": 0}, {"rental_uris": {"ios": "https://dc.lft.to/lastmile_qr_scan", "android": "https://dc.lft.to/lastmile_qr_scan"}, "lon": -76.939259, "type": "electric_scooter", "fusion_lat": 0.0, "lat": 38.892962833333335, "name": "becffbea8accb6e9543b659d64890428", "fusion_lon": 0.0, "bike_id": "becffbea8accb6e9543b659d64890428", "is_disabled": 0, "is_reserved": 0}, {"rental_uris": {"ios": "https://dc.lft.to/lastmile_qr_scan", "android": "https://dc.lft.to/lastmile_qr_scan"}, "lon": -77.02520833333334, "type": "electric_scooter", "fusion_lat": 0.0, "lat": 38.900861, "name": "1803fab1f1a62a383f8c4435600e7b6b", "fusion_lon": 0.0, "bike_id": "1803fab1f1a62a383f8c4435600e7b6b", "is_disabled": 0, "is_reserved": 0}, {"rental_uris": {"ios": "https://dc.lft.to/lastmile_qr_scan", "android": "https://dc.lft.to/lastmile_qr_scan"}, "lon": -77.0198475, "type": "electric_scooter", "fusion_lat": 0.0, "lat": 38.900721, "name": "5366b35419470769e6d5e6dad906b64f", "fusion_lon": 0.0, "bike_id": "5366b35419470769e6d5e6dad906b64f", "is_disabled": 0, "is_reserved": 0}, {"rental_uris": {"ios": "https://dc.lft.to/lastmile_qr_scan", "android": "https://dc.lft.to/lastmile_qr_scan"}, "lon": -76.9891115, "type": "electric_scooter", "fusion_lat": 0.0, "lat": 38.86692433333333, "name": "492c01dd9842f144151327c0d3db27bb", "fusion_lon": 0.0, "bike_id": "492c01dd9842f144151327c0d3db27bb", "is_disabled": 0, "is_reserved": 0}, {"rental_uris": {"ios": "https://dc.lft.to/lastmile_qr_scan", "android": "https://dc.lft.to/lastmile_qr_scan"}, "lon": -77.02225883333334, "type": "electric_scooter", "fusion_lat": 0.0, "lat": 38.892207166666665, "name": "81e104152af70e8dc48e1796f0c6b743", "fusion_lon": 0.0, "bike_id": "81e104152af70e8dc48e1796f0c6b743", "is_disabled": 0, "is_reserved": 0}, {"rental_uris": {"ios": "https://dc.lft.to/lastmile_qr_scan", "android": "https://dc.lft.to/lastmile_qr_scan"}, "lon": -77.05054233333334, "type": "electric_scooter", "fusion_lat": 0.0, "lat": 38.903703, "name": "e913546d683fd7256ee3be4a9e756068", "fusion_lon": 0.0, "bike_id": "e913546d683fd7256ee3be4a9e756068", "is_disabled": 0, "is_reserved": 0}, {"rental_uris": {"ios": "https://dc.lft.to/lastmile_qr_scan", "android": "https://dc.lft.to/lastmile_qr_scan"}, "lon": -77.04012816666666, "type": "electric_scooter", "fusion_lat": 0.0, "lat": 38.92187633333333, "name": "ee046399804be2983eec3a40456a1881", "fusion_lon": 0.0, "bike_id": "ee046399804be2983eec3a40456a1881", "is_disabled": 0, "is_reserved": 0}, {"rental_uris": {"ios": "https://dc.lft.to/lastmile_qr_scan", "android": "https://dc.lft.to/lastmile_qr_scan"}, "lon": -77.06997866666667, "type": "electric_bike", "fusion_lat": 0.0, "lat": 38.9550325, "name": "26d4219453142fb06f117ee055e63620", "fusion_lon": 0.0, "bike_id": "26d4219453142fb06f117ee055e63620", "is_disabled": 0, "is_reserved": 0}, {"rental_uris": {"ios": "https://dc.lft.to/lastmile_qr_scan", "android": "https://dc.lft.to/lastmile_qr_scan"}, "lon": -77.02572016666667, "type": "electric_scooter", "fusion_lat": 0.0, "lat": 38.8904305, "name": "940f9d8f3cd126c686db5a068bee55d5", "fusion_lon": 0.0, "bike_id": "940f9d8f3cd126c686db5a068bee55d5", "is_disabled": 0, "is_reserved": 0}, {"rental_uris": {"ios": "https://dc.lft.to/lastmile_qr_scan", "android": "https://dc.lft.to/lastmile_qr_scan"}, "lon": -77.02939233333333, "type": "electric_scooter", "fusion_lat": 0.0, "lat": 38.904610166666664, "name": "ef1393467d67207773ce77cf2edc1abb", "fusion_lon": 0.0, "bike_id": "ef1393467d67207773ce77cf2edc1abb", "is_disabled": 0, "is_reserved": 0}, {"rental_uris": {"ios": "https://dc.lft.to/lastmile_qr_scan", "android": "https://dc.lft.to/lastmile_qr_scan"}, "lon": -77.10783283333333, "type": "electric_bike", "fusion_lat": 0.0, "lat": 38.892201666666665, "name": "f070277dd07eebafdf00cd46e0aeafb6", "fusion_lon": 0.0, "bike_id": "f070277dd07eebafdf00cd46e0aeafb6", "is_disabled": 0, "is_reserved": 0}, {"rental_uris": {"ios": "https://dc.lft.to/lastmile_qr_scan", "android": "https://dc.lft.to/lastmile_qr_scan"}, "lon": -77.031828, "type": "electric_scooter", "fusion_lat": 0.0, "lat": 38.895729833333334, "name": "ac3d14ea81b5c4b4b030ee5dce99ba39", "fusion_lon": 0.0, "bike_id": "ac3d14ea81b5c4b4b030ee5dce99ba39", "is_disabled": 0, "is_reserved": 0}, {"rental_uris": {"ios": "https://dc.lft.to/lastmile_qr_scan", "android": "https://dc.lft.to/lastmile_qr_scan"}, "lon": -77.0099115, "type": "electric_scooter", "fusion_lat": 0.0, "lat": 38.8729715, "name": "8a859b8d18901ce54008021e2c863ecc", "fusion_lon": 0.0, "bike_id": "8a859b8d18901ce54008021e2c863ecc", "is_disabled": 0, "is_reserved": 0}, {"rental_uris": {"ios": "https://dc.lft.to/lastmile_qr_scan", "android": "https://dc.lft.to/lastmile_qr_scan"}, "lon": -77.0296385, "type": "electric_scooter", "fusion_lat": 0.0, "lat": 38.91685666666667, "name": "159b457e5a7c5cd8a9e148157affe7b4", "fusion_lon": 0.0, "bike_id": "159b457e5a7c5cd8a9e148157affe7b4", "is_disabled": 0, "is_reserved": 0}, {"rental_uris": {"ios": "https://dc.lft.to/lastmile_qr_scan", "android": "https://dc.lft.to/lastmile_qr_scan"}, "lon": -77.03451116666666, "type": "electric_scooter", "fusion_lat": 0.0, "lat": 38.90728266666667, "name": "64310e05f10fb1d7923ffa628d356230", "fusion_lon": 0.0, "bike_id": "64310e05f10fb1d7923ffa628d356230", "is_disabled": 0, "is_reserved": 0}, {"rental_uris": {"ios": "https://dc.lft.to/lastmile_qr_scan", "android": "https://dc.lft.to/lastmile_qr_scan"}, "lon": -77.0216435, "type": "electric_scooter", "fusion_lat": 0.0, "lat": 38.94293916666667, "name": "87d816a51b9160d25e1e51a5846aa402", "fusion_lon": 0.0, "bike_id": "87d816a51b9160d25e1e51a5846aa402", "is_disabled": 0, "is_reserved": 0}, {"rental_uris": {"ios": "https://dc.lft.to/lastmile_qr_scan", "android": "https://dc.lft.to/lastmile_qr_scan"}, "lon": -77.05042633333333, "type": "electric_scooter", "fusion_lat": 0.0, "lat": 38.92360933333333, "name": "c57fdca6081731fb9d2730a40ffde902", "fusion_lon": 0.0, "bike_id": "c57fdca6081731fb9d2730a40ffde902", "is_disabled": 0, "is_reserved": 0}, {"rental_uris": {"ios": "https://dc.lft.to/lastmile_qr_scan", "android": "https://dc.lft.to/lastmile_qr_scan"}, "lon": -77.03180833333333, "type": "electric_scooter", "fusion_lat": 0.0, "lat": 38.9139935, "name": "e1d1df4dbe2fe2ed55e7d76a827b8e8c", "fusion_lon": 0.0, "bike_id": "e1d1df4dbe2fe2ed55e7d76a827b8e8c", "is_disabled": 0, "is_reserved": 0}, {"rental_uris": {"ios": "https://dc.lft.to/lastmile_qr_scan", "android": "https://dc.lft.to/lastmile_qr_scan"}, "lon": -76.94666333333333, "type": "electric_scooter", "fusion_lat": 0.0, "lat": 38.90337, "name": "5dbc32d759b52cfc9a5156c94af143fb", "fusion_lon": 0.0, "bike_id": "5dbc32d759b52cfc9a5156c94af143fb", "is_disabled": 0, "is_reserved": 0}, {"rental_uris": {"ios": "https://dc.lft.to/lastmile_qr_scan", "android": "https://dc.lft.to/lastmile_qr_scan"}, "lon": -77.00286883333334, "type": "electric_bike", "fusion_lat": 0.0, "lat": 38.9161655, "name": "7adb9624195d1d586bf11be939edd81e", "fusion_lon": 0.0, "bike_id": "7adb9624195d1d586bf11be939edd81e", "is_disabled": 0, "is_reserved": 0}, {"rental_uris": {"ios": "https://dc.lft.to/lastmile_qr_scan", "android": "https://dc.lft.to/lastmile_qr_scan"}, "lon": -76.99364516666667, "type": "electric_scooter", "fusion_lat": 0.0, "lat": 38.9004325, "name": "0e1301bd2c755e93c4874d2a6c6175fc", "fusion_lon": 0.0, "bike_id": "0e1301bd2c755e93c4874d2a6c6175fc", "is_disabled": 0, "is_reserved": 0}, {"rental_uris": {"ios": "https://dc.lft.to/lastmile_qr_scan", "android": "https://dc.lft.to/lastmile_qr_scan"}, "lon": -76.99518066666667, "type": "electric_scooter", "fusion_lat": 0.0, "lat": 38.89483416666667, "name": "64131fb18858ff297a0293d7d156a129", "fusion_lon": 0.0, "bike_id": "64131fb18858ff297a0293d7d156a129", "is_disabled": 0, "is_reserved": 0}, {"rental_uris": {"ios": "https://dc.lft.to/lastmile_qr_scan", "android": "https://dc.lft.to/lastmile_qr_scan"}, "lon": -76.87823366666667, "type": "electric_bike", "fusion_lat": 0.0, "lat": 38.992403833333334, "name": "a2313abd96010093aa214db98070ccbf", "fusion_lon": 0.0, "bike_id": "a2313abd96010093aa214db98070ccbf", "is_disabled": 0, "is_reserved": 0}, {"rental_uris": {"ios": "https://dc.lft.to/lastmile_qr_scan", "android": "https://dc.lft.to/lastmile_qr_scan"}, "lon": -76.95755433333333, "type": "electric_bike", "fusion_lat": 0.0, "lat": 38.884272, "name": "1e7d051d4673cf9bce0085e0dfb3693a", "fusion_lon": 0.0, "bike_id": "1e7d051d4673cf9bce0085e0dfb3693a", "is_disabled": 0, "is_reserved": 0}, {"rental_uris": {"ios": "https://dc.lft.to/lastmile_qr_scan", "android": "https://dc.lft.to/lastmile_qr_scan"}, "lon": -77.07880633333333, "type": "electric_bike", "fusion_lat": 0.0, "lat": 38.91263166666667, "name": "ab16fa970b9b0ba59c5226dad5c01b29", "fusion_lon": 0.0, "bike_id": "ab16fa970b9b0ba59c5226dad5c01b29", "is_disabled": 0, "is_reserved": 0}, {"rental_uris": {"ios": "https://dc.lft.to/lastmile_qr_scan", "android": "https://dc.lft.to/lastmile_qr_scan"}, "lon": -77.0262605, "type": "electric_scooter", "fusion_lat": 0.0, "lat": 38.892249, "name": "cd89d6c01140c6b66642a913da5da32f", "fusion_lon": 0.0, "bike_id": "cd89d6c01140c6b66642a913da5da32f", "is_disabled": 0, "is_reserved": 0}, {"rental_uris": {"ios": "https://dc.lft.to/lastmile_qr_scan", "android": "https://dc.lft.to/lastmile_qr_scan"}, "lon": -77.03536666666666, "type": "electric_scooter", "fusion_lat": 0.0, "lat": 38.93282816666667, "name": "31459a251ab5b6f2d67732f75c3f2687", "fusion_lon": 0.0, "bike_id": "31459a251ab5b6f2d67732f75c3f2687", "is_disabled": 0, "is_reserved": 0}, {"rental_uris": {"ios": "https://dc.lft.to/lastmile_qr_scan", "android": "https://dc.lft.to/lastmile_qr_scan"}, "lon": -77.03345533333334, "type": "electric_scooter", "fusion_lat": 0.0, "lat": 38.9341655, "name": "eaa6d8d4aebb482b8c29c51894bee80c", "fusion_lon": 0.0, "bike_id": "eaa6d8d4aebb482b8c29c51894bee80c", "is_disabled": 0, "is_reserved": 0}, {"rental_uris": {"ios": "https://dc.lft.to/lastmile_qr_scan", "android": "https://dc.lft.to/lastmile_qr_scan"},