{"data": {"bikes": [{"lon": -77.02515166666667, "rental_uris": {"android": "https://dc.lft.to/lastmile_qr_scan", "ios": "https://dc.lft.to/lastmile_qr_scan"}, "fusion_lon": 0.0, "is_reserved": 0, "is_disabled": 0, "fusion_lat": 0.0, "type": "electric_scooter", "name": "1897f0ab63885c9ac4c71df09409d991", "lat": 38.91951133333333, "bike_id": "1897f0ab63885c9ac4c71df09409d991"}, {"lon": -77.0317125, "rental_uris": {"android": "https://dc.lft.to/lastmile_qr_scan", "ios": "https://dc.lft.to/lastmile_qr_scan"}, "fusion_lon": 0.0, "is_reserved": 0, "is_disabled": 0, "fusion_lat": 0.0, "type": "electric_scooter", "name": "9b2d749a55bdf96c120ba063ec69c74a", "lat": 38.9010675, "bike_id": "9b2d749a55bdf96c120ba063ec69c74a"}, {"lon": -77.0220225, "rental_uris": {"android": "https://dc.lft.to/lastmile_qr_scan", "ios": "https://dc.lft.to/lastmile_qr_scan"}, "fusion_lon": 0.0, "is_reserved": 0, "is_disabled": 0, "fusion_lat": 0.0, "type": "electric_scooter", "name": "d52c92b1766e37860f6ac6a9c1b0c49b", "lat": 38.90550266666666, "bike_id": "d52c92b1766e37860f6ac6a9c1b0c49b"}, {"lon": -77.03957316666667, "rental_uris": {"android": "https://dc.lft.to/lastmile_qr_scan", "ios": "https://dc.lft.to/lastmile_qr_scan"}, "fusion_lon": 0.0, "is_reserved": 0, "is_disabled": 0, "fusion_lat": 0.0, "type": "electric_scooter", "name": "9e3708f13a70f62822e32c97a0c3b323", "lat": 38.9032665, "bike_id": "9e3708f13a70f62822e32c97a0c3b323"}, {"lon": -77.00207416666667, "rental_uris": {"android": "https://dc.lft.to/lastmile_qr_scan", "ios": "https://dc.lft.to/lastmile_qr_scan"}, "fusion_lon": 0.0, "is_reserved": 0, "is_disabled": 0, "fusion_lat": 0.0, "type": "electric_scooter", "name": "775304ea462b69a36fc598a83406d099", "lat": 38.8952585, "bike_id": "775304ea462b69a36fc598a83406d099"}, {"lon": -77.07159266666666, "rental_uris": {"android": "https://dc.lft.to/lastmile_qr_scan", "ios": "https://dc.lft.to/lastmile_qr_scan"}, "fusion_lon": 0.0, "is_reserved": 0, "is_disabled": 0, "fusion_lat": 0.0, "type": "electric_bike", "name": "1bd41b207357473b6ad4263ef77eab96", "lat": 38.907786333333334, "bike_id": "1bd41b207357473b6ad4263ef77eab96"}, {"lon": -77.00577966666667, "rental_uris": {"android": "https://dc.lft.to/lastmile_qr_scan", "ios": "https://dc.lft.to/lastmile_qr_scan"}, "fusion_lon": 0.0, "is_reserved": 0, "is_disabled": 0, "fusion_lat": 0.0, "type": "electric_scooter", "name": "2d5b20f1d95c429d987c069b2792238d", "lat": 38.88516583333333, "bike_id": "2d5b20f1d95c429d987c069b2792238d"}, {"lon": -77.03343883333334, "rental_uris": {"android": "https://dc.lft.to/lastmile_qr_scan", "ios": "https://dc.lft.to/lastmile_qr_scan"}, "fusion_lon": 0.0, "is_reserved": 0, "is_disabled": 0, "fusion_lat": 0.0, "type": "electric_scooter", "name": "fd44c75888d7ff17b11c1a8da767a55d", "lat": 38.9027995, "bike_id": "fd44c75888d7ff17b11c1a8da767a55d"}, {"lon": -77.0419335, "rental_uris": {"android": "https://dc.lft.to/lastmile_qr_scan", "ios": "https://dc.lft.to/lastmile_qr_scan"}, "fusion_lon": 0.0, "is_reserved": 0, "is_disabled": 0, "fusion_lat": 0.0, "type": "electric_scooter", "name": "56a9ac8db8f0b1e1a45564b28fb3380a", "lat": 38.892236, "bike_id": "56a9ac8db8f0b1e1a45564b28fb3380a"}, {"lon": -77.00595283333334, "rental_uris": {"android": "https://dc.lft.to/lastmile_qr_scan", "ios": "https://dc.lft.to/lastmile_qr_scan"}, "fusion_lon": 0.0, "is_reserved": 0, "is_disabled": 0, "fusion_lat": 0.0, "type": "electric_scooter", "name": "16330ec245f56dd1c450f3f08d04a54a", "lat": 38.905571333333334, "bike_id": "16330ec245f56dd1c450f3f08d04a54a"}, {"lon": -76.9338095, "rental_uris": {"android": "https://dc.lft.to/lastmile_qr_scan", "ios": "https://dc.lft.to/lastmile_qr_scan"}, "fusion_lon": 0.0, "is_reserved": 0, "is_disabled": 0, "fusion_lat": 0.0, "type": "electric_scooter", "name": "aa16dd37eb90fca545685549e381dfd1", "lat": 38.899134333333336, "bike_id": "aa16dd37eb90fca545685549e381dfd1"}, {"lon": -76.98841916666666, "rental_uris": {"android": "https://dc.lft.to/lastmile_qr_scan", "ios": "https://dc.lft.to/lastmile_qr_scan"}, "fusion_lon": 0.0, "is_reserved": 0, "is_disabled": 0, "fusion_lat": 0.0, "type": "electric_scooter", "name": "ba68b2970dd5a21442727c8314adb3cd", "lat": 38.8904135, "bike_id": "ba68b2970dd5a21442727c8314adb3cd"}, {"lon": -77.00108366666667, "rental_uris": {"android": "https://dc.lft.to/lastmile_qr_scan", "ios": "https://dc.lft.to/lastmile_qr_scan"}, "fusion_lon": 0.0, "is_reserved": 0, "is_disabled": 0, "fusion_lat": 0.0, "type": "electric_scooter", "name": "b20f2b67d393cc88b346302f128fa707", "lat": 38.87665883333333, "bike_id": "b20f2b67d393cc88b346302f128fa707"}, {"lon": -77.01258883333334, "rental_uris": {"android": "https://dc.lft.to/lastmile_qr_scan", "ios": "https://dc.lft.to/lastmile_qr_scan"}, "fusion_lon": 0.0, "is_reserved": 0, "is_disabled": 0, "fusion_lat": 0.0, "type": "electric_scooter", "name": "8e42117d8153f549eff439e8514f8d46", "lat": 38.90010933333333, "bike_id": "8e42117d8153f549eff439e8514f8d46"}, {"lon": -76.9105995, "rental_uris": {"android": "https://dc.lft.to/lastmile_qr_scan", "ios": "https://dc.lft.to/lastmile_qr_scan"}, "fusion_lon": 0.0, "is_reserved": 0, "is_disabled": 0, "fusion_lat": 0.0, "type": "electric_bike", "name": "bcf17aaad1297255ff6216a50a9e07a6", "lat": 39.010769333333336, "bike_id": "bcf17aaad1297255ff6216a50a9e07a6"}, {"lon": -77.043826, "rental_uris": {"android": "https://dc.lft.to/lastmile_qr_scan", "ios": "https://dc.lft.to/lastmile_qr_scan"}, "fusion_lon": 0.0, "is_reserved": 0, "is_disabled": 0, "fusion_lat": 0.0, "type": "electric_scooter", "name": "da872b2912ed31f6d2251829a719fbdb", "lat": 38.921061333333334, "bike_id": "da872b2912ed31f6d2251829a719fbdb"}, {"lon": -77.050779, "rental_uris": {"android": "https://dc.lft.to/lastmile_qr_scan", "ios": "https://dc.lft.to/lastmile_qr_scan"}, "fusion_lon": 0.0, "is_reserved": 0, "is_disabled": 0, "fusion_lat": 0.0, "type": "electric_bike", "name": "010580d4fb1b90a749ce8e91e9f739a0", "lat": 38.81331016666667, "bike_id": "010580d4fb1b90a749ce8e91e9f739a0"}, {"lon": -77.04029583333333, "rental_uris": {"android": "https://dc.lft.to/lastmile_qr_scan", "ios": "https://dc.lft.to/lastmile_qr_scan"}, "fusion_lon": 0.0, "is_reserved": 0, "is_disabled": 0, "fusion_lat": 0.0, "type": "electric_scooter", "name": "c7c8a14c3fa7b32d9a3e48735e2e98e5", "lat": 38.924610666666666, "bike_id": "c7c8a14c3fa7b32d9a3e48735e2e98e5"}, {"lon": -76.95286166666666, "rental_uris": {"android": "https://dc.lft.to/lastmile_qr_scan", "ios": "https://dc.lft.to/lastmile_qr_scan"}, "fusion_lon": 0.0, "is_reserved": 0, "is_disabled": 0, "fusion_lat": 0.0, "type": "electric_scooter", "name": "2e0694224c93c7d27f97ea00d04a2c75", "lat": 38.8851165, "bike_id": "2e0694224c93c7d27f97ea00d04a2c75"}, {"lon": -76.99640816666667, "rental_uris": {"android": "https://dc.lft.to/lastmile_qr_scan", "ios": "https://dc.lft.to/lastmile_qr_scan"}, "fusion_lon": 0.0, "is_reserved": 0, "is_disabled": 0, "fusion_lat": 0.0, "type": "electric_scooter", "name": "2425215fe498bfd4c7f2629e019bda58", "lat": 38.92524483333333, "bike_id": "2425215fe498bfd4c7f2629e019bda58"}, {"lon": -77.04046, "rental_uris": {"android": "https://dc.lft.to/lastmile_qr_scan", "ios": "https://dc.lft.to/lastmile_qr_scan"}, "fusion_lon": 0.0, "is_reserved": 0, "is_disabled": 0, "fusion_lat": 0.0, "type": "electric_scooter", "name": "d8ee87f774ae42adcc005007041af2ac", "lat": 38.905802666666666, "bike_id": "d8ee87f774ae42adcc005007041af2ac"}, {"lon": -77.03342083333334, "rental_uris": {"android": "https://dc.lft.to/lastmile_qr_scan", "ios": "https://dc.lft.to/lastmile_qr_scan"}, "fusion_lon": 0.0, "is_reserved": 0, "is_disabled": 0, "fusion_lat": 0.0, "type": "electric_scooter", "name": "9928159443e710cab041a92557634fde", "lat": 38.92874183333333, "bike_id": "9928159443e710cab041a92557634fde"}, {"lon": -77.01213183333333, "rental_uris": {"android": "https://dc.lft.to/lastmile_qr_scan", "ios": "https://dc.lft.to/lastmile_qr_scan"}, "fusion_lon": 0.0, "is_reserved": 0, "is_disabled": 0, "fusion_lat": 0.0, "type": "electric_scooter", "name": "988d6bc3fc22f6bf2f84f78375cb1297", "lat": 38.90041516666667, "bike_id": "988d6bc3fc22f6bf2f84f78375cb1297"}, {"lon": -77.02400483333334, "rental_uris": {"android": "https://dc.lft.to/lastmile_qr_scan", "ios": "https://dc.lft.to/lastmile_qr_scan"}, "fusion_lon": 0.0, "is_reserved": 0, "is_disabled": 0, "fusion_lat": 0.0, "type": "electric_scooter", "name": "d97f9eda13f77420e01361c0ecc8b338", "lat": 38.92020466666666, "bike_id": "d97f9eda13f77420e01361c0ecc8b338"}, {"lon": -77.03283866666666, "rental_uris": {"android": "https://dc.lft.to/lastmile_qr_scan", "ios": "https://dc.lft.to/lastmile_qr_scan"}, "fusion_lon": 0.0, "is_reserved": 0, "is_disabled": 0, "fusion_lat": 0.0, "type": "electric_scooter", "name": "02588d7ff217cbe65d39ea4d34b67b85", "lat": 38.9287985, "bike_id": "02588d7ff217cbe65d39ea4d34b67b85"}, {"lon": -77.00340616666666, "rental_uris": {"android": "https://dc.lft.to/lastmile_qr_scan", "ios": "https://dc.lft.to/lastmile_qr_scan"}, "fusion_lon": 0.0, "is_reserved": 0, "is_disabled": 0, "fusion_lat": 0.0, "type": "electric_scooter", "name": "616166b9ac526423ded9f9b8707c2b21", "lat": 38.89533866666667, "bike_id": "616166b9ac526423ded9f9b8707c2b21"}, {"lon": -77.03459616666666, "rental_uris": {"android": "https://dc.lft.to/lastmile_qr_scan", "ios": "https://dc.lft.to/lastmile_qr_scan"}, "fusion_lon": 0.0, "is_reserved": 0, "is_disabled": 0, "fusion_lat": 0.0, "type": "electric_scooter", "name": "d2d28602544fe3cc112dbc56c6ef18bf", "lat": 38.904236833333336, "bike_id": "d2d28602544fe3cc112dbc56c6ef18bf"}, {"lon": -76.99491083333334, "rental_uris": {"android": "https://dc.lft.to/lastmile_qr_scan", "ios": "https://dc.lft.to/lastmile_qr_scan"}, "fusion_lon": 0.0, "is_reserved": 0, "is_disabled": 0, "fusion_lat": 0.0, "type": "electric_scooter", "name": "555348dba013bb94ba06108fc22658d0", "lat": 38.87934216666667, "bike_id": "555348dba013bb94ba06108fc22658d0"}, {"lon": -77.0424135, "rental_uris": {"android": "https://dc.lft.to/lastmile_qr_scan", "ios": "https://dc.lft.to/lastmile_qr_scan"}, "fusion_lon": 0.0, "is_reserved": 0, "is_disabled": 0, "fusion_lat": 0.0, "type": "electric_scooter", "name": "d73520403918f6868c2077b042741024", "lat": 38.92433666666667, "bike_id": "d73520403918f6868c2077b042741024"}, {"lon": -77.04149983333333, "rental_uris": {"android": "https://dc.lft.to/lastmile_qr_scan", "ios": "https://dc.lft.to/lastmile_qr_scan"}, "fusion_lon": 0.0, "is_reserved": 0, "is_disabled": 0, "fusion_lat": 0.0, "type": "electric_scooter", "name": "c06ab43bce76e30f74f1f5eaddcf91e5", "lat": 38.90726183333334, "bike_id": "c06ab43bce76e30f74f1f5eaddcf91e5"}, {"lon": -77.03690316666666, "rental_uris": {"android": "https://dc.lft.to/lastmile_qr_scan", "ios": "https://dc.lft.to/lastmile_qr_scan"}, "fusion_lon": 0.0, "is_reserved": 0, "is_disabled": 0, "fusion_lat": 0.0, "type": "electric_scooter", "name": "3e1f067bb026f351badf2a74566b8d90", "lat": 38.9264115, "bike_id": "3e1f067bb026f351badf2a74566b8d90"}, {"lon": -77.12973733333334, "rental_uris": {"android": "https://dc.lft.to/lastmile_qr_scan", "ios": "https://dc.lft.to/lastmile_qr_scan"}, "fusion_lon": 0.0, "is_reserved": 0, "is_disabled": 0, "fusion_lat": 0.0, "type": "electric_bike", "name": "392d7c6bdc779b9fbee93e10cc549ed4", "lat": 38.79986683333333, "bike_id": "392d7c6bdc779b9fbee93e10cc549ed4"}, {"lon": -77.03432216666667, "rental_uris": {"android": "https://dc.lft.to/lastmile_qr_scan", "ios": "https://dc.lft.to/lastmile_qr_scan"}, "fusion_lon": 0.0, "is_reserved": 0, "is_disabled": 0, "fusion_lat": 0.0, "type": "electric_scooter", "name": "d50878ca70077323b6067e3c9cbeeb6f", "lat": 38.902674833333336, "bike_id": "d50878ca70077323b6067e3c9cbeeb6f"}, {"lon": -77.04194683333333, "rental_uris": {"android": "https://dc.lft.to/lastmile_qr_scan", "ios": "https://dc.lft.to/lastmile_qr_scan"}, "fusion_lon": 0.0, "is_reserved": 0, "is_disabled": 0, "fusion_lat": 0.0, "type": "electric_scooter", "name": "e2a8aae7f500e1ca7eeac505f04a7f11", "lat": 38.92624583333333, "bike_id": "e2a8aae7f500e1ca7eeac505f04a7f11"}, {"lon": -77.03740066666667, "rental_uris": {"android": "https://dc.lft.to/lastmile_qr_scan", "ios": "https://dc.lft.to/lastmile_qr_scan"}, "fusion_lon": 0.0, "is_reserved": 0, "is_disabled": 0, "fusion_lat": 0.0, "type": "electric_scooter", "name": "c43df8009009a674b4243f4090a0422f", "lat": 38.9076505, "bike_id": "c43df8009009a674b4243f4090a0422f"}, {"lon": -77.0069125, "rental_uris": {"android": "https://dc.lft.to/lastmile_qr_scan", "ios": "https://dc.lft.to/lastmile_qr_scan"}, "fusion_lon": 0.0, "is_reserved": 0, "is_disabled": 0, "fusion_lat": 0.0, "type": "electric_scooter", "name": "57d4022e31f0cef2339c9bd181d06a47", "lat": 38.871572, "bike_id": "57d4022e31f0cef2339c9bd181d06a47"}, {"lon": -77.11774666666666, "rental_uris": {"android": "https://dc.lft.to/lastmile_qr_scan", "ios": "https://dc.lft.to/lastmile_qr_scan"}, "fusion_lon": 0.0, "is_reserved": 0, "is_disabled": 0, "fusion_lat": 0.0, "type": "electric_bike", "name": "cd56b334c956aec46c2aa2c8bbd2c705", "lat": 38.81246616666667, "bike_id": "cd56b334c956aec46c2aa2c8bbd2c705"}, {"lon": -76.97007, "rental_uris": {"android": "https://dc.lft.to/lastmile_qr_scan", "ios": "https://dc.lft.to/lastmile_qr_scan"}, "fusion_lon": 0.0, "is_reserved": 0, "is_disabled": 0, "fusion_lat": 0.0, "type": "electric_bike", "name": "546f2fb7a7212a2215e2a717e046cc2a", "lat": 38.863718, "bike_id": "546f2fb7a7212a2215e2a717e046cc2a"}, {"lon": -76.9744505, "rental_uris": {"android": "https://dc.lft.to/lastmile_qr_scan", "ios": "https://dc.lft.to/lastmile_qr_scan"}, "fusion_lon": 0.0, "is_reserved": 0, "is_disabled": 0, "fusion_lat": 0.0, "type": "electric_scooter", "name": "df2dc4c52d743c84e4e4c98cf0ab94ae", "lat": 38.9026595, "bike_id": "df2dc4c52d743c84e4e4c98cf0ab94ae"}, {"lon": -76.98699616666667, "rental_uris": {"android": "https://dc.lft.to/lastmile_qr_scan", "ios": "https://dc.lft.to/lastmile_qr_scan"}, "fusion_lon": 0.0, "is_reserved": 0, "is_disabled": 0, "fusion_lat": 0.0, "type": "electric_scooter", "name": "dfcf05bcd63e511d1835a12115491562", "lat": 38.90623133333333, "bike_id": "dfcf05bcd63e511d1835a12115491562"}, {"lon": -77.038603, "rental_uris": {"android": "https://dc.lft.to/lastmile_qr_scan", "ios": "https://dc.lft.to/lastmile_qr_scan"}, "fusion_lon": 0.0, "is_reserved": 0, "is_disabled": 0, "fusion_lat": 0.0, "type": "electric_scooter", "name": "a5b2824ef1d4a83438eb93e4263359b4", "lat": 38.9077025, "bike_id": "a5b2824ef1d4a83438eb93e4263359b4"}, {"lon": -77.0173575, "rental_uris": {"android": "https://dc.lft.to/lastmile_qr_scan", "ios": "https://dc.lft.to/lastmile_qr_scan"}, "fusion_lon": 0.0, "is_reserved": 0, "is_disabled": 0, "fusion_lat": 0.0, "type": "electric_scooter", "name": "ee164e3c29f94e257ed7dce7d83e94ba", "lat": 38.975152333333334, "bike_id": "ee164e3c29f94e257ed7dce7d83e94ba"}, {"lon": -77.02568533333333, "rental_uris": {"android": "https://dc.lft.to/lastmile_qr_scan", "ios": "https://dc.lft.to/lastmile_qr_scan"}, "fusion_lon": 0.0, "is_reserved": 0, "is_disabled": 0, "fusion_lat": 0.0, "type": "electric_scooter", "name": "92d2c0ed226dc56c8a342d26761d2c84", "lat": 38.887471, "bike_id": "92d2c0ed226dc56c8a342d26761d2c84"}, {"lon": -77.02322783333334, "rental_uris": {"android": "https://dc.lft.to/lastmile_qr_scan", "ios": "https://dc.lft.to/lastmile_qr_scan"}, "fusion_lon": 0.0, "is_reserved": 0, "is_disabled": 0, "fusion_lat": 0.0, "type": "electric_scooter", "name": "3648b0f3bd9bbd6d9b4342b23425d20f", "lat": 38.89839933333333, "bike_id": "3648b0f3bd9bbd6d9b4342b23425d20f"}, {"lon": -77.05108016666667, "rental_uris": {"android": "https://dc.lft.to/lastmile_qr_scan", "ios": "https://dc.lft.to/lastmile_qr_scan"}, "fusion_lon": 0.0, "is_reserved": 0, "is_disabled": 0, "fusion_lat": 0.0, "type": "electric_bike", "name": "d08181faefdaf916e19d01d1f52fedff", "lat": 38.8133515, "bike_id": "d08181faefdaf916e19d01d1f52fedff"}, {"lon": -77.02340033333333, "rental_uris": {"android": "https://dc.lft.to/lastmile_qr_scan", "ios": "https://dc.lft.to/lastmile_qr_scan"}, "fusion_lon": 0.0, "is_reserved": 0, "is_disabled": 0, "fusion_lat": 0.0, "type": "electric_scooter", "name": "1cfceb31a7355e38b77c33d80b336e56", "lat": 38.945024333333336, "bike_id": "1cfceb31a7355e38b77c33d80b336e56"}, {"lon": -77.0466525, "rental_uris": {"android": "https://dc.lft.to/lastmile_qr_scan", "ios": "https://dc.lft.to/lastmile_qr_scan"}, "fusion_lon": 0.0, "is_reserved": 0, "is_disabled": 0, "fusion_lat": 0.0, "type": "electric_scooter", "name": "d137b64127ab7ac04a41274d78a2705f", "lat": 38.909552833333336, "bike_id": "d137b64127ab7ac04a41274d78a2705f"}, {"lon": -77.00326683333333, "rental_uris": {"android": "https://dc.lft.to/lastmile_qr_scan", "ios": "https://dc.lft.to/lastmile_qr_scan"}, "fusion_lon": 0.0, "is_reserved": 0, "is_disabled": 0, "fusion_lat": 0.0, "type": "electric_scooter", "name": "a9bb32fffd4843fe8801c024d8d3a0c0", "lat": 38.8962415, "bike_id": "a9bb32fffd4843fe8801c024d8d3a0c0"}, {"lon": -77.0344105, "rental_uris": {"android": "https://dc.lft.to/lastmile_qr_scan", "ios": "https://dc.lft.to/lastmile_qr_scan"}, "fusion_lon": 0.0, "is_reserved": 0, "is_disabled": 0, "fusion_lat": 0.0, "type": "electric_scooter", "name": "6819ce2c38b94d2b7cc747ead5640d9f", "lat": 38.908313666666665, "bike_id": "6819ce2c38b94d2b7cc747ead5640d9f"}, {"lon": -77.00304683333333, "rental_uris": {"android": "https://dc.lft.to/lastmile_qr_scan", "ios": "https://dc.lft.to/lastmile_qr_scan"}, "fusion_lon": 0.0, "is_reserved": 0, "is_disabled": 0, "fusion_lat": 0.0, "type": "electric_scooter", "name": "7a8014a19a6e9f08353ea2fbba769ed9", "lat": 38.8923085, "bike_id": "7a8014a19a6e9f08353ea2fbba769ed9"}, {"lon": -77.0467665, "rental_uris": {"android": "https://dc.lft.to/lastmile_qr_scan", "ios": "https://dc.lft.to/lastmile_qr_scan"}, "fusion_lon": 0.0, "is_reserved": 0, "is_disabled": 0, "fusion_lat": 0.0, "type": "electric_scooter", "name": "852eb3a0ede253cf8f40aa5e9cefeaf8", "lat": 38.89509966666667, "bike_id": "852eb3a0ede253cf8f40aa5e9cefeaf8"}, {"lon": -77.0694945, "rental_uris": {"android": "https://dc.lft.to/lastmile_qr_scan", "ios": "https://dc.lft.to/lastmile_qr_scan"}, "fusion_lon": 0.0, "is_reserved": 0, "is_disabled": 0, "fusion_lat": 0.0, "type": "electric_bike", "name": "a4fbe405b1072fee356cd42425191c41", "lat": 38.8363115, "bike_id": "a4fbe405b1072fee356cd42425191c41"}, {"lon": -77.03288816666667, "rental_uris": {"android": "https://dc.lft.to/lastmile_qr_scan", "ios": "https://dc.lft.to/lastmile_qr_scan"}, "fusion_lon": 0.0, "is_reserved": 0, "is_disabled": 0, "fusion_lat": 0.0, "type": "electric_scooter", "name": "d068897f869d18903d174d015c644776", "lat": 38.927487166666666, "bike_id": "d068897f869d18903d174d015c644776"}, {"lon": -77.03398016666667, "rental_uris": {"android": "https://dc.lft.to/lastmile_qr_scan", "ios": "https://dc.lft.to/lastmile_qr_scan"}, "fusion_lon": 0.0, "is_reserved": 0, "is_disabled": 0, "fusion_lat": 0.0, "type": "electric_scooter", "name": "bd41e50befc9eed3c662065c04a3009f", "lat": 38.9027, "bike_id": "bd41e50befc9eed3c662065c04a3009f"}, {"lon": -77.03639183333334, "rental_uris": {"android": "https://dc.lft.to/lastmile_qr_scan", "ios": "https://dc.lft.to/lastmile_qr_scan"}, "fusion_lon": 0.0, "is_reserved": 0, "is_disabled": 0, "fusion_lat": 0.0, "type": "electric_scooter", "name": "f9351803e6f2251b8ea69c615d025d8d", "lat": 38.9366885, "bike_id": "f9351803e6f2251b8ea69c615d025d8d"}, {"lon": -77.04053683333333, "rental_uris": {"android": "https://dc.lft.to/lastmile_qr_scan", "ios": "https://dc.lft.to/lastmile_qr_scan"}, "fusion_lon": 0.0, "is_reserved": 0, "is_disabled": 0, "fusion_lat": 0.0, "type": "electric_scooter", "name": "bfa89e536a6cebd17341b2b396ae3a65", "lat": 38.927984, "bike_id": "bfa89e536a6cebd17341b2b396ae3a65"}, {"lon": -77.0184295, "rental_uris": {"android": "https://dc.lft.to/lastmile_qr_scan", "ios": "https://dc.lft.to/lastmile_qr_scan"}, "fusion_lon": 0.0, "is_reserved": 0, "is_disabled": 0, "fusion_lat": 0.0, "type": "electric_scooter", "name": "3c7b2eca6edcc8dfaa014c8ce0477bfa", "lat": 38.92267366666667, "bike_id": "3c7b2eca6edcc8dfaa014c8ce0477bfa"}, {"lon": -77.04855133333334, "rental_uris": {"android": "https://dc.lft.to/lastmile_qr_scan", "ios": "https://dc.lft.to/lastmile_qr_scan"}, "fusion_lon": 0.0, "is_reserved": 0, "is_disabled": 0, "fusion_lat": 0.0, "type": "electric_scooter", "name": "ffa320ccfba3349ac8ba1e8270b4343b", "lat": 38.90037916666667, "bike_id": "ffa320ccfba3349ac8ba1e8270b4343b"}, {"lon": -77.032874, "rental_uris": {"android": "https://dc.lft.to/lastmile_qr_scan", "ios": "https://dc.lft.to/lastmile_qr_scan"}, "fusion_lon": 0.0, "is_reserved": 0, "is_disabled": 0, "fusion_lat": 0.0, "type": "electric_scooter", "name": "e097d664c10d6aa509ca6d8cddfb186e", "lat": 38.927448, "bike_id": "e097d664c10d6aa509ca6d8cddfb186e"}, {"lon": -77.0069985, "rental_uris": {"android": "https://dc.lft.to/lastmile_qr_scan", "ios": "https://dc.lft.to/lastmile_qr_scan"}, "fusion_lon": 0.0, "is_reserved": 0, "is_disabled": 0, "fusion_lat": 0.0, "type": "electric_scooter", "name": "847c473216d35516ef751f2eb0be46ba", "lat": 38.915532166666665, "bike_id": "847c473216d35516ef751f2eb0be46ba"}, {"lon": -77.043458, "rental_uris": {"android": "https://dc.lft.to/lastmile_qr_scan", "ios": "https://dc.lft.to/lastmile_qr_scan"}, "fusion_lon": 0.0, "is_reserved": 0, "is_disabled": 0, "fusion_lat": 0.0, "type": "electric_scooter", "name": "90fca8aac5a9c906d1bf7dd9a9a97105", "lat": 38.900324833333336, "bike_id": "90fca8aac5a9c906d1bf7dd9a9a97105"}, {"lon": -77.03769666666666, "rental_uris": {"android": "https://dc.lft.to/lastmile_qr_scan", "ios": "https://dc.lft.to/lastmile_qr_scan"}, "fusion_lon": 0.0, "is_reserved": 0, "is_disabled": 0, "fusion_lat": 0.0, "type": "electric_scooter", "name": "7cec2e1e1e676c37bb0f7ba5247b4e9e", "lat": 38.91687483333333, "bike_id": "7cec2e1e1e676c37bb0f7ba5247b4e9e"}, {"lon": -77.0257605, "rental_uris": {"android": "https://dc.lft.to/lastmile_qr_scan", "ios": "https://dc.lft.to/lastmile_qr_scan"}, "fusion_lon": 0.0, "is_reserved": 0, "is_disabled": 0, "fusion_lat": 0.0, "type": "electric_scooter", "name": "ff1b7759f8e067306f5e5dd9a17ecd4c", "lat": 38.898526333333336, "bike_id": "ff1b7759f8e067306f5e5dd9a17ecd4c"}, {"lon": -77.02956166666667, "rental_uris": {"android": "https://dc.lft.to/lastmile_qr_scan", "ios": "https://dc.lft.to/lastmile_qr_scan"}, "fusion_lon": 0.0, "is_reserved": 0, "is_disabled": 0, "fusion_lat": 0.0, "type": "electric_scooter", "name": "3878798ebde7588ac872e97a0caaa5a7", "lat": 38.911833333333334, "bike_id": "3878798ebde7588ac872e97a0caaa5a7"}, {"lon": -76.95816666666667, "rental_uris": {"android": "https://dc.lft.to/lastmile_qr_scan", "ios": "https://dc.lft.to/lastmile_qr_scan"}, "fusion_lon": 0.0, "is_reserved": 0, "is_disabled": 0, "fusion_lat": 0.0, "type": "electric_bike", "name": "9917a3e1db44352de3baa587c623e0de", "lat": 38.919988833333335, "bike_id": "9917a3e1db44352de3baa587c623e0de"}, {"lon": -77.0019715, "rental_uris": {"android": "https://dc.lft.to/lastmile_qr_scan", "ios": "https://dc.lft.to/lastmile_qr_scan"}, "fusion_lon": 0.0, "is_reserved": 0, "is_disabled": 0, "fusion_lat": 0.0, "type": "electric_scooter", "name": "475cc9a666936b652c8bb7c2c06018a1", "lat": 38.900411166666665, "bike_id": "475cc9a666936b652c8bb7c2c06018a1"}, {"lon": -77.0608255, "rental_uris": {"android": "https://dc.lft.to/lastmile_qr_scan", "ios": "https://dc.lft.to/lastmile_qr_scan"}, "fusion_lon": 0.0, "is_reserved": 0, "is_disabled": 0, "fusion_lat": 0.0, "type": "electric_scooter", "name": "e75bf0ea1c9f2145756eff420e4612c3", "lat": 38.902311833333336, "bike_id": "e75bf0ea1c9f2145756eff420e4612c3"}, {"lon": -76.993097, "rental_uris": {"android": "https://dc.lft.to/lastmile_qr_scan", "ios": "https://dc.lft.to/lastmile_qr_scan"}, "fusion_lon": 0.0, "is_reserved": 0, "is_disabled": 0, "fusion_lat": 0.0, "type": "electric_bike", "name": "3edb01311f74f9f329587801dabf2295", "lat": 38.9463445, "bike_id": "3edb01311f74f9f329587801dabf2295"}, {"lon": -77.02471183333333, "rental_uris": {"android": "https://dc.lft.to/lastmile_qr_scan", "ios": "https://dc.lft.to/lastmile_qr_scan"}, "fusion_lon": 0.0, "is_reserved": 0, "is_disabled": 0, "fusion_lat": 0.0, "type": "electric_bike", "name": "3d6d6e90f65cb54a95e634c859b3025e", "lat": 38.8985705, "bike_id": "3d6d6e90f65cb54a95e634c859b3025e"}, {"lon": -77.03222166666667, "rental_uris": {"android": "https://dc.lft.to/lastmile_qr_scan", "ios": "https://dc.lft.to/lastmile_qr_scan"}, "fusion_lon": 0.0, "is_reserved": 0, "is_disabled": 0, "fusion_lat": 0.0, "type": "electric_scooter", "name": "2ccd5a6c0dae3315883500810e881cb0", "lat": 38.90517533333333, "bike_id": "2ccd5a6c0dae3315883500810e881cb0"}, {"lon": -77.00318866666667, "rental_uris": {"android": "https://dc.lft.to/lastmile_qr_scan", "ios": "https://dc.lft.to/lastmile_qr_scan"}, "fusion_lon": 0.0, "is_reserved": 0, "is_disabled": 0, "fusion_lat": 0.0, "type": "electric_scooter", "name": "bbe62f1db8d8d5fc48c0bd5099e5a00b", "lat": 38.8765605, "bike_id": "bbe62f1db8d8d5fc48c0bd5099e5a00b"}, {"lon": -76.97977933333334, "rental_uris": {"android": "https://dc.lft.to/lastmile_qr_scan", "ios": "https://dc.lft.to/lastmile_qr_scan"}, "fusion_lon": 0.0, "is_reserved": 0, "is_disabled": 0, "fusion_lat": 0.0, "type": "electric_scooter", "name": "2d8a2850e05bcd7f5670eb4ce0a23902", "lat": 38.907363, "bike_id": "2d8a2850e05bcd7f5670eb4ce0a23902"}, {"lon": -77.0230455, "rental_uris": {"android": "https://dc.lft.to/lastmile_qr_scan", "ios": "https://dc.lft.to/lastmile_qr_scan"}, "fusion_lon": 0.0, "is_reserved": 0, "is_disabled": 0, "fusion_lat": 0.0, "type": "electric_scooter", "name": "4f55b58c9524bd338146caa7dcd0a2eb", "lat": 38.917797666666665, "bike_id": "4f55b58c9524bd338146caa7dcd0a2eb"}, {"lon": -77.02308933333333, "rental_uris": {"android": "https://dc.lft.to/lastmile_qr_scan", "ios": "https://dc.lft.to/lastmile_qr_scan"}, "fusion_lon": 0.0, "is_reserved": 0, "is_disabled": 0, "fusion_lat": 0.0, "type": "electric_scooter", "name": "91d1625d77b668f8703af685385bb1cb", "lat": 38.9178715, "bike_id": "91d1625d77b668f8703af685385bb1cb"}, {"lon": -77.03159916666667, "rental_uris": {"android": "https://dc.lft.to/lastmile_qr_scan", "ios": "https://dc.lft.to/lastmile_qr_scan"}, "fusion_lon": 0.0, "is_reserved": 0, "is_disabled": 0, "fusion_lat": 0.0, "type": "electric_scooter", "name": "2db6ffcc8417b91ad3c348b52826c32c", "lat": 38.89964233333333, "bike_id": "2db6ffcc8417b91ad3c348b52826c32c"}, {"lon": -77.0217105, "rental_uris": {"android": "https://dc.lft.to/lastmile_qr_scan", "ios": "https://dc.lft.to/lastmile_qr_scan"}, "fusion_lon": 0.0, "is_reserved": 0, "is_disabled": 0, "fusion_lat": 0.0, "type": "electric_scooter", "name": "b7cd7fc3a70dec8ed61ff2d29aa21388", "lat": 38.919618, "bike_id": "b7cd7fc3a70dec8ed61ff2d29aa21388"}, {"lon": -77.03087683333334, "rental_uris": {"android": "https://dc.lft.to/lastmile_qr_scan", "ios": "https://dc.lft.to/lastmile_qr_scan"}, "fusion_lon": 0.0, "is_reserved": 0, "is_disabled": 0, "fusion_lat": 0.0, "type": "electric_scooter", "name": "267f8fb123b6924c6f06b196f227fbca", "lat": 38.91058833333334, "bike_id": "267f8fb123b6924c6f06b196f227fbca"}, {"lon": -77.03214766666666, "rental_uris": {"android": "https://dc.lft.to/lastmile_qr_scan", "ios": "https://dc.lft.to/lastmile_qr_scan"}, "fusion_lon": 0.0, "is_reserved": 0, "is_disabled": 0, "fusion_lat": 0.0, "type": "electric_scooter", "name": "0fcbdf7b17377de66b4bf0913e1c7f38", "lat": 38.8922445, "bike_id": "0fcbdf7b17377de66b4bf0913e1c7f38"}, {"lon": -77.06359566666667, "rental_uris": {"android": "https://dc.lft.to/lastmile_qr_scan", "ios": "https://dc.lft.to/lastmile_qr_scan"}, "fusion_lon": 0.0, "is_reserved": 0, "is_disabled": 0, "fusion_lat": 0.0, "type": "electric_scooter", "name": "c2b82c33fc3092c23a897d4c02a70bf1", "lat": 38.90819033333333, "bike_id": "c2b82c33fc3092c23a897d4c02a70bf1"}, {"lon": -77.04132716666666, "rental_uris": {"android": "https://dc.lft.to/lastmile_qr_scan", "ios": "https://dc.lft.to/lastmile_qr_scan"}, "fusion_lon": 0.0, "is_reserved": 0, "is_disabled": 0, "fusion_lat": 0.0, "type": "electric_scooter", "name": "3d4b702e295fb252bf2b70c42fcf6651", "lat": 38.89930583333334, "bike_id": "3d4b702e295fb252bf2b70c42fcf6651"}, {"lon": -77.03431683333334, "rental_uris": {"android": "https://dc.lft.to/lastmile_qr_scan", "ios": "https://dc.lft.to/lastmile_qr_scan"}, "fusion_lon": 0.0, "is_reserved": 0, "is_disabled": 0, "fusion_lat": 0.0, "type": "electric_scooter", "name": "0f654553787e727ddd174324bb05e264", "lat": 38.9096395, "bike_id": "0f654553787e727ddd174324bb05e264"}, {"lon": -77.05511833333334, "rental_uris": {"android": "https://dc.lft.to/lastmile_qr_scan", "ios": "https://dc.lft.to/lastmile_qr_scan"}, "fusion_lon": 0.0, "is_reserved": 0, "is_disabled": 0, "fusion_lat": 0.0, "type": "electric_bike", "name": "4ea9cd6cce73448957bd1b33dc2e0794", "lat": 38.944107333333335, "bike_id": "4ea9cd6cce73448957bd1b33dc2e0794"}, {"lon": -77.05084666666667, "rental_uris": {"android": "https://dc.lft.to/lastmile_qr_scan", "ios": "https://dc.lft.to/lastmile_qr_scan"}, "fusion_lon": 0.0, "is_reserved": 0, "is_disabled": 0, "fusion_lat": 0.0, "type": "electric_scooter", "name": "10d017d3fa0c6d5755e79458c0600b64", "lat": 38.92348033333333, "bike_id": "10d017d3fa0c6d5755e79458c0600b64"}, {"lon": -77.00914583333333, "rental_uris": {"android": "https://dc.lft.to/lastmile_qr_scan", "ios": "https://dc.lft.to/lastmile_qr_scan"}, "fusion_lon": 0.0, "is_reserved": 0, "is_disabled": 0, "fusion_lat": 0.0, "type": "electric_scooter", "name": "dbedcad9958f9973e21770f79dfbdea9", "lat": 38.89587016666667, "bike_id": "dbedcad9958f9973e21770f79dfbdea9"}, {"lon": -77.06090666666667, "rental_uris": {"android": "https://dc.lft.to/lastmile_qr_scan", "ios": "https://dc.lft.to/lastmile_qr_scan"}, "fusion_lon": 0.0, "is_reserved": 0, "is_disabled": 0, "fusion_lat": 0.0, "type": "electric_scooter", "name": "ffe40b348fee1c38afb6c1682881e961", "lat": 38.90229083333333, "bike_id": "ffe40b348fee1c38afb6c1682881e961"}, {"lon": -77.04091, "rental_uris": {"android": "https://dc.lft.to/lastmile_qr_scan", "ios": "https://dc.lft.to/lastmile_qr_scan"}, "fusion_lon": 0.0, "is_reserved": 0, "is_disabled": 0, "fusion_lat": 0.0, "type": "electric_scooter", "name": "50a0b7d7bf02b6c82ea7419567c5bd25", "lat": 38.92393083333333, "bike_id": "50a0b7d7bf02b6c82ea7419567c5bd25"}, {"lon": -77.03655183333333, "rental_uris": {"android": "https://dc.lft.to/lastmile_qr_scan", "ios": "https://dc.lft.to/lastmile_qr_scan"}, "fusion_lon": 0.0, "is_reserved": 0, "is_disabled": 0, "fusion_lat": 0.0, "type": "electric_scooter", "name": "8364f3c1a503f14c7947b7b8626268fc", "lat": 38.92308633333333, "bike_id": "8364f3c1a503f14c7947b7b8626268fc"}, {"lon": -77.0197055, "rental_uris": {"android": "https://dc.lft.to/lastmile_qr_scan", "ios": "https://dc.lft.to/lastmile_qr_scan"}, "fusion_lon": 0.0, "is_reserved": 0, "is_disabled": 0, "fusion_lat": 0.0, "type": "electric_scooter", "name": "89d2afba4e0eeebb7a4af89dac3aebdd", "lat": 38.922543833333336, "bike_id": "89d2afba4e0eeebb7a4af89dac3aebdd"}, {"lon": -77.0136925, "rental_uris": {"android": "https://dc.lft.to/lastmile_qr_scan", "ios": "https://dc.lft.to/lastmile_qr_scan"}, "fusion_lon": 0.0, "is_reserved": 0, "is_disabled": 0, "fusion_lat": 0.0, "type": "electric_scooter", "name": "a142745316131e14caf2db10a44a2ccb", "lat": 38.89636433333333, "bike_id": "a142745316131e14caf2db10a44a2ccb"}, {"lon": -77.03220016666667, "rental_uris": {"android": "https://dc.lft.to/lastmile_qr_scan", "ios": "https://dc.lft.to/lastmile_qr_scan"}, "fusion_lon": 0.0, "is_reserved": 0, "is_disabled": 0, "fusion_lat": 0.0, "type": "electric_scooter", "name": "e0a628f05c1fe40d6664e8d8745ac5c1", "lat": 38.908682666666664, "bike_id": "e0a628f05c1fe40d6664e8d8745ac5c1"}, {"lon": -77.02150433333334, "rental_uris": {"android": "https://dc.lft.to/lastmile_qr_scan", "ios": "https://dc.lft.to/lastmile_qr_scan"}, "fusion_lon": 0.0, "is_reserved": 0, "is_disabled": 0, "fusion_lat": 0.0, "type": "electric_scooter", "name": "d9d60670ad32f4eb8f630eaf9e25d57f", "lat": 38.8858395, "bike_id": "d9d60670ad32f4eb8f630eaf9e25d57f"}, {"lon": -77.075509, "rental_uris": {"android": "https://dc.lft.to/lastmile_qr_scan", "ios": "https://dc.lft.to/lastmile_qr_scan"}, "fusion_lon": 0.0, "is_reserved": 0, "is_disabled": 0, "fusion_lat": 0.0, "type": "electric_scooter", "name": "e37ef8725716576ccba996c21ae2d0a2", "lat": 38.92091583333333, "bike_id": "e37ef8725716576ccba996c21ae2d0a2"}, {"lon": -77.02655733333333, "rental_uris": {"android": "https://dc.lft.to/lastmile_qr_scan", "ios": "https://dc.lft.to/lastmile_qr_scan"}, "fusion_lon": 0.0, "is_reserved": 0, "is_disabled": 0, "fusion_lat": 0.0, "type": "electric_scooter", "name": "8ace09493474fc27cc1657d0938e7ffa", "lat": 38.89219283333333, "bike_id": "8ace09493474fc27cc1657d0938e7ffa"}, {"lon": -76.99505083333334, "rental_uris": {"android": "https://dc.lft.to/lastmile_qr_scan", "ios": "https://dc.lft.to/lastmile_qr_scan"}, "fusion_lon": 0.0, "is_reserved": 0, "is_disabled": 0, "fusion_lat": 0.0, "type": "electric_scooter", "name": "2d528049fb12ca7a73e447d7e08e2020", "lat": 38.88367566666667, "bike_id": "2d528049fb12ca7a73e447d7e08e2020"}, {"lon": -76.98061566666667, "rental_uris": {"android": "https://dc.lft.to/lastmile_qr_scan", "ios": "https://dc.lft.to/lastmile_qr_scan"}, "fusion_lon": 0.0, "is_reserved": 0, "is_disabled": 0, "fusion_lat": 0.0, "type": "electric_scooter", "name": "d4aaaeeccc4f1031a1c9984cd5d19e09", "lat": 38.884960166666666, "bike_id": "d4aaaeeccc4f1031a1c9984cd5d19e09"}, {"lon": -76.9419545, "rental_uris": {"android": "https://dc.lft.to/lastmile_qr_scan", "ios": "https://dc.lft.to/lastmile_qr_scan"}, "fusion_lon": 0.0, "is_reserved": 0, "is_disabled": 0, "fusion_lat": 0.0, "type": "electric_scooter", "name": "a6370b2f203a0a42ccaa24018c458fbb", "lat": 38.90226233333333, "bike_id": "a6370b2f203a0a42ccaa24018c458fbb"}, {"lon": -77.03471966666666, "rental_uris": {"android": "https://dc.lft.to/lastmile_qr_scan", "ios": "https://dc.lft.to/lastmile_qr_scan"}, "fusion_lon": 0.0, "is_reserved": 0, "is_disabled": 0, "fusion_lat": 0.0, "type": "electric_scooter", "name": "b7f991322f3d2ee9aa2752590d28c104", "lat": 38.905617, "bike_id": "b7f991322f3d2ee9aa2752590d28c104"}, {"lon": -76.99465533333333, "rental_uris": {"android": "https://dc.lft.to/lastmile_qr_scan", "ios": "https://dc.lft.to/lastmile_qr_scan"}, "fusion_lon": 0.0, "is_reserved": 0, "is_disabled": 0, "fusion_lat": 0.0, "type": "electric_scooter", "name": "fcae857eabfad3e78dfdda269202c9cf", "lat": 38.90557183333333, "bike_id": "fcae857eabfad3e78dfdda269202c9cf"}, {"lon": -77.03429633333333, "rental_uris": {"android": "https://dc.lft.to/lastmile_qr_scan", "ios": "https://dc.lft.to/lastmile_qr_scan"}, "fusion_lon": 0.0, "is_reserved": 0, "is_disabled": 0, "fusion_lat": 0.0, "type": "electric_bike", "name": "a1ad3e0adf4e5b2dda706eddbfd6b078", "lat": 38.93087166666667, "bike_id": "a1ad3e0adf4e5b2dda706eddbfd6b078"}, {"lon": -77.03095566666667, "rental_uris": {"android": "https://dc.lft.to/lastmile_qr_scan", "ios": "https://dc.lft.to/lastmile_qr_scan"}, "fusion_lon": 0.0, "is_reserved": 0, "is_disabled": 0, "fusion_lat": 0.0, "type": "electric_scooter", "name": "1518bfb74484a82c633b0e7cdbdc84bc", "lat": 38.923879, "bike_id": "1518bfb74484a82c633b0e7cdbdc84bc"}, {"lon": -77.0487015, "rental_uris": {"android": "https://dc.lft.to/lastmile_qr_scan", "ios": "https://dc.lft.to/lastmile_qr_scan"}, "fusion_lon": 0.0, "is_reserved": 0, "is_disabled": 0, "fusion_lat": 0.0, "type": "electric_scooter", "name": "be327ff67dc9eb77e4ffc3e82ef1e80d", "lat": 38.89226633333333, "bike_id": "be327ff67dc9eb77e4ffc3e82ef1e80d"}, {"lon": -77.03180566666667, "rental_uris": {"android": "https://dc.lft.to/lastmile_qr_scan", "ios": "https://dc.lft.to/lastmile_qr_scan"}, "fusion_lon": 0.0, "is_reserved": 0, "is_disabled": 0, "fusion_lat": 0.0, "type": "electric_scooter", "name": "b9de83f2fc37edc4a58ddc50eac29244", "lat": 38.93613233333333, "bike_id": "b9de83f2fc37edc4a58ddc50eac29244"}, {"lon": -77.0507265, "rental_uris": {"android": "https://dc.lft.to/lastmile_qr_scan", "ios": "https://dc.lft.to/lastmile_qr_scan"}, "fusion_lon": 0.0, "is_reserved": 0, "is_disabled": 0, "fusion_lat": 0.0, "type": "electric_scooter", "name": "58448afa52027c86f548dc4cca11d2c2", "lat": 38.89970783333333, "bike_id": "58448afa52027c86f548dc4cca11d2c2"}, {"lon": -76.99782866666666, "rental_uris": {"android": "https://dc.lft.to/lastmile_qr_scan", "ios": "https://dc.lft.to/lastmile_qr_scan"}, "fusion_lon": 0.0, "is_reserved": 0, "is_disabled": 0, "fusion_lat": 0.0, "type": "electric_scooter", "name": "8b84f5edcce224a7e05026a1735189b2", "lat": 38.84425533333334, "bike_id": "8b84f5edcce224a7e05026a1735189b2"}, {"lon": -77.03473633333333, "rental_uris": {"android": "https://dc.lft.to/lastmile_qr_scan", "ios": "https://dc.lft.to/lastmile_qr_scan"}, "fusion_lon": 0.0, "is_reserved": 0, "is_disabled": 0, "fusion_lat": 0.0, "type": "electric_scooter", "name": "e6c32b1fbe77f5bcab6cf186d7b2d7ba", "lat": 38.88491883333333, "bike_id": "e6c32b1fbe77f5bcab6cf186d7b2d7ba"}, {"lon": -77.01190016666666, "rental_uris": {"android": "https://dc.lft.to/lastmile_qr_scan", "ios": "https://dc.lft.to/lastmile_qr_scan"}, "fusion_lon": 0.0, "is_reserved": 0, "is_disabled": 0, "fusion_lat": 0.0, "type": "electric_scooter", "name": "7713230fe7fd25b4b65ab7cfe8ab470e", "lat": 38.897962, "bike_id": "7713230fe7fd25b4b65ab7cfe8ab470e"}, {"lon": -77.02952383333333, "rental_uris": {"android": "https://dc.lft.to/lastmile_qr_scan", "ios": "https://dc.lft.to/lastmile_qr_scan"}, "fusion_lon": 0.0, "is_reserved": 0, "is_disabled": 0, "fusion_lat": 0.0, "type": "electric_scooter", "name": "136d4b1afa658838acdc853d6bc05aff", "lat": 38.91690533333333, "bike_id": "136d4b1afa658838acdc853d6bc05aff"}, {"lon": -77.0486335, "rental_uris": {"android": "https://dc.lft.to/lastmile_qr_scan", "ios": "https://dc.lft.to/lastmile_qr_scan"}, "fusion_lon": 0.0, "is_reserved": 0, "is_disabled": 0, "fusion_lat": 0.0, "type": "electric_scooter", "name": "7396f660ff83eddb409a27cb8668781e", "lat": 38.89225166666667, "bike_id": "7396f660ff83eddb409a27cb8668781e"}, {"lon": -76.9615305, "rental_uris": {"android": "https://dc.lft.to/lastmile_qr_scan", "ios": "https://dc.lft.to/lastmile_qr_scan"}, "fusion_lon": 0.0, "is_reserved": 0, "is_disabled": 0, "fusion_lat": 0.0, "type": "electric_bike", "name": "1ecd04cf4b6cbbc431fae66c944dd5d5", "lat": 38.85619616666666, "bike_id": "1ecd04cf4b6cbbc431fae66c944dd5d5"}, {"lon": -77.01762166666667, "rental_uris": {"android": "https://dc.lft.to/lastmile_qr_scan", "ios": "https://dc.lft.to/lastmile_qr_scan"}, "fusion_lon": 0.0, "is_reserved": 0, "is_disabled": 0, "fusion_lat": 0.0, "type": "electric_scooter", "name": "f15c4dd6017319d059e20bffa6d8b03d", "lat": 38.90268233333333, "bike_id": "f15c4dd6017319d059e20bffa6d8b03d"}, {"lon": -77.02309333333334, "rental_uris": {"android": "https://dc.lft.to/lastmile_qr_scan", "ios": "https://dc.lft.to/lastmile_qr_scan"}, "fusion_lon": 0.0, "is_reserved": 0, "is_disabled": 0, "fusion_lat": 0.0, "type": "electric_scooter", "name": "ed9f76bc9702bbab82f447656861b82c", "lat": 38.927755833333336, "bike_id": "ed9f76bc9702bbab82f447656861b82c"}, {"lon": -77.00706633333333, "rental_uris": {"android": "https://dc.lft.to/lastmile_qr_scan", "ios": "https://dc.lft.to/lastmile_qr_scan"}, "fusion_lon": 0.0, "is_reserved": 0, "is_disabled": 0, "fusion_lat": 0.0, "type": "electric_scooter", "name": "3722c8ed246a7225482566423499d3b7", "lat": 38.88486666666667, "bike_id": "3722c8ed246a7225482566423499d3b7"}, {"lon": -77.0489645, "rental_uris": {"android": "https://dc.lft.to/lastmile_qr_scan", "ios": "https://dc.lft.to/lastmile_qr_scan"}, "fusion_lon": 0.0, "is_reserved": 0, "is_disabled": 0, "fusion_lat": 0.0, "type": "electric_scooter", "name": "d2a5cd752b58d94dc3d7ffc4f0802b08", "lat": 38.8922765, "bike_id": "d2a5cd752b58d94dc3d7ffc4f0802b08"}, {"lon": -77.02372166666666, "rental_uris": {"android": "https://dc.lft.to/lastmile_qr_scan", "ios": "https://dc.lft.to/lastmile_qr_scan"}, "fusion_lon": 0.0, "is_reserved": 0, "is_disabled": 0, "fusion_lat": 0.0, "type": "electric_scooter", "name": "2e31dcaed9a5e10a5cb0813f6f2eac15", "lat": 38.879287833333336, "bike_id": "2e31dcaed9a5e10a5cb0813f6f2eac15"}, {"lon": -77.0380665, "rental_uris": {"android": "https://dc.lft.to/lastmile_qr_scan", "ios": "https://dc.lft.to/lastmile_qr_scan"}, "fusion_lon": 0.0, "is_reserved": 0, "is_disabled": 0, "fusion_lat": 0.0, "type": "electric_scooter", "name": "5293c6974b5b53f5576e48be3a434011", "lat": 38.915553333333335, "bike_id": "5293c6974b5b53f5576e48be3a434011"}, {"lon": -77.02824883333334, "rental_uris": {"android": "https://dc.lft.to/lastmile_qr_scan", "ios": "https://dc.lft.to/lastmile_qr_scan"}, "fusion_lon": 0.0, "is_reserved": 0, "is_disabled": 0, "fusion_lat": 0.0, "type": "electric_scooter", "name": "6ee8846951aedc1d9d4f24444d45425e", "lat": 38.92247, "bike_id": "6ee8846951aedc1d9d4f24444d45425e"}, {"lon": -77.03658233333333, "rental_uris": {"android": "https://dc.lft.to/lastmile_qr_scan", "ios": "https://dc.lft.to/lastmile_qr_scan"}, "fusion_lon": 0.0, "is_reserved": 0, "is_disabled": 0, "fusion_lat": 0.0, "type": "electric_scooter", "name": "b31cc759f9fcef932d3eac68c1c4b26d", "lat": 38.911355666666665, "bike_id": "b31cc759f9fcef932d3eac68c1c4b26d"}, {"lon": -77.236757, "rental_uris": {"android": "https://dc.lft.to/lastmile_qr_scan", "ios": "https://dc.lft.to/lastmile_qr_scan"}, "fusion_lon": 0.0, "is_reserved": 0, "is_disabled": 0, "fusion_lat": 0.0, "type": "electric_bike", "name": "9ef3c68df86551506f9f4e3cfed82c48", "lat": 38.921159333333335, "bike_id": "9ef3c68df86551506f9f4e3cfed82c48"}, {"lon": -77.072712, "rental_uris": {"android": "https://dc.lft.to/lastmile_qr_scan", "ios": "https://dc.lft.to/lastmile_qr_scan"}, "fusion_lon": 0.0, "is_reserved": 0, "is_disabled": 0, "fusion_lat": 0.0, "type": "electric_scooter", "name": "181be88853cc686281a9dc8393c7ea4e", "lat": 38.9091635, "bike_id": "181be88853cc686281a9dc8393c7ea4e"}, {"lon": -77.03385583333333, "rental_uris": {"android": "https://dc.lft.to/lastmile_qr_scan", "ios": "https://dc.lft.to/lastmile_qr_scan"}, "fusion_lon": 0.0, "is_reserved": 0, "is_disabled": 0, "fusion_lat": 0.0, "type": "electric_scooter", "name": "f2d20af4b219864c3beb553212f68f10", "lat": 38.938542, "bike_id": "f2d20af4b219864c3beb553212f68f10"}, {"lon": -77.0032525, "rental_uris": {"android": "https://dc.lft.to/lastmile_qr_scan", "ios": "https://dc.lft.to/lastmile_qr_scan"}, "fusion_lon": 0.0, "is_reserved": 0, "is_disabled": 0, "fusion_lat": 0.0, "type": "electric_scooter", "name": "bdd3c6e35f45f8149d1f8e6858746304", "lat": 38.876534166666666, "bike_id": "bdd3c6e35f45f8149d1f8e6858746304"}, {"lon": -76.987202, "rental_uris": {"android": "https://dc.lft.to/lastmile_qr_scan", "ios": "https://dc.lft.to/lastmile_qr_scan"}, "fusion_lon": 0.0, "is_reserved": 0, "is_disabled": 0, "fusion_lat": 0.0, "type": "electric_bike", "name": "17675c4d50d06802203fd5b1d5c54262", "lat": 38.863314, "bike_id": "17675c4d50d06802203fd5b1d5c54262"}, {"lon": -77.05307433333333, "rental_uris": {"android": "https://dc.lft.to/lastmile_qr_scan", "ios": "https://dc.lft.to/lastmile_qr_scan"}, "fusion_lon": 0.0, "is_reserved": 0, "is_disabled": 0, "fusion_lat": 0.0, "type": "electric_scooter", "name": "69d426b49a71b45f6bf7b94c0d03dc1e", "lat": 38.9027055, "bike_id": "69d426b49a71b45f6bf7b94c0d03dc1e"}, {"lon": -77.00874933333333, "rental_uris": {"android": "https://dc.lft.to/lastmile_qr_scan", "ios": "https://dc.lft.to/lastmile_qr_scan"}, "fusion_lon": 0.0, "is_reserved": 0, "is_disabled": 0, "fusion_lat": 0.0, "type": "electric_scooter", "name": "b1f336b4b04c6e57ec4a5a5b5bf2becd", "lat": 38.90571383333333, "bike_id": "b1f336b4b04c6e57ec4a5a5b5bf2becd"}, {"lon": -77.03360383333333, "rental_uris": {"android": "https://dc.lft.to/lastmile_qr_scan", "ios": "https://dc.lft.to/lastmile_qr_scan"}, "fusion_lon": 0.0, "is_reserved": 0, "is_disabled": 0, "fusion_lat": 0.0, "type": "electric_scooter", "name": "586d475331b5a2f0402714ca86d7fea8", "lat": 38.945133, "bike_id": "586d475331b5a2f0402714ca86d7fea8"}, {"lon": -77.02143083333333, "rental_uris": {"android": "https://dc.lft.to/lastmile_qr_scan", "ios": "https://dc.lft.to/lastmile_qr_scan"}, "fusion_lon": 0.0, "is_reserved": 0, "is_disabled": 0, "fusion_lat": 0.0, "type": "electric_scooter", "name": "0eaca168e3d4e1e7c6e4e61ccbfda7b8", "lat": 38.924423833333336, "bike_id": "0eaca168e3d4e1e7c6e4e61ccbfda7b8"}, {"lon": -77.03051466666666, "rental_uris": {"android": "https://dc.lft.to/lastmile_qr_scan", "ios": "https://dc.lft.to/lastmile_qr_scan"}, "fusion_lon": 0.0, "is_reserved": 0, "is_disabled": 0, "fusion_lat": 0.0, "type": "electric_scooter", "name": "0c0d00a9dd5a0bdcb3bf662bdce9064f", "lat": 38.913343833333336, "bike_id": "0c0d00a9dd5a0bdcb3bf662bdce9064f"}, {"lon": -77.028185, "rental_uris": {"android": "https://dc.lft.to/lastmile_qr_scan", "ios": "https://dc.lft.to/lastmile_qr_scan"}, "fusion_lon": 0.0, "is_reserved": 0, "is_disabled": 0, "fusion_lat": 0.0, "type": "electric_scooter", "name": "c1e955891bf356b7069992d7e90ca3bb", "lat": 38.887379333333335, "bike_id": "c1e955891bf356b7069992d7e90ca3bb"}, {"lon": -77.027916, "rental_uris": {"android": "https://dc.lft.to/lastmile_qr_scan", "ios": "https://dc.lft.to/lastmile_qr_scan"}, "fusion_lon": 0.0, "is_reserved": 0, "is_disabled": 0, "fusion_lat": 0.0, "type": "electric_scooter", "name": "b9f9308cfbe5bda7ba2d14c463ed5a6a", "lat": 38.9417905, "bike_id": "b9f9308cfbe5bda7ba2d14c463ed5a6a"}, {"lon": -77.02757716666666, "rental_uris": {"android": "https://dc.lft.to/lastmile_qr_scan", "ios": "https://dc.lft.to/lastmile_qr_scan"}, "fusion_lon": 0.0, "is_reserved": 0, "is_disabled": 0, "fusion_lat": 0.0, "type": "electric_scooter", "name": "d4bbce87d6e44c0231a11a733ac1ff0c", "lat": 38.956161333333334, "bike_id": "d4bbce87d6e44c0231a11a733ac1ff0c"}, {"lon": -77.02170466666666, "rental_uris": {"android": "https://dc.lft.to/lastmile_qr_scan", "ios": "https://dc.lft.to/lastmile_qr_scan"}, "fusion_lon": 0.0, "is_reserved": 0, "is_disabled": 0, "fusion_lat": 0.0, "type": "electric_scooter", "name": "c10df3a2387c779bdcb49dc670828e6a", "lat": 38.9191275, "bike_id": "c10df3a2387c779bdcb49dc670828e6a"}, {"lon": -77.04441783333333, "rental_uris": {"android": "https://dc.lft.to/lastmile_qr_scan", "ios": "https://dc.lft.to/lastmile_qr_scan"}, "fusion_lon": 0.0, "is_reserved": 0, "is_disabled": 0, "fusion_lat": 0.0, "type": "electric_scooter", "name": "f710cf617768cdbd0dad3b3de94dcf74", "lat": 38.9058725, "bike_id": "f710cf617768cdbd0dad3b3de94dcf74"}, {"lon": -77.040764, "rental_uris": {"android": "https://dc.lft.to/lastmile_qr_scan", "ios": "https://dc.lft.to/lastmile_qr_scan"}, "fusion_lon": 0.0, "is_reserved": 0, "is_disabled": 0, "fusion_lat": 0.0, "type": "electric_scooter", "name": "e09b656ff128564b77addd04ba5eeceb", "lat": 38.90370333333333, "bike_id": "e09b656ff128564b77addd04ba5eeceb"}, {"lon": -77.07348416666666, "rental_uris": {"android": "https://dc.lft.to/lastmile_qr_scan", "ios": "https://dc.lft.to/lastmile_qr_scan"}, "fusion_lon": 0.0, "is_reserved": 0, "is_disabled": 0, "fusion_lat": 0.0, "type": "electric_scooter", "name": "b6a9acace04f86996f9ac7b83df2f5c3", "lat": 38.93356416666666, "bike_id": "b6a9acace04f86996f9ac7b83df2f5c3"}, {"lon": -77.021171, "rental_uris": {"android": "https://dc.lft.to/lastmile_qr_scan", "ios": "https://dc.lft.to/lastmile_qr_scan"}, "fusion_lon": 0.0, "is_reserved": 0, "is_disabled": 0, "fusion_lat": 0.0, "type": "electric_scooter", "name": "222b58917244cd44e580df074b938a16", "lat": 38.92241033333333, "bike_id": "222b58917244cd44e580df074b938a16"}, {"lon": -77.07383283333333, "rental_uris": {"android": "https://dc.lft.to/lastmile_qr_scan", "ios": "https://dc.lft.to/lastmile_qr_scan"}, "fusion_lon": 0.0, "is_reserved": 0, "is_disabled": 0, "fusion_lat": 0.0, "type": "electric_scooter", "name": "785e7faf9188736b42b8fdb2c87151d5", "lat": 38.910286166666666, "bike_id": "785e7faf9188736b42b8fdb2c87151d5"}, {"lon": -77.04867083333333, "rental_uris": {"android": "https://dc.lft.to/lastmile_qr_scan", "ios": "https://dc.lft.to/lastmile_qr_scan"}, "fusion_lon": 0.0, "is_reserved": 0, "is_disabled": 0, "fusion_lat": 0.0, "type": "electric_scooter", "name": "3dccc35bae722f881f1ed347699d1857", "lat": 38.8984395, "bike_id": "3dccc35bae722f881f1ed347699d1857"}, {"lon": -76.98566266666667, "rental_uris": {"android": "https://dc.lft.to/lastmile_qr_scan", "ios": "https://dc.lft.to/lastmile_qr_scan"}, "fusion_lon": 0.0, "is_reserved": 0, "is_disabled": 0, "fusion_lat": 0.0, "type": "electric_bike", "name": "dbcfb530f05437686c6e9ca92573dea8", "lat": 38.91483783333334, "bike_id": "dbcfb530f05437686c6e9ca92573dea8"}, {"lon": -77.03237066666667, "rental_uris": {"android": "https://dc.lft.to/lastmile_qr_scan", "ios": "https://dc.lft.to/lastmile_qr_scan"}, "fusion_lon": 0.0, "is_reserved": 0, "is_disabled": 0, "fusion_lat": 0.0, "type": "electric_scooter", "name": "3d0a9df095fed0989aacee9a19f17b9c", "lat": 38.92920133333333, "bike_id": "3d0a9df095fed0989aacee9a19f17b9c"}, {"lon": -77.04675566666667, "rental_uris": {"android": "https://dc.lft.to/lastmile_qr_scan", "ios": "https://dc.lft.to/lastmile_qr_scan"}, "fusion_lon": 0.0, "is_reserved": 0, "is_disabled": 0, "fusion_lat": 0.0, "type": "electric_scooter", "name": "e67f832dd391c07b0aab48055a1fe560", "lat": 38.897294, "bike_id": "e67f832dd391c07b0aab48055a1fe560"}, {"lon": -77.0228705, "rental_uris": {"android": "https://dc.lft.to/lastmile_qr_scan", "ios": "https://dc.lft.to/lastmile_qr_scan"}, "fusion_lon": 0.0, "is_reserved": 0, "is_disabled": 0, "fusion_lat": 0.0, "type": "electric_scooter", "name": "f361fc833d04ed8132ce49c29da096dd", "lat": 38.917027, "bike_id": "f361fc833d04ed8132ce49c29da096dd"}, {"lon": -77.03386116666667, "rental_uris": {"android": "https://dc.lft.to/lastmile_qr_scan", "ios": "https://dc.lft.to/lastmile_qr_scan"}, "fusion_lon": 0.0, "is_reserved": 0, "is_disabled": 0, "fusion_lat": 0.0, "type": "electric_scooter", "name": "e298e1cadc5b688534e2125d8264a02c", "lat": 38.88658183333333, "bike_id": "e298e1cadc5b688534e2125d8264a02c"}, {"lon": -77.0439765, "rental_uris": {"android": "https://dc.lft.to/lastmile_qr_scan", "ios": "https://dc.lft.to/lastmile_qr_scan"}, "fusion_lon": 0.0, "is_reserved": 0, "is_disabled": 0, "fusion_lat": 0.0, "type": "electric_scooter", "name": "f6f3db654d590417444e64d1d328f984", "lat": 38.91493916666667, "bike_id": "f6f3db654d590417444e64d1d328f984"}, {"lon": -77.06271816666667, "rental_uris": {"android": "https://dc.lft.to/lastmile_qr_scan", "ios": "https://dc.lft.to/lastmile_qr_scan"}, "fusion_lon": 0.0, "is_reserved": 0, "is_disabled": 0, "fusion_lat": 0.0, "type": "electric_scooter", "name": "e347646720aee11b47c4324d5c5bab92", "lat": 38.902614166666666, "bike_id": "e347646720aee11b47c4324d5c5bab92"}, {"lon": -77.0383025, "rental_uris": {"android": "https://dc.lft.to/lastmile_qr_scan", "ios": "https://dc.lft.to/lastmile_qr_scan"}, "fusion_lon": 0.0, "is_reserved": 0, "is_disabled": 0, "fusion_lat": 0.0, "type": "electric_scooter", "name": "10e74258477761bf9b2e8cb416804079", "lat": 38.918957166666665, "bike_id": "10e74258477761bf9b2e8cb416804079"}, {"lon": -77.0293105, "rental_uris": {"android": "https://dc.lft.to/lastmile_qr_scan", "ios": "https://dc.lft.to/lastmile_qr_scan"}, "fusion_lon": 0.0, "is_reserved": 0, "is_disabled": 0, "fusion_lat": 0.0, "type": "electric_scooter", "name": "3432e6b7b4991be94c6b582e7d44996f", "lat": 38.899323833333334, "bike_id": "3432e6b7b4991be94c6b582e7d44996f"}, {"lon": -77.07937283333334, "rental_uris": {"android": "https://dc.lft.to/lastmile_qr_scan", "ios": "https://dc.lft.to/lastmile_qr_scan"}, "fusion_lon": 0.0, "is_reserved": 0, "is_disabled": 0, "fusion_lat": 0.0, "type": "electric_scooter", "name": "0282bb885823179d2abe2273068e3965", "lat": 38.919262833333335, "bike_id": "0282bb885823179d2abe2273068e3965"}, {"lon": -77.02326766666667, "rental_uris": {"android": "https://dc.lft.to/lastmile_qr_scan", "ios": "https://dc.lft.to/lastmile_qr_scan"}, "fusion_lon": 0.0, "is_reserved": 0, "is_disabled": 0, "fusion_lat": 0.0, "type": "electric_scooter", "name": "89e5994adc67fcb5781124facf7f63b1", "lat": 38.92302016666667, "bike_id": "89e5994adc67fcb5781124facf7f63b1"}, {"lon": -77.02167183333333, "rental_uris": {"android": "https://dc.lft.to/lastmile_qr_scan", "ios": "https://dc.lft.to/lastmile_qr_scan"}, "fusion_lon": 0.0, "is_reserved": 0, "is_disabled": 0, "fusion_lat": 0.0, "type": "electric_scooter", "name": "2f59337010858c0c89f98d5b82d92ee6", "lat": 38.94290933333333, "bike_id": "2f59337010858c0c89f98d5b82d92ee6"}, {"lon": -77.019763, "rental_uris": {"android": "https://dc.lft.to/lastmile_qr_scan", "ios": "https://dc.lft.to/lastmile_qr_scan"}, "fusion_lon": 0.0, "is_reserved": 0, "is_disabled": 0, "fusion_lat": 0.0, "type": "electric_scooter", "name": "c55bd50daf23c5c5f57f078eb39f6811", "lat": 38.911963166666666, "bike_id": "c55bd50daf23c5c5f57f078eb39f6811"}, {"lon": -76.99503366666667, "rental_uris": {"android": "https://dc.lft.to/lastmile_qr_scan", "ios": "https://dc.lft.to/lastmile_qr_scan"}, "fusion_lon": 0.0, "is_reserved": 0, "is_disabled": 0, "fusion_lat": 0.0, "type": "electric_scooter", "name": "ecc3a845aeb2e706bd7d2f15adc4706b", "lat": 38.904689, "bike_id": "ecc3a845aeb2e706bd7d2f15adc4706b"}, {"lon": -77.01822316666667, "rental_uris": {"android": "https://dc.lft.to/lastmile_qr_scan", "ios": "https://dc.lft.to/lastmile_qr_scan"}, "fusion_lon": 0.0, "is_reserved": 0, "is_disabled": 0, "fusion_lat": 0.0, "type": "electric_scooter", "name": "8c15c01eb6c129580e908ec086bf932c", "lat": 38.92238783333333, "bike_id": "8c15c01eb6c129580e908ec086bf932c"}, {"lon": -77.03808766666667, "rental_uris": {"android": "https://dc.lft.to/lastmile_qr_scan", "ios": "https://dc.lft.to/lastmile_qr_scan"}, "fusion_lon": 0.0, "is_reserved": 0, "is_disabled": 0, "fusion_lat": 0.0, "type": "electric_scooter", "name": "7aa915885a748b52226a14c83c17deee", "lat": 38.923217666666666, "bike_id": "7aa915885a748b52226a14c83c17deee"}, {"lon": -77.030008, "rental_uris": {"android": "https://dc.lft.to/lastmile_qr_scan", "ios": "https://dc.lft.to/lastmile_qr_scan"}, "fusion_lon": 0.0, "is_reserved": 0, "is_disabled": 0, "fusion_lat": 0.0, "type": "electric_scooter", "name": "c8f9fe3bd7671f1611fd70a370c9d15e", "lat": 38.91654166666667, "bike_id": "c8f9fe3bd7671f1611fd70a370c9d15e"}, {"lon": -77.05757733333333, "rental_uris": {"android": "https://dc.lft.to/lastmile_qr_scan", "ios": "https://dc.lft.to/lastmile_qr_scan"}, "fusion_lon": 0.0, "is_reserved": 0, "is_disabled": 0, "fusion_lat": 0.0, "type": "electric_scooter", "name": "379202198b4c0a7e55608dde34dd9896", "lat": 38.933763166666665, "bike_id": "379202198b4c0a7e55608dde34dd9896"}, {"lon": -76.99652833333333, "rental_uris": {"android": "https://dc.lft.to/lastmile_qr_scan", "ios": "https://dc.lft.to/lastmile_qr_scan"}, "fusion_lon": 0.0, "is_reserved": 0, "is_disabled": 0, "fusion_lat": 0.0, "type": "electric_scooter", "name": "73a76c7b18f23805300a90ce35c9aad7", "lat": 38.8598495, "bike_id": "73a76c7b18f23805300a90ce35c9aad7"}, {"lon": -77.00158733333333, "rental_uris": {"android": "https://dc.lft.to/lastmile_qr_scan", "ios": "https://dc.lft.to/lastmile_qr_scan"}, "fusion_lon": 0.0, "is_reserved": 0, "is_disabled": 0, "fusion_lat": 0.0, "type": "electric_scooter", "name": "3476f3d2be2581e880f5a2b0d778712b", "lat": 38.95833533333333, "bike_id": "3476f3d2be2581e880f5a2b0d778712b"}, {"lon": -77.04331183333333, "rental_uris": {"android": "https://dc.lft.to/lastmile_qr_scan", "ios": "https://dc.lft.to/lastmile_qr_scan"}, "fusion_lon": 0.0, "is_reserved": 0, "is_disabled": 0, "fusion_lat": 0.0, "type": "electric_scooter", "name": "aaefeb527a40011cccdcd21c0d99c504", "lat": 38.901328166666666, "bike_id": "aaefeb527a40011cccdcd21c0d99c504"}, {"lon": -77.039298, "rental_uris": {"android": "https://dc.lft.to/lastmile_qr_scan", "ios": "https://dc.lft.to/lastmile_qr_scan"}, "fusion_lon": 0.0, "is_reserved": 0, "is_disabled": 0, "fusion_lat": 0.0, "type": "electric_scooter", "name": "2df79d95a7226b2b44c767a6ddca936e", "lat": 38.9016025, "bike_id": "2df79d95a7226b2b44c767a6ddca936e"}, {"lon": -77.03353766666666, "rental_uris": {"android": "https://dc.lft.to/lastmile_qr_scan", "ios": "https://dc.lft.to/lastmile_qr_scan"}, "fusion_lon": 0.0, "is_reserved": 0, "is_disabled": 0, "fusion_lat": 0.0, "type": "electric_scooter", "name": "6348fc2ceb96d6a63defcb9d1e490e01", "lat": 38.89794083333334, "bike_id": "6348fc2ceb96d6a63defcb9d1e490e01"}, {"lon": -77.04269116666667, "rental_uris": {"android": "https://dc.lft.to/lastmile_qr_scan", "ios": "https://dc.lft.to/lastmile_qr_scan"}, "fusion_lon": 0.0, "is_reserved": 0, "is_disabled": 0, "fusion_lat": 0.0, "type": "electric_scooter", "name": "65515ad41fab4dec1445b9f027d5dc40", "lat": 38.92241583333333, "bike_id": "65515ad41fab4dec1445b9f027d5dc40"}, {"lon": -77.00302233333333, "rental_uris": {"android": "https://dc.lft.to/lastmile_qr_scan", "ios": "https://dc.lft.to/lastmile_qr_scan"}, "fusion_lon": 0.0, "is_reserved": 0, "is_disabled": 0, "fusion_lat": 0.0, "type": "electric_scooter", "name": "d0eb29d6faecf15603f0a114452e23f8", "lat": 38.876647, "bike_id": "d0eb29d6faecf15603f0a114452e23f8"}, {"lon": -77.04598216666666, "rental_uris": {"android": "https://dc.lft.to/lastmile_qr_scan", "ios": "https://dc.lft.to/lastmile_qr_scan"}, "fusion_lon": 0.0, "is_reserved": 0, "is_disabled": 0, "fusion_lat": 0.0, "type": "electric_scooter", "name": "68751dd8c8839afada77e0a9cb6ed4ca", "lat": 38.89615333333333, "bike_id": "68751dd8c8839afada77e0a9cb6ed4ca"}, {"lon": -77.03222483333333, "rental_uris": {"android": "https://dc.lft.to/lastmile_qr_scan", "ios": "https://dc.lft.to/lastmile_qr_scan"}, "fusion_lon": 0.0, "is_reserved": 0, "is_disabled": 0, "fusion_lat": 0.0, "type": "electric_scooter", "name": "e1dcbcd1188147ead727e28981262815", "lat": 38.9170965, "bike_id": "e1dcbcd1188147ead727e28981262815"}, {"lon": -77.02398266666667, "rental_uris": {"android": "https://dc.lft.to/lastmile_qr_scan", "ios": "https://dc.lft.to/lastmile_qr_scan"}, "fusion_lon": 0.0, "is_reserved": 0, "is_disabled": 0, "fusion_lat": 0.0, "type": "electric_scooter", "name": "6e70bed76e53a155027a2047e427d85b", "lat": 38.90188666666667, "bike_id": "6e70bed76e53a155027a2047e427d85b"}, {"lon": -77.01952083333333, "rental_uris": {"android": "https://dc.lft.to/lastmile_qr_scan", "ios": "https://dc.lft.to/lastmile_qr_scan"}, "fusion_lon": 0.0, "is_reserved": 0, "is_disabled": 0, "fusion_lat": 0.0, "type": "electric_scooter", "name": "ea3b3356a48694d9daa30fe9c2b8ad5c", "lat": 38.92262916666667, "bike_id": "ea3b3356a48694d9daa30fe9c2b8ad5c"}, {"lon": -77.04675133333333, "rental_uris": {"android": "https://dc.lft.to/lastmile_qr_scan", "ios": "https://dc.lft.to/lastmile_qr_scan"}, "fusion_lon": 0.0, "is_reserved": 0, "is_disabled": 0, "fusion_lat": 0.0, "type": "electric_scooter", "name": "45667c23631f83ae353cf6168865d2f0", "lat": 38.89554, "bike_id": "45667c23631f83ae353cf6168865d2f0"}, {"lon": -77.03826166666667, "rental_uris": {"android": "https://dc.lft.to/lastmile_qr_scan", "ios": "https://dc.lft.to/lastmile_qr_scan"}, "fusion_lon": 0.0, "is_reserved": 0, "is_disabled": 0, "fusion_lat": 0.0, "type": "electric_scooter", "name": "58232a663dc8113e958bcfdb6ded1e33", "lat": 38.90776533333333, "bike_id": "58232a663dc8113e958bcfdb6ded1e33"}, {"lon": -77.02296533333333, "rental_uris": {"android": "https://dc.lft.to/lastmile_qr_scan", "ios": "https://dc.lft.to/lastmile_qr_scan"}, "fusion_lon": 0.0, "is_reserved": 0, "is_disabled": 0, "fusion_lat": 0.0, "type": "electric_scooter", "name": "92b3132791615599d43f020c43da6c13", "lat": 38.917008333333335, "bike_id": "92b3132791615599d43f020c43da6c13"}, {"lon": -77.02656283333333, "rental_uris": {"android": "https://dc.lft.to/lastmile_qr_scan", "ios": "https://dc.lft.to/lastmile_qr_scan"}, "fusion_lon": 0.0, "is_reserved": 0, "is_disabled": 0, "fusion_lat": 0.0, "type": "electric_bike", "name": "f02ed6bcafe2ac152ac77ea60f9db6c2", "lat": 38.99436716666666, "bike_id": "f02ed6bcafe2ac152ac77ea60f9db6c2"}, {"lon": -77.040017, "rental_uris": {"android": "https://dc.lft.to/lastmile_qr_scan", "ios": "https://dc.lft.to/lastmile_qr_scan"}, "fusion_lon": 0.0, "is_reserved": 0, "is_disabled": 0, "fusion_lat": 0.0, "type": "electric_scooter", "name": "11c5e1e4881a169f75e0ca16f1a617d2", "lat": 38.934272, "bike_id": "11c5e1e4881a169f75e0ca16f1a617d2"}, {"lon": -77.00918583333333, "rental_uris": {"android": "https://dc.lft.to/lastmile_qr_scan", "ios": "https://dc.lft.to/lastmile_qr_scan"}, "fusion_lon": 0.0, "is_reserved": 0, "is_disabled": 0, "fusion_lat": 0.0, "type": "electric_scooter", "name": "9b363121c5b56dcd4f4b66f98c4d7d8f", "lat": 38.89549983333333, "bike_id": "9b363121c5b56dcd4f4b66f98c4d7d8f"}, {"lon": -76.93746566666667, "rental_uris": {"android": "https://dc.lft.to/lastmile_qr_scan", "ios": "https://dc.lft.to/lastmile_qr_scan"}, "fusion_lon": 0.0, "is_reserved": 0, "is_disabled": 0, "fusion_lat": 0.0, "type": "electric_scooter", "name": "43d07a7dd6b309a179ddc64ed83e0f70", "lat": 38.89009883333333, "bike_id": "43d07a7dd6b309a179ddc64ed83e0f70"}, {"lon": -77.03320933333333, "rental_uris": {"android": "https://dc.lft.to/lastmile_qr_scan", "ios": "https://dc.lft.to/lastmile_qr_scan"}, "fusion_lon": 0.0, "is_reserved": 0, "is_disabled": 0, "fusion_lat": 0.0, "type": "electric_scooter", "name": "87dd88d5469666353bb181ef287e0bf1", "lat": 38.89650266666666, "bike_id": "87dd88d5469666353bb181ef287e0bf1"}, {"lon": -77.04482883333333, "rental_uris": {"android": "https://dc.lft.to/lastmile_qr_scan", "ios": "https://dc.lft.to/lastmile_qr_scan"}, "fusion_lon": 0.0, "is_reserved": 0, "is_disabled": 0, "fusion_lat": 0.0, "type": "electric_scooter", "name": "a19444d0962ff83234a35777e53d35fe", "lat": 38.8923755, "bike_id": "a19444d0962ff83234a35777e53d35fe"}, {"lon": -77.09960066666666, "rental_uris": {"android": "https://dc.lft.to/lastmile_qr_scan", "ios": "https://dc.lft.to/lastmile_qr_scan"}, "fusion_lon": 0.0, "is_reserved": 0, "is_disabled": 0, "fusion_lat": 0.0, "type": "electric_scooter", "name": "2942d9a04ee4cd34f8b1c716f1abd9f0", "lat": 38.949753333333334, "bike_id": "2942d9a04ee4cd34f8b1c716f1abd9f0"}, {"lon": -76.98549066666666, "rental_uris": {"android": "https://dc.lft.to/lastmile_qr_scan", "ios": "https://dc.lft.to/lastmile_qr_scan"}, "fusion_lon": 0.0, "is_reserved": 0, "is_disabled": 0, "fusion_lat": 0.0, "type": "electric_scooter", "name": "7261544569eab50039f6d7c24404fb36", "lat": 38.899784333333336, "bike_id": "7261544569eab50039f6d7c24404fb36"}, {"lon": -77.023822, "rental_uris": {"android": "https://dc.lft.to/lastmile_qr_scan", "ios": "https://dc.lft.to/lastmile_qr_scan"}, "fusion_lon": 0.0, "is_reserved": 0, "is_disabled": 0, "fusion_lat": 0.0, "type": "electric_scooter", "name": "ef249024f34bdc2b502f482b03b73ed3", "lat": 38.887362833333334, "bike_id": "ef249024f34bdc2b502f482b03b73ed3"}, {"lon": -76.98518416666667, "rental_uris": {"android": "https://dc.lft.to/lastmile_qr_scan", "ios": "https://dc.lft.to/lastmile_qr_scan"}, "fusion_lon": 0.0, "is_reserved": 0, "is_disabled": 0, "fusion_lat": 0.0, "type": "electric_bike", "name": "4da12df75cbc02de0f1c2fa3314a77c8", "lat": 38.868917333333336, "bike_id": "4da12df75cbc02de0f1c2fa3314a77c8"}, {"lon": -77.02307366666666, "rental_uris": {"android": "https://dc.lft.to/lastmile_qr_scan", "ios": "https://dc.lft.to/lastmile_qr_scan"}, "fusion_lon": 0.0, "is_reserved": 0, "is_disabled": 0, "fusion_lat": 0.0, "type": "electric_scooter", "name": "8b9f44671da6c6cbf5dde7b2e720216f", "lat": 38.9178205, "bike_id": "8b9f44671da6c6cbf5dde7b2e720216f"}, {"lon": -77.08062783333334, "rental_uris": {"android": "https://dc.lft.to/lastmile_qr_scan", "ios": "https://dc.lft.to/lastmile_qr_scan"}, "fusion_lon": 0.0, "is_reserved": 0, "is_disabled": 0, "fusion_lat": 0.0, "type": "electric_bike", "name": "6e28d58c26ebc24f305c367bde040bec", "lat": 39.052542333333335, "bike_id": "6e28d58c26ebc24f305c367bde040bec"}, {"lon": -77.0208375, "rental_uris": {"android": "https://dc.lft.to/lastmile_qr_scan", "ios": "https://dc.lft.to/lastmile_qr_scan"}, "fusion_lon": 0.0, "is_reserved": 0, "is_disabled": 0, "fusion_lat": 0.0, "type": "electric_scooter", "name": "577986d2aea4e121fb8777c7a4c81d22", "lat": 38.921234, "bike_id": "577986d2aea4e121fb8777c7a4c81d22"}, {"lon": -76.973301, "rental_uris": {"android": "https://dc.lft.to/lastmile_qr_scan", "ios": "https://dc.lft.to/lastmile_qr_scan"}, "fusion_lon": 0.0, "is_reserved": 0, "is_disabled": 0, "fusion_lat": 0.0, "type": "electric_scooter", "name": "370f5c20b40bd8bcb09ac88665123eb0", "lat": 38.904106, "bike_id": "370f5c20b40bd8bcb09ac88665123eb0"}, {"lon": -77.00557783333333, "rental_uris": {"android": "https://dc.lft.to/lastmile_qr_scan", "ios": "https://dc.lft.to/lastmile_qr_scan"}, "fusion_lon": 0.0, "is_reserved": 0, "is_disabled": 0, "fusion_lat": 0.0, "type": "electric_scooter", "name": "9c51f58b9e9f68fa256ea61afdf174d4", "lat": 38.87559783333333, "bike_id": "9c51f58b9e9f68fa256ea61afdf174d4"}, {"lon": -77.00925283333333, "rental_uris": {"android": "https://dc.lft.to/lastmile_qr_scan", "ios": "https://dc.lft.to/lastmile_qr_scan"}, "fusion_lon": 0.0, "is_reserved": 0, "is_disabled": 0, "fusion_lat": 0.0, "type": "electric_scooter", "name": "aaf433cc21c6c0c7b24d6d6c4999a574", "lat": 38.896076666666666, "bike_id": "aaf433cc21c6c0c7b24d6d6c4999a574"}, {"lon": -77.0224635, "rental_uris": {"android": "https://dc.lft.to/lastmile_qr_scan", "ios": "https://dc.lft.to/lastmile_qr_scan"}, "fusion_lon": 0.0, "is_reserved": 0, "is_disabled": 0, "fusion_lat": 0.0, "type": "electric_scooter", "name": "6b04523ab340596e3e06dea4de36ce6a", "lat": 38.89328233333333, "bike_id": "6b04523ab340596e3e06dea4de36ce6a"}, {"lon": -76.99844916666666, "rental_uris": {"android": "https://dc.lft.to/lastmile_qr_scan", "ios": "https://dc.lft.to/lastmile_qr_scan"}, "fusion_lon": 0.0, "is_reserved": 0, "is_disabled": 0, "fusion_lat": 0.0, "type": "electric_scooter", "name": "e6b1f3037b1f7445b338a6521f14f891", "lat": 38.839512, "bike_id": "e6b1f3037b1f7445b338a6521f14f891"}, {"lon": -77.032366, "rental_uris": {"android": "https://dc.lft.to/lastmile_qr_scan", "ios": "https://dc.lft.to/lastmile_qr_scan"}, "fusion_lon": 0.0, "is_reserved": 0, "is_disabled": 0, "fusion_lat": 0.0, "type": "electric_scooter", "name": "8b88155b06cd304e90057619fdba6cb7", "lat": 38.91988116666667, "bike_id": "8b88155b06cd304e90057619fdba6cb7"}, {"lon": -77.0271595, "rental_uris": {"android": "https://dc.lft.to/lastmile_qr_scan", "ios": "https://dc.lft.to/lastmile_qr_scan"}, "fusion_lon": 0.0, "is_reserved": 0, "is_disabled": 0, "fusion_lat": 0.0, "type": "electric_scooter", "name": "f50eb9d71c5c7b0f16ec036382066e94", "lat": 38.898503166666664, "bike_id": "f50eb9d71c5c7b0f16ec036382066e94"}, {"lon": -77.04542333333333, "rental_uris": {"android": "https://dc.lft.to/lastmile_qr_scan", "ios": "https://dc.lft.to/lastmile_qr_scan"}, "fusion_lon": 0.0, "is_reserved": 0, "is_disabled": 0, "fusion_lat": 0.0, "type": "electric_scooter", "name": "035b0b554dc4d7ca21e20f74a3457b48", "lat": 38.9111675, "bike_id": "035b0b554dc4d7ca21e20f74a3457b48"}, {"lon": -77.02947533333334, "rental_uris": {"android": "https://dc.lft.to/lastmile_qr_scan", "ios": "https://dc.lft.to/lastmile_qr_scan"}, "fusion_lon": 0.0, "is_reserved": 0, "is_disabled": 0, "fusion_lat": 0.0, "type": "electric_scooter", "name": "66f460bd5255bcca5a5d38bb2c35c07d", "lat": 38.90173166666667, "bike_id": "66f460bd5255bcca5a5d38bb2c35c07d"}, {"lon": -77.02980516666666, "rental_uris": {"android": "https://dc.lft.to/lastmile_qr_scan", "ios": "https://dc.lft.to/lastmile_qr_scan"}, "fusion_lon": 0.0, "is_reserved": 0, "is_disabled": 0, "fusion_lat": 0.0, "type": "electric_scooter", "name": "47003bada4f2ec1ab779d5772c0108a4", "lat": 38.9498105, "bike_id": "47003bada4f2ec1ab779d5772c0108a4"}, {"lon": -77.031781, "rental_uris": {"android": "https://dc.lft.to/lastmile_qr_scan", "ios": "https://dc.lft.to/lastmile_qr_scan"}, "fusion_lon": 0.0, "is_reserved": 0, "is_disabled": 0, "fusion_lat": 0.0, "type": "electric_scooter", "name": "820ca7ae39e2368504ecd9f1f7c3c236", "lat": 38.887348333333335, "bike_id": "820ca7ae39e2368504ecd9f1f7c3c236"}, {"lon": -77.02939183333334, "rental_uris": {"android": "https://dc.lft.to/lastmile_qr_scan", "ios": "https://dc.lft.to/lastmile_qr_scan"}, "fusion_lon": 0.0, "is_reserved": 0, "is_disabled": 0, "fusion_lat": 0.0, "type": "electric_scooter", "name": "2ce4fb868591a854af0b21c63daf7cdd", "lat": 38.942825166666665, "bike_id": "2ce4fb868591a854af0b21c63daf7cdd"}, {"lon": -76.99570833333334, "rental_uris": {"android": "https://dc.lft.to/lastmile_qr_scan", "ios": "https://dc.lft.to/lastmile_qr_scan"}, "fusion_lon": 0.0, "is_reserved": 0, "is_disabled": 0, "fusion_lat": 0.0, "type": "electric_scooter", "name": "23fd0aba1fed92f9a96f15087cea1522", "lat": 38.86273683333334, "bike_id": "23fd0aba1fed92f9a96f15087cea1522"}, {"lon": -77.04132516666667, "rental_uris": {"android": "https://dc.lft.to/lastmile_qr_scan", "ios": "https://dc.lft.to/lastmile_qr_scan"}, "fusion_lon": 0.0, "is_reserved": 0, "is_disabled": 0, "fusion_lat": 0.0, "type": "electric_scooter", "name": "12facc2f55b0ca4373beb4a93041c2c5", "lat": 38.905090666666666, "bike_id": "12facc2f55b0ca4373beb4a93041c2c5"}, {"lon": -77.0232075, "rental_uris": {"android": "https://dc.lft.to/lastmile_qr_scan", "ios": "https://dc.lft.to/lastmile_qr_scan"}, "fusion_lon": 0.0, "is_reserved": 0, "is_disabled": 0, "fusion_lat": 0.0, "type": "electric_scooter", "name": "c3f4eb57cf190ce33e56401f9117693c", "lat": 38.898422333333336, "bike_id": "c3f4eb57cf190ce33e56401f9117693c"}, {"lon": -77.0215885, "rental_uris": {"android": "https://dc.lft.to/lastmile_qr_scan", "ios": "https://dc.lft.to/lastmile_qr_scan"}, "fusion_lon": 0.0, "is_reserved": 0, "is_disabled": 0, "fusion_lat": 0.0, "type": "electric_scooter", "name": "dcd13be72701fe5890cd86f0bd779fdc", "lat": 38.898837666666665, "bike_id": "dcd13be72701fe5890cd86f0bd779fdc"}, {"lon": -77.01822783333333, "rental_uris": {"android": "https://dc.lft.to/lastmile_qr_scan", "ios": "https://dc.lft.to/lastmile_qr_scan"}, "fusion_lon": 0.0, "is_reserved": 0, "is_disabled": 0, "fusion_lat": 0.0, "type": "electric_scooter", "name": "328c2c3dee9ebaba0e4aaa7556799b7d", "lat": 38.92262133333333, "bike_id": "328c2c3dee9ebaba0e4aaa7556799b7d"}, {"lon": -77.04654116666667, "rental_uris": {"android": "https://dc.lft.to/lastmile_qr_scan", "ios": "https://dc.lft.to/lastmile_qr_scan"}, "fusion_lon": 0.0, "is_reserved": 0, "is_disabled": 0, "fusion_lat": 0.0, "type": "electric_scooter", "name": "e470c0376852e43049898c6dc5380c77", "lat": 38.903820333333336, "bike_id": "e470c0376852e43049898c6dc5380c77"}, {"lon": -77.047143, "rental_uris": {"android": "https://dc.lft.to/lastmile_qr_scan", "ios": "https://dc.lft.to/lastmile_qr_scan"}, "fusion_lon": 0.0, "is_reserved": 0, "is_disabled": 0, "fusion_lat": 0.0, "type": "electric_bike", "name": "7b8e71dd5f342a58c68c7dad30e20044", "lat": 38.99775916666667, "bike_id": "7b8e71dd5f342a58c68c7dad30e20044"}, {"lon": -77.070296, "rental_uris": {"android": "https://dc.lft.to/lastmile_qr_scan", "ios": "https://dc.lft.to/lastmile_qr_scan"}, "fusion_lon": 0.0, "is_reserved": 0, "is_disabled": 0, "fusion_lat": 0.0, "type": "electric_scooter", "name": "734e10299307b14d44b7963e0c0797e0", "lat": 38.919106166666666, "bike_id": "734e10299307b14d44b7963e0c0797e0"}, {"lon": -77.00289516666666, "rental_uris": {"android": "https://dc.lft.to/lastmile_qr_scan", "ios": "https://dc.lft.to/lastmile_qr_scan"}, "fusion_lon": 0.0, "is_reserved": 0, "is_disabled": 0, "fusion_lat": 0.0, "type": "electric_scooter", "name": "a86a56cac9eb92483678179d7bb0ae99", "lat": 38.89234183333333, "bike_id": "a86a56cac9eb92483678179d7bb0ae99"}, {"lon": -77.04648366666666, "rental_uris": {"android": "https://dc.lft.to/lastmile_qr_scan", "ios": "https://dc.lft.to/lastmile_qr_scan"}, "fusion_lon": 0.0, "is_reserved": 0, "is_disabled": 0, "fusion_lat": 0.0, "type": "electric_scooter", "name": "420d8542713579264522e9681371e283", "lat": 38.910281166666664, "bike_id": "420d8542713579264522e9681371e283"}, {"lon": -77.04518733333333, "rental_uris": {"android": "https://dc.lft.to/lastmile_qr_scan", "ios": "https://dc.lft.to/lastmile_qr_scan"}, "fusion_lon": 0.0, "is_reserved": 0, "is_disabled": 0, "fusion_lat": 0.0, "type": "electric_scooter", "name": "e949783e98145f9970c50c656e01ae0f", "lat": 38.90139333333333, "bike_id": "e949783e98145f9970c50c656e01ae0f"}, {"lon": -76.9732965, "rental_uris": {"android": "https://dc.lft.to/lastmile_qr_scan", "ios": "https://dc.lft.to/lastmile_qr_scan"}, "fusion_lon": 0.0, "is_reserved": 0, "is_disabled": 0, "fusion_lat": 0.0, "type": "electric_scooter", "name": "9da51ebb8e7de58601d928213f5b29da", "lat": 38.904100166666666, "bike_id": "9da51ebb8e7de58601d928213f5b29da"}, {"lon": -77.032677, "rental_uris": {"android": "https://dc.lft.to/lastmile_qr_scan", "ios": "https://dc.lft.to/lastmile_qr_scan"}, "fusion_lon": 0.0, "is_reserved": 0, "is_disabled": 0, "fusion_lat": 0.0, "type": "electric_scooter", "name": "d5962a86bf9b081bc1436af680531fa4", "lat": 38.92851533333334, "bike_id": "d5962a86bf9b081bc1436af680531fa4"}, {"lon": -77.0407885, "rental_uris": {"android": "https://dc.lft.to/lastmile_qr_scan", "ios": "https://dc.lft.to/lastmile_qr_scan"}, "fusion_lon": 0.0, "is_reserved": 0, "is_disabled": 0, "fusion_lat": 0.0, "type": "electric_scooter", "name": "82ba14c85b1a4c705e16e56692a2762e", "lat": 38.93281066666667, "bike_id": "82ba14c85b1a4c705e16e56692a2762e"}, {"lon": -76.98439533333334, "rental_uris": {"android": "https://dc.lft.to/lastmile_qr_scan", "ios": "https://dc.lft.to/lastmile_qr_scan"}, "fusion_lon": 0.0, "is_reserved": 0, "is_disabled": 0, "fusion_lat": 0.0, "type": "electric_scooter", "name": "506f545ba94a5103ad19d2e9f798ce38", "lat": 38.914347666666664, "bike_id": "506f545ba94a5103ad19d2e9f798ce38"}, {"lon": -77.02161016666666, "rental_uris": {"android": "https://dc.lft.to/lastmile_qr_scan", "ios": "https://dc.lft.to/lastmile_qr_scan"}, "fusion_lon": 0.0, "is_reserved": 0, "is_disabled": 0, "fusion_lat": 0.0, "type": "electric_scooter", "name": "1dfddfeba1914ca65bc7c25e31fb9582", "lat": 38.92612233333333, "bike_id": "1dfddfeba1914ca65bc7c25e31fb9582"}, {"lon": -77.0714325, "rental_uris": {"android": "https://dc.lft.to/lastmile_qr_scan", "ios": "https://dc.lft.to/lastmile_qr_scan"}, "fusion_lon": 0.0, "is_reserved": 0, "is_disabled": 0, "fusion_lat": 0.0, "type": "electric_scooter", "name": "26ff1e2e0835f9076d987e8509bb3dff", "lat": 38.9203, "bike_id": "26ff1e2e0835f9076d987e8509bb3dff"}, {"lon": -77.0215835, "rental_uris": {"android": "https://dc.lft.to/lastmile_qr_scan", "ios": "https://dc.lft.to/lastmile_qr_scan"}, "fusion_lon": 0.0, "is_reserved": 0, "is_disabled": 0, "fusion_lat": 0.0, "type": "electric_scooter", "name": "062e32f72b24591415962b7119ea0f28", "lat": 38.926139666666664, "bike_id": "062e32f72b24591415962b7119ea0f28"}, {"lon": -77.06812533333333, "rental_uris": {"android": "https://dc.lft.to/lastmile_qr_scan", "ios": "https://dc.lft.to/lastmile_qr_scan"}, "fusion_lon": 0.0, "is_reserved": 0, "is_disabled": 0, "fusion_lat": 0.0, "type": "electric_scooter", "name": "60c4c9d910fb5ec8a429662628898ce9", "lat": 38.903914666666665, "bike_id": "60c4c9d910fb5ec8a429662628898ce9"}, {"lon": -77.042278, "rental_uris": {"android": "https://dc.lft.to/lastmile_qr_scan", "ios": "https://dc.lft.to/lastmile_qr_scan"}, "fusion_lon": 0.0, "is_reserved": 0, "is_disabled": 0, "fusion_lat": 0.0, "type": "electric_scooter", "name": "b549deb16e61d2576ee8cf8c2ac176e8", "lat": 38.921102, "bike_id": "b549deb16e61d2576ee8cf8c2ac176e8"}, {"lon": -77.02135933333334, "rental_uris": {"android": "https://dc.lft.to/lastmile_qr_scan", "ios": "https://dc.lft.to/lastmile_qr_scan"}, "fusion_lon": 0.0, "is_reserved": 0, "is_disabled": 0, "fusion_lat": 0.0, "type": "electric_scooter", "name": "ffcfb24d691ee4f859efb0cc03783919", "lat": 38.9199425, "bike_id": "ffcfb24d691ee4f859efb0cc03783919"}, {"lon": -77.00575916666666, "rental_uris": {"android": "https://dc.lft.to/lastmile_qr_scan", "ios": "https://dc.lft.to/lastmile_qr_scan"}, "fusion_lon": 0.0, "is_reserved": 0, "is_disabled": 0, "fusion_lat": 0.0, "type": "electric_scooter", "name": "32a38e893d652cfbfb01f6b4f70c49e0", "lat": 38.90010816666667, "bike_id": "32a38e893d652cfbfb01f6b4f70c49e0"}, {"lon": -77.03658733333333, "rental_uris": {"android": "https://dc.lft.to/lastmile_qr_scan", "ios": "https://dc.lft.to/lastmile_qr_scan"}, "fusion_lon": 0.0, "is_reserved": 0, "is_disabled": 0, "fusion_lat": 0.0, "type": "electric_scooter", "name": "235a25336884251ffb08a80624f5206f", "lat": 38.92387216666667, "bike_id": "235a25336884251ffb08a80624f5206f"}, {"lon": -77.02371216666667, "rental_uris": {"android": "https://dc.lft.to/lastmile_qr_scan", "ios": "https://dc.lft.to/lastmile_qr_scan"}, "fusion_lon": 0.0, "is_reserved": 0, "is_disabled": 0, "fusion_lat": 0.0, "type": "electric_scooter", "name": "16bbacfe9962b5f620fffd9df41eb7a8", "lat": 38.89221366666666, "bike_id": "16bbacfe9962b5f620fffd9df41eb7a8"}, {"lon": -77.02635333333333, "rental_uris": {"android": "https://dc.lft.to/lastmile_qr_scan", "ios": "https://dc.lft.to/lastmile_qr_scan"}, "fusion_lon": 0.0, "is_reserved": 0, "is_disabled": 0, "fusion_lat": 0.0, "type": "electric_scooter", "name": "2d4bf413bc4b817411528a713980e921", "lat": 38.94096966666667, "bike_id": "2d4bf413bc4b817411528a713980e921"}, {"lon": -77.005499, "rental_uris": {"android": "https://dc.lft.to/lastmile_qr_scan", "ios": "https://dc.lft.to/lastmile_qr_scan"}, "fusion_lon": 0.0, "is_reserved": 0, "is_disabled": 0, "fusion_lat": 0.0, "type": "electric_scooter", "name": "b774fb16246f9cc5db81137cf3767585", "lat": 38.902093666666666, "bike_id": "b774fb16246f9cc5db81137cf3767585"}, {"lon": -77.04421883333333, "rental_uris": {"android": "https://dc.lft.to/lastmile_qr_scan", "ios": "https://dc.lft.to/lastmile_qr_scan"}, "fusion_lon": 0.0, "is_reserved": 0, "is_disabled": 0, "fusion_lat": 0.0, "type": "electric_bike", "name": "0e711fefb7a98ef744fd6f609eb9f53d", "lat": 38.900341833333336, "bike_id": "0e711fefb7a98ef744fd6f609eb9f53d"}, {"lon": -77.06747, "rental_uris": {"android": "https://dc.lft.to/lastmile_qr_scan", "ios": "https://dc.lft.to/lastmile_qr_scan"}, "fusion_lon": 0.0, "is_reserved": 0, "is_disabled": 0, "fusion_lat": 0.0, "type": "electric_scooter", "name": "f2b89b81dcafef92a11b0f3394175354", "lat": 38.905176, "bike_id": "f2b89b81dcafef92a11b0f3394175354"}, {"lon": -77.04045866666667, "rental_uris": {"android": "https://dc.lft.to/lastmile_qr_scan", "ios": "https://dc.lft.to/lastmile_qr_scan"}, "fusion_lon": 0.0, "is_reserved": 0, "is_disabled": 0, "fusion_lat": 0.0, "type": "electric_scooter", "name": "3c3b4cd459f5d468f1ba603153b69ed1", "lat": 38.906181, "bike_id": "3c3b4cd459f5d468f1ba603153b69ed1"}, {"lon": -77.0487525, "rental_uris": {"android": "https://dc.lft.to/lastmile_qr_scan", "ios": "https://dc.lft.to/lastmile_qr_scan"}, "fusion_lon": 0.0, "is_reserved": 0, "is_disabled": 0, "fusion_lat": 0.0, "type": "electric_scooter", "name": "dcaaecbe753a3cc9a0a8777d68f414a5", "lat": 38.916171, "bike_id": "dcaaecbe753a3cc9a0a8777d68f414a5"}, {"lon": -76.99883983333334, "rental_uris": {"android": "https://dc.lft.to/lastmile_qr_scan", "ios": "https://dc.lft.to/lastmile_qr_scan"}, "fusion_lon": 0.0, "is_reserved": 0, "is_disabled": 0, "fusion_lat": 0.0, "type": "electric_scooter", "name": "bbf9da533b43bfc38a9656680921fa10", "lat": 38.8792715, "bike_id": "bbf9da533b43bfc38a9656680921fa10"}, {"lon": -77.03407966666667, "rental_uris": {"android": "https://dc.lft.to/lastmile_qr_scan", "ios": "https://dc.lft.to/lastmile_qr_scan"}, "fusion_lon": 0.0, "is_reserved": 0, "is_disabled": 0, "fusion_lat": 0.0, "type": "electric_scooter", "name": "3a752034c75a8650932338c930a90163", "lat": 38.902572, "bike_id": "3a752034c75a8650932338c930a90163"}, {"lon": -77.043173, "rental_uris": {"android": "https://dc.lft.to/lastmile_qr_scan", "ios": "https://dc.lft.to/lastmile_qr_scan"}, "fusion_lon": 0.0, "is_reserved": 0, "is_disabled": 0, "fusion_lat": 0.0, "type": "electric_scooter", "name": "5c6713145dc2538e2e74b4c2a3114679", "lat": 38.905903, "bike_id": "5c6713145dc2538e2e74b4c2a3114679"}, {"lon": -77.03208033333334, "rental_uris": {"android": "https://dc.lft.to/lastmile_qr_scan", "ios": "https://dc.lft.to/lastmile_qr_scan"}, "fusion_lon": 0.0, "is_reserved": 0, "is_disabled": 0, "fusion_lat": 0.0, "type": "electric_scooter", "name": "cd3de67b5c1a829ffcc5c15bb056586a", "lat": 38.917565, "bike_id": "cd3de67b5c1a829ffcc5c15bb056586a"}, {"lon": -77.05928266666666, "rental_uris": {"android": "https://dc.lft.to/lastmile_qr_scan", "ios": "https://dc.lft.to/lastmile_qr_scan"}, "fusion_lon": 0.0, "is_reserved": 0, "is_disabled": 0, "fusion_lat": 0.0, "type": "electric_scooter", "name": "684ee67563fa9c23d288548e3466c0bd", "lat": 38.943101666666664, "bike_id": "684ee67563fa9c23d288548e3466c0bd"}, {"lon": -77.013955, "rental_uris": {"android": "https://dc.lft.to/lastmile_qr_scan", "ios": "https://dc.lft.to/lastmile_qr_scan"}, "fusion_lon": 0.0, "is_reserved": 0, "is_disabled": 0, "fusion_lat": 0.0, "type": "electric_scooter", "name": "40e3410e5d845558b5015da7f35e17c5", "lat": 38.8922565, "bike_id": "40e3410e5d845558b5015da7f35e17c5"}, {"lon": -77.0342055, "rental_uris": {"android": "https://dc.lft.to/lastmile_qr_scan", "ios": "https://dc.lft.to/lastmile_qr_scan"}, "fusion_lon": 0.0, "is_reserved": 0, "is_disabled": 0, "fusion_lat": 0.0, "type": "electric_scooter", "name": "1796458ab794a1914465410bf3840b79", "lat": 38.90374466666667, "bike_id": "1796458ab794a1914465410bf3840b79"}, {"lon": -77.03861033333334, "rental_uris": {"android": "https://dc.lft.to/lastmile_qr_scan", "ios": "https://dc.lft.to/lastmile_qr_scan"}, "fusion_lon": 0.0, "is_reserved": 0, "is_disabled": 0, "fusion_lat": 0.0, "type": "electric_scooter", "name": "203027e2c357264e85318340e1766792", "lat": 38.924417, "bike_id": "203027e2c357264e85318340e1766792"}, {"lon": -77.04217283333334, "rental_uris": {"android": "https://dc.lft.to/lastmile_qr_scan", "ios": "https://dc.lft.to/lastmile_qr_scan"}, "fusion_lon": 0.0, "is_reserved": 0, "is_disabled": 0, "fusion_lat": 0.0, "type": "electric_scooter", "name": "51ebe6e7db6fbef7d887f657ac45e604", "lat": 38.89993183333333, "bike_id": "51ebe6e7db6fbef7d887f657ac45e604"}, {"lon": -77.0149265, "rental_uris": {"android": "https://dc.lft.to/lastmile_qr_scan", "ios": "https://dc.lft.to/lastmile_qr_scan"}, "fusion_lon": 0.0, "is_reserved": 0, "is_disabled": 0, "fusion_lat": 0.0, "type": "electric_scooter", "name": "809bf3838a4cb7397ef5fa31f14ff5d5", "lat": 38.957633, "bike_id": "809bf3838a4cb7397ef5fa31f14ff5d5"}, {"lon": -77.06938216666667, "rental_uris": {"android": "https://dc.lft.to/lastmile_qr_scan", "ios": "https://dc.lft.to/lastmile_qr_scan"}, "fusion_lon": 0.0, "is_reserved": 0, "is_disabled": 0, "fusion_lat": 0.0, "type": "electric_scooter", "name": "8adba64c4b9daf31fc4d3b035657f1b2", "lat": 38.9174425, "bike_id": "8adba64c4b9daf31fc4d3b035657f1b2"}, {"lon": -77.02941516666667, "rental_uris": {"android": "https://dc.lft.to/lastmile_qr_scan", "ios": "https://dc.lft.to/lastmile_qr_scan"}, "fusion_lon": 0.0, "is_reserved": 0, "is_disabled": 0, "fusion_lat": 0.0, "type": "electric_scooter", "name": "37447dc437304a74461ca8c629f5808e", "lat": 38.913513, "bike_id": "37447dc437304a74461ca8c629f5808e"}, {"lon": -77.031916, "rental_uris": {"android": "https://dc.lft.to/lastmile_qr_scan", "ios": "https://dc.lft.to/lastmile_qr_scan"}, "fusion_lon": 0.0, "is_reserved": 0, "is_disabled": 0, "fusion_lat": 0.0, "type": "electric_scooter", "name": "50e2be7013f97a16e20b69d143060974", "lat": 38.916141833333334, "bike_id": "50e2be7013f97a16e20b69d143060974"}, {"lon": -77.02086116666666, "rental_uris": {"android": "https://dc.lft.to/lastmile_qr_scan", "ios": "https://dc.lft.to/lastmile_qr_scan"}, "fusion_lon": 0.0, "is_reserved": 0, "is_disabled": 0, "fusion_lat": 0.0, "type": "electric_scooter", "name": "15a17b9acc6b5f2973ef7ee5f5f8252d", "lat": 38.9010075, "bike_id": "15a17b9acc6b5f2973ef7ee5f5f8252d"}, {"lon": -77.03267183333334, "rental_uris": {"android": "https://dc.lft.to/lastmile_qr_scan", "ios": "https://dc.lft.to/lastmile_qr_scan"}, "fusion_lon": 0.0, "is_reserved": 0, "is_disabled": 0, "fusion_lat": 0.0, "type": "electric_scooter", "name": "febb90f75703241a03ffbb739ef40204", "lat": 38.92857583333333, "bike_id": "febb90f75703241a03ffbb739ef40204"}, {"lon": -77.0463955, "rental_uris": {"android": "https://dc.lft.to/lastmile_qr_scan", "ios": "https://dc.lft.to/lastmile_qr_scan"}, "fusion_lon": 0.0, "is_reserved": 0, "is_disabled": 0, "fusion_lat": 0.0, "type": "electric_scooter", "name": "e659c39041b33bab6a1faf507dfb7eeb", "lat": 38.9026145, "bike_id": "e659c39041b33bab6a1faf507dfb7eeb"}, {"lon": -77.01778316666666, "rental_uris": {"android": "https://dc.lft.to/lastmile_qr_scan", "ios": "https://dc.lft.to/lastmile_qr_scan"}, "fusion_lon": 0.0, "is_reserved": 0, "is_disabled": 0, "fusion_lat": 0.0, "type": "electric_scooter", "name": "64c301caf93bb43f16f644a2a88a3f23", "lat": 38.900862833333335, "bike_id": "64c301caf93bb43f16f644a2a88a3f23"}, {"lon": -77.02320383333333, "rental_uris": {"android": "https://dc.lft.to/lastmile_qr_scan", "ios": "https://dc.lft.to/lastmile_qr_scan"}, "fusion_lon": 0.0, "is_reserved": 0, "is_disabled": 0, "fusion_lat": 0.0, "type": "electric_scooter", "name": "dc3150ad5b660fc9c30f82eb931800f5", "lat": 38.89844733333334, "bike_id": "dc3150ad5b660fc9c30f82eb931800f5"}, {"lon": -77.00535466666666, "rental_uris": {"android": "https://dc.lft.to/lastmile_qr_scan", "ios": "https://dc.lft.to/lastmile_qr_scan"}, "fusion_lon": 0.0, "is_reserved": 0, "is_disabled": 0, "fusion_lat": 0.0, "type": "electric_scooter", "name": "c6e4ad2b95f5e1be1db2ccc4e948c542", "lat": 38.87547083333333, "bike_id": "c6e4ad2b95f5e1be1db2ccc4e948c542"}, {"lon": -77.0071235, "rental_uris": {"android": "https://dc.lft.to/lastmile_qr_scan", "ios": "https://dc.lft.to/lastmile_qr_scan"}, "fusion_lon": 0.0, "is_reserved": 0, "is_disabled": 0, "fusion_lat": 0.0, "type": "electric_scooter", "name": "99c9f748ea8e1d2051a7a441589ba3fe", "lat": 38.88492016666667, "bike_id": "99c9f748ea8e1d2051a7a441589ba3fe"}, {"lon": -77.0497635, "rental_uris": {"android": "https://dc.lft.to/lastmile_qr_scan", "ios": "https://dc.lft.to/lastmile_qr_scan"}, "fusion_lon": 0.0, "is_reserved": 0, "is_disabled": 0, "fusion_lat": 0.0, "type": "electric_scooter", "name": "ff28d6c7ac8b6720ea1e52bc2b1fb21b", "lat": 38.90121466666667, "bike_id": "ff28d6c7ac8b6720ea1e52bc2b1fb21b"}, {"lon": -77.02243683333333, "rental_uris": {"android": "https://dc.lft.to/lastmile_qr_scan", "ios": "https://dc.lft.to/lastmile_qr_scan"}, "fusion_lon": 0.0, "is_reserved": 0, "is_disabled": 0, "fusion_lat": 0.0, "type": "electric_scooter", "name": "2dff8184d2d729fab1846fa9b57afe4a", "lat": 38.916472, "bike_id": "2dff8184d2d729fab1846fa9b57afe4a"}, {"lon": -77.01225833333334, "rental_uris": {"android": "https://dc.lft.to/lastmile_qr_scan", "ios": "https://dc.lft.to/lastmile_qr_scan"}, "fusion_lon": 0.0, "is_reserved": 0, "is_disabled": 0, "fusion_lat": 0.0, "type": "electric_scooter", "name": "8552f5bbf8e3a9262987ad78a211ba08", "lat": 38.8934225, "bike_id": "8552f5bbf8e3a9262987ad78a211ba08"}, {"lon": -77.00590133333333, "rental_uris": {"android": "https://dc.lft.to/lastmile_qr_scan", "ios": "https://dc.lft.to/lastmile_qr_scan"}, "fusion_lon": 0.0, "is_reserved": 0, "is_disabled": 0, "fusion_lat": 0.0, "type": "electric_bike", "name": "7788dd945688a181482a98571b6e7459", "lat": 38.89801, "bike_id": "7788dd945688a181482a98571b6e7459"}, {"lon": -77.112853, "rental_uris": {"android": "https://dc.lft.to/lastmile_qr_scan", "ios": "https://dc.lft.to/lastmile_qr_scan"}, "fusion_lon": 0.0, "is_reserved": 0, "is_disabled": 0, "fusion_lat": 0.0, "type": "electric_bike", "name": "f50237c30ef495c94e6b4e6705216ff5", "lat": 38.831034, "bike_id": "f50237c30ef495c94e6b4e6705216ff5"}, {"lon": -77.04484733333334, "rental_uris": {"android": "https://dc.lft.to/lastmile_qr_scan", "ios": "https://dc.lft.to/lastmile_qr_scan"}, "fusion_lon": 0.0, "is_reserved": 0, "is_disabled": 0, "fusion_lat": 0.0, "type": "electric_scooter", "name": "5f10e44020bfecba3d7c32364e3e4b42", "lat": 38.903782166666666, "bike_id": "5f10e44020bfecba3d7c32364e3e4b42"}, {"lon": -77.02250433333333, "rental_uris": {"android": "https://dc.lft.to/lastmile_qr_scan", "ios": "https://dc.lft.to/lastmile_qr_scan"}, "fusion_lon": 0.0, "is_reserved": 0, "is_disabled": 0, "fusion_lat": 0.0, "type": "electric_scooter", "name": "5e396bae10bb0d542ebaab0d90bf1216", "lat": 38.923767, "bike_id": "5e396bae10bb0d542ebaab0d90bf1216"}, {"lon": -77.04240916666667, "rental_uris": {"android": "https://dc.lft.to/lastmile_qr_scan", "ios": "https://dc.lft.to/lastmile_qr_scan"}, "fusion_lon": 0.0, "is_reserved": 0, "is_disabled": 0, "fusion_lat": 0.0, "type": "electric_scooter", "name": "b25f815e3876bba02366d68bcc24449c", "lat": 38.92224233333334, "bike_id": "b25f815e3876bba02366d68bcc24449c"}, {"lon": -77.00307966666666, "rental_uris": {"android": "https://dc.lft.to/lastmile_qr_scan", "ios": "https://dc.lft.to/lastmile_qr_scan"}, "fusion_lon": 0.0, "is_reserved": 0, "is_disabled": 0, "fusion_lat": 0.0, "type": "electric_scooter", "name": "e95f10dead71e5a05cdbf9f4a53efbfc", "lat": 38.894788, "bike_id": "e95f10dead71e5a05cdbf9f4a53efbfc"}, {"lon": -77.03275916666666, "rental_uris": {"android": "https://dc.lft.to/lastmile_qr_scan", "ios": "https://dc.lft.to/lastmile_qr_scan"}, "fusion_lon": 0.0, "is_reserved": 0, "is_disabled": 0, "fusion_lat": 0.0, "type": "electric_scooter", "name": "a92118188ce7c69a62d7d7e7ac96c10b", "lat": 38.93258566666667, "bike_id": "a92118188ce7c69a62d7d7e7ac96c10b"}, {"lon": -77.0191665, "rental_uris": {"android": "https://dc.lft.to/lastmile_qr_scan", "ios": "https://dc.lft.to/lastmile_qr_scan"}, "fusion_lon": 0.0, "is_reserved": 0, "is_disabled": 0, "fusion_lat": 0.0, "type": "electric_scooter", "name": "ea0f6379550d3564a551661cf632e0b8", "lat": 38.9227715, "bike_id": "ea0f6379550d3564a551661cf632e0b8"}, {"lon": -77.03149533333334, "rental_uris": {"android": "https://dc.lft.to/lastmile_qr_scan", "ios": "https://dc.lft.to/lastmile_qr_scan"}, "fusion_lon": 0.0, "is_reserved": 0, "is_disabled": 0, "fusion_lat": 0.0, "type": "electric_scooter", "name": "ac0ccd9034a7b8aa0e5b743534e53ac5", "lat": 38.91567216666667, "bike_id": "ac0ccd9034a7b8aa0e5b743534e53ac5"}, {"lon": -77.0513285, "rental_uris": {"android": "https://dc.lft.to/lastmile_qr_scan", "ios": "https://dc.lft.to/lastmile_qr_scan"}, "fusion_lon": 0.0, "is_reserved": 0, "is_disabled": 0, "fusion_lat": 0.0, "type": "electric_scooter", "name": "ea2867e51d75f3b03396f6eb973e41b2", "lat": 38.90637016666667, "bike_id": "ea2867e51d75f3b03396f6eb973e41b2"}, {"lon": -76.99776566666667, "rental_uris": {"android": "https://dc.lft.to/lastmile_qr_scan", "ios": "https://dc.lft.to/lastmile_qr_scan"}, "fusion_lon": 0.0, "is_reserved": 0, "is_disabled": 0, "fusion_lat": 0.0, "type": "electric_scooter", "name": "1009583d5905d91353f8c205fb9f8476", "lat": 38.922887833333334, "bike_id": "1009583d5905d91353f8c205fb9f8476"}, {"lon": -77.02176683333333, "rental_uris": {"android": "https://dc.lft.to/lastmile_qr_scan", "ios": "https://dc.lft.to/lastmile_qr_scan"}, "fusion_lon": 0.0, "is_reserved": 0, "is_disabled": 0, "fusion_lat": 0.0, "type": "electric_scooter", "name": "ca99ee51777947d96a56f0850d79023f", "lat": 38.89229516666666, "bike_id": "ca99ee51777947d96a56f0850d79023f"}, {"lon": -76.94930633333334, "rental_uris": {"android": "https://dc.lft.to/lastmile_qr_scan", "ios": "https://dc.lft.to/lastmile_qr_scan"}, "fusion_lon": 0.0, "is_reserved": 0, "is_disabled": 0, "fusion_lat": 0.0, "type": "electric_scooter", "name": "7a47bf3189883025d79c5f0cce5c3334", "lat": 38.895321, "bike_id": "7a47bf3189883025d79c5f0cce5c3334"}, {"lon": -76.9860625, "rental_uris": {"android": "https://dc.lft.to/lastmile_qr_scan", "ios": "https://dc.lft.to/lastmile_qr_scan"}, "fusion_lon": 0.0, "is_reserved": 0, "is_disabled": 0, "fusion_lat": 0.0, "type": "electric_scooter", "name": "9c5a293425074fc599d1f59b6e240652", "lat": 38.938991333333334, "bike_id": "9c5a293425074fc599d1f59b6e240652"}, {"lon": -77.00595416666667, "rental_uris": {"android": "https://dc.lft.to/lastmile_qr_scan", "ios": "https://dc.lft.to/lastmile_qr_scan"}, "fusion_lon": 0.0, "is_reserved": 0, "is_disabled": 0, "fusion_lat": 0.0, "type": "electric_scooter", "name": "f1f99c60bb7951d5d3e6c6e6a1311c68", "lat": 38.875986166666664, "bike_id": "f1f99c60bb7951d5d3e6c6e6a1311c68"}, {"lon": -77.05103766666667, "rental_uris": {"android": "https://dc.lft.to/lastmile_qr_scan", "ios": "https://dc.lft.to/lastmile_qr_scan"}, "fusion_lon": 0.0, "is_reserved": 0, "is_disabled": 0, "fusion_lat": 0.0, "type": "electric_scooter", "name": "3f86c953f260730408b9025ffc2c1f69", "lat": 38.92356433333333, "bike_id": "3f86c953f260730408b9025ffc2c1f69"}, {"lon": -77.00340616666666, "rental_uris": {"android": "https://dc.lft.to/lastmile_qr_scan", "ios": "https://dc.lft.to/lastmile_qr_scan"}, "fusion_lon": 0.0, "is_reserved": 0, "is_disabled": 0, "fusion_lat": 0.0, "type": "electric_scooter", "name": "1d1f331316baab87e735db7c0b199cba", "lat": 38.891811833333335, "bike_id": "1d1f331316baab87e735db7c0b199cba"}, {"lon": -77.024734, "rental_uris": {"android": "https://dc.lft.to/lastmile_qr_scan", "ios": "https://dc.lft.to/lastmile_qr_scan"}, "fusion_lon": 0.0, "is_reserved": 0, "is_disabled": 0, "fusion_lat": 0.0, "type": "electric_scooter", "name": "93510d46fdff08134a05505cbc3ff648", "lat": 38.91815366666667, "bike_id": "93510d46fdff08134a05505cbc3ff648"}, {"lon": -77.0053815, "rental_uris": {"android": "https://dc.lft.to/lastmile_qr_scan", "ios": "https://dc.lft.to/lastmile_qr_scan"}, "fusion_lon": 0.0, "is_reserved": 0, "is_disabled": 0, "fusion_lat": 0.0, "type": "electric_scooter", "name": "d32bce429313b3fd6ebeaacfafc68e9b", "lat": 38.874593, "bike_id": "d32bce429313b3fd6ebeaacfafc68e9b"}, {"lon": -77.01212783333334, "rental_uris": {"android": "https://dc.lft.to/lastmile_qr_scan", "ios": "https://dc.lft.to/lastmile_qr_scan"}, "fusion_lon": 0.0, "is_reserved": 0, "is_disabled": 0, "fusion_lat": 0.0, "type": "electric_scooter", "name": "84e28147168493a2b57c202380346c22", "lat": 38.900377166666665, "bike_id": "84e28147168493a2b57c202380346c22"}, {"lon": -77.0191745, "rental_uris": {"android": "https://dc.lft.to/lastmile_qr_scan", "ios": "https://dc.lft.to/lastmile_qr_scan"}, "fusion_lon": 0.0, "is_reserved": 0, "is_disabled": 0, "fusion_lat": 0.0, "type": "electric_scooter", "name": "59eaa4a1baecd4929625143258b32200", "lat": 38.89929383333333, "bike_id": "59eaa4a1baecd4929625143258b32200"}, {"lon": -77.00336333333334, "rental_uris": {"android": "https://dc.lft.to/lastmile_qr_scan", "ios": "https://dc.lft.to/lastmile_qr_scan"}, "fusion_lon": 0.0, "is_reserved": 0, "is_disabled": 0, "fusion_lat": 0.0, "type": "electric_scooter", "name": "91f26ea6ebf491e382d5fc3084a0adf7", "lat": 38.8935605, "bike_id": "91f26ea6ebf491e382d5fc3084a0adf7"}, {"lon": -77.03336016666667, "rental_uris": {"android": "https://dc.lft.to/lastmile_qr_scan", "ios": "https://dc.lft.to/lastmile_qr_scan"}, "fusion_lon": 0.0, "is_reserved": 0, "is_disabled": 0, "fusion_lat": 0.0, "type": "electric_scooter", "name": "f8b579348593f0d9eaab312b5d87acbc", "lat": 38.97215716666667, "bike_id": "f8b579348593f0d9eaab312b5d87acbc"}, {"lon": -76.95229, "rental_uris": {"android": "https://dc.lft.to/lastmile_qr_scan", "ios": "https://dc.lft.to/lastmile_qr_scan"}, "fusion_lon": 0.0, "is_reserved": 0, "is_disabled": 0, "fusion_lat": 0.0, "type": "electric_scooter", "name": "fc3301070c54f2ee1a62d09edbbb1c11", "lat": 38.893469333333336, "bike_id": "fc3301070c54f2ee1a62d09edbbb1c11"}, {"lon": -77.05902083333334, "rental_uris": {"android": "https://dc.lft.to/lastmile_qr_scan", "ios": "https://dc.lft.to/lastmile_qr_scan"}, "fusion_lon": 0.0, "is_reserved": 0, "is_disabled": 0, "fusion_lat": 0.0, "type": "electric_bike", "name": "4803b76775a48c1848bec63e2450cfff", "lat": 38.90083766666667, "bike_id": "4803b76775a48c1848bec63e2450cfff"}, {"lon": -76.992581, "rental_uris": {"android": "https://dc.lft.to/lastmile_qr_scan", "ios": "https://dc.lft.to/lastmile_qr_scan"}, "fusion_lon": 0.0, "is_reserved": 0, "is_disabled": 0, "fusion_lat": 0.0, "type": "electric_scooter", "name": "f07b3993094b7ee3020df4f786e30475", "lat": 38.902988666666666, "bike_id": "f07b3993094b7ee3020df4f786e30475"}, {"lon": -77.03587533333334, "rental_uris": {"android": "https://dc.lft.to/lastmile_qr_scan", "ios": "https://dc.lft.to/lastmile_qr_scan"}, "fusion_lon": 0.0, "is_reserved": 0, "is_disabled": 0, "fusion_lat": 0.0, "type": "electric_scooter", "name": "0963a95ef6c714df7f8a85bdaa08308a", "lat": 38.92630583333333, "bike_id": "0963a95ef6c714df7f8a85bdaa08308a"}, {"lon": -77.0475185, "rental_uris": {"android": "https://dc.lft.to/lastmile_qr_scan", "ios": "https://dc.lft.to/lastmile_qr_scan"}, "fusion_lon": 0.0, "is_reserved": 0, "is_disabled": 0, "fusion_lat": 0.0, "type": "electric_scooter", "name": "f2e6b22170c19191559869fc004f186c", "lat": 38.90545866666667, "bike_id": "f2e6b22170c19191559869fc004f186c"}, {"lon": -77.06249283333334, "rental_uris": {"android": "https://dc.lft.to/lastmile_qr_scan", "ios": "https://dc.lft.to/lastmile_qr_scan"}, "fusion_lon": 0.0, "is_reserved": 0, "is_disabled": 0, "fusion_lat": 0.0, "type": "electric_scooter", "name": "8794a4145b76afc1c76fd2d61f7bd661", "lat": 38.920765333333335, "bike_id": "8794a4145b76afc1c76fd2d61f7bd661"}, {"lon": -77.10611183333333, "rental_uris": {"android": "https://dc.lft.to/lastmile_qr_scan", "ios": "https://dc.lft.to/lastmile_qr_scan"}, "fusion_lon": 0.0, "is_reserved": 0, "is_disabled": 0, "fusion_lat": 0.0, "type": "electric_bike", "name": "649b30495262d520b7aa5d509a6877f9", "lat": 38.93572666666667, "bike_id": "649b30495262d520b7aa5d509a6877f9"}, {"lon": -77.006409, "rental_uris": {"android": "https://dc.lft.to/lastmile_qr_scan", "ios": "https://dc.lft.to/lastmile_qr_scan"}, "fusion_lon": 0.0, "is_reserved": 0, "is_disabled": 0, "fusion_lat": 0.0, "type": "electric_scooter", "name": "3ac7fe3d1fec6baee655dab5a32149bd", "lat": 38.87185783333334, "bike_id": "3ac7fe3d1fec6baee655dab5a32149bd"}, {"lon": -77.0227795, "rental_uris": {"android": "https://dc.lft.to/lastmile_qr_scan", "ios": "https://dc.lft.to/lastmile_qr_scan"}, "fusion_lon": 0.0, "is_reserved": 0, "is_disabled": 0, "fusion_lat": 0.0, "type": "electric_scooter", "name": "b46fef289b84213861da4c60e3ba37b5", "lat": 38.91452683333333, "bike_id": "b46fef289b84213861da4c60e3ba37b5"}, {"lon": -77.00755016666666, "rental_uris": {"android": "https://dc.lft.to/lastmile_qr_scan", "ios": "https://dc.lft.to/lastmile_qr_scan"}, "fusion_lon": 0.0, "is_reserved": 0, "is_disabled": 0, "fusion_lat": 0.0, "type": "electric_scooter", "name": "e0aa6798205e95f25d000932e9af3114", "lat": 38.879483666666665, "bike_id": "e0aa6798205e95f25d000932e9af3114"}, {"lon": -77.00031066666666, "rental_uris": {"android": "https://dc.lft.to/lastmile_qr_scan", "ios": "https://dc.lft.to/lastmile_qr_scan"}, "fusion_lon": 0.0, "is_reserved": 0, "is_disabled": 0, "fusion_lat": 0.0, "type": "electric_scooter", "name": "3391411fb47e1bdc6ff873cfb8306963", "lat": 38.87484716666667, "bike_id": "3391411fb47e1bdc6ff873cfb8306963"}, {"lon": -77.0218265, "rental_uris": {"android": "https://dc.lft.to/lastmile_qr_scan", "ios": "https://dc.lft.to/lastmile_qr_scan"}, "fusion_lon": 0.0, "is_reserved": 0, "is_disabled": 0, "fusion_lat": 0.0, "type": "electric_scooter", "name": "c37d85778afb8aaee0ca9ac51e6c3daf", "lat": 38.90367066666666, "bike_id": "c37d85778afb8aaee0ca9ac51e6c3daf"},