{"data": {"bikes": [{"lon": -77.03243883333333, "bike_id": "0cb9baa7ee262f1217b49026c1262aa6", "lat": 38.9198835, "fusion_lon": 0.0, "fusion_lat": 0.0, "type": "electric_scooter", "name": "0cb9baa7ee262f1217b49026c1262aa6", "is_disabled": 0, "rental_uris": {"ios": "https://dc.lft.to/lastmile_qr_scan", "android": "https://dc.lft.to/lastmile_qr_scan"}, "is_reserved": 0}, {"lon": -76.99506783333334, "bike_id": "f7222476f08e565536ca66f5c35aa34e", "lat": 38.879115166666665, "fusion_lon": 0.0, "fusion_lat": 0.0, "type": "electric_scooter", "name": "f7222476f08e565536ca66f5c35aa34e", "is_disabled": 0, "rental_uris": {"ios": "https://dc.lft.to/lastmile_qr_scan", "android": "https://dc.lft.to/lastmile_qr_scan"}, "is_reserved": 0}, {"lon": -77.03518516666666, "bike_id": "de2994a810dfccd28b3823bf9d15e87c", "lat": 38.91597766666667, "fusion_lon": 0.0, "fusion_lat": 0.0, "type": "electric_scooter", "name": "de2994a810dfccd28b3823bf9d15e87c", "is_disabled": 0, "rental_uris": {"ios": "https://dc.lft.to/lastmile_qr_scan", "android": "https://dc.lft.to/lastmile_qr_scan"}, "is_reserved": 0}, {"lon": -77.04113316666667, "bike_id": "32470616b40e2d9330c1c04380c2f6bc", "lat": 38.921397, "fusion_lon": 0.0, "fusion_lat": 0.0, "type": "electric_scooter", "name": "32470616b40e2d9330c1c04380c2f6bc", "is_disabled": 0, "rental_uris": {"ios": "https://dc.lft.to/lastmile_qr_scan", "android": "https://dc.lft.to/lastmile_qr_scan"}, "is_reserved": 0}, {"lon": -77.03258866666667, "bike_id": "f13ae82e2657a1c6144d63aebfbaef8c", "lat": 38.94271483333333, "fusion_lon": 0.0, "fusion_lat": 0.0, "type": "electric_scooter", "name": "f13ae82e2657a1c6144d63aebfbaef8c", "is_disabled": 0, "rental_uris": {"ios": "https://dc.lft.to/lastmile_qr_scan", "android": "https://dc.lft.to/lastmile_qr_scan"}, "is_reserved": 0}, {"lon": -77.018771, "bike_id": "758d9e496d6dbbdf9fe869631995d7ef", "lat": 38.90265133333333, "fusion_lon": 0.0, "fusion_lat": 0.0, "type": "electric_scooter", "name": "758d9e496d6dbbdf9fe869631995d7ef", "is_disabled": 0, "rental_uris": {"ios": "https://dc.lft.to/lastmile_qr_scan", "android": "https://dc.lft.to/lastmile_qr_scan"}, "is_reserved": 0}, {"lon": -77.0432425, "bike_id": "548b3b62225d3a3052d0be83538fb00b", "lat": 38.9088345, "fusion_lon": 0.0, "fusion_lat": 0.0, "type": "electric_scooter", "name": "548b3b62225d3a3052d0be83538fb00b", "is_disabled": 0, "rental_uris": {"ios": "https://dc.lft.to/lastmile_qr_scan", "android": "https://dc.lft.to/lastmile_qr_scan"}, "is_reserved": 0}, {"lon": -77.03325583333333, "bike_id": "161b4f27066046724c7dd2089dd1a1c1", "lat": 38.93895966666667, "fusion_lon": 0.0, "fusion_lat": 0.0, "type": "electric_scooter", "name": "161b4f27066046724c7dd2089dd1a1c1", "is_disabled": 0, "rental_uris": {"ios": "https://dc.lft.to/lastmile_qr_scan", "android": "https://dc.lft.to/lastmile_qr_scan"}, "is_reserved": 0}, {"lon": -77.03717833333333, "bike_id": "cd050afae504838f6259c26a775ff045", "lat": 38.93188033333333, "fusion_lon": 0.0, "fusion_lat": 0.0, "type": "electric_scooter", "name": "cd050afae504838f6259c26a775ff045", "is_disabled": 0, "rental_uris": {"ios": "https://dc.lft.to/lastmile_qr_scan", "android": "https://dc.lft.to/lastmile_qr_scan"}, "is_reserved": 0}, {"lon": -77.03060966666666, "bike_id": "36cb057c6f02d94f9475ca986e9488fa", "lat": 38.88743916666667, "fusion_lon": 0.0, "fusion_lat": 0.0, "type": "electric_scooter", "name": "36cb057c6f02d94f9475ca986e9488fa", "is_disabled": 0, "rental_uris": {"ios": "https://dc.lft.to/lastmile_qr_scan", "android": "https://dc.lft.to/lastmile_qr_scan"}, "is_reserved": 0}, {"lon": -77.01477716666666, "bike_id": "a9184bd0ab697be85ba63f2c9cf2a93b", "lat": 38.92675033333333, "fusion_lon": 0.0, "fusion_lat": 0.0, "type": "electric_scooter", "name": "a9184bd0ab697be85ba63f2c9cf2a93b", "is_disabled": 0, "rental_uris": {"ios": "https://dc.lft.to/lastmile_qr_scan", "android": "https://dc.lft.to/lastmile_qr_scan"}, "is_reserved": 0}, {"lon": -77.02487866666667, "bike_id": "1234f4ca19a37320f14755974a9b7843", "lat": 38.916857666666665, "fusion_lon": 0.0, "fusion_lat": 0.0, "type": "electric_scooter", "name": "1234f4ca19a37320f14755974a9b7843", "is_disabled": 0, "rental_uris": {"ios": "https://dc.lft.to/lastmile_qr_scan", "android": "https://dc.lft.to/lastmile_qr_scan"}, "is_reserved": 0}, {"lon": -76.9947235, "bike_id": "b2ba37136329a86608e28aa463e72d7f", "lat": 38.8622825, "fusion_lon": 0.0, "fusion_lat": 0.0, "type": "electric_scooter", "name": "b2ba37136329a86608e28aa463e72d7f", "is_disabled": 0, "rental_uris": {"ios": "https://dc.lft.to/lastmile_qr_scan", "android": "https://dc.lft.to/lastmile_qr_scan"}, "is_reserved": 0}, {"lon": -77.00205133333333, "bike_id": "60eb21bd8ca46aaf51e938c753a9d943", "lat": 38.988508833333334, "fusion_lon": 0.0, "fusion_lat": 0.0, "type": "electric_bike", "name": "60eb21bd8ca46aaf51e938c753a9d943", "is_disabled": 0, "rental_uris": {"ios": "https://dc.lft.to/lastmile_qr_scan", "android": "https://dc.lft.to/lastmile_qr_scan"}, "is_reserved": 0}, {"lon": -76.92766916666666, "bike_id": "217d717b1c7bdfedc4a56e9d3365ddf7", "lat": 38.90087966666667, "fusion_lon": 0.0, "fusion_lat": 0.0, "type": "electric_scooter", "name": "217d717b1c7bdfedc4a56e9d3365ddf7", "is_disabled": 0, "rental_uris": {"ios": "https://dc.lft.to/lastmile_qr_scan", "android": "https://dc.lft.to/lastmile_qr_scan"}, "is_reserved": 0}, {"lon": -76.97919016666667, "bike_id": "e95006f519f159c06cd09acc465bc20b", "lat": 38.86353966666667, "fusion_lon": 0.0, "fusion_lat": 0.0, "type": "electric_scooter", "name": "e95006f519f159c06cd09acc465bc20b", "is_disabled": 0, "rental_uris": {"ios": "https://dc.lft.to/lastmile_qr_scan", "android": "https://dc.lft.to/lastmile_qr_scan"}, "is_reserved": 0}, {"lon": -77.04618783333333, "bike_id": "0a19df864e831f8d269888c86032e688", "lat": 38.9151955, "fusion_lon": 0.0, "fusion_lat": 0.0, "type": "electric_scooter", "name": "0a19df864e831f8d269888c86032e688", "is_disabled": 0, "rental_uris": {"ios": "https://dc.lft.to/lastmile_qr_scan", "android": "https://dc.lft.to/lastmile_qr_scan"}, "is_reserved": 0}, {"lon": -77.00205283333334, "bike_id": "ceb86195b63e57704eef1ebe2b7a4d73", "lat": 38.900341, "fusion_lon": 0.0, "fusion_lat": 0.0, "type": "electric_scooter", "name": "ceb86195b63e57704eef1ebe2b7a4d73", "is_disabled": 0, "rental_uris": {"ios": "https://dc.lft.to/lastmile_qr_scan", "android": "https://dc.lft.to/lastmile_qr_scan"}, "is_reserved": 0}, {"lon": -76.98716283333333, "bike_id": "6aeddaca93fe0d550aa207267827112e", "lat": 38.866310166666665, "fusion_lon": 0.0, "fusion_lat": 0.0, "type": "electric_scooter", "name": "6aeddaca93fe0d550aa207267827112e", "is_disabled": 0, "rental_uris": {"ios": "https://dc.lft.to/lastmile_qr_scan", "android": "https://dc.lft.to/lastmile_qr_scan"}, "is_reserved": 0}, {"lon": -76.98883133333334, "bike_id": "df3136853f8dacfaed1f993a62e08916", "lat": 38.866599, "fusion_lon": 0.0, "fusion_lat": 0.0, "type": "electric_scooter", "name": "df3136853f8dacfaed1f993a62e08916", "is_disabled": 0, "rental_uris": {"ios": "https://dc.lft.to/lastmile_qr_scan", "android": "https://dc.lft.to/lastmile_qr_scan"}, "is_reserved": 0}, {"lon": -76.927724, "bike_id": "901b7bf79157482bb4a8d2b0e6f82aef", "lat": 38.969236333333335, "fusion_lon": 0.0, "fusion_lat": 0.0, "type": "electric_bike", "name": "901b7bf79157482bb4a8d2b0e6f82aef", "is_disabled": 0, "rental_uris": {"ios": "https://dc.lft.to/lastmile_qr_scan", "android": "https://dc.lft.to/lastmile_qr_scan"}, "is_reserved": 0}, {"lon": -77.03659083333334, "bike_id": "1c92069011b831a5b3b07ab9ecff4b0f", "lat": 38.9176745, "fusion_lon": 0.0, "fusion_lat": 0.0, "type": "electric_scooter", "name": "1c92069011b831a5b3b07ab9ecff4b0f", "is_disabled": 0, "rental_uris": {"ios": "https://dc.lft.to/lastmile_qr_scan", "android": "https://dc.lft.to/lastmile_qr_scan"}, "is_reserved": 0}, {"lon": -77.02954716666666, "bike_id": "09e9c761f8696f3c20b6f567870a2b06", "lat": 38.90498933333333, "fusion_lon": 0.0, "fusion_lat": 0.0, "type": "electric_scooter", "name": "09e9c761f8696f3c20b6f567870a2b06", "is_disabled": 0, "rental_uris": {"ios": "https://dc.lft.to/lastmile_qr_scan", "android": "https://dc.lft.to/lastmile_qr_scan"}, "is_reserved": 0}, {"lon": -76.94622516666666, "bike_id": "a498e463148235c23c920577deed9ff9", "lat": 38.83235283333333, "fusion_lon": 0.0, "fusion_lat": 0.0, "type": "electric_bike", "name": "a498e463148235c23c920577deed9ff9", "is_disabled": 0, "rental_uris": {"ios": "https://dc.lft.to/lastmile_qr_scan", "android": "https://dc.lft.to/lastmile_qr_scan"}, "is_reserved": 0}, {"lon": -77.01786933333334, "bike_id": "724490b4d9d7f9d4c9b29be3a7b2741d", "lat": 38.9205045, "fusion_lon": 0.0, "fusion_lat": 0.0, "type": "electric_scooter", "name": "724490b4d9d7f9d4c9b29be3a7b2741d", "is_disabled": 0, "rental_uris": {"ios": "https://dc.lft.to/lastmile_qr_scan", "android": "https://dc.lft.to/lastmile_qr_scan"}, "is_reserved": 0}, {"lon": -77.01994316666666, "bike_id": "94e8e2d078d469ebcad97d6360120d4e", "lat": 38.9115485, "fusion_lon": 0.0, "fusion_lat": 0.0, "type": "electric_scooter", "name": "94e8e2d078d469ebcad97d6360120d4e", "is_disabled": 0, "rental_uris": {"ios": "https://dc.lft.to/lastmile_qr_scan", "android": "https://dc.lft.to/lastmile_qr_scan"}, "is_reserved": 0}, {"lon": -77.03459033333333, "bike_id": "7440e714dc4ff83db7ffded0f08a47c4", "lat": 38.9073995, "fusion_lon": 0.0, "fusion_lat": 0.0, "type": "electric_scooter", "name": "7440e714dc4ff83db7ffded0f08a47c4", "is_disabled": 0, "rental_uris": {"ios": "https://dc.lft.to/lastmile_qr_scan", "android": "https://dc.lft.to/lastmile_qr_scan"}, "is_reserved": 0}, {"lon": -77.0013775, "bike_id": "11002f9bc28fc4b9783460a145d44fb0", "lat": 38.8782035, "fusion_lon": 0.0, "fusion_lat": 0.0, "type": "electric_scooter", "name": "11002f9bc28fc4b9783460a145d44fb0", "is_disabled": 0, "rental_uris": {"ios": "https://dc.lft.to/lastmile_qr_scan", "android": "https://dc.lft.to/lastmile_qr_scan"}, "is_reserved": 0}, {"lon": -77.03189683333333, "bike_id": "7380899426168fe0181ff3efac1b8f2d", "lat": 38.8921545, "fusion_lon": 0.0, "fusion_lat": 0.0, "type": "electric_scooter", "name": "7380899426168fe0181ff3efac1b8f2d", "is_disabled": 0, "rental_uris": {"ios": "https://dc.lft.to/lastmile_qr_scan", "android": "https://dc.lft.to/lastmile_qr_scan"}, "is_reserved": 0}, {"lon": -77.03189216666667, "bike_id": "8a7cf8ca5ce544fb8b0b045d05138a11", "lat": 38.91574933333333, "fusion_lon": 0.0, "fusion_lat": 0.0, "type": "electric_scooter", "name": "8a7cf8ca5ce544fb8b0b045d05138a11", "is_disabled": 0, "rental_uris": {"ios": "https://dc.lft.to/lastmile_qr_scan", "android": "https://dc.lft.to/lastmile_qr_scan"}, "is_reserved": 0}, {"lon": -77.02404133333333, "bike_id": "02ab91e787accf44a2748adc8d3f5d79", "lat": 38.91688283333333, "fusion_lon": 0.0, "fusion_lat": 0.0, "type": "electric_scooter", "name": "02ab91e787accf44a2748adc8d3f5d79", "is_disabled": 0, "rental_uris": {"ios": "https://dc.lft.to/lastmile_qr_scan", "android": "https://dc.lft.to/lastmile_qr_scan"}, "is_reserved": 0}, {"lon": -77.05600483333333, "bike_id": "55db52028f6d2be6a69d5c4b1b74d06f", "lat": 38.937010666666666, "fusion_lon": 0.0, "fusion_lat": 0.0, "type": "electric_scooter", "name": "55db52028f6d2be6a69d5c4b1b74d06f", "is_disabled": 0, "rental_uris": {"ios": "https://dc.lft.to/lastmile_qr_scan", "android": "https://dc.lft.to/lastmile_qr_scan"}, "is_reserved": 0}, {"lon": -77.02963066666666, "bike_id": "3bf96fc14f0e0fba777b93ee22105bc5", "lat": 38.896493166666666, "fusion_lon": 0.0, "fusion_lat": 0.0, "type": "electric_scooter", "name": "3bf96fc14f0e0fba777b93ee22105bc5", "is_disabled": 0, "rental_uris": {"ios": "https://dc.lft.to/lastmile_qr_scan", "android": "https://dc.lft.to/lastmile_qr_scan"}, "is_reserved": 0}, {"lon": -76.93277833333333, "bike_id": "0d5c1440e36069885f32522d8bdeaa8c", "lat": 38.9542285, "fusion_lon": 0.0, "fusion_lat": 0.0, "type": "electric_bike", "name": "0d5c1440e36069885f32522d8bdeaa8c", "is_disabled": 0, "rental_uris": {"ios": "https://dc.lft.to/lastmile_qr_scan", "android": "https://dc.lft.to/lastmile_qr_scan"}, "is_reserved": 0}, {"lon": -77.01758783333334, "bike_id": "89f1a1a50ee63d67e3b229b31f8e7c3f", "lat": 38.87666466666667, "fusion_lon": 0.0, "fusion_lat": 0.0, "type": "electric_scooter", "name": "89f1a1a50ee63d67e3b229b31f8e7c3f", "is_disabled": 0, "rental_uris": {"ios": "https://dc.lft.to/lastmile_qr_scan", "android": "https://dc.lft.to/lastmile_qr_scan"}, "is_reserved": 0}, {"lon": -77.06129033333333, "bike_id": "44c16de39895f1f2f6194f174f45fd34", "lat": 38.9052635, "fusion_lon": 0.0, "fusion_lat": 0.0, "type": "electric_scooter", "name": "44c16de39895f1f2f6194f174f45fd34", "is_disabled": 0, "rental_uris": {"ios": "https://dc.lft.to/lastmile_qr_scan", "android": "https://dc.lft.to/lastmile_qr_scan"}, "is_reserved": 0}, {"lon": -77.03637933333333, "bike_id": "06386f903142022300bf746b34705a24", "lat": 38.91557616666667, "fusion_lon": 0.0, "fusion_lat": 0.0, "type": "electric_scooter", "name": "06386f903142022300bf746b34705a24", "is_disabled": 0, "rental_uris": {"ios": "https://dc.lft.to/lastmile_qr_scan", "android": "https://dc.lft.to/lastmile_qr_scan"}, "is_reserved": 0}, {"lon": -77.01896066666667, "bike_id": "85492b0d7436135096e0c5f7313447a3", "lat": 38.92338433333333, "fusion_lon": 0.0, "fusion_lat": 0.0, "type": "electric_scooter", "name": "85492b0d7436135096e0c5f7313447a3", "is_disabled": 0, "rental_uris": {"ios": "https://dc.lft.to/lastmile_qr_scan", "android": "https://dc.lft.to/lastmile_qr_scan"}, "is_reserved": 0}, {"lon": -77.03496033333333, "bike_id": "c05ae92f7bea66edb10c55293cb81a4d", "lat": 38.91184666666667, "fusion_lon": 0.0, "fusion_lat": 0.0, "type": "electric_scooter", "name": "c05ae92f7bea66edb10c55293cb81a4d", "is_disabled": 0, "rental_uris": {"ios": "https://dc.lft.to/lastmile_qr_scan", "android": "https://dc.lft.to/lastmile_qr_scan"}, "is_reserved": 0}, {"lon": -77.03229, "bike_id": "30f4246189ece4e0abadcc31919a0de0", "lat": 38.92859133333333, "fusion_lon": 0.0, "fusion_lat": 0.0, "type": "electric_scooter", "name": "30f4246189ece4e0abadcc31919a0de0", "is_disabled": 0, "rental_uris": {"ios": "https://dc.lft.to/lastmile_qr_scan", "android": "https://dc.lft.to/lastmile_qr_scan"}, "is_reserved": 0}, {"lon": -77.09959866666667, "bike_id": "4207faed277a0e909f6ade906d0de307", "lat": 38.857837833333335, "fusion_lon": 0.0, "fusion_lat": 0.0, "type": "electric_bike", "name": "4207faed277a0e909f6ade906d0de307", "is_disabled": 0, "rental_uris": {"ios": "https://dc.lft.to/lastmile_qr_scan", "android": "https://dc.lft.to/lastmile_qr_scan"}, "is_reserved": 0}, {"lon": -77.03542466666667, "bike_id": "278e3517202b523bf76e34b69ff0b355", "lat": 38.92465283333333, "fusion_lon": 0.0, "fusion_lat": 0.0, "type": "electric_scooter", "name": "278e3517202b523bf76e34b69ff0b355", "is_disabled": 0, "rental_uris": {"ios": "https://dc.lft.to/lastmile_qr_scan", "android": "https://dc.lft.to/lastmile_qr_scan"}, "is_reserved": 0}, {"lon": -77.02764366666666, "bike_id": "163d4fb98e93f4f69e397a58f0d4847f", "lat": 38.934536, "fusion_lon": 0.0, "fusion_lat": 0.0, "type": "electric_scooter", "name": "163d4fb98e93f4f69e397a58f0d4847f", "is_disabled": 0, "rental_uris": {"ios": "https://dc.lft.to/lastmile_qr_scan", "android": "https://dc.lft.to/lastmile_qr_scan"}, "is_reserved": 0}, {"lon": -77.04465616666667, "bike_id": "3774758c6fa10f9e40e443671b140f31", "lat": 38.9085095, "fusion_lon": 0.0, "fusion_lat": 0.0, "type": "electric_scooter", "name": "3774758c6fa10f9e40e443671b140f31", "is_disabled": 0, "rental_uris": {"ios": "https://dc.lft.to/lastmile_qr_scan", "android": "https://dc.lft.to/lastmile_qr_scan"}, "is_reserved": 0}, {"lon": -77.03201983333334, "bike_id": "6e94da895064239742fc6445707d1f6a", "lat": 38.904417, "fusion_lon": 0.0, "fusion_lat": 0.0, "type": "electric_scooter", "name": "6e94da895064239742fc6445707d1f6a", "is_disabled": 0, "rental_uris": {"ios": "https://dc.lft.to/lastmile_qr_scan", "android": "https://dc.lft.to/lastmile_qr_scan"}, "is_reserved": 0}, {"lon": -77.03904966666667, "bike_id": "0a4601aeee8e7415ec4b250d440284b5", "lat": 38.92586466666667, "fusion_lon": 0.0, "fusion_lat": 0.0, "type": "electric_scooter", "name": "0a4601aeee8e7415ec4b250d440284b5", "is_disabled": 0, "rental_uris": {"ios": "https://dc.lft.to/lastmile_qr_scan", "android": "https://dc.lft.to/lastmile_qr_scan"}, "is_reserved": 0}, {"lon": -77.02721583333333, "bike_id": "d48c40839e36b7968fbb32f00abf6150", "lat": 38.92478083333334, "fusion_lon": 0.0, "fusion_lat": 0.0, "type": "electric_scooter", "name": "d48c40839e36b7968fbb32f00abf6150", "is_disabled": 0, "rental_uris": {"ios": "https://dc.lft.to/lastmile_qr_scan", "android": "https://dc.lft.to/lastmile_qr_scan"}, "is_reserved": 0}, {"lon": -77.03541033333333, "bike_id": "d90b7d6c952bf6f6dfbf00d2a30368d5", "lat": 38.90838316666667, "fusion_lon": 0.0, "fusion_lat": 0.0, "type": "electric_scooter", "name": "d90b7d6c952bf6f6dfbf00d2a30368d5", "is_disabled": 0, "rental_uris": {"ios": "https://dc.lft.to/lastmile_qr_scan", "android": "https://dc.lft.to/lastmile_qr_scan"}, "is_reserved": 0}, {"lon": -77.035222, "bike_id": "1f40da5e3390d9a56a01d6b014f2e83e", "lat": 38.921954166666666, "fusion_lon": 0.0, "fusion_lat": 0.0, "type": "electric_scooter", "name": "1f40da5e3390d9a56a01d6b014f2e83e", "is_disabled": 0, "rental_uris": {"ios": "https://dc.lft.to/lastmile_qr_scan", "android": "https://dc.lft.to/lastmile_qr_scan"}, "is_reserved": 0}, {"lon": -77.08291816666667, "bike_id": "1a97d6a57f491932c0bb5c25da96aa2b", "lat": 38.935802333333335, "fusion_lon": 0.0, "fusion_lat": 0.0, "type": "electric_scooter", "name": "1a97d6a57f491932c0bb5c25da96aa2b", "is_disabled": 0, "rental_uris": {"ios": "https://dc.lft.to/lastmile_qr_scan", "android": "https://dc.lft.to/lastmile_qr_scan"}, "is_reserved": 0}, {"lon": -77.034384, "bike_id": "e4a88d04be8ee81aee9013627d3395ab", "lat": 38.918085, "fusion_lon": 0.0, "fusion_lat": 0.0, "type": "electric_scooter", "name": "e4a88d04be8ee81aee9013627d3395ab", "is_disabled": 0, "rental_uris": {"ios": "https://dc.lft.to/lastmile_qr_scan", "android": "https://dc.lft.to/lastmile_qr_scan"}, "is_reserved": 0}, {"lon": -77.050388, "bike_id": "ede3e47f30e34e5940f94531c81f4a53", "lat": 38.90049033333333, "fusion_lon": 0.0, "fusion_lat": 0.0, "type": "electric_scooter", "name": "ede3e47f30e34e5940f94531c81f4a53", "is_disabled": 0, "rental_uris": {"ios": "https://dc.lft.to/lastmile_qr_scan", "android": "https://dc.lft.to/lastmile_qr_scan"}, "is_reserved": 0}, {"lon": -76.975224, "bike_id": "58bd8fc2bd14575eb9fb823dbdf4ab7e", "lat": 38.966953333333336, "fusion_lon": 0.0, "fusion_lat": 0.0, "type": "electric_bike", "name": "58bd8fc2bd14575eb9fb823dbdf4ab7e", "is_disabled": 0, "rental_uris": {"ios": "https://dc.lft.to/lastmile_qr_scan", "android": "https://dc.lft.to/lastmile_qr_scan"}, "is_reserved": 0}, {"lon": -77.020828, "bike_id": "60451a0be6bbea3804ebf951a5b637c7", "lat": 38.95744416666667, "fusion_lon": 0.0, "fusion_lat": 0.0, "type": "electric_scooter", "name": "60451a0be6bbea3804ebf951a5b637c7", "is_disabled": 0, "rental_uris": {"ios": "https://dc.lft.to/lastmile_qr_scan", "android": "https://dc.lft.to/lastmile_qr_scan"}, "is_reserved": 0}, {"lon": -77.03314383333333, "bike_id": "79ac6fab41081201ea6bd15fab09ace7", "lat": 38.8982065, "fusion_lon": 0.0, "fusion_lat": 0.0, "type": "electric_scooter", "name": "79ac6fab41081201ea6bd15fab09ace7", "is_disabled": 0, "rental_uris": {"ios": "https://dc.lft.to/lastmile_qr_scan", "android": "https://dc.lft.to/lastmile_qr_scan"}, "is_reserved": 0}, {"lon": -77.01831566666667, "bike_id": "7c3033b9ed6d89eeea273106bb0cb7d1", "lat": 38.90247816666667, "fusion_lon": 0.0, "fusion_lat": 0.0, "type": "electric_scooter", "name": "7c3033b9ed6d89eeea273106bb0cb7d1", "is_disabled": 0, "rental_uris": {"ios": "https://dc.lft.to/lastmile_qr_scan", "android": "https://dc.lft.to/lastmile_qr_scan"}, "is_reserved": 0}, {"lon": -77.02390383333334, "bike_id": "298753307ba4568ea56f88d84c53249e", "lat": 38.89212583333333, "fusion_lon": 0.0, "fusion_lat": 0.0, "type": "electric_scooter", "name": "298753307ba4568ea56f88d84c53249e", "is_disabled": 0, "rental_uris": {"ios": "https://dc.lft.to/lastmile_qr_scan", "android": "https://dc.lft.to/lastmile_qr_scan"}, "is_reserved": 0}, {"lon": -77.03208033333334, "bike_id": "9f27c02df4a17116726442bc84ae1d33", "lat": 38.91498566666667, "fusion_lon": 0.0, "fusion_lat": 0.0, "type": "electric_scooter", "name": "9f27c02df4a17116726442bc84ae1d33", "is_disabled": 0, "rental_uris": {"ios": "https://dc.lft.to/lastmile_qr_scan", "android": "https://dc.lft.to/lastmile_qr_scan"}, "is_reserved": 0}, {"lon": -77.01190133333333, "bike_id": "c9124ff51c1fabe0eef18b79f70aa58e", "lat": 38.93002233333333, "fusion_lon": 0.0, "fusion_lat": 0.0, "type": "electric_bike", "name": "c9124ff51c1fabe0eef18b79f70aa58e", "is_disabled": 0, "rental_uris": {"ios": "https://dc.lft.to/lastmile_qr_scan", "android": "https://dc.lft.to/lastmile_qr_scan"}, "is_reserved": 0}, {"lon": -76.99643183333333, "bike_id": "eea55e1d0b3bacfc008f0150f5dc48f7", "lat": 38.98820116666667, "fusion_lon": 0.0, "fusion_lat": 0.0, "type": "electric_bike", "name": "eea55e1d0b3bacfc008f0150f5dc48f7", "is_disabled": 0, "rental_uris": {"ios": "https://dc.lft.to/lastmile_qr_scan", "android": "https://dc.lft.to/lastmile_qr_scan"}, "is_reserved": 0}, {"lon": -77.03872616666666, "bike_id": "478885f392fa417f14827da11c6fde51", "lat": 38.911764166666664, "fusion_lon": 0.0, "fusion_lat": 0.0, "type": "electric_scooter", "name": "478885f392fa417f14827da11c6fde51", "is_disabled": 0, "rental_uris": {"ios": "https://dc.lft.to/lastmile_qr_scan", "android": "https://dc.lft.to/lastmile_qr_scan"}, "is_reserved": 0}, {"lon": -77.03204266666667, "bike_id": "063a2ff99684e6d6def8ff2715cf00f2", "lat": 38.897328333333334, "fusion_lon": 0.0, "fusion_lat": 0.0, "type": "electric_scooter", "name": "063a2ff99684e6d6def8ff2715cf00f2", "is_disabled": 0, "rental_uris": {"ios": "https://dc.lft.to/lastmile_qr_scan", "android": "https://dc.lft.to/lastmile_qr_scan"}, "is_reserved": 0}, {"lon": -76.99678583333333, "bike_id": "0b35e039d3f62564819b2752cb1be200", "lat": 38.86022783333333, "fusion_lon": 0.0, "fusion_lat": 0.0, "type": "electric_scooter", "name": "0b35e039d3f62564819b2752cb1be200", "is_disabled": 0, "rental_uris": {"ios": "https://dc.lft.to/lastmile_qr_scan", "android": "https://dc.lft.to/lastmile_qr_scan"}, "is_reserved": 0}, {"lon": -77.047169, "bike_id": "59a8caeeaf71dd9b8408fd705e3607a2", "lat": 38.92316233333333, "fusion_lon": 0.0, "fusion_lat": 0.0, "type": "electric_scooter", "name": "59a8caeeaf71dd9b8408fd705e3607a2", "is_disabled": 0, "rental_uris": {"ios": "https://dc.lft.to/lastmile_qr_scan", "android": "https://dc.lft.to/lastmile_qr_scan"}, "is_reserved": 0}, {"lon": -76.98528066666667, "bike_id": "b82a59df3740988ba955f37ea820ce42", "lat": 38.86686383333333, "fusion_lon": 0.0, "fusion_lat": 0.0, "type": "electric_scooter", "name": "b82a59df3740988ba955f37ea820ce42", "is_disabled": 0, "rental_uris": {"ios": "https://dc.lft.to/lastmile_qr_scan", "android": "https://dc.lft.to/lastmile_qr_scan"}, "is_reserved": 0}, {"lon": -77.02280466666667, "bike_id": "6fa0109569283be15f209261db34a48d", "lat": 38.917056333333335, "fusion_lon": 0.0, "fusion_lat": 0.0, "type": "electric_scooter", "name": "6fa0109569283be15f209261db34a48d", "is_disabled": 0, "rental_uris": {"ios": "https://dc.lft.to/lastmile_qr_scan", "android": "https://dc.lft.to/lastmile_qr_scan"}, "is_reserved": 0}, {"lon": -77.031262, "bike_id": "70e17868dd9c912b88587032c6afb4d7", "lat": 38.9201725, "fusion_lon": 0.0, "fusion_lat": 0.0, "type": "electric_scooter", "name": "70e17868dd9c912b88587032c6afb4d7", "is_disabled": 0, "rental_uris": {"ios": "https://dc.lft.to/lastmile_qr_scan", "android": "https://dc.lft.to/lastmile_qr_scan"}, "is_reserved": 0}, {"lon": -77.04473033333333, "bike_id": "931c1de12ed0d84a4ea077fbb313a7a3", "lat": 38.923853666666666, "fusion_lon": 0.0, "fusion_lat": 0.0, "type": "electric_scooter", "name": "931c1de12ed0d84a4ea077fbb313a7a3", "is_disabled": 0, "rental_uris": {"ios": "https://dc.lft.to/lastmile_qr_scan", "android": "https://dc.lft.to/lastmile_qr_scan"}, "is_reserved": 0}, {"lon": -77.03982633333334, "bike_id": "1531a17bd91174cedfc2943de58d04e9", "lat": 38.9334005, "fusion_lon": 0.0, "fusion_lat": 0.0, "type": "electric_scooter", "name": "1531a17bd91174cedfc2943de58d04e9", "is_disabled": 0, "rental_uris": {"ios": "https://dc.lft.to/lastmile_qr_scan", "android": "https://dc.lft.to/lastmile_qr_scan"}, "is_reserved": 0}, {"lon": -77.04340516666667, "bike_id": "930106b6a28104e229b2c5b710740c82", "lat": 38.90706566666667, "fusion_lon": 0.0, "fusion_lat": 0.0, "type": "electric_scooter", "name": "930106b6a28104e229b2c5b710740c82", "is_disabled": 0, "rental_uris": {"ios": "https://dc.lft.to/lastmile_qr_scan", "android": "https://dc.lft.to/lastmile_qr_scan"}, "is_reserved": 0}, {"lon": -76.90743833333333, "bike_id": "1691f74ffbe60e93a0b1c35ef44beac5", "lat": 38.896117333333336, "fusion_lon": 0.0, "fusion_lat": 0.0, "type": "electric_bike", "name": "1691f74ffbe60e93a0b1c35ef44beac5", "is_disabled": 0, "rental_uris": {"ios": "https://dc.lft.to/lastmile_qr_scan", "android": "https://dc.lft.to/lastmile_qr_scan"}, "is_reserved": 0}, {"lon": -77.02285216666667, "bike_id": "c68169da6a397891776084db18949292", "lat": 38.91671783333334, "fusion_lon": 0.0, "fusion_lat": 0.0, "type": "electric_scooter", "name": "c68169da6a397891776084db18949292", "is_disabled": 0, "rental_uris": {"ios": "https://dc.lft.to/lastmile_qr_scan", "android": "https://dc.lft.to/lastmile_qr_scan"}, "is_reserved": 0}, {"lon": -77.0174225, "bike_id": "73837ed04794ad35f82ca8cfbd3127d4", "lat": 38.88751383333334, "fusion_lon": 0.0, "fusion_lat": 0.0, "type": "electric_scooter", "name": "73837ed04794ad35f82ca8cfbd3127d4", "is_disabled": 0, "rental_uris": {"ios": "https://dc.lft.to/lastmile_qr_scan", "android": "https://dc.lft.to/lastmile_qr_scan"}, "is_reserved": 0}, {"lon": -76.99801266666667, "bike_id": "c007fc734b116609cb6ad516f24b55c9", "lat": 38.90850316666667, "fusion_lon": 0.0, "fusion_lat": 0.0, "type": "electric_scooter", "name": "c007fc734b116609cb6ad516f24b55c9", "is_disabled": 0, "rental_uris": {"ios": "https://dc.lft.to/lastmile_qr_scan", "android": "https://dc.lft.to/lastmile_qr_scan"}, "is_reserved": 0}, {"lon": -77.0150065, "bike_id": "6f930185fd48bebf4b78d44b30085b10", "lat": 38.926683, "fusion_lon": 0.0, "fusion_lat": 0.0, "type": "electric_scooter", "name": "6f930185fd48bebf4b78d44b30085b10", "is_disabled": 0, "rental_uris": {"ios": "https://dc.lft.to/lastmile_qr_scan", "android": "https://dc.lft.to/lastmile_qr_scan"}, "is_reserved": 0}, {"lon": -77.02221183333333, "bike_id": "e43fe91a8b1fd1cd84f7796bd7854d2f", "lat": 38.892187, "fusion_lon": 0.0, "fusion_lat": 0.0, "type": "electric_scooter", "name": "e43fe91a8b1fd1cd84f7796bd7854d2f", "is_disabled": 0, "rental_uris": {"ios": "https://dc.lft.to/lastmile_qr_scan", "android": "https://dc.lft.to/lastmile_qr_scan"}, "is_reserved": 0}, {"lon": -76.9793725, "bike_id": "133cee68c2e24b963d0671d73a6e7400", "lat": 38.902439666666666, "fusion_lon": 0.0, "fusion_lat": 0.0, "type": "electric_scooter", "name": "133cee68c2e24b963d0671d73a6e7400", "is_disabled": 0, "rental_uris": {"ios": "https://dc.lft.to/lastmile_qr_scan", "android": "https://dc.lft.to/lastmile_qr_scan"}, "is_reserved": 0}, {"lon": -76.99482166666667, "bike_id": "80557a2eb77b8ec33e611d7a3ad1acf3", "lat": 38.88610516666667, "fusion_lon": 0.0, "fusion_lat": 0.0, "type": "electric_scooter", "name": "80557a2eb77b8ec33e611d7a3ad1acf3", "is_disabled": 0, "rental_uris": {"ios": "https://dc.lft.to/lastmile_qr_scan", "android": "https://dc.lft.to/lastmile_qr_scan"}, "is_reserved": 0}, {"lon": -76.96515283333333, "bike_id": "18f693b82e7e1e1058595e9143853cba", "lat": 38.87484366666666, "fusion_lon": 0.0, "fusion_lat": 0.0, "type": "electric_scooter", "name": "18f693b82e7e1e1058595e9143853cba", "is_disabled": 0, "rental_uris": {"ios": "https://dc.lft.to/lastmile_qr_scan", "android": "https://dc.lft.to/lastmile_qr_scan"}, "is_reserved": 0}, {"lon": -76.99546266666667, "bike_id": "acb3d78b0ec49a217cc0c07704208ddf", "lat": 38.88376683333333, "fusion_lon": 0.0, "fusion_lat": 0.0, "type": "electric_scooter", "name": "acb3d78b0ec49a217cc0c07704208ddf", "is_disabled": 0, "rental_uris": {"ios": "https://dc.lft.to/lastmile_qr_scan", "android": "https://dc.lft.to/lastmile_qr_scan"}, "is_reserved": 0}, {"lon": -77.0392045, "bike_id": "3a7ea0912cfb662a55ce673bd0ce35fe", "lat": 38.899634166666665, "fusion_lon": 0.0, "fusion_lat": 0.0, "type": "electric_scooter", "name": "3a7ea0912cfb662a55ce673bd0ce35fe", "is_disabled": 0, "rental_uris": {"ios": "https://dc.lft.to/lastmile_qr_scan", "android": "https://dc.lft.to/lastmile_qr_scan"}, "is_reserved": 0}, {"lon": -77.02563216666667, "bike_id": "c2d836430af1312d0e97fc58bd950dac", "lat": 38.93354016666667, "fusion_lon": 0.0, "fusion_lat": 0.0, "type": "electric_scooter", "name": "c2d836430af1312d0e97fc58bd950dac", "is_disabled": 0, "rental_uris": {"ios": "https://dc.lft.to/lastmile_qr_scan", "android": "https://dc.lft.to/lastmile_qr_scan"}, "is_reserved": 0}, {"lon": -77.048836, "bike_id": "0d955db993ff81e71e3b29e6b38d8045", "lat": 38.90091433333333, "fusion_lon": 0.0, "fusion_lat": 0.0, "type": "electric_scooter", "name": "0d955db993ff81e71e3b29e6b38d8045", "is_disabled": 0, "rental_uris": {"ios": "https://dc.lft.to/lastmile_qr_scan", "android": "https://dc.lft.to/lastmile_qr_scan"}, "is_reserved": 0}, {"lon": -77.03522766666667, "bike_id": "8bb90b06b81e14a6c7b81186917e1980", "lat": 38.92261583333333, "fusion_lon": 0.0, "fusion_lat": 0.0, "type": "electric_scooter", "name": "8bb90b06b81e14a6c7b81186917e1980", "is_disabled": 0, "rental_uris": {"ios": "https://dc.lft.to/lastmile_qr_scan", "android": "https://dc.lft.to/lastmile_qr_scan"}, "is_reserved": 0}, {"lon": -77.003474, "bike_id": "ce6004b7ff6770a679fc0f13ecdb9a19", "lat": 38.8870235, "fusion_lon": 0.0, "fusion_lat": 0.0, "type": "electric_bike", "name": "ce6004b7ff6770a679fc0f13ecdb9a19", "is_disabled": 0, "rental_uris": {"ios": "https://dc.lft.to/lastmile_qr_scan", "android": "https://dc.lft.to/lastmile_qr_scan"}, "is_reserved": 0}, {"lon": -77.02142583333334, "bike_id": "1da93a5e29bd81235e1bbfc8938b3f9b", "lat": 38.8949555, "fusion_lon": 0.0, "fusion_lat": 0.0, "type": "electric_scooter", "name": "1da93a5e29bd81235e1bbfc8938b3f9b", "is_disabled": 0, "rental_uris": {"ios": "https://dc.lft.to/lastmile_qr_scan", "android": "https://dc.lft.to/lastmile_qr_scan"}, "is_reserved": 0}, {"lon": -77.04912583333333, "bike_id": "bde0c97faf902bc922d597b886e186d8", "lat": 38.9054705, "fusion_lon": 0.0, "fusion_lat": 0.0, "type": "electric_scooter", "name": "bde0c97faf902bc922d597b886e186d8", "is_disabled": 0, "rental_uris": {"ios": "https://dc.lft.to/lastmile_qr_scan", "android": "https://dc.lft.to/lastmile_qr_scan"}, "is_reserved": 0}, {"lon": -76.94636016666666, "bike_id": "e92f300463609b88c302431a767e4c08", "lat": 38.898323833333336, "fusion_lon": 0.0, "fusion_lat": 0.0, "type": "electric_scooter", "name": "e92f300463609b88c302431a767e4c08", "is_disabled": 0, "rental_uris": {"ios": "https://dc.lft.to/lastmile_qr_scan", "android": "https://dc.lft.to/lastmile_qr_scan"}, "is_reserved": 0}, {"lon": -77.02375766666667, "bike_id": "02c723a3e7be29a3e638836a1b63f92b", "lat": 38.91703583333334, "fusion_lon": 0.0, "fusion_lat": 0.0, "type": "electric_scooter", "name": "02c723a3e7be29a3e638836a1b63f92b", "is_disabled": 0, "rental_uris": {"ios": "https://dc.lft.to/lastmile_qr_scan", "android": "https://dc.lft.to/lastmile_qr_scan"}, "is_reserved": 0}, {"lon": -77.0292315, "bike_id": "200d6f33c8b51e38f46cc522b8e0adda", "lat": 38.916818166666665, "fusion_lon": 0.0, "fusion_lat": 0.0, "type": "electric_scooter", "name": "200d6f33c8b51e38f46cc522b8e0adda", "is_disabled": 0, "rental_uris": {"ios": "https://dc.lft.to/lastmile_qr_scan", "android": "https://dc.lft.to/lastmile_qr_scan"}, "is_reserved": 0}, {"lon": -77.05702116666667, "bike_id": "83950286782d83d4a6faa417ee41bef8", "lat": 38.904821, "fusion_lon": 0.0, "fusion_lat": 0.0, "type": "electric_scooter", "name": "83950286782d83d4a6faa417ee41bef8", "is_disabled": 0, "rental_uris": {"ios": "https://dc.lft.to/lastmile_qr_scan", "android": "https://dc.lft.to/lastmile_qr_scan"}, "is_reserved": 0}, {"lon": -77.0233345, "bike_id": "d7b1e672302aa6b154e387e458177b9a", "lat": 38.919543833333336, "fusion_lon": 0.0, "fusion_lat": 0.0, "type": "electric_scooter", "name": "d7b1e672302aa6b154e387e458177b9a", "is_disabled": 0, "rental_uris": {"ios": "https://dc.lft.to/lastmile_qr_scan", "android": "https://dc.lft.to/lastmile_qr_scan"}, "is_reserved": 0}, {"lon": -77.02447333333333, "bike_id": "69c94ecdee886dd21ca2f449bbd42e40", "lat": 38.91414283333334, "fusion_lon": 0.0, "fusion_lat": 0.0, "type": "electric_scooter", "name": "69c94ecdee886dd21ca2f449bbd42e40", "is_disabled": 0, "rental_uris": {"ios": "https://dc.lft.to/lastmile_qr_scan", "android": "https://dc.lft.to/lastmile_qr_scan"}, "is_reserved": 0}, {"lon": -77.0212055, "bike_id": "5c3eba47985c6133fa6c974936a9c35b", "lat": 38.93700916666667, "fusion_lon": 0.0, "fusion_lat": 0.0, "type": "electric_scooter", "name": "5c3eba47985c6133fa6c974936a9c35b", "is_disabled": 0, "rental_uris": {"ios": "https://dc.lft.to/lastmile_qr_scan", "android": "https://dc.lft.to/lastmile_qr_scan"}, "is_reserved": 0}, {"lon": -77.008288, "bike_id": "13b87d7ac519a83ed4872d39f12a29c2", "lat": 38.879074833333334, "fusion_lon": 0.0, "fusion_lat": 0.0, "type": "electric_scooter", "name": "13b87d7ac519a83ed4872d39f12a29c2", "is_disabled": 0, "rental_uris": {"ios": "https://dc.lft.to/lastmile_qr_scan", "android": "https://dc.lft.to/lastmile_qr_scan"}, "is_reserved": 0}, {"lon": -77.04378883333334, "bike_id": "fe996b60c73ceced979a2c2c1c7aa017", "lat": 38.92159566666667, "fusion_lon": 0.0, "fusion_lat": 0.0, "type": "electric_scooter", "name": "fe996b60c73ceced979a2c2c1c7aa017", "is_disabled": 0, "rental_uris": {"ios": "https://dc.lft.to/lastmile_qr_scan", "android": "https://dc.lft.to/lastmile_qr_scan"}, "is_reserved": 0}, {"lon": -76.94885866666667, "bike_id": "dfef22f1efbd5c2de560f6d94fe99f9a", "lat": 38.89513766666666, "fusion_lon": 0.0, "fusion_lat": 0.0, "type": "electric_scooter", "name": "dfef22f1efbd5c2de560f6d94fe99f9a", "is_disabled": 0, "rental_uris": {"ios": "https://dc.lft.to/lastmile_qr_scan", "android": "https://dc.lft.to/lastmile_qr_scan"}, "is_reserved": 0}, {"lon": -77.01625466666667, "bike_id": "a4cc95ae1fda5e14a7c924ca73f17459", "lat": 38.920517833333335, "fusion_lon": 0.0, "fusion_lat": 0.0, "type": "electric_scooter", "name": "a4cc95ae1fda5e14a7c924ca73f17459", "is_disabled": 0, "rental_uris": {"ios": "https://dc.lft.to/lastmile_qr_scan", "android": "https://dc.lft.to/lastmile_qr_scan"}, "is_reserved": 0}, {"lon": -77.04173316666666, "bike_id": "3e6922155194a9cf94cb70864a20cc0f", "lat": 38.917928333333336, "fusion_lon": 0.0, "fusion_lat": 0.0, "type": "electric_scooter", "name": "3e6922155194a9cf94cb70864a20cc0f", "is_disabled": 0, "rental_uris": {"ios": "https://dc.lft.to/lastmile_qr_scan", "android": "https://dc.lft.to/lastmile_qr_scan"}, "is_reserved": 0}, {"lon": -77.01758783333334, "bike_id": "8a547f9b97496638bf8fa8381a31cf0a", "lat": 38.876676333333336, "fusion_lon": 0.0, "fusion_lat": 0.0, "type": "electric_scooter", "name": "8a547f9b97496638bf8fa8381a31cf0a", "is_disabled": 0, "rental_uris": {"ios": "https://dc.lft.to/lastmile_qr_scan", "android": "https://dc.lft.to/lastmile_qr_scan"}, "is_reserved": 0}, {"lon": -77.05701966666666, "bike_id": "81751814880734c9f95cc13af0b2c38d", "lat": 38.905423666666664, "fusion_lon": 0.0, "fusion_lat": 0.0, "type": "electric_scooter", "name": "81751814880734c9f95cc13af0b2c38d", "is_disabled": 0, "rental_uris": {"ios": "https://dc.lft.to/lastmile_qr_scan", "android": "https://dc.lft.to/lastmile_qr_scan"}, "is_reserved": 0}, {"lon": -77.043371, "bike_id": "6d2b8f352065b9ccd2b6cb6e6b6dbb9d", "lat": 38.892183833333334, "fusion_lon": 0.0, "fusion_lat": 0.0, "type": "electric_scooter", "name": "6d2b8f352065b9ccd2b6cb6e6b6dbb9d", "is_disabled": 0, "rental_uris": {"ios": "https://dc.lft.to/lastmile_qr_scan", "android": "https://dc.lft.to/lastmile_qr_scan"}, "is_reserved": 0}, {"lon": -77.02717, "bike_id": "ab34f3b25cbfc13d09e40ac87afc7ee3", "lat": 38.9094575, "fusion_lon": 0.0, "fusion_lat": 0.0, "type": "electric_scooter", "name": "ab34f3b25cbfc13d09e40ac87afc7ee3", "is_disabled": 0, "rental_uris": {"ios": "https://dc.lft.to/lastmile_qr_scan", "android": "https://dc.lft.to/lastmile_qr_scan"}, "is_reserved": 0}, {"lon": -77.02185183333333, "bike_id": "cc84f175700a3e0f3e3c9c5b0a85db86", "lat": 38.9222125, "fusion_lon": 0.0, "fusion_lat": 0.0, "type": "electric_scooter", "name": "cc84f175700a3e0f3e3c9c5b0a85db86", "is_disabled": 0, "rental_uris": {"ios": "https://dc.lft.to/lastmile_qr_scan", "android": "https://dc.lft.to/lastmile_qr_scan"}, "is_reserved": 0}, {"lon": -77.05746116666667, "bike_id": "932355d8bf1a533cfbaa23ccfc5894d5", "lat": 38.93353883333333, "fusion_lon": 0.0, "fusion_lat": 0.0, "type": "electric_scooter", "name": "932355d8bf1a533cfbaa23ccfc5894d5", "is_disabled": 0, "rental_uris": {"ios": "https://dc.lft.to/lastmile_qr_scan", "android": "https://dc.lft.to/lastmile_qr_scan"}, "is_reserved": 0}, {"lon": -76.98995283333333, "bike_id": "54c3237d116b31d48370c600ae0b8415", "lat": 38.93362666666667, "fusion_lon": 0.0, "fusion_lat": 0.0, "type": "electric_scooter", "name": "54c3237d116b31d48370c600ae0b8415", "is_disabled": 0, "rental_uris": {"ios": "https://dc.lft.to/lastmile_qr_scan", "android": "https://dc.lft.to/lastmile_qr_scan"}, "is_reserved": 0}, {"lon": -77.03270633333334, "bike_id": "93cdc19e9e13df2aeb245facf2e34555", "lat": 38.901488, "fusion_lon": 0.0, "fusion_lat": 0.0, "type": "electric_scooter", "name": "93cdc19e9e13df2aeb245facf2e34555", "is_disabled": 0, "rental_uris": {"ios": "https://dc.lft.to/lastmile_qr_scan", "android": "https://dc.lft.to/lastmile_qr_scan"}, "is_reserved": 0}, {"lon": -77.03214283333334, "bike_id": "beadb7a4468acb53095dcfcd87471a8e", "lat": 38.91472316666667, "fusion_lon": 0.0, "fusion_lat": 0.0, "type": "electric_scooter", "name": "beadb7a4468acb53095dcfcd87471a8e", "is_disabled": 0, "rental_uris": {"ios": "https://dc.lft.to/lastmile_qr_scan", "android": "https://dc.lft.to/lastmile_qr_scan"}, "is_reserved": 0}, {"lon": -76.9903045, "bike_id": "0a479f364186d4b9dcb9284ee86bb47c", "lat": 38.888752833333335, "fusion_lon": 0.0, "fusion_lat": 0.0, "type": "electric_scooter", "name": "0a479f364186d4b9dcb9284ee86bb47c", "is_disabled": 0, "rental_uris": {"ios": "https://dc.lft.to/lastmile_qr_scan", "android": "https://dc.lft.to/lastmile_qr_scan"}, "is_reserved": 0}, {"lon": -77.0319255, "bike_id": "9f8fdb7e191af184bab2f7c27c36eabc", "lat": 38.892142166666666, "fusion_lon": 0.0, "fusion_lat": 0.0, "type": "electric_scooter", "name": "9f8fdb7e191af184bab2f7c27c36eabc", "is_disabled": 0, "rental_uris": {"ios": "https://dc.lft.to/lastmile_qr_scan", "android": "https://dc.lft.to/lastmile_qr_scan"}, "is_reserved": 0}, {"lon": -77.01258366666667, "bike_id": "bbc24d7fefa4bd7a43008b498c7b780e", "lat": 38.90842633333333, "fusion_lon": 0.0, "fusion_lat": 0.0, "type": "electric_scooter", "name": "bbc24d7fefa4bd7a43008b498c7b780e", "is_disabled": 0, "rental_uris": {"ios": "https://dc.lft.to/lastmile_qr_scan", "android": "https://dc.lft.to/lastmile_qr_scan"}, "is_reserved": 0}, {"lon": -77.03661333333334, "bike_id": "e4d8873fd9b90c2357be3b9519a152e1", "lat": 38.917147166666666, "fusion_lon": 0.0, "fusion_lat": 0.0, "type": "electric_scooter", "name": "e4d8873fd9b90c2357be3b9519a152e1", "is_disabled": 0, "rental_uris": {"ios": "https://dc.lft.to/lastmile_qr_scan", "android": "https://dc.lft.to/lastmile_qr_scan"}, "is_reserved": 0}, {"lon": -77.00378166666667, "bike_id": "46786903d7e018fa90f4149e2c02e60d", "lat": 38.876348166666666, "fusion_lon": 0.0, "fusion_lat": 0.0, "type": "electric_scooter", "name": "46786903d7e018fa90f4149e2c02e60d", "is_disabled": 0, "rental_uris": {"ios": "https://dc.lft.to/lastmile_qr_scan", "android": "https://dc.lft.to/lastmile_qr_scan"}, "is_reserved": 0}, {"lon": -76.98018666666667, "bike_id": "9d05d099c126355bfcd2a4b602ba0803", "lat": 38.853223, "fusion_lon": 0.0, "fusion_lat": 0.0, "type": "electric_bike", "name": "9d05d099c126355bfcd2a4b602ba0803", "is_disabled": 0, "rental_uris": {"ios": "https://dc.lft.to/lastmile_qr_scan", "android": "https://dc.lft.to/lastmile_qr_scan"}, "is_reserved": 0}, {"lon": -77.03529616666667, "bike_id": "a251f666cbc657c5563397fbffb632a5", "lat": 38.92486983333333, "fusion_lon": 0.0, "fusion_lat": 0.0, "type": "electric_scooter", "name": "a251f666cbc657c5563397fbffb632a5", "is_disabled": 0, "rental_uris": {"ios": "https://dc.lft.to/lastmile_qr_scan", "android": "https://dc.lft.to/lastmile_qr_scan"}, "is_reserved": 0}, {"lon": -76.99081083333333, "bike_id": "79b982482f4ba86ea291095bc4412720", "lat": 38.89819333333333, "fusion_lon": 0.0, "fusion_lat": 0.0, "type": "electric_bike", "name": "79b982482f4ba86ea291095bc4412720", "is_disabled": 0, "rental_uris": {"ios": "https://dc.lft.to/lastmile_qr_scan", "android": "https://dc.lft.to/lastmile_qr_scan"}, "is_reserved": 0}, {"lon": -76.995239, "bike_id": "631cf70fc6ecba6fbf0058839b544ad7", "lat": 38.8626275, "fusion_lon": 0.0, "fusion_lat": 0.0, "type": "electric_scooter", "name": "631cf70fc6ecba6fbf0058839b544ad7", "is_disabled": 0, "rental_uris": {"ios": "https://dc.lft.to/lastmile_qr_scan", "android": "https://dc.lft.to/lastmile_qr_scan"}, "is_reserved": 0}, {"lon": -76.9488795, "bike_id": "bfc2250e2fde3ab82ea2ca38437424c9", "lat": 38.895127333333335, "fusion_lon": 0.0, "fusion_lat": 0.0, "type": "electric_scooter", "name": "bfc2250e2fde3ab82ea2ca38437424c9", "is_disabled": 0, "rental_uris": {"ios": "https://dc.lft.to/lastmile_qr_scan", "android": "https://dc.lft.to/lastmile_qr_scan"}, "is_reserved": 0}, {"lon": -77.03214133333333, "bike_id": "ff6bd33f8bbd2f2d8f217f4c47d75755", "lat": 38.897391999999996, "fusion_lon": 0.0, "fusion_lat": 0.0, "type": "electric_scooter", "name": "ff6bd33f8bbd2f2d8f217f4c47d75755", "is_disabled": 0, "rental_uris": {"ios": "https://dc.lft.to/lastmile_qr_scan", "android": "https://dc.lft.to/lastmile_qr_scan"}, "is_reserved": 0}, {"lon": -77.03186916666667, "bike_id": "7aa6b3368faf9ad9419f6ba2aea7a593", "lat": 38.91745133333333, "fusion_lon": 0.0, "fusion_lat": 0.0, "type": "electric_scooter", "name": "7aa6b3368faf9ad9419f6ba2aea7a593", "is_disabled": 0, "rental_uris": {"ios": "https://dc.lft.to/lastmile_qr_scan", "android": "https://dc.lft.to/lastmile_qr_scan"}, "is_reserved": 0}, {"lon": -77.02013266666667, "bike_id": "d02ab869e36adf50a4f5c915535bedbc", "lat": 38.9242165, "fusion_lon": 0.0, "fusion_lat": 0.0, "type": "electric_scooter", "name": "d02ab869e36adf50a4f5c915535bedbc", "is_disabled": 0, "rental_uris": {"ios": "https://dc.lft.to/lastmile_qr_scan", "android": "https://dc.lft.to/lastmile_qr_scan"}, "is_reserved": 0}, {"lon": -77.02718233333333, "bike_id": "50d9ef400db159f06e6d5992a102064d", "lat": 38.924766166666664, "fusion_lon": 0.0, "fusion_lat": 0.0, "type": "electric_scooter", "name": "50d9ef400db159f06e6d5992a102064d", "is_disabled": 0, "rental_uris": {"ios": "https://dc.lft.to/lastmile_qr_scan", "android": "https://dc.lft.to/lastmile_qr_scan"}, "is_reserved": 0}, {"lon": -77.0465365, "bike_id": "626491c80dec1ceea2f4b66c38a83b3c", "lat": 38.89661666666667, "fusion_lon": 0.0, "fusion_lat": 0.0, "type": "electric_scooter", "name": "626491c80dec1ceea2f4b66c38a83b3c", "is_disabled": 0, "rental_uris": {"ios": "https://dc.lft.to/lastmile_qr_scan", "android": "https://dc.lft.to/lastmile_qr_scan"}, "is_reserved": 0}, {"lon": -77.036465, "bike_id": "ef33678d10ad2194ca6d7ffb5a905cd2", "lat": 38.913433, "fusion_lon": 0.0, "fusion_lat": 0.0, "type": "electric_scooter", "name": "ef33678d10ad2194ca6d7ffb5a905cd2", "is_disabled": 0, "rental_uris": {"ios": "https://dc.lft.to/lastmile_qr_scan", "android": "https://dc.lft.to/lastmile_qr_scan"}, "is_reserved": 0}, {"lon": -76.98339366666667, "bike_id": "6e6fe96b0643d3acc6291d35e0e1644b", "lat": 38.895474666666665, "fusion_lon": 0.0, "fusion_lat": 0.0, "type": "electric_scooter", "name": "6e6fe96b0643d3acc6291d35e0e1644b", "is_disabled": 0, "rental_uris": {"ios": "https://dc.lft.to/lastmile_qr_scan", "android": "https://dc.lft.to/lastmile_qr_scan"}, "is_reserved": 0}, {"lon": -76.961509, "bike_id": "a687b68daf9cc9d945e7a939bbbca903", "lat": 38.88357516666667, "fusion_lon": 0.0, "fusion_lat": 0.0, "type": "electric_scooter", "name": "a687b68daf9cc9d945e7a939bbbca903", "is_disabled": 0, "rental_uris": {"ios": "https://dc.lft.to/lastmile_qr_scan", "android": "https://dc.lft.to/lastmile_qr_scan"}, "is_reserved": 0}, {"lon": -76.96772583333333, "bike_id": "8160f2329622dd784d860425471762be", "lat": 38.868471166666666, "fusion_lon": 0.0, "fusion_lat": 0.0, "type": "electric_scooter", "name": "8160f2329622dd784d860425471762be", "is_disabled": 0, "rental_uris": {"ios": "https://dc.lft.to/lastmile_qr_scan", "android": "https://dc.lft.to/lastmile_qr_scan"}, "is_reserved": 0}, {"lon": -77.067638, "bike_id": "e5b16dc05a2603886a6013ba2acb5834", "lat": 38.903653, "fusion_lon": 0.0, "fusion_lat": 0.0, "type": "electric_scooter", "name": "e5b16dc05a2603886a6013ba2acb5834", "is_disabled": 0, "rental_uris": {"ios": "https://dc.lft.to/lastmile_qr_scan", "android": "https://dc.lft.to/lastmile_qr_scan"}, "is_reserved": 0}, {"lon": -77.039393, "bike_id": "744509311bff8336c794d0261da9f1ea", "lat": 38.91703233333333, "fusion_lon": 0.0, "fusion_lat": 0.0, "type": "electric_scooter", "name": "744509311bff8336c794d0261da9f1ea", "is_disabled": 0, "rental_uris": {"ios": "https://dc.lft.to/lastmile_qr_scan", "android": "https://dc.lft.to/lastmile_qr_scan"}, "is_reserved": 0}, {"lon": -77.0459735, "bike_id": "33fd2698db5a9df4fdb5749c5d910053", "lat": 38.91578783333333, "fusion_lon": 0.0, "fusion_lat": 0.0, "type": "electric_scooter", "name": "33fd2698db5a9df4fdb5749c5d910053", "is_disabled": 0, "rental_uris": {"ios": "https://dc.lft.to/lastmile_qr_scan", "android": "https://dc.lft.to/lastmile_qr_scan"}, "is_reserved": 0}, {"lon": -76.9691215, "bike_id": "4d61b61b33716f1513e18d4facad1381", "lat": 38.8461145, "fusion_lon": 0.0, "fusion_lat": 0.0, "type": "electric_bike", "name": "4d61b61b33716f1513e18d4facad1381", "is_disabled": 0, "rental_uris": {"ios": "https://dc.lft.to/lastmile_qr_scan", "android": "https://dc.lft.to/lastmile_qr_scan"}, "is_reserved": 0}, {"lon": -77.033301, "bike_id": "7d8cf1f58e0243a5edde1d57fcafebd2", "lat": 38.901373, "fusion_lon": 0.0, "fusion_lat": 0.0, "type": "electric_scooter", "name": "7d8cf1f58e0243a5edde1d57fcafebd2", "is_disabled": 0, "rental_uris": {"ios": "https://dc.lft.to/lastmile_qr_scan", "android": "https://dc.lft.to/lastmile_qr_scan"}, "is_reserved": 0}, {"lon": -77.0239305, "bike_id": "8c0f79b82dbc1a405098229dba2b0d85", "lat": 38.93087166666667, "fusion_lon": 0.0, "fusion_lat": 0.0, "type": "electric_scooter", "name": "8c0f79b82dbc1a405098229dba2b0d85", "is_disabled": 0, "rental_uris": {"ios": "https://dc.lft.to/lastmile_qr_scan", "android": "https://dc.lft.to/lastmile_qr_scan"}, "is_reserved": 0}, {"lon": -77.02387783333333, "bike_id": "bdba71bfe38486c7ec38286806306138", "lat": 38.91988116666667, "fusion_lon": 0.0, "fusion_lat": 0.0, "type": "electric_scooter", "name": "bdba71bfe38486c7ec38286806306138", "is_disabled": 0, "rental_uris": {"ios": "https://dc.lft.to/lastmile_qr_scan", "android": "https://dc.lft.to/lastmile_qr_scan"}, "is_reserved": 0}, {"lon": -77.03863633333333, "bike_id": "ef86ca4b091da8d5ca8f32b4e345c702", "lat": 38.90280166666667, "fusion_lon": 0.0, "fusion_lat": 0.0, "type": "electric_scooter", "name": "ef86ca4b091da8d5ca8f32b4e345c702", "is_disabled": 0, "rental_uris": {"ios": "https://dc.lft.to/lastmile_qr_scan", "android": "https://dc.lft.to/lastmile_qr_scan"}, "is_reserved": 0}, {"lon": -77.02590233333333, "bike_id": "54b6b3cc9646a733b32b1cfe0609d4be", "lat": 38.963953333333336, "fusion_lon": 0.0, "fusion_lat": 0.0, "type": "electric_scooter", "name": "54b6b3cc9646a733b32b1cfe0609d4be", "is_disabled": 0, "rental_uris": {"ios": "https://dc.lft.to/lastmile_qr_scan", "android": "https://dc.lft.to/lastmile_qr_scan"}, "is_reserved": 0}, {"lon": -77.02976416666667, "bike_id": "3c7c3ed91d988b3fc2697a0be8eb7da9", "lat": 38.92869983333333, "fusion_lon": 0.0, "fusion_lat": 0.0, "type": "electric_scooter", "name": "3c7c3ed91d988b3fc2697a0be8eb7da9", "is_disabled": 0, "rental_uris": {"ios": "https://dc.lft.to/lastmile_qr_scan", "android": "https://dc.lft.to/lastmile_qr_scan"}, "is_reserved": 0}, {"lon": -77.032747, "bike_id": "25657788ac69aee295847bebb659332d", "lat": 38.919901833333334, "fusion_lon": 0.0, "fusion_lat": 0.0, "type": "electric_scooter", "name": "25657788ac69aee295847bebb659332d", "is_disabled": 0, "rental_uris": {"ios": "https://dc.lft.to/lastmile_qr_scan", "android": "https://dc.lft.to/lastmile_qr_scan"}, "is_reserved": 0}, {"lon": -76.9870825, "bike_id": "5d0bfdc1a72061e3a365954343dcb01b", "lat": 38.867002666666664, "fusion_lon": 0.0, "fusion_lat": 0.0, "type": "electric_scooter", "name": "5d0bfdc1a72061e3a365954343dcb01b", "is_disabled": 0, "rental_uris": {"ios": "https://dc.lft.to/lastmile_qr_scan", "android": "https://dc.lft.to/lastmile_qr_scan"}, "is_reserved": 0}, {"lon": -76.93732416666667, "bike_id": "055d7b5d5328a38f7695a165dd74fb44", "lat": 38.89016483333333, "fusion_lon": 0.0, "fusion_lat": 0.0, "type": "electric_scooter", "name": "055d7b5d5328a38f7695a165dd74fb44", "is_disabled": 0, "rental_uris": {"ios": "https://dc.lft.to/lastmile_qr_scan", "android": "https://dc.lft.to/lastmile_qr_scan"}, "is_reserved": 0}, {"lon": -77.04504116666666, "bike_id": "301644f2ff7493f760695146e81e84ac", "lat": 38.903698166666665, "fusion_lon": 0.0, "fusion_lat": 0.0, "type": "electric_scooter", "name": "301644f2ff7493f760695146e81e84ac", "is_disabled": 0, "rental_uris": {"ios": "https://dc.lft.to/lastmile_qr_scan", "android": "https://dc.lft.to/lastmile_qr_scan"}, "is_reserved": 0}, {"lon": -77.02054716666666, "bike_id": "90e47d6f9fa1e4905737c44c5ceb9718", "lat": 38.95745333333333, "fusion_lon": 0.0, "fusion_lat": 0.0, "type": "electric_bike", "name": "90e47d6f9fa1e4905737c44c5ceb9718", "is_disabled": 0, "rental_uris": {"ios": "https://dc.lft.to/lastmile_qr_scan", "android": "https://dc.lft.to/lastmile_qr_scan"}, "is_reserved": 0}, {"lon": -77.03174616666666, "bike_id": "20aa7e363fde2a6298dcad01a454028d", "lat": 38.893562333333335, "fusion_lon": 0.0, "fusion_lat": 0.0, "type": "electric_scooter", "name": "20aa7e363fde2a6298dcad01a454028d", "is_disabled": 0, "rental_uris": {"ios": "https://dc.lft.to/lastmile_qr_scan", "android": "https://dc.lft.to/lastmile_qr_scan"}, "is_reserved": 0}, {"lon": -76.982291, "bike_id": "67277a72f39f2d1cd884c93dd68f8493", "lat": 38.86889883333333, "fusion_lon": 0.0, "fusion_lat": 0.0, "type": "electric_scooter", "name": "67277a72f39f2d1cd884c93dd68f8493", "is_disabled": 0, "rental_uris": {"ios": "https://dc.lft.to/lastmile_qr_scan", "android": "https://dc.lft.to/lastmile_qr_scan"}, "is_reserved": 0}, {"lon": -76.99196566666667, "bike_id": "e9ad14f96580154fa5dcba26219b4ae1", "lat": 38.86284966666667, "fusion_lon": 0.0, "fusion_lat": 0.0, "type": "electric_scooter", "name": "e9ad14f96580154fa5dcba26219b4ae1", "is_disabled": 0, "rental_uris": {"ios": "https://dc.lft.to/lastmile_qr_scan", "android": "https://dc.lft.to/lastmile_qr_scan"}, "is_reserved": 0}, {"lon": -77.04327833333333, "bike_id": "ed5a4418884e5dbf2a7b0a33f7147f24", "lat": 38.90237066666667, "fusion_lon": 0.0, "fusion_lat": 0.0, "type": "electric_scooter", "name": "ed5a4418884e5dbf2a7b0a33f7147f24", "is_disabled": 0, "rental_uris": {"ios": "https://dc.lft.to/lastmile_qr_scan", "android": "https://dc.lft.to/lastmile_qr_scan"}, "is_reserved": 0}, {"lon": -77.04175366666666, "bike_id": "b7dd65202598c7fcda9bc652fc17d408", "lat": 38.905480833333336, "fusion_lon": 0.0, "fusion_lat": 0.0, "type": "electric_scooter", "name": "b7dd65202598c7fcda9bc652fc17d408", "is_disabled": 0, "rental_uris": {"ios": "https://dc.lft.to/lastmile_qr_scan", "android": "https://dc.lft.to/lastmile_qr_scan"}, "is_reserved": 0}, {"lon": -77.03849816666667, "bike_id": "b88e9822655aa2c43be0fc79816f319d", "lat": 38.912735833333336, "fusion_lon": 0.0, "fusion_lat": 0.0, "type": "electric_scooter", "name": "b88e9822655aa2c43be0fc79816f319d", "is_disabled": 0, "rental_uris": {"ios": "https://dc.lft.to/lastmile_qr_scan", "android": "https://dc.lft.to/lastmile_qr_scan"}, "is_reserved": 0}, {"lon": -77.02697466666666, "bike_id": "d0c000a6e4090ae67576689ed3e517dd", "lat": 38.90455566666667, "fusion_lon": 0.0, "fusion_lat": 0.0, "type": "electric_scooter", "name": "d0c000a6e4090ae67576689ed3e517dd", "is_disabled": 0, "rental_uris": {"ios": "https://dc.lft.to/lastmile_qr_scan", "android": "https://dc.lft.to/lastmile_qr_scan"}, "is_reserved": 0}, {"lon": -77.04499383333334, "bike_id": "f8f5ce2d4dfcd52b8a3790439cb3b017", "lat": 38.89779266666667, "fusion_lon": 0.0, "fusion_lat": 0.0, "type": "electric_scooter", "name": "f8f5ce2d4dfcd52b8a3790439cb3b017", "is_disabled": 0, "rental_uris": {"ios": "https://dc.lft.to/lastmile_qr_scan", "android": "https://dc.lft.to/lastmile_qr_scan"}, "is_reserved": 0}, {"lon": -76.99006083333333, "bike_id": "9a72ad02d49c738520e2ec1eb741a69a", "lat": 38.865068666666666, "fusion_lon": 0.0, "fusion_lat": 0.0, "type": "electric_scooter", "name": "9a72ad02d49c738520e2ec1eb741a69a", "is_disabled": 0, "rental_uris": {"ios": "https://dc.lft.to/lastmile_qr_scan", "android": "https://dc.lft.to/lastmile_qr_scan"}, "is_reserved": 0}, {"lon": -76.993714, "bike_id": "e4856ed739fa361a149cd5c7e1992381", "lat": 38.8796875, "fusion_lon": 0.0, "fusion_lat": 0.0, "type": "electric_scooter", "name": "e4856ed739fa361a149cd5c7e1992381", "is_disabled": 0, "rental_uris": {"ios": "https://dc.lft.to/lastmile_qr_scan", "android": "https://dc.lft.to/lastmile_qr_scan"}, "is_reserved": 0}, {"lon": -77.0370245, "bike_id": "ed9efbd6a56455a3913f46f231b775a9", "lat": 38.9352765, "fusion_lon": 0.0, "fusion_lat": 0.0, "type": "electric_scooter", "name": "ed9efbd6a56455a3913f46f231b775a9", "is_disabled": 0, "rental_uris": {"ios": "https://dc.lft.to/lastmile_qr_scan", "android": "https://dc.lft.to/lastmile_qr_scan"}, "is_reserved": 0}, {"lon": -76.98901333333333, "bike_id": "ba6716533ccc78bd13f2a363306f45b3", "lat": 38.86669583333333, "fusion_lon": 0.0, "fusion_lat": 0.0, "type": "electric_scooter", "name": "ba6716533ccc78bd13f2a363306f45b3", "is_disabled": 0, "rental_uris": {"ios": "https://dc.lft.to/lastmile_qr_scan", "android": "https://dc.lft.to/lastmile_qr_scan"}, "is_reserved": 0}, {"lon": -77.0311395, "bike_id": "07805fb626b8b205f6851b98a54bae8b", "lat": 38.923803, "fusion_lon": 0.0, "fusion_lat": 0.0, "type": "electric_scooter", "name": "07805fb626b8b205f6851b98a54bae8b", "is_disabled": 0, "rental_uris": {"ios": "https://dc.lft.to/lastmile_qr_scan", "android": "https://dc.lft.to/lastmile_qr_scan"}, "is_reserved": 0}, {"lon": -76.99822783333333, "bike_id": "0d40d8b8396727bab03324b21badc788", "lat": 38.9000805, "fusion_lon": 0.0, "fusion_lat": 0.0, "type": "electric_scooter", "name": "0d40d8b8396727bab03324b21badc788", "is_disabled": 0, "rental_uris": {"ios": "https://dc.lft.to/lastmile_qr_scan", "android": "https://dc.lft.to/lastmile_qr_scan"}, "is_reserved": 0}, {"lon": -77.02726733333333, "bike_id": "e9107d56b873e7e342d05df80439ab74", "lat": 38.89711883333333, "fusion_lon": 0.0, "fusion_lat": 0.0, "type": "electric_scooter", "name": "e9107d56b873e7e342d05df80439ab74", "is_disabled": 0, "rental_uris": {"ios": "https://dc.lft.to/lastmile_qr_scan", "android": "https://dc.lft.to/lastmile_qr_scan"}, "is_reserved": 0}, {"lon": -77.029177, "bike_id": "5a51cd7ca30b81fd598316ce1d72767b", "lat": 38.916938, "fusion_lon": 0.0, "fusion_lat": 0.0, "type": "electric_bike", "name": "5a51cd7ca30b81fd598316ce1d72767b", "is_disabled": 0, "rental_uris": {"ios": "https://dc.lft.to/lastmile_qr_scan", "android": "https://dc.lft.to/lastmile_qr_scan"}, "is_reserved": 0}, {"lon": -77.02126366666667, "bike_id": "f91f0c738bda16d44cc522cf1d3dd12c", "lat": 38.899599333333335, "fusion_lon": 0.0, "fusion_lat": 0.0, "type": "electric_scooter", "name": "f91f0c738bda16d44cc522cf1d3dd12c", "is_disabled": 0, "rental_uris": {"ios": "https://dc.lft.to/lastmile_qr_scan", "android": "https://dc.lft.to/lastmile_qr_scan"}, "is_reserved": 0}, {"lon": -77.02204933333333, "bike_id": "86e222dc285d556999d6c0d2db874e19", "lat": 38.8788815, "fusion_lon": 0.0, "fusion_lat": 0.0, "type": "electric_scooter", "name": "86e222dc285d556999d6c0d2db874e19", "is_disabled": 0, "rental_uris": {"ios": "https://dc.lft.to/lastmile_qr_scan", "android": "https://dc.lft.to/lastmile_qr_scan"}, "is_reserved": 0}, {"lon": -77.01871033333333, "bike_id": "77495caca2518c91e9a6719d40ba034f", "lat": 38.90316833333333, "fusion_lon": 0.0, "fusion_lat": 0.0, "type": "electric_scooter", "name": "77495caca2518c91e9a6719d40ba034f", "is_disabled": 0, "rental_uris": {"ios": "https://dc.lft.to/lastmile_qr_scan", "android": "https://dc.lft.to/lastmile_qr_scan"}, "is_reserved": 0}, {"lon": -77.03967266666666, "bike_id": "ab4bb15fb0c8666b344bf58bbcb39570", "lat": 38.89223666666667, "fusion_lon": 0.0, "fusion_lat": 0.0, "type": "electric_scooter", "name": "ab4bb15fb0c8666b344bf58bbcb39570", "is_disabled": 0, "rental_uris": {"ios": "https://dc.lft.to/lastmile_qr_scan", "android": "https://dc.lft.to/lastmile_qr_scan"}, "is_reserved": 0}, {"lon": -77.017422, "bike_id": "255dfc0aa3cc52e3a46a13bf6e977ac8", "lat": 38.88746016666666, "fusion_lon": 0.0, "fusion_lat": 0.0, "type": "electric_scooter", "name": "255dfc0aa3cc52e3a46a13bf6e977ac8", "is_disabled": 0, "rental_uris": {"ios": "https://dc.lft.to/lastmile_qr_scan", "android": "https://dc.lft.to/lastmile_qr_scan"}, "is_reserved": 0}, {"lon": -77.037403, "bike_id": "943dbf0967f9e7aa152fb7917772b88c", "lat": 38.91803016666667, "fusion_lon": 0.0, "fusion_lat": 0.0, "type": "electric_scooter", "name": "943dbf0967f9e7aa152fb7917772b88c", "is_disabled": 0, "rental_uris": {"ios": "https://dc.lft.to/lastmile_qr_scan", "android": "https://dc.lft.to/lastmile_qr_scan"}, "is_reserved": 0}, {"lon": -77.00544216666667, "bike_id": "02cd79a1dc57490ef5180bda14e2acca", "lat": 38.9054695, "fusion_lon": 0.0, "fusion_lat": 0.0, "type": "electric_scooter", "name": "02cd79a1dc57490ef5180bda14e2acca", "is_disabled": 0, "rental_uris": {"ios": "https://dc.lft.to/lastmile_qr_scan", "android": "https://dc.lft.to/lastmile_qr_scan"}, "is_reserved": 0}, {"lon": -77.04333066666666, "bike_id": "05681d1a22237ce5b69bf61e703059cb", "lat": 38.89218566666667, "fusion_lon": 0.0, "fusion_lat": 0.0, "type": "electric_scooter", "name": "05681d1a22237ce5b69bf61e703059cb", "is_disabled": 0, "rental_uris": {"ios": "https://dc.lft.to/lastmile_qr_scan", "android": "https://dc.lft.to/lastmile_qr_scan"}, "is_reserved": 0}, {"lon": -77.0331675, "bike_id": "1b097e239d2360ea681f4e7fc0de5ccb", "lat": 38.898280666666665, "fusion_lon": 0.0, "fusion_lat": 0.0, "type": "electric_scooter", "name": "1b097e239d2360ea681f4e7fc0de5ccb", "is_disabled": 0, "rental_uris": {"ios": "https://dc.lft.to/lastmile_qr_scan", "android": "https://dc.lft.to/lastmile_qr_scan"}, "is_reserved": 0}, {"lon": -77.01964833333334, "bike_id": "f6b182445771a693d6e9a5f7648f16e0", "lat": 38.8837575, "fusion_lon": 0.0, "fusion_lat": 0.0, "type": "electric_scooter", "name": "f6b182445771a693d6e9a5f7648f16e0", "is_disabled": 0, "rental_uris": {"ios": "https://dc.lft.to/lastmile_qr_scan", "android": "https://dc.lft.to/lastmile_qr_scan"}, "is_reserved": 0}, {"lon": -77.02217883333333, "bike_id": "e37f39f8b63a2a351cb22f563aed53b8", "lat": 38.892174, "fusion_lon": 0.0, "fusion_lat": 0.0, "type": "electric_scooter", "name": "e37f39f8b63a2a351cb22f563aed53b8", "is_disabled": 0, "rental_uris": {"ios": "https://dc.lft.to/lastmile_qr_scan", "android": "https://dc.lft.to/lastmile_qr_scan"}, "is_reserved": 0}, {"lon": -77.048991, "bike_id": "8f06ccd2ef971dadd102f136b564ac2a", "lat": 38.8922695, "fusion_lon": 0.0, "fusion_lat": 0.0, "type": "electric_scooter", "name": "8f06ccd2ef971dadd102f136b564ac2a", "is_disabled": 0, "rental_uris": {"ios": "https://dc.lft.to/lastmile_qr_scan", "android": "https://dc.lft.to/lastmile_qr_scan"}, "is_reserved": 0}, {"lon": -77.03194666666667, "bike_id": "76506df4bfa362d18cceced42b69aca1", "lat": 38.896138, "fusion_lon": 0.0, "fusion_lat": 0.0, "type": "electric_scooter", "name": "76506df4bfa362d18cceced42b69aca1", "is_disabled": 0, "rental_uris": {"ios": "https://dc.lft.to/lastmile_qr_scan", "android": "https://dc.lft.to/lastmile_qr_scan"}, "is_reserved": 0}, {"lon": -77.026528, "bike_id": "b3ec2fbdddcfdd46a2185a18c2d384af", "lat": 38.899655333333335, "fusion_lon": 0.0, "fusion_lat": 0.0, "type": "electric_scooter", "name": "b3ec2fbdddcfdd46a2185a18c2d384af", "is_disabled": 0, "rental_uris": {"ios": "https://dc.lft.to/lastmile_qr_scan", "android": "https://dc.lft.to/lastmile_qr_scan"}, "is_reserved": 0}, {"lon": -76.98943916666667, "bike_id": "0cf8eb81e84859d78f5716eb10d24d42", "lat": 38.86694766666667, "fusion_lon": 0.0, "fusion_lat": 0.0, "type": "electric_bike", "name": "0cf8eb81e84859d78f5716eb10d24d42", "is_disabled": 0, "rental_uris": {"ios": "https://dc.lft.to/lastmile_qr_scan", "android": "https://dc.lft.to/lastmile_qr_scan"}, "is_reserved": 0}, {"lon": -77.0262325, "bike_id": "a4b933aae3489b47ecc1c95631ade320", "lat": 38.892195, "fusion_lon": 0.0, "fusion_lat": 0.0, "type": "electric_scooter", "name": "a4b933aae3489b47ecc1c95631ade320", "is_disabled": 0, "rental_uris": {"ios": "https://dc.lft.to/lastmile_qr_scan", "android": "https://dc.lft.to/lastmile_qr_scan"}, "is_reserved": 0}, {"lon": -77.03184983333334, "bike_id": "d4b90335b5eb26d2a09631c0b3e023ae", "lat": 38.89219383333333, "fusion_lon": 0.0, "fusion_lat": 0.0, "type": "electric_scooter", "name": "d4b90335b5eb26d2a09631c0b3e023ae", "is_disabled": 0, "rental_uris": {"ios": "https://dc.lft.to/lastmile_qr_scan", "android": "https://dc.lft.to/lastmile_qr_scan"}, "is_reserved": 0}, {"lon": -77.03455566666666, "bike_id": "3a321557f715655a3ac61f590d4a62bd", "lat": 38.90585133333333, "fusion_lon": 0.0, "fusion_lat": 0.0, "type": "electric_scooter", "name": "3a321557f715655a3ac61f590d4a62bd", "is_disabled": 0, "rental_uris": {"ios": "https://dc.lft.to/lastmile_qr_scan", "android": "https://dc.lft.to/lastmile_qr_scan"}, "is_reserved": 0}, {"lon": -77.03183333333334, "bike_id": "d7a87feac3bd726da734843295024ce2", "lat": 38.89220666666667, "fusion_lon": 0.0, "fusion_lat": 0.0, "type": "electric_scooter", "name": "d7a87feac3bd726da734843295024ce2", "is_disabled": 0, "rental_uris": {"ios": "https://dc.lft.to/lastmile_qr_scan", "android": "https://dc.lft.to/lastmile_qr_scan"}, "is_reserved": 0}, {"lon": -77.02508783333333, "bike_id": "bbe90c0475ee18b0eb230b6fa865dad2", "lat": 38.92086283333333, "fusion_lon": 0.0, "fusion_lat": 0.0, "type": "electric_scooter", "name": "bbe90c0475ee18b0eb230b6fa865dad2", "is_disabled": 0, "rental_uris": {"ios": "https://dc.lft.to/lastmile_qr_scan", "android": "https://dc.lft.to/lastmile_qr_scan"}, "is_reserved": 0}, {"lon": -76.9859755, "bike_id": "22f752ce05033cdbe51d7bb06ced1ddd", "lat": 38.86683416666666, "fusion_lon": 0.0, "fusion_lat": 0.0, "type": "electric_scooter", "name": "22f752ce05033cdbe51d7bb06ced1ddd", "is_disabled": 0, "rental_uris": {"ios": "https://dc.lft.to/lastmile_qr_scan", "android": "https://dc.lft.to/lastmile_qr_scan"}, "is_reserved": 0}, {"lon": -77.0320485, "bike_id": "b13ff14bb784593777de5ec898591898", "lat": 38.91825716666666, "fusion_lon": 0.0, "fusion_lat": 0.0, "type": "electric_scooter", "name": "b13ff14bb784593777de5ec898591898", "is_disabled": 0, "rental_uris": {"ios": "https://dc.lft.to/lastmile_qr_scan", "android": "https://dc.lft.to/lastmile_qr_scan"}, "is_reserved": 0}, {"lon": -77.02086416666667, "bike_id": "43dc2f7e0b5f1269bf7bc51164c6d37f", "lat": 38.9575185, "fusion_lon": 0.0, "fusion_lat": 0.0, "type": "electric_scooter", "name": "43dc2f7e0b5f1269bf7bc51164c6d37f", "is_disabled": 0, "rental_uris": {"ios": "https://dc.lft.to/lastmile_qr_scan", "android": "https://dc.lft.to/lastmile_qr_scan"}, "is_reserved": 0}, {"lon": -77.04417816666667, "bike_id": "eca30e4fef461a83595af6451f82d43b", "lat": 38.91131683333333, "fusion_lon": 0.0, "fusion_lat": 0.0, "type": "electric_scooter", "name": "eca30e4fef461a83595af6451f82d43b", "is_disabled": 0, "rental_uris": {"ios": "https://dc.lft.to/lastmile_qr_scan", "android": "https://dc.lft.to/lastmile_qr_scan"}, "is_reserved": 0}, {"lon": -77.0318095, "bike_id": "dd9639cedd62851d06ccd6b3f9389874", "lat": 38.91820533333333, "fusion_lon": 0.0, "fusion_lat": 0.0, "type": "electric_scooter", "name": "dd9639cedd62851d06ccd6b3f9389874", "is_disabled": 0, "rental_uris": {"ios": "https://dc.lft.to/lastmile_qr_scan", "android": "https://dc.lft.to/lastmile_qr_scan"}, "is_reserved": 0}, {"lon": -77.03928933333333, "bike_id": "a199f863f3367e88c7562dd0fbc43d99", "lat": 38.9261225, "fusion_lon": 0.0, "fusion_lat": 0.0, "type": "electric_scooter", "name": "a199f863f3367e88c7562dd0fbc43d99", "is_disabled": 0, "rental_uris": {"ios": "https://dc.lft.to/lastmile_qr_scan", "android": "https://dc.lft.to/lastmile_qr_scan"}, "is_reserved": 0}, {"lon": -76.9457335, "bike_id": "3496053c2b5bab29790507871ea67875", "lat": 38.866198, "fusion_lon": 0.0, "fusion_lat": 0.0, "type": "electric_bike", "name": "3496053c2b5bab29790507871ea67875", "is_disabled": 0, "rental_uris": {"ios": "https://dc.lft.to/lastmile_qr_scan", "android": "https://dc.lft.to/lastmile_qr_scan"}, "is_reserved": 0}, {"lon": -77.05574966666667, "bike_id": "b4a0cbffaaeffc763c96b83e18a4469a", "lat": 38.915973, "fusion_lon": 0.0, "fusion_lat": 0.0, "type": "electric_scooter", "name": "b4a0cbffaaeffc763c96b83e18a4469a", "is_disabled": 0, "rental_uris": {"ios": "https://dc.lft.to/lastmile_qr_scan", "android": "https://dc.lft.to/lastmile_qr_scan"}, "is_reserved": 0}, {"lon": -77.0396075, "bike_id": "ca8aaa3775586d4c5096c52c48ad3824", "lat": 38.9135315, "fusion_lon": 0.0, "fusion_lat": 0.0, "type": "electric_scooter", "name": "ca8aaa3775586d4c5096c52c48ad3824", "is_disabled": 0, "rental_uris": {"ios": "https://dc.lft.to/lastmile_qr_scan", "android": "https://dc.lft.to/lastmile_qr_scan"}, "is_reserved": 0}, {"lon": -76.99000866666667, "bike_id": "64713a18dc827115c00111bda3cc57bf", "lat": 38.86503183333333, "fusion_lon": 0.0, "fusion_lat": 0.0, "type": "electric_scooter", "name": "64713a18dc827115c00111bda3cc57bf", "is_disabled": 0, "rental_uris": {"ios": "https://dc.lft.to/lastmile_qr_scan", "android": "https://dc.lft.to/lastmile_qr_scan"}, "is_reserved": 0}, {"lon": -77.02569333333334, "bike_id": "9771016790177276c30d227e2ea3c48c", "lat": 38.89753066666667, "fusion_lon": 0.0, "fusion_lat": 0.0, "type": "electric_scooter", "name": "9771016790177276c30d227e2ea3c48c", "is_disabled": 0, "rental_uris": {"ios": "https://dc.lft.to/lastmile_qr_scan", "android": "https://dc.lft.to/lastmile_qr_scan"}, "is_reserved": 0}, {"lon": -77.01429783333333, "bike_id": "83b8baa3479c93f8606552e50acc573b", "lat": 38.87927616666666, "fusion_lon": 0.0, "fusion_lat": 0.0, "type": "electric_bike", "name": "83b8baa3479c93f8606552e50acc573b", "is_disabled": 0, "rental_uris": {"ios": "https://dc.lft.to/lastmile_qr_scan", "android": "https://dc.lft.to/lastmile_qr_scan"}, "is_reserved": 0}, {"lon": -77.0055285, "bike_id": "80aef07d1c07e80dc9f4d51ff702ea88", "lat": 38.9054885, "fusion_lon": 0.0, "fusion_lat": 0.0, "type": "electric_scooter", "name": "80aef07d1c07e80dc9f4d51ff702ea88", "is_disabled": 0, "rental_uris": {"ios": "https://dc.lft.to/lastmile_qr_scan", "android": "https://dc.lft.to/lastmile_qr_scan"}, "is_reserved": 0}, {"lon": -76.98408916666666, "bike_id": "87bc70c1539b9020ec455409124992ec", "lat": 38.8663975, "fusion_lon": 0.0, "fusion_lat": 0.0, "type": "electric_scooter", "name": "87bc70c1539b9020ec455409124992ec", "is_disabled": 0, "rental_uris": {"ios": "https://dc.lft.to/lastmile_qr_scan", "android": "https://dc.lft.to/lastmile_qr_scan"}, "is_reserved": 0}, {"lon": -77.032819, "bike_id": "b3f6603a9c459646d7e8277c989d906a", "lat": 38.907108, "fusion_lon": 0.0, "fusion_lat": 0.0, "type": "electric_scooter", "name": "b3f6603a9c459646d7e8277c989d906a", "is_disabled": 0, "rental_uris": {"ios": "https://dc.lft.to/lastmile_qr_scan", "android": "https://dc.lft.to/lastmile_qr_scan"}, "is_reserved": 0}, {"lon": -77.0360705, "bike_id": "1acabbb73250797d84e635017bcd91df", "lat": 38.93477716666666, "fusion_lon": 0.0, "fusion_lat": 0.0, "type": "electric_scooter", "name": "1acabbb73250797d84e635017bcd91df", "is_disabled": 0, "rental_uris": {"ios": "https://dc.lft.to/lastmile_qr_scan", "android": "https://dc.lft.to/lastmile_qr_scan"}, "is_reserved": 0}, {"lon": -77.04161583333334, "bike_id": "85a41982a18d506cd25af1420072057e", "lat": 38.91983883333333, "fusion_lon": 0.0, "fusion_lat": 0.0, "type": "electric_scooter", "name": "85a41982a18d506cd25af1420072057e", "is_disabled": 0, "rental_uris": {"ios": "https://dc.lft.to/lastmile_qr_scan", "android": "https://dc.lft.to/lastmile_qr_scan"}, "is_reserved": 0}, {"lon": -77.08005383333334, "bike_id": "24fbd6ed00009fb50dc980f9915d74e9", "lat": 38.964889, "fusion_lon": 0.0, "fusion_lat": 0.0, "type": "electric_scooter", "name": "24fbd6ed00009fb50dc980f9915d74e9", "is_disabled": 0, "rental_uris": {"ios": "https://dc.lft.to/lastmile_qr_scan", "android": "https://dc.lft.to/lastmile_qr_scan"}, "is_reserved": 0}, {"lon": -77.01497283333333, "bike_id": "4d987edf9996f8dda335fdc134730497", "lat": 38.9175715, "fusion_lon": 0.0, "fusion_lat": 0.0, "type": "electric_scooter", "name": "4d987edf9996f8dda335fdc134730497", "is_disabled": 0, "rental_uris": {"ios": "https://dc.lft.to/lastmile_qr_scan", "android": "https://dc.lft.to/lastmile_qr_scan"}, "is_reserved": 0}, {"lon": -76.93189416666667, "bike_id": "69121882568a4834c60f22a1054a93cb", "lat": 38.898765166666664, "fusion_lon": 0.0, "fusion_lat": 0.0, "type": "electric_scooter", "name": "69121882568a4834c60f22a1054a93cb", "is_disabled": 0, "rental_uris": {"ios": "https://dc.lft.to/lastmile_qr_scan", "android": "https://dc.lft.to/lastmile_qr_scan"}, "is_reserved": 0}, {"lon": -77.07903816666666, "bike_id": "10e3ccb35bad5d80b753be6abe9581e4", "lat": 38.839332, "fusion_lon": 0.0, "fusion_lat": 0.0, "type": "electric_bike", "name": "10e3ccb35bad5d80b753be6abe9581e4", "is_disabled": 0, "rental_uris": {"ios": "https://dc.lft.to/lastmile_qr_scan", "android": "https://dc.lft.to/lastmile_qr_scan"}, "is_reserved": 0}, {"lon": -76.99022016666666, "bike_id": "4ae4a41a90bdcddfe35732cf9c1c0e3c", "lat": 38.8827565, "fusion_lon": 0.0, "fusion_lat": 0.0, "type": "electric_scooter", "name": "4ae4a41a90bdcddfe35732cf9c1c0e3c", "is_disabled": 0, "rental_uris": {"ios": "https://dc.lft.to/lastmile_qr_scan", "android": "https://dc.lft.to/lastmile_qr_scan"}, "is_reserved": 0}, {"lon": -77.00361733333334, "bike_id": "63d622cb30d01a52c800a3908437ca56", "lat": 38.897330833333335, "fusion_lon": 0.0, "fusion_lat": 0.0, "type": "electric_scooter", "name": "63d622cb30d01a52c800a3908437ca56", "is_disabled": 0, "rental_uris": {"ios": "https://dc.lft.to/lastmile_qr_scan", "android": "https://dc.lft.to/lastmile_qr_scan"}, "is_reserved": 0}, {"lon": -76.98038366666667, "bike_id": "2a0b4400fb2aee761916a3187eff4ae3", "lat": 38.889670333333335, "fusion_lon": 0.0, "fusion_lat": 0.0, "type": "electric_scooter", "name": "2a0b4400fb2aee761916a3187eff4ae3", "is_disabled": 0, "rental_uris": {"ios": "https://dc.lft.to/lastmile_qr_scan", "android": "https://dc.lft.to/lastmile_qr_scan"}, "is_reserved": 0}, {"lon": -77.0322635, "bike_id": "234a8a5e9942fe2fe5387b9b83ee4329", "lat": 38.914055166666664, "fusion_lon": 0.0, "fusion_lat": 0.0, "type": "electric_scooter", "name": "234a8a5e9942fe2fe5387b9b83ee4329", "is_disabled": 0, "rental_uris": {"ios": "https://dc.lft.to/lastmile_qr_scan", "android": "https://dc.lft.to/lastmile_qr_scan"}, "is_reserved": 0}, {"lon": -77.05662733333334, "bike_id": "7e2d2ec406298c2052aad824f0d89c8b", "lat": 38.895475, "fusion_lon": 0.0, "fusion_lat": 0.0, "type": "electric_scooter", "name": "7e2d2ec406298c2052aad824f0d89c8b", "is_disabled": 0, "rental_uris": {"ios": "https://dc.lft.to/lastmile_qr_scan", "android": "https://dc.lft.to/lastmile_qr_scan"}, "is_reserved": 0}, {"lon": -77.017686, "bike_id": "e79fd8f641c3e66fcea82090d2ccf1e8", "lat": 38.88395333333333, "fusion_lon": 0.0, "fusion_lat": 0.0, "type": "electric_scooter", "name": "e79fd8f641c3e66fcea82090d2ccf1e8", "is_disabled": 0, "rental_uris": {"ios": "https://dc.lft.to/lastmile_qr_scan", "android": "https://dc.lft.to/lastmile_qr_scan"}, "is_reserved": 0}, {"lon": -77.02582566666666, "bike_id": "bc8f934764ebc7216f9bd47f5116ad58", "lat": 38.887407833333334, "fusion_lon": 0.0, "fusion_lat": 0.0, "type": "electric_scooter", "name": "bc8f934764ebc7216f9bd47f5116ad58", "is_disabled": 0, "rental_uris": {"ios": "https://dc.lft.to/lastmile_qr_scan", "android": "https://dc.lft.to/lastmile_qr_scan"}, "is_reserved": 0}, {"lon": -77.22579816666666, "bike_id": "01e9a774293758d2b92ee11ab7f22b6c", "lat": 38.9295825, "fusion_lon": 0.0, "fusion_lat": 0.0, "type": "electric_bike", "name": "01e9a774293758d2b92ee11ab7f22b6c", "is_disabled": 0, "rental_uris": {"ios": "https://dc.lft.to/lastmile_qr_scan", "android": "https://dc.lft.to/lastmile_qr_scan"}, "is_reserved": 0}, {"lon": -76.99482083333334, "bike_id": "5031e771d91159979455aac100058b4a", "lat": 38.88608033333333, "fusion_lon": 0.0, "fusion_lat": 0.0, "type": "electric_scooter", "name": "5031e771d91159979455aac100058b4a", "is_disabled": 0, "rental_uris": {"ios": "https://dc.lft.to/lastmile_qr_scan", "android": "https://dc.lft.to/lastmile_qr_scan"}, "is_reserved": 0}, {"lon": -77.0237355, "bike_id": "61c9d6a276c7d3f003b900dd1a6f23a2", "lat": 38.90947366666666, "fusion_lon": 0.0, "fusion_lat": 0.0, "type": "electric_scooter", "name": "61c9d6a276c7d3f003b900dd1a6f23a2", "is_disabled": 0, "rental_uris": {"ios": "https://dc.lft.to/lastmile_qr_scan", "android": "https://dc.lft.to/lastmile_qr_scan"}, "is_reserved": 0}, {"lon": -77.0217895, "bike_id": "b446b6b2abfb6ddd2b2dc2a9044c7732", "lat": 38.88725683333333, "fusion_lon": 0.0, "fusion_lat": 0.0, "type": "electric_scooter", "name": "b446b6b2abfb6ddd2b2dc2a9044c7732", "is_disabled": 0, "rental_uris": {"ios": "https://dc.lft.to/lastmile_qr_scan", "android": "https://dc.lft.to/lastmile_qr_scan"}, "is_reserved": 0}, {"lon": -77.04875416666667, "bike_id": "9c2da6e887aec3a373316e376c16a3d7", "lat": 38.892326, "fusion_lon": 0.0, "fusion_lat": 0.0, "type": "electric_scooter", "name": "9c2da6e887aec3a373316e376c16a3d7", "is_disabled": 0, "rental_uris": {"ios": "https://dc.lft.to/lastmile_qr_scan", "android": "https://dc.lft.to/lastmile_qr_scan"}, "is_reserved": 0}, {"lon": -77.02177933333333, "bike_id": "bcfaf29a7ffec5a303acd231c75f7cc3", "lat": 38.914817166666666, "fusion_lon": 0.0, "fusion_lat": 0.0, "type": "electric_scooter", "name": "bcfaf29a7ffec5a303acd231c75f7cc3", "is_disabled": 0, "rental_uris": {"ios": "https://dc.lft.to/lastmile_qr_scan", "android": "https://dc.lft.to/lastmile_qr_scan"}, "is_reserved": 0}, {"lon": -77.017871, "bike_id": "87c28fa527722e43b7c79cfd5fa4c67c", "lat": 38.92043133333333, "fusion_lon": 0.0, "fusion_lat": 0.0, "type": "electric_scooter", "name": "87c28fa527722e43b7c79cfd5fa4c67c", "is_disabled": 0, "rental_uris": {"ios": "https://dc.lft.to/lastmile_qr_scan", "android": "https://dc.lft.to/lastmile_qr_scan"}, "is_reserved": 0}, {"lon": -77.02697, "bike_id": "ed585c8bc99ce56d8afe267cfa4fe845", "lat": 38.9122865, "fusion_lon": 0.0, "fusion_lat": 0.0, "type": "electric_scooter", "name": "ed585c8bc99ce56d8afe267cfa4fe845", "is_disabled": 0, "rental_uris": {"ios": "https://dc.lft.to/lastmile_qr_scan", "android": "https://dc.lft.to/lastmile_qr_scan"}, "is_reserved": 0}, {"lon": -77.01597983333333, "bike_id": "0233280b91275a0d3f59f0132864e51c", "lat": 38.8763075, "fusion_lon": 0.0, "fusion_lat": 0.0, "type": "electric_scooter", "name": "0233280b91275a0d3f59f0132864e51c", "is_disabled": 0, "rental_uris": {"ios": "https://dc.lft.to/lastmile_qr_scan", "android": "https://dc.lft.to/lastmile_qr_scan"}, "is_reserved": 0}, {"lon": -77.03839966666666, "bike_id": "02d3a7b632ba26de489a6e5d375b6a00", "lat": 38.908731333333336, "fusion_lon": 0.0, "fusion_lat": 0.0, "type": "electric_scooter", "name": "02d3a7b632ba26de489a6e5d375b6a00", "is_disabled": 0, "rental_uris": {"ios": "https://dc.lft.to/lastmile_qr_scan", "android": "https://dc.lft.to/lastmile_qr_scan"}, "is_reserved": 0}, {"lon": -77.03284716666667, "bike_id": "9314c41a31fd5a54bc7f3fe7e5b02d9d", "lat": 38.90151633333333, "fusion_lon": 0.0, "fusion_lat": 0.0, "type": "electric_scooter", "name": "9314c41a31fd5a54bc7f3fe7e5b02d9d", "is_disabled": 0, "rental_uris": {"ios": "https://dc.lft.to/lastmile_qr_scan", "android": "https://dc.lft.to/lastmile_qr_scan"}, "is_reserved": 0}, {"lon": -77.012059, "bike_id": "49e7c5ead008bdc5fb85222dcea0928e", "lat": 38.885508, "fusion_lon": 0.0, "fusion_lat": 0.0, "type": "electric_scooter", "name": "49e7c5ead008bdc5fb85222dcea0928e", "is_disabled": 0, "rental_uris": {"ios": "https://dc.lft.to/lastmile_qr_scan", "android": "https://dc.lft.to/lastmile_qr_scan"}, "is_reserved": 0}, {"lon": -77.03117766666666, "bike_id": "b6aa8bfbc3107115b5ea02f2b26c3ca1", "lat": 38.887599, "fusion_lon": 0.0, "fusion_lat": 0.0, "type": "electric_scooter", "name": "b6aa8bfbc3107115b5ea02f2b26c3ca1", "is_disabled": 0, "rental_uris": {"ios": "https://dc.lft.to/lastmile_qr_scan", "android": "https://dc.lft.to/lastmile_qr_scan"}, "is_reserved": 0}, {"lon": -77.01152066666667, "bike_id": "7e9f398751a9e32bbf5b9b8deaa8059f", "lat": 38.899891833333335, "fusion_lon": 0.0, "fusion_lat": 0.0, "type": "electric_scooter", "name": "7e9f398751a9e32bbf5b9b8deaa8059f", "is_disabled": 0, "rental_uris": {"ios": "https://dc.lft.to/lastmile_qr_scan", "android": "https://dc.lft.to/lastmile_qr_scan"}, "is_reserved": 0}, {"lon": -76.98944783333333, "bike_id": "843a985110b5b96d70128e26ec39f403", "lat": 38.865556, "fusion_lon": 0.0, "fusion_lat": 0.0, "type": "electric_scooter", "name": "843a985110b5b96d70128e26ec39f403", "is_disabled": 0, "rental_uris": {"ios": "https://dc.lft.to/lastmile_qr_scan", "android": "https://dc.lft.to/lastmile_qr_scan"}, "is_reserved": 0}, {"lon": -77.049751, "bike_id": "d63a28a613c40c067233eaf20111e7fb", "lat": 39.035523166666664, "fusion_lon": 0.0, "fusion_lat": 0.0, "type": "electric_bike", "name": "d63a28a613c40c067233eaf20111e7fb", "is_disabled": 0, "rental_uris": {"ios": "https://dc.lft.to/lastmile_qr_scan", "android": "https://dc.lft.to/lastmile_qr_scan"}, "is_reserved": 0}, {"lon": -77.03093283333334, "bike_id": "335eca1cb39df436af235309c4d87b1b", "lat": 38.919127833333334, "fusion_lon": 0.0, "fusion_lat": 0.0, "type": "electric_scooter", "name": "335eca1cb39df436af235309c4d87b1b", "is_disabled": 0, "rental_uris": {"ios": "https://dc.lft.to/lastmile_qr_scan", "android": "https://dc.lft.to/lastmile_qr_scan"}, "is_reserved": 0}, {"lon": -76.97529933333334, "bike_id": "39fbdc5be7818681d927e174fe050e28", "lat": 38.9222845, "fusion_lon": 0.0, "fusion_lat": 0.0, "type": "electric_scooter", "name": "39fbdc5be7818681d927e174fe050e28", "is_disabled": 0, "rental_uris": {"ios": "https://dc.lft.to/lastmile_qr_scan", "android": "https://dc.lft.to/lastmile_qr_scan"}, "is_reserved": 0}, {"lon": -77.0502245, "bike_id": "98a57cc6cb3097ca87555be68e0c16f0", "lat": 38.905169, "fusion_lon": 0.0, "fusion_lat": 0.0, "type": "electric_scooter", "name": "98a57cc6cb3097ca87555be68e0c16f0", "is_disabled": 0, "rental_uris": {"ios": "https://dc.lft.to/lastmile_qr_scan", "android": "https://dc.lft.to/lastmile_qr_scan"}, "is_reserved": 0}, {"lon": -77.04348133333333, "bike_id": "e25f34ec4c565a98fb5a04e9c4a1dde3", "lat": 38.93335483333333, "fusion_lon": 0.0, "fusion_lat": 0.0, "type": "electric_scooter", "name": "e25f34ec4c565a98fb5a04e9c4a1dde3", "is_disabled": 0, "rental_uris": {"ios": "https://dc.lft.to/lastmile_qr_scan", "android": "https://dc.lft.to/lastmile_qr_scan"}, "is_reserved": 0}, {"lon": -77.0313015, "bike_id": "e3fb2c0b0c4ae37c573ef4fd291b9c5d", "lat": 38.929564166666665, "fusion_lon": 0.0, "fusion_lat": 0.0, "type": "electric_scooter", "name": "e3fb2c0b0c4ae37c573ef4fd291b9c5d", "is_disabled": 0, "rental_uris": {"ios": "https://dc.lft.to/lastmile_qr_scan", "android": "https://dc.lft.to/lastmile_qr_scan"}, "is_reserved": 0}, {"lon": -77.03280033333333, "bike_id": "e2438cb32bf97ee9f19a4a551bd0a2b6", "lat": 38.91990633333333, "fusion_lon": 0.0, "fusion_lat": 0.0, "type": "electric_scooter", "name": "e2438cb32bf97ee9f19a4a551bd0a2b6", "is_disabled": 0, "rental_uris": {"ios": "https://dc.lft.to/lastmile_qr_scan", "android": "https://dc.lft.to/lastmile_qr_scan"}, "is_reserved": 0}, {"lon": -77.03078766666667, "bike_id": "4d5ef128175b8c4e79f606057b1e4421", "lat": 38.88035966666666, "fusion_lon": 0.0, "fusion_lat": 0.0, "type": "electric_scooter", "name": "4d5ef128175b8c4e79f606057b1e4421", "is_disabled": 0, "rental_uris": {"ios": "https://dc.lft.to/lastmile_qr_scan", "android": "https://dc.lft.to/lastmile_qr_scan"}, "is_reserved": 0}, {"lon": -77.04152266666667, "bike_id": "33e6673d99904c1b018bd48229bf92c2", "lat": 38.89943816666667, "fusion_lon": 0.0, "fusion_lat": 0.0, "type": "electric_scooter", "name": "33e6673d99904c1b018bd48229bf92c2", "is_disabled": 0, "rental_uris": {"ios": "https://dc.lft.to/lastmile_qr_scan", "android": "https://dc.lft.to/lastmile_qr_scan"}, "is_reserved": 0}, {"lon": -77.02729933333333, "bike_id": "c5c567e39ee8c00128330c26c9fae722", "lat": 38.94379983333333, "fusion_lon": 0.0, "fusion_lat": 0.0, "type": "electric_scooter", "name": "c5c567e39ee8c00128330c26c9fae722", "is_disabled": 0, "rental_uris": {"ios": "https://dc.lft.to/lastmile_qr_scan", "android": "https://dc.lft.to/lastmile_qr_scan"}, "is_reserved": 0}, {"lon": -77.00054033333333, "bike_id": "f7b4cbbc4397bd16e183e8257cb06683", "lat": 38.907995166666666, "fusion_lon": 0.0, "fusion_lat": 0.0, "type": "electric_scooter", "name": "f7b4cbbc4397bd16e183e8257cb06683", "is_disabled": 0, "rental_uris": {"ios": "https://dc.lft.to/lastmile_qr_scan", "android": "https://dc.lft.to/lastmile_qr_scan"}, "is_reserved": 0}, {"lon": -77.044638, "bike_id": "88970674f10bb2d8ea084370a3b618c1", "lat": 38.908461833333334, "fusion_lon": 0.0, "fusion_lat": 0.0, "type": "electric_scooter", "name": "88970674f10bb2d8ea084370a3b618c1", "is_disabled": 0, "rental_uris": {"ios": "https://dc.lft.to/lastmile_qr_scan", "android": "https://dc.lft.to/lastmile_qr_scan"}, "is_reserved": 0}, {"lon": -77.02159366666666, "bike_id": "2943d0e3fd74001bec2b60b960c00a50", "lat": 38.8874175, "fusion_lon": 0.0, "fusion_lat": 0.0, "type": "electric_scooter", "name": "2943d0e3fd74001bec2b60b960c00a50", "is_disabled": 0, "rental_uris": {"ios": "https://dc.lft.to/lastmile_qr_scan", "android": "https://dc.lft.to/lastmile_qr_scan"}, "is_reserved": 0}, {"lon": -77.038859, "bike_id": "94103b3904871fbdc5ebdbf75f5efefe", "lat": 38.911038166666664, "fusion_lon": 0.0, "fusion_lat": 0.0, "type": "electric_scooter", "name": "94103b3904871fbdc5ebdbf75f5efefe", "is_disabled": 0, "rental_uris": {"ios": "https://dc.lft.to/lastmile_qr_scan", "android": "https://dc.lft.to/lastmile_qr_scan"}, "is_reserved": 0}, {"lon": -77.02871183333333, "bike_id": "88666efa41f9d2a120e35c33f25b34ae", "lat": 38.93264683333334, "fusion_lon": 0.0, "fusion_lat": 0.0, "type": "electric_scooter", "name": "88666efa41f9d2a120e35c33f25b34ae", "is_disabled": 0, "rental_uris": {"ios": "https://dc.lft.to/lastmile_qr_scan", "android": "https://dc.lft.to/lastmile_qr_scan"}, "is_reserved": 0}, {"lon": -77.02623883333334, "bike_id": "bc419cf4bfb501804740abc5e7145f0c", "lat": 38.892187, "fusion_lon": 0.0, "fusion_lat": 0.0, "type": "electric_scooter", "name": "bc419cf4bfb501804740abc5e7145f0c", "is_disabled": 0, "rental_uris": {"ios": "https://dc.lft.to/lastmile_qr_scan", "android": "https://dc.lft.to/lastmile_qr_scan"}, "is_reserved": 0}, {"lon": -77.0296885, "bike_id": "5fd5a87219b463b6ed872dcf3cc16c08", "lat": 38.91179733333333, "fusion_lon": 0.0, "fusion_lat": 0.0, "type": "electric_scooter", "name": "5fd5a87219b463b6ed872dcf3cc16c08", "is_disabled": 0, "rental_uris": {"ios": "https://dc.lft.to/lastmile_qr_scan", "android": "https://dc.lft.to/lastmile_qr_scan"}, "is_reserved": 0}, {"lon": -76.93175233333334, "bike_id": "9ead1de5e9daf8284b079fd3e12cb593", "lat": 38.89882683333333, "fusion_lon": 0.0, "fusion_lat": 0.0, "type": "electric_scooter", "name": "9ead1de5e9daf8284b079fd3e12cb593", "is_disabled": 0, "rental_uris": {"ios": "https://dc.lft.to/lastmile_qr_scan", "android": "https://dc.lft.to/lastmile_qr_scan"}, "is_reserved": 0}, {"lon": -77.03762283333333, "bike_id": "be64324e845484899dcb1f87aed4e0c2", "lat": 38.90776483333333, "fusion_lon": 0.0, "fusion_lat": 0.0, "type": "electric_scooter", "name": "be64324e845484899dcb1f87aed4e0c2", "is_disabled": 0, "rental_uris": {"ios": "https://dc.lft.to/lastmile_qr_scan", "android": "https://dc.lft.to/lastmile_qr_scan"}, "is_reserved": 0}, {"lon": -77.0532655, "bike_id": "7d55f523eba0d265a4e089b5058262e2", "lat": 38.906523166666666, "fusion_lon": 0.0, "fusion_lat": 0.0, "type": "electric_scooter", "name": "7d55f523eba0d265a4e089b5058262e2", "is_disabled": 0, "rental_uris": {"ios": "https://dc.lft.to/lastmile_qr_scan", "android": "https://dc.lft.to/lastmile_qr_scan"}, "is_reserved": 0}, {"lon": -76.99567333333333, "bike_id": "d62853733e73ed4a2e0060131625824c", "lat": 38.85181466666667, "fusion_lon": 0.0, "fusion_lat": 0.0, "type": "electric_bike", "name": "d62853733e73ed4a2e0060131625824c", "is_disabled": 0, "rental_uris": {"ios": "https://dc.lft.to/lastmile_qr_scan", "android": "https://dc.lft.to/lastmile_qr_scan"}, "is_reserved": 0}, {"lon": -77.03180133333333, "bike_id": "13931b349b16aac7bece2cc3ad93d40d", "lat": 38.8873635, "fusion_lon": 0.0, "fusion_lat": 0.0, "type": "electric_scooter", "name": "13931b349b16aac7bece2cc3ad93d40d", "is_disabled": 0, "rental_uris": {"ios": "https://dc.lft.to/lastmile_qr_scan", "android": "https://dc.lft.to/lastmile_qr_scan"}, "is_reserved": 0}, {"lon": -76.93369483333333, "bike_id": "e112c82f1aad4f49e4106639fd643c36", "lat": 38.89911566666667, "fusion_lon": 0.0, "fusion_lat": 0.0, "type": "electric_scooter", "name": "e112c82f1aad4f49e4106639fd643c36", "is_disabled": 0, "rental_uris": {"ios": "https://dc.lft.to/lastmile_qr_scan", "android": "https://dc.lft.to/lastmile_qr_scan"}, "is_reserved": 0}, {"lon": -76.999342, "bike_id": "3d049711b46cd4e20d9266b6beb48f80", "lat": 38.9068935, "fusion_lon": 0.0, "fusion_lat": 0.0, "type": "electric_scooter", "name": "3d049711b46cd4e20d9266b6beb48f80", "is_disabled": 0, "rental_uris": {"ios": "https://dc.lft.to/lastmile_qr_scan", "android": "https://dc.lft.to/lastmile_qr_scan"}, "is_reserved": 0}, {"lon": -77.027101, "bike_id": "fff42dd9d8d02cf59ae5f15d830c2b74", "lat": 38.949865, "fusion_lon": 0.0, "fusion_lat": 0.0, "type": "electric_scooter", "name": "fff42dd9d8d02cf59ae5f15d830c2b74", "is_disabled": 0, "rental_uris": {"ios": "https://dc.lft.to/lastmile_qr_scan", "android": "https://dc.lft.to/lastmile_qr_scan"}, "is_reserved": 0}, {"lon": -76.99262616666667, "bike_id": "a642e23cddbeb8494e61f57583fe107d", "lat": 38.890699833333336, "fusion_lon": 0.0, "fusion_lat": 0.0, "type": "electric_bike", "name": "a642e23cddbeb8494e61f57583fe107d", "is_disabled": 0, "rental_uris": {"ios": "https://dc.lft.to/lastmile_qr_scan", "android": "https://dc.lft.to/lastmile_qr_scan"}, "is_reserved": 0}, {"lon": -77.04409483333333, "bike_id": "a98711856b74299636230b3e1d174e58", "lat": 38.92951683333333, "fusion_lon": 0.0, "fusion_lat": 0.0, "type": "electric_scooter", "name": "a98711856b74299636230b3e1d174e58", "is_disabled": 0, "rental_uris": {"ios": "https://dc.lft.to/lastmile_qr_scan", "android": "https://dc.lft.to/lastmile_qr_scan"}, "is_reserved": 0}, {"lon": -77.005959, "bike_id": "eabcfdc88a2faadaa90b70801a62d42d", "lat": 38.87185616666667, "fusion_lon": 0.0, "fusion_lat": 0.0, "type": "electric_scooter", "name": "eabcfdc88a2faadaa90b70801a62d42d", "is_disabled": 0, "rental_uris": {"ios": "https://dc.lft.to/lastmile_qr_scan", "android": "https://dc.lft.to/lastmile_qr_scan"}, "is_reserved": 0}, {"lon": -77.18561633333333, "bike_id": "91c4d78f8c9b725bfe0ea677c857ab1f", "lat": 39.0997485, "fusion_lon": 0.0, "fusion_lat": 0.0, "type": "electric_bike", "name": "91c4d78f8c9b725bfe0ea677c857ab1f", "is_disabled": 0, "rental_uris": {"ios": "https://dc.lft.to/lastmile_qr_scan", "android": "https://dc.lft.to/lastmile_qr_scan"}, "is_reserved": 0}, {"lon": -76.98355966666666, "bike_id": "a1f05413f4fc354c58c15c37b651e6df", "lat": 38.89203466666667, "fusion_lon": 0.0, "fusion_lat": 0.0, "type": "electric_bike", "name": "a1f05413f4fc354c58c15c37b651e6df", "is_disabled": 0, "rental_uris": {"ios": "https://dc.lft.to/lastmile_qr_scan", "android": "https://dc.lft.to/lastmile_qr_scan"}, "is_reserved": 0}, {"lon": -77.02196483333333, "bike_id": "1c9e2639d51c0976f902568d30aa6593", "lat": 38.911218166666664, "fusion_lon": 0.0, "fusion_lat": 0.0, "type": "electric_scooter", "name": "1c9e2639d51c0976f902568d30aa6593", "is_disabled": 0, "rental_uris": {"ios": "https://dc.lft.to/lastmile_qr_scan", "android": "https://dc.lft.to/lastmile_qr_scan"}, "is_reserved": 0}, {"lon": -77.00713983333333, "bike_id": "a6fb8a1f02e31463d782a64e166e15a1", "lat": 38.94597, "fusion_lon": 0.0, "fusion_lat": 0.0, "type": "electric_bike", "name": "a6fb8a1f02e31463d782a64e166e15a1", "is_disabled": 0, "rental_uris": {"ios": "https://dc.lft.to/lastmile_qr_scan", "android": "https://dc.lft.to/lastmile_qr_scan"}, "is_reserved": 0}, {"lon": -77.03398633333333, "bike_id": "26b495248804b12ad7ce8c2e82a74aad", "lat": 38.920526833333334, "fusion_lon": 0.0, "fusion_lat": 0.0, "type": "electric_scooter", "name": "26b495248804b12ad7ce8c2e82a74aad", "is_disabled": 0, "rental_uris": {"ios": "https://dc.lft.to/lastmile_qr_scan", "android": "https://dc.lft.to/lastmile_qr_scan"}, "is_reserved": 0}, {"lon": -77.03180383333333, "bike_id": "feae0f103c501fca48dd8c44c399d901", "lat": 38.935991, "fusion_lon": 0.0, "fusion_lat": 0.0, "type": "electric_scooter", "name": "feae0f103c501fca48dd8c44c399d901", "is_disabled": 0, "rental_uris": {"ios": "https://dc.lft.to/lastmile_qr_scan", "android": "https://dc.lft.to/lastmile_qr_scan"}, "is_reserved": 0}, {"lon": -77.04128333333334, "bike_id": "251c8152f561abfa2b940c91a527ba01", "lat": 38.9272375, "fusion_lon": 0.0, "fusion_lat": 0.0, "type": "electric_scooter", "name": "251c8152f561abfa2b940c91a527ba01", "is_disabled": 0, "rental_uris": {"ios": "https://dc.lft.to/lastmile_qr_scan", "android": "https://dc.lft.to/lastmile_qr_scan"}, "is_reserved": 0}, {"lon": -77.045649, "bike_id": "8304f69d53a6d42e8094b7f3068970e4", "lat": 38.915957, "fusion_lon": 0.0, "fusion_lat": 0.0, "type": "electric_scooter", "name": "8304f69d53a6d42e8094b7f3068970e4", "is_disabled": 0, "rental_uris": {"ios": "https://dc.lft.to/lastmile_qr_scan", "android": "https://dc.lft.to/lastmile_qr_scan"}, "is_reserved": 0}, {"lon": -77.00659216666666, "bike_id": "091eed714e3033314495f64a50c4a952", "lat": 38.944630333333336, "fusion_lon": 0.0, "fusion_lat": 0.0, "type": "electric_scooter", "name": "091eed714e3033314495f64a50c4a952", "is_disabled": 0, "rental_uris": {"ios": "https://dc.lft.to/lastmile_qr_scan", "android": "https://dc.lft.to/lastmile_qr_scan"}, "is_reserved": 0}, {"lon": -76.990053, "bike_id": "8c66f49416c443a5bb5a44b73e1bc2d2", "lat": 38.90386483333333, "fusion_lon": 0.0, "fusion_lat": 0.0, "type": "electric_scooter", "name": "8c66f49416c443a5bb5a44b73e1bc2d2", "is_disabled": 0, "rental_uris": {"ios": "https://dc.lft.to/lastmile_qr_scan", "android": "https://dc.lft.to/lastmile_qr_scan"}, "is_reserved": 0}, {"lon": -76.97728883333333, "bike_id": "5a0b7d4bebcfb44e00f8f47a4ff627b8", "lat": 38.86487833333333, "fusion_lon": 0.0, "fusion_lat": 0.0, "type": "electric_bike", "name": "5a0b7d4bebcfb44e00f8f47a4ff627b8", "is_disabled": 0, "rental_uris": {"ios": "https://dc.lft.to/lastmile_qr_scan", "android": "https://dc.lft.to/lastmile_qr_scan"}, "is_reserved": 0}, {"lon": -77.023408, "bike_id": "68725f00506a8e1869f8e9ba162f8bc4", "lat": 38.93531983333333, "fusion_lon": 0.0, "fusion_lat": 0.0, "type": "electric_scooter", "name": "68725f00506a8e1869f8e9ba162f8bc4", "is_disabled": 0, "rental_uris": {"ios": "https://dc.lft.to/lastmile_qr_scan", "android": "https://dc.lft.to/lastmile_qr_scan"}, "is_reserved": 0}, {"lon": -77.03261333333333, "bike_id": "368c2de6fbeb75289ab5d490934f5052", "lat": 38.93266533333333, "fusion_lon": 0.0, "fusion_lat": 0.0, "type": "electric_scooter", "name": "368c2de6fbeb75289ab5d490934f5052", "is_disabled": 0, "rental_uris": {"ios": "https://dc.lft.to/lastmile_qr_scan", "android": "https://dc.lft.to/lastmile_qr_scan"}, "is_reserved": 0}, {"lon": -77.02167883333334, "bike_id": "7482dd1f75f70d65c899ff503b63fb92", "lat": 38.894875, "fusion_lon": 0.0, "fusion_lat": 0.0, "type": "electric_scooter", "name": "7482dd1f75f70d65c899ff503b63fb92", "is_disabled": 0, "rental_uris": {"ios": "https://dc.lft.to/lastmile_qr_scan", "android": "https://dc.lft.to/lastmile_qr_scan"}, "is_reserved": 0}, {"lon": -77.02584883333333, "bike_id": "8496c958808d9d9b77f97af7c26bbd3f", "lat": 38.91407366666667, "fusion_lon": 0.0, "fusion_lat": 0.0, "type": "electric_scooter", "name": "8496c958808d9d9b77f97af7c26bbd3f", "is_disabled": 0, "rental_uris": {"ios": "https://dc.lft.to/lastmile_qr_scan", "android": "https://dc.lft.to/lastmile_qr_scan"}, "is_reserved": 0}, {"lon": -76.991524, "bike_id": "d8b013e3bcaaa0139e6e86b86d837233", "lat": 38.900365666666666, "fusion_lon": 0.0, "fusion_lat": 0.0, "type": "electric_scooter", "name": "d8b013e3bcaaa0139e6e86b86d837233", "is_disabled": 0, "rental_uris": {"ios": "https://dc.lft.to/lastmile_qr_scan", "android": "https://dc.lft.to/lastmile_qr_scan"}, "is_reserved": 0}, {"lon": -77.04673483333333, "bike_id": "a2edd464687a0b5a8211d6e3b7a1c469", "lat": 38.900276, "fusion_lon": 0.0, "fusion_lat": 0.0, "type": "electric_scooter", "name": "a2edd464687a0b5a8211d6e3b7a1c469", "is_disabled": 0, "rental_uris": {"ios": "https://dc.lft.to/lastmile_qr_scan", "android": "https://dc.lft.to/lastmile_qr_scan"}, "is_reserved": 0}, {"lon": -77.02510033333333, "bike_id": "f9effe3e40786940349b07303585e9f4", "lat": 38.92050283333333, "fusion_lon": 0.0, "fusion_lat": 0.0, "type": "electric_scooter", "name": "f9effe3e40786940349b07303585e9f4", "is_disabled": 0, "rental_uris": {"ios": "https://dc.lft.to/lastmile_qr_scan", "android": "https://dc.lft.to/lastmile_qr_scan"}, "is_reserved": 0}, {"lon": -77.020008, "bike_id": "14ff4ca0a4e491597ecfdd01f50362b8", "lat": 38.87666766666667, "fusion_lon": 0.0, "fusion_lat": 0.0, "type": "electric_scooter", "name": "14ff4ca0a4e491597ecfdd01f50362b8", "is_disabled": 0, "rental_uris": {"ios": "https://dc.lft.to/lastmile_qr_scan", "android": "https://dc.lft.to/lastmile_qr_scan"}, "is_reserved": 0}, {"lon": -77.03716233333333, "bike_id": "9a9667941af21b95589f0393f8a4d84c", "lat": 38.914775166666665, "fusion_lon": 0.0, "fusion_lat": 0.0, "type": "electric_scooter", "name": "9a9667941af21b95589f0393f8a4d84c", "is_disabled": 0, "rental_uris": {"ios": "https://dc.lft.to/lastmile_qr_scan", "android": "https://dc.lft.to/lastmile_qr_scan"}, "is_reserved": 0}, {"lon": -77.02702766666667, "bike_id": "c365e4b7c1d5f67b4cd2aced2fbcfea6", "lat": 38.9066965, "fusion_lon": 0.0, "fusion_lat": 0.0, "type": "electric_scooter", "name": "c365e4b7c1d5f67b4cd2aced2fbcfea6", "is_disabled": 0, "rental_uris": {"ios": "https://dc.lft.to/lastmile_qr_scan", "android": "https://dc.lft.to/lastmile_qr_scan"}, "is_reserved": 0}, {"lon": -76.9993305, "bike_id": "3b81287362fc16b063b17d6d77cd175f", "lat": 38.843151, "fusion_lon": 0.0, "fusion_lat": 0.0, "type": "electric_scooter", "name": "3b81287362fc16b063b17d6d77cd175f", "is_disabled": 0, "rental_uris": {"ios": "https://dc.lft.to/lastmile_qr_scan", "android": "https://dc.lft.to/lastmile_qr_scan"}, "is_reserved": 0}, {"lon": -77.03455866666667, "bike_id": "31211224401cfd3f75cbc9c15e5a9e7b", "lat": 38.905716, "fusion_lon": 0.0, "fusion_lat": 0.0, "type": "electric_scooter", "name": "31211224401cfd3f75cbc9c15e5a9e7b", "is_disabled": 0, "rental_uris": {"ios": "https://dc.lft.to/lastmile_qr_scan", "android": "https://dc.lft.to/lastmile_qr_scan"}, "is_reserved": 0}, {"lon": -77.12531183333333, "bike_id": "9a0b940292cc8b850f966cb0bf3b21e1", "lat": 39.056374166666664, "fusion_lon": 0.0, "fusion_lat": 0.0, "type": "electric_bike", "name": "9a0b940292cc8b850f966cb0bf3b21e1", "is_disabled": 0, "rental_uris": {"ios": "https://dc.lft.to/lastmile_qr_scan", "android": "https://dc.lft.to/lastmile_qr_scan"}, "is_reserved": 0}, {"lon": -77.0433785, "bike_id": "2b297354fe2b7d8c36ccdd39ce017976", "lat": 38.892190666666664, "fusion_lon": 0.0, "fusion_lat": 0.0, "type": "electric_scooter", "name": "2b297354fe2b7d8c36ccdd39ce017976", "is_disabled": 0, "rental_uris": {"ios": "https://dc.lft.to/lastmile_qr_scan", "android": "https://dc.lft.to/lastmile_qr_scan"}, "is_reserved": 0}, {"lon": -77.07451766666667, "bike_id": "1e76d4b1b1d932c057f2aaf59acb3950", "lat": 38.94509716666666, "fusion_lon": 0.0, "fusion_lat": 0.0, "type": "electric_scooter", "name": "1e76d4b1b1d932c057f2aaf59acb3950", "is_disabled": 0, "rental_uris": {"ios": "https://dc.lft.to/lastmile_qr_scan", "android": "https://dc.lft.to/lastmile_qr_scan"}, "is_reserved": 0}, {"lon": -76.93733233333333, "bike_id": "d65668ceeeb062716378ced726643dc3", "lat": 38.89016633333333, "fusion_lon": 0.0, "fusion_lat": 0.0, "type": "electric_scooter", "name": "d65668ceeeb062716378ced726643dc3", "is_disabled": 0, "rental_uris": {"ios": "https://dc.lft.to/lastmile_qr_scan", "android": "https://dc.lft.to/lastmile_qr_scan"}, "is_reserved": 0}, {"lon": -77.03464966666667, "bike_id": "328cbdc7f015740d9ec6985a8471e771", "lat": 38.902743666666666, "fusion_lon": 0.0, "fusion_lat": 0.0, "type": "electric_scooter", "name": "328cbdc7f015740d9ec6985a8471e771", "is_disabled": 0, "rental_uris": {"ios": "https://dc.lft.to/lastmile_qr_scan", "android": "https://dc.lft.to/lastmile_qr_scan"}, "is_reserved": 0}, {"lon": -77.03202383333333, "bike_id": "61bcf62da6195aa1a0fb89ccf14b3e00", "lat": 38.9037935, "fusion_lon": 0.0, "fusion_lat": 0.0, "type": "electric_scooter", "name": "61bcf62da6195aa1a0fb89ccf14b3e00", "is_disabled": 0, "rental_uris": {"ios": "https://dc.lft.to/lastmile_qr_scan", "android": "https://dc.lft.to/lastmile_qr_scan"}, "is_reserved": 0}, {"lon": -77.04677, "bike_id": "2a5f615dff7760348c9f871b8d14c1f6", "lat": 38.8922825, "fusion_lon": 0.0, "fusion_lat": 0.0, "type": "electric_scooter", "name": "2a5f615dff7760348c9f871b8d14c1f6", "is_disabled": 0, "rental_uris": {"ios": "https://dc.lft.to/lastmile_qr_scan", "android": "https://dc.lft.to/lastmile_qr_scan"}, "is_reserved": 0}, {"lon": -77.024898, "bike_id": "48ccc9928c7d21994893c0e5f9487d30", "lat": 38.91685233333333, "fusion_lon": 0.0, "fusion_lat": 0.0, "type": "electric_scooter", "name": "48ccc9928c7d21994893c0e5f9487d30", "is_disabled": 0, "rental_uris": {"ios": "https://dc.lft.to/lastmile_qr_scan", "android": "https://dc.lft.to/lastmile_qr_scan"}, "is_reserved": 0}, {"lon": -77.012242, "bike_id": "e653d0d07543f10ddccb0490cf3636c9", "lat": 38.9154095, "fusion_lon": 0.0, "fusion_lat": 0.0, "type": "electric_scooter", "name": "e653d0d07543f10ddccb0490cf3636c9", "is_disabled": 0, "rental_uris": {"ios": "https://dc.lft.to/lastmile_qr_scan", "android": "https://dc.lft.to/lastmile_qr_scan"}, "is_reserved": 0}, {"lon": -77.03434716666666, "bike_id": "06ae8cae238791cf7a5d9dcf8bc0ce38", "lat": 38.9097365, "fusion_lon": 0.0, "fusion_lat": 0.0, "type": "electric_scooter", "name": "06ae8cae238791cf7a5d9dcf8bc0ce38", "is_disabled": 0, "rental_uris": {"ios": "https://dc.lft.to/lastmile_qr_scan", "android": "https://dc.lft.to/lastmile_qr_scan"}, "is_reserved": 0},