{"data": {"bikes": [{"lon": -77.028705, "bike_id": "0b55645ea55bcc887ea0fd757b04af66", "lat": 38.93264933333333, "fusion_lon": 0.0, "fusion_lat": 0.0, "type": "electric_scooter", "name": "0b55645ea55bcc887ea0fd757b04af66", "is_disabled": 0, "rental_uris": {"ios": "https://dc.lft.to/lastmile_qr_scan", "android": "https://dc.lft.to/lastmile_qr_scan"}, "is_reserved": 0}, {"lon": -76.98362833333333, "bike_id": "493c7e38e0f698f13fbc68ec70e65bef", "lat": 38.86110566666667, "fusion_lon": 0.0, "fusion_lat": 0.0, "type": "electric_scooter", "name": "493c7e38e0f698f13fbc68ec70e65bef", "is_disabled": 0, "rental_uris": {"ios": "https://dc.lft.to/lastmile_qr_scan", "android": "https://dc.lft.to/lastmile_qr_scan"}, "is_reserved": 0}, {"lon": -77.029587, "bike_id": "1895a68bc8206bd6601d7eaefd048b87", "lat": 38.911731333333336, "fusion_lon": 0.0, "fusion_lat": 0.0, "type": "electric_scooter", "name": "1895a68bc8206bd6601d7eaefd048b87", "is_disabled": 0, "rental_uris": {"ios": "https://dc.lft.to/lastmile_qr_scan", "android": "https://dc.lft.to/lastmile_qr_scan"}, "is_reserved": 0}, {"lon": -77.03763166666667, "bike_id": "19564942b92f0ea6394c3d7f098933b6", "lat": 38.907755, "fusion_lon": 0.0, "fusion_lat": 0.0, "type": "electric_scooter", "name": "19564942b92f0ea6394c3d7f098933b6", "is_disabled": 0, "rental_uris": {"ios": "https://dc.lft.to/lastmile_qr_scan", "android": "https://dc.lft.to/lastmile_qr_scan"}, "is_reserved": 0}, {"lon": -76.931733, "bike_id": "066cd9cc0962724e093f65b725953d27", "lat": 38.89880983333333, "fusion_lon": 0.0, "fusion_lat": 0.0, "type": "electric_scooter", "name": "066cd9cc0962724e093f65b725953d27", "is_disabled": 0, "rental_uris": {"ios": "https://dc.lft.to/lastmile_qr_scan", "android": "https://dc.lft.to/lastmile_qr_scan"}, "is_reserved": 0}, {"lon": -77.04405016666666, "bike_id": "943fb48e14a3f0765c9ecf277368687d", "lat": 38.92951933333333, "fusion_lon": 0.0, "fusion_lat": 0.0, "type": "electric_scooter", "name": "943fb48e14a3f0765c9ecf277368687d", "is_disabled": 0, "rental_uris": {"ios": "https://dc.lft.to/lastmile_qr_scan", "android": "https://dc.lft.to/lastmile_qr_scan"}, "is_reserved": 0}, {"lon": -76.99610516666667, "bike_id": "c88acdf24f2ee2e523d9de1024d9f7d0", "lat": 38.88316983333333, "fusion_lon": 0.0, "fusion_lat": 0.0, "type": "electric_scooter", "name": "c88acdf24f2ee2e523d9de1024d9f7d0", "is_disabled": 0, "rental_uris": {"ios": "https://dc.lft.to/lastmile_qr_scan", "android": "https://dc.lft.to/lastmile_qr_scan"}, "is_reserved": 0}, {"lon": -77.0445015, "bike_id": "3608da3b7ac4b824940c9b7a8fdf9178", "lat": 38.9193695, "fusion_lon": 0.0, "fusion_lat": 0.0, "type": "electric_scooter", "name": "3608da3b7ac4b824940c9b7a8fdf9178", "is_disabled": 0, "rental_uris": {"ios": "https://dc.lft.to/lastmile_qr_scan", "android": "https://dc.lft.to/lastmile_qr_scan"}, "is_reserved": 0}, {"lon": -76.9956795, "bike_id": "9e564ecc6bcc03bbe6ba751040246ad1", "lat": 38.85181733333334, "fusion_lon": 0.0, "fusion_lat": 0.0, "type": "electric_bike", "name": "9e564ecc6bcc03bbe6ba751040246ad1", "is_disabled": 0, "rental_uris": {"ios": "https://dc.lft.to/lastmile_qr_scan", "android": "https://dc.lft.to/lastmile_qr_scan"}, "is_reserved": 0}, {"lon": -77.044826, "bike_id": "f4dea6655241a0abd723d29e73b20559", "lat": 38.9123675, "fusion_lon": 0.0, "fusion_lat": 0.0, "type": "electric_scooter", "name": "f4dea6655241a0abd723d29e73b20559", "is_disabled": 0, "rental_uris": {"ios": "https://dc.lft.to/lastmile_qr_scan", "android": "https://dc.lft.to/lastmile_qr_scan"}, "is_reserved": 0}, {"lon": -76.98444566666667, "bike_id": "5d6693cc3369009c0734f4e231383f2e", "lat": 38.914223666666665, "fusion_lon": 0.0, "fusion_lat": 0.0, "type": "electric_scooter", "name": "5d6693cc3369009c0734f4e231383f2e", "is_disabled": 0, "rental_uris": {"ios": "https://dc.lft.to/lastmile_qr_scan", "android": "https://dc.lft.to/lastmile_qr_scan"}, "is_reserved": 0}, {"lon": -77.0072095, "bike_id": "aeef6a39d94cfdc87858cc78e2ccba5f", "lat": 38.90369333333334, "fusion_lon": 0.0, "fusion_lat": 0.0, "type": "electric_scooter", "name": "aeef6a39d94cfdc87858cc78e2ccba5f", "is_disabled": 0, "rental_uris": {"ios": "https://dc.lft.to/lastmile_qr_scan", "android": "https://dc.lft.to/lastmile_qr_scan"}, "is_reserved": 0}, {"lon": -76.93368166666667, "bike_id": "cde11e271ea978fa19dcdf05573af65e", "lat": 38.89917116666667, "fusion_lon": 0.0, "fusion_lat": 0.0, "type": "electric_scooter", "name": "cde11e271ea978fa19dcdf05573af65e", "is_disabled": 0, "rental_uris": {"ios": "https://dc.lft.to/lastmile_qr_scan", "android": "https://dc.lft.to/lastmile_qr_scan"}, "is_reserved": 0}, {"lon": -77.053001, "bike_id": "baf9c348094c7061ca91243e4b292d1e", "lat": 38.92549133333333, "fusion_lon": 0.0, "fusion_lat": 0.0, "type": "electric_scooter", "name": "baf9c348094c7061ca91243e4b292d1e", "is_disabled": 0, "rental_uris": {"ios": "https://dc.lft.to/lastmile_qr_scan", "android": "https://dc.lft.to/lastmile_qr_scan"}, "is_reserved": 0}, {"lon": -77.038763, "bike_id": "59ce0257f45b24267e9cc262007f55fb", "lat": 38.911112833333334, "fusion_lon": 0.0, "fusion_lat": 0.0, "type": "electric_scooter", "name": "59ce0257f45b24267e9cc262007f55fb", "is_disabled": 0, "rental_uris": {"ios": "https://dc.lft.to/lastmile_qr_scan", "android": "https://dc.lft.to/lastmile_qr_scan"}, "is_reserved": 0}, {"lon": -77.03860366666666, "bike_id": "079493bbd243d7c42fca6c436365d4ec", "lat": 38.9066435, "fusion_lon": 0.0, "fusion_lat": 0.0, "type": "electric_scooter", "name": "079493bbd243d7c42fca6c436365d4ec", "is_disabled": 0, "rental_uris": {"ios": "https://dc.lft.to/lastmile_qr_scan", "android": "https://dc.lft.to/lastmile_qr_scan"}, "is_reserved": 0}, {"lon": -77.0311545, "bike_id": "523e424ef80feb5d7e03ecd9c0a03920", "lat": 38.907339666666665, "fusion_lon": 0.0, "fusion_lat": 0.0, "type": "electric_bike", "name": "523e424ef80feb5d7e03ecd9c0a03920", "is_disabled": 0, "rental_uris": {"ios": "https://dc.lft.to/lastmile_qr_scan", "android": "https://dc.lft.to/lastmile_qr_scan"}, "is_reserved": 0}, {"lon": -77.0433715, "bike_id": "f8350c29888fcd27934fc861db8a00a0", "lat": 38.907670833333334, "fusion_lon": 0.0, "fusion_lat": 0.0, "type": "electric_scooter", "name": "f8350c29888fcd27934fc861db8a00a0", "is_disabled": 0, "rental_uris": {"ios": "https://dc.lft.to/lastmile_qr_scan", "android": "https://dc.lft.to/lastmile_qr_scan"}, "is_reserved": 0}, {"lon": -77.01418466666667, "bike_id": "d1c2a3f866267c2ec176f059d60be99f", "lat": 38.92828083333333, "fusion_lon": 0.0, "fusion_lat": 0.0, "type": "electric_scooter", "name": "d1c2a3f866267c2ec176f059d60be99f", "is_disabled": 0, "rental_uris": {"ios": "https://dc.lft.to/lastmile_qr_scan", "android": "https://dc.lft.to/lastmile_qr_scan"}, "is_reserved": 0}, {"lon": -77.02714016666667, "bike_id": "94d3384581a6a9be0dda902049eb8b35", "lat": 38.925894, "fusion_lon": 0.0, "fusion_lat": 0.0, "type": "electric_scooter", "name": "94d3384581a6a9be0dda902049eb8b35", "is_disabled": 0, "rental_uris": {"ios": "https://dc.lft.to/lastmile_qr_scan", "android": "https://dc.lft.to/lastmile_qr_scan"}, "is_reserved": 0}, {"lon": -77.0402125, "bike_id": "5bdfc2182cc7f187809217ba008f11da", "lat": 38.91119333333333, "fusion_lon": 0.0, "fusion_lat": 0.0, "type": "electric_scooter", "name": "5bdfc2182cc7f187809217ba008f11da", "is_disabled": 0, "rental_uris": {"ios": "https://dc.lft.to/lastmile_qr_scan", "android": "https://dc.lft.to/lastmile_qr_scan"}, "is_reserved": 0}, {"lon": -77.0736785, "bike_id": "14effc9ba2c04722ed247d9b86719d98", "lat": 38.9618515, "fusion_lon": 0.0, "fusion_lat": 0.0, "type": "electric_bike", "name": "14effc9ba2c04722ed247d9b86719d98", "is_disabled": 0, "rental_uris": {"ios": "https://dc.lft.to/lastmile_qr_scan", "android": "https://dc.lft.to/lastmile_qr_scan"}, "is_reserved": 0}, {"lon": -77.03578666666667, "bike_id": "47860aa501bbd36f51bf7c80a978138f", "lat": 38.91776516666667, "fusion_lon": 0.0, "fusion_lat": 0.0, "type": "electric_scooter", "name": "47860aa501bbd36f51bf7c80a978138f", "is_disabled": 0, "rental_uris": {"ios": "https://dc.lft.to/lastmile_qr_scan", "android": "https://dc.lft.to/lastmile_qr_scan"}, "is_reserved": 0}, {"lon": -76.92997416666667, "bike_id": "fb6473e99f3f4ea542e442cb23609dc7", "lat": 38.90186716666667, "fusion_lon": 0.0, "fusion_lat": 0.0, "type": "electric_scooter", "name": "fb6473e99f3f4ea542e442cb23609dc7", "is_disabled": 0, "rental_uris": {"ios": "https://dc.lft.to/lastmile_qr_scan", "android": "https://dc.lft.to/lastmile_qr_scan"}, "is_reserved": 0}, {"lon": -77.03222016666666, "bike_id": "fddbacd9a1284a1b8e02b1fb3f3323b0", "lat": 38.89649133333333, "fusion_lon": 0.0, "fusion_lat": 0.0, "type": "electric_scooter", "name": "fddbacd9a1284a1b8e02b1fb3f3323b0", "is_disabled": 0, "rental_uris": {"ios": "https://dc.lft.to/lastmile_qr_scan", "android": "https://dc.lft.to/lastmile_qr_scan"}, "is_reserved": 0}, {"lon": -77.019704, "bike_id": "3f9ded63350c1bd90ecc2a42351a3cbc", "lat": 38.902430833333334, "fusion_lon": 0.0, "fusion_lat": 0.0, "type": "electric_scooter", "name": "3f9ded63350c1bd90ecc2a42351a3cbc", "is_disabled": 0, "rental_uris": {"ios": "https://dc.lft.to/lastmile_qr_scan", "android": "https://dc.lft.to/lastmile_qr_scan"}, "is_reserved": 0}, {"lon": -77.02658616666666, "bike_id": "d5bb4cba821dca381ab1012a88db23c1", "lat": 38.902335666666666, "fusion_lon": 0.0, "fusion_lat": 0.0, "type": "electric_scooter", "name": "d5bb4cba821dca381ab1012a88db23c1", "is_disabled": 0, "rental_uris": {"ios": "https://dc.lft.to/lastmile_qr_scan", "android": "https://dc.lft.to/lastmile_qr_scan"}, "is_reserved": 0}, {"lon": -77.038433, "bike_id": "4d7de8a82bdb34d63f3cd9162ebbe474", "lat": 38.910025833333336, "fusion_lon": 0.0, "fusion_lat": 0.0, "type": "electric_scooter", "name": "4d7de8a82bdb34d63f3cd9162ebbe474", "is_disabled": 0, "rental_uris": {"ios": "https://dc.lft.to/lastmile_qr_scan", "android": "https://dc.lft.to/lastmile_qr_scan"}, "is_reserved": 0}, {"lon": -77.0427475, "bike_id": "543b0a5032628e881d9c4a22354b4b37", "lat": 38.900246, "fusion_lon": 0.0, "fusion_lat": 0.0, "type": "electric_scooter", "name": "543b0a5032628e881d9c4a22354b4b37", "is_disabled": 0, "rental_uris": {"ios": "https://dc.lft.to/lastmile_qr_scan", "android": "https://dc.lft.to/lastmile_qr_scan"}, "is_reserved": 0}, {"lon": -77.0338235, "bike_id": "c3e23ea80844bbde47e486f7a95a50c3", "lat": 38.9026565, "fusion_lon": 0.0, "fusion_lat": 0.0, "type": "electric_scooter", "name": "c3e23ea80844bbde47e486f7a95a50c3", "is_disabled": 0, "rental_uris": {"ios": "https://dc.lft.to/lastmile_qr_scan", "android": "https://dc.lft.to/lastmile_qr_scan"}, "is_reserved": 0}, {"lon": -77.04480733333334, "bike_id": "17165480404a836060308e1a7d508b58", "lat": 38.92425333333333, "fusion_lon": 0.0, "fusion_lat": 0.0, "type": "electric_scooter", "name": "17165480404a836060308e1a7d508b58", "is_disabled": 0, "rental_uris": {"ios": "https://dc.lft.to/lastmile_qr_scan", "android": "https://dc.lft.to/lastmile_qr_scan"}, "is_reserved": 0}, {"lon": -77.00201816666667, "bike_id": "536cb32d5abedacc63f6c319b1636642", "lat": 38.90236633333333, "fusion_lon": 0.0, "fusion_lat": 0.0, "type": "electric_scooter", "name": "536cb32d5abedacc63f6c319b1636642", "is_disabled": 0, "rental_uris": {"ios": "https://dc.lft.to/lastmile_qr_scan", "android": "https://dc.lft.to/lastmile_qr_scan"}, "is_reserved": 0}, {"lon": -76.9567005, "bike_id": "eee5430a7256e04809a47c12cae34e7a", "lat": 38.851099, "fusion_lon": 0.0, "fusion_lat": 0.0, "type": "electric_bike", "name": "eee5430a7256e04809a47c12cae34e7a", "is_disabled": 0, "rental_uris": {"ios": "https://dc.lft.to/lastmile_qr_scan", "android": "https://dc.lft.to/lastmile_qr_scan"}, "is_reserved": 0}, {"lon": -77.05210316666667, "bike_id": "14362ca9efca5be532205ef347c8b091", "lat": 38.8995235, "fusion_lon": 0.0, "fusion_lat": 0.0, "type": "electric_scooter", "name": "14362ca9efca5be532205ef347c8b091", "is_disabled": 0, "rental_uris": {"ios": "https://dc.lft.to/lastmile_qr_scan", "android": "https://dc.lft.to/lastmile_qr_scan"}, "is_reserved": 0}, {"lon": -77.0336575, "bike_id": "0fdecd3edceb93fc630e46113aa506b6", "lat": 38.899732, "fusion_lon": 0.0, "fusion_lat": 0.0, "type": "electric_scooter", "name": "0fdecd3edceb93fc630e46113aa506b6", "is_disabled": 0, "rental_uris": {"ios": "https://dc.lft.to/lastmile_qr_scan", "android": "https://dc.lft.to/lastmile_qr_scan"}, "is_reserved": 0}, {"lon": -77.02356766666666, "bike_id": "7f2c73a4fc158cfbacd085dcbe69c220", "lat": 38.92226266666667, "fusion_lon": 0.0, "fusion_lat": 0.0, "type": "electric_scooter", "name": "7f2c73a4fc158cfbacd085dcbe69c220", "is_disabled": 0, "rental_uris": {"ios": "https://dc.lft.to/lastmile_qr_scan", "android": "https://dc.lft.to/lastmile_qr_scan"}, "is_reserved": 0}, {"lon": -77.036053, "bike_id": "2a3ad0f6284e25ae58a42d7df58c8b3d", "lat": 38.93681383333333, "fusion_lon": 0.0, "fusion_lat": 0.0, "type": "electric_scooter", "name": "2a3ad0f6284e25ae58a42d7df58c8b3d", "is_disabled": 0, "rental_uris": {"ios": "https://dc.lft.to/lastmile_qr_scan", "android": "https://dc.lft.to/lastmile_qr_scan"}, "is_reserved": 0}, {"lon": -77.01756266666666, "bike_id": "81c661bf6fd714e444807206e8256b27", "lat": 38.9038845, "fusion_lon": 0.0, "fusion_lat": 0.0, "type": "electric_scooter", "name": "81c661bf6fd714e444807206e8256b27", "is_disabled": 0, "rental_uris": {"ios": "https://dc.lft.to/lastmile_qr_scan", "android": "https://dc.lft.to/lastmile_qr_scan"}, "is_reserved": 0}, {"lon": -77.02711033333334, "bike_id": "21f85ad83bb775973babc41374854757", "lat": 38.926624, "fusion_lon": 0.0, "fusion_lat": 0.0, "type": "electric_scooter", "name": "21f85ad83bb775973babc41374854757", "is_disabled": 0, "rental_uris": {"ios": "https://dc.lft.to/lastmile_qr_scan", "android": "https://dc.lft.to/lastmile_qr_scan"}, "is_reserved": 0}, {"lon": -76.95745533333333, "bike_id": "e8bf8115682ef24f89d38fd9e96b5c0a", "lat": 38.8842745, "fusion_lon": 0.0, "fusion_lat": 0.0, "type": "electric_scooter", "name": "e8bf8115682ef24f89d38fd9e96b5c0a", "is_disabled": 0, "rental_uris": {"ios": "https://dc.lft.to/lastmile_qr_scan", "android": "https://dc.lft.to/lastmile_qr_scan"}, "is_reserved": 0}, {"lon": -77.04188733333334, "bike_id": "48c6aa3a6b23a90f8dcafe9e36f3ab4c", "lat": 38.89977716666667, "fusion_lon": 0.0, "fusion_lat": 0.0, "type": "electric_scooter", "name": "48c6aa3a6b23a90f8dcafe9e36f3ab4c", "is_disabled": 0, "rental_uris": {"ios": "https://dc.lft.to/lastmile_qr_scan", "android": "https://dc.lft.to/lastmile_qr_scan"}, "is_reserved": 0}, {"lon": -77.02286966666667, "bike_id": "828f1ea099398bdfea22df53812b7885", "lat": 38.909694, "fusion_lon": 0.0, "fusion_lat": 0.0, "type": "electric_scooter", "name": "828f1ea099398bdfea22df53812b7885", "is_disabled": 0, "rental_uris": {"ios": "https://dc.lft.to/lastmile_qr_scan", "android": "https://dc.lft.to/lastmile_qr_scan"}, "is_reserved": 0}, {"lon": -77.11709066666667, "bike_id": "3013d606924387e44c1969ebc46e5adb", "lat": 38.867451, "fusion_lon": 0.0, "fusion_lat": 0.0, "type": "electric_bike", "name": "3013d606924387e44c1969ebc46e5adb", "is_disabled": 0, "rental_uris": {"ios": "https://dc.lft.to/lastmile_qr_scan", "android": "https://dc.lft.to/lastmile_qr_scan"}, "is_reserved": 0}, {"lon": -77.00049266666667, "bike_id": "dfedd619c0236076ececaaf1370fa60c", "lat": 38.9239835, "fusion_lon": 0.0, "fusion_lat": 0.0, "type": "electric_scooter", "name": "dfedd619c0236076ececaaf1370fa60c", "is_disabled": 0, "rental_uris": {"ios": "https://dc.lft.to/lastmile_qr_scan", "android": "https://dc.lft.to/lastmile_qr_scan"}, "is_reserved": 0}, {"lon": -76.983861, "bike_id": "b912cae276d69a27875a47ebfecc7d44", "lat": 38.898881833333334, "fusion_lon": 0.0, "fusion_lat": 0.0, "type": "electric_bike", "name": "b912cae276d69a27875a47ebfecc7d44", "is_disabled": 0, "rental_uris": {"ios": "https://dc.lft.to/lastmile_qr_scan", "android": "https://dc.lft.to/lastmile_qr_scan"}, "is_reserved": 0}, {"lon": -77.02249133333333, "bike_id": "e4cc317be7a600180c9cb829bfffaaae", "lat": 38.927376833333334, "fusion_lon": 0.0, "fusion_lat": 0.0, "type": "electric_scooter", "name": "e4cc317be7a600180c9cb829bfffaaae", "is_disabled": 0, "rental_uris": {"ios": "https://dc.lft.to/lastmile_qr_scan", "android": "https://dc.lft.to/lastmile_qr_scan"}, "is_reserved": 0}, {"lon": -76.94067683333333, "bike_id": "acb87c7db7f2cd9d5818532f71aab504", "lat": 38.893208, "fusion_lon": 0.0, "fusion_lat": 0.0, "type": "electric_scooter", "name": "acb87c7db7f2cd9d5818532f71aab504", "is_disabled": 0, "rental_uris": {"ios": "https://dc.lft.to/lastmile_qr_scan", "android": "https://dc.lft.to/lastmile_qr_scan"}, "is_reserved": 0}, {"lon": -77.0302185, "bike_id": "77e12f0eb36cecb0b8715de563975e56", "lat": 38.884448166666665, "fusion_lon": 0.0, "fusion_lat": 0.0, "type": "electric_scooter", "name": "77e12f0eb36cecb0b8715de563975e56", "is_disabled": 0, "rental_uris": {"ios": "https://dc.lft.to/lastmile_qr_scan", "android": "https://dc.lft.to/lastmile_qr_scan"}, "is_reserved": 0}, {"lon": -77.03189233333333, "bike_id": "80f241bcf24ca8e0a50fc0f6ec25fce7", "lat": 38.906839833333336, "fusion_lon": 0.0, "fusion_lat": 0.0, "type": "electric_scooter", "name": "80f241bcf24ca8e0a50fc0f6ec25fce7", "is_disabled": 0, "rental_uris": {"ios": "https://dc.lft.to/lastmile_qr_scan", "android": "https://dc.lft.to/lastmile_qr_scan"}, "is_reserved": 0}, {"lon": -76.9980665, "bike_id": "309bcb9dd6a8a4acd2ccca8aaea8a737", "lat": 38.82909516666667, "fusion_lon": 0.0, "fusion_lat": 0.0, "type": "electric_bike", "name": "309bcb9dd6a8a4acd2ccca8aaea8a737", "is_disabled": 0, "rental_uris": {"ios": "https://dc.lft.to/lastmile_qr_scan", "android": "https://dc.lft.to/lastmile_qr_scan"}, "is_reserved": 0}, {"lon": -77.02312983333333, "bike_id": "29ad81c555e9ffa5796a5e78cfeca11f", "lat": 38.89469916666667, "fusion_lon": 0.0, "fusion_lat": 0.0, "type": "electric_scooter", "name": "29ad81c555e9ffa5796a5e78cfeca11f", "is_disabled": 0, "rental_uris": {"ios": "https://dc.lft.to/lastmile_qr_scan", "android": "https://dc.lft.to/lastmile_qr_scan"}, "is_reserved": 0}, {"lon": -77.0657625, "bike_id": "940292b062f71300566aaac6271eb664", "lat": 38.91126, "fusion_lon": 0.0, "fusion_lat": 0.0, "type": "electric_bike", "name": "940292b062f71300566aaac6271eb664", "is_disabled": 0, "rental_uris": {"ios": "https://dc.lft.to/lastmile_qr_scan", "android": "https://dc.lft.to/lastmile_qr_scan"}, "is_reserved": 0}, {"lon": -77.02949916666667, "bike_id": "c8e746631d60d791b615f2f2431c63c5", "lat": 38.9050445, "fusion_lon": 0.0, "fusion_lat": 0.0, "type": "electric_scooter", "name": "c8e746631d60d791b615f2f2431c63c5", "is_disabled": 0, "rental_uris": {"ios": "https://dc.lft.to/lastmile_qr_scan", "android": "https://dc.lft.to/lastmile_qr_scan"}, "is_reserved": 0}, {"lon": -77.03573766666666, "bike_id": "35aaf1ec4b66451bcdc0a62b175b6f98", "lat": 38.917731833333335, "fusion_lon": 0.0, "fusion_lat": 0.0, "type": "electric_scooter", "name": "35aaf1ec4b66451bcdc0a62b175b6f98", "is_disabled": 0, "rental_uris": {"ios": "https://dc.lft.to/lastmile_qr_scan", "android": "https://dc.lft.to/lastmile_qr_scan"}, "is_reserved": 0}, {"lon": -77.00193333333333, "bike_id": "701e69636bd81d440e301db8e198ac3a", "lat": 38.88854, "fusion_lon": 0.0, "fusion_lat": 0.0, "type": "electric_bike", "name": "701e69636bd81d440e301db8e198ac3a", "is_disabled": 0, "rental_uris": {"ios": "https://dc.lft.to/lastmile_qr_scan", "android": "https://dc.lft.to/lastmile_qr_scan"}, "is_reserved": 0}, {"lon": -77.04113416666667, "bike_id": "bb5b608f19d569f4217646a5a6f85a53", "lat": 38.90864933333334, "fusion_lon": 0.0, "fusion_lat": 0.0, "type": "electric_scooter", "name": "bb5b608f19d569f4217646a5a6f85a53", "is_disabled": 0, "rental_uris": {"ios": "https://dc.lft.to/lastmile_qr_scan", "android": "https://dc.lft.to/lastmile_qr_scan"}, "is_reserved": 0}, {"lon": -77.03846866666666, "bike_id": "c55d2c827b581625a7a3fd708bbfbe6d", "lat": 38.904009333333335, "fusion_lon": 0.0, "fusion_lat": 0.0, "type": "electric_scooter", "name": "c55d2c827b581625a7a3fd708bbfbe6d", "is_disabled": 0, "rental_uris": {"ios": "https://dc.lft.to/lastmile_qr_scan", "android": "https://dc.lft.to/lastmile_qr_scan"}, "is_reserved": 0}, {"lon": -77.03983783333334, "bike_id": "2eee07d9dadf14f5daf39dc67d5b7b68", "lat": 38.9162725, "fusion_lon": 0.0, "fusion_lat": 0.0, "type": "electric_scooter", "name": "2eee07d9dadf14f5daf39dc67d5b7b68", "is_disabled": 0, "rental_uris": {"ios": "https://dc.lft.to/lastmile_qr_scan", "android": "https://dc.lft.to/lastmile_qr_scan"}, "is_reserved": 0}, {"lon": -77.010444, "bike_id": "cd360e3deb55e55ecd1272f366f62bb4", "lat": 38.96355, "fusion_lon": 0.0, "fusion_lat": 0.0, "type": "electric_scooter", "name": "cd360e3deb55e55ecd1272f366f62bb4", "is_disabled": 0, "rental_uris": {"ios": "https://dc.lft.to/lastmile_qr_scan", "android": "https://dc.lft.to/lastmile_qr_scan"}, "is_reserved": 0}, {"lon": -77.00984233333334, "bike_id": "0facb0e38995d01c38a2da4ac53ff883", "lat": 38.903618333333334, "fusion_lon": 0.0, "fusion_lat": 0.0, "type": "electric_scooter", "name": "0facb0e38995d01c38a2da4ac53ff883", "is_disabled": 0, "rental_uris": {"ios": "https://dc.lft.to/lastmile_qr_scan", "android": "https://dc.lft.to/lastmile_qr_scan"}, "is_reserved": 0}, {"lon": -77.02834416666667, "bike_id": "56710c7a1d8849dc564e8b58db1df075", "lat": 38.929617, "fusion_lon": 0.0, "fusion_lat": 0.0, "type": "electric_scooter", "name": "56710c7a1d8849dc564e8b58db1df075", "is_disabled": 0, "rental_uris": {"ios": "https://dc.lft.to/lastmile_qr_scan", "android": "https://dc.lft.to/lastmile_qr_scan"}, "is_reserved": 0}, {"lon": -77.03177766666667, "bike_id": "c83eb3322dbc08b5295c60d4f2542aec", "lat": 38.90518733333333, "fusion_lon": 0.0, "fusion_lat": 0.0, "type": "electric_scooter", "name": "c83eb3322dbc08b5295c60d4f2542aec", "is_disabled": 0, "rental_uris": {"ios": "https://dc.lft.to/lastmile_qr_scan", "android": "https://dc.lft.to/lastmile_qr_scan"}, "is_reserved": 0}, {"lon": -77.00202133333333, "bike_id": "be0aa0e909bcdd6cf6de63cf40688b0c", "lat": 38.900451, "fusion_lon": 0.0, "fusion_lat": 0.0, "type": "electric_scooter", "name": "be0aa0e909bcdd6cf6de63cf40688b0c", "is_disabled": 0, "rental_uris": {"ios": "https://dc.lft.to/lastmile_qr_scan", "android": "https://dc.lft.to/lastmile_qr_scan"}, "is_reserved": 0}, {"lon": -77.10335983333333, "bike_id": "9454231df106564429d5303ecbcbe3f4", "lat": 38.88551833333333, "fusion_lon": 0.0, "fusion_lat": 0.0, "type": "electric_bike", "name": "9454231df106564429d5303ecbcbe3f4", "is_disabled": 0, "rental_uris": {"ios": "https://dc.lft.to/lastmile_qr_scan", "android": "https://dc.lft.to/lastmile_qr_scan"}, "is_reserved": 0}, {"lon": -76.9993265, "bike_id": "eaa6049a41786e0440b52ad2795ab1c1", "lat": 38.843159, "fusion_lon": 0.0, "fusion_lat": 0.0, "type": "electric_scooter", "name": "eaa6049a41786e0440b52ad2795ab1c1", "is_disabled": 0, "rental_uris": {"ios": "https://dc.lft.to/lastmile_qr_scan", "android": "https://dc.lft.to/lastmile_qr_scan"}, "is_reserved": 0}, {"lon": -77.0362735, "bike_id": "dbcfd7fb7922ec651f323fa10522d9c3", "lat": 38.930788666666665, "fusion_lon": 0.0, "fusion_lat": 0.0, "type": "electric_scooter", "name": "dbcfd7fb7922ec651f323fa10522d9c3", "is_disabled": 0, "rental_uris": {"ios": "https://dc.lft.to/lastmile_qr_scan", "android": "https://dc.lft.to/lastmile_qr_scan"}, "is_reserved": 0}, {"lon": -77.12529366666666, "bike_id": "f8de43ab4e7d0345679ec53d7bb8953b", "lat": 39.05636533333333, "fusion_lon": 0.0, "fusion_lat": 0.0, "type": "electric_bike", "name": "f8de43ab4e7d0345679ec53d7bb8953b", "is_disabled": 0, "rental_uris": {"ios": "https://dc.lft.to/lastmile_qr_scan", "android": "https://dc.lft.to/lastmile_qr_scan"}, "is_reserved": 0}, {"lon": -77.07453366666667, "bike_id": "cb44d6fdff3b53bf5397657e22496fbe", "lat": 38.9450745, "fusion_lon": 0.0, "fusion_lat": 0.0, "type": "electric_scooter", "name": "cb44d6fdff3b53bf5397657e22496fbe", "is_disabled": 0, "rental_uris": {"ios": "https://dc.lft.to/lastmile_qr_scan", "android": "https://dc.lft.to/lastmile_qr_scan"}, "is_reserved": 0}, {"lon": -77.0515655, "bike_id": "b0fa3045404bde59380efd9dca134eb0", "lat": 38.927366, "fusion_lon": 0.0, "fusion_lat": 0.0, "type": "electric_scooter", "name": "b0fa3045404bde59380efd9dca134eb0", "is_disabled": 0, "rental_uris": {"ios": "https://dc.lft.to/lastmile_qr_scan", "android": "https://dc.lft.to/lastmile_qr_scan"}, "is_reserved": 0}, {"lon": -77.02695066666666, "bike_id": "d96692e97c4c98ad444acc4a453f9910", "lat": 38.906732833333336, "fusion_lon": 0.0, "fusion_lat": 0.0, "type": "electric_scooter", "name": "d96692e97c4c98ad444acc4a453f9910", "is_disabled": 0, "rental_uris": {"ios": "https://dc.lft.to/lastmile_qr_scan", "android": "https://dc.lft.to/lastmile_qr_scan"}, "is_reserved": 0}, {"lon": -76.937313, "bike_id": "e69b0f5755e452b6b6c0810741ebceea", "lat": 38.890177666666666, "fusion_lon": 0.0, "fusion_lat": 0.0, "type": "electric_scooter", "name": "e69b0f5755e452b6b6c0810741ebceea", "is_disabled": 0, "rental_uris": {"ios": "https://dc.lft.to/lastmile_qr_scan", "android": "https://dc.lft.to/lastmile_qr_scan"}, "is_reserved": 0}, {"lon": -77.03432416666666, "bike_id": "633c38f507379e6015f9ac3e8db7fd51", "lat": 38.9097685, "fusion_lon": 0.0, "fusion_lat": 0.0, "type": "electric_scooter", "name": "633c38f507379e6015f9ac3e8db7fd51", "is_disabled": 0, "rental_uris": {"ios": "https://dc.lft.to/lastmile_qr_scan", "android": "https://dc.lft.to/lastmile_qr_scan"}, "is_reserved": 0}, {"lon": -77.0173245, "bike_id": "465af0d8dccaec1dee63c57c690bc9ea", "lat": 38.94202083333333, "fusion_lon": 0.0, "fusion_lat": 0.0, "type": "electric_scooter", "name": "465af0d8dccaec1dee63c57c690bc9ea", "is_disabled": 0, "rental_uris": {"ios": "https://dc.lft.to/lastmile_qr_scan", "android": "https://dc.lft.to/lastmile_qr_scan"}, "is_reserved": 0}, {"lon": -77.0218535, "bike_id": "1f92851f57a258e9b22e0b35d0a5689c", "lat": 38.9126895, "fusion_lon": 0.0, "fusion_lat": 0.0, "type": "electric_scooter", "name": "1f92851f57a258e9b22e0b35d0a5689c", "is_disabled": 0, "rental_uris": {"ios": "https://dc.lft.to/lastmile_qr_scan", "android": "https://dc.lft.to/lastmile_qr_scan"}, "is_reserved": 0}, {"lon": -77.03448183333333, "bike_id": "aa252e2a2fadcf4f4544febc9ea19a5c", "lat": 38.905812833333336, "fusion_lon": 0.0, "fusion_lat": 0.0, "type": "electric_scooter", "name": "aa252e2a2fadcf4f4544febc9ea19a5c", "is_disabled": 0, "rental_uris": {"ios": "https://dc.lft.to/lastmile_qr_scan", "android": "https://dc.lft.to/lastmile_qr_scan"}, "is_reserved": 0}, {"lon": -77.02326883333333, "bike_id": "e9448cbc027028fba1510812423b5118", "lat": 38.929837666666664, "fusion_lon": 0.0, "fusion_lat": 0.0, "type": "electric_scooter", "name": "e9448cbc027028fba1510812423b5118", "is_disabled": 0, "rental_uris": {"ios": "https://dc.lft.to/lastmile_qr_scan", "android": "https://dc.lft.to/lastmile_qr_scan"}, "is_reserved": 0}, {"lon": -76.98531783333334, "bike_id": "21d3d397152a045de24ef2a04ac59346", "lat": 38.896551333333335, "fusion_lon": 0.0, "fusion_lat": 0.0, "type": "electric_scooter", "name": "21d3d397152a045de24ef2a04ac59346", "is_disabled": 0, "rental_uris": {"ios": "https://dc.lft.to/lastmile_qr_scan", "android": "https://dc.lft.to/lastmile_qr_scan"}, "is_reserved": 0}, {"lon": -77.02634466666666, "bike_id": "f8b0256c22a914f3f9b0c53c24a2c704", "lat": 38.91710116666667, "fusion_lon": 0.0, "fusion_lat": 0.0, "type": "electric_scooter", "name": "f8b0256c22a914f3f9b0c53c24a2c704", "is_disabled": 0, "rental_uris": {"ios": "https://dc.lft.to/lastmile_qr_scan", "android": "https://dc.lft.to/lastmile_qr_scan"}, "is_reserved": 0}, {"lon": -77.03306566666667, "bike_id": "7b496380f295b76f477688313d215363", "lat": 38.925473333333336, "fusion_lon": 0.0, "fusion_lat": 0.0, "type": "electric_scooter", "name": "7b496380f295b76f477688313d215363", "is_disabled": 0, "rental_uris": {"ios": "https://dc.lft.to/lastmile_qr_scan", "android": "https://dc.lft.to/lastmile_qr_scan"}, "is_reserved": 0}, {"lon": -77.0476505, "bike_id": "f87a8d57f171b17fcd8bfa821e3c0e48", "lat": 38.9213645, "fusion_lon": 0.0, "fusion_lat": 0.0, "type": "electric_scooter", "name": "f87a8d57f171b17fcd8bfa821e3c0e48", "is_disabled": 0, "rental_uris": {"ios": "https://dc.lft.to/lastmile_qr_scan", "android": "https://dc.lft.to/lastmile_qr_scan"}, "is_reserved": 0}, {"lon": -77.04161316666666, "bike_id": "a45af32b12888bde0bca1ca125da8dd0", "lat": 38.912501666666664, "fusion_lon": 0.0, "fusion_lat": 0.0, "type": "electric_scooter", "name": "a45af32b12888bde0bca1ca125da8dd0", "is_disabled": 0, "rental_uris": {"ios": "https://dc.lft.to/lastmile_qr_scan", "android": "https://dc.lft.to/lastmile_qr_scan"}, "is_reserved": 0}, {"lon": -76.93061283333333, "bike_id": "7b2bbe363be011d6b76490e13f22fdd6", "lat": 38.90152416666667, "fusion_lon": 0.0, "fusion_lat": 0.0, "type": "electric_scooter", "name": "7b2bbe363be011d6b76490e13f22fdd6", "is_disabled": 0, "rental_uris": {"ios": "https://dc.lft.to/lastmile_qr_scan", "android": "https://dc.lft.to/lastmile_qr_scan"}, "is_reserved": 0}, {"lon": -77.050477, "bike_id": "919bf23a137e6703f7ad81d2113f4c65", "lat": 38.92361016666667, "fusion_lon": 0.0, "fusion_lat": 0.0, "type": "electric_scooter", "name": "919bf23a137e6703f7ad81d2113f4c65", "is_disabled": 0, "rental_uris": {"ios": "https://dc.lft.to/lastmile_qr_scan", "android": "https://dc.lft.to/lastmile_qr_scan"}, "is_reserved": 0}, {"lon": -77.0193795, "bike_id": "fe9b2ecf1a27f5f716d7c37a09630fa5", "lat": 38.93686233333333, "fusion_lon": 0.0, "fusion_lat": 0.0, "type": "electric_scooter", "name": "fe9b2ecf1a27f5f716d7c37a09630fa5", "is_disabled": 0, "rental_uris": {"ios": "https://dc.lft.to/lastmile_qr_scan", "android": "https://dc.lft.to/lastmile_qr_scan"}, "is_reserved": 0}, {"lon": -77.03213433333333, "bike_id": "c393afd439605d5e72e892614a2fdf0f", "lat": 38.91410466666667, "fusion_lon": 0.0, "fusion_lat": 0.0, "type": "electric_scooter", "name": "c393afd439605d5e72e892614a2fdf0f", "is_disabled": 0, "rental_uris": {"ios": "https://dc.lft.to/lastmile_qr_scan", "android": "https://dc.lft.to/lastmile_qr_scan"}, "is_reserved": 0}, {"lon": -77.03825466666666, "bike_id": "75b2b0d31dc6b54616cf6c591084b84b", "lat": 38.91034, "fusion_lon": 0.0, "fusion_lat": 0.0, "type": "electric_scooter", "name": "75b2b0d31dc6b54616cf6c591084b84b", "is_disabled": 0, "rental_uris": {"ios": "https://dc.lft.to/lastmile_qr_scan", "android": "https://dc.lft.to/lastmile_qr_scan"}, "is_reserved": 0}, {"lon": -77.03855166666666, "bike_id": "29a0f01be1d31ea38ed0e16ec68ae1b9", "lat": 38.917804833333335, "fusion_lon": 0.0, "fusion_lat": 0.0, "type": "electric_scooter", "name": "29a0f01be1d31ea38ed0e16ec68ae1b9", "is_disabled": 0, "rental_uris": {"ios": "https://dc.lft.to/lastmile_qr_scan", "android": "https://dc.lft.to/lastmile_qr_scan"}, "is_reserved": 0}, {"lon": -76.9948925, "bike_id": "dd6c745671b1e92668850016f91adf57", "lat": 38.86244833333333, "fusion_lon": 0.0, "fusion_lat": 0.0, "type": "electric_scooter", "name": "dd6c745671b1e92668850016f91adf57", "is_disabled": 0, "rental_uris": {"ios": "https://dc.lft.to/lastmile_qr_scan", "android": "https://dc.lft.to/lastmile_qr_scan"}, "is_reserved": 0}, {"lon": -77.05263216666667, "bike_id": "8afcd60b3ee78c1d7fa32d058ebdb683", "lat": 38.899748833333334, "fusion_lon": 0.0, "fusion_lat": 0.0, "type": "electric_scooter", "name": "8afcd60b3ee78c1d7fa32d058ebdb683", "is_disabled": 0, "rental_uris": {"ios": "https://dc.lft.to/lastmile_qr_scan", "android": "https://dc.lft.to/lastmile_qr_scan"}, "is_reserved": 0}, {"lon": -77.11781066666667, "bike_id": "e80c772aa2badab5e600bf5dddda62b6", "lat": 39.0549215, "fusion_lon": 0.0, "fusion_lat": 0.0, "type": "electric_bike", "name": "e80c772aa2badab5e600bf5dddda62b6", "is_disabled": 0, "rental_uris": {"ios": "https://dc.lft.to/lastmile_qr_scan", "android": "https://dc.lft.to/lastmile_qr_scan"}, "is_reserved": 0}, {"lon": -77.03288133333334, "bike_id": "42155022b1b3b9a36149cb3878aee345", "lat": 38.956501, "fusion_lon": 0.0, "fusion_lat": 0.0, "type": "electric_scooter", "name": "42155022b1b3b9a36149cb3878aee345", "is_disabled": 0, "rental_uris": {"ios": "https://dc.lft.to/lastmile_qr_scan", "android": "https://dc.lft.to/lastmile_qr_scan"}, "is_reserved": 0}, {"lon": -77.01664933333333, "bike_id": "a510bd9472ce443bcad785630d6539d7", "lat": 38.917411, "fusion_lon": 0.0, "fusion_lat": 0.0, "type": "electric_scooter", "name": "a510bd9472ce443bcad785630d6539d7", "is_disabled": 0, "rental_uris": {"ios": "https://dc.lft.to/lastmile_qr_scan", "android": "https://dc.lft.to/lastmile_qr_scan"}, "is_reserved": 0}, {"lon": -77.03613383333334, "bike_id": "4d3bdeb925cc07d6b37fec5f853c93de", "lat": 38.92324966666666, "fusion_lon": 0.0, "fusion_lat": 0.0, "type": "electric_scooter", "name": "4d3bdeb925cc07d6b37fec5f853c93de", "is_disabled": 0, "rental_uris": {"ios": "https://dc.lft.to/lastmile_qr_scan", "android": "https://dc.lft.to/lastmile_qr_scan"}, "is_reserved": 0}, {"lon": -77.04860516666666, "bike_id": "07a789162132c9428f492ccf1fb03081", "lat": 38.90481283333333, "fusion_lon": 0.0, "fusion_lat": 0.0, "type": "electric_bike", "name": "07a789162132c9428f492ccf1fb03081", "is_disabled": 0, "rental_uris": {"ios": "https://dc.lft.to/lastmile_qr_scan", "android": "https://dc.lft.to/lastmile_qr_scan"}, "is_reserved": 0}, {"lon": -77.04179266666667, "bike_id": "bde0474553d49cf04d63a86185f11fa4", "lat": 38.91974483333333, "fusion_lon": 0.0, "fusion_lat": 0.0, "type": "electric_scooter", "name": "bde0474553d49cf04d63a86185f11fa4", "is_disabled": 0, "rental_uris": {"ios": "https://dc.lft.to/lastmile_qr_scan", "android": "https://dc.lft.to/lastmile_qr_scan"}, "is_reserved": 0}, {"lon": -77.04362366666666, "bike_id": "af1dbb9c737ef7f45a270366302540ab", "lat": 38.921408666666665, "fusion_lon": 0.0, "fusion_lat": 0.0, "type": "electric_scooter", "name": "af1dbb9c737ef7f45a270366302540ab", "is_disabled": 0, "rental_uris": {"ios": "https://dc.lft.to/lastmile_qr_scan", "android": "https://dc.lft.to/lastmile_qr_scan"}, "is_reserved": 0}, {"lon": -77.01627716666667, "bike_id": "bab85981f761dfb6e6c860944ed3834b", "lat": 38.903590666666666, "fusion_lon": 0.0, "fusion_lat": 0.0, "type": "electric_scooter", "name": "bab85981f761dfb6e6c860944ed3834b", "is_disabled": 0, "rental_uris": {"ios": "https://dc.lft.to/lastmile_qr_scan", "android": "https://dc.lft.to/lastmile_qr_scan"}, "is_reserved": 0}, {"lon": -77.02122666666666, "bike_id": "85e61fc8f5d39034b0d2f8cd25d74038", "lat": 38.9369915, "fusion_lon": 0.0, "fusion_lat": 0.0, "type": "electric_scooter", "name": "85e61fc8f5d39034b0d2f8cd25d74038", "is_disabled": 0, "rental_uris": {"ios": "https://dc.lft.to/lastmile_qr_scan", "android": "https://dc.lft.to/lastmile_qr_scan"}, "is_reserved": 0}, {"lon": -77.041705, "bike_id": "68a3923ab5130bf0a35201837ea9431c", "lat": 38.917925, "fusion_lon": 0.0, "fusion_lat": 0.0, "type": "electric_scooter", "name": "68a3923ab5130bf0a35201837ea9431c", "is_disabled": 0, "rental_uris": {"ios": "https://dc.lft.to/lastmile_qr_scan", "android": "https://dc.lft.to/lastmile_qr_scan"}, "is_reserved": 0}, {"lon": -77.02979866666666, "bike_id": "6e6bd5ce3a84e884ec043215b50a8499", "lat": 38.93241033333334, "fusion_lon": 0.0, "fusion_lat": 0.0, "type": "electric_scooter", "name": "6e6bd5ce3a84e884ec043215b50a8499", "is_disabled": 0, "rental_uris": {"ios": "https://dc.lft.to/lastmile_qr_scan", "android": "https://dc.lft.to/lastmile_qr_scan"}, "is_reserved": 0}, {"lon": -77.00828233333333, "bike_id": "70a1cfa7fc80dfc9b07aa291ad1df7a1", "lat": 38.879242, "fusion_lon": 0.0, "fusion_lat": 0.0, "type": "electric_scooter", "name": "70a1cfa7fc80dfc9b07aa291ad1df7a1", "is_disabled": 0, "rental_uris": {"ios": "https://dc.lft.to/lastmile_qr_scan", "android": "https://dc.lft.to/lastmile_qr_scan"}, "is_reserved": 0}, {"lon": -77.02451316666667, "bike_id": "9ab8d2d34d937302964ded63716d2ea5", "lat": 38.914191833333334, "fusion_lon": 0.0, "fusion_lat": 0.0, "type": "electric_scooter", "name": "9ab8d2d34d937302964ded63716d2ea5", "is_disabled": 0, "rental_uris": {"ios": "https://dc.lft.to/lastmile_qr_scan", "android": "https://dc.lft.to/lastmile_qr_scan"}, "is_reserved": 0}, {"lon": -77.039189, "bike_id": "645edbf3d86f5f388298166c3049293e", "lat": 38.92320466666666, "fusion_lon": 0.0, "fusion_lat": 0.0, "type": "electric_scooter", "name": "645edbf3d86f5f388298166c3049293e", "is_disabled": 0, "rental_uris": {"ios": "https://dc.lft.to/lastmile_qr_scan", "android": "https://dc.lft.to/lastmile_qr_scan"}, "is_reserved": 0}, {"lon": -77.032794, "bike_id": "e99000f020958c2ab86a64acf6853547", "lat": 38.93490666666667, "fusion_lon": 0.0, "fusion_lat": 0.0, "type": "electric_scooter", "name": "e99000f020958c2ab86a64acf6853547", "is_disabled": 0, "rental_uris": {"ios": "https://dc.lft.to/lastmile_qr_scan", "android": "https://dc.lft.to/lastmile_qr_scan"}, "is_reserved": 0}, {"lon": -77.03834866666666, "bike_id": "2bba61554bba939d8fda70379ca51b31", "lat": 38.91116533333334, "fusion_lon": 0.0, "fusion_lat": 0.0, "type": "electric_scooter", "name": "2bba61554bba939d8fda70379ca51b31", "is_disabled": 0, "rental_uris": {"ios": "https://dc.lft.to/lastmile_qr_scan", "android": "https://dc.lft.to/lastmile_qr_scan"}, "is_reserved": 0}, {"lon": -76.99506766666667, "bike_id": "5eb2faec071a7eef8807a6a9f3932c5a", "lat": 38.88309133333333, "fusion_lon": 0.0, "fusion_lat": 0.0, "type": "electric_scooter", "name": "5eb2faec071a7eef8807a6a9f3932c5a", "is_disabled": 0, "rental_uris": {"ios": "https://dc.lft.to/lastmile_qr_scan", "android": "https://dc.lft.to/lastmile_qr_scan"}, "is_reserved": 0}, {"lon": -77.04188583333334, "bike_id": "c9bf7112ce84e7a4ec13ae3ef426aa41", "lat": 38.911224, "fusion_lon": 0.0, "fusion_lat": 0.0, "type": "electric_scooter", "name": "c9bf7112ce84e7a4ec13ae3ef426aa41", "is_disabled": 0, "rental_uris": {"ios": "https://dc.lft.to/lastmile_qr_scan", "android": "https://dc.lft.to/lastmile_qr_scan"}, "is_reserved": 0}, {"lon": -76.93031233333333, "bike_id": "d965bc32ed74780c1e4c98ad53a6bd22", "lat": 38.900112166666666, "fusion_lon": 0.0, "fusion_lat": 0.0, "type": "electric_scooter", "name": "d965bc32ed74780c1e4c98ad53a6bd22", "is_disabled": 0, "rental_uris": {"ios": "https://dc.lft.to/lastmile_qr_scan", "android": "https://dc.lft.to/lastmile_qr_scan"}, "is_reserved": 0}, {"lon": -77.05859683333334, "bike_id": "5e60c94f15e37ac893138f9bdb56e11f", "lat": 38.93604833333333, "fusion_lon": 0.0, "fusion_lat": 0.0, "type": "electric_scooter", "name": "5e60c94f15e37ac893138f9bdb56e11f", "is_disabled": 0, "rental_uris": {"ios": "https://dc.lft.to/lastmile_qr_scan", "android": "https://dc.lft.to/lastmile_qr_scan"}, "is_reserved": 0}, {"lon": -77.08192116666666, "bike_id": "57b4fa4a62aa9b3cb9bd5ba83089ca35", "lat": 38.93511616666667, "fusion_lon": 0.0, "fusion_lat": 0.0, "type": "electric_scooter", "name": "57b4fa4a62aa9b3cb9bd5ba83089ca35", "is_disabled": 0, "rental_uris": {"ios": "https://dc.lft.to/lastmile_qr_scan", "android": "https://dc.lft.to/lastmile_qr_scan"}, "is_reserved": 0}, {"lon": -77.02949983333333, "bike_id": "a9e79fc81ae508b50b56600cdca61481", "lat": 38.904968, "fusion_lon": 0.0, "fusion_lat": 0.0, "type": "electric_scooter", "name": "a9e79fc81ae508b50b56600cdca61481", "is_disabled": 0, "rental_uris": {"ios": "https://dc.lft.to/lastmile_qr_scan", "android": "https://dc.lft.to/lastmile_qr_scan"}, "is_reserved": 0}, {"lon": -76.9732405, "bike_id": "12b0458ce0f5e0cf1e82a4ac480dbe62", "lat": 38.904822833333334, "fusion_lon": 0.0, "fusion_lat": 0.0, "type": "electric_bike", "name": "12b0458ce0f5e0cf1e82a4ac480dbe62", "is_disabled": 0, "rental_uris": {"ios": "https://dc.lft.to/lastmile_qr_scan", "android": "https://dc.lft.to/lastmile_qr_scan"}, "is_reserved": 0}, {"lon": -77.02674283333333, "bike_id": "ff852ad875c338259a8780888ac08146", "lat": 38.900578, "fusion_lon": 0.0, "fusion_lat": 0.0, "type": "electric_scooter", "name": "ff852ad875c338259a8780888ac08146", "is_disabled": 0, "rental_uris": {"ios": "https://dc.lft.to/lastmile_qr_scan", "android": "https://dc.lft.to/lastmile_qr_scan"}, "is_reserved": 0}, {"lon": -76.91598333333333, "bike_id": "b823246803634705df17ebfa78b22921", "lat": 38.87982683333333, "fusion_lon": 0.0, "fusion_lat": 0.0, "type": "electric_bike", "name": "b823246803634705df17ebfa78b22921", "is_disabled": 0, "rental_uris": {"ios": "https://dc.lft.to/lastmile_qr_scan", "android": "https://dc.lft.to/lastmile_qr_scan"}, "is_reserved": 0}, {"lon": -77.02812983333334, "bike_id": "db53f0fad484344daa4af0665fea7025", "lat": 38.931741833333334, "fusion_lon": 0.0, "fusion_lat": 0.0, "type": "electric_scooter", "name": "db53f0fad484344daa4af0665fea7025", "is_disabled": 0, "rental_uris": {"ios": "https://dc.lft.to/lastmile_qr_scan", "android": "https://dc.lft.to/lastmile_qr_scan"}, "is_reserved": 0}, {"lon": -77.03631816666666, "bike_id": "8187de0faed8136e080583da221d314b", "lat": 38.915550833333334, "fusion_lon": 0.0, "fusion_lat": 0.0, "type": "electric_scooter", "name": "8187de0faed8136e080583da221d314b", "is_disabled": 0, "rental_uris": {"ios": "https://dc.lft.to/lastmile_qr_scan", "android": "https://dc.lft.to/lastmile_qr_scan"}, "is_reserved": 0}, {"lon": -77.035016, "bike_id": "68a2c696ac07ab28964266e1481d55d1", "lat": 38.911834666666664, "fusion_lon": 0.0, "fusion_lat": 0.0, "type": "electric_scooter", "name": "68a2c696ac07ab28964266e1481d55d1", "is_disabled": 0, "rental_uris": {"ios": "https://dc.lft.to/lastmile_qr_scan", "android": "https://dc.lft.to/lastmile_qr_scan"}, "is_reserved": 0}, {"lon": -77.001309, "bike_id": "bd4ba6725f113d5156cdc335c1a9d0ff", "lat": 38.878129333333334, "fusion_lon": 0.0, "fusion_lat": 0.0, "type": "electric_scooter", "name": "bd4ba6725f113d5156cdc335c1a9d0ff", "is_disabled": 0, "rental_uris": {"ios": "https://dc.lft.to/lastmile_qr_scan", "android": "https://dc.lft.to/lastmile_qr_scan"}, "is_reserved": 0}, {"lon": -76.94621016666666, "bike_id": "5a00fd5d890b8a945402a08e69ecbc95", "lat": 38.832317333333336, "fusion_lon": 0.0, "fusion_lat": 0.0, "type": "electric_bike", "name": "5a00fd5d890b8a945402a08e69ecbc95", "is_disabled": 0, "rental_uris": {"ios": "https://dc.lft.to/lastmile_qr_scan", "android": "https://dc.lft.to/lastmile_qr_scan"}, "is_reserved": 0}, {"lon": -77.02377266666667, "bike_id": "c35a6d1fb3e347141598e3ad44915fea", "lat": 38.90635016666667, "fusion_lon": 0.0, "fusion_lat": 0.0, "type": "electric_scooter", "name": "c35a6d1fb3e347141598e3ad44915fea", "is_disabled": 0, "rental_uris": {"ios": "https://dc.lft.to/lastmile_qr_scan", "android": "https://dc.lft.to/lastmile_qr_scan"}, "is_reserved": 0}, {"lon": -77.02959483333333, "bike_id": "2994953c10bbd1d8e3d5f7cd958b7132", "lat": 38.8965365, "fusion_lon": 0.0, "fusion_lat": 0.0, "type": "electric_scooter", "name": "2994953c10bbd1d8e3d5f7cd958b7132", "is_disabled": 0, "rental_uris": {"ios": "https://dc.lft.to/lastmile_qr_scan", "android": "https://dc.lft.to/lastmile_qr_scan"}, "is_reserved": 0}, {"lon": -77.0321065, "bike_id": "1c6c313526cf567773faeb7ee1452e43", "lat": 38.93618466666667, "fusion_lon": 0.0, "fusion_lat": 0.0, "type": "electric_scooter", "name": "1c6c313526cf567773faeb7ee1452e43", "is_disabled": 0, "rental_uris": {"ios": "https://dc.lft.to/lastmile_qr_scan", "android": "https://dc.lft.to/lastmile_qr_scan"}, "is_reserved": 0}, {"lon": -77.005368, "bike_id": "1a5de05530cc710666c95435a18e7ef1", "lat": 38.875454166666664, "fusion_lon": 0.0, "fusion_lat": 0.0, "type": "electric_scooter", "name": "1a5de05530cc710666c95435a18e7ef1", "is_disabled": 0, "rental_uris": {"ios": "https://dc.lft.to/lastmile_qr_scan", "android": "https://dc.lft.to/lastmile_qr_scan"}, "is_reserved": 0}, {"lon": -76.932777, "bike_id": "76893ca7b53e12c86a604c4f85377889", "lat": 38.95425566666667, "fusion_lon": 0.0, "fusion_lat": 0.0, "type": "electric_bike", "name": "76893ca7b53e12c86a604c4f85377889", "is_disabled": 0, "rental_uris": {"ios": "https://dc.lft.to/lastmile_qr_scan", "android": "https://dc.lft.to/lastmile_qr_scan"}, "is_reserved": 0}, {"lon": -77.03174916666667, "bike_id": "da055942e2a0e98bdd6f17e7b6dadef7", "lat": 38.91586866666667, "fusion_lon": 0.0, "fusion_lat": 0.0, "type": "electric_scooter", "name": "da055942e2a0e98bdd6f17e7b6dadef7", "is_disabled": 0, "rental_uris": {"ios": "https://dc.lft.to/lastmile_qr_scan", "android": "https://dc.lft.to/lastmile_qr_scan"}, "is_reserved": 0}, {"lon": -77.02092533333334, "bike_id": "4ebce21c37ff34de6092ff57cb657984", "lat": 38.92911933333333, "fusion_lon": 0.0, "fusion_lat": 0.0, "type": "electric_scooter", "name": "4ebce21c37ff34de6092ff57cb657984", "is_disabled": 0, "rental_uris": {"ios": "https://dc.lft.to/lastmile_qr_scan", "android": "https://dc.lft.to/lastmile_qr_scan"}, "is_reserved": 0}, {"lon": -77.003761, "bike_id": "66541250c50bcf310677b88a433d5c97", "lat": 38.90865766666667, "fusion_lon": 0.0, "fusion_lat": 0.0, "type": "electric_scooter", "name": "66541250c50bcf310677b88a433d5c97", "is_disabled": 0, "rental_uris": {"ios": "https://dc.lft.to/lastmile_qr_scan", "android": "https://dc.lft.to/lastmile_qr_scan"}, "is_reserved": 0}, {"lon": -77.05599133333334, "bike_id": "d47763ef1ae3cf556dc6f31759f7c8b9", "lat": 38.93697016666667, "fusion_lon": 0.0, "fusion_lat": 0.0, "type": "electric_scooter", "name": "d47763ef1ae3cf556dc6f31759f7c8b9", "is_disabled": 0, "rental_uris": {"ios": "https://dc.lft.to/lastmile_qr_scan", "android": "https://dc.lft.to/lastmile_qr_scan"}, "is_reserved": 0}, {"lon": -77.06128216666667, "bike_id": "f71e2b616e52b13669def64ab7ffcfe7", "lat": 38.905245666666666, "fusion_lon": 0.0, "fusion_lat": 0.0, "type": "electric_scooter", "name": "f71e2b616e52b13669def64ab7ffcfe7", "is_disabled": 0, "rental_uris": {"ios": "https://dc.lft.to/lastmile_qr_scan", "android": "https://dc.lft.to/lastmile_qr_scan"}, "is_reserved": 0}, {"lon": -77.02958766666667, "bike_id": "aa909ef139c827b91db2bbb371b332c6", "lat": 38.9167205, "fusion_lon": 0.0, "fusion_lat": 0.0, "type": "electric_scooter", "name": "aa909ef139c827b91db2bbb371b332c6", "is_disabled": 0, "rental_uris": {"ios": "https://dc.lft.to/lastmile_qr_scan", "android": "https://dc.lft.to/lastmile_qr_scan"}, "is_reserved": 0}, {"lon": -76.97519633333333, "bike_id": "a11bb9bf2f2db0ac570d440cdfac4991", "lat": 38.96695716666667, "fusion_lon": 0.0, "fusion_lat": 0.0, "type": "electric_bike", "name": "a11bb9bf2f2db0ac570d440cdfac4991", "is_disabled": 0, "rental_uris": {"ios": "https://dc.lft.to/lastmile_qr_scan", "android": "https://dc.lft.to/lastmile_qr_scan"}, "is_reserved": 0}, {"lon": -77.0208335, "bike_id": "bc2910a1710595da5e5d8f4640d9f04b", "lat": 38.95742033333333, "fusion_lon": 0.0, "fusion_lat": 0.0, "type": "electric_scooter", "name": "bc2910a1710595da5e5d8f4640d9f04b", "is_disabled": 0, "rental_uris": {"ios": "https://dc.lft.to/lastmile_qr_scan", "android": "https://dc.lft.to/lastmile_qr_scan"}, "is_reserved": 0}, {"lon": -77.03382366666666, "bike_id": "e09faa5c6a4e7c3acb7c96348623ec07", "lat": 38.90984866666667, "fusion_lon": 0.0, "fusion_lat": 0.0, "type": "electric_scooter", "name": "e09faa5c6a4e7c3acb7c96348623ec07", "is_disabled": 0, "rental_uris": {"ios": "https://dc.lft.to/lastmile_qr_scan", "android": "https://dc.lft.to/lastmile_qr_scan"}, "is_reserved": 0}, {"lon": -77.03858416666667, "bike_id": "4b10c287a1c38dd3c006def96ed4a4e4", "lat": 38.911782333333335, "fusion_lon": 0.0, "fusion_lat": 0.0, "type": "electric_scooter", "name": "4b10c287a1c38dd3c006def96ed4a4e4", "is_disabled": 0, "rental_uris": {"ios": "https://dc.lft.to/lastmile_qr_scan", "android": "https://dc.lft.to/lastmile_qr_scan"}, "is_reserved": 0}, {"lon": -77.08285083333334, "bike_id": "b00bb7cf60cecf2631b8b781b4c1a067", "lat": 38.935818166666664, "fusion_lon": 0.0, "fusion_lat": 0.0, "type": "electric_scooter", "name": "b00bb7cf60cecf2631b8b781b4c1a067", "is_disabled": 0, "rental_uris": {"ios": "https://dc.lft.to/lastmile_qr_scan", "android": "https://dc.lft.to/lastmile_qr_scan"}, "is_reserved": 0}, {"lon": -76.996795, "bike_id": "f3e8d6d45939b4458dbfac31b5fea3ca", "lat": 38.860203166666665, "fusion_lon": 0.0, "fusion_lat": 0.0, "type": "electric_scooter", "name": "f3e8d6d45939b4458dbfac31b5fea3ca", "is_disabled": 0, "rental_uris": {"ios": "https://dc.lft.to/lastmile_qr_scan", "android": "https://dc.lft.to/lastmile_qr_scan"}, "is_reserved": 0}, {"lon": -77.035353, "bike_id": "873d8dc4f4ed797f5ebe622af660d54f", "lat": 38.9184615, "fusion_lon": 0.0, "fusion_lat": 0.0, "type": "electric_scooter", "name": "873d8dc4f4ed797f5ebe622af660d54f", "is_disabled": 0, "rental_uris": {"ios": "https://dc.lft.to/lastmile_qr_scan", "android": "https://dc.lft.to/lastmile_qr_scan"}, "is_reserved": 0}, {"lon": -76.99647033333333, "bike_id": "3f228f7c8ef588b9d886c716bbea38a8", "lat": 38.98825816666667, "fusion_lon": 0.0, "fusion_lat": 0.0, "type": "electric_bike", "name": "3f228f7c8ef588b9d886c716bbea38a8", "is_disabled": 0, "rental_uris": {"ios": "https://dc.lft.to/lastmile_qr_scan", "android": "https://dc.lft.to/lastmile_qr_scan"}, "is_reserved": 0}, {"lon": -77.05038316666666, "bike_id": "1460bdbcf62d4a43a2293ca90bd1ae03", "lat": 38.90041166666666, "fusion_lon": 0.0, "fusion_lat": 0.0, "type": "electric_scooter", "name": "1460bdbcf62d4a43a2293ca90bd1ae03", "is_disabled": 0, "rental_uris": {"ios": "https://dc.lft.to/lastmile_qr_scan", "android": "https://dc.lft.to/lastmile_qr_scan"}, "is_reserved": 0}, {"lon": -77.0292, "bike_id": "7a4f7992e8ea0ed616f4444c7a3ee3bb", "lat": 38.9046985, "fusion_lon": 0.0, "fusion_lat": 0.0, "type": "electric_scooter", "name": "7a4f7992e8ea0ed616f4444c7a3ee3bb", "is_disabled": 0, "rental_uris": {"ios": "https://dc.lft.to/lastmile_qr_scan", "android": "https://dc.lft.to/lastmile_qr_scan"}, "is_reserved": 0}, {"lon": -77.02373633333333, "bike_id": "40c1703c93aa64a5758e74ee5469960e", "lat": 38.8921725, "fusion_lon": 0.0, "fusion_lat": 0.0, "type": "electric_scooter", "name": "40c1703c93aa64a5758e74ee5469960e", "is_disabled": 0, "rental_uris": {"ios": "https://dc.lft.to/lastmile_qr_scan", "android": "https://dc.lft.to/lastmile_qr_scan"}, "is_reserved": 0}, {"lon": -77.0320055, "bike_id": "017e634f5ea180a18e128bcd515918f2", "lat": 38.94408133333334, "fusion_lon": 0.0, "fusion_lat": 0.0, "type": "electric_scooter", "name": "017e634f5ea180a18e128bcd515918f2", "is_disabled": 0, "rental_uris": {"ios": "https://dc.lft.to/lastmile_qr_scan", "android": "https://dc.lft.to/lastmile_qr_scan"}, "is_reserved": 0}, {"lon": -77.00035433333333, "bike_id": "b97615b24b61dfde10c645443ae15206", "lat": 38.968076, "fusion_lon": 0.0, "fusion_lat": 0.0, "type": "electric_bike", "name": "b97615b24b61dfde10c645443ae15206", "is_disabled": 0, "rental_uris": {"ios": "https://dc.lft.to/lastmile_qr_scan", "android": "https://dc.lft.to/lastmile_qr_scan"}, "is_reserved": 0}, {"lon": -77.03166933333334, "bike_id": "d34dd8158094fcc2dbe46b8246b10617", "lat": 38.91558583333333, "fusion_lon": 0.0, "fusion_lat": 0.0, "type": "electric_scooter", "name": "d34dd8158094fcc2dbe46b8246b10617", "is_disabled": 0, "rental_uris": {"ios": "https://dc.lft.to/lastmile_qr_scan", "android": "https://dc.lft.to/lastmile_qr_scan"}, "is_reserved": 0}, {"lon": -77.04559483333334, "bike_id": "5544823104288764f169f68f371a5a9d", "lat": 38.896078833333334, "fusion_lon": 0.0, "fusion_lat": 0.0, "type": "electric_scooter", "name": "5544823104288764f169f68f371a5a9d", "is_disabled": 0, "rental_uris": {"ios": "https://dc.lft.to/lastmile_qr_scan", "android": "https://dc.lft.to/lastmile_qr_scan"}, "is_reserved": 0}, {"lon": -77.03304266666666, "bike_id": "d2c069bf171089d7e22b8023452e271d", "lat": 38.901599, "fusion_lon": 0.0, "fusion_lat": 0.0, "type": "electric_scooter", "name": "d2c069bf171089d7e22b8023452e271d", "is_disabled": 0, "rental_uris": {"ios": "https://dc.lft.to/lastmile_qr_scan", "android": "https://dc.lft.to/lastmile_qr_scan"}, "is_reserved": 0}, {"lon": -77.02783283333333, "bike_id": "808c68703a5d17f6ee2a86925d78cc21", "lat": 38.92775266666666, "fusion_lon": 0.0, "fusion_lat": 0.0, "type": "electric_scooter", "name": "808c68703a5d17f6ee2a86925d78cc21", "is_disabled": 0, "rental_uris": {"ios": "https://dc.lft.to/lastmile_qr_scan", "android": "https://dc.lft.to/lastmile_qr_scan"}, "is_reserved": 0}, {"lon": -77.00545666666666, "bike_id": "01348220c853a9e49071cd81fcdd9ac2", "lat": 38.874576833333336, "fusion_lon": 0.0, "fusion_lat": 0.0, "type": "electric_scooter", "name": "01348220c853a9e49071cd81fcdd9ac2", "is_disabled": 0, "rental_uris": {"ios": "https://dc.lft.to/lastmile_qr_scan", "android": "https://dc.lft.to/lastmile_qr_scan"}, "is_reserved": 0}, {"lon": -77.06060683333334, "bike_id": "f1f0e9687b209e4d6e4a63efcf2df485", "lat": 38.80856816666667, "fusion_lon": 0.0, "fusion_lat": 0.0, "type": "electric_bike", "name": "f1f0e9687b209e4d6e4a63efcf2df485", "is_disabled": 0, "rental_uris": {"ios": "https://dc.lft.to/lastmile_qr_scan", "android": "https://dc.lft.to/lastmile_qr_scan"}, "is_reserved": 0}, {"lon": -77.03762616666667, "bike_id": "db92f1713987fd13efb82ef4dcee9b27", "lat": 38.929422833333334, "fusion_lon": 0.0, "fusion_lat": 0.0, "type": "electric_scooter", "name": "db92f1713987fd13efb82ef4dcee9b27", "is_disabled": 0, "rental_uris": {"ios": "https://dc.lft.to/lastmile_qr_scan", "android": "https://dc.lft.to/lastmile_qr_scan"}, "is_reserved": 0}, {"lon": -77.037952, "bike_id": "e792158b7e10796f7f99524d0b5c22fc", "lat": 38.91036366666667, "fusion_lon": 0.0, "fusion_lat": 0.0, "type": "electric_scooter", "name": "e792158b7e10796f7f99524d0b5c22fc", "is_disabled": 0, "rental_uris": {"ios": "https://dc.lft.to/lastmile_qr_scan", "android": "https://dc.lft.to/lastmile_qr_scan"}, "is_reserved": 0}, {"lon": -77.03228233333333, "bike_id": "dbb11cadb7a527a6bb735e4b44d9bffd", "lat": 38.928854, "fusion_lon": 0.0, "fusion_lat": 0.0, "type": "electric_scooter", "name": "dbb11cadb7a527a6bb735e4b44d9bffd", "is_disabled": 0, "rental_uris": {"ios": "https://dc.lft.to/lastmile_qr_scan", "android": "https://dc.lft.to/lastmile_qr_scan"}, "is_reserved": 0}, {"lon": -77.00199216666667, "bike_id": "3c7762cb3275a446c2e3ef871226f157", "lat": 38.90238216666667, "fusion_lon": 0.0, "fusion_lat": 0.0, "type": "electric_scooter", "name": "3c7762cb3275a446c2e3ef871226f157", "is_disabled": 0, "rental_uris": {"ios": "https://dc.lft.to/lastmile_qr_scan", "android": "https://dc.lft.to/lastmile_qr_scan"}, "is_reserved": 0}, {"lon": -77.042977, "bike_id": "d6e4d6bad4afbda033dd6eb78d7aa536", "lat": 38.9102705, "fusion_lon": 0.0, "fusion_lat": 0.0, "type": "electric_scooter", "name": "d6e4d6bad4afbda033dd6eb78d7aa536", "is_disabled": 0, "rental_uris": {"ios": "https://dc.lft.to/lastmile_qr_scan", "android": "https://dc.lft.to/lastmile_qr_scan"}, "is_reserved": 0}, {"lon": -77.05035633333334, "bike_id": "af05222588f338b0109f1fc2f0b15ff3", "lat": 38.90047366666667, "fusion_lon": 0.0, "fusion_lat": 0.0, "type": "electric_scooter", "name": "af05222588f338b0109f1fc2f0b15ff3", "is_disabled": 0, "rental_uris": {"ios": "https://dc.lft.to/lastmile_qr_scan", "android": "https://dc.lft.to/lastmile_qr_scan"}, "is_reserved": 0}, {"lon": -77.03259066666666, "bike_id": "35f77403e0ea0d91d15f1e5f2d1b3b77", "lat": 38.9289575, "fusion_lon": 0.0, "fusion_lat": 0.0, "type": "electric_scooter", "name": "35f77403e0ea0d91d15f1e5f2d1b3b77", "is_disabled": 0, "rental_uris": {"ios": "https://dc.lft.to/lastmile_qr_scan", "android": "https://dc.lft.to/lastmile_qr_scan"}, "is_reserved": 0}, {"lon": -77.03901316666666, "bike_id": "69cba0eb3f83b4d6768bcd4f8dde4fc4", "lat": 38.923334833333335, "fusion_lon": 0.0, "fusion_lat": 0.0, "type": "electric_scooter", "name": "69cba0eb3f83b4d6768bcd4f8dde4fc4", "is_disabled": 0, "rental_uris": {"ios": "https://dc.lft.to/lastmile_qr_scan", "android": "https://dc.lft.to/lastmile_qr_scan"}, "is_reserved": 0}, {"lon": -77.0386135, "bike_id": "89e34b54d121f4a011dfa690cc3d4b1a", "lat": 38.90972633333333, "fusion_lon": 0.0, "fusion_lat": 0.0, "type": "electric_scooter", "name": "89e34b54d121f4a011dfa690cc3d4b1a", "is_disabled": 0, "rental_uris": {"ios": "https://dc.lft.to/lastmile_qr_scan", "android": "https://dc.lft.to/lastmile_qr_scan"}, "is_reserved": 0}, {"lon": -77.04877, "bike_id": "ebdf2be2c8599c589c86055f481e2966", "lat": 38.892345666666664, "fusion_lon": 0.0, "fusion_lat": 0.0, "type": "electric_scooter", "name": "ebdf2be2c8599c589c86055f481e2966", "is_disabled": 0, "rental_uris": {"ios": "https://dc.lft.to/lastmile_qr_scan", "android": "https://dc.lft.to/lastmile_qr_scan"}, "is_reserved": 0}, {"lon": -77.02293766666666, "bike_id": "884f9b947fe90e496a48e5613380d63a", "lat": 38.9086485, "fusion_lon": 0.0, "fusion_lat": 0.0, "type": "electric_scooter", "name": "884f9b947fe90e496a48e5613380d63a", "is_disabled": 0, "rental_uris": {"ios": "https://dc.lft.to/lastmile_qr_scan", "android": "https://dc.lft.to/lastmile_qr_scan"}, "is_reserved": 0}, {"lon": -77.02694733333334, "bike_id": "13a4d2391484c8526b3b09ed63ea8e4d", "lat": 38.8972315, "fusion_lon": 0.0, "fusion_lat": 0.0, "type": "electric_scooter", "name": "13a4d2391484c8526b3b09ed63ea8e4d", "is_disabled": 0, "rental_uris": {"ios": "https://dc.lft.to/lastmile_qr_scan", "android": "https://dc.lft.to/lastmile_qr_scan"}, "is_reserved": 0}, {"lon": -77.03869966666667, "bike_id": "06e8ae9ece2963194196d834b2baeae5", "lat": 38.921488833333335, "fusion_lon": 0.0, "fusion_lat": 0.0, "type": "electric_scooter", "name": "06e8ae9ece2963194196d834b2baeae5", "is_disabled": 0, "rental_uris": {"ios": "https://dc.lft.to/lastmile_qr_scan", "android": "https://dc.lft.to/lastmile_qr_scan"}, "is_reserved": 0}, {"lon": -77.04356666666666, "bike_id": "592a83a294aea756f34562bb6298ba88", "lat": 39.015398833333336, "fusion_lon": 0.0, "fusion_lat": 0.0, "type": "electric_bike", "name": "592a83a294aea756f34562bb6298ba88", "is_disabled": 0, "rental_uris": {"ios": "https://dc.lft.to/lastmile_qr_scan", "android": "https://dc.lft.to/lastmile_qr_scan"}, "is_reserved": 0}, {"lon": -76.97841683333333, "bike_id": "17b6b4d7f43bca783377566799cbecc1", "lat": 38.865655, "fusion_lon": 0.0, "fusion_lat": 0.0, "type": "electric_scooter", "name": "17b6b4d7f43bca783377566799cbecc1", "is_disabled": 0, "rental_uris": {"ios": "https://dc.lft.to/lastmile_qr_scan", "android": "https://dc.lft.to/lastmile_qr_scan"}, "is_reserved": 0}, {"lon": -77.03468883333333, "bike_id": "721c80a54efd918c89e96ee8630c54de", "lat": 38.917112333333336, "fusion_lon": 0.0, "fusion_lat": 0.0, "type": "electric_scooter", "name": "721c80a54efd918c89e96ee8630c54de", "is_disabled": 0, "rental_uris": {"ios": "https://dc.lft.to/lastmile_qr_scan", "android": "https://dc.lft.to/lastmile_qr_scan"}, "is_reserved": 0}, {"lon": -77.038714, "bike_id": "d8288c1294d775db5ee185fd60bc4d3f", "lat": 38.912627666666666, "fusion_lon": 0.0, "fusion_lat": 0.0, "type": "electric_scooter", "name": "d8288c1294d775db5ee185fd60bc4d3f", "is_disabled": 0, "rental_uris": {"ios": "https://dc.lft.to/lastmile_qr_scan", "android": "https://dc.lft.to/lastmile_qr_scan"}, "is_reserved": 0}, {"lon": -77.00017, "bike_id": "c2d5ccee56398053617b33ce502c10b5", "lat": 38.8909095, "fusion_lon": 0.0, "fusion_lat": 0.0, "type": "electric_scooter", "name": "c2d5ccee56398053617b33ce502c10b5", "is_disabled": 0, "rental_uris": {"ios": "https://dc.lft.to/lastmile_qr_scan", "android": "https://dc.lft.to/lastmile_qr_scan"}, "is_reserved": 0}, {"lon": -77.02055083333333, "bike_id": "230cd4bf9ba6d881f156a8666430635e", "lat": 38.929163833333334, "fusion_lon": 0.0, "fusion_lat": 0.0, "type": "electric_scooter", "name": "230cd4bf9ba6d881f156a8666430635e", "is_disabled": 0, "rental_uris": {"ios": "https://dc.lft.to/lastmile_qr_scan", "android": "https://dc.lft.to/lastmile_qr_scan"}, "is_reserved": 0}, {"lon": -76.99050283333334, "bike_id": "ccd7500cc5eb0f8759d518646d0346cb", "lat": 38.86384133333333, "fusion_lon": 0.0, "fusion_lat": 0.0, "type": "electric_scooter", "name": "ccd7500cc5eb0f8759d518646d0346cb", "is_disabled": 0, "rental_uris": {"ios": "https://dc.lft.to/lastmile_qr_scan", "android": "https://dc.lft.to/lastmile_qr_scan"}, "is_reserved": 0}, {"lon": -77.0006245, "bike_id": "b1fe33251fab267956192af8c97735d1", "lat": 38.90084683333333, "fusion_lon": 0.0, "fusion_lat": 0.0, "type": "electric_scooter", "name": "b1fe33251fab267956192af8c97735d1", "is_disabled": 0, "rental_uris": {"ios": "https://dc.lft.to/lastmile_qr_scan", "android": "https://dc.lft.to/lastmile_qr_scan"}, "is_reserved": 0}, {"lon": -77.03212183333333, "bike_id": "5f20922e127ab6537133acd6d3eff79f", "lat": 38.9126685, "fusion_lon": 0.0, "fusion_lat": 0.0, "type": "electric_scooter", "name": "5f20922e127ab6537133acd6d3eff79f", "is_disabled": 0, "rental_uris": {"ios": "https://dc.lft.to/lastmile_qr_scan", "android": "https://dc.lft.to/lastmile_qr_scan"}, "is_reserved": 0}, {"lon": -77.00551, "bike_id": "1f7eeaf4d9996f25045c98bec31d87a0", "lat": 38.9117925, "fusion_lon": 0.0, "fusion_lat": 0.0, "type": "electric_scooter", "name": "1f7eeaf4d9996f25045c98bec31d87a0", "is_disabled": 0, "rental_uris": {"ios": "https://dc.lft.to/lastmile_qr_scan", "android": "https://dc.lft.to/lastmile_qr_scan"}, "is_reserved": 0}, {"lon": -77.03075033333333, "bike_id": "37a2b37471f01690bdc4409b69b5fd80", "lat": 38.900809333333335, "fusion_lon": 0.0, "fusion_lat": 0.0, "type": "electric_scooter", "name": "37a2b37471f01690bdc4409b69b5fd80", "is_disabled": 0, "rental_uris": {"ios": "https://dc.lft.to/lastmile_qr_scan", "android": "https://dc.lft.to/lastmile_qr_scan"}, "is_reserved": 0}, {"lon": -77.02751716666667, "bike_id": "b37ef00acdbad63081fb10a4c9cdcbb2", "lat": 38.9578635, "fusion_lon": 0.0, "fusion_lat": 0.0, "type": "electric_scooter", "name": "b37ef00acdbad63081fb10a4c9cdcbb2", "is_disabled": 0, "rental_uris": {"ios": "https://dc.lft.to/lastmile_qr_scan", "android": "https://dc.lft.to/lastmile_qr_scan"}, "is_reserved": 0}, {"lon": -77.02689933333333, "bike_id": "e29377497191048990e39566ce509dba", "lat": 38.9084175, "fusion_lon": 0.0, "fusion_lat": 0.0, "type": "electric_scooter", "name": "e29377497191048990e39566ce509dba", "is_disabled": 0, "rental_uris": {"ios": "https://dc.lft.to/lastmile_qr_scan", "android": "https://dc.lft.to/lastmile_qr_scan"}, "is_reserved": 0}, {"lon": -76.94879566666667, "bike_id": "f87e9e1e06f7acdd045c2d7c6508c1ca", "lat": 38.894257, "fusion_lon": 0.0, "fusion_lat": 0.0, "type": "electric_scooter", "name": "f87e9e1e06f7acdd045c2d7c6508c1ca", "is_disabled": 0, "rental_uris": {"ios": "https://dc.lft.to/lastmile_qr_scan", "android": "https://dc.lft.to/lastmile_qr_scan"}, "is_reserved": 0}, {"lon": -77.0276915, "bike_id": "21c6245555ded620870b6955e21e8681", "lat": 38.8922095, "fusion_lon": 0.0, "fusion_lat": 0.0, "type": "electric_scooter", "name": "21c6245555ded620870b6955e21e8681", "is_disabled": 0, "rental_uris": {"ios": "https://dc.lft.to/lastmile_qr_scan", "android": "https://dc.lft.to/lastmile_qr_scan"}, "is_reserved": 0}, {"lon": -77.00679166666667, "bike_id": "582d724afa267a02317681e9601b893c", "lat": 38.834952, "fusion_lon": 0.0, "fusion_lat": 0.0, "type": "electric_scooter", "name": "582d724afa267a02317681e9601b893c", "is_disabled": 0, "rental_uris": {"ios": "https://dc.lft.to/lastmile_qr_scan", "android": "https://dc.lft.to/lastmile_qr_scan"}, "is_reserved": 0}, {"lon": -77.01985683333334, "bike_id": "0bf9d3526be7ea69f63688654cade5b1", "lat": 38.92547033333334, "fusion_lon": 0.0, "fusion_lat": 0.0, "type": "electric_bike", "name": "0bf9d3526be7ea69f63688654cade5b1", "is_disabled": 0, "rental_uris": {"ios": "https://dc.lft.to/lastmile_qr_scan", "android": "https://dc.lft.to/lastmile_qr_scan"}, "is_reserved": 0}, {"lon": -77.04476366666667, "bike_id": "af4589d4fd1bc435d4716851d4755b16", "lat": 38.91933866666667, "fusion_lon": 0.0, "fusion_lat": 0.0, "type": "electric_scooter", "name": "af4589d4fd1bc435d4716851d4755b16", "is_disabled": 0, "rental_uris": {"ios": "https://dc.lft.to/lastmile_qr_scan", "android": "https://dc.lft.to/lastmile_qr_scan"}, "is_reserved": 0}, {"lon": -77.03263466666667, "bike_id": "e55bec6bb93843145faccf5710e09aba", "lat": 38.92868766666667, "fusion_lon": 0.0, "fusion_lat": 0.0, "type": "electric_scooter", "name": "e55bec6bb93843145faccf5710e09aba", "is_disabled": 0, "rental_uris": {"ios": "https://dc.lft.to/lastmile_qr_scan", "android": "https://dc.lft.to/lastmile_qr_scan"}, "is_reserved": 0}, {"lon": -77.033171, "bike_id": "22f97e9f37f990f15288521df7321727", "lat": 38.92155533333333, "fusion_lon": 0.0, "fusion_lat": 0.0, "type": "electric_scooter", "name": "22f97e9f37f990f15288521df7321727", "is_disabled": 0, "rental_uris": {"ios": "https://dc.lft.to/lastmile_qr_scan", "android": "https://dc.lft.to/lastmile_qr_scan"}, "is_reserved": 0}, {"lon": -76.993716, "bike_id": "b62742de021b5d0bda6fdef188097c23", "lat": 38.89379383333333, "fusion_lon": 0.0, "fusion_lat": 0.0, "type": "electric_scooter", "name": "b62742de021b5d0bda6fdef188097c23", "is_disabled": 0, "rental_uris": {"ios": "https://dc.lft.to/lastmile_qr_scan", "android": "https://dc.lft.to/lastmile_qr_scan"}, "is_reserved": 0}, {"lon": -77.04559383333333, "bike_id": "5b2de10beeacb2c61b19dd2c37e14761", "lat": 38.91316783333333, "fusion_lon": 0.0, "fusion_lat": 0.0, "type": "electric_scooter", "name": "5b2de10beeacb2c61b19dd2c37e14761", "is_disabled": 0, "rental_uris": {"ios": "https://dc.lft.to/lastmile_qr_scan", "android": "https://dc.lft.to/lastmile_qr_scan"}, "is_reserved": 0}, {"lon": -76.94121533333333, "bike_id": "ff81c25227fb237afe395b4905292c7f", "lat": 38.9082755, "fusion_lon": 0.0, "fusion_lat": 0.0, "type": "electric_scooter", "name": "ff81c25227fb237afe395b4905292c7f", "is_disabled": 0, "rental_uris": {"ios": "https://dc.lft.to/lastmile_qr_scan", "android": "https://dc.lft.to/lastmile_qr_scan"}, "is_reserved": 0}, {"lon": -77.0178985, "bike_id": "ab1261835ddfafd37b135fdf7e16f16f", "lat": 38.94112633333334, "fusion_lon": 0.0, "fusion_lat": 0.0, "type": "electric_scooter", "name": "ab1261835ddfafd37b135fdf7e16f16f", "is_disabled": 0, "rental_uris": {"ios": "https://dc.lft.to/lastmile_qr_scan", "android": "https://dc.lft.to/lastmile_qr_scan"}, "is_reserved": 0}, {"lon": -77.0390495, "bike_id": "1c3aef4e63d77e2d9c746cc9a412a916", "lat": 38.9142455, "fusion_lon": 0.0, "fusion_lat": 0.0, "type": "electric_scooter", "name": "1c3aef4e63d77e2d9c746cc9a412a916", "is_disabled": 0, "rental_uris": {"ios": "https://dc.lft.to/lastmile_qr_scan", "android": "https://dc.lft.to/lastmile_qr_scan"}, "is_reserved": 0}, {"lon": -77.03196916666667, "bike_id": "6b361d6cbb9b3802ed9691e00f8abcba", "lat": 38.90956083333333, "fusion_lon": 0.0, "fusion_lat": 0.0, "type": "electric_scooter", "name": "6b361d6cbb9b3802ed9691e00f8abcba", "is_disabled": 0, "rental_uris": {"ios": "https://dc.lft.to/lastmile_qr_scan", "android": "https://dc.lft.to/lastmile_qr_scan"}, "is_reserved": 0}, {"lon": -77.08334966666666, "bike_id": "f6440b561cf044614ee94f80b5c370ce", "lat": 38.85439916666667, "fusion_lon": 0.0, "fusion_lat": 0.0, "type": "electric_bike", "name": "f6440b561cf044614ee94f80b5c370ce", "is_disabled": 0, "rental_uris": {"ios": "https://dc.lft.to/lastmile_qr_scan", "android": "https://dc.lft.to/lastmile_qr_scan"}, "is_reserved": 0}, {"lon": -77.03221433333333, "bike_id": "8d3a8c6344a20bd981f9b575c037a130", "lat": 38.908657833333336, "fusion_lon": 0.0, "fusion_lat": 0.0, "type": "electric_scooter", "name": "8d3a8c6344a20bd981f9b575c037a130", "is_disabled": 0, "rental_uris": {"ios": "https://dc.lft.to/lastmile_qr_scan", "android": "https://dc.lft.to/lastmile_qr_scan"}, "is_reserved": 0}, {"lon": -77.03585683333333, "bike_id": "0f21edda8ecf5082821e4cdee05b118a", "lat": 38.99225783333333, "fusion_lon": 0.0, "fusion_lat": 0.0, "type": "electric_scooter", "name": "0f21edda8ecf5082821e4cdee05b118a", "is_disabled": 0, "rental_uris": {"ios": "https://dc.lft.to/lastmile_qr_scan", "android": "https://dc.lft.to/lastmile_qr_scan"}, "is_reserved": 0}, {"lon": -77.03854233333334, "bike_id": "113efbb65fb6db06b0f79367163b3975", "lat": 38.90410083333333, "fusion_lon": 0.0, "fusion_lat": 0.0, "type": "electric_scooter", "name": "113efbb65fb6db06b0f79367163b3975", "is_disabled": 0, "rental_uris": {"ios": "https://dc.lft.to/lastmile_qr_scan", "android": "https://dc.lft.to/lastmile_qr_scan"}, "is_reserved": 0}, {"lon": -76.978243, "bike_id": "1016ce850db08dc1808b1ec2f83070ee", "lat": 38.843712, "fusion_lon": 0.0, "fusion_lat": 0.0, "type": "electric_bike", "name": "1016ce850db08dc1808b1ec2f83070ee", "is_disabled": 0, "rental_uris": {"ios": "https://dc.lft.to/lastmile_qr_scan", "android": "https://dc.lft.to/lastmile_qr_scan"}, "is_reserved": 0}, {"lon": -77.02503266666666, "bike_id": "5e83478d7bb4eaf731e46300e14f268d", "lat": 38.904204666666665, "fusion_lon": 0.0, "fusion_lat": 0.0, "type": "electric_scooter", "name": "5e83478d7bb4eaf731e46300e14f268d", "is_disabled": 0, "rental_uris": {"ios": "https://dc.lft.to/lastmile_qr_scan", "android": "https://dc.lft.to/lastmile_qr_scan"}, "is_reserved": 0}, {"lon": -77.00928216666667, "bike_id": "beb3b7b6b32df76d18e1e345cdd64036", "lat": 38.8998225, "fusion_lon": 0.0, "fusion_lat": 0.0, "type": "electric_scooter", "name": "beb3b7b6b32df76d18e1e345cdd64036", "is_disabled": 0, "rental_uris": {"ios": "https://dc.lft.to/lastmile_qr_scan", "android": "https://dc.lft.to/lastmile_qr_scan"}, "is_reserved": 0}, {"lon": -77.03321833333334, "bike_id": "599bc9f89b8405e7109c84d4ae241497", "lat": 38.9215675, "fusion_lon": 0.0, "fusion_lat": 0.0, "type": "electric_scooter", "name": "599bc9f89b8405e7109c84d4ae241497", "is_disabled": 0, "rental_uris": {"ios": "https://dc.lft.to/lastmile_qr_scan", "android": "https://dc.lft.to/lastmile_qr_scan"}, "is_reserved": 0}, {"lon": -77.041686, "bike_id": "6171049e2b6e89c0ae7602a91a70ffe2", "lat": 38.9139895, "fusion_lon": 0.0, "fusion_lat": 0.0, "type": "electric_scooter", "name": "6171049e2b6e89c0ae7602a91a70ffe2", "is_disabled": 0, "rental_uris": {"ios": "https://dc.lft.to/lastmile_qr_scan", "android": "https://dc.lft.to/lastmile_qr_scan"}, "is_reserved": 0}, {"lon": -77.02511816666667, "bike_id": "708e80629c323296a28bbe9fa6bc53fa", "lat": 38.920497166666664, "fusion_lon": 0.0, "fusion_lat": 0.0, "type": "electric_scooter", "name": "708e80629c323296a28bbe9fa6bc53fa", "is_disabled": 0, "rental_uris": {"ios": "https://dc.lft.to/lastmile_qr_scan", "android": "https://dc.lft.to/lastmile_qr_scan"}, "is_reserved": 0}, {"lon": -76.97732566666667, "bike_id": "fcee03fae8bdbf005278b787adc830ae", "lat": 38.86476016666667, "fusion_lon": 0.0, "fusion_lat": 0.0, "type": "electric_scooter", "name": "fcee03fae8bdbf005278b787adc830ae", "is_disabled": 0, "rental_uris": {"ios": "https://dc.lft.to/lastmile_qr_scan", "android": "https://dc.lft.to/lastmile_qr_scan"}, "is_reserved": 0}, {"lon": -77.03545166666666, "bike_id": "060945c0933ae93b5e01b04843054d7e", "lat": 38.923998166666664, "fusion_lon": 0.0, "fusion_lat": 0.0, "type": "electric_scooter", "name": "060945c0933ae93b5e01b04843054d7e", "is_disabled": 0, "rental_uris": {"ios": "https://dc.lft.to/lastmile_qr_scan", "android": "https://dc.lft.to/lastmile_qr_scan"}, "is_reserved": 0}, {"lon": -77.01931983333333, "bike_id": "ff17cf9678b7ae706ffeb5d0aecb4fa1", "lat": 38.89444316666667, "fusion_lon": 0.0, "fusion_lat": 0.0, "type": "electric_scooter", "name": "ff17cf9678b7ae706ffeb5d0aecb4fa1", "is_disabled": 0, "rental_uris": {"ios": "https://dc.lft.to/lastmile_qr_scan", "android": "https://dc.lft.to/lastmile_qr_scan"}, "is_reserved": 0}, {"lon": -77.02805566666666, "bike_id": "4bf49d1b709717b1c2786334a7c98e80", "lat": 38.93079866666667, "fusion_lon": 0.0, "fusion_lat": 0.0, "type": "electric_scooter", "name": "4bf49d1b709717b1c2786334a7c98e80", "is_disabled": 0, "rental_uris": {"ios": "https://dc.lft.to/lastmile_qr_scan", "android": "https://dc.lft.to/lastmile_qr_scan"}, "is_reserved": 0}, {"lon": -77.01996916666667, "bike_id": "7021462465c976da2457cb6e51e236f2", "lat": 38.913656, "fusion_lon": 0.0, "fusion_lat": 0.0, "type": "electric_scooter", "name": "7021462465c976da2457cb6e51e236f2", "is_disabled": 0, "rental_uris": {"ios": "https://dc.lft.to/lastmile_qr_scan", "android": "https://dc.lft.to/lastmile_qr_scan"}, "is_reserved": 0}, {"lon": -77.02985116666666, "bike_id": "b5819bed8f3bf5f35435ac5ea6162566", "lat": 38.92472816666667, "fusion_lon": 0.0, "fusion_lat": 0.0, "type": "electric_scooter", "name": "b5819bed8f3bf5f35435ac5ea6162566", "is_disabled": 0, "rental_uris": {"ios": "https://dc.lft.to/lastmile_qr_scan", "android": "https://dc.lft.to/lastmile_qr_scan"}, "is_reserved": 0}, {"lon": -76.999579, "bike_id": "477945c99655d1e45099ec5f4e898af7", "lat": 38.904091666666666, "fusion_lon": 0.0, "fusion_lat": 0.0, "type": "electric_scooter", "name": "477945c99655d1e45099ec5f4e898af7", "is_disabled": 0, "rental_uris": {"ios": "https://dc.lft.to/lastmile_qr_scan", "android": "https://dc.lft.to/lastmile_qr_scan"}, "is_reserved": 0}, {"lon": -76.988474, "bike_id": "a0a6f3b459006938719c453f0c62cc6b", "lat": 38.901321833333334, "fusion_lon": 0.0, "fusion_lat": 0.0, "type": "electric_scooter", "name": "a0a6f3b459006938719c453f0c62cc6b", "is_disabled": 0, "rental_uris": {"ios": "https://dc.lft.to/lastmile_qr_scan", "android": "https://dc.lft.to/lastmile_qr_scan"}, "is_reserved": 0}, {"lon": -77.2279995, "bike_id": "eb7a22ead4f26bdf6351945af807446e", "lat": 38.91014333333333, "fusion_lon": 0.0, "fusion_lat": 0.0, "type": "electric_bike", "name": "eb7a22ead4f26bdf6351945af807446e", "is_disabled": 0, "rental_uris": {"ios": "https://dc.lft.to/lastmile_qr_scan", "android": "https://dc.lft.to/lastmile_qr_scan"}, "is_reserved": 0}, {"lon": -77.0294865, "bike_id": "b8407a918c98fe3d222df8c08daa627b", "lat": 38.927679, "fusion_lon": 0.0, "fusion_lat": 0.0, "type": "electric_scooter", "name": "b8407a918c98fe3d222df8c08daa627b", "is_disabled": 0, "rental_uris": {"ios": "https://dc.lft.to/lastmile_qr_scan", "android": "https://dc.lft.to/lastmile_qr_scan"}, "is_reserved": 0}, {"lon": -77.05875766666666, "bike_id": "b722a08c88857be8d6c3941722c93d70", "lat": 38.93552866666667, "fusion_lon": 0.0, "fusion_lat": 0.0, "type": "electric_scooter", "name": "b722a08c88857be8d6c3941722c93d70", "is_disabled": 0, "rental_uris": {"ios": "https://dc.lft.to/lastmile_qr_scan", "android": "https://dc.lft.to/lastmile_qr_scan"}, "is_reserved": 0}, {"lon": -76.96388916666666, "bike_id": "1313e4a93734d1a452890bdfa587204b", "lat": 38.95167516666667, "fusion_lon": 0.0, "fusion_lat": 0.0, "type": "electric_bike", "name": "1313e4a93734d1a452890bdfa587204b", "is_disabled": 0, "rental_uris": {"ios": "https://dc.lft.to/lastmile_qr_scan", "android": "https://dc.lft.to/lastmile_qr_scan"}, "is_reserved": 0}, {"lon": -76.99959533333333, "bike_id": "5d2eb2caf02e3acc3d48cc2ad5747ab7", "lat": 38.90753216666667, "fusion_lon": 0.0, "fusion_lat": 0.0, "type": "electric_scooter", "name": "5d2eb2caf02e3acc3d48cc2ad5747ab7", "is_disabled": 0, "rental_uris": {"ios": "https://dc.lft.to/lastmile_qr_scan", "android": "https://dc.lft.to/lastmile_qr_scan"}, "is_reserved": 0}, {"lon": -77.03118666666667, "bike_id": "a15a2fdbc8fe7b5b0d20057d9fbbcd62", "lat": 38.988324, "fusion_lon": 0.0, "fusion_lat": 0.0, "type": "electric_scooter", "name": "a15a2fdbc8fe7b5b0d20057d9fbbcd62", "is_disabled": 0, "rental_uris": {"ios": "https://dc.lft.to/lastmile_qr_scan", "android": "https://dc.lft.to/lastmile_qr_scan"}, "is_reserved": 0}, {"lon": -77.05316033333334, "bike_id": "b706e8edba846da7419cf8a82469971c", "lat": 38.941050833333335, "fusion_lon": 0.0, "fusion_lat": 0.0, "type": "electric_bike", "name": "b706e8edba846da7419cf8a82469971c", "is_disabled": 0, "rental_uris": {"ios": "https://dc.lft.to/lastmile_qr_scan", "android": "https://dc.lft.to/lastmile_qr_scan"}, "is_reserved": 0}, {"lon": -77.0414245, "bike_id": "54277c4f78d4854763798c0f319f908e", "lat": 38.906709, "fusion_lon": 0.0, "fusion_lat": 0.0, "type": "electric_scooter", "name": "54277c4f78d4854763798c0f319f908e", "is_disabled": 0, "rental_uris": {"ios": "https://dc.lft.to/lastmile_qr_scan", "android": "https://dc.lft.to/lastmile_qr_scan"}, "is_reserved": 0}, {"lon": -77.021463, "bike_id": "c43f772315d7626ff8ee219ea6e41bc7", "lat": 38.8972835, "fusion_lon": 0.0, "fusion_lat": 0.0, "type": "electric_scooter", "name": "c43f772315d7626ff8ee219ea6e41bc7", "is_disabled": 0, "rental_uris": {"ios": "https://dc.lft.to/lastmile_qr_scan", "android": "https://dc.lft.to/lastmile_qr_scan"}, "is_reserved": 0}, {"lon": -77.027928, "bike_id": "cdde7e51f91841b5b8508dbf470a5fbe", "lat": 38.954006166666666, "fusion_lon": 0.0, "fusion_lat": 0.0, "type": "electric_scooter", "name": "cdde7e51f91841b5b8508dbf470a5fbe", "is_disabled": 0, "rental_uris": {"ios": "https://dc.lft.to/lastmile_qr_scan", "android": "https://dc.lft.to/lastmile_qr_scan"}, "is_reserved": 0}, {"lon": -77.02378916666666, "bike_id": "51052db6fa117714b667ac2d0fab8dcb", "lat": 38.91624, "fusion_lon": 0.0, "fusion_lat": 0.0, "type": "electric_scooter", "name": "51052db6fa117714b667ac2d0fab8dcb", "is_disabled": 0, "rental_uris": {"ios": "https://dc.lft.to/lastmile_qr_scan", "android": "https://dc.lft.to/lastmile_qr_scan"}, "is_reserved": 0}, {"lon": -77.02090633333333, "bike_id": "bdc3b6411b8ae693d84800d723c33606", "lat": 38.929128666666664, "fusion_lon": 0.0, "fusion_lat": 0.0, "type": "electric_scooter", "name": "bdc3b6411b8ae693d84800d723c33606", "is_disabled": 0, "rental_uris": {"ios": "https://dc.lft.to/lastmile_qr_scan", "android": "https://dc.lft.to/lastmile_qr_scan"}, "is_reserved": 0}, {"lon": -77.0435415, "bike_id": "f59c8f5198783f96968c68ef04f47f4c", "lat": 38.91042933333333, "fusion_lon": 0.0, "fusion_lat": 0.0, "type": "electric_scooter", "name": "f59c8f5198783f96968c68ef04f47f4c", "is_disabled": 0, "rental_uris": {"ios": "https://dc.lft.to/lastmile_qr_scan", "android": "https://dc.lft.to/lastmile_qr_scan"}, "is_reserved": 0}, {"lon": -77.007432, "bike_id": "16b73c4bf03f6377a40314e72983e2d7", "lat": 38.92530283333333, "fusion_lon": 0.0, "fusion_lat": 0.0, "type": "electric_scooter", "name": "16b73c4bf03f6377a40314e72983e2d7", "is_disabled": 0, "rental_uris": {"ios": "https://dc.lft.to/lastmile_qr_scan", "android": "https://dc.lft.to/lastmile_qr_scan"}, "is_reserved": 0}, {"lon": -77.03908416666667, "bike_id": "80ec0306d917491d9c7cd58a82ba6b60", "lat": 38.914222, "fusion_lon": 0.0, "fusion_lat": 0.0, "type": "electric_scooter", "name": "80ec0306d917491d9c7cd58a82ba6b60", "is_disabled": 0, "rental_uris": {"ios": "https://dc.lft.to/lastmile_qr_scan", "android": "https://dc.lft.to/lastmile_qr_scan"}, "is_reserved": 0}, {"lon": -77.046432, "bike_id": "e0607a3ac8dc581695a6a74dfacd2f4a", "lat": 38.921113166666665, "fusion_lon": 0.0, "fusion_lat": 0.0, "type": "electric_scooter", "name": "e0607a3ac8dc581695a6a74dfacd2f4a", "is_disabled": 0, "rental_uris": {"ios": "https://dc.lft.to/lastmile_qr_scan", "android": "https://dc.lft.to/lastmile_qr_scan"}, "is_reserved": 0}, {"lon": -77.0411855, "bike_id": "d59fafbde7f0f4de46b252894197f0f5", "lat": 38.923001, "fusion_lon": 0.0, "fusion_lat": 0.0, "type": "electric_scooter", "name": "d59fafbde7f0f4de46b252894197f0f5", "is_disabled": 0, "rental_uris": {"ios": "https://dc.lft.to/lastmile_qr_scan", "android": "https://dc.lft.to/lastmile_qr_scan"}, "is_reserved": 0}, {"lon": -77.03678266666667, "bike_id": "968dd964676d2027d480fec238d4e7a3", "lat": 38.93641733333333, "fusion_lon": 0.0, "fusion_lat": 0.0, "type": "electric_bike", "name": "968dd964676d2027d480fec238d4e7a3", "is_disabled": 0, "rental_uris": {"ios": "https://dc.lft.to/lastmile_qr_scan", "android": "https://dc.lft.to/lastmile_qr_scan"}, "is_reserved": 0}, {"lon": -77.05898516666667, "bike_id": "6407896974c7c18710d343be219b23a5", "lat": 38.936349666666665, "fusion_lon": 0.0, "fusion_lat": 0.0, "type": "electric_scooter", "name": "6407896974c7c18710d343be219b23a5", "is_disabled": 0, "rental_uris": {"ios": "https://dc.lft.to/lastmile_qr_scan", "android": "https://dc.lft.to/lastmile_qr_scan"}, "is_reserved": 0}, {"lon": -77.038357, "bike_id": "fdc37e512116dd02dc7d22fd891350d0", "lat": 38.9171595, "fusion_lon": 0.0, "fusion_lat": 0.0, "type": "electric_scooter", "name": "fdc37e512116dd02dc7d22fd891350d0", "is_disabled": 0, "rental_uris": {"ios": "https://dc.lft.to/lastmile_qr_scan", "android": "https://dc.lft.to/lastmile_qr_scan"}, "is_reserved": 0}, {"lon": -77.06916383333333, "bike_id": "5edefa592d588bd3c10fbdeb81e97052", "lat": 38.95551916666667, "fusion_lon": 0.0, "fusion_lat": 0.0, "type": "electric_bike", "name": "5edefa592d588bd3c10fbdeb81e97052", "is_disabled": 0, "rental_uris": {"ios": "https://dc.lft.to/lastmile_qr_scan", "android": "https://dc.lft.to/lastmile_qr_scan"}, "is_reserved": 0}, {"lon": -77.03475416666667, "bike_id": "12dc2ba6a1127b64188fd822d2073be1", "lat": 38.90730816666667, "fusion_lon": 0.0, "fusion_lat": 0.0, "type": "electric_scooter", "name": "12dc2ba6a1127b64188fd822d2073be1", "is_disabled": 0, "rental_uris": {"ios": "https://dc.lft.to/lastmile_qr_scan", "android": "https://dc.lft.to/lastmile_qr_scan"}, "is_reserved": 0}, {"lon": -77.04154483333333, "bike_id": "47835337da27bfa9bd93d1c1a6d42865", "lat": 38.918121166666666, "fusion_lon": 0.0, "fusion_lat": 0.0, "type": "electric_scooter", "name": "47835337da27bfa9bd93d1c1a6d42865", "is_disabled": 0, "rental_uris": {"ios": "https://dc.lft.to/lastmile_qr_scan", "android": "https://dc.lft.to/lastmile_qr_scan"}, "is_reserved": 0}, {"lon": -76.99970966666666, "bike_id": "e3720ff626acfa6cee1730325cd3f393", "lat": 38.908462166666666, "fusion_lon": 0.0, "fusion_lat": 0.0, "type": "electric_scooter", "name": "e3720ff626acfa6cee1730325cd3f393", "is_disabled": 0, "rental_uris": {"ios": "https://dc.lft.to/lastmile_qr_scan", "android": "https://dc.lft.to/lastmile_qr_scan"}, "is_reserved": 0}, {"lon": -77.061019, "bike_id": "66096db788ca631293e6494bae33645f", "lat": 38.9370725, "fusion_lon": 0.0, "fusion_lat": 0.0, "type": "electric_scooter", "name": "66096db788ca631293e6494bae33645f", "is_disabled": 0, "rental_uris": {"ios": "https://dc.lft.to/lastmile_qr_scan", "android": "https://dc.lft.to/lastmile_qr_scan"}, "is_reserved": 0}, {"lon": -77.0297625, "bike_id": "3e779b504a4f177e5b464e0edd62c48a", "lat": 38.9071345, "fusion_lon": 0.0, "fusion_lat": 0.0, "type": "electric_scooter", "name": "3e779b504a4f177e5b464e0edd62c48a", "is_disabled": 0, "rental_uris": {"ios": "https://dc.lft.to/lastmile_qr_scan", "android": "https://dc.lft.to/lastmile_qr_scan"}, "is_reserved": 0}, {"lon": -77.0426085, "bike_id": "8972ddeacf7dad6f1797a72a5656920b", "lat": 38.90018116666667, "fusion_lon": 0.0, "fusion_lat": 0.0, "type": "electric_scooter", "name": "8972ddeacf7dad6f1797a72a5656920b", "is_disabled": 0, "rental_uris": {"ios": "https://dc.lft.to/lastmile_qr_scan", "android": "https://dc.lft.to/lastmile_qr_scan"}, "is_reserved": 0}, {"lon": -77.03183116666666, "bike_id": "006273ca0b3eae487b33acaf34f94979", "lat": 38.912764, "fusion_lon": 0.0, "fusion_lat": 0.0, "type": "electric_scooter", "name": "006273ca0b3eae487b33acaf34f94979", "is_disabled": 0, "rental_uris": {"ios": "https://dc.lft.to/lastmile_qr_scan", "android": "https://dc.lft.to/lastmile_qr_scan"}, "is_reserved": 0}, {"lon": -76.9488475, "bike_id": "54e82055e7d9a1b57fae5f2552d294cb", "lat": 38.895109, "fusion_lon": 0.0, "fusion_lat": 0.0, "type": "electric_scooter", "name": "54e82055e7d9a1b57fae5f2552d294cb", "is_disabled": 0, "rental_uris": {"ios": "https://dc.lft.to/lastmile_qr_scan", "android": "https://dc.lft.to/lastmile_qr_scan"}, "is_reserved": 0}, {"lon": -77.04031816666667, "bike_id": "3f6d4366495939c80b385e069e9e7253", "lat": 38.92565466666667, "fusion_lon": 0.0, "fusion_lat": 0.0, "type": "electric_scooter", "name": "3f6d4366495939c80b385e069e9e7253", "is_disabled": 0, "rental_uris": {"ios": "https://dc.lft.to/lastmile_qr_scan", "android": "https://dc.lft.to/lastmile_qr_scan"}, "is_reserved": 0}, {"lon": -77.03413616666667, "bike_id": "84fb29db260bf8c67dd56ee946e11067", "lat": 38.934115, "fusion_lon": 0.0, "fusion_lat": 0.0, "type": "electric_scooter", "name": "84fb29db260bf8c67dd56ee946e11067", "is_disabled": 0, "rental_uris": {"ios": "https://dc.lft.to/lastmile_qr_scan", "android": "https://dc.lft.to/lastmile_qr_scan"}, "is_reserved": 0}, {"lon": -77.02360983333334, "bike_id": "5721fa58102f958365994d1ab904b870", "lat": 38.935270333333335, "fusion_lon": 0.0, "fusion_lat": 0.0, "type": "electric_scooter", "name": "5721fa58102f958365994d1ab904b870", "is_disabled": 0, "rental_uris": {"ios": "https://dc.lft.to/lastmile_qr_scan", "android": "https://dc.lft.to/lastmile_qr_scan"}, "is_reserved": 0}, {"lon": -77.0344365, "bike_id": "d31d02df807b54454d445cc0a1f2e46f", "lat": 38.91751983333333, "fusion_lon": 0.0, "fusion_lat": 0.0, "type": "electric_scooter", "name": "d31d02df807b54454d445cc0a1f2e46f", "is_disabled": 0, "rental_uris": {"ios": "https://dc.lft.to/lastmile_qr_scan", "android": "https://dc.lft.to/lastmile_qr_scan"}, "is_reserved": 0}, {"lon": -77.03654066666667, "bike_id": "3cabd21f482a7e74f50c15b5f2d60d8b", "lat": 38.904803666666666, "fusion_lon": 0.0, "fusion_lat": 0.0, "type": "electric_scooter", "name": "3cabd21f482a7e74f50c15b5f2d60d8b", "is_disabled": 0, "rental_uris": {"ios": "https://dc.lft.to/lastmile_qr_scan", "android": "https://dc.lft.to/lastmile_qr_scan"}, "is_reserved": 0}, {"lon": -77.03270416666666, "bike_id": "82f3db4073714279a41b519ca7a2db4b", "lat": 38.93916566666667, "fusion_lon": 0.0, "fusion_lat": 0.0, "type": "electric_scooter", "name": "82f3db4073714279a41b519ca7a2db4b", "is_disabled": 0, "rental_uris": {"ios": "https://dc.lft.to/lastmile_qr_scan", "android": "https://dc.lft.to/lastmile_qr_scan"}, "is_reserved": 0}, {"lon": -77.00519416666667, "bike_id": "82b3cffbb9ebc99bbb9f719db4753f62", "lat": 38.91483816666667, "fusion_lon": 0.0, "fusion_lat": 0.0, "type": "electric_bike", "name": "82b3cffbb9ebc99bbb9f719db4753f62", "is_disabled": 0, "rental_uris": {"ios": "https://dc.lft.to/lastmile_qr_scan", "android": "https://dc.lft.to/lastmile_qr_scan"}, "is_reserved": 0}, {"lon": -77.03830766666667, "bike_id": "026fef4440fe3277d862aa1920af1507", "lat": 38.908918666666665, "fusion_lon": 0.0, "fusion_lat": 0.0, "type": "electric_scooter", "name": "026fef4440fe3277d862aa1920af1507", "is_disabled": 0, "rental_uris": {"ios": "https://dc.lft.to/lastmile_qr_scan", "android": "https://dc.lft.to/lastmile_qr_scan"}, "is_reserved": 0}, {"lon": -76.988859, "bike_id": "56baa841ac1c9e080791d3b0fbe87f56", "lat": 38.866558833333336, "fusion_lon": 0.0, "fusion_lat": 0.0, "type": "electric_scooter", "name": "56baa841ac1c9e080791d3b0fbe87f56", "is_disabled": 0, "rental_uris": {"ios": "https://dc.lft.to/lastmile_qr_scan", "android": "https://dc.lft.to/lastmile_qr_scan"}, "is_reserved": 0}, {"lon": -77.03095533333334, "bike_id": "8de719ff47a020340828f40b1bd9aa4d", "lat": 38.91912933333333, "fusion_lon": 0.0, "fusion_lat": 0.0, "type": "electric_scooter", "name": "8de719ff47a020340828f40b1bd9aa4d", "is_disabled": 0, "rental_uris": {"ios": "https://dc.lft.to/lastmile_qr_scan", "android": "https://dc.lft.to/lastmile_qr_scan"}, "is_reserved": 0}, {"lon": -77.0327685, "bike_id": "0f95f507856a251fbfb14194534e39d0", "lat": 38.90139466666667, "fusion_lon": 0.0, "fusion_lat": 0.0, "type": "electric_scooter", "name": "0f95f507856a251fbfb14194534e39d0", "is_disabled": 0, "rental_uris": {"ios": "https://dc.lft.to/lastmile_qr_scan", "android": "https://dc.lft.to/lastmile_qr_scan"}, "is_reserved": 0}, {"lon": -77.050008, "bike_id": "10b4aed925d0343a120037ff7b0bcba0", "lat": 38.9053315, "fusion_lon": 0.0, "fusion_lat": 0.0, "type": "electric_scooter", "name": "10b4aed925d0343a120037ff7b0bcba0", "is_disabled": 0, "rental_uris": {"ios": "https://dc.lft.to/lastmile_qr_scan", "android": "https://dc.lft.to/lastmile_qr_scan"}, "is_reserved": 0}, {"lon": -77.03252266666667, "bike_id": "3e57297d514994dd21b012d6214dea96", "lat": 38.909623, "fusion_lon": 0.0, "fusion_lat": 0.0, "type": "electric_scooter", "name": "3e57297d514994dd21b012d6214dea96", "is_disabled": 0, "rental_uris": {"ios": "https://dc.lft.to/lastmile_qr_scan", "android": "https://dc.lft.to/lastmile_qr_scan"}, "is_reserved": 0}, {"lon": -77.0269555, "bike_id": "1666560613fe5df14cdd90e4db62b4a8", "lat": 38.9066685, "fusion_lon": 0.0, "fusion_lat": 0.0, "type": "electric_scooter", "name": "1666560613fe5df14cdd90e4db62b4a8", "is_disabled": 0, "rental_uris": {"ios": "https://dc.lft.to/lastmile_qr_scan", "android": "https://dc.lft.to/lastmile_qr_scan"}, "is_reserved": 0}, {"lon": -77.01172266666667, "bike_id": "29d05bf13e7daea9dc8162bc62fc30e8", "lat": 38.900201333333335, "fusion_lon": 0.0, "fusion_lat": 0.0, "type": "electric_scooter", "name": "29d05bf13e7daea9dc8162bc62fc30e8", "is_disabled": 0, "rental_uris": {"ios": "https://dc.lft.to/lastmile_qr_scan", "android": "https://dc.lft.to/lastmile_qr_scan"}, "is_reserved": 0}, {"lon": -77.04346233333334, "bike_id": "5d3a9ccc29cd495412e9cc5a659a7d45", "lat": 38.93331166666667, "fusion_lon": 0.0, "fusion_lat": 0.0, "type": "electric_scooter", "name": "5d3a9ccc29cd495412e9cc5a659a7d45", "is_disabled": 0, "rental_uris": {"ios": "https://dc.lft.to/lastmile_qr_scan", "android": "https://dc.lft.to/lastmile_qr_scan"}, "is_reserved": 0}, {"lon": -77.04153033333333, "bike_id": "cc5d1516b3a3f4477aa3997b583b5c4a", "lat": 38.899123333333335, "fusion_lon": 0.0, "fusion_lat": 0.0, "type": "electric_scooter", "name": "cc5d1516b3a3f4477aa3997b583b5c4a", "is_disabled": 0, "rental_uris": {"ios": "https://dc.lft.to/lastmile_qr_scan", "android": "https://dc.lft.to/lastmile_qr_scan"}, "is_reserved": 0}, {"lon": -77.030742, "bike_id": "be584acbd12479115efec86c89922ac8", "lat": 38.88035266666667, "fusion_lon": 0.0, "fusion_lat": 0.0, "type": "electric_scooter", "name": "be584acbd12479115efec86c89922ac8", "is_disabled": 0, "rental_uris": {"ios": "https://dc.lft.to/lastmile_qr_scan", "android": "https://dc.lft.to/lastmile_qr_scan"}, "is_reserved": 0}, {"lon": -77.02691833333333, "bike_id": "70bc3282d7d2cb156d2b948f734fce20", "lat": 38.91227816666667, "fusion_lon": 0.0, "fusion_lat": 0.0, "type": "electric_scooter", "name": "70bc3282d7d2cb156d2b948f734fce20", "is_disabled": 0, "rental_uris": {"ios": "https://dc.lft.to/lastmile_qr_scan", "android": "https://dc.lft.to/lastmile_qr_scan"}, "is_reserved": 0}, {"lon": -77.03135116666667, "bike_id": "49e23a815d4521ccffbbf4d105f801c0", "lat": 38.92962816666667, "fusion_lon": 0.0, "fusion_lat": 0.0, "type": "electric_scooter", "name": "49e23a815d4521ccffbbf4d105f801c0", "is_disabled": 0, "rental_uris": {"ios": "https://dc.lft.to/lastmile_qr_scan", "android": "https://dc.lft.to/lastmile_qr_scan"}, "is_reserved": 0}, {"lon": -77.00050933333333, "bike_id": "4daacecebc8fc2b16c9f1fe2d9cfb5cd", "lat": 38.90813166666667, "fusion_lon": 0.0, "fusion_lat": 0.0, "type": "electric_scooter", "name": "4daacecebc8fc2b16c9f1fe2d9cfb5cd", "is_disabled": 0, "rental_uris": {"ios": "https://dc.lft.to/lastmile_qr_scan", "android": "https://dc.lft.to/lastmile_qr_scan"}, "is_reserved": 0}, {"lon": -77.01205416666667, "bike_id": "82d1a60935ff60cc4ff607666637263f", "lat": 38.88550466666667, "fusion_lon": 0.0, "fusion_lat": 0.0, "type": "electric_scooter", "name": "82d1a60935ff60cc4ff607666637263f", "is_disabled": 0, "rental_uris": {"ios": "https://dc.lft.to/lastmile_qr_scan", "android": "https://dc.lft.to/lastmile_qr_scan"}, "is_reserved": 0}, {"lon": -77.02452433333333, "bike_id": "9482798c5d80f37363b556185c8ee97e", "lat": 38.9382745, "fusion_lon": 0.0, "fusion_lat": 0.0, "type": "electric_scooter", "name": "9482798c5d80f37363b556185c8ee97e", "is_disabled": 0, "rental_uris": {"ios": "https://dc.lft.to/lastmile_qr_scan", "android": "https://dc.lft.to/lastmile_qr_scan"}, "is_reserved": 0}, {"lon": -77.04377883333333, "bike_id": "ae1b465612099dd2e9f7002177a755f3", "lat": 38.905671, "fusion_lon": 0.0, "fusion_lat": 0.0, "type": "electric_scooter", "name": "ae1b465612099dd2e9f7002177a755f3", "is_disabled": 0, "rental_uris": {"ios": "https://dc.lft.to/lastmile_qr_scan", "android": "https://dc.lft.to/lastmile_qr_scan"}, "is_reserved": 0}, {"lon": -77.0300095, "bike_id": "26bddfd088b0016688ece4f2936392de", "lat": 39.04193633333333, "fusion_lon": 0.0, "fusion_lat": 0.0, "type": "electric_bike", "name": "26bddfd088b0016688ece4f2936392de", "is_disabled": 0, "rental_uris": {"ios": "https://dc.lft.to/lastmile_qr_scan", "android": "https://dc.lft.to/lastmile_qr_scan"}, "is_reserved": 0}, {"lon": -77.01977233333334, "bike_id": "ce877abe4d46a07b3f48a1cfa945cd70", "lat": 38.88609616666667, "fusion_lon": 0.0, "fusion_lat": 0.0, "type": "electric_scooter", "name": "ce877abe4d46a07b3f48a1cfa945cd70", "is_disabled": 0, "rental_uris": {"ios": "https://dc.lft.to/lastmile_qr_scan", "android": "https://dc.lft.to/lastmile_qr_scan"}, "is_reserved": 0}, {"lon": -77.02444033333333, "bike_id": "7ce9f771c8ece7f97f28be30ed00441b", "lat": 38.93852016666666, "fusion_lon": 0.0, "fusion_lat": 0.0, "type": "electric_scooter", "name": "7ce9f771c8ece7f97f28be30ed00441b", "is_disabled": 0, "rental_uris": {"ios": "https://dc.lft.to/lastmile_qr_scan", "android": "https://dc.lft.to/lastmile_qr_scan"}, "is_reserved": 0}, {"lon": -77.02485166666666, "bike_id": "eb23b482b30cd124ab41ad379e383c1f", "lat": 38.904074, "fusion_lon": 0.0, "fusion_lat": 0.0, "type": "electric_scooter", "name": "eb23b482b30cd124ab41ad379e383c1f", "is_disabled": 0, "rental_uris": {"ios": "https://dc.lft.to/lastmile_qr_scan", "android": "https://dc.lft.to/lastmile_qr_scan"}, "is_reserved": 0}, {"lon": -77.02802866666667, "bike_id": "8344f7abf10f0d2feb7fdd73ce5bee24", "lat": 38.9113745, "fusion_lon": 0.0, "fusion_lat": 0.0, "type": "electric_scooter", "name": "8344f7abf10f0d2feb7fdd73ce5bee24", "is_disabled": 0, "rental_uris": {"ios": "https://dc.lft.to/lastmile_qr_scan", "android": "https://dc.lft.to/lastmile_qr_scan"}, "is_reserved": 0}, {"lon": -77.0317895, "bike_id": "a9e1edd4952e3761263b4616622257f9", "lat": 38.919179166666666, "fusion_lon": 0.0, "fusion_lat": 0.0, "type": "electric_scooter", "name": "a9e1edd4952e3761263b4616622257f9", "is_disabled": 0, "rental_uris": {"ios": "https://dc.lft.to/lastmile_qr_scan", "android": "https://dc.lft.to/lastmile_qr_scan"}, "is_reserved": 0}, {"lon": -77.03589416666667, "bike_id": "965b681a6e3e67ce4cc67e971a1f3dbb", "lat": 38.909662833333336, "fusion_lon": 0.0, "fusion_lat": 0.0, "type": "electric_scooter", "name": "965b681a6e3e67ce4cc67e971a1f3dbb", "is_disabled": 0, "rental_uris": {"ios": "https://dc.lft.to/lastmile_qr_scan", "android": "https://dc.lft.to/lastmile_qr_scan"}, "is_reserved": 0}, {"lon": -77.00191516666666, "bike_id": "95caf5c6cfe7eeb08825cb716b501faf", "lat": 38.890977, "fusion_lon": 0.0, "fusion_lat": 0.0, "type": "electric_scooter", "name": "95caf5c6cfe7eeb08825cb716b501faf", "is_disabled": 0, "rental_uris": {"ios": "https://dc.lft.to/lastmile_qr_scan", "android": "https://dc.lft.to/lastmile_qr_scan"}, "is_reserved": 0}, {"lon": -77.04992466666667, "bike_id": "5e6cddfed42188bd67b0edc3b878abd0", "lat": 38.9007445, "fusion_lon": 0.0, "fusion_lat": 0.0, "type": "electric_scooter", "name": "5e6cddfed42188bd67b0edc3b878abd0", "is_disabled": 0, "rental_uris": {"ios": "https://dc.lft.to/lastmile_qr_scan", "android": "https://dc.lft.to/lastmile_qr_scan"}, "is_reserved": 0}, {"lon": -77.02681233333334, "bike_id": "650e3740523ea0426fed7d0aa0d951e7", "lat": 38.9025325, "fusion_lon": 0.0, "fusion_lat": 0.0, "type": "electric_scooter", "name": "650e3740523ea0426fed7d0aa0d951e7", "is_disabled": 0, "rental_uris": {"ios": "https://dc.lft.to/lastmile_qr_scan", "android": "https://dc.lft.to/lastmile_qr_scan"}, "is_reserved": 0}, {"lon": -77.04991933333334, "bike_id": "81f10519388116326b945ecace56a3c0", "lat": 38.89996, "fusion_lon": 0.0, "fusion_lat": 0.0, "type": "electric_scooter", "name": "81f10519388116326b945ecace56a3c0", "is_disabled": 0, "rental_uris": {"ios": "https://dc.lft.to/lastmile_qr_scan", "android": "https://dc.lft.to/lastmile_qr_scan"}, "is_reserved": 0}, {"lon": -77.02527083333334, "bike_id": "768a5b0a1aa5c5dcacb2ab08c8371e95", "lat": 38.92086066666667, "fusion_lon": 0.0, "fusion_lat": 0.0, "type": "electric_scooter", "name": "768a5b0a1aa5c5dcacb2ab08c8371e95", "is_disabled": 0, "rental_uris": {"ios": "https://dc.lft.to/lastmile_qr_scan", "android": "https://dc.lft.to/lastmile_qr_scan"}, "is_reserved": 0}, {"lon": -77.07796833333333, "bike_id": "2e4a86dff3dbb516a2e98bb8f61ce7e5", "lat": 38.99603366666667, "fusion_lon": 0.0, "fusion_lat": 0.0, "type": "electric_bike", "name": "2e4a86dff3dbb516a2e98bb8f61ce7e5", "is_disabled": 0, "rental_uris": {"ios": "https://dc.lft.to/lastmile_qr_scan", "android": "https://dc.lft.to/lastmile_qr_scan"}, "is_reserved": 0}, {"lon": -77.024262, "bike_id": "69195afa2758f83501c1d725ed3aeedb", "lat": 38.922878, "fusion_lon": 0.0, "fusion_lat": 0.0, "type": "electric_scooter", "name": "69195afa2758f83501c1d725ed3aeedb", "is_disabled": 0, "rental_uris": {"ios": "https://dc.lft.to/lastmile_qr_scan", "android": "https://dc.lft.to/lastmile_qr_scan"}, "is_reserved": 0}, {"lon": -76.953313, "bike_id": "82b20e41313ff38f6bf07ab9b34ddf94", "lat": 38.889331166666665, "fusion_lon": 0.0, "fusion_lat": 0.0, "type": "electric_scooter", "name": "82b20e41313ff38f6bf07ab9b34ddf94", "is_disabled": 0, "rental_uris": {"ios": "https://dc.lft.to/lastmile_qr_scan", "android": "https://dc.lft.to/lastmile_qr_scan"}, "is_reserved": 0}, {"lon": -77.06134616666667, "bike_id": "13f59fb8c6742a806ec04c36b0ce04f7", "lat": 38.94356366666667, "fusion_lon": 0.0, "fusion_lat": 0.0, "type": "electric_scooter", "name": "13f59fb8c6742a806ec04c36b0ce04f7", "is_disabled": 0, "rental_uris": {"ios": "https://dc.lft.to/lastmile_qr_scan", "android": "https://dc.lft.to/lastmile_qr_scan"}, "is_reserved": 0}, {"lon": -76.9783405, "bike_id": "b3d31a91b4e3e3073c1183d56391a43e", "lat": 38.89911933333333, "fusion_lon": 0.0, "fusion_lat": 0.0, "type": "electric_scooter", "name": "b3d31a91b4e3e3073c1183d56391a43e", "is_disabled": 0, "rental_uris": {"ios": "https://dc.lft.to/lastmile_qr_scan", "android": "https://dc.lft.to/lastmile_qr_scan"}, "is_reserved": 0}, {"lon": -77.03254966666667, "bike_id": "dda4587d43216a38d570d74fd094c528", "lat": 38.90972466666667, "fusion_lon": 0.0, "fusion_lat": 0.0, "type": "electric_scooter", "name": "dda4587d43216a38d570d74fd094c528", "is_disabled": 0, "rental_uris": {"ios": "https://dc.lft.to/lastmile_qr_scan", "android": "https://dc.lft.to/lastmile_qr_scan"}, "is_reserved": 0}, {"lon": -77.04336666666667, "bike_id": "171d16a90c3c793a974c1a140048a2d3", "lat": 38.907756166666665, "fusion_lon": 0.0, "fusion_lat": 0.0, "type": "electric_scooter", "name": "171d16a90c3c793a974c1a140048a2d3", "is_disabled": 0, "rental_uris": {"ios": "https://dc.lft.to/lastmile_qr_scan", "android": "https://dc.lft.to/lastmile_qr_scan"}, "is_reserved": 0}, {"lon": -76.95533883333333, "bike_id": "47cf20f843eec89e83ee2ae68148c93d", "lat": 38.8887505, "fusion_lon": 0.0, "fusion_lat": 0.0, "type": "electric_scooter", "name": "47cf20f843eec89e83ee2ae68148c93d", "is_disabled": 0, "rental_uris": {"ios": "https://dc.lft.to/lastmile_qr_scan", "android": "https://dc.lft.to/lastmile_qr_scan"}, "is_reserved": 0}, {"lon": -77.04099583333333, "bike_id": "8d839ff189404e0c0288e714ef7096cc", "lat": 38.908691166666664, "fusion_lon": 0.0, "fusion_lat": 0.0, "type": "electric_scooter", "name": "8d839ff189404e0c0288e714ef7096cc", "is_disabled": 0, "rental_uris": {"ios": "https://dc.lft.to/lastmile_qr_scan", "android": "https://dc.lft.to/lastmile_qr_scan"}, "is_reserved": 0}, {"lon": -77.03661883333334, "bike_id": "8d9cc23922ff9326669203d9f6a730e4", "lat": 38.93210916666666, "fusion_lon": 0.0, "fusion_lat": 0.0, "type": "electric_scooter", "name": "8d9cc23922ff9326669203d9f6a730e4", "is_disabled": 0, "rental_uris": {"ios": "https://dc.lft.to/lastmile_qr_scan", "android": "https://dc.lft.to/lastmile_qr_scan"}, "is_reserved": 0}, {"lon": -76.99869033333333, "bike_id": "a0f52a1a7def43494d844e5f4c5f00a0", "lat": 38.90027166666667, "fusion_lon": 0.0, "fusion_lat": 0.0, "type": "electric_scooter", "name": "a0f52a1a7def43494d844e5f4c5f00a0", "is_disabled": 0, "rental_uris": {"ios": "https://dc.lft.to/lastmile_qr_scan", "android": "https://dc.lft.to/lastmile_qr_scan"}, "is_reserved": 0},