{"data": {"bikes": [{"is_reserved": 0, "fusion_lon": 0.0, "fusion_lat": 0.0, "name": "4fa7ad9bd32ffcc63f0bace28ba6da83", "type": "electric_scooter", "is_disabled": 0, "lat": 38.89987283333333, "rental_uris": {"android": "https://dc.lft.to/lastmile_qr_scan", "ios": "https://dc.lft.to/lastmile_qr_scan"}, "bike_id": "4fa7ad9bd32ffcc63f0bace28ba6da83", "lon": -77.04032066666667}, {"is_reserved": 0, "fusion_lon": 0.0, "fusion_lat": 0.0, "name": "2ef0b97d4adaedae5a5a5c3ad1f18904", "type": "electric_scooter", "is_disabled": 0, "lat": 38.909206166666664, "rental_uris": {"android": "https://dc.lft.to/lastmile_qr_scan", "ios": "https://dc.lft.to/lastmile_qr_scan"}, "bike_id": "2ef0b97d4adaedae5a5a5c3ad1f18904", "lon": -77.07270216666667}, {"is_reserved": 0, "fusion_lon": 0.0, "fusion_lat": 0.0, "name": "2390dfc6b96316022ed2f62147b7da3b", "type": "electric_scooter", "is_disabled": 0, "lat": 38.9046275, "rental_uris": {"android": "https://dc.lft.to/lastmile_qr_scan", "ios": "https://dc.lft.to/lastmile_qr_scan"}, "bike_id": "2390dfc6b96316022ed2f62147b7da3b", "lon": -77.039104}, {"is_reserved": 0, "fusion_lon": 0.0, "fusion_lat": 0.0, "name": "2b51841c3e73be9e3fdac5f2805fd490", "type": "electric_scooter", "is_disabled": 0, "lat": 38.867312166666665, "rental_uris": {"android": "https://dc.lft.to/lastmile_qr_scan", "ios": "https://dc.lft.to/lastmile_qr_scan"}, "bike_id": "2b51841c3e73be9e3fdac5f2805fd490", "lon": -76.987818}, {"is_reserved": 0, "fusion_lon": 0.0, "fusion_lat": 0.0, "name": "520466085f26118058f4706c75e24a76", "type": "electric_scooter", "is_disabled": 0, "lat": 38.86699333333333, "rental_uris": {"android": "https://dc.lft.to/lastmile_qr_scan", "ios": "https://dc.lft.to/lastmile_qr_scan"}, "bike_id": "520466085f26118058f4706c75e24a76", "lon": -76.98710033333333}, {"is_reserved": 0, "fusion_lon": 0.0, "fusion_lat": 0.0, "name": "8ef8761689c5d4fd9b16b42aa285a2b1", "type": "electric_bike", "is_disabled": 0, "lat": 38.880518, "rental_uris": {"android": "https://dc.lft.to/lastmile_qr_scan", "ios": "https://dc.lft.to/lastmile_qr_scan"}, "bike_id": "8ef8761689c5d4fd9b16b42aa285a2b1", "lon": -77.01125266666666}, {"is_reserved": 0, "fusion_lon": 0.0, "fusion_lat": 0.0, "name": "700b9b621de5278fc44b5c8349d366a5", "type": "electric_scooter", "is_disabled": 0, "lat": 38.89366366666667, "rental_uris": {"android": "https://dc.lft.to/lastmile_qr_scan", "ios": "https://dc.lft.to/lastmile_qr_scan"}, "bike_id": "700b9b621de5278fc44b5c8349d366a5", "lon": -77.03189366666666}, {"is_reserved": 0, "fusion_lon": 0.0, "fusion_lat": 0.0, "name": "238626988b542ccb441b302da3db8c47", "type": "electric_scooter", "is_disabled": 0, "lat": 38.82386133333333, "rental_uris": {"android": "https://dc.lft.to/lastmile_qr_scan", "ios": "https://dc.lft.to/lastmile_qr_scan"}, "bike_id": "238626988b542ccb441b302da3db8c47", "lon": -77.01189016666666}, {"is_reserved": 0, "fusion_lon": 0.0, "fusion_lat": 0.0, "name": "bb06b71789362db2be68c34b1a3be7a5", "type": "electric_scooter", "is_disabled": 0, "lat": 38.9243555, "rental_uris": {"android": "https://dc.lft.to/lastmile_qr_scan", "ios": "https://dc.lft.to/lastmile_qr_scan"}, "bike_id": "bb06b71789362db2be68c34b1a3be7a5", "lon": -77.035523}, {"is_reserved": 0, "fusion_lon": 0.0, "fusion_lat": 0.0, "name": "d8d659938fb41f1c40349cbbd3b4378a", "type": "electric_scooter", "is_disabled": 0, "lat": 38.90004916666667, "rental_uris": {"android": "https://dc.lft.to/lastmile_qr_scan", "ios": "https://dc.lft.to/lastmile_qr_scan"}, "bike_id": "d8d659938fb41f1c40349cbbd3b4378a", "lon": -76.998392}, {"is_reserved": 0, "fusion_lon": 0.0, "fusion_lat": 0.0, "name": "5ad39f63b4816a2b492ecec754ea373a", "type": "electric_scooter", "is_disabled": 0, "lat": 38.88738816666667, "rental_uris": {"android": "https://dc.lft.to/lastmile_qr_scan", "ios": "https://dc.lft.to/lastmile_qr_scan"}, "bike_id": "5ad39f63b4816a2b492ecec754ea373a", "lon": -77.0317705}, {"is_reserved": 0, "fusion_lon": 0.0, "fusion_lat": 0.0, "name": "06ab0528f36bacabc6b46baf87764663", "type": "electric_scooter", "is_disabled": 0, "lat": 38.89946583333333, "rental_uris": {"android": "https://dc.lft.to/lastmile_qr_scan", "ios": "https://dc.lft.to/lastmile_qr_scan"}, "bike_id": "06ab0528f36bacabc6b46baf87764663", "lon": -77.0167285}, {"is_reserved": 0, "fusion_lon": 0.0, "fusion_lat": 0.0, "name": "a8cddb13517b91d243210ba0f3af2568", "type": "electric_scooter", "is_disabled": 0, "lat": 38.931735833333335, "rental_uris": {"android": "https://dc.lft.to/lastmile_qr_scan", "ios": "https://dc.lft.to/lastmile_qr_scan"}, "bike_id": "a8cddb13517b91d243210ba0f3af2568", "lon": -76.99608733333334}, {"is_reserved": 0, "fusion_lon": 0.0, "fusion_lat": 0.0, "name": "2bc45a0957e730f8dbc82949200ff0bd", "type": "electric_scooter", "is_disabled": 0, "lat": 38.924913, "rental_uris": {"android": "https://dc.lft.to/lastmile_qr_scan", "ios": "https://dc.lft.to/lastmile_qr_scan"}, "bike_id": "2bc45a0957e730f8dbc82949200ff0bd", "lon": -77.02139066666666}, {"is_reserved": 0, "fusion_lon": 0.0, "fusion_lat": 0.0, "name": "70445f03e0087135768e88bfa2fa2033", "type": "electric_scooter", "is_disabled": 0, "lat": 38.9101815, "rental_uris": {"android": "https://dc.lft.to/lastmile_qr_scan", "ios": "https://dc.lft.to/lastmile_qr_scan"}, "bike_id": "70445f03e0087135768e88bfa2fa2033", "lon": -77.064852}, {"is_reserved": 0, "fusion_lon": 0.0, "fusion_lat": 0.0, "name": "fe0d80c293eaca091c6616dd62ac18cf", "type": "electric_scooter", "is_disabled": 0, "lat": 38.89542633333333, "rental_uris": {"android": "https://dc.lft.to/lastmile_qr_scan", "ios": "https://dc.lft.to/lastmile_qr_scan"}, "bike_id": "fe0d80c293eaca091c6616dd62ac18cf", "lon": -77.028666}, {"is_reserved": 0, "fusion_lon": 0.0, "fusion_lat": 0.0, "name": "2a69244e038f0eee940ce2075b03ae1d", "type": "electric_scooter", "is_disabled": 0, "lat": 38.91113, "rental_uris": {"android": "https://dc.lft.to/lastmile_qr_scan", "ios": "https://dc.lft.to/lastmile_qr_scan"}, "bike_id": "2a69244e038f0eee940ce2075b03ae1d", "lon": -77.02079616666667}, {"is_reserved": 0, "fusion_lon": 0.0, "fusion_lat": 0.0, "name": "6f81354d328a019114e1a3999702acee", "type": "electric_scooter", "is_disabled": 0, "lat": 38.92573766666667, "rental_uris": {"android": "https://dc.lft.to/lastmile_qr_scan", "ios": "https://dc.lft.to/lastmile_qr_scan"}, "bike_id": "6f81354d328a019114e1a3999702acee", "lon": -77.05286583333333}, {"is_reserved": 0, "fusion_lon": 0.0, "fusion_lat": 0.0, "name": "bef10219b16f4b3b84955a99ebf18b45", "type": "electric_scooter", "is_disabled": 0, "lat": 38.91490916666667, "rental_uris": {"android": "https://dc.lft.to/lastmile_qr_scan", "ios": "https://dc.lft.to/lastmile_qr_scan"}, "bike_id": "bef10219b16f4b3b84955a99ebf18b45", "lon": -77.021869}, {"is_reserved": 0, "fusion_lon": 0.0, "fusion_lat": 0.0, "name": "3c24b08d9a707c97fbf2b6ce36878f41", "type": "electric_bike", "is_disabled": 0, "lat": 38.996281333333336, "rental_uris": {"android": "https://dc.lft.to/lastmile_qr_scan", "ios": "https://dc.lft.to/lastmile_qr_scan"}, "bike_id": "3c24b08d9a707c97fbf2b6ce36878f41", "lon": -77.04017566666667}, {"is_reserved": 0, "fusion_lon": 0.0, "fusion_lat": 0.0, "name": "a293fbe4b0ece594440b151ee4055b9a", "type": "electric_scooter", "is_disabled": 0, "lat": 38.897126, "rental_uris": {"android": "https://dc.lft.to/lastmile_qr_scan", "ios": "https://dc.lft.to/lastmile_qr_scan"}, "bike_id": "a293fbe4b0ece594440b151ee4055b9a", "lon": -77.03085983333334}, {"is_reserved": 0, "fusion_lon": 0.0, "fusion_lat": 0.0, "name": "500c6baf7afcfec9c7e10dadb8fffdb8", "type": "electric_scooter", "is_disabled": 0, "lat": 38.891840333333334, "rental_uris": {"android": "https://dc.lft.to/lastmile_qr_scan", "ios": "https://dc.lft.to/lastmile_qr_scan"}, "bike_id": "500c6baf7afcfec9c7e10dadb8fffdb8", "lon": -77.03642066666667}, {"is_reserved": 0, "fusion_lon": 0.0, "fusion_lat": 0.0, "name": "e4ac18dbe5d5fa004e2b65b91d242d56", "type": "electric_scooter", "is_disabled": 0, "lat": 38.90511266666667, "rental_uris": {"android": "https://dc.lft.to/lastmile_qr_scan", "ios": "https://dc.lft.to/lastmile_qr_scan"}, "bike_id": "e4ac18dbe5d5fa004e2b65b91d242d56", "lon": -77.04660333333334}, {"is_reserved": 0, "fusion_lon": 0.0, "fusion_lat": 0.0, "name": "5bb449c2cd0b399501570a5c9ad38e83", "type": "electric_scooter", "is_disabled": 0, "lat": 38.90083, "rental_uris": {"android": "https://dc.lft.to/lastmile_qr_scan", "ios": "https://dc.lft.to/lastmile_qr_scan"}, "bike_id": "5bb449c2cd0b399501570a5c9ad38e83", "lon": -76.93871583333333}, {"is_reserved": 0, "fusion_lon": 0.0, "fusion_lat": 0.0, "name": "c51a337129360e53a8ab553a0f177089", "type": "electric_scooter", "is_disabled": 0, "lat": 38.918998, "rental_uris": {"android": "https://dc.lft.to/lastmile_qr_scan", "ios": "https://dc.lft.to/lastmile_qr_scan"}, "bike_id": "c51a337129360e53a8ab553a0f177089", "lon": -76.98743083333333}, {"is_reserved": 0, "fusion_lon": 0.0, "fusion_lat": 0.0, "name": "17898d1b09e1183a67b7dc726bfcc060", "type": "electric_scooter", "is_disabled": 0, "lat": 38.907722, "rental_uris": {"android": "https://dc.lft.to/lastmile_qr_scan", "ios": "https://dc.lft.to/lastmile_qr_scan"}, "bike_id": "17898d1b09e1183a67b7dc726bfcc060", "lon": -76.97829466666667}, {"is_reserved": 0, "fusion_lon": 0.0, "fusion_lat": 0.0, "name": "683cb804eb17a2a75ad151614a5c5321", "type": "electric_scooter", "is_disabled": 0, "lat": 38.925632, "rental_uris": {"android": "https://dc.lft.to/lastmile_qr_scan", "ios": "https://dc.lft.to/lastmile_qr_scan"}, "bike_id": "683cb804eb17a2a75ad151614a5c5321", "lon": -77.03781616666667}, {"is_reserved": 0, "fusion_lon": 0.0, "fusion_lat": 0.0, "name": "06edb8a97c3359d8e4b16b49844a31e0", "type": "electric_scooter", "is_disabled": 0, "lat": 38.917003, "rental_uris": {"android": "https://dc.lft.to/lastmile_qr_scan", "ios": "https://dc.lft.to/lastmile_qr_scan"}, "bike_id": "06edb8a97c3359d8e4b16b49844a31e0", "lon": -77.02374516666667}, {"is_reserved": 0, "fusion_lon": 0.0, "fusion_lat": 0.0, "name": "74e1af6f9fb7a705e2f2b625f7d1838e", "type": "electric_scooter", "is_disabled": 0, "lat": 38.88853433333333, "rental_uris": {"android": "https://dc.lft.to/lastmile_qr_scan", "ios": "https://dc.lft.to/lastmile_qr_scan"}, "bike_id": "74e1af6f9fb7a705e2f2b625f7d1838e", "lon": -77.0310155}, {"is_reserved": 0, "fusion_lon": 0.0, "fusion_lat": 0.0, "name": "239d408864bf999f6323f1502e62cc52", "type": "electric_bike", "is_disabled": 0, "lat": 38.91396266666667, "rental_uris": {"android": "https://dc.lft.to/lastmile_qr_scan", "ios": "https://dc.lft.to/lastmile_qr_scan"}, "bike_id": "239d408864bf999f6323f1502e62cc52", "lon": -77.0893175}, {"is_reserved": 0, "fusion_lon": 0.0, "fusion_lat": 0.0, "name": "7f86450b474ede095492faff0cdc8e8a", "type": "electric_scooter", "is_disabled": 0, "lat": 38.879756666666665, "rental_uris": {"android": "https://dc.lft.to/lastmile_qr_scan", "ios": "https://dc.lft.to/lastmile_qr_scan"}, "bike_id": "7f86450b474ede095492faff0cdc8e8a", "lon": -77.01377933333333}, {"is_reserved": 0, "fusion_lon": 0.0, "fusion_lat": 0.0, "name": "ecc9bac2fad896e3c1607629e7712506", "type": "electric_scooter", "is_disabled": 0, "lat": 38.90820016666667, "rental_uris": {"android": "https://dc.lft.to/lastmile_qr_scan", "ios": "https://dc.lft.to/lastmile_qr_scan"}, "bike_id": "ecc9bac2fad896e3c1607629e7712506", "lon": -77.036558}, {"is_reserved": 0, "fusion_lon": 0.0, "fusion_lat": 0.0, "name": "0d34f70a20c858d751d5e5d102b61f30", "type": "electric_scooter", "is_disabled": 0, "lat": 38.844301, "rental_uris": {"android": "https://dc.lft.to/lastmile_qr_scan", "ios": "https://dc.lft.to/lastmile_qr_scan"}, "bike_id": "0d34f70a20c858d751d5e5d102b61f30", "lon": -76.99813183333333}, {"is_reserved": 0, "fusion_lon": 0.0, "fusion_lat": 0.0, "name": "c37d323b99224f3556170cbc483edea3", "type": "electric_scooter", "is_disabled": 0, "lat": 38.902620666666664, "rental_uris": {"android": "https://dc.lft.to/lastmile_qr_scan", "ios": "https://dc.lft.to/lastmile_qr_scan"}, "bike_id": "c37d323b99224f3556170cbc483edea3", "lon": -77.061264}, {"is_reserved": 0, "fusion_lon": 0.0, "fusion_lat": 0.0, "name": "5afcc017a21c80cbb96ada96446de3ad", "type": "electric_scooter", "is_disabled": 0, "lat": 38.94837033333334, "rental_uris": {"android": "https://dc.lft.to/lastmile_qr_scan", "ios": "https://dc.lft.to/lastmile_qr_scan"}, "bike_id": "5afcc017a21c80cbb96ada96446de3ad", "lon": -77.02540033333334}, {"is_reserved": 0, "fusion_lon": 0.0, "fusion_lat": 0.0, "name": "820de2958c2ca31c4581c3abaabe91b8", "type": "electric_scooter", "is_disabled": 0, "lat": 38.949587333333334, "rental_uris": {"android": "https://dc.lft.to/lastmile_qr_scan", "ios": "https://dc.lft.to/lastmile_qr_scan"}, "bike_id": "820de2958c2ca31c4581c3abaabe91b8", "lon": -77.02722516666667}, {"is_reserved": 0, "fusion_lon": 0.0, "fusion_lat": 0.0, "name": "b68e6da77ad6e07119984735bc53daa3", "type": "electric_scooter", "is_disabled": 0, "lat": 38.9072045, "rental_uris": {"android": "https://dc.lft.to/lastmile_qr_scan", "ios": "https://dc.lft.to/lastmile_qr_scan"}, "bike_id": "b68e6da77ad6e07119984735bc53daa3", "lon": -77.07429466666666}, {"is_reserved": 0, "fusion_lon": 0.0, "fusion_lat": 0.0, "name": "a92265fa13ffe7d277805a76ff06788b", "type": "electric_scooter", "is_disabled": 0, "lat": 38.935018, "rental_uris": {"android": "https://dc.lft.to/lastmile_qr_scan", "ios": "https://dc.lft.to/lastmile_qr_scan"}, "bike_id": "a92265fa13ffe7d277805a76ff06788b", "lon": -77.03631516666667}, {"is_reserved": 0, "fusion_lon": 0.0, "fusion_lat": 0.0, "name": "1d357f66d0f7d1ca6cf17df431ae9afe", "type": "electric_bike", "is_disabled": 0, "lat": 38.83428833333333, "rental_uris": {"android": "https://dc.lft.to/lastmile_qr_scan", "ios": "https://dc.lft.to/lastmile_qr_scan"}, "bike_id": "1d357f66d0f7d1ca6cf17df431ae9afe", "lon": -77.10348966666666}, {"is_reserved": 0, "fusion_lon": 0.0, "fusion_lat": 0.0, "name": "31ba2b4d9b8ebcbb9befc4eeca5d7a1c", "type": "electric_scooter", "is_disabled": 0, "lat": 38.95670716666667, "rental_uris": {"android": "https://dc.lft.to/lastmile_qr_scan", "ios": "https://dc.lft.to/lastmile_qr_scan"}, "bike_id": "31ba2b4d9b8ebcbb9befc4eeca5d7a1c", "lon": -77.01042466666667}, {"is_reserved": 0, "fusion_lon": 0.0, "fusion_lat": 0.0, "name": "675548efad7d05a8b3d7c623813faafd", "type": "electric_scooter", "is_disabled": 0, "lat": 38.91356483333333, "rental_uris": {"android": "https://dc.lft.to/lastmile_qr_scan", "ios": "https://dc.lft.to/lastmile_qr_scan"}, "bike_id": "675548efad7d05a8b3d7c623813faafd", "lon": -77.029518}, {"is_reserved": 0, "fusion_lon": 0.0, "fusion_lat": 0.0, "name": "6e93a1a110c9aa77cf9af8ba57fe310e", "type": "electric_scooter", "is_disabled": 0, "lat": 38.908755666666664, "rental_uris": {"android": "https://dc.lft.to/lastmile_qr_scan", "ios": "https://dc.lft.to/lastmile_qr_scan"}, "bike_id": "6e93a1a110c9aa77cf9af8ba57fe310e", "lon": -77.0717035}, {"is_reserved": 0, "fusion_lon": 0.0, "fusion_lat": 0.0, "name": "8b9d9a5e196ed45e1a8bc8d6d16b3c96", "type": "electric_scooter", "is_disabled": 0, "lat": 38.9388855, "rental_uris": {"android": "https://dc.lft.to/lastmile_qr_scan", "ios": "https://dc.lft.to/lastmile_qr_scan"}, "bike_id": "8b9d9a5e196ed45e1a8bc8d6d16b3c96", "lon": -77.03323816666666}, {"is_reserved": 0, "fusion_lon": 0.0, "fusion_lat": 0.0, "name": "5323476ce651e620d539dc8385a28f4e", "type": "electric_scooter", "is_disabled": 0, "lat": 38.909599, "rental_uris": {"android": "https://dc.lft.to/lastmile_qr_scan", "ios": "https://dc.lft.to/lastmile_qr_scan"}, "bike_id": "5323476ce651e620d539dc8385a28f4e", "lon": -77.02215416666667}, {"is_reserved": 0, "fusion_lon": 0.0, "fusion_lat": 0.0, "name": "e3909fd9a3b0d6ed873bb054f1b4e408", "type": "electric_scooter", "is_disabled": 0, "lat": 38.90240216666667, "rental_uris": {"android": "https://dc.lft.to/lastmile_qr_scan", "ios": "https://dc.lft.to/lastmile_qr_scan"}, "bike_id": "e3909fd9a3b0d6ed873bb054f1b4e408", "lon": -76.989674}, {"is_reserved": 0, "fusion_lon": 0.0, "fusion_lat": 0.0, "name": "0bf0d3fc5b2ff602643387f04c6e0657", "type": "electric_bike", "is_disabled": 0, "lat": 38.842795333333335, "rental_uris": {"android": "https://dc.lft.to/lastmile_qr_scan", "ios": "https://dc.lft.to/lastmile_qr_scan"}, "bike_id": "0bf0d3fc5b2ff602643387f04c6e0657", "lon": -76.98836733333333}, {"is_reserved": 0, "fusion_lon": 0.0, "fusion_lat": 0.0, "name": "eded9dd82dd7a2a7ae0be4eda3181e18", "type": "electric_scooter", "is_disabled": 0, "lat": 38.90879433333333, "rental_uris": {"android": "https://dc.lft.to/lastmile_qr_scan", "ios": "https://dc.lft.to/lastmile_qr_scan"}, "bike_id": "eded9dd82dd7a2a7ae0be4eda3181e18", "lon": -77.00243916666666}, {"is_reserved": 0, "fusion_lon": 0.0, "fusion_lat": 0.0, "name": "090190c2d4decd1759701ade7cee2733", "type": "electric_scooter", "is_disabled": 0, "lat": 38.863556, "rental_uris": {"android": "https://dc.lft.to/lastmile_qr_scan", "ios": "https://dc.lft.to/lastmile_qr_scan"}, "bike_id": "090190c2d4decd1759701ade7cee2733", "lon": -76.99065283333333}, {"is_reserved": 0, "fusion_lon": 0.0, "fusion_lat": 0.0, "name": "206ebc846d9371d565c11f2697d26436", "type": "electric_scooter", "is_disabled": 0, "lat": 38.90125, "rental_uris": {"android": "https://dc.lft.to/lastmile_qr_scan", "ios": "https://dc.lft.to/lastmile_qr_scan"}, "bike_id": "206ebc846d9371d565c11f2697d26436", "lon": -77.04024433333333}, {"is_reserved": 0, "fusion_lon": 0.0, "fusion_lat": 0.0, "name": "6fad11994c589ae8f525b0e2882da5fa", "type": "electric_scooter", "is_disabled": 0, "lat": 38.91549416666667, "rental_uris": {"android": "https://dc.lft.to/lastmile_qr_scan", "ios": "https://dc.lft.to/lastmile_qr_scan"}, "bike_id": "6fad11994c589ae8f525b0e2882da5fa", "lon": -77.02365916666666}, {"is_reserved": 0, "fusion_lon": 0.0, "fusion_lat": 0.0, "name": "08227a159e163c5c27e55553256099fb", "type": "electric_scooter", "is_disabled": 0, "lat": 38.90981516666667, "rental_uris": {"android": "https://dc.lft.to/lastmile_qr_scan", "ios": "https://dc.lft.to/lastmile_qr_scan"}, "bike_id": "08227a159e163c5c27e55553256099fb", "lon": -77.03384633333333}, {"is_reserved": 0, "fusion_lon": 0.0, "fusion_lat": 0.0, "name": "689a3e5796c63824a75b56590dcbf7bf", "type": "electric_scooter", "is_disabled": 0, "lat": 38.92120166666667, "rental_uris": {"android": "https://dc.lft.to/lastmile_qr_scan", "ios": "https://dc.lft.to/lastmile_qr_scan"}, "bike_id": "689a3e5796c63824a75b56590dcbf7bf", "lon": -77.03182683333333}, {"is_reserved": 0, "fusion_lon": 0.0, "fusion_lat": 0.0, "name": "60b2c517fa8a6d96845ab0121c90431c", "type": "electric_scooter", "is_disabled": 0, "lat": 38.90830233333333, "rental_uris": {"android": "https://dc.lft.to/lastmile_qr_scan", "ios": "https://dc.lft.to/lastmile_qr_scan"}, "bike_id": "60b2c517fa8a6d96845ab0121c90431c", "lon": -77.04291833333333}, {"is_reserved": 0, "fusion_lon": 0.0, "fusion_lat": 0.0, "name": "e2f9352447bf15ea86da0d31b348ee01", "type": "electric_scooter", "is_disabled": 0, "lat": 38.930895, "rental_uris": {"android": "https://dc.lft.to/lastmile_qr_scan", "ios": "https://dc.lft.to/lastmile_qr_scan"}, "bike_id": "e2f9352447bf15ea86da0d31b348ee01", "lon": -77.03630316666667}, {"is_reserved": 0, "fusion_lon": 0.0, "fusion_lat": 0.0, "name": "dd8d2db19582673f3c3f29d434f6027c", "type": "electric_scooter", "is_disabled": 0, "lat": 38.9000345, "rental_uris": {"android": "https://dc.lft.to/lastmile_qr_scan", "ios": "https://dc.lft.to/lastmile_qr_scan"}, "bike_id": "dd8d2db19582673f3c3f29d434f6027c", "lon": -76.998412}, {"is_reserved": 0, "fusion_lon": 0.0, "fusion_lat": 0.0, "name": "38792571752e5dd7561c228f04dc586f", "type": "electric_scooter", "is_disabled": 0, "lat": 38.8873295, "rental_uris": {"android": "https://dc.lft.to/lastmile_qr_scan", "ios": "https://dc.lft.to/lastmile_qr_scan"}, "bike_id": "38792571752e5dd7561c228f04dc586f", "lon": -77.01744}, {"is_reserved": 0, "fusion_lon": 0.0, "fusion_lat": 0.0, "name": "e9ddc295f7858fe3c5c9b59181cd9fe6", "type": "electric_scooter", "is_disabled": 0, "lat": 38.9015015, "rental_uris": {"android": "https://dc.lft.to/lastmile_qr_scan", "ios": "https://dc.lft.to/lastmile_qr_scan"}, "bike_id": "e9ddc295f7858fe3c5c9b59181cd9fe6", "lon": -77.03957233333334}, {"is_reserved": 0, "fusion_lon": 0.0, "fusion_lat": 0.0, "name": "fd94e202c6db3fc4e5fdd35e1bbbb2c2", "type": "electric_scooter", "is_disabled": 0, "lat": 38.8808915, "rental_uris": {"android": "https://dc.lft.to/lastmile_qr_scan", "ios": "https://dc.lft.to/lastmile_qr_scan"}, "bike_id": "fd94e202c6db3fc4e5fdd35e1bbbb2c2", "lon": -76.98513833333334}, {"is_reserved": 0, "fusion_lon": 0.0, "fusion_lat": 0.0, "name": "3b67bf7bd2367d9f6e9f7c776d157a99", "type": "electric_scooter", "is_disabled": 0, "lat": 38.887677333333336, "rental_uris": {"android": "https://dc.lft.to/lastmile_qr_scan", "ios": "https://dc.lft.to/lastmile_qr_scan"}, "bike_id": "3b67bf7bd2367d9f6e9f7c776d157a99", "lon": -77.01773566666667}, {"is_reserved": 0, "fusion_lon": 0.0, "fusion_lat": 0.0, "name": "5aa35edf7147b278e06ae97a08ee7f61", "type": "electric_scooter", "is_disabled": 0, "lat": 38.926447, "rental_uris": {"android": "https://dc.lft.to/lastmile_qr_scan", "ios": "https://dc.lft.to/lastmile_qr_scan"}, "bike_id": "5aa35edf7147b278e06ae97a08ee7f61", "lon": -77.04135116666667}, {"is_reserved": 0, "fusion_lon": 0.0, "fusion_lat": 0.0, "name": "403cc725966e68b39d6ef6a61e375b06", "type": "electric_scooter", "is_disabled": 0, "lat": 38.91938233333333, "rental_uris": {"android": "https://dc.lft.to/lastmile_qr_scan", "ios": "https://dc.lft.to/lastmile_qr_scan"}, "bike_id": "403cc725966e68b39d6ef6a61e375b06", "lon": -77.01796933333334}, {"is_reserved": 0, "fusion_lon": 0.0, "fusion_lat": 0.0, "name": "8872bef9b93f654ffaa33022b7c980a3", "type": "electric_scooter", "is_disabled": 0, "lat": 38.93231633333333, "rental_uris": {"android": "https://dc.lft.to/lastmile_qr_scan", "ios": "https://dc.lft.to/lastmile_qr_scan"}, "bike_id": "8872bef9b93f654ffaa33022b7c980a3", "lon": -77.03876866666667}, {"is_reserved": 0, "fusion_lon": 0.0, "fusion_lat": 0.0, "name": "5e722d6ac553917da14584ee3e9ea727", "type": "electric_scooter", "is_disabled": 0, "lat": 38.921726666666665, "rental_uris": {"android": "https://dc.lft.to/lastmile_qr_scan", "ios": "https://dc.lft.to/lastmile_qr_scan"}, "bike_id": "5e722d6ac553917da14584ee3e9ea727", "lon": -77.02102416666666}, {"is_reserved": 0, "fusion_lon": 0.0, "fusion_lat": 0.0, "name": "e9bb32f92f981877b092c48dfd916480", "type": "electric_scooter", "is_disabled": 0, "lat": 38.891420333333336, "rental_uris": {"android": "https://dc.lft.to/lastmile_qr_scan", "ios": "https://dc.lft.to/lastmile_qr_scan"}, "bike_id": "e9bb32f92f981877b092c48dfd916480", "lon": -76.983828}, {"is_reserved": 0, "fusion_lon": 0.0, "fusion_lat": 0.0, "name": "bd110d8ce8f25fd69050d51ae797364d", "type": "electric_scooter", "is_disabled": 0, "lat": 38.9216655, "rental_uris": {"android": "https://dc.lft.to/lastmile_qr_scan", "ios": "https://dc.lft.to/lastmile_qr_scan"}, "bike_id": "bd110d8ce8f25fd69050d51ae797364d", "lon": -77.0210995}, {"is_reserved": 0, "fusion_lon": 0.0, "fusion_lat": 0.0, "name": "028bb98cb089da0abb96432a2b08d79f", "type": "electric_scooter", "is_disabled": 0, "lat": 38.899887, "rental_uris": {"android": "https://dc.lft.to/lastmile_qr_scan", "ios": "https://dc.lft.to/lastmile_qr_scan"}, "bike_id": "028bb98cb089da0abb96432a2b08d79f", "lon": -76.988339}, {"is_reserved": 0, "fusion_lon": 0.0, "fusion_lat": 0.0, "name": "93f993221e8cca3bfa69e9642e0fe638", "type": "electric_scooter", "is_disabled": 0, "lat": 38.9323085, "rental_uris": {"android": "https://dc.lft.to/lastmile_qr_scan", "ios": "https://dc.lft.to/lastmile_qr_scan"}, "bike_id": "93f993221e8cca3bfa69e9642e0fe638", "lon": -77.03858566666666}, {"is_reserved": 0, "fusion_lon": 0.0, "fusion_lat": 0.0, "name": "484d9e929abf26332a93eeb3ab65e893", "type": "electric_scooter", "is_disabled": 0, "lat": 38.91705233333333, "rental_uris": {"android": "https://dc.lft.to/lastmile_qr_scan", "ios": "https://dc.lft.to/lastmile_qr_scan"}, "bike_id": "484d9e929abf26332a93eeb3ab65e893", "lon": -77.03346366666666}, {"is_reserved": 0, "fusion_lon": 0.0, "fusion_lat": 0.0, "name": "99d3853f53f648c544fe3e074c028798", "type": "electric_scooter", "is_disabled": 0, "lat": 38.9097435, "rental_uris": {"android": "https://dc.lft.to/lastmile_qr_scan", "ios": "https://dc.lft.to/lastmile_qr_scan"}, "bike_id": "99d3853f53f648c544fe3e074c028798", "lon": -77.0425775}, {"is_reserved": 0, "fusion_lon": 0.0, "fusion_lat": 0.0, "name": "b9d3aa34ec09257ca8e2e0ef42f9b6d6", "type": "electric_scooter", "is_disabled": 0, "lat": 38.90514616666667, "rental_uris": {"android": "https://dc.lft.to/lastmile_qr_scan", "ios": "https://dc.lft.to/lastmile_qr_scan"}, "bike_id": "b9d3aa34ec09257ca8e2e0ef42f9b6d6", "lon": -77.0637245}, {"is_reserved": 0, "fusion_lon": 0.0, "fusion_lat": 0.0, "name": "aff1bd81380e492dd1ed3542199bf4d9", "type": "electric_scooter", "is_disabled": 0, "lat": 38.90797466666667, "rental_uris": {"android": "https://dc.lft.to/lastmile_qr_scan", "ios": "https://dc.lft.to/lastmile_qr_scan"}, "bike_id": "aff1bd81380e492dd1ed3542199bf4d9", "lon": -77.0423695}, {"is_reserved": 0, "fusion_lon": 0.0, "fusion_lat": 0.0, "name": "9cbc26935f69bb757038964589fc187c", "type": "electric_scooter", "is_disabled": 0, "lat": 38.891717, "rental_uris": {"android": "https://dc.lft.to/lastmile_qr_scan", "ios": "https://dc.lft.to/lastmile_qr_scan"}, "bike_id": "9cbc26935f69bb757038964589fc187c", "lon": -76.9119395}, {"is_reserved": 0, "fusion_lon": 0.0, "fusion_lat": 0.0, "name": "cce6e4c0b6cc38529f39722ab52fd99f", "type": "electric_scooter", "is_disabled": 0, "lat": 38.8715795, "rental_uris": {"android": "https://dc.lft.to/lastmile_qr_scan", "ios": "https://dc.lft.to/lastmile_qr_scan"}, "bike_id": "cce6e4c0b6cc38529f39722ab52fd99f", "lon": -76.97739466666667}, {"is_reserved": 0, "fusion_lon": 0.0, "fusion_lat": 0.0, "name": "241e169dd4cd621684c8b26ef38e0edc", "type": "electric_scooter", "is_disabled": 0, "lat": 38.9024505, "rental_uris": {"android": "https://dc.lft.to/lastmile_qr_scan", "ios": "https://dc.lft.to/lastmile_qr_scan"}, "bike_id": "241e169dd4cd621684c8b26ef38e0edc", "lon": -77.002022}, {"is_reserved": 0, "fusion_lon": 0.0, "fusion_lat": 0.0, "name": "e5241be36d7a2567d15d3474e7b84ada", "type": "electric_scooter", "is_disabled": 0, "lat": 38.94122566666667, "rental_uris": {"android": "https://dc.lft.to/lastmile_qr_scan", "ios": "https://dc.lft.to/lastmile_qr_scan"}, "bike_id": "e5241be36d7a2567d15d3474e7b84ada", "lon": -77.0153805}, {"is_reserved": 0, "fusion_lon": 0.0, "fusion_lat": 0.0, "name": "76a723880c58ac8e3cc2c125062d380e", "type": "electric_bike", "is_disabled": 0, "lat": 38.8928945, "rental_uris": {"android": "https://dc.lft.to/lastmile_qr_scan", "ios": "https://dc.lft.to/lastmile_qr_scan"}, "bike_id": "76a723880c58ac8e3cc2c125062d380e", "lon": -76.97614466666667}, {"is_reserved": 0, "fusion_lon": 0.0, "fusion_lat": 0.0, "name": "03561972215e76b5e6f901fefc75ccaa", "type": "electric_scooter", "is_disabled": 0, "lat": 38.8848435, "rental_uris": {"android": "https://dc.lft.to/lastmile_qr_scan", "ios": "https://dc.lft.to/lastmile_qr_scan"}, "bike_id": "03561972215e76b5e6f901fefc75ccaa", "lon": -76.92615533333333}, {"is_reserved": 0, "fusion_lon": 0.0, "fusion_lat": 0.0, "name": "6bc2de72dd70ba935a30d25278ea0bfc", "type": "electric_scooter", "is_disabled": 0, "lat": 38.90087066666667, "rental_uris": {"android": "https://dc.lft.to/lastmile_qr_scan", "ios": "https://dc.lft.to/lastmile_qr_scan"}, "bike_id": "6bc2de72dd70ba935a30d25278ea0bfc", "lon": -76.93020933333334}, {"is_reserved": 0, "fusion_lon": 0.0, "fusion_lat": 0.0, "name": "b3a8d964bcd32100132c04b52e162812", "type": "electric_scooter", "is_disabled": 0, "lat": 38.855382666666664, "rental_uris": {"android": "https://dc.lft.to/lastmile_qr_scan", "ios": "https://dc.lft.to/lastmile_qr_scan"}, "bike_id": "b3a8d964bcd32100132c04b52e162812", "lon": -76.98414766666667}, {"is_reserved": 0, "fusion_lon": 0.0, "fusion_lat": 0.0, "name": "5f6a8ac92c7d87691d4d2d1474ecd29c", "type": "electric_scooter", "is_disabled": 0, "lat": 38.899900333333335, "rental_uris": {"android": "https://dc.lft.to/lastmile_qr_scan", "ios": "https://dc.lft.to/lastmile_qr_scan"}, "bike_id": "5f6a8ac92c7d87691d4d2d1474ecd29c", "lon": -77.02424}, {"is_reserved": 0, "fusion_lon": 0.0, "fusion_lat": 0.0, "name": "03e55b2041e798239864bdd0f52b66b0", "type": "electric_scooter", "is_disabled": 0, "lat": 38.94429216666666, "rental_uris": {"android": "https://dc.lft.to/lastmile_qr_scan", "ios": "https://dc.lft.to/lastmile_qr_scan"}, "bike_id": "03e55b2041e798239864bdd0f52b66b0", "lon": -77.0260035}, {"is_reserved": 0, "fusion_lon": 0.0, "fusion_lat": 0.0, "name": "bdba8644de1539c73dfaab231fd24bbe", "type": "electric_bike", "is_disabled": 0, "lat": 38.9357025, "rental_uris": {"android": "https://dc.lft.to/lastmile_qr_scan", "ios": "https://dc.lft.to/lastmile_qr_scan"}, "bike_id": "bdba8644de1539c73dfaab231fd24bbe", "lon": -77.10846983333333}, {"is_reserved": 0, "fusion_lon": 0.0, "fusion_lat": 0.0, "name": "867ba85098309af60e084891933ed258", "type": "electric_scooter", "is_disabled": 0, "lat": 38.892285666666666, "rental_uris": {"android": "https://dc.lft.to/lastmile_qr_scan", "ios": "https://dc.lft.to/lastmile_qr_scan"}, "bike_id": "867ba85098309af60e084891933ed258", "lon": -77.03186933333333}, {"is_reserved": 0, "fusion_lon": 0.0, "fusion_lat": 0.0, "name": "7b8c09768979849e97343d6f2e519099", "type": "electric_scooter", "is_disabled": 0, "lat": 38.89273716666667, "rental_uris": {"android": "https://dc.lft.to/lastmile_qr_scan", "ios": "https://dc.lft.to/lastmile_qr_scan"}, "bike_id": "7b8c09768979849e97343d6f2e519099", "lon": -77.04875283333334}, {"is_reserved": 0, "fusion_lon": 0.0, "fusion_lat": 0.0, "name": "9ae1c367585f3636d29df60931aaf850", "type": "electric_scooter", "is_disabled": 0, "lat": 38.887133, "rental_uris": {"android": "https://dc.lft.to/lastmile_qr_scan", "ios": "https://dc.lft.to/lastmile_qr_scan"}, "bike_id": "9ae1c367585f3636d29df60931aaf850", "lon": -77.01773066666667}, {"is_reserved": 0, "fusion_lon": 0.0, "fusion_lat": 0.0, "name": "f32829fc8794623050f69b252856fce9", "type": "electric_bike", "is_disabled": 0, "lat": 38.95651733333333, "rental_uris": {"android": "https://dc.lft.to/lastmile_qr_scan", "ios": "https://dc.lft.to/lastmile_qr_scan"}, "bike_id": "f32829fc8794623050f69b252856fce9", "lon": -77.01278283333333}, {"is_reserved": 0, "fusion_lon": 0.0, "fusion_lat": 0.0, "name": "f0759fde9340ef32c090e4e556f02446", "type": "electric_scooter", "is_disabled": 0, "lat": 38.896201, "rental_uris": {"android": "https://dc.lft.to/lastmile_qr_scan", "ios": "https://dc.lft.to/lastmile_qr_scan"}, "bike_id": "f0759fde9340ef32c090e4e556f02446", "lon": -77.02983916666666}, {"is_reserved": 0, "fusion_lon": 0.0, "fusion_lat": 0.0, "name": "f0545f48325de916366140c9b868b673", "type": "electric_scooter", "is_disabled": 0, "lat": 38.906251166666664, "rental_uris": {"android": "https://dc.lft.to/lastmile_qr_scan", "ios": "https://dc.lft.to/lastmile_qr_scan"}, "bike_id": "f0545f48325de916366140c9b868b673", "lon": -77.05142916666667}, {"is_reserved": 0, "fusion_lon": 0.0, "fusion_lat": 0.0, "name": "8f06a675f91196a574c2dc6901945e3d", "type": "electric_scooter", "is_disabled": 0, "lat": 38.900803, "rental_uris": {"android": "https://dc.lft.to/lastmile_qr_scan", "ios": "https://dc.lft.to/lastmile_qr_scan"}, "bike_id": "8f06a675f91196a574c2dc6901945e3d", "lon": -77.03214383333334}, {"is_reserved": 0, "fusion_lon": 0.0, "fusion_lat": 0.0, "name": "8fadbd120a3f157adcaa07a050e94778", "type": "electric_scooter", "is_disabled": 0, "lat": 38.922235666666666, "rental_uris": {"android": "https://dc.lft.to/lastmile_qr_scan", "ios": "https://dc.lft.to/lastmile_qr_scan"}, "bike_id": "8fadbd120a3f157adcaa07a050e94778", "lon": -77.04237533333334}, {"is_reserved": 0, "fusion_lon": 0.0, "fusion_lat": 0.0, "name": "edae05c9f34989b9f98f3a979cd1a824", "type": "electric_scooter", "is_disabled": 0, "lat": 38.904385833333336, "rental_uris": {"android": "https://dc.lft.to/lastmile_qr_scan", "ios": "https://dc.lft.to/lastmile_qr_scan"}, "bike_id": "edae05c9f34989b9f98f3a979cd1a824", "lon": -76.9848885}, {"is_reserved": 0, "fusion_lon": 0.0, "fusion_lat": 0.0, "name": "040182bc5ae2cc67c3454a9b79b1d96a", "type": "electric_scooter", "is_disabled": 0, "lat": 38.923766, "rental_uris": {"android": "https://dc.lft.to/lastmile_qr_scan", "ios": "https://dc.lft.to/lastmile_qr_scan"}, "bike_id": "040182bc5ae2cc67c3454a9b79b1d96a", "lon": -77.0301805}, {"is_reserved": 0, "fusion_lon": 0.0, "fusion_lat": 0.0, "name": "b5396ac229c395b5f33837c82f5344cb", "type": "electric_scooter", "is_disabled": 0, "lat": 38.91948516666667, "rental_uris": {"android": "https://dc.lft.to/lastmile_qr_scan", "ios": "https://dc.lft.to/lastmile_qr_scan"}, "bike_id": "b5396ac229c395b5f33837c82f5344cb", "lon": -77.01389083333333}, {"is_reserved": 0, "fusion_lon": 0.0, "fusion_lat": 0.0, "name": "3bf730856b05f81bfee1666a7173412f", "type": "electric_scooter", "is_disabled": 0, "lat": 38.92879716666667, "rental_uris": {"android": "https://dc.lft.to/lastmile_qr_scan", "ios": "https://dc.lft.to/lastmile_qr_scan"}, "bike_id": "3bf730856b05f81bfee1666a7173412f", "lon": -77.01364483333333}, {"is_reserved": 0, "fusion_lon": 0.0, "fusion_lat": 0.0, "name": "8dafe9bc1a3b34ee26fb547df73497db", "type": "electric_scooter", "is_disabled": 0, "lat": 38.91329266666666, "rental_uris": {"android": "https://dc.lft.to/lastmile_qr_scan", "ios": "https://dc.lft.to/lastmile_qr_scan"}, "bike_id": "8dafe9bc1a3b34ee26fb547df73497db", "lon": -77.04532283333333}, {"is_reserved": 0, "fusion_lon": 0.0, "fusion_lat": 0.0, "name": "6a2e216a963a18084fe61cb6a59323da", "type": "electric_bike", "is_disabled": 0, "lat": 38.968162166666666, "rental_uris": {"android": "https://dc.lft.to/lastmile_qr_scan", "ios": "https://dc.lft.to/lastmile_qr_scan"}, "bike_id": "6a2e216a963a18084fe61cb6a59323da", "lon": -77.0722065}, {"is_reserved": 0, "fusion_lon": 0.0, "fusion_lat": 0.0, "name": "5b19e8117b937ea5bf7b7fd74e43dfe7", "type": "electric_scooter", "is_disabled": 0, "lat": 38.93140866666667, "rental_uris": {"android": "https://dc.lft.to/lastmile_qr_scan", "ios": "https://dc.lft.to/lastmile_qr_scan"}, "bike_id": "5b19e8117b937ea5bf7b7fd74e43dfe7", "lon": -77.07868183333333}, {"is_reserved": 0, "fusion_lon": 0.0, "fusion_lat": 0.0, "name": "88baee168fb8bd08c6afd1ce368b32d4", "type": "electric_scooter", "is_disabled": 0, "lat": 38.8812675, "rental_uris": {"android": "https://dc.lft.to/lastmile_qr_scan", "ios": "https://dc.lft.to/lastmile_qr_scan"}, "bike_id": "88baee168fb8bd08c6afd1ce368b32d4", "lon": -77.01673016666666}, {"is_reserved": 0, "fusion_lon": 0.0, "fusion_lat": 0.0, "name": "b88a0a9ba9bcaa6818d6e3293cc7cd39", "type": "electric_bike", "is_disabled": 0, "lat": 38.95308133333333, "rental_uris": {"android": "https://dc.lft.to/lastmile_qr_scan", "ios": "https://dc.lft.to/lastmile_qr_scan"}, "bike_id": "b88a0a9ba9bcaa6818d6e3293cc7cd39", "lon": -77.02374183333333}, {"is_reserved": 0, "fusion_lon": 0.0, "fusion_lat": 0.0, "name": "2870dbe8728fb74f7149d70432a8d625", "type": "electric_scooter", "is_disabled": 0, "lat": 38.896085166666666, "rental_uris": {"android": "https://dc.lft.to/lastmile_qr_scan", "ios": "https://dc.lft.to/lastmile_qr_scan"}, "bike_id": "2870dbe8728fb74f7149d70432a8d625", "lon": -77.0459675}, {"is_reserved": 0, "fusion_lon": 0.0, "fusion_lat": 0.0, "name": "3b187403293add553e2f5214a76dd17c", "type": "electric_scooter", "is_disabled": 0, "lat": 38.8854045, "rental_uris": {"android": "https://dc.lft.to/lastmile_qr_scan", "ios": "https://dc.lft.to/lastmile_qr_scan"}, "bike_id": "3b187403293add553e2f5214a76dd17c", "lon": -76.98055983333333}, {"is_reserved": 0, "fusion_lon": 0.0, "fusion_lat": 0.0, "name": "8d421c4cd0ca2663512c4a02b8ce55ad", "type": "electric_scooter", "is_disabled": 0, "lat": 38.91045166666667, "rental_uris": {"android": "https://dc.lft.to/lastmile_qr_scan", "ios": "https://dc.lft.to/lastmile_qr_scan"}, "bike_id": "8d421c4cd0ca2663512c4a02b8ce55ad", "lon": -77.06483983333334}, {"is_reserved": 0, "fusion_lon": 0.0, "fusion_lat": 0.0, "name": "b7082bad98f27ffda6f55eb85d90077d", "type": "electric_scooter", "is_disabled": 0, "lat": 38.91021516666667, "rental_uris": {"android": "https://dc.lft.to/lastmile_qr_scan", "ios": "https://dc.lft.to/lastmile_qr_scan"}, "bike_id": "b7082bad98f27ffda6f55eb85d90077d", "lon": -77.03446083333333}, {"is_reserved": 0, "fusion_lon": 0.0, "fusion_lat": 0.0, "name": "397c094fd2e5805709c6c8f86d7cb58c", "type": "electric_scooter", "is_disabled": 0, "lat": 38.94302716666667, "rental_uris": {"android": "https://dc.lft.to/lastmile_qr_scan", "ios": "https://dc.lft.to/lastmile_qr_scan"}, "bike_id": "397c094fd2e5805709c6c8f86d7cb58c", "lon": -77.06293966666667}, {"is_reserved": 0, "fusion_lon": 0.0, "fusion_lat": 0.0, "name": "f2e1138d0755b88bdbca640bc8acf2f5", "type": "electric_scooter", "is_disabled": 0, "lat": 38.908265666666665, "rental_uris": {"android": "https://dc.lft.to/lastmile_qr_scan", "ios": "https://dc.lft.to/lastmile_qr_scan"}, "bike_id": "f2e1138d0755b88bdbca640bc8acf2f5", "lon": -77.07430816666667}, {"is_reserved": 0, "fusion_lon": 0.0, "fusion_lat": 0.0, "name": "79cc22ff422405db22229d5f5f1f14d5", "type": "electric_scooter", "is_disabled": 0, "lat": 38.950729833333334, "rental_uris": {"android": "https://dc.lft.to/lastmile_qr_scan", "ios": "https://dc.lft.to/lastmile_qr_scan"}, "bike_id": "79cc22ff422405db22229d5f5f1f14d5", "lon": -76.99564233333334}, {"is_reserved": 0, "fusion_lon": 0.0, "fusion_lat": 0.0, "name": "2946972b255d285d38e94b1f4b522c21", "type": "electric_scooter", "is_disabled": 0, "lat": 38.915593666666666, "rental_uris": {"android": "https://dc.lft.to/lastmile_qr_scan", "ios": "https://dc.lft.to/lastmile_qr_scan"}, "bike_id": "2946972b255d285d38e94b1f4b522c21", "lon": -77.0334915}, {"is_reserved": 0, "fusion_lon": 0.0, "fusion_lat": 0.0, "name": "1603b9e2709d759ee098890c2f0b830b", "type": "electric_scooter", "is_disabled": 0, "lat": 38.89601783333333, "rental_uris": {"android": "https://dc.lft.to/lastmile_qr_scan", "ios": "https://dc.lft.to/lastmile_qr_scan"}, "bike_id": "1603b9e2709d759ee098890c2f0b830b", "lon": -77.04982433333333}, {"is_reserved": 0, "fusion_lon": 0.0, "fusion_lat": 0.0, "name": "89625497d0fddbed10bb56b3da73a2d5", "type": "electric_scooter", "is_disabled": 0, "lat": 38.903614833333336, "rental_uris": {"android": "https://dc.lft.to/lastmile_qr_scan", "ios": "https://dc.lft.to/lastmile_qr_scan"}, "bike_id": "89625497d0fddbed10bb56b3da73a2d5", "lon": -77.04349083333334}, {"is_reserved": 0, "fusion_lon": 0.0, "fusion_lat": 0.0, "name": "dab32060cd5132b0a17e126a737d2ccb", "type": "electric_scooter", "is_disabled": 0, "lat": 38.954171333333335, "rental_uris": {"android": "https://dc.lft.to/lastmile_qr_scan", "ios": "https://dc.lft.to/lastmile_qr_scan"}, "bike_id": "dab32060cd5132b0a17e126a737d2ccb", "lon": -76.9879235}, {"is_reserved": 0, "fusion_lon": 0.0, "fusion_lat": 0.0, "name": "f4a43c10c0f470daf8bc15f7a2748574", "type": "electric_scooter", "is_disabled": 0, "lat": 38.90956466666667, "rental_uris": {"android": "https://dc.lft.to/lastmile_qr_scan", "ios": "https://dc.lft.to/lastmile_qr_scan"}, "bike_id": "f4a43c10c0f470daf8bc15f7a2748574", "lon": -77.04486266666666}, {"is_reserved": 0, "fusion_lon": 0.0, "fusion_lat": 0.0, "name": "246230b30dede5e1c7b21fe36ca2f422", "type": "electric_scooter", "is_disabled": 0, "lat": 38.8938165, "rental_uris": {"android": "https://dc.lft.to/lastmile_qr_scan", "ios": "https://dc.lft.to/lastmile_qr_scan"}, "bike_id": "246230b30dede5e1c7b21fe36ca2f422", "lon": -77.0477545}, {"is_reserved": 0, "fusion_lon": 0.0, "fusion_lat": 0.0, "name": "6994881bc4d3c39009d841b81b09fd77", "type": "electric_scooter", "is_disabled": 0, "lat": 38.89223283333333, "rental_uris": {"android": "https://dc.lft.to/lastmile_qr_scan", "ios": "https://dc.lft.to/lastmile_qr_scan"}, "bike_id": "6994881bc4d3c39009d841b81b09fd77", "lon": -77.0234665}, {"is_reserved": 0, "fusion_lon": 0.0, "fusion_lat": 0.0, "name": "53f55039710172a10c484ba2018ff528", "type": "electric_scooter", "is_disabled": 0, "lat": 38.92476216666667, "rental_uris": {"android": "https://dc.lft.to/lastmile_qr_scan", "ios": "https://dc.lft.to/lastmile_qr_scan"}, "bike_id": "53f55039710172a10c484ba2018ff528", "lon": -77.0227465}, {"is_reserved": 0, "fusion_lon": 0.0, "fusion_lat": 0.0, "name": "30f1bc2ec96fb12e44fa84858e976c31", "type": "electric_scooter", "is_disabled": 0, "lat": 38.908534, "rental_uris": {"android": "https://dc.lft.to/lastmile_qr_scan", "ios": "https://dc.lft.to/lastmile_qr_scan"}, "bike_id": "30f1bc2ec96fb12e44fa84858e976c31", "lon": -76.99956533333334}, {"is_reserved": 0, "fusion_lon": 0.0, "fusion_lat": 0.0, "name": "e3c1841727ca043ff439a9fbb73ac056", "type": "electric_scooter", "is_disabled": 0, "lat": 38.911221833333336, "rental_uris": {"android": "https://dc.lft.to/lastmile_qr_scan", "ios": "https://dc.lft.to/lastmile_qr_scan"}, "bike_id": "e3c1841727ca043ff439a9fbb73ac056", "lon": -77.02274616666666}, {"is_reserved": 0, "fusion_lon": 0.0, "fusion_lat": 0.0, "name": "015d5554bc7cd8a818c49c5049716e3f", "type": "electric_scooter", "is_disabled": 0, "lat": 38.922345, "rental_uris": {"android": "https://dc.lft.to/lastmile_qr_scan", "ios": "https://dc.lft.to/lastmile_qr_scan"}, "bike_id": "015d5554bc7cd8a818c49c5049716e3f", "lon": -77.0449645}, {"is_reserved": 0, "fusion_lon": 0.0, "fusion_lat": 0.0, "name": "40800fe9cccff2b42e29211ab5df8616", "type": "electric_scooter", "is_disabled": 0, "lat": 38.897097, "rental_uris": {"android": "https://dc.lft.to/lastmile_qr_scan", "ios": "https://dc.lft.to/lastmile_qr_scan"}, "bike_id": "40800fe9cccff2b42e29211ab5df8616", "lon": -77.02292233333333}, {"is_reserved": 0, "fusion_lon": 0.0, "fusion_lat": 0.0, "name": "c0e49952fb4238c3d42084316b10f034", "type": "electric_scooter", "is_disabled": 0, "lat": 38.920353, "rental_uris": {"android": "https://dc.lft.to/lastmile_qr_scan", "ios": "https://dc.lft.to/lastmile_qr_scan"}, "bike_id": "c0e49952fb4238c3d42084316b10f034", "lon": -76.98491833333334}, {"is_reserved": 0, "fusion_lon": 0.0, "fusion_lat": 0.0, "name": "8904f89c75828c8d572769b1d4cdeadc", "type": "electric_scooter", "is_disabled": 0, "lat": 38.898914, "rental_uris": {"android": "https://dc.lft.to/lastmile_qr_scan", "ios": "https://dc.lft.to/lastmile_qr_scan"}, "bike_id": "8904f89c75828c8d572769b1d4cdeadc", "lon": -77.03284033333334}, {"is_reserved": 0, "fusion_lon": 0.0, "fusion_lat": 0.0, "name": "96d12cf2c8792ae0359b9ea4617de2b5", "type": "electric_scooter", "is_disabled": 0, "lat": 38.94254316666667, "rental_uris": {"android": "https://dc.lft.to/lastmile_qr_scan", "ios": "https://dc.lft.to/lastmile_qr_scan"}, "bike_id": "96d12cf2c8792ae0359b9ea4617de2b5", "lon": -77.041304}, {"is_reserved": 0, "fusion_lon": 0.0, "fusion_lat": 0.0, "name": "9b5b2d401b5a608bf8074a688969dfa1", "type": "electric_scooter", "is_disabled": 0, "lat": 38.87189716666666, "rental_uris": {"android": "https://dc.lft.to/lastmile_qr_scan", "ios": "https://dc.lft.to/lastmile_qr_scan"}, "bike_id": "9b5b2d401b5a608bf8074a688969dfa1", "lon": -77.005841}, {"is_reserved": 0, "fusion_lon": 0.0, "fusion_lat": 0.0, "name": "5e1237ceea71544b8bad3d92a3bb7e8b", "type": "electric_bike", "is_disabled": 0, "lat": 38.957621833333334, "rental_uris": {"android": "https://dc.lft.to/lastmile_qr_scan", "ios": "https://dc.lft.to/lastmile_qr_scan"}, "bike_id": "5e1237ceea71544b8bad3d92a3bb7e8b", "lon": -77.0070805}, {"is_reserved": 0, "fusion_lon": 0.0, "fusion_lat": 0.0, "name": "8f5b8139e56d690f35206f6d19211de4", "type": "electric_scooter", "is_disabled": 0, "lat": 38.865055166666664, "rental_uris": {"android": "https://dc.lft.to/lastmile_qr_scan", "ios": "https://dc.lft.to/lastmile_qr_scan"}, "bike_id": "8f5b8139e56d690f35206f6d19211de4", "lon": -76.98998283333333}, {"is_reserved": 0, "fusion_lon": 0.0, "fusion_lat": 0.0, "name": "c4189c2795cb91d64542c43336224efe", "type": "electric_scooter", "is_disabled": 0, "lat": 38.9420275, "rental_uris": {"android": "https://dc.lft.to/lastmile_qr_scan", "ios": "https://dc.lft.to/lastmile_qr_scan"}, "bike_id": "c4189c2795cb91d64542c43336224efe", "lon": -77.02497933333333}, {"is_reserved": 0, "fusion_lon": 0.0, "fusion_lat": 0.0, "name": "cd3dcd411e6cd565c3fc1a95592526c3", "type": "electric_scooter", "is_disabled": 0, "lat": 38.91132566666667, "rental_uris": {"android": "https://dc.lft.to/lastmile_qr_scan", "ios": "https://dc.lft.to/lastmile_qr_scan"}, "bike_id": "cd3dcd411e6cd565c3fc1a95592526c3", "lon": -77.0441215}, {"is_reserved": 0, "fusion_lon": 0.0, "fusion_lat": 0.0, "name": "6b22d60ef9fa0f91246569e625ec43e1", "type": "electric_scooter", "is_disabled": 0, "lat": 38.925088333333335, "rental_uris": {"android": "https://dc.lft.to/lastmile_qr_scan", "ios": "https://dc.lft.to/lastmile_qr_scan"}, "bike_id": "6b22d60ef9fa0f91246569e625ec43e1", "lon": -77.00225783333333}, {"is_reserved": 0, "fusion_lon": 0.0, "fusion_lat": 0.0, "name": "910c56958707ccb1a3c21a153ff26a92", "type": "electric_scooter", "is_disabled": 0, "lat": 38.93341266666667, "rental_uris": {"android": "https://dc.lft.to/lastmile_qr_scan", "ios": "https://dc.lft.to/lastmile_qr_scan"}, "bike_id": "910c56958707ccb1a3c21a153ff26a92", "lon": -77.02622816666667}, {"is_reserved": 0, "fusion_lon": 0.0, "fusion_lat": 0.0, "name": "0c039c6526cdf1f5f4206ff8af802a1c", "type": "electric_scooter", "is_disabled": 0, "lat": 38.900873, "rental_uris": {"android": "https://dc.lft.to/lastmile_qr_scan", "ios": "https://dc.lft.to/lastmile_qr_scan"}, "bike_id": "0c039c6526cdf1f5f4206ff8af802a1c", "lon": -76.9303075}, {"is_reserved": 0, "fusion_lon": 0.0, "fusion_lat": 0.0, "name": "16e4a4012e0fa58f8593c8ef85408b95", "type": "electric_scooter", "is_disabled": 0, "lat": 38.892032666666665, "rental_uris": {"android": "https://dc.lft.to/lastmile_qr_scan", "ios": "https://dc.lft.to/lastmile_qr_scan"}, "bike_id": "16e4a4012e0fa58f8593c8ef85408b95", "lon": -76.9569565}, {"is_reserved": 0, "fusion_lon": 0.0, "fusion_lat": 0.0, "name": "ce2f752f43b1ed84a80ec3c46bbf4289", "type": "electric_scooter", "is_disabled": 0, "lat": 38.886070333333336, "rental_uris": {"android": "https://dc.lft.to/lastmile_qr_scan", "ios": "https://dc.lft.to/lastmile_qr_scan"}, "bike_id": "ce2f752f43b1ed84a80ec3c46bbf4289", "lon": -77.01984766666666}, {"is_reserved": 0, "fusion_lon": 0.0, "fusion_lat": 0.0, "name": "31f28d57da29d1d64fc3b472caf8b5a8", "type": "electric_scooter", "is_disabled": 0, "lat": 38.916428833333335, "rental_uris": {"android": "https://dc.lft.to/lastmile_qr_scan", "ios": "https://dc.lft.to/lastmile_qr_scan"}, "bike_id": "31f28d57da29d1d64fc3b472caf8b5a8", "lon": -77.02953}, {"is_reserved": 0, "fusion_lon": 0.0, "fusion_lat": 0.0, "name": "2eecbd189bc8dc8457369bcab41fe115", "type": "electric_scooter", "is_disabled": 0, "lat": 38.881393333333335, "rental_uris": {"android": "https://dc.lft.to/lastmile_qr_scan", "ios": "https://dc.lft.to/lastmile_qr_scan"}, "bike_id": "2eecbd189bc8dc8457369bcab41fe115", "lon": -77.01228433333333}, {"is_reserved": 0, "fusion_lon": 0.0, "fusion_lat": 0.0, "name": "92a1aa65808e5ce7b8fca3f1bb0d5d43", "type": "electric_scooter", "is_disabled": 0, "lat": 38.912693833333336, "rental_uris": {"android": "https://dc.lft.to/lastmile_qr_scan", "ios": "https://dc.lft.to/lastmile_qr_scan"}, "bike_id": "92a1aa65808e5ce7b8fca3f1bb0d5d43", "lon": -77.04113016666666}, {"is_reserved": 0, "fusion_lon": 0.0, "fusion_lat": 0.0, "name": "0909a8b820af67646cb210efdd6dea8a", "type": "electric_scooter", "is_disabled": 0, "lat": 38.911194333333334, "rental_uris": {"android": "https://dc.lft.to/lastmile_qr_scan", "ios": "https://dc.lft.to/lastmile_qr_scan"}, "bike_id": "0909a8b820af67646cb210efdd6dea8a", "lon": -77.03263183333334}, {"is_reserved": 0, "fusion_lon": 0.0, "fusion_lat": 0.0, "name": "c34dd1ded852671a2d152abd5d34a2db", "type": "electric_scooter", "is_disabled": 0, "lat": 38.92154166666667, "rental_uris": {"android": "https://dc.lft.to/lastmile_qr_scan", "ios": "https://dc.lft.to/lastmile_qr_scan"}, "bike_id": "c34dd1ded852671a2d152abd5d34a2db", "lon": -77.03377183333333}, {"is_reserved": 0, "fusion_lon": 0.0, "fusion_lat": 0.0, "name": "e379e2e579bb89eab2af515aaf7ed263", "type": "electric_bike", "is_disabled": 0, "lat": 38.9322615, "rental_uris": {"android": "https://dc.lft.to/lastmile_qr_scan", "ios": "https://dc.lft.to/lastmile_qr_scan"}, "bike_id": "e379e2e579bb89eab2af515aaf7ed263", "lon": -77.181211}, {"is_reserved": 0, "fusion_lon": 0.0, "fusion_lat": 0.0, "name": "3051dae200ae1b93a152b07f273568cb", "type": "electric_scooter", "is_disabled": 0, "lat": 38.900105833333335, "rental_uris": {"android": "https://dc.lft.to/lastmile_qr_scan", "ios": "https://dc.lft.to/lastmile_qr_scan"}, "bike_id": "3051dae200ae1b93a152b07f273568cb", "lon": -76.98701266666667}, {"is_reserved": 0, "fusion_lon": 0.0, "fusion_lat": 0.0, "name": "1514c351abe4907db15ffcc09b2a4ff6", "type": "electric_bike", "is_disabled": 0, "lat": 38.953277, "rental_uris": {"android": "https://dc.lft.to/lastmile_qr_scan", "ios": "https://dc.lft.to/lastmile_qr_scan"}, "bike_id": "1514c351abe4907db15ffcc09b2a4ff6", "lon": -76.95434566666667}, {"is_reserved": 0, "fusion_lon": 0.0, "fusion_lat": 0.0, "name": "0b6ec59b1d32bab191c61b31723f6074", "type": "electric_scooter", "is_disabled": 0, "lat": 38.8943005, "rental_uris": {"android": "https://dc.lft.to/lastmile_qr_scan", "ios": "https://dc.lft.to/lastmile_qr_scan"}, "bike_id": "0b6ec59b1d32bab191c61b31723f6074", "lon": -77.04003133333333}, {"is_reserved": 0, "fusion_lon": 0.0, "fusion_lat": 0.0, "name": "f2289348281d21dd3b51323819f8183a", "type": "electric_scooter", "is_disabled": 0, "lat": 38.916320999999996, "rental_uris": {"android": "https://dc.lft.to/lastmile_qr_scan", "ios": "https://dc.lft.to/lastmile_qr_scan"}, "bike_id": "f2289348281d21dd3b51323819f8183a", "lon": -77.04801533333334}, {"is_reserved": 0, "fusion_lon": 0.0, "fusion_lat": 0.0, "name": "828b17d5b0c59aaf79756b06f93b2749", "type": "electric_scooter", "is_disabled": 0, "lat": 38.9124995, "rental_uris": {"android": "https://dc.lft.to/lastmile_qr_scan", "ios": "https://dc.lft.to/lastmile_qr_scan"}, "bike_id": "828b17d5b0c59aaf79756b06f93b2749", "lon": -77.07315733333333}, {"is_reserved": 0, "fusion_lon": 0.0, "fusion_lat": 0.0, "name": "7004fe3c0e8f8c1cdbcedce377ebf36c", "type": "electric_scooter", "is_disabled": 0, "lat": 38.926173, "rental_uris": {"android": "https://dc.lft.to/lastmile_qr_scan", "ios": "https://dc.lft.to/lastmile_qr_scan"}, "bike_id": "7004fe3c0e8f8c1cdbcedce377ebf36c", "lon": -77.0432685}, {"is_reserved": 0, "fusion_lon": 0.0, "fusion_lat": 0.0, "name": "089a89a1469ee7c8d4df5cc9e35ab049", "type": "electric_scooter", "is_disabled": 0, "lat": 38.91376416666667, "rental_uris": {"android": "https://dc.lft.to/lastmile_qr_scan", "ios": "https://dc.lft.to/lastmile_qr_scan"}, "bike_id": "089a89a1469ee7c8d4df5cc9e35ab049", "lon": -77.03148}, {"is_reserved": 0, "fusion_lon": 0.0, "fusion_lat": 0.0, "name": "a52240476796fed22183ff80588adad8", "type": "electric_scooter", "is_disabled": 0, "lat": 38.95191633333334, "rental_uris": {"android": "https://dc.lft.to/lastmile_qr_scan", "ios": "https://dc.lft.to/lastmile_qr_scan"}, "bike_id": "a52240476796fed22183ff80588adad8", "lon": -77.02611633333333}, {"is_reserved": 0, "fusion_lon": 0.0, "fusion_lat": 0.0, "name": "3b6582a8ffcb0e3a5bb8c9e0e4e76846", "type": "electric_scooter", "is_disabled": 0, "lat": 38.91116683333333, "rental_uris": {"android": "https://dc.lft.to/lastmile_qr_scan", "ios": "https://dc.lft.to/lastmile_qr_scan"}, "bike_id": "3b6582a8ffcb0e3a5bb8c9e0e4e76846", "lon": -77.03215333333333}, {"is_reserved": 0, "fusion_lon": 0.0, "fusion_lat": 0.0, "name": "838fd95dcfb6f298ba0d9de4d0a5fe4e", "type": "electric_scooter", "is_disabled": 0, "lat": 38.89323316666667, "rental_uris": {"android": "https://dc.lft.to/lastmile_qr_scan", "ios": "https://dc.lft.to/lastmile_qr_scan"}, "bike_id": "838fd95dcfb6f298ba0d9de4d0a5fe4e", "lon": -76.94313366666667}, {"is_reserved": 0, "fusion_lon": 0.0, "fusion_lat": 0.0, "name": "8b76c3e6d2f2b72970131cd0ea602c3f", "type": "electric_scooter", "is_disabled": 0, "lat": 38.917665, "rental_uris": {"android": "https://dc.lft.to/lastmile_qr_scan", "ios": "https://dc.lft.to/lastmile_qr_scan"}, "bike_id": "8b76c3e6d2f2b72970131cd0ea602c3f", "lon": -77.04555933333333}, {"is_reserved": 0, "fusion_lon": 0.0, "fusion_lat": 0.0, "name": "dbfb3471633eb37af84c17bcbc83fa82", "type": "electric_scooter", "is_disabled": 0, "lat": 38.91565666666666, "rental_uris": {"android": "https://dc.lft.to/lastmile_qr_scan", "ios": "https://dc.lft.to/lastmile_qr_scan"}, "bike_id": "dbfb3471633eb37af84c17bcbc83fa82", "lon": -77.0198775}, {"is_reserved": 0, "fusion_lon": 0.0, "fusion_lat": 0.0, "name": "dc3199bfa74993cc1b3fda160ccc06c3", "type": "electric_scooter", "is_disabled": 0, "lat": 38.90583816666667, "rental_uris": {"android": "https://dc.lft.to/lastmile_qr_scan", "ios": "https://dc.lft.to/lastmile_qr_scan"}, "bike_id": "dc3199bfa74993cc1b3fda160ccc06c3", "lon": -77.0345275}, {"is_reserved": 0, "fusion_lon": 0.0, "fusion_lat": 0.0, "name": "406fbcde778820f3ce2606c2102a72b9", "type": "electric_scooter", "is_disabled": 0, "lat": 38.92408783333333, "rental_uris": {"android": "https://dc.lft.to/lastmile_qr_scan", "ios": "https://dc.lft.to/lastmile_qr_scan"}, "bike_id": "406fbcde778820f3ce2606c2102a72b9", "lon": -77.05166916666667}, {"is_reserved": 0, "fusion_lon": 0.0, "fusion_lat": 0.0, "name": "a569b7fba1ee40a044a5c8cae1f9aa62", "type": "electric_scooter", "is_disabled": 0, "lat": 38.8994835, "rental_uris": {"android": "https://dc.lft.to/lastmile_qr_scan", "ios": "https://dc.lft.to/lastmile_qr_scan"}, "bike_id": "a569b7fba1ee40a044a5c8cae1f9aa62", "lon": -77.04214583333334}, {"is_reserved": 0, "fusion_lon": 0.0, "fusion_lat": 0.0, "name": "72f0e151fae32386c78ad295018ec09e", "type": "electric_bike", "is_disabled": 0, "lat": 39.0629515, "rental_uris": {"android": "https://dc.lft.to/lastmile_qr_scan", "ios": "https://dc.lft.to/lastmile_qr_scan"}, "bike_id": "72f0e151fae32386c78ad295018ec09e", "lon": -77.049788}, {"is_reserved": 0, "fusion_lon": 0.0, "fusion_lat": 0.0, "name": "6c6685ea51bdb08892f2e6386c1ff7ca", "type": "electric_scooter", "is_disabled": 0, "lat": 38.8991775, "rental_uris": {"android": "https://dc.lft.to/lastmile_qr_scan", "ios": "https://dc.lft.to/lastmile_qr_scan"}, "bike_id": "6c6685ea51bdb08892f2e6386c1ff7ca", "lon": -76.93380833333333}, {"is_reserved": 0, "fusion_lon": 0.0, "fusion_lat": 0.0, "name": "3a542f825ede985b36402d825010b97a", "type": "electric_scooter", "is_disabled": 0, "lat": 38.892231333333335, "rental_uris": {"android": "https://dc.lft.to/lastmile_qr_scan", "ios": "https://dc.lft.to/lastmile_qr_scan"}, "bike_id": "3a542f825ede985b36402d825010b97a", "lon": -77.02347466666667}, {"is_reserved": 0, "fusion_lon": 0.0, "fusion_lat": 0.0, "name": "18293c2371409764dce47d6a6bef0010", "type": "electric_scooter", "is_disabled": 0, "lat": 38.88303233333333, "rental_uris": {"android": "https://dc.lft.to/lastmile_qr_scan", "ios": "https://dc.lft.to/lastmile_qr_scan"}, "bike_id": "18293c2371409764dce47d6a6bef0010", "lon": -76.97865666666667}, {"is_reserved": 0, "fusion_lon": 0.0, "fusion_lat": 0.0, "name": "f4cf83b713369117231890d8122568a0", "type": "electric_scooter", "is_disabled": 0, "lat": 38.899744166666665, "rental_uris": {"android": "https://dc.lft.to/lastmile_qr_scan", "ios": "https://dc.lft.to/lastmile_qr_scan"}, "bike_id": "f4cf83b713369117231890d8122568a0", "lon": -77.04992966666667}, {"is_reserved": 0, "fusion_lon": 0.0, "fusion_lat": 0.0, "name": "913fbce32292cf467aa9e503f936aaaa", "type": "electric_scooter", "is_disabled": 0, "lat": 38.92683483333333, "rental_uris": {"android": "https://dc.lft.to/lastmile_qr_scan", "ios": "https://dc.lft.to/lastmile_qr_scan"}, "bike_id": "913fbce32292cf467aa9e503f936aaaa", "lon": -77.02987366666666}, {"is_reserved": 0, "fusion_lon": 0.0, "fusion_lat": 0.0, "name": "4686a9bcb29cdbc3f01a1273a4ed640d", "type": "electric_scooter", "is_disabled": 0, "lat": 38.90639683333333, "rental_uris": {"android": "https://dc.lft.to/lastmile_qr_scan", "ios": "https://dc.lft.to/lastmile_qr_scan"}, "bike_id": "4686a9bcb29cdbc3f01a1273a4ed640d", "lon": -77.04813283333333}, {"is_reserved": 0, "fusion_lon": 0.0, "fusion_lat": 0.0, "name": "d220553c4c3a471ba61e8d94e99b98cd", "type": "electric_scooter", "is_disabled": 0, "lat": 38.922746833333335, "rental_uris": {"android": "https://dc.lft.to/lastmile_qr_scan", "ios": "https://dc.lft.to/lastmile_qr_scan"}, "bike_id": "d220553c4c3a471ba61e8d94e99b98cd", "lon": -77.04232033333334}, {"is_reserved": 0, "fusion_lon": 0.0, "fusion_lat": 0.0, "name": "4dd0fb5f538427315853d18e7e96f0fd", "type": "electric_scooter", "is_disabled": 0, "lat": 38.91760583333333, "rental_uris": {"android": "https://dc.lft.to/lastmile_qr_scan", "ios": "https://dc.lft.to/lastmile_qr_scan"}, "bike_id": "4dd0fb5f538427315853d18e7e96f0fd", "lon": -77.01941483333333}, {"is_reserved": 0, "fusion_lon": 0.0, "fusion_lat": 0.0, "name": "2f499256c6f9273181ed85d0d905f894", "type": "electric_scooter", "is_disabled": 0, "lat": 38.929261, "rental_uris": {"android": "https://dc.lft.to/lastmile_qr_scan", "ios": "https://dc.lft.to/lastmile_qr_scan"}, "bike_id": "2f499256c6f9273181ed85d0d905f894", "lon": -77.0348515}, {"is_reserved": 0, "fusion_lon": 0.0, "fusion_lat": 0.0, "name": "6ff12459d33ddb99221d217d90e8111c", "type": "electric_scooter", "is_disabled": 0, "lat": 38.928499333333335, "rental_uris": {"android": "https://dc.lft.to/lastmile_qr_scan", "ios": "https://dc.lft.to/lastmile_qr_scan"}, "bike_id": "6ff12459d33ddb99221d217d90e8111c", "lon": -77.027356}, {"is_reserved": 0, "fusion_lon": 0.0, "fusion_lat": 0.0, "name": "67cfa419bef41cbdbf99df3d054a7c2c", "type": "electric_scooter", "is_disabled": 0, "lat": 38.92154816666667, "rental_uris": {"android": "https://dc.lft.to/lastmile_qr_scan", "ios": "https://dc.lft.to/lastmile_qr_scan"}, "bike_id": "67cfa419bef41cbdbf99df3d054a7c2c", "lon": -77.02095783333333}, {"is_reserved": 0, "fusion_lon": 0.0, "fusion_lat": 0.0, "name": "cd550776f7636aa9f0eb34994f3fc3f6", "type": "electric_scooter", "is_disabled": 0, "lat": 38.902407333333336, "rental_uris": {"android": "https://dc.lft.to/lastmile_qr_scan", "ios": "https://dc.lft.to/lastmile_qr_scan"}, "bike_id": "cd550776f7636aa9f0eb34994f3fc3f6", "lon": -77.04500483333334}, {"is_reserved": 0, "fusion_lon": 0.0, "fusion_lat": 0.0, "name": "b4c1ddedea884279dac21d3be2f16543", "type": "electric_scooter", "is_disabled": 0, "lat": 38.9220625, "rental_uris": {"android": "https://dc.lft.to/lastmile_qr_scan", "ios": "https://dc.lft.to/lastmile_qr_scan"}, "bike_id": "b4c1ddedea884279dac21d3be2f16543", "lon": -77.02957816666667}, {"is_reserved": 0, "fusion_lon": 0.0, "fusion_lat": 0.0, "name": "2af2c9266b959d8b470663be78dbe5b3", "type": "electric_scooter", "is_disabled": 0, "lat": 38.917868, "rental_uris": {"android": "https://dc.lft.to/lastmile_qr_scan", "ios": "https://dc.lft.to/lastmile_qr_scan"}, "bike_id": "2af2c9266b959d8b470663be78dbe5b3", "lon": -77.040313}, {"is_reserved": 0, "fusion_lon": 0.0, "fusion_lat": 0.0, "name": "84d51f1a577fdacdbacee497edacb925", "type": "electric_scooter", "is_disabled": 0, "lat": 38.91992316666666, "rental_uris": {"android": "https://dc.lft.to/lastmile_qr_scan", "ios": "https://dc.lft.to/lastmile_qr_scan"}, "bike_id": "84d51f1a577fdacdbacee497edacb925", "lon": -77.02144933333334}, {"is_reserved": 0, "fusion_lon": 0.0, "fusion_lat": 0.0, "name": "f7e180ce94d0d5b11fc3dae06ed88b4f", "type": "electric_scooter", "is_disabled": 0, "lat": 38.9060195, "rental_uris": {"android": "https://dc.lft.to/lastmile_qr_scan", "ios": "https://dc.lft.to/lastmile_qr_scan"}, "bike_id": "f7e180ce94d0d5b11fc3dae06ed88b4f", "lon": -77.06421416666667}, {"is_reserved": 0, "fusion_lon": 0.0, "fusion_lat": 0.0, "name": "f15486362a12357f17a8410281963f60", "type": "electric_scooter", "is_disabled": 0, "lat": 38.90433783333334, "rental_uris": {"android": "https://dc.lft.to/lastmile_qr_scan", "ios": "https://dc.lft.to/lastmile_qr_scan"}, "bike_id": "f15486362a12357f17a8410281963f60", "lon": -77.05134816666667}, {"is_reserved": 0, "fusion_lon": 0.0, "fusion_lat": 0.0, "name": "1798f6fa93000bb663b589cf72deb642", "type": "electric_scooter", "is_disabled": 0, "lat": 38.8507135, "rental_uris": {"android": "https://dc.lft.to/lastmile_qr_scan", "ios": "https://dc.lft.to/lastmile_qr_scan"}, "bike_id": "1798f6fa93000bb663b589cf72deb642", "lon": -76.97006033333334}, {"is_reserved": 0, "fusion_lon": 0.0, "fusion_lat": 0.0, "name": "902f9ea0aba89756bd060c99bf4759a9", "type": "electric_scooter", "is_disabled": 0, "lat": 38.8932835, "rental_uris": {"android": "https://dc.lft.to/lastmile_qr_scan", "ios": "https://dc.lft.to/lastmile_qr_scan"}, "bike_id": "902f9ea0aba89756bd060c99bf4759a9", "lon": -76.9395505}, {"is_reserved": 0, "fusion_lon": 0.0, "fusion_lat": 0.0, "name": "e11f57886e46fac9503c14ff1788940c", "type": "electric_bike", "is_disabled": 0, "lat": 38.8979695, "rental_uris": {"android": "https://dc.lft.to/lastmile_qr_scan", "ios": "https://dc.lft.to/lastmile_qr_scan"}, "bike_id": "e11f57886e46fac9503c14ff1788940c", "lon": -76.99066033333334}, {"is_reserved": 0, "fusion_lon": 0.0, "fusion_lat": 0.0, "name": "a96643dda9dbdbff1f6a12ed82b72ad7", "type": "electric_scooter", "is_disabled": 0, "lat": 38.913869, "rental_uris": {"android": "https://dc.lft.to/lastmile_qr_scan", "ios": "https://dc.lft.to/lastmile_qr_scan"}, "bike_id": "a96643dda9dbdbff1f6a12ed82b72ad7", "lon": -77.04472383333334}, {"is_reserved": 0, "fusion_lon": 0.0, "fusion_lat": 0.0, "name": "3e9a9e8d9c0756dfd863693d6a2561d2", "type": "electric_scooter", "is_disabled": 0, "lat": 38.90138016666667, "rental_uris": {"android": "https://dc.lft.to/lastmile_qr_scan", "ios": "https://dc.lft.to/lastmile_qr_scan"}, "bike_id": "3e9a9e8d9c0756dfd863693d6a2561d2", "lon": -77.0436605}, {"is_reserved": 0, "fusion_lon": 0.0, "fusion_lat": 0.0, "name": "d17a0c2325bec8a0611f6eb08a95bdcc", "type": "electric_bike", "is_disabled": 0, "lat": 38.967397, "rental_uris": {"android": "https://dc.lft.to/lastmile_qr_scan", "ios": "https://dc.lft.to/lastmile_qr_scan"}, "bike_id": "d17a0c2325bec8a0611f6eb08a95bdcc", "lon": -76.9604555}, {"is_reserved": 0, "fusion_lon": 0.0, "fusion_lat": 0.0, "name": "54f81103c3c6c564a66cb7dd7db310df", "type": "electric_bike", "is_disabled": 0, "lat": 38.896494833333335, "rental_uris": {"android": "https://dc.lft.to/lastmile_qr_scan", "ios": "https://dc.lft.to/lastmile_qr_scan"}, "bike_id": "54f81103c3c6c564a66cb7dd7db310df", "lon": -76.93006966666667}, {"is_reserved": 0, "fusion_lon": 0.0, "fusion_lat": 0.0, "name": "3ecadcd5d2dfa23b4617712d394b6dc9", "type": "electric_scooter", "is_disabled": 0, "lat": 38.910258, "rental_uris": {"android": "https://dc.lft.to/lastmile_qr_scan", "ios": "https://dc.lft.to/lastmile_qr_scan"}, "bike_id": "3ecadcd5d2dfa23b4617712d394b6dc9", "lon": -77.04298083333333}, {"is_reserved": 0, "fusion_lon": 0.0, "fusion_lat": 0.0, "name": "8e7a4d8c009adc7dbc76fbe7b74a987f", "type": "electric_scooter", "is_disabled": 0, "lat": 38.92438, "rental_uris": {"android": "https://dc.lft.to/lastmile_qr_scan", "ios": "https://dc.lft.to/lastmile_qr_scan"}, "bike_id": "8e7a4d8c009adc7dbc76fbe7b74a987f", "lon": -77.03995983333333}, {"is_reserved": 0, "fusion_lon": 0.0, "fusion_lat": 0.0, "name": "780df8460fb1f6c5b76ccdc90c9dbf52", "type": "electric_scooter", "is_disabled": 0, "lat": 38.897301166666665, "rental_uris": {"android": "https://dc.lft.to/lastmile_qr_scan", "ios": "https://dc.lft.to/lastmile_qr_scan"}, "bike_id": "780df8460fb1f6c5b76ccdc90c9dbf52", "lon": -77.05524833333334}, {"is_reserved": 0, "fusion_lon": 0.0, "fusion_lat": 0.0, "name": "3394aee66201361ed0d2437c2c0d4586", "type": "electric_scooter", "is_disabled": 0, "lat": 38.90832116666667, "rental_uris": {"android": "https://dc.lft.to/lastmile_qr_scan", "ios": "https://dc.lft.to/lastmile_qr_scan"}, "bike_id": "3394aee66201361ed0d2437c2c0d4586", "lon": -77.0395915}, {"is_reserved": 0, "fusion_lon": 0.0, "fusion_lat": 0.0, "name": "c5fac224d848814e4416fb8288c11121", "type": "electric_scooter", "is_disabled": 0, "lat": 38.9200265, "rental_uris": {"android": "https://dc.lft.to/lastmile_qr_scan", "ios": "https://dc.lft.to/lastmile_qr_scan"}, "bike_id": "c5fac224d848814e4416fb8288c11121", "lon": -77.04163866666667}, {"is_reserved": 0, "fusion_lon": 0.0, "fusion_lat": 0.0, "name": "32d6352ee76719c1b406dc75d942fe67", "type": "electric_scooter", "is_disabled": 0, "lat": 38.919503666666664, "rental_uris": {"android": "https://dc.lft.to/lastmile_qr_scan", "ios": "https://dc.lft.to/lastmile_qr_scan"}, "bike_id": "32d6352ee76719c1b406dc75d942fe67", "lon": -76.98078883333334}, {"is_reserved": 0, "fusion_lon": 0.0, "fusion_lat": 0.0, "name": "0878fda791972cf066ad764c47fc631b", "type": "electric_bike", "is_disabled": 0, "lat": 38.9032925, "rental_uris": {"android": "https://dc.lft.to/lastmile_qr_scan", "ios": "https://dc.lft.to/lastmile_qr_scan"}, "bike_id": "0878fda791972cf066ad764c47fc631b", "lon": -76.97534166666667}, {"is_reserved": 0, "fusion_lon": 0.0, "fusion_lat": 0.0, "name": "70878cdf087ebfdd21881ee14c1e3c56", "type": "electric_scooter", "is_disabled": 0, "lat": 38.92949683333333, "rental_uris": {"android": "https://dc.lft.to/lastmile_qr_scan", "ios": "https://dc.lft.to/lastmile_qr_scan"}, "bike_id": "70878cdf087ebfdd21881ee14c1e3c56", "lon": -77.01646216666667}, {"is_reserved": 0, "fusion_lon": 0.0, "fusion_lat": 0.0, "name": "1e1bbd78ab7658709687d6f8fad5b273", "type": "electric_scooter", "is_disabled": 0, "lat": 38.93737483333334, "rental_uris": {"android": "https://dc.lft.to/lastmile_qr_scan", "ios": "https://dc.lft.to/lastmile_qr_scan"}, "bike_id": "1e1bbd78ab7658709687d6f8fad5b273", "lon": -77.03276333333334}, {"is_reserved": 0, "fusion_lon": 0.0, "fusion_lat": 0.0, "name": "409e60bb28442f930d136ba626af84c9", "type": "electric_scooter", "is_disabled": 0, "lat": 38.886052, "rental_uris": {"android": "https://dc.lft.to/lastmile_qr_scan", "ios": "https://dc.lft.to/lastmile_qr_scan"}, "bike_id": "409e60bb28442f930d136ba626af84c9", "lon": -76.995154}, {"is_reserved": 0, "fusion_lon": 0.0, "fusion_lat": 0.0, "name": "8abd6a937c5d99223437cc5ff3fde543", "type": "electric_scooter", "is_disabled": 0, "lat": 38.9332255, "rental_uris": {"android": "https://dc.lft.to/lastmile_qr_scan", "ios": "https://dc.lft.to/lastmile_qr_scan"}, "bike_id": "8abd6a937c5d99223437cc5ff3fde543", "lon": -77.0239455}, {"is_reserved": 0, "fusion_lon": 0.0, "fusion_lat": 0.0, "name": "f150d20468bb6f6f1d474810fe03ecfd", "type": "electric_scooter", "is_disabled": 0, "lat": 38.910645333333335, "rental_uris": {"android": "https://dc.lft.to/lastmile_qr_scan", "ios": "https://dc.lft.to/lastmile_qr_scan"}, "bike_id": "f150d20468bb6f6f1d474810fe03ecfd", "lon": -77.04088616666667}, {"is_reserved": 0, "fusion_lon": 0.0, "fusion_lat": 0.0, "name": "37ff40eea392e1ac03f8e410ca62029b", "type": "electric_scooter", "is_disabled": 0, "lat": 38.9244245, "rental_uris": {"android": "https://dc.lft.to/lastmile_qr_scan", "ios": "https://dc.lft.to/lastmile_qr_scan"}, "bike_id": "37ff40eea392e1ac03f8e410ca62029b", "lon": -77.05748233333334}, {"is_reserved": 0, "fusion_lon": 0.0, "fusion_lat": 0.0, "name": "77fc422895f568d4c7eb39694c279aec", "type": "electric_bike", "is_disabled": 0, "lat": 39.057748, "rental_uris": {"android": "https://dc.lft.to/lastmile_qr_scan", "ios": "https://dc.lft.to/lastmile_qr_scan"}, "bike_id": "77fc422895f568d4c7eb39694c279aec", "lon": -77.1501005}, {"is_reserved": 0, "fusion_lon": 0.0, "fusion_lat": 0.0, "name": "c6fa41f95fdfc86a33c5d82372d933f1", "type": "electric_scooter", "is_disabled": 0, "lat": 38.895178333333334, "rental_uris": {"android": "https://dc.lft.to/lastmile_qr_scan", "ios": "https://dc.lft.to/lastmile_qr_scan"}, "bike_id": "c6fa41f95fdfc86a33c5d82372d933f1", "lon": -77.03958166666666}, {"is_reserved": 0, "fusion_lon": 0.0, "fusion_lat": 0.0, "name": "502c25ed1ad07fd062822380582a71d4", "type": "electric_scooter", "is_disabled": 0, "lat": 38.89730683333333, "rental_uris": {"android": "https://dc.lft.to/lastmile_qr_scan", "ios": "https://dc.lft.to/lastmile_qr_scan"}, "bike_id": "502c25ed1ad07fd062822380582a71d4", "lon": -77.05474716666667}, {"is_reserved": 0, "fusion_lon": 0.0, "fusion_lat": 0.0, "name": "d8508b9d7a315bbc6b1523991d4b80ac", "type": "electric_scooter", "is_disabled": 0, "lat": 38.90683516666667, "rental_uris": {"android": "https://dc.lft.to/lastmile_qr_scan", "ios": "https://dc.lft.to/lastmile_qr_scan"}, "bike_id": "d8508b9d7a315bbc6b1523991d4b80ac", "lon": -77.02690883333334}, {"is_reserved": 0, "fusion_lon": 0.0, "fusion_lat": 0.0, "name": "73653877944bd2ca51fa0de7b2d145c1", "type": "electric_scooter", "is_disabled": 0, "lat": 38.93859916666667, "rental_uris": {"android": "https://dc.lft.to/lastmile_qr_scan", "ios": "https://dc.lft.to/lastmile_qr_scan"}, "bike_id": "73653877944bd2ca51fa0de7b2d145c1", "lon": -77.02645633333333}, {"is_reserved": 0, "fusion_lon": 0.0, "fusion_lat": 0.0, "name": "dc1f619723cdec0a969fa4e0363a41bf", "type": "electric_scooter", "is_disabled": 0, "lat": 38.9127595, "rental_uris": {"android": "https://dc.lft.to/lastmile_qr_scan", "ios": "https://dc.lft.to/lastmile_qr_scan"}, "bike_id": "dc1f619723cdec0a969fa4e0363a41bf", "lon": -77.0475045}, {"is_reserved": 0, "fusion_lon": 0.0, "fusion_lat": 0.0, "name": "7e1550a70992840b9df10eec135aa0ab", "type": "electric_scooter", "is_disabled": 0, "lat": 38.91402933333333, "rental_uris": {"android": "https://dc.lft.to/lastmile_qr_scan", "ios": "https://dc.lft.to/lastmile_qr_scan"}, "bike_id": "7e1550a70992840b9df10eec135aa0ab", "lon": -77.03165966666667}, {"is_reserved": 0, "fusion_lon": 0.0, "fusion_lat": 0.0, "name": "188bd714ccefaaf3d9f23951d6455a3c", "type": "electric_scooter", "is_disabled": 0, "lat": 38.911129, "rental_uris": {"android": "https://dc.lft.to/lastmile_qr_scan", "ios": "https://dc.lft.to/lastmile_qr_scan"}, "bike_id": "188bd714ccefaaf3d9f23951d6455a3c", "lon": -77.03573016666667}, {"is_reserved": 0, "fusion_lon": 0.0, "fusion_lat": 0.0, "name": "a49bc310268b8dcadf997e206c0e2981", "type": "electric_scooter", "is_disabled": 0, "lat": 38.929776, "rental_uris": {"android": "https://dc.lft.to/lastmile_qr_scan", "ios": "https://dc.lft.to/lastmile_qr_scan"}, "bike_id": "a49bc310268b8dcadf997e206c0e2981", "lon": -77.0261235}, {"is_reserved": 0, "fusion_lon": 0.0, "fusion_lat": 0.0, "name": "4fd3810d92ae3231d725b8511be6d931", "type": "electric_scooter", "is_disabled": 0, "lat": 38.95324, "rental_uris": {"android": "https://dc.lft.to/lastmile_qr_scan", "ios": "https://dc.lft.to/lastmile_qr_scan"}, "bike_id": "4fd3810d92ae3231d725b8511be6d931", "lon": -77.07068}, {"is_reserved": 0, "fusion_lon": 0.0, "fusion_lat": 0.0, "name": "4ba870f7069e20d0fc01182fc252cb85", "type": "electric_scooter", "is_disabled": 0, "lat": 38.897340166666666, "rental_uris": {"android": "https://dc.lft.to/lastmile_qr_scan", "ios": "https://dc.lft.to/lastmile_qr_scan"}, "bike_id": "4ba870f7069e20d0fc01182fc252cb85", "lon": -77.05476416666667}, {"is_reserved": 0, "fusion_lon": 0.0, "fusion_lat": 0.0, "name": "79116709ebca309fbcf453db92d46978", "type": "electric_scooter", "is_disabled": 0, "lat": 38.93541333333334, "rental_uris": {"android": "https://dc.lft.to/lastmile_qr_scan", "ios": "https://dc.lft.to/lastmile_qr_scan"}, "bike_id": "79116709ebca309fbcf453db92d46978", "lon": -77.05746933333333}, {"is_reserved": 0, "fusion_lon": 0.0, "fusion_lat": 0.0, "name": "e0aa47265d4b571224cad07159a07320", "type": "electric_scooter", "is_disabled": 0, "lat": 38.891001833333334, "rental_uris": {"android": "https://dc.lft.to/lastmile_qr_scan", "ios": "https://dc.lft.to/lastmile_qr_scan"}, "bike_id": "e0aa47265d4b571224cad07159a07320", "lon": -77.00284433333333}, {"is_reserved": 0, "fusion_lon": 0.0, "fusion_lat": 0.0, "name": "d92beaeb2fdd49f96c14b5af07b7403e", "type": "electric_scooter", "is_disabled": 0, "lat": 38.91791516666667, "rental_uris": {"android": "https://dc.lft.to/lastmile_qr_scan", "ios": "https://dc.lft.to/lastmile_qr_scan"}, "bike_id": "d92beaeb2fdd49f96c14b5af07b7403e", "lon": -77.02471733333333}, {"is_reserved": 0, "fusion_lon": 0.0, "fusion_lat": 0.0, "name": "3b82d30e5cc73dfd5633adfd96864f23", "type": "electric_scooter", "is_disabled": 0, "lat": 38.863786, "rental_uris": {"android": "https://dc.lft.to/lastmile_qr_scan", "ios": "https://dc.lft.to/lastmile_qr_scan"}, "bike_id": "3b82d30e5cc73dfd5633adfd96864f23", "lon": -76.9906015}, {"is_reserved": 0, "fusion_lon": 0.0, "fusion_lat": 0.0, "name": "aae52fc6702d63a716e1d5dd6bc2ed98", "type": "electric_scooter", "is_disabled": 0, "lat": 38.91299866666667, "rental_uris": {"android": "https://dc.lft.to/lastmile_qr_scan", "ios": "https://dc.lft.to/lastmile_qr_scan"}, "bike_id": "aae52fc6702d63a716e1d5dd6bc2ed98", "lon": -76.9846875}, {"is_reserved": 0, "fusion_lon": 0.0, "fusion_lat": 0.0, "name": "3019f141e4b917d082af37c8a20ad111", "type": "electric_scooter", "is_disabled": 0, "lat": 38.91797833333333, "rental_uris": {"android": "https://dc.lft.to/lastmile_qr_scan", "ios": "https://dc.lft.to/lastmile_qr_scan"}, "bike_id": "3019f141e4b917d082af37c8a20ad111", "lon": -77.0343085}, {"is_reserved": 0, "fusion_lon": 0.0, "fusion_lat": 0.0, "name": "5972a4b08534702fde2d44c8487dab55", "type": "electric_scooter", "is_disabled": 0, "lat": 38.88588333333333, "rental_uris": {"android": "https://dc.lft.to/lastmile_qr_scan", "ios": "https://dc.lft.to/lastmile_qr_scan"}, "bike_id": "5972a4b08534702fde2d44c8487dab55", "lon": -76.996233}, {"is_reserved": 0, "fusion_lon": 0.0, "fusion_lat": 0.0, "name": "cfb226ce7c562d6d032868646d995459", "type": "electric_scooter", "is_disabled": 0, "lat": 38.9141185, "rental_uris": {"android": "https://dc.lft.to/lastmile_qr_scan", "ios": "https://dc.lft.to/lastmile_qr_scan"}, "bike_id": "cfb226ce7c562d6d032868646d995459", "lon": -77.041827}, {"is_reserved": 0, "fusion_lon": 0.0, "fusion_lat": 0.0, "name": "44a8d148fd439069d5870faf2a782641", "type": "electric_scooter", "is_disabled": 0, "lat": 38.921892166666666, "rental_uris": {"android": "https://dc.lft.to/lastmile_qr_scan", "ios": "https://dc.lft.to/lastmile_qr_scan"}, "bike_id": "44a8d148fd439069d5870faf2a782641", "lon": -77.042344}, {"is_reserved": 0, "fusion_lon": 0.0, "fusion_lat": 0.0, "name": "bde59ae11cdd75f4a016eacab3e42cea", "type": "electric_scooter", "is_disabled": 0, "lat": 38.88962733333334, "rental_uris": {"android": "https://dc.lft.to/lastmile_qr_scan", "ios": "https://dc.lft.to/lastmile_qr_scan"}, "bike_id": "bde59ae11cdd75f4a016eacab3e42cea", "lon": -76.9370395}, {"is_reserved": 0, "fusion_lon": 0.0, "fusion_lat": 0.0, "name": "9019dd1ebc78d899b4062f0c13be65b7", "type": "electric_scooter", "is_disabled": 0, "lat": 38.91996916666667, "rental_uris": {"android": "https://dc.lft.to/lastmile_qr_scan", "ios": "https://dc.lft.to/lastmile_qr_scan"}, "bike_id": "9019dd1ebc78d899b4062f0c13be65b7", "lon": -77.02204066666667}, {"is_reserved": 0, "fusion_lon": 0.0, "fusion_lat": 0.0, "name": "5e5828a58bc1f6885a786608d6f7ed34", "type": "electric_scooter", "is_disabled": 0, "lat": 38.89426483333333, "rental_uris": {"android": "https://dc.lft.to/lastmile_qr_scan", "ios": "https://dc.lft.to/lastmile_qr_scan"}, "bike_id": "5e5828a58bc1f6885a786608d6f7ed34", "lon": -76.94881816666667}, {"is_reserved": 0, "fusion_lon": 0.0, "fusion_lat": 0.0, "name": "5a036db90265581eb8d3ba05bbd2f2d3", "type": "electric_scooter", "is_disabled": 0, "lat": 38.9154265, "rental_uris": {"android": "https://dc.lft.to/lastmile_qr_scan", "ios": "https://dc.lft.to/lastmile_qr_scan"}, "bike_id": "5a036db90265581eb8d3ba05bbd2f2d3", "lon": -77.01267766666666}, {"is_reserved": 0, "fusion_lon": 0.0, "fusion_lat": 0.0, "name": "93cd995752d6cc3db297564757dcee4e", "type": "electric_scooter", "is_disabled": 0, "lat": 38.89223883333333, "rental_uris": {"android": "https://dc.lft.to/lastmile_qr_scan", "ios": "https://dc.lft.to/lastmile_qr_scan"}, "bike_id": "93cd995752d6cc3db297564757dcee4e", "lon": -77.0426275}, {"is_reserved": 0, "fusion_lon": 0.0, "fusion_lat": 0.0, "name": "c7d31e5aaf6f07a7b85004462dba8c8e", "type": "electric_bike", "is_disabled": 0, "lat": 38.878751333333334, "rental_uris": {"android": "https://dc.lft.to/lastmile_qr_scan", "ios": "https://dc.lft.to/lastmile_qr_scan"}, "bike_id": "c7d31e5aaf6f07a7b85004462dba8c8e", "lon": -76.990155}, {"is_reserved": 0, "fusion_lon": 0.0, "fusion_lat": 0.0, "name": "8b18d2f60364ddfdc551e0fde089b148", "type": "electric_scooter", "is_disabled": 0, "lat": 38.893561, "rental_uris": {"android": "https://dc.lft.to/lastmile_qr_scan", "ios": "https://dc.lft.to/lastmile_qr_scan"}, "bike_id": "8b18d2f60364ddfdc551e0fde089b148", "lon": -77.00339516666666}, {"is_reserved": 0, "fusion_lon": 0.0, "fusion_lat": 0.0, "name": "68dc401611f09bf47315926c2b798a95", "type": "electric_scooter", "is_disabled": 0, "lat": 38.89346583333333, "rental_uris": {"android": "https://dc.lft.to/lastmile_qr_scan", "ios": "https://dc.lft.to/lastmile_qr_scan"}, "bike_id": "68dc401611f09bf47315926c2b798a95", "lon": -77.017246}, {"is_reserved": 0, "fusion_lon": 0.0, "fusion_lat": 0.0, "name": "6a67086fdebeaabb8eb475f7bcdee81f", "type": "electric_scooter", "is_disabled": 0, "lat": 38.96713666666667, "rental_uris": {"android": "https://dc.lft.to/lastmile_qr_scan", "ios": "https://dc.lft.to/lastmile_qr_scan"}, "bike_id": "6a67086fdebeaabb8eb475f7bcdee81f", "lon": -77.018497}, {"is_reserved": 0, "fusion_lon": 0.0, "fusion_lat": 0.0, "name": "ff3cbe6da0e7bf9cd839aee14502dd66", "type": "electric_scooter", "is_disabled": 0, "lat": 38.90637533333334, "rental_uris": {"android": "https://dc.lft.to/lastmile_qr_scan", "ios": "https://dc.lft.to/lastmile_qr_scan"}, "bike_id": "ff3cbe6da0e7bf9cd839aee14502dd66", "lon": -77.04803566666666}, {"is_reserved": 0, "fusion_lon": 0.0, "fusion_lat": 0.0, "name": "cf2ff3a3534000f44bc77abaffc7f091", "type": "electric_scooter", "is_disabled": 0, "lat": 38.9112005, "rental_uris": {"android": "https://dc.lft.to/lastmile_qr_scan", "ios": "https://dc.lft.to/lastmile_qr_scan"}, "bike_id": "cf2ff3a3534000f44bc77abaffc7f091", "lon": -77.03153766666667}, {"is_reserved": 0, "fusion_lon": 0.0, "fusion_lat": 0.0, "name": "73e22966f31f5edbbce9ce1417f13a8f", "type": "electric_bike", "is_disabled": 0, "lat": 38.8548335, "rental_uris": {"android": "https://dc.lft.to/lastmile_qr_scan", "ios": "https://dc.lft.to/lastmile_qr_scan"}, "bike_id": "73e22966f31f5edbbce9ce1417f13a8f", "lon": -77.11610883333333}, {"is_reserved": 0, "fusion_lon": 0.0, "fusion_lat": 0.0, "name": "dac318f86e5e73d99680d256d82540ea", "type": "electric_scooter", "is_disabled": 0, "lat": 38.93736, "rental_uris": {"android": "https://dc.lft.to/lastmile_qr_scan", "ios": "https://dc.lft.to/lastmile_qr_scan"}, "bike_id": "dac318f86e5e73d99680d256d82540ea", "lon": -77.0360945}, {"is_reserved": 0, "fusion_lon": 0.0, "fusion_lat": 0.0, "name": "b35009c3b7cc4e364942f39e2b01018a", "type": "electric_scooter", "is_disabled": 0, "lat": 38.91814733333333, "rental_uris": {"android": "https://dc.lft.to/lastmile_qr_scan", "ios": "https://dc.lft.to/lastmile_qr_scan"}, "bike_id": "b35009c3b7cc4e364942f39e2b01018a", "lon": -77.0356235}, {"is_reserved": 0, "fusion_lon": 0.0, "fusion_lat": 0.0, "name": "1449da75ce12351983937fd61121e4c1", "type": "electric_scooter", "is_disabled": 0, "lat": 38.95734366666667, "rental_uris": {"android": "https://dc.lft.to/lastmile_qr_scan", "ios": "https://dc.lft.to/lastmile_qr_scan"}, "bike_id": "1449da75ce12351983937fd61121e4c1", "lon": -77.02403383333333}, {"is_reserved": 0, "fusion_lon": 0.0, "fusion_lat": 0.0, "name": "396011b26845b1005f1e29cb5dde4284", "type": "electric_scooter", "is_disabled": 0, "lat": 38.86705883333333, "rental_uris": {"android": "https://dc.lft.to/lastmile_qr_scan", "ios": "https://dc.lft.to/lastmile_qr_scan"}, "bike_id": "396011b26845b1005f1e29cb5dde4284", "lon": -76.98713716666667}, {"is_reserved": 0, "fusion_lon": 0.0, "fusion_lat": 0.0, "name": "dc1e850fad266a0e5728aa984ebe62e8", "type": "electric_scooter", "is_disabled": 0, "lat": 38.924271, "rental_uris": {"android": "https://dc.lft.to/lastmile_qr_scan", "ios": "https://dc.lft.to/lastmile_qr_scan"}, "bike_id": "dc1e850fad266a0e5728aa984ebe62e8", "lon": -77.00064616666667}, {"is_reserved": 0, "fusion_lon": 0.0, "fusion_lat": 0.0, "name": "46e2c41ce66eec590471576e0e630414", "type": "electric_scooter", "is_disabled": 0, "lat": 38.92309566666667, "rental_uris": {"android": "https://dc.lft.to/lastmile_qr_scan", "ios": "https://dc.lft.to/lastmile_qr_scan"}, "bike_id": "46e2c41ce66eec590471576e0e630414", "lon": -77.0295855}, {"is_reserved": 0, "fusion_lon": 0.0, "fusion_lat": 0.0, "name": "773994d82ec0104c9d79df670e031dfc", "type": "electric_scooter", "is_disabled": 0, "lat": 38.931434333333335, "rental_uris": {"android": "https://dc.lft.to/lastmile_qr_scan", "ios": "https://dc.lft.to/lastmile_qr_scan"}, "bike_id": "773994d82ec0104c9d79df670e031dfc", "lon": -77.04395483333333}, {"is_reserved": 0, "fusion_lon": 0.0, "fusion_lat": 0.0, "name": "19be18af150525205b91de737b138ee4", "type": "electric_scooter", "is_disabled": 0, "lat": 38.920889, "rental_uris": {"android": "https://dc.lft.to/lastmile_qr_scan", "ios": "https://dc.lft.to/lastmile_qr_scan"}, "bike_id": "19be18af150525205b91de737b138ee4", "lon": -77.04219983333333}, {"is_reserved": 0, "fusion_lon": 0.0, "fusion_lat": 0.0, "name": "2756df289577de0a05aa675a95606f73", "type": "electric_bike", "is_disabled": 0, "lat": 38.90317183333333, "rental_uris": {"android": "https://dc.lft.to/lastmile_qr_scan", "ios": "https://dc.lft.to/lastmile_qr_scan"}, "bike_id": "2756df289577de0a05aa675a95606f73", "lon": -76.91215016666666}, {"is_reserved": 0, "fusion_lon": 0.0, "fusion_lat": 0.0, "name": "91121235e228d76e1feb8c1a6095ff69", "type": "electric_scooter", "is_disabled": 0, "lat": 38.86463416666667, "rental_uris": {"android": "https://dc.lft.to/lastmile_qr_scan", "ios": "https://dc.lft.to/lastmile_qr_scan"}, "bike_id": "91121235e228d76e1feb8c1a6095ff69", "lon": -76.9773505}, {"is_reserved": 0, "fusion_lon": 0.0, "fusion_lat": 0.0, "name": "09ad5c8c3f84b19370a1de0ea8665fea", "type": "electric_scooter", "is_disabled": 0, "lat": 38.885067666666664, "rental_uris": {"android": "https://dc.lft.to/lastmile_qr_scan", "ios": "https://dc.lft.to/lastmile_qr_scan"}, "bike_id": "09ad5c8c3f84b19370a1de0ea8665fea", "lon": -76.99756583333334}, {"is_reserved": 0, "fusion_lon": 0.0, "fusion_lat": 0.0, "name": "ee18422d53b37be6e65ccb4c15275bc0", "type": "electric_scooter", "is_disabled": 0, "lat": 38.88411466666667, "rental_uris": {"android": "https://dc.lft.to/lastmile_qr_scan", "ios": "https://dc.lft.to/lastmile_qr_scan"}, "bike_id": "ee18422d53b37be6e65ccb4c15275bc0", "lon": -76.95378183333334}, {"is_reserved": 0, "fusion_lon": 0.0, "fusion_lat": 0.0, "name": "a27f7fb6986e3d768595b3c957c9516c", "type": "electric_bike", "is_disabled": 0, "lat": 38.839350333333336, "rental_uris": {"android": "https://dc.lft.to/lastmile_qr_scan", "ios": "https://dc.lft.to/lastmile_qr_scan"}, "bike_id": "a27f7fb6986e3d768595b3c957c9516c", "lon": -77.07901866666667}, {"is_reserved": 0, "fusion_lon": 0.0, "fusion_lat": 0.0, "name": "a8263bd0a0cf01a4a609e1b75e75fdd6", "type": "electric_scooter", "is_disabled": 0, "lat": 38.911857499999996, "rental_uris": {"android": "https://dc.lft.to/lastmile_qr_scan", "ios": "https://dc.lft.to/lastmile_qr_scan"}, "bike_id": "a8263bd0a0cf01a4a609e1b75e75fdd6", "lon": -77.06079416666667}, {"is_reserved": 0, "fusion_lon": 0.0, "fusion_lat": 0.0, "name": "61388b476be9f6bad1d2a68c4038a0d2", "type": "electric_scooter", "is_disabled": 0, "lat": 38.9527835, "rental_uris": {"android": "https://dc.lft.to/lastmile_qr_scan", "ios": "https://dc.lft.to/lastmile_qr_scan"}, "bike_id": "61388b476be9f6bad1d2a68c4038a0d2", "lon": -77.06975516666667}, {"is_reserved": 0, "fusion_lon": 0.0, "fusion_lat": 0.0, "name": "a05ca08c4b487035fb2e59bee07578a9", "type": "electric_scooter", "is_disabled": 0, "lat": 38.860105833333336, "rental_uris": {"android": "https://dc.lft.to/lastmile_qr_scan", "ios": "https://dc.lft.to/lastmile_qr_scan"}, "bike_id": "a05ca08c4b487035fb2e59bee07578a9", "lon": -76.98523433333334}, {"is_reserved": 0, "fusion_lon": 0.0, "fusion_lat": 0.0, "name": "388aedc1f71110807796bc9ab4c7c167", "type": "electric_scooter", "is_disabled": 0, "lat": 38.924110166666665, "rental_uris": {"android": "https://dc.lft.to/lastmile_qr_scan", "ios": "https://dc.lft.to/lastmile_qr_scan"}, "bike_id": "388aedc1f71110807796bc9ab4c7c167", "lon": -77.0212745}, {"is_reserved": 0, "fusion_lon": 0.0, "fusion_lat": 0.0, "name": "8ca93247147520902df0034b1d2ad419", "type": "electric_scooter", "is_disabled": 0, "lat": 38.892438, "rental_uris": {"android": "https://dc.lft.to/lastmile_qr_scan", "ios": "https://dc.lft.to/lastmile_qr_scan"}, "bike_id": "8ca93247147520902df0034b1d2ad419", "lon": -77.0334625}, {"is_reserved": 0, "fusion_lon": 0.0, "fusion_lat": 0.0, "name": "b3ccfef27b78ec706e7e64dd75c19862", "type": "electric_scooter", "is_disabled": 0, "lat": 38.90615533333333, "rental_uris": {"android": "https://dc.lft.to/lastmile_qr_scan", "ios": "https://dc.lft.to/lastmile_qr_scan"}, "bike_id": "b3ccfef27b78ec706e7e64dd75c19862", "lon": -76.9868705}, {"is_reserved": 0, "fusion_lon": 0.0, "fusion_lat": 0.0, "name": "ef6e34f80d24cdcad3b7c17d7cb354f4", "type": "electric_scooter", "is_disabled": 0, "lat": 38.933742333333335, "rental_uris": {"android": "https://dc.lft.to/lastmile_qr_scan", "ios": "https://dc.lft.to/lastmile_qr_scan"}, "bike_id": "ef6e34f80d24cdcad3b7c17d7cb354f4", "lon": -77.05727666666667}, {"is_reserved": 0, "fusion_lon": 0.0, "fusion_lat": 0.0, "name": "0e60a65e80a443eeee724f7047f18976", "type": "electric_scooter", "is_disabled": 0, "lat": 38.90362666666667, "rental_uris": {"android": "https://dc.lft.to/lastmile_qr_scan", "ios": "https://dc.lft.to/lastmile_qr_scan"}, "bike_id": "0e60a65e80a443eeee724f7047f18976", "lon": -77.00339833333334}, {"is_reserved": 0, "fusion_lon": 0.0, "fusion_lat": 0.0, "name": "e916c438f06ec226efb59750b513f617", "type": "electric_scooter", "is_disabled": 0, "lat": 38.88086466666667, "rental_uris": {"android": "https://dc.lft.to/lastmile_qr_scan", "ios": "https://dc.lft.to/lastmile_qr_scan"}, "bike_id": "e916c438f06ec226efb59750b513f617", "lon": -76.99836433333333}, {"is_reserved": 0, "fusion_lon": 0.0, "fusion_lat": 0.0, "name": "5451f16b8e5a529f6270db7851b1cb1e", "type": "electric_scooter", "is_disabled": 0, "lat": 38.87443833333333, "rental_uris": {"android": "https://dc.lft.to/lastmile_qr_scan", "ios": "https://dc.lft.to/lastmile_qr_scan"}, "bike_id": "5451f16b8e5a529f6270db7851b1cb1e", "lon": -77.00021683333334}, {"is_reserved": 0, "fusion_lon": 0.0, "fusion_lat": 0.0, "name": "552e1de7889cd87074811022c7bba184", "type": "electric_bike", "is_disabled": 0, "lat": 38.81839216666667, "rental_uris": {"android": "https://dc.lft.to/lastmile_qr_scan", "ios": "https://dc.lft.to/lastmile_qr_scan"}, "bike_id": "552e1de7889cd87074811022c7bba184", "lon": -77.105708}, {"is_reserved": 0, "fusion_lon": 0.0, "fusion_lat": 0.0, "name": "38e68e45774ae2279564a5e1c2763d2b", "type": "electric_bike", "is_disabled": 0, "lat": 38.8839265, "rental_uris": {"android": "https://dc.lft.to/lastmile_qr_scan", "ios": "https://dc.lft.to/lastmile_qr_scan"}, "bike_id": "38e68e45774ae2279564a5e1c2763d2b", "lon": -77.03031433333334}, {"is_reserved": 0, "fusion_lon": 0.0, "fusion_lat": 0.0, "name": "b69e254e62e8cb9d899c57c66592189a", "type": "electric_scooter", "is_disabled": 0, "lat": 38.919953166666666, "rental_uris": {"android": "https://dc.lft.to/lastmile_qr_scan", "ios": "https://dc.lft.to/lastmile_qr_scan"}, "bike_id": "b69e254e62e8cb9d899c57c66592189a", "lon": -77.02188583333333}, {"is_reserved": 0, "fusion_lon": 0.0, "fusion_lat": 0.0, "name": "89acd75998276110acdb8bc25a86fe91", "type": "electric_scooter", "is_disabled": 0, "lat": 38.876274, "rental_uris": {"android": "https://dc.lft.to/lastmile_qr_scan", "ios": "https://dc.lft.to/lastmile_qr_scan"}, "bike_id": "89acd75998276110acdb8bc25a86fe91", "lon": -77.012532}, {"is_reserved": 0, "fusion_lon": 0.0, "fusion_lat": 0.0, "name": "a34877f5eb6f17abb9e6728bb77b0b7e", "type": "electric_scooter", "is_disabled": 0, "lat": 38.87465266666667, "rental_uris": {"android": "https://dc.lft.to/lastmile_qr_scan", "ios": "https://dc.lft.to/lastmile_qr_scan"}, "bike_id": "a34877f5eb6f17abb9e6728bb77b0b7e", "lon": -77.01890333333333}, {"is_reserved": 0, "fusion_lon": 0.0, "fusion_lat": 0.0, "name": "711506adab82716dab23ea4bce1a98ab", "type": "electric_scooter", "is_disabled": 0, "lat": 38.91416133333333, "rental_uris": {"android": "https://dc.lft.to/lastmile_qr_scan", "ios": "https://dc.lft.to/lastmile_qr_scan"}, "bike_id": "711506adab82716dab23ea4bce1a98ab", "lon": -77.04914833333333}, {"is_reserved": 0, "fusion_lon": 0.0, "fusion_lat": 0.0, "name": "319219594e5450332d7b365717a064a0", "type": "electric_scooter", "is_disabled": 0, "lat": 38.905121, "rental_uris": {"android": "https://dc.lft.to/lastmile_qr_scan", "ios": "https://dc.lft.to/lastmile_qr_scan"}, "bike_id": "319219594e5450332d7b365717a064a0", "lon": -76.97921683333334}, {"is_reserved": 0, "fusion_lon": 0.0, "fusion_lat": 0.0, "name": "759734565f5d5eea8909481005971137", "type": "electric_bike", "is_disabled": 0, "lat": 38.966120333333336, "rental_uris": {"android": "https://dc.lft.to/lastmile_qr_scan", "ios": "https://dc.lft.to/lastmile_qr_scan"}, "bike_id": "759734565f5d5eea8909481005971137", "lon": -77.03423833333333}, {"is_reserved": 0, "fusion_lon": 0.0, "fusion_lat": 0.0, "name": "8c5c91b3d6bdd4ac71963f6c3c66f92d", "type": "electric_scooter", "is_disabled": 0, "lat": 38.9206945, "rental_uris": {"android": "https://dc.lft.to/lastmile_qr_scan", "ios": "https://dc.lft.to/lastmile_qr_scan"}, "bike_id": "8c5c91b3d6bdd4ac71963f6c3c66f92d", "lon": -77.04189933333333}, {"is_reserved": 0, "fusion_lon": 0.0, "fusion_lat": 0.0, "name": "1d34c5347c2ad9328b6d40ff6ae3cad0", "type": "electric_scooter", "is_disabled": 0, "lat": 38.879738333333336, "rental_uris": {"android": "https://dc.lft.to/lastmile_qr_scan", "ios": "https://dc.lft.to/lastmile_qr_scan"}, "bike_id": "1d34c5347c2ad9328b6d40ff6ae3cad0", "lon": -76.9950165}, {"is_reserved": 0, "fusion_lon": 0.0, "fusion_lat": 0.0, "name": "4d7cfcd6a0c02e652b67049b26a7f761", "type": "electric_scooter", "is_disabled": 0, "lat": 38.92155783333333, "rental_uris": {"android": "https://dc.lft.to/lastmile_qr_scan", "ios": "https://dc.lft.to/lastmile_qr_scan"}, "bike_id": "4d7cfcd6a0c02e652b67049b26a7f761", "lon": -77.04340916666666}, {"is_reserved": 0, "fusion_lon": 0.0, "fusion_lat": 0.0, "name": "899bf1bd8cfceed92578263cb2f72dc9", "type": "electric_scooter", "is_disabled": 0, "lat": 38.89554016666666, "rental_uris": {"android": "https://dc.lft.to/lastmile_qr_scan", "ios": "https://dc.lft.to/lastmile_qr_scan"}, "bike_id": "899bf1bd8cfceed92578263cb2f72dc9", "lon": -76.94873616666666}, {"is_reserved": 0, "fusion_lon": 0.0, "fusion_lat": 0.0, "name": "acce8a353f5770316e819a697bebd015", "type": "electric_scooter", "is_disabled": 0, "lat": 38.89562566666667, "rental_uris": {"android": "https://dc.lft.to/lastmile_qr_scan", "ios": "https://dc.lft.to/lastmile_qr_scan"}, "bike_id": "acce8a353f5770316e819a697bebd015", "lon": -77.02855166666667}, {"is_reserved": 0, "fusion_lon": 0.0, "fusion_lat": 0.0, "name": "bcd7ae36e26856d764c07dc3e97afc86", "type": "electric_scooter", "is_disabled": 0, "lat": 38.909943, "rental_uris": {"android": "https://dc.lft.to/lastmile_qr_scan", "ios": "https://dc.lft.to/lastmile_qr_scan"}, "bike_id": "bcd7ae36e26856d764c07dc3e97afc86", "lon": -77.03372516666667}, {"is_reserved": 0, "fusion_lon": 0.0, "fusion_lat": 0.0, "name": "a6361464670246a073b7eea1097f1a8a", "type": "electric_scooter", "is_disabled": 0, "lat": 38.9126805, "rental_uris": {"android": "https://dc.lft.to/lastmile_qr_scan", "ios": "https://dc.lft.to/lastmile_qr_scan"}, "bike_id": "a6361464670246a073b7eea1097f1a8a", "lon": -77.03177033333333}, {"is_reserved": 0, "fusion_lon": 0.0, "fusion_lat": 0.0, "name": "43198c5c155ed39cddaaa5f31704e386", "type": "electric_scooter", "is_disabled": 0, "lat": 38.89916616666667, "rental_uris": {"android": "https://dc.lft.to/lastmile_qr_scan", "ios": "https://dc.lft.to/lastmile_qr_scan"}, "bike_id": "43198c5c155ed39cddaaa5f31704e386", "lon": -76.933791}, {"is_reserved": 0, "fusion_lon": 0.0, "fusion_lat": 0.0, "name": "c17437c40adce74ae9c34bf059d10358", "type": "electric_bike", "is_disabled": 0, "lat": 38.893529666666666, "rental_uris": {"android": "https://dc.lft.to/lastmile_qr_scan", "ios": "https://dc.lft.to/lastmile_qr_scan"}, "bike_id": "c17437c40adce74ae9c34bf059d10358", "lon": -77.1873885}, {"is_reserved": 0, "fusion_lon": 0.0, "fusion_lat": 0.0, "name": "189516a8f4b5ab16218b322a9fc577a2", "type": "electric_bike", "is_disabled": 0, "lat": 38.854136, "rental_uris": {"android": "https://dc.lft.to/lastmile_qr_scan", "ios": "https://dc.lft.to/lastmile_qr_scan"}, "bike_id": "189516a8f4b5ab16218b322a9fc577a2", "lon": -77.12069583333333}, {"is_reserved": 0, "fusion_lon": 0.0, "fusion_lat": 0.0, "name": "a606c9672dcfecbab78ee1e234c02419", "type": "electric_scooter", "is_disabled": 0, "lat": 38.902619333333334, "rental_uris": {"android": "https://dc.lft.to/lastmile_qr_scan", "ios": "https://dc.lft.to/lastmile_qr_scan"}, "bike_id": "a606c9672dcfecbab78ee1e234c02419", "lon": -77.00219666666666}, {"is_reserved": 0, "fusion_lon": 0.0, "fusion_lat": 0.0, "name": "962ac41240a2c0f1c680d6eb380b8136", "type": "electric_scooter", "is_disabled": 0, "lat": 38.892390666666664, "rental_uris": {"android": "https://dc.lft.to/lastmile_qr_scan", "ios": "https://dc.lft.to/lastmile_qr_scan"}, "bike_id": "962ac41240a2c0f1c680d6eb380b8136", "lon": -77.041589}, {"is_reserved": 0, "fusion_lon": 0.0, "fusion_lat": 0.0, "name": "468a0fd3182240d7c846865d6b1ed987", "type": "electric_scooter", "is_disabled": 0, "lat": 38.917131166666664, "rental_uris": {"android": "https://dc.lft.to/lastmile_qr_scan", "ios": "https://dc.lft.to/lastmile_qr_scan"}, "bike_id": "468a0fd3182240d7c846865d6b1ed987", "lon": -77.06823516666667}, {"is_reserved": 0, "fusion_lon": 0.0, "fusion_lat": 0.0, "name": "3217223d3ef250adc68f7211fb71b7b8", "type": "electric_bike", "is_disabled": 0, "lat": 38.854411166666665, "rental_uris": {"android": "https://dc.lft.to/lastmile_qr_scan", "ios": "https://dc.lft.to/lastmile_qr_scan"}, "bike_id": "3217223d3ef250adc68f7211fb71b7b8", "lon": -77.0832595}, {"is_reserved": 0, "fusion_lon": 0.0, "fusion_lat": 0.0, "name": "8e9a876056b384bed951e4781058fde7", "type": "electric_scooter", "is_disabled": 0, "lat": 38.8973445, "rental_uris": {"android": "https://dc.lft.to/lastmile_qr_scan", "ios": "https://dc.lft.to/lastmile_qr_scan"}, "bike_id": "8e9a876056b384bed951e4781058fde7", "lon": -76.98511483333333}, {"is_reserved": 0, "fusion_lon": 0.0, "fusion_lat": 0.0, "name": "7a5d74c737fdbce9b05b5e06ae6fea09", "type": "electric_scooter", "is_disabled": 0, "lat": 38.9270185, "rental_uris": {"android": "https://dc.lft.to/lastmile_qr_scan", "ios": "https://dc.lft.to/lastmile_qr_scan"}, "bike_id": "7a5d74c737fdbce9b05b5e06ae6fea09", "lon": -77.0207615}, {"is_reserved": 0, "fusion_lon": 0.0, "fusion_lat": 0.0, "name": "cdb03f04f78a134b009f9faede08f32e", "type": "electric_scooter", "is_disabled": 0, "lat": 38.921549, "rental_uris": {"android": "https://dc.lft.to/lastmile_qr_scan", "ios": "https://dc.lft.to/lastmile_qr_scan"}, "bike_id": "cdb03f04f78a134b009f9faede08f32e", "lon": -77.033764}, {"is_reserved": 0, "fusion_lon": 0.0, "fusion_lat": 0.0, "name": "0325bc04ddfc352b7fc7b8804026b560", "type": "electric_scooter", "is_disabled": 0, "lat": 38.87536133333333, "rental_uris": {"android": "https://dc.lft.to/lastmile_qr_scan", "ios": "https://dc.lft.to/lastmile_qr_scan"}, "bike_id": "0325bc04ddfc352b7fc7b8804026b560", "lon": -77.00596216666666}, {"is_reserved": 0, "fusion_lon": 0.0, "fusion_lat": 0.0, "name": "9f88a356e78c357fa02f15bb5cc87e08", "type": "electric_scooter", "is_disabled": 0, "lat": 38.938642333333334, "rental_uris": {"android": "https://dc.lft.to/lastmile_qr_scan", "ios": "https://dc.lft.to/lastmile_qr_scan"}, "bike_id": "9f88a356e78c357fa02f15bb5cc87e08", "lon": -77.0244525}, {"is_reserved": 0, "fusion_lon": 0.0, "fusion_lat": 0.0, "name": "e8b710ee539cdd81a73d80133947731a", "type": "electric_scooter", "is_disabled": 0, "lat": 38.92640333333333, "rental_uris": {"android": "https://dc.lft.to/lastmile_qr_scan", "ios": "https://dc.lft.to/lastmile_qr_scan"}, "bike_id": "e8b710ee539cdd81a73d80133947731a", "lon": -77.03466616666667}, {"is_reserved": 0, "fusion_lon": 0.0, "fusion_lat": 0.0, "name": "65bb1bad1562bc175adb3c0b8c37d90f", "type": "electric_bike", "is_disabled": 0, "lat": 38.85768866666667, "rental_uris": {"android": "https://dc.lft.to/lastmile_qr_scan", "ios": "https://dc.lft.to/lastmile_qr_scan"}, "bike_id": "65bb1bad1562bc175adb3c0b8c37d90f", "lon": -76.98760883333334}, {"is_reserved": 0, "fusion_lon": 0.0, "fusion_lat": 0.0, "name": "2e0443e886298a8c0b18579c5b0299a1", "type": "electric_scooter", "is_disabled": 0, "lat": 38.908577666666666, "rental_uris": {"android": "https://dc.lft.to/lastmile_qr_scan", "ios": "https://dc.lft.to/lastmile_qr_scan"}, "bike_id": "2e0443e886298a8c0b18579c5b0299a1", "lon": -77.07158916666667}, {"is_reserved": 0, "fusion_lon": 0.0, "fusion_lat": 0.0, "name": "cce3722ef64121e756e4c966a51fbf66", "type": "electric_scooter", "is_disabled": 0, "lat": 38.876158333333336, "rental_uris": {"android": "https://dc.lft.to/lastmile_qr_scan", "ios": "https://dc.lft.to/lastmile_qr_scan"}, "bike_id": "cce3722ef64121e756e4c966a51fbf66", "lon": -77.00513}, {"is_reserved": 0, "fusion_lon": 0.0, "fusion_lat": 0.0, "name": "b03dc8741bcd15ce100f8856a992a1ac", "type": "electric_scooter", "is_disabled": 0, "lat": 38.887421333333336, "rental_uris": {"android": "https://dc.lft.to/lastmile_qr_scan", "ios": "https://dc.lft.to/lastmile_qr_scan"}, "bike_id": "b03dc8741bcd15ce100f8856a992a1ac", "lon": -77.02384566666667}, {"is_reserved": 0, "fusion_lon": 0.0, "fusion_lat": 0.0, "name": "21b885d49b6f0c383aa25b73927f0960", "type": "electric_scooter", "is_disabled": 0, "lat": 38.892215, "rental_uris": {"android": "https://dc.lft.to/lastmile_qr_scan", "ios": "https://dc.lft.to/lastmile_qr_scan"}, "bike_id": "21b885d49b6f0c383aa25b73927f0960", "lon": -77.04863566666667}, {"is_reserved": 0, "fusion_lon": 0.0, "fusion_lat": 0.0, "name": "2ca41e379684f7793013b2d0b1b35e59", "type": "electric_scooter", "is_disabled": 0, "lat": 38.9333785, "rental_uris": {"android": "https://dc.lft.to/lastmile_qr_scan", "ios": "https://dc.lft.to/lastmile_qr_scan"}, "bike_id": "2ca41e379684f7793013b2d0b1b35e59", "lon": -77.02621333333333}, {"is_reserved": 0, "fusion_lon": 0.0, "fusion_lat": 0.0, "name": "887694b450eb43482a999ea2eddb901e", "type": "electric_scooter", "is_disabled": 0, "lat": 38.887774666666665, "rental_uris": {"android": "https://dc.lft.to/lastmile_qr_scan", "ios": "https://dc.lft.to/lastmile_qr_scan"}, "bike_id": "887694b450eb43482a999ea2eddb901e", "lon": -76.95533116666667}, {"is_reserved": 0, "fusion_lon": 0.0, "fusion_lat": 0.0, "name": "d7a6d092352da5f10ee84e4ff86e49ac", "type": "electric_scooter", "is_disabled": 0, "lat": 38.89227566666667, "rental_uris": {"android": "https://dc.lft.to/lastmile_qr_scan", "ios": "https://dc.lft.to/lastmile_qr_scan"}, "bike_id": "d7a6d092352da5f10ee84e4ff86e49ac", "lon": -77.04335233333333}, {"is_reserved": 0, "fusion_lon": 0.0, "fusion_lat": 0.0, "name": "42bff484493e93722849639c6a7969cb", "type": "electric_scooter", "is_disabled": 0, "lat": 38.9357895, "rental_uris": {"android": "https://dc.lft.to/lastmile_qr_scan", "ios": "https://dc.lft.to/lastmile_qr_scan"}, "bike_id": "42bff484493e93722849639c6a7969cb", "lon": -77.02119166666667},