{"data": {"bikes": [{"is_disabled": 0, "is_reserved": 0, "type": "electric_scooter", "lon": -77.04656283333334, "fusion_lon": 0.0, "lat": 38.9117945, "rental_uris": {"android": "https://dc.lft.to/lastmile_qr_scan", "ios": "https://dc.lft.to/lastmile_qr_scan"}, "fusion_lat": 0.0, "name": "72fb52de194ac054664bfe8045dd660b", "bike_id": "72fb52de194ac054664bfe8045dd660b"}, {"is_disabled": 0, "is_reserved": 0, "type": "electric_scooter", "lon": -77.04488766666667, "fusion_lon": 0.0, "lat": 38.9084515, "rental_uris": {"android": "https://dc.lft.to/lastmile_qr_scan", "ios": "https://dc.lft.to/lastmile_qr_scan"}, "fusion_lat": 0.0, "name": "4049043987fc5ea844800ab046b2dd8d", "bike_id": "4049043987fc5ea844800ab046b2dd8d"}, {"is_disabled": 0, "is_reserved": 0, "type": "electric_scooter", "lon": -77.0049355, "fusion_lon": 0.0, "lat": 38.896882166666664, "rental_uris": {"android": "https://dc.lft.to/lastmile_qr_scan", "ios": "https://dc.lft.to/lastmile_qr_scan"}, "fusion_lat": 0.0, "name": "dba597d6ff93a94cd4c06a5e2b642cc2", "bike_id": "dba597d6ff93a94cd4c06a5e2b642cc2"}, {"is_disabled": 0, "is_reserved": 0, "type": "electric_scooter", "lon": -76.99161883333333, "fusion_lon": 0.0, "lat": 38.88142166666667, "rental_uris": {"android": "https://dc.lft.to/lastmile_qr_scan", "ios": "https://dc.lft.to/lastmile_qr_scan"}, "fusion_lat": 0.0, "name": "2a26d4d4a9d9177a285236e669764c4e", "bike_id": "2a26d4d4a9d9177a285236e669764c4e"}, {"is_disabled": 0, "is_reserved": 0, "type": "electric_scooter", "lon": -77.0344405, "fusion_lon": 0.0, "lat": 38.9101825, "rental_uris": {"android": "https://dc.lft.to/lastmile_qr_scan", "ios": "https://dc.lft.to/lastmile_qr_scan"}, "fusion_lat": 0.0, "name": "9b018212eb8c0a03d375fe33356b42d0", "bike_id": "9b018212eb8c0a03d375fe33356b42d0"}, {"is_disabled": 0, "is_reserved": 0, "type": "electric_scooter", "lon": -77.02953283333333, "fusion_lon": 0.0, "lat": 38.9044795, "rental_uris": {"android": "https://dc.lft.to/lastmile_qr_scan", "ios": "https://dc.lft.to/lastmile_qr_scan"}, "fusion_lat": 0.0, "name": "9e0d48ffe53e4b524bed89a02e90cb9b", "bike_id": "9e0d48ffe53e4b524bed89a02e90cb9b"}, {"is_disabled": 0, "is_reserved": 0, "type": "electric_scooter", "lon": -77.03351766666667, "fusion_lon": 0.0, "lat": 38.892430166666664, "rental_uris": {"android": "https://dc.lft.to/lastmile_qr_scan", "ios": "https://dc.lft.to/lastmile_qr_scan"}, "fusion_lat": 0.0, "name": "959c5e10507fd9f3d25ea52fa469b868", "bike_id": "959c5e10507fd9f3d25ea52fa469b868"}, {"is_disabled": 0, "is_reserved": 0, "type": "electric_scooter", "lon": -77.0215925, "fusion_lon": 0.0, "lat": 38.893906, "rental_uris": {"android": "https://dc.lft.to/lastmile_qr_scan", "ios": "https://dc.lft.to/lastmile_qr_scan"}, "fusion_lat": 0.0, "name": "b90f7dbda690b96f182cf238f4b12772", "bike_id": "b90f7dbda690b96f182cf238f4b12772"}, {"is_disabled": 0, "is_reserved": 0, "type": "electric_scooter", "lon": -77.02493383333334, "fusion_lon": 0.0, "lat": 38.91806483333333, "rental_uris": {"android": "https://dc.lft.to/lastmile_qr_scan", "ios": "https://dc.lft.to/lastmile_qr_scan"}, "fusion_lat": 0.0, "name": "d0c070d42ed8231f9aaa5bdc0d5dc29a", "bike_id": "d0c070d42ed8231f9aaa5bdc0d5dc29a"}, {"is_disabled": 0, "is_reserved": 0, "type": "electric_scooter", "lon": -77.04864933333333, "fusion_lon": 0.0, "lat": 38.9095595, "rental_uris": {"android": "https://dc.lft.to/lastmile_qr_scan", "ios": "https://dc.lft.to/lastmile_qr_scan"}, "fusion_lat": 0.0, "name": "cdac29aeab725be95a8e56422bc9b868", "bike_id": "cdac29aeab725be95a8e56422bc9b868"}, {"is_disabled": 0, "is_reserved": 0, "type": "electric_scooter", "lon": -77.0081285, "fusion_lon": 0.0, "lat": 38.87843066666667, "rental_uris": {"android": "https://dc.lft.to/lastmile_qr_scan", "ios": "https://dc.lft.to/lastmile_qr_scan"}, "fusion_lat": 0.0, "name": "fec205a40f4ee0b5feaa5e62d316e95f", "bike_id": "fec205a40f4ee0b5feaa5e62d316e95f"}, {"is_disabled": 0, "is_reserved": 0, "type": "electric_bike", "lon": -77.06379933333334, "fusion_lon": 0.0, "lat": 39.017306166666664, "rental_uris": {"android": "https://dc.lft.to/lastmile_qr_scan", "ios": "https://dc.lft.to/lastmile_qr_scan"}, "fusion_lat": 0.0, "name": "f2eec3c26076feb3e1645dcf8f996503", "bike_id": "f2eec3c26076feb3e1645dcf8f996503"}, {"is_disabled": 0, "is_reserved": 0, "type": "electric_bike", "lon": -76.960897, "fusion_lon": 0.0, "lat": 38.9185715, "rental_uris": {"android": "https://dc.lft.to/lastmile_qr_scan", "ios": "https://dc.lft.to/lastmile_qr_scan"}, "fusion_lat": 0.0, "name": "be63607d06fb826cb64804f16a59f8d9", "bike_id": "be63607d06fb826cb64804f16a59f8d9"}, {"is_disabled": 0, "is_reserved": 0, "type": "electric_scooter", "lon": -76.988837, "fusion_lon": 0.0, "lat": 38.8667195, "rental_uris": {"android": "https://dc.lft.to/lastmile_qr_scan", "ios": "https://dc.lft.to/lastmile_qr_scan"}, "fusion_lat": 0.0, "name": "176c1f6467a488d43be9f2d79a8be37a", "bike_id": "176c1f6467a488d43be9f2d79a8be37a"}, {"is_disabled": 0, "is_reserved": 0, "type": "electric_scooter", "lon": -77.02400533333333, "fusion_lon": 0.0, "lat": 38.93095266666667, "rental_uris": {"android": "https://dc.lft.to/lastmile_qr_scan", "ios": "https://dc.lft.to/lastmile_qr_scan"}, "fusion_lat": 0.0, "name": "fcb48ada7023e719472de0c0297c524f", "bike_id": "fcb48ada7023e719472de0c0297c524f"}, {"is_disabled": 0, "is_reserved": 0, "type": "electric_bike", "lon": -77.002149, "fusion_lon": 0.0, "lat": 38.819428333333335, "rental_uris": {"android": "https://dc.lft.to/lastmile_qr_scan", "ios": "https://dc.lft.to/lastmile_qr_scan"}, "fusion_lat": 0.0, "name": "51fcadc705da4052f20558cac1aa8fc4", "bike_id": "51fcadc705da4052f20558cac1aa8fc4"}, {"is_disabled": 0, "is_reserved": 0, "type": "electric_scooter", "lon": -77.03671233333333, "fusion_lon": 0.0, "lat": 38.9057085, "rental_uris": {"android": "https://dc.lft.to/lastmile_qr_scan", "ios": "https://dc.lft.to/lastmile_qr_scan"}, "fusion_lat": 0.0, "name": "38be5f6ce77fc03a8a5c9e3ce26a9243", "bike_id": "38be5f6ce77fc03a8a5c9e3ce26a9243"}, {"is_disabled": 0, "is_reserved": 0, "type": "electric_scooter", "lon": -77.052279, "fusion_lon": 0.0, "lat": 38.898149833333335, "rental_uris": {"android": "https://dc.lft.to/lastmile_qr_scan", "ios": "https://dc.lft.to/lastmile_qr_scan"}, "fusion_lat": 0.0, "name": "75f6138b0e90b6ac08a96ce15091562d", "bike_id": "75f6138b0e90b6ac08a96ce15091562d"}, {"is_disabled": 0, "is_reserved": 0, "type": "electric_scooter", "lon": -77.0103825, "fusion_lon": 0.0, "lat": 38.8666425, "rental_uris": {"android": "https://dc.lft.to/lastmile_qr_scan", "ios": "https://dc.lft.to/lastmile_qr_scan"}, "fusion_lat": 0.0, "name": "a7e2291342c7ca5ca3f5bea0aacd7bcd", "bike_id": "a7e2291342c7ca5ca3f5bea0aacd7bcd"}, {"is_disabled": 0, "is_reserved": 0, "type": "electric_scooter", "lon": -77.02782, "fusion_lon": 0.0, "lat": 38.892186333333335, "rental_uris": {"android": "https://dc.lft.to/lastmile_qr_scan", "ios": "https://dc.lft.to/lastmile_qr_scan"}, "fusion_lat": 0.0, "name": "3312f00fe67fdacc12950640c7cf8dca", "bike_id": "3312f00fe67fdacc12950640c7cf8dca"}, {"is_disabled": 0, "is_reserved": 0, "type": "electric_scooter", "lon": -77.026709, "fusion_lon": 0.0, "lat": 38.9126935, "rental_uris": {"android": "https://dc.lft.to/lastmile_qr_scan", "ios": "https://dc.lft.to/lastmile_qr_scan"}, "fusion_lat": 0.0, "name": "7805adc6ab9bf314fa799209498d7776", "bike_id": "7805adc6ab9bf314fa799209498d7776"}, {"is_disabled": 0, "is_reserved": 0, "type": "electric_bike", "lon": -76.9276035, "fusion_lon": 0.0, "lat": 38.96037283333333, "rental_uris": {"android": "https://dc.lft.to/lastmile_qr_scan", "ios": "https://dc.lft.to/lastmile_qr_scan"}, "fusion_lat": 0.0, "name": "fc1e3db79214f0917bd748cdcc3302a4", "bike_id": "fc1e3db79214f0917bd748cdcc3302a4"}, {"is_disabled": 0, "is_reserved": 0, "type": "electric_scooter", "lon": -77.02460616666667, "fusion_lon": 0.0, "lat": 38.93714666666666, "rental_uris": {"android": "https://dc.lft.to/lastmile_qr_scan", "ios": "https://dc.lft.to/lastmile_qr_scan"}, "fusion_lat": 0.0, "name": "f3d38465899ba225b547578def717896", "bike_id": "f3d38465899ba225b547578def717896"}, {"is_disabled": 0, "is_reserved": 0, "type": "electric_scooter", "lon": -76.9951765, "fusion_lon": 0.0, "lat": 38.8948475, "rental_uris": {"android": "https://dc.lft.to/lastmile_qr_scan", "ios": "https://dc.lft.to/lastmile_qr_scan"}, "fusion_lat": 0.0, "name": "37a007a6914b62638c9d0473a79dff77", "bike_id": "37a007a6914b62638c9d0473a79dff77"}, {"is_disabled": 0, "is_reserved": 0, "type": "electric_scooter", "lon": -77.046015, "fusion_lon": 0.0, "lat": 38.902456666666666, "rental_uris": {"android": "https://dc.lft.to/lastmile_qr_scan", "ios": "https://dc.lft.to/lastmile_qr_scan"}, "fusion_lat": 0.0, "name": "7e2ab8fbdf04201b396deab090a5da2a", "bike_id": "7e2ab8fbdf04201b396deab090a5da2a"}, {"is_disabled": 0, "is_reserved": 0, "type": "electric_bike", "lon": -77.00888483333334, "fusion_lon": 0.0, "lat": 38.874471666666665, "rental_uris": {"android": "https://dc.lft.to/lastmile_qr_scan", "ios": "https://dc.lft.to/lastmile_qr_scan"}, "fusion_lat": 0.0, "name": "98f0a7ca879caefb6c1819018ec9eb80", "bike_id": "98f0a7ca879caefb6c1819018ec9eb80"}, {"is_disabled": 0, "is_reserved": 0, "type": "electric_scooter", "lon": -77.03283983333333, "fusion_lon": 0.0, "lat": 38.92345, "rental_uris": {"android": "https://dc.lft.to/lastmile_qr_scan", "ios": "https://dc.lft.to/lastmile_qr_scan"}, "fusion_lat": 0.0, "name": "61af8861f8dc08d726fc8792b15241df", "bike_id": "61af8861f8dc08d726fc8792b15241df"}, {"is_disabled": 0, "is_reserved": 0, "type": "electric_scooter", "lon": -76.98578883333333, "fusion_lon": 0.0, "lat": 38.85452016666667, "rental_uris": {"android": "https://dc.lft.to/lastmile_qr_scan", "ios": "https://dc.lft.to/lastmile_qr_scan"}, "fusion_lat": 0.0, "name": "71d006e6c3e9e2418cb09f2cc498d17b", "bike_id": "71d006e6c3e9e2418cb09f2cc498d17b"}, {"is_disabled": 0, "is_reserved": 0, "type": "electric_scooter", "lon": -77.0522315, "fusion_lon": 0.0, "lat": 38.924555166666664, "rental_uris": {"android": "https://dc.lft.to/lastmile_qr_scan", "ios": "https://dc.lft.to/lastmile_qr_scan"}, "fusion_lat": 0.0, "name": "23d14c095245cb0d4283754ffe990149", "bike_id": "23d14c095245cb0d4283754ffe990149"}, {"is_disabled": 0, "is_reserved": 0, "type": "electric_scooter", "lon": -77.046593, "fusion_lon": 0.0, "lat": 38.892993, "rental_uris": {"android": "https://dc.lft.to/lastmile_qr_scan", "ios": "https://dc.lft.to/lastmile_qr_scan"}, "fusion_lat": 0.0, "name": "b9e9fe36b04f4cd454b7d7d138d9d785", "bike_id": "b9e9fe36b04f4cd454b7d7d138d9d785"}, {"is_disabled": 0, "is_reserved": 0, "type": "electric_scooter", "lon": -76.9969465, "fusion_lon": 0.0, "lat": 38.8386795, "rental_uris": {"android": "https://dc.lft.to/lastmile_qr_scan", "ios": "https://dc.lft.to/lastmile_qr_scan"}, "fusion_lat": 0.0, "name": "b1cb1702e227ef7fcc872c3d7a44e478", "bike_id": "b1cb1702e227ef7fcc872c3d7a44e478"}, {"is_disabled": 0, "is_reserved": 0, "type": "electric_scooter", "lon": -77.04108516666666, "fusion_lon": 0.0, "lat": 38.90522166666667, "rental_uris": {"android": "https://dc.lft.to/lastmile_qr_scan", "ios": "https://dc.lft.to/lastmile_qr_scan"}, "fusion_lat": 0.0, "name": "3c59e2dc0b195e97ae6d547311dffa09", "bike_id": "3c59e2dc0b195e97ae6d547311dffa09"}, {"is_disabled": 0, "is_reserved": 0, "type": "electric_bike", "lon": -77.03393783333334, "fusion_lon": 0.0, "lat": 38.96027266666667, "rental_uris": {"android": "https://dc.lft.to/lastmile_qr_scan", "ios": "https://dc.lft.to/lastmile_qr_scan"}, "fusion_lat": 0.0, "name": "b0584705d3689fdd01e54143743856ab", "bike_id": "b0584705d3689fdd01e54143743856ab"}, {"is_disabled": 0, "is_reserved": 0, "type": "electric_scooter", "lon": -76.986853, "fusion_lon": 0.0, "lat": 38.858093333333336, "rental_uris": {"android": "https://dc.lft.to/lastmile_qr_scan", "ios": "https://dc.lft.to/lastmile_qr_scan"}, "fusion_lat": 0.0, "name": "64acf9ce0c4c2caf633b4ddd03c9ffa9", "bike_id": "64acf9ce0c4c2caf633b4ddd03c9ffa9"}, {"is_disabled": 0, "is_reserved": 0, "type": "electric_scooter", "lon": -77.036296, "fusion_lon": 0.0, "lat": 38.9560515, "rental_uris": {"android": "https://dc.lft.to/lastmile_qr_scan", "ios": "https://dc.lft.to/lastmile_qr_scan"}, "fusion_lat": 0.0, "name": "f6f14c560cd834f9381e3e056c98a0b1", "bike_id": "f6f14c560cd834f9381e3e056c98a0b1"}, {"is_disabled": 0, "is_reserved": 0, "type": "electric_scooter", "lon": -77.0276205, "fusion_lon": 0.0, "lat": 38.88154933333333, "rental_uris": {"android": "https://dc.lft.to/lastmile_qr_scan", "ios": "https://dc.lft.to/lastmile_qr_scan"}, "fusion_lat": 0.0, "name": "d51dc49079ea2896135d5c17973a768a", "bike_id": "d51dc49079ea2896135d5c17973a768a"}, {"is_disabled": 0, "is_reserved": 0, "type": "electric_bike", "lon": -77.091565, "fusion_lon": 0.0, "lat": 38.9676325, "rental_uris": {"android": "https://dc.lft.to/lastmile_qr_scan", "ios": "https://dc.lft.to/lastmile_qr_scan"}, "fusion_lat": 0.0, "name": "3667bf5ef90fc6d4c865566a6ef9e21f", "bike_id": "3667bf5ef90fc6d4c865566a6ef9e21f"}, {"is_disabled": 0, "is_reserved": 0, "type": "electric_scooter", "lon": -77.04509416666667, "fusion_lon": 0.0, "lat": 38.90385583333333, "rental_uris": {"android": "https://dc.lft.to/lastmile_qr_scan", "ios": "https://dc.lft.to/lastmile_qr_scan"}, "fusion_lat": 0.0, "name": "68f80d13aabd251264d9592be2b9a072", "bike_id": "68f80d13aabd251264d9592be2b9a072"}, {"is_disabled": 0, "is_reserved": 0, "type": "electric_scooter", "lon": -77.01103016666667, "fusion_lon": 0.0, "lat": 38.90794483333333, "rental_uris": {"android": "https://dc.lft.to/lastmile_qr_scan", "ios": "https://dc.lft.to/lastmile_qr_scan"}, "fusion_lat": 0.0, "name": "2af111ac8de714b166d2ec9a4aab9ac5", "bike_id": "2af111ac8de714b166d2ec9a4aab9ac5"}, {"is_disabled": 0, "is_reserved": 0, "type": "electric_scooter", "lon": -77.06021616666666, "fusion_lon": 0.0, "lat": 38.90526166666667, "rental_uris": {"android": "https://dc.lft.to/lastmile_qr_scan", "ios": "https://dc.lft.to/lastmile_qr_scan"}, "fusion_lat": 0.0, "name": "d879d82b327ca5242818f6bdb515dfa7", "bike_id": "d879d82b327ca5242818f6bdb515dfa7"}, {"is_disabled": 0, "is_reserved": 0, "type": "electric_scooter", "lon": -77.04059583333333, "fusion_lon": 0.0, "lat": 38.92538366666667, "rental_uris": {"android": "https://dc.lft.to/lastmile_qr_scan", "ios": "https://dc.lft.to/lastmile_qr_scan"}, "fusion_lat": 0.0, "name": "3b88bfa28328fe689906a3caea05c344", "bike_id": "3b88bfa28328fe689906a3caea05c344"}, {"is_disabled": 0, "is_reserved": 0, "type": "electric_scooter", "lon": -76.93151266666666, "fusion_lon": 0.0, "lat": 38.89849483333333, "rental_uris": {"android": "https://dc.lft.to/lastmile_qr_scan", "ios": "https://dc.lft.to/lastmile_qr_scan"}, "fusion_lat": 0.0, "name": "2e62f3306dbb9732cc524e04ec056a41", "bike_id": "2e62f3306dbb9732cc524e04ec056a41"}, {"is_disabled": 0, "is_reserved": 0, "type": "electric_scooter", "lon": -76.99084083333334, "fusion_lon": 0.0, "lat": 38.862361666666665, "rental_uris": {"android": "https://dc.lft.to/lastmile_qr_scan", "ios": "https://dc.lft.to/lastmile_qr_scan"}, "fusion_lat": 0.0, "name": "6d444534784134db358b323166a67f70", "bike_id": "6d444534784134db358b323166a67f70"}, {"is_disabled": 0, "is_reserved": 0, "type": "electric_scooter", "lon": -76.98086216666667, "fusion_lon": 0.0, "lat": 38.87007083333334, "rental_uris": {"android": "https://dc.lft.to/lastmile_qr_scan", "ios": "https://dc.lft.to/lastmile_qr_scan"}, "fusion_lat": 0.0, "name": "198229cdf8f67d8fb514b8db7729ca72", "bike_id": "198229cdf8f67d8fb514b8db7729ca72"}, {"is_disabled": 0, "is_reserved": 0, "type": "electric_scooter", "lon": -77.02213966666666, "fusion_lon": 0.0, "lat": 38.887424833333334, "rental_uris": {"android": "https://dc.lft.to/lastmile_qr_scan", "ios": "https://dc.lft.to/lastmile_qr_scan"}, "fusion_lat": 0.0, "name": "d40e483d9c87d5b85e962e59d73ba686", "bike_id": "d40e483d9c87d5b85e962e59d73ba686"}, {"is_disabled": 0, "is_reserved": 0, "type": "electric_scooter", "lon": -76.98730933333333, "fusion_lon": 0.0, "lat": 38.86707283333333, "rental_uris": {"android": "https://dc.lft.to/lastmile_qr_scan", "ios": "https://dc.lft.to/lastmile_qr_scan"}, "fusion_lat": 0.0, "name": "09af7cfb463e05609a78b7d8ef5b52db", "bike_id": "09af7cfb463e05609a78b7d8ef5b52db"}, {"is_disabled": 0, "is_reserved": 0, "type": "electric_scooter", "lon": -77.03475516666667, "fusion_lon": 0.0, "lat": 38.903185666666666, "rental_uris": {"android": "https://dc.lft.to/lastmile_qr_scan", "ios": "https://dc.lft.to/lastmile_qr_scan"}, "fusion_lat": 0.0, "name": "3f13819d8f9390491f7173ab82f33e2d", "bike_id": "3f13819d8f9390491f7173ab82f33e2d"}, {"is_disabled": 0, "is_reserved": 0, "type": "electric_scooter", "lon": -77.02952583333334, "fusion_lon": 0.0, "lat": 38.89832916666667, "rental_uris": {"android": "https://dc.lft.to/lastmile_qr_scan", "ios": "https://dc.lft.to/lastmile_qr_scan"}, "fusion_lat": 0.0, "name": "d2478d487c18caa2307e8d43b75d663e", "bike_id": "d2478d487c18caa2307e8d43b75d663e"}, {"is_disabled": 0, "is_reserved": 0, "type": "electric_scooter", "lon": -77.03677133333333, "fusion_lon": 0.0, "lat": 38.918518666666664, "rental_uris": {"android": "https://dc.lft.to/lastmile_qr_scan", "ios": "https://dc.lft.to/lastmile_qr_scan"}, "fusion_lat": 0.0, "name": "2eb556fe94b37fffe7b88d0620c0d8b6", "bike_id": "2eb556fe94b37fffe7b88d0620c0d8b6"}, {"is_disabled": 0, "is_reserved": 0, "type": "electric_scooter", "lon": -77.066694, "fusion_lon": 0.0, "lat": 38.949604666666666, "rental_uris": {"android": "https://dc.lft.to/lastmile_qr_scan", "ios": "https://dc.lft.to/lastmile_qr_scan"}, "fusion_lat": 0.0, "name": "c7cf5194358f158d284c614ab073b7a2", "bike_id": "c7cf5194358f158d284c614ab073b7a2"}, {"is_disabled": 0, "is_reserved": 0, "type": "electric_scooter", "lon": -77.02878516666667, "fusion_lon": 0.0, "lat": 38.92244066666667, "rental_uris": {"android": "https://dc.lft.to/lastmile_qr_scan", "ios": "https://dc.lft.to/lastmile_qr_scan"}, "fusion_lat": 0.0, "name": "ea00b6dc7c806fa1132a57cbd3da9664", "bike_id": "ea00b6dc7c806fa1132a57cbd3da9664"}, {"is_disabled": 0, "is_reserved": 0, "type": "electric_scooter", "lon": -77.0448255, "fusion_lon": 0.0, "lat": 38.9012805, "rental_uris": {"android": "https://dc.lft.to/lastmile_qr_scan", "ios": "https://dc.lft.to/lastmile_qr_scan"}, "fusion_lat": 0.0, "name": "17c2e517b97ab06ce53dc9ea54540328", "bike_id": "17c2e517b97ab06ce53dc9ea54540328"}, {"is_disabled": 0, "is_reserved": 0, "type": "electric_scooter", "lon": -77.02441433333334, "fusion_lon": 0.0, "lat": 38.934194, "rental_uris": {"android": "https://dc.lft.to/lastmile_qr_scan", "ios": "https://dc.lft.to/lastmile_qr_scan"}, "fusion_lat": 0.0, "name": "b16466b83bac9f04be3e6397c57a7f3d", "bike_id": "b16466b83bac9f04be3e6397c57a7f3d"}, {"is_disabled": 0, "is_reserved": 0, "type": "electric_scooter", "lon": -77.04169883333333, "fusion_lon": 0.0, "lat": 38.91730033333333, "rental_uris": {"android": "https://dc.lft.to/lastmile_qr_scan", "ios": "https://dc.lft.to/lastmile_qr_scan"}, "fusion_lat": 0.0, "name": "259af5c0e5ddeeb1f3a4db469f9f7d40", "bike_id": "259af5c0e5ddeeb1f3a4db469f9f7d40"}, {"is_disabled": 0, "is_reserved": 0, "type": "electric_bike", "lon": -77.02863433333333, "fusion_lon": 0.0, "lat": 38.99867583333333, "rental_uris": {"android": "https://dc.lft.to/lastmile_qr_scan", "ios": "https://dc.lft.to/lastmile_qr_scan"}, "fusion_lat": 0.0, "name": "4967308706b971d28c61a1e9b563cb23", "bike_id": "4967308706b971d28c61a1e9b563cb23"}, {"is_disabled": 0, "is_reserved": 0, "type": "electric_scooter", "lon": -76.97343866666667, "fusion_lon": 0.0, "lat": 38.8651455, "rental_uris": {"android": "https://dc.lft.to/lastmile_qr_scan", "ios": "https://dc.lft.to/lastmile_qr_scan"}, "fusion_lat": 0.0, "name": "77f294644bb0b0c64fdfd20107612e91", "bike_id": "77f294644bb0b0c64fdfd20107612e91"}, {"is_disabled": 0, "is_reserved": 0, "type": "electric_scooter", "lon": -77.06753266666666, "fusion_lon": 0.0, "lat": 38.949791833333336, "rental_uris": {"android": "https://dc.lft.to/lastmile_qr_scan", "ios": "https://dc.lft.to/lastmile_qr_scan"}, "fusion_lat": 0.0, "name": "a79b61b01d51fbf8cce602bcbd575b6e", "bike_id": "a79b61b01d51fbf8cce602bcbd575b6e"}, {"is_disabled": 0, "is_reserved": 0, "type": "electric_scooter", "lon": -77.05825933333334, "fusion_lon": 0.0, "lat": 38.93531866666667, "rental_uris": {"android": "https://dc.lft.to/lastmile_qr_scan", "ios": "https://dc.lft.to/lastmile_qr_scan"}, "fusion_lat": 0.0, "name": "1b84c52fc9def844d3613be0df0aa668", "bike_id": "1b84c52fc9def844d3613be0df0aa668"}, {"is_disabled": 0, "is_reserved": 0, "type": "electric_scooter", "lon": -77.02691183333333, "fusion_lon": 0.0, "lat": 38.908638333333336, "rental_uris": {"android": "https://dc.lft.to/lastmile_qr_scan", "ios": "https://dc.lft.to/lastmile_qr_scan"}, "fusion_lat": 0.0, "name": "5e451932b93b2803a7ad86635e6648c8", "bike_id": "5e451932b93b2803a7ad86635e6648c8"}, {"is_disabled": 0, "is_reserved": 0, "type": "electric_scooter", "lon": -77.0405365, "fusion_lon": 0.0, "lat": 38.923961166666665, "rental_uris": {"android": "https://dc.lft.to/lastmile_qr_scan", "ios": "https://dc.lft.to/lastmile_qr_scan"}, "fusion_lat": 0.0, "name": "6723f80b3abe2d66b6953f2f11ce4ae2", "bike_id": "6723f80b3abe2d66b6953f2f11ce4ae2"}, {"is_disabled": 0, "is_reserved": 0, "type": "electric_bike", "lon": -76.97219516666667, "fusion_lon": 0.0, "lat": 38.84481866666667, "rental_uris": {"android": "https://dc.lft.to/lastmile_qr_scan", "ios": "https://dc.lft.to/lastmile_qr_scan"}, "fusion_lat": 0.0, "name": "64843f236c402ee35da6ca78530bfc09", "bike_id": "64843f236c402ee35da6ca78530bfc09"}, {"is_disabled": 0, "is_reserved": 0, "type": "electric_scooter", "lon": -77.04728083333333, "fusion_lon": 0.0, "lat": 38.89848383333333, "rental_uris": {"android": "https://dc.lft.to/lastmile_qr_scan", "ios": "https://dc.lft.to/lastmile_qr_scan"}, "fusion_lat": 0.0, "name": "0915ddc7a71b1cb715fab8a97f393333", "bike_id": "0915ddc7a71b1cb715fab8a97f393333"}, {"is_disabled": 0, "is_reserved": 0, "type": "electric_scooter", "lon": -77.021584, "fusion_lon": 0.0, "lat": 38.926029666666665, "rental_uris": {"android": "https://dc.lft.to/lastmile_qr_scan", "ios": "https://dc.lft.to/lastmile_qr_scan"}, "fusion_lat": 0.0, "name": "6bb4d3f10a73fb816db5d31fa9655260", "bike_id": "6bb4d3f10a73fb816db5d31fa9655260"}, {"is_disabled": 0, "is_reserved": 0, "type": "electric_scooter", "lon": -77.03342333333333, "fusion_lon": 0.0, "lat": 38.902701666666665, "rental_uris": {"android": "https://dc.lft.to/lastmile_qr_scan", "ios": "https://dc.lft.to/lastmile_qr_scan"}, "fusion_lat": 0.0, "name": "253d59f25c189086b666210a0f99c4ed", "bike_id": "253d59f25c189086b666210a0f99c4ed"}, {"is_disabled": 0, "is_reserved": 0, "type": "electric_scooter", "lon": -77.03658733333333, "fusion_lon": 0.0, "lat": 38.90265866666667, "rental_uris": {"android": "https://dc.lft.to/lastmile_qr_scan", "ios": "https://dc.lft.to/lastmile_qr_scan"}, "fusion_lat": 0.0, "name": "7dca60350110526f619df94239d3d1cf", "bike_id": "7dca60350110526f619df94239d3d1cf"}, {"is_disabled": 0, "is_reserved": 0, "type": "electric_scooter", "lon": -77.032944, "fusion_lon": 0.0, "lat": 38.903993, "rental_uris": {"android": "https://dc.lft.to/lastmile_qr_scan", "ios": "https://dc.lft.to/lastmile_qr_scan"}, "fusion_lat": 0.0, "name": "2ff91fb00a4e41d01891b99200dcda80", "bike_id": "2ff91fb00a4e41d01891b99200dcda80"}, {"is_disabled": 0, "is_reserved": 0, "type": "electric_bike", "lon": -77.09567216666667, "fusion_lon": 0.0, "lat": 38.916979833333336, "rental_uris": {"android": "https://dc.lft.to/lastmile_qr_scan", "ios": "https://dc.lft.to/lastmile_qr_scan"}, "fusion_lat": 0.0, "name": "f5fb38c7a241815abaa0efef0be1de32", "bike_id": "f5fb38c7a241815abaa0efef0be1de32"}, {"is_disabled": 0, "is_reserved": 0, "type": "electric_scooter", "lon": -77.04471083333334, "fusion_lon": 0.0, "lat": 38.908612, "rental_uris": {"android": "https://dc.lft.to/lastmile_qr_scan", "ios": "https://dc.lft.to/lastmile_qr_scan"}, "fusion_lat": 0.0, "name": "726c630374f00d9d560a3ee8838585d7", "bike_id": "726c630374f00d9d560a3ee8838585d7"}, {"is_disabled": 0, "is_reserved": 0, "type": "electric_scooter", "lon": -77.02699533333333, "fusion_lon": 0.0, "lat": 38.94956416666667, "rental_uris": {"android": "https://dc.lft.to/lastmile_qr_scan", "ios": "https://dc.lft.to/lastmile_qr_scan"}, "fusion_lat": 0.0, "name": "0f6e1cfb06080a2f9bc061357492d3b7", "bike_id": "0f6e1cfb06080a2f9bc061357492d3b7"}, {"is_disabled": 0, "is_reserved": 0, "type": "electric_scooter", "lon": -77.01895333333333, "fusion_lon": 0.0, "lat": 38.912201833333334, "rental_uris": {"android": "https://dc.lft.to/lastmile_qr_scan", "ios": "https://dc.lft.to/lastmile_qr_scan"}, "fusion_lat": 0.0, "name": "cc21d384a916e4751315de13fe6dc900", "bike_id": "cc21d384a916e4751315de13fe6dc900"}, {"is_disabled": 0, "is_reserved": 0, "type": "electric_scooter", "lon": -77.03651933333333, "fusion_lon": 0.0, "lat": 38.93531633333333, "rental_uris": {"android": "https://dc.lft.to/lastmile_qr_scan", "ios": "https://dc.lft.to/lastmile_qr_scan"}, "fusion_lat": 0.0, "name": "443c957592bc117d74082f31dbf4b245", "bike_id": "443c957592bc117d74082f31dbf4b245"}, {"is_disabled": 0, "is_reserved": 0, "type": "electric_scooter", "lon": -76.99818883333333, "fusion_lon": 0.0, "lat": 38.844347166666665, "rental_uris": {"android": "https://dc.lft.to/lastmile_qr_scan", "ios": "https://dc.lft.to/lastmile_qr_scan"}, "fusion_lat": 0.0, "name": "5180c9aabb87ab9e65fc6384af9de74c", "bike_id": "5180c9aabb87ab9e65fc6384af9de74c"}, {"is_disabled": 0, "is_reserved": 0, "type": "electric_scooter", "lon": -77.01171666666667, "fusion_lon": 0.0, "lat": 38.8680425, "rental_uris": {"android": "https://dc.lft.to/lastmile_qr_scan", "ios": "https://dc.lft.to/lastmile_qr_scan"}, "fusion_lat": 0.0, "name": "fe9986751d39b0867e3c868f4d829387", "bike_id": "fe9986751d39b0867e3c868f4d829387"}, {"is_disabled": 0, "is_reserved": 0, "type": "electric_scooter", "lon": -76.98880333333334, "fusion_lon": 0.0, "lat": 38.86674633333333, "rental_uris": {"android": "https://dc.lft.to/lastmile_qr_scan", "ios": "https://dc.lft.to/lastmile_qr_scan"}, "fusion_lat": 0.0, "name": "f12a4d259193d2bc1b852abb0c1488f1", "bike_id": "f12a4d259193d2bc1b852abb0c1488f1"}, {"is_disabled": 0, "is_reserved": 0, "type": "electric_scooter", "lon": -77.06186983333333, "fusion_lon": 0.0, "lat": 38.930168333333334, "rental_uris": {"android": "https://dc.lft.to/lastmile_qr_scan", "ios": "https://dc.lft.to/lastmile_qr_scan"}, "fusion_lat": 0.0, "name": "25090abbf14f106011b844293c29b87b", "bike_id": "25090abbf14f106011b844293c29b87b"}, {"is_disabled": 0, "is_reserved": 0, "type": "electric_scooter", "lon": -77.045048, "fusion_lon": 0.0, "lat": 38.90781483333333, "rental_uris": {"android": "https://dc.lft.to/lastmile_qr_scan", "ios": "https://dc.lft.to/lastmile_qr_scan"}, "fusion_lat": 0.0, "name": "bb30ed7a342b2d73469630399040b244", "bike_id": "bb30ed7a342b2d73469630399040b244"}, {"is_disabled": 0, "is_reserved": 0, "type": "electric_scooter", "lon": -76.94853866666666, "fusion_lon": 0.0, "lat": 38.88303416666667, "rental_uris": {"android": "https://dc.lft.to/lastmile_qr_scan", "ios": "https://dc.lft.to/lastmile_qr_scan"}, "fusion_lat": 0.0, "name": "8a89843f3beaf20d60667f806839d133", "bike_id": "8a89843f3beaf20d60667f806839d133"}, {"is_disabled": 0, "is_reserved": 0, "type": "electric_scooter", "lon": -77.02932433333334, "fusion_lon": 0.0, "lat": 38.89864333333333, "rental_uris": {"android": "https://dc.lft.to/lastmile_qr_scan", "ios": "https://dc.lft.to/lastmile_qr_scan"}, "fusion_lat": 0.0, "name": "ccd7a2d1788fce2abd55dd55925e5213", "bike_id": "ccd7a2d1788fce2abd55dd55925e5213"}, {"is_disabled": 0, "is_reserved": 0, "type": "electric_scooter", "lon": -76.990294, "fusion_lon": 0.0, "lat": 38.86073733333333, "rental_uris": {"android": "https://dc.lft.to/lastmile_qr_scan", "ios": "https://dc.lft.to/lastmile_qr_scan"}, "fusion_lat": 0.0, "name": "40e20f0191e6f066d91bc6800f58503b", "bike_id": "40e20f0191e6f066d91bc6800f58503b"}, {"is_disabled": 0, "is_reserved": 0, "type": "electric_scooter", "lon": -77.00372533333334, "fusion_lon": 0.0, "lat": 38.91104433333334, "rental_uris": {"android": "https://dc.lft.to/lastmile_qr_scan", "ios": "https://dc.lft.to/lastmile_qr_scan"}, "fusion_lat": 0.0, "name": "203868d4f857ea6470a225a6d9d3a4ff", "bike_id": "203868d4f857ea6470a225a6d9d3a4ff"}, {"is_disabled": 0, "is_reserved": 0, "type": "electric_scooter", "lon": -77.0060405, "fusion_lon": 0.0, "lat": 38.91116483333333, "rental_uris": {"android": "https://dc.lft.to/lastmile_qr_scan", "ios": "https://dc.lft.to/lastmile_qr_scan"}, "fusion_lat": 0.0, "name": "813a143d7e606012422da2c3d077ea41", "bike_id": "813a143d7e606012422da2c3d077ea41"}, {"is_disabled": 0, "is_reserved": 0, "type": "electric_bike", "lon": -77.344053, "fusion_lon": 0.0, "lat": 38.94591416666667, "rental_uris": {"android": "https://dc.lft.to/lastmile_qr_scan", "ios": "https://dc.lft.to/lastmile_qr_scan"}, "fusion_lat": 0.0, "name": "65e2f6f697e459a3d895628d04b23b83", "bike_id": "65e2f6f697e459a3d895628d04b23b83"}, {"is_disabled": 0, "is_reserved": 0, "type": "electric_scooter", "lon": -77.03829433333334, "fusion_lon": 0.0, "lat": 38.903892, "rental_uris": {"android": "https://dc.lft.to/lastmile_qr_scan", "ios": "https://dc.lft.to/lastmile_qr_scan"}, "fusion_lat": 0.0, "name": "8f975934a3200d654eef5f825a07d507", "bike_id": "8f975934a3200d654eef5f825a07d507"}, {"is_disabled": 0, "is_reserved": 0, "type": "electric_bike", "lon": -77.1432555, "fusion_lon": 0.0, "lat": 39.05457033333333, "rental_uris": {"android": "https://dc.lft.to/lastmile_qr_scan", "ios": "https://dc.lft.to/lastmile_qr_scan"}, "fusion_lat": 0.0, "name": "3aa88d11c63fee0c3c3d0407afa29c30", "bike_id": "3aa88d11c63fee0c3c3d0407afa29c30"}, {"is_disabled": 0, "is_reserved": 0, "type": "electric_scooter", "lon": -77.03357916666667, "fusion_lon": 0.0, "lat": 38.92849366666667, "rental_uris": {"android": "https://dc.lft.to/lastmile_qr_scan", "ios": "https://dc.lft.to/lastmile_qr_scan"}, "fusion_lat": 0.0, "name": "3a8f5c5499d5c2e843441f7c721168f0", "bike_id": "3a8f5c5499d5c2e843441f7c721168f0"}, {"is_disabled": 0, "is_reserved": 0, "type": "electric_scooter", "lon": -77.04410466666667, "fusion_lon": 0.0, "lat": 38.900106666666666, "rental_uris": {"android": "https://dc.lft.to/lastmile_qr_scan", "ios": "https://dc.lft.to/lastmile_qr_scan"}, "fusion_lat": 0.0, "name": "3b66a55339d4b8edddf4ebf146ae4fa2", "bike_id": "3b66a55339d4b8edddf4ebf146ae4fa2"}, {"is_disabled": 0, "is_reserved": 0, "type": "electric_scooter", "lon": -76.9984995, "fusion_lon": 0.0, "lat": 38.902384166666664, "rental_uris": {"android": "https://dc.lft.to/lastmile_qr_scan", "ios": "https://dc.lft.to/lastmile_qr_scan"}, "fusion_lat": 0.0, "name": "eddc7af5ca53928542b066de26967668", "bike_id": "eddc7af5ca53928542b066de26967668"}, {"is_disabled": 0, "is_reserved": 0, "type": "electric_scooter", "lon": -77.0437495, "fusion_lon": 0.0, "lat": 38.9209565, "rental_uris": {"android": "https://dc.lft.to/lastmile_qr_scan", "ios": "https://dc.lft.to/lastmile_qr_scan"}, "fusion_lat": 0.0, "name": "d0d73e750b82e5bc18d86ba81b375171", "bike_id": "d0d73e750b82e5bc18d86ba81b375171"}, {"is_disabled": 0, "is_reserved": 0, "type": "electric_bike", "lon": -77.1289845, "fusion_lon": 0.0, "lat": 38.8638045, "rental_uris": {"android": "https://dc.lft.to/lastmile_qr_scan", "ios": "https://dc.lft.to/lastmile_qr_scan"}, "fusion_lat": 0.0, "name": "b9bb053b0b2bd50826fa0f8f5413c87c", "bike_id": "b9bb053b0b2bd50826fa0f8f5413c87c"}, {"is_disabled": 0, "is_reserved": 0, "type": "electric_bike", "lon": -77.02103666666666, "fusion_lon": 0.0, "lat": 39.02300316666667, "rental_uris": {"android": "https://dc.lft.to/lastmile_qr_scan", "ios": "https://dc.lft.to/lastmile_qr_scan"}, "fusion_lat": 0.0, "name": "2ed43887d9c1c67e4870bb496efd19cb", "bike_id": "2ed43887d9c1c67e4870bb496efd19cb"}, {"is_disabled": 0, "is_reserved": 0, "type": "electric_scooter", "lon": -77.058622, "fusion_lon": 0.0, "lat": 38.936103833333334, "rental_uris": {"android": "https://dc.lft.to/lastmile_qr_scan", "ios": "https://dc.lft.to/lastmile_qr_scan"}, "fusion_lat": 0.0, "name": "f9e9cf6a42257e9b1b2981910e02a650", "bike_id": "f9e9cf6a42257e9b1b2981910e02a650"}, {"is_disabled": 0, "is_reserved": 0, "type": "electric_scooter", "lon": -77.027235, "fusion_lon": 0.0, "lat": 38.94086266666667, "rental_uris": {"android": "https://dc.lft.to/lastmile_qr_scan", "ios": "https://dc.lft.to/lastmile_qr_scan"}, "fusion_lat": 0.0, "name": "41f9badbd24de3d8c75c6b32b3e750d4", "bike_id": "41f9badbd24de3d8c75c6b32b3e750d4"}, {"is_disabled": 0, "is_reserved": 0, "type": "electric_scooter", "lon": -77.04163516666667, "fusion_lon": 0.0, "lat": 38.901353666666665, "rental_uris": {"android": "https://dc.lft.to/lastmile_qr_scan", "ios": "https://dc.lft.to/lastmile_qr_scan"}, "fusion_lat": 0.0, "name": "59bd2750b4ac9c38f526b81b7428ae59", "bike_id": "59bd2750b4ac9c38f526b81b7428ae59"}, {"is_disabled": 0, "is_reserved": 0, "type": "electric_scooter", "lon": -77.07436616666666, "fusion_lon": 0.0, "lat": 38.9109515, "rental_uris": {"android": "https://dc.lft.to/lastmile_qr_scan", "ios": "https://dc.lft.to/lastmile_qr_scan"}, "fusion_lat": 0.0, "name": "3dc9ca790ec060940b432b933b146c7a", "bike_id": "3dc9ca790ec060940b432b933b146c7a"}, {"is_disabled": 0, "is_reserved": 0, "type": "electric_scooter", "lon": -77.026774, "fusion_lon": 0.0, "lat": 38.90958783333333, "rental_uris": {"android": "https://dc.lft.to/lastmile_qr_scan", "ios": "https://dc.lft.to/lastmile_qr_scan"}, "fusion_lat": 0.0, "name": "9441b135275f0fad2436bb43b00c5a8a", "bike_id": "9441b135275f0fad2436bb43b00c5a8a"}, {"is_disabled": 0, "is_reserved": 0, "type": "electric_scooter", "lon": -77.02204816666666, "fusion_lon": 0.0, "lat": 38.89844333333333, "rental_uris": {"android": "https://dc.lft.to/lastmile_qr_scan", "ios": "https://dc.lft.to/lastmile_qr_scan"}, "fusion_lat": 0.0, "name": "73bf227674347fd11d0ef147d4863252", "bike_id": "73bf227674347fd11d0ef147d4863252"}, {"is_disabled": 0, "is_reserved": 0, "type": "electric_scooter", "lon": -77.009163, "fusion_lon": 0.0, "lat": 38.95950883333333, "rental_uris": {"android": "https://dc.lft.to/lastmile_qr_scan", "ios": "https://dc.lft.to/lastmile_qr_scan"}, "fusion_lat": 0.0, "name": "93e2c52247db81e6e61d038fbcfbdbfa", "bike_id": "93e2c52247db81e6e61d038fbcfbdbfa"}, {"is_disabled": 0, "is_reserved": 0, "type": "electric_scooter", "lon": -77.02485333333334, "fusion_lon": 0.0, "lat": 38.91695133333333, "rental_uris": {"android": "https://dc.lft.to/lastmile_qr_scan", "ios": "https://dc.lft.to/lastmile_qr_scan"}, "fusion_lat": 0.0, "name": "0a3b29d6d867b384487dcb0236c9f533", "bike_id": "0a3b29d6d867b384487dcb0236c9f533"}, {"is_disabled": 0, "is_reserved": 0, "type": "electric_scooter", "lon": -77.0381885, "fusion_lon": 0.0, "lat": 38.903246333333335, "rental_uris": {"android": "https://dc.lft.to/lastmile_qr_scan", "ios": "https://dc.lft.to/lastmile_qr_scan"}, "fusion_lat": 0.0, "name": "2f324ecc8618e8c95385ef1e03224527", "bike_id": "2f324ecc8618e8c95385ef1e03224527"}, {"is_disabled": 0, "is_reserved": 0, "type": "electric_scooter", "lon": -77.00829466666667, "fusion_lon": 0.0, "lat": 38.912596, "rental_uris": {"android": "https://dc.lft.to/lastmile_qr_scan", "ios": "https://dc.lft.to/lastmile_qr_scan"}, "fusion_lat": 0.0, "name": "953013ac36d156112705dae683d9e3dc", "bike_id": "953013ac36d156112705dae683d9e3dc"}, {"is_disabled": 0, "is_reserved": 0, "type": "electric_bike", "lon": -76.889051, "fusion_lon": 0.0, "lat": 38.92593016666667, "rental_uris": {"android": "https://dc.lft.to/lastmile_qr_scan", "ios": "https://dc.lft.to/lastmile_qr_scan"}, "fusion_lat": 0.0, "name": "acaff07becc8e90a35f127a0ec456e3c", "bike_id": "acaff07becc8e90a35f127a0ec456e3c"}, {"is_disabled": 0, "is_reserved": 0, "type": "electric_scooter", "lon": -77.02089, "fusion_lon": 0.0, "lat": 38.93018, "rental_uris": {"android": "https://dc.lft.to/lastmile_qr_scan", "ios": "https://dc.lft.to/lastmile_qr_scan"}, "fusion_lat": 0.0, "name": "442e8f06ae376992632208edb8017ad1", "bike_id": "442e8f06ae376992632208edb8017ad1"}, {"is_disabled": 0, "is_reserved": 0, "type": "electric_scooter", "lon": -77.05165116666667, "fusion_lon": 0.0, "lat": 38.90584616666666, "rental_uris": {"android": "https://dc.lft.to/lastmile_qr_scan", "ios": "https://dc.lft.to/lastmile_qr_scan"}, "fusion_lat": 0.0, "name": "be3abecdd04ad7b008f54faf59371e21", "bike_id": "be3abecdd04ad7b008f54faf59371e21"}, {"is_disabled": 0, "is_reserved": 0, "type": "electric_bike", "lon": -76.952224, "fusion_lon": 0.0, "lat": 38.89238833333334, "rental_uris": {"android": "https://dc.lft.to/lastmile_qr_scan", "ios": "https://dc.lft.to/lastmile_qr_scan"}, "fusion_lat": 0.0, "name": "f34291d1fbd57be4281741a572689f2e", "bike_id": "f34291d1fbd57be4281741a572689f2e"}, {"is_disabled": 0, "is_reserved": 0, "type": "electric_scooter", "lon": -77.01408183333334, "fusion_lon": 0.0, "lat": 38.928387, "rental_uris": {"android": "https://dc.lft.to/lastmile_qr_scan", "ios": "https://dc.lft.to/lastmile_qr_scan"}, "fusion_lat": 0.0, "name": "90a684e0152fecbdfd58dfcebaa42b63", "bike_id": "90a684e0152fecbdfd58dfcebaa42b63"}, {"is_disabled": 0, "is_reserved": 0, "type": "electric_scooter", "lon": -77.003335, "fusion_lon": 0.0, "lat": 38.89354066666667, "rental_uris": {"android": "https://dc.lft.to/lastmile_qr_scan", "ios": "https://dc.lft.to/lastmile_qr_scan"}, "fusion_lat": 0.0, "name": "94ffa05a4453dd0e90bcedcbe58f8b29", "bike_id": "94ffa05a4453dd0e90bcedcbe58f8b29"}, {"is_disabled": 0, "is_reserved": 0, "type": "electric_scooter", "lon": -77.05421466666667, "fusion_lon": 0.0, "lat": 38.899185333333335, "rental_uris": {"android": "https://dc.lft.to/lastmile_qr_scan", "ios": "https://dc.lft.to/lastmile_qr_scan"}, "fusion_lat": 0.0, "name": "b2d12a5e85a6185882af8a28377bb4c7", "bike_id": "b2d12a5e85a6185882af8a28377bb4c7"}, {"is_disabled": 0, "is_reserved": 0, "type": "electric_scooter", "lon": -77.03660116666667, "fusion_lon": 0.0, "lat": 38.955008166666666, "rental_uris": {"android": "https://dc.lft.to/lastmile_qr_scan", "ios": "https://dc.lft.to/lastmile_qr_scan"}, "fusion_lat": 0.0, "name": "1962bffc067c9a32d29ff0a35b2671c6", "bike_id": "1962bffc067c9a32d29ff0a35b2671c6"}, {"is_disabled": 0, "is_reserved": 0, "type": "electric_scooter", "lon": -77.0407795, "fusion_lon": 0.0, "lat": 38.8962645, "rental_uris": {"android": "https://dc.lft.to/lastmile_qr_scan", "ios": "https://dc.lft.to/lastmile_qr_scan"}, "fusion_lat": 0.0, "name": "8b82ceea2861f0492cfbc45e0c8d9be7", "bike_id": "8b82ceea2861f0492cfbc45e0c8d9be7"}, {"is_disabled": 0, "is_reserved": 0, "type": "electric_scooter", "lon": -77.02169883333333, "fusion_lon": 0.0, "lat": 38.92613333333333, "rental_uris": {"android": "https://dc.lft.to/lastmile_qr_scan", "ios": "https://dc.lft.to/lastmile_qr_scan"}, "fusion_lat": 0.0, "name": "7a9b5b12896cbf0a96bca4f5b002cba8", "bike_id": "7a9b5b12896cbf0a96bca4f5b002cba8"}, {"is_disabled": 0, "is_reserved": 0, "type": "electric_scooter", "lon": -77.00312766666667, "fusion_lon": 0.0, "lat": 38.840283666666664, "rental_uris": {"android": "https://dc.lft.to/lastmile_qr_scan", "ios": "https://dc.lft.to/lastmile_qr_scan"}, "fusion_lat": 0.0, "name": "7c28823d900cb62e4e04aa1853143b71", "bike_id": "7c28823d900cb62e4e04aa1853143b71"}, {"is_disabled": 0, "is_reserved": 0, "type": "electric_scooter", "lon": -77.04106466666667, "fusion_lon": 0.0, "lat": 38.9003485, "rental_uris": {"android": "https://dc.lft.to/lastmile_qr_scan", "ios": "https://dc.lft.to/lastmile_qr_scan"}, "fusion_lat": 0.0, "name": "450b11d81de8c288442dd7d1844ea4ae", "bike_id": "450b11d81de8c288442dd7d1844ea4ae"}, {"is_disabled": 0, "is_reserved": 0, "type": "electric_scooter", "lon": -77.04390283333333, "fusion_lon": 0.0, "lat": 38.90587166666667, "rental_uris": {"android": "https://dc.lft.to/lastmile_qr_scan", "ios": "https://dc.lft.to/lastmile_qr_scan"}, "fusion_lat": 0.0, "name": "c80fb8c0cf6177b90a3781eae48d53f5", "bike_id": "c80fb8c0cf6177b90a3781eae48d53f5"}, {"is_disabled": 0, "is_reserved": 0, "type": "electric_scooter", "lon": -76.94896816666666, "fusion_lon": 0.0, "lat": 38.895265, "rental_uris": {"android": "https://dc.lft.to/lastmile_qr_scan", "ios": "https://dc.lft.to/lastmile_qr_scan"}, "fusion_lat": 0.0, "name": "1f05f4ea2739a869c084583a104cabe4", "bike_id": "1f05f4ea2739a869c084583a104cabe4"}, {"is_disabled": 0, "is_reserved": 0, "type": "electric_scooter", "lon": -77.05404666666666, "fusion_lon": 0.0, "lat": 38.95045016666667, "rental_uris": {"android": "https://dc.lft.to/lastmile_qr_scan", "ios": "https://dc.lft.to/lastmile_qr_scan"}, "fusion_lat": 0.0, "name": "3ff3fe62acc490e2cbdb4afb48498316", "bike_id": "3ff3fe62acc490e2cbdb4afb48498316"}, {"is_disabled": 0, "is_reserved": 0, "type": "electric_scooter", "lon": -76.973854, "fusion_lon": 0.0, "lat": 38.88378083333333, "rental_uris": {"android": "https://dc.lft.to/lastmile_qr_scan", "ios": "https://dc.lft.to/lastmile_qr_scan"}, "fusion_lat": 0.0, "name": "64cc060ca98494465e6b7829bf4e1ca1", "bike_id": "64cc060ca98494465e6b7829bf4e1ca1"}, {"is_disabled": 0, "is_reserved": 0, "type": "electric_scooter", "lon": -76.9478495, "fusion_lon": 0.0, "lat": 38.88464966666667, "rental_uris": {"android": "https://dc.lft.to/lastmile_qr_scan", "ios": "https://dc.lft.to/lastmile_qr_scan"}, "fusion_lat": 0.0, "name": "48cc87df737d00acc377055566876013", "bike_id": "48cc87df737d00acc377055566876013"}, {"is_disabled": 0, "is_reserved": 0, "type": "electric_bike", "lon": -77.18291833333333, "fusion_lon": 0.0, "lat": 38.883396166666664, "rental_uris": {"android": "https://dc.lft.to/lastmile_qr_scan", "ios": "https://dc.lft.to/lastmile_qr_scan"}, "fusion_lat": 0.0, "name": "37f13ee7d69675f04c9cb6a5357bb788", "bike_id": "37f13ee7d69675f04c9cb6a5357bb788"}, {"is_disabled": 0, "is_reserved": 0, "type": "electric_scooter", "lon": -77.0427985, "fusion_lon": 0.0, "lat": 38.91113416666666, "rental_uris": {"android": "https://dc.lft.to/lastmile_qr_scan", "ios": "https://dc.lft.to/lastmile_qr_scan"}, "fusion_lat": 0.0, "name": "eba049db5114e38f5aa5c86e9530ae33", "bike_id": "eba049db5114e38f5aa5c86e9530ae33"}, {"is_disabled": 0, "is_reserved": 0, "type": "electric_scooter", "lon": -77.02470033333333, "fusion_lon": 0.0, "lat": 38.93909416666666, "rental_uris": {"android": "https://dc.lft.to/lastmile_qr_scan", "ios": "https://dc.lft.to/lastmile_qr_scan"}, "fusion_lat": 0.0, "name": "72d6b2c0d2129ca5335a9c7468f12ea1", "bike_id": "72d6b2c0d2129ca5335a9c7468f12ea1"}, {"is_disabled": 0, "is_reserved": 0, "type": "electric_scooter", "lon": -77.05927583333333, "fusion_lon": 0.0, "lat": 38.93668, "rental_uris": {"android": "https://dc.lft.to/lastmile_qr_scan", "ios": "https://dc.lft.to/lastmile_qr_scan"}, "fusion_lat": 0.0, "name": "1dc609433f4745173b18fd4c493ec1cb", "bike_id": "1dc609433f4745173b18fd4c493ec1cb"}, {"is_disabled": 0, "is_reserved": 0, "type": "electric_scooter", "lon": -76.931026, "fusion_lon": 0.0, "lat": 38.8800695, "rental_uris": {"android": "https://dc.lft.to/lastmile_qr_scan", "ios": "https://dc.lft.to/lastmile_qr_scan"}, "fusion_lat": 0.0, "name": "7f4679fee0b3e1bae2966a0104fa6d41", "bike_id": "7f4679fee0b3e1bae2966a0104fa6d41"}, {"is_disabled": 0, "is_reserved": 0, "type": "electric_scooter", "lon": -77.02838316666667, "fusion_lon": 0.0, "lat": 38.89524816666667, "rental_uris": {"android": "https://dc.lft.to/lastmile_qr_scan", "ios": "https://dc.lft.to/lastmile_qr_scan"}, "fusion_lat": 0.0, "name": "8f3d0df3d42c1c48c722f354ae6d691c", "bike_id": "8f3d0df3d42c1c48c722f354ae6d691c"}, {"is_disabled": 0, "is_reserved": 0, "type": "electric_scooter", "lon": -76.98910766666667, "fusion_lon": 0.0, "lat": 38.866571, "rental_uris": {"android": "https://dc.lft.to/lastmile_qr_scan", "ios": "https://dc.lft.to/lastmile_qr_scan"}, "fusion_lat": 0.0, "name": "84e7f3d543bfeaa25b1476707ad620ab", "bike_id": "84e7f3d543bfeaa25b1476707ad620ab"}, {"is_disabled": 0, "is_reserved": 0, "type": "electric_scooter", "lon": -76.98094233333333, "fusion_lon": 0.0, "lat": 38.857197666666664, "rental_uris": {"android": "https://dc.lft.to/lastmile_qr_scan", "ios": "https://dc.lft.to/lastmile_qr_scan"}, "fusion_lat": 0.0, "name": "9f026e628a45d824df07801d681ca810", "bike_id": "9f026e628a45d824df07801d681ca810"}, {"is_disabled": 0, "is_reserved": 0, "type": "electric_scooter", "lon": -76.96920433333334, "fusion_lon": 0.0, "lat": 38.855250166666664, "rental_uris": {"android": "https://dc.lft.to/lastmile_qr_scan", "ios": "https://dc.lft.to/lastmile_qr_scan"}, "fusion_lat": 0.0, "name": "99496fc73954c4ac71e5a9acc5a210c8", "bike_id": "99496fc73954c4ac71e5a9acc5a210c8"}, {"is_disabled": 0, "is_reserved": 0, "type": "electric_scooter", "lon": -77.045521, "fusion_lon": 0.0, "lat": 38.90133216666667, "rental_uris": {"android": "https://dc.lft.to/lastmile_qr_scan", "ios": "https://dc.lft.to/lastmile_qr_scan"}, "fusion_lat": 0.0, "name": "a68bc36ef2190c267981a9ab96c78233", "bike_id": "a68bc36ef2190c267981a9ab96c78233"}, {"is_disabled": 0, "is_reserved": 0, "type": "electric_scooter", "lon": -77.0509705, "fusion_lon": 0.0, "lat": 38.923447, "rental_uris": {"android": "https://dc.lft.to/lastmile_qr_scan", "ios": "https://dc.lft.to/lastmile_qr_scan"}, "fusion_lat": 0.0, "name": "eaac4da58124cc18e6816e8485035981", "bike_id": "eaac4da58124cc18e6816e8485035981"}, {"is_disabled": 0, "is_reserved": 0, "type": "electric_scooter", "lon": -77.033268, "fusion_lon": 0.0, "lat": 38.928775, "rental_uris": {"android": "https://dc.lft.to/lastmile_qr_scan", "ios": "https://dc.lft.to/lastmile_qr_scan"}, "fusion_lat": 0.0, "name": "e9d9f6cf559d930ff0893d249cf65119", "bike_id": "e9d9f6cf559d930ff0893d249cf65119"}, {"is_disabled": 0, "is_reserved": 0, "type": "electric_bike", "lon": -77.02626733333334, "fusion_lon": 0.0, "lat": 38.9621985, "rental_uris": {"android": "https://dc.lft.to/lastmile_qr_scan", "ios": "https://dc.lft.to/lastmile_qr_scan"}, "fusion_lat": 0.0, "name": "b77cca8d4fe5b00d3dfa7197295fedb6", "bike_id": "b77cca8d4fe5b00d3dfa7197295fedb6"}, {"is_disabled": 0, "is_reserved": 0, "type": "electric_scooter", "lon": -77.01113016666666, "fusion_lon": 0.0, "lat": 38.90362583333334, "rental_uris": {"android": "https://dc.lft.to/lastmile_qr_scan", "ios": "https://dc.lft.to/lastmile_qr_scan"}, "fusion_lat": 0.0, "name": "d91fd850d83434a094d176275a9823e1", "bike_id": "d91fd850d83434a094d176275a9823e1"}, {"is_disabled": 0, "is_reserved": 0, "type": "electric_scooter", "lon": -77.02820833333334, "fusion_lon": 0.0, "lat": 38.896195666666664, "rental_uris": {"android": "https://dc.lft.to/lastmile_qr_scan", "ios": "https://dc.lft.to/lastmile_qr_scan"}, "fusion_lat": 0.0, "name": "f9f413bb95212c32260804d90074f340", "bike_id": "f9f413bb95212c32260804d90074f340"}, {"is_disabled": 0, "is_reserved": 0, "type": "electric_scooter", "lon": -77.04154583333333, "fusion_lon": 0.0, "lat": 38.919555333333335, "rental_uris": {"android": "https://dc.lft.to/lastmile_qr_scan", "ios": "https://dc.lft.to/lastmile_qr_scan"}, "fusion_lat": 0.0, "name": "12b24308a4ab9c13e388a7fa30a7273a", "bike_id": "12b24308a4ab9c13e388a7fa30a7273a"}, {"is_disabled": 0, "is_reserved": 0, "type": "electric_scooter", "lon": -77.02580066666667, "fusion_lon": 0.0, "lat": 38.899855, "rental_uris": {"android": "https://dc.lft.to/lastmile_qr_scan", "ios": "https://dc.lft.to/lastmile_qr_scan"}, "fusion_lat": 0.0, "name": "d53be583a0183074572874d933f6501c", "bike_id": "d53be583a0183074572874d933f6501c"}, {"is_disabled": 0, "is_reserved": 0, "type": "electric_scooter", "lon": -76.93744616666666, "fusion_lon": 0.0, "lat": 38.903793, "rental_uris": {"android": "https://dc.lft.to/lastmile_qr_scan", "ios": "https://dc.lft.to/lastmile_qr_scan"}, "fusion_lat": 0.0, "name": "cff3341cc582fab65a26c915723b5c16", "bike_id": "cff3341cc582fab65a26c915723b5c16"}, {"is_disabled": 0, "is_reserved": 0, "type": "electric_scooter", "lon": -77.03542833333333, "fusion_lon": 0.0, "lat": 38.907671, "rental_uris": {"android": "https://dc.lft.to/lastmile_qr_scan", "ios": "https://dc.lft.to/lastmile_qr_scan"}, "fusion_lat": 0.0, "name": "aab188ac06965a4c4955147fd7326d0c", "bike_id": "aab188ac06965a4c4955147fd7326d0c"}, {"is_disabled": 0, "is_reserved": 0, "type": "electric_bike", "lon": -77.08529283333333, "fusion_lon": 0.0, "lat": 38.856491166666665, "rental_uris": {"android": "https://dc.lft.to/lastmile_qr_scan", "ios": "https://dc.lft.to/lastmile_qr_scan"}, "fusion_lat": 0.0, "name": "9a685c0355baeff7e08465031718c1b1", "bike_id": "9a685c0355baeff7e08465031718c1b1"}, {"is_disabled": 0, "is_reserved": 0, "type": "electric_scooter", "lon": -77.03152966666667, "fusion_lon": 0.0, "lat": 38.887448666666664, "rental_uris": {"android": "https://dc.lft.to/lastmile_qr_scan", "ios": "https://dc.lft.to/lastmile_qr_scan"}, "fusion_lat": 0.0, "name": "97cc276847fb03005fd71e6a0768a1a6", "bike_id": "97cc276847fb03005fd71e6a0768a1a6"}, {"is_disabled": 0, "is_reserved": 0, "type": "electric_scooter", "lon": -76.98557016666666, "fusion_lon": 0.0, "lat": 38.87865566666667, "rental_uris": {"android": "https://dc.lft.to/lastmile_qr_scan", "ios": "https://dc.lft.to/lastmile_qr_scan"}, "fusion_lat": 0.0, "name": "1947883221a13973e1ebf548298c73f0", "bike_id": "1947883221a13973e1ebf548298c73f0"}, {"is_disabled": 0, "is_reserved": 0, "type": "electric_scooter", "lon": -77.04347783333333, "fusion_lon": 0.0, "lat": 38.90476616666667, "rental_uris": {"android": "https://dc.lft.to/lastmile_qr_scan", "ios": "https://dc.lft.to/lastmile_qr_scan"}, "fusion_lat": 0.0, "name": "edb23dda10f246f084fe916c64556a97", "bike_id": "edb23dda10f246f084fe916c64556a97"}, {"is_disabled": 0, "is_reserved": 0, "type": "electric_scooter", "lon": -77.0384245, "fusion_lon": 0.0, "lat": 38.9017745, "rental_uris": {"android": "https://dc.lft.to/lastmile_qr_scan", "ios": "https://dc.lft.to/lastmile_qr_scan"}, "fusion_lat": 0.0, "name": "15098af6ed17cd3a5a96f006c03c4e52", "bike_id": "15098af6ed17cd3a5a96f006c03c4e52"}, {"is_disabled": 0, "is_reserved": 0, "type": "electric_scooter", "lon": -76.93838766666667, "fusion_lon": 0.0, "lat": 38.890124, "rental_uris": {"android": "https://dc.lft.to/lastmile_qr_scan", "ios": "https://dc.lft.to/lastmile_qr_scan"}, "fusion_lat": 0.0, "name": "50b91046be4142ab0c6488cf3ada1e35", "bike_id": "50b91046be4142ab0c6488cf3ada1e35"}, {"is_disabled": 0, "is_reserved": 0, "type": "electric_scooter", "lon": -77.03663266666666, "fusion_lon": 0.0, "lat": 38.9173195, "rental_uris": {"android": "https://dc.lft.to/lastmile_qr_scan", "ios": "https://dc.lft.to/lastmile_qr_scan"}, "fusion_lat": 0.0, "name": "b7de3aa64995768c4e62b4362122f645", "bike_id": "b7de3aa64995768c4e62b4362122f645"}, {"is_disabled": 0, "is_reserved": 0, "type": "electric_scooter", "lon": -77.05148233333334, "fusion_lon": 0.0, "lat": 38.90637866666667, "rental_uris": {"android": "https://dc.lft.to/lastmile_qr_scan", "ios": "https://dc.lft.to/lastmile_qr_scan"}, "fusion_lat": 0.0, "name": "5dd9e3fd55a853fbf6575ab11274f01a", "bike_id": "5dd9e3fd55a853fbf6575ab11274f01a"}, {"is_disabled": 0, "is_reserved": 0, "type": "electric_scooter", "lon": -77.05921016666667, "fusion_lon": 0.0, "lat": 38.9365735, "rental_uris": {"android": "https://dc.lft.to/lastmile_qr_scan", "ios": "https://dc.lft.to/lastmile_qr_scan"}, "fusion_lat": 0.0, "name": "ff19a9e00c44246c06327e785951289d", "bike_id": "ff19a9e00c44246c06327e785951289d"}, {"is_disabled": 0, "is_reserved": 0, "type": "electric_scooter", "lon": -77.03187933333334, "fusion_lon": 0.0, "lat": 38.8922695, "rental_uris": {"android": "https://dc.lft.to/lastmile_qr_scan", "ios": "https://dc.lft.to/lastmile_qr_scan"}, "fusion_lat": 0.0, "name": "06ab29b2343301678110398ae6beb372", "bike_id": "06ab29b2343301678110398ae6beb372"}, {"is_disabled": 0, "is_reserved": 0, "type": "electric_scooter", "lon": -77.03635833333334, "fusion_lon": 0.0, "lat": 38.918095, "rental_uris": {"android": "https://dc.lft.to/lastmile_qr_scan", "ios": "https://dc.lft.to/lastmile_qr_scan"}, "fusion_lat": 0.0, "name": "b99abf2f25b464a0bc0144ce3d6fb25d", "bike_id": "b99abf2f25b464a0bc0144ce3d6fb25d"}, {"is_disabled": 0, "is_reserved": 0, "type": "electric_scooter", "lon": -77.029799, "fusion_lon": 0.0, "lat": 38.90689183333333, "rental_uris": {"android": "https://dc.lft.to/lastmile_qr_scan", "ios": "https://dc.lft.to/lastmile_qr_scan"}, "fusion_lat": 0.0, "name": "2d2a91900a1d270ff10a28951b7ee6af", "bike_id": "2d2a91900a1d270ff10a28951b7ee6af"}, {"is_disabled": 0, "is_reserved": 0, "type": "electric_bike", "lon": -77.12507833333333, "fusion_lon": 0.0, "lat": 39.024260166666664, "rental_uris": {"android": "https://dc.lft.to/lastmile_qr_scan", "ios": "https://dc.lft.to/lastmile_qr_scan"}, "fusion_lat": 0.0, "name": "c1d284ff201bdcf3c4185f5c33dde66f", "bike_id": "c1d284ff201bdcf3c4185f5c33dde66f"}, {"is_disabled": 0, "is_reserved": 0, "type": "electric_scooter", "lon": -77.03855516666667, "fusion_lon": 0.0, "lat": 38.917483833333335, "rental_uris": {"android": "https://dc.lft.to/lastmile_qr_scan", "ios": "https://dc.lft.to/lastmile_qr_scan"}, "fusion_lat": 0.0, "name": "fabad370ae675ab7e1f3ccd51c4b6aa9", "bike_id": "fabad370ae675ab7e1f3ccd51c4b6aa9"}, {"is_disabled": 0, "is_reserved": 0, "type": "electric_scooter", "lon": -77.03221633333334, "fusion_lon": 0.0, "lat": 38.925523, "rental_uris": {"android": "https://dc.lft.to/lastmile_qr_scan", "ios": "https://dc.lft.to/lastmile_qr_scan"}, "fusion_lat": 0.0, "name": "4c5ce34a42f0a1cdde9280e613d28437", "bike_id": "4c5ce34a42f0a1cdde9280e613d28437"}, {"is_disabled": 0, "is_reserved": 0, "type": "electric_scooter", "lon": -77.02227433333333, "fusion_lon": 0.0, "lat": 38.912704833333336, "rental_uris": {"android": "https://dc.lft.to/lastmile_qr_scan", "ios": "https://dc.lft.to/lastmile_qr_scan"}, "fusion_lat": 0.0, "name": "2e27eefc81c4f1acc18b1865e67b9db2", "bike_id": "2e27eefc81c4f1acc18b1865e67b9db2"}, {"is_disabled": 0, "is_reserved": 0, "type": "electric_scooter", "lon": -77.03197966666667, "fusion_lon": 0.0, "lat": 38.9160605, "rental_uris": {"android": "https://dc.lft.to/lastmile_qr_scan", "ios": "https://dc.lft.to/lastmile_qr_scan"}, "fusion_lat": 0.0, "name": "2007829f89844dec929e410a27edd6ac", "bike_id": "2007829f89844dec929e410a27edd6ac"}, {"is_disabled": 0, "is_reserved": 0, "type": "electric_scooter", "lon": -77.028331, "fusion_lon": 0.0, "lat": 38.948315, "rental_uris": {"android": "https://dc.lft.to/lastmile_qr_scan", "ios": "https://dc.lft.to/lastmile_qr_scan"}, "fusion_lat": 0.0, "name": "8a098ab3660ea9ad4e41af78515500b5", "bike_id": "8a098ab3660ea9ad4e41af78515500b5"}, {"is_disabled": 0, "is_reserved": 0, "type": "electric_scooter", "lon": -77.033608, "fusion_lon": 0.0, "lat": 38.911880833333335, "rental_uris": {"android": "https://dc.lft.to/lastmile_qr_scan", "ios": "https://dc.lft.to/lastmile_qr_scan"}, "fusion_lat": 0.0, "name": "ccfdab8ffc516736ba8a197a64f55123", "bike_id": "ccfdab8ffc516736ba8a197a64f55123"}, {"is_disabled": 0, "is_reserved": 0, "type": "electric_scooter", "lon": -77.0319, "fusion_lon": 0.0, "lat": 38.91914666666667, "rental_uris": {"android": "https://dc.lft.to/lastmile_qr_scan", "ios": "https://dc.lft.to/lastmile_qr_scan"}, "fusion_lat": 0.0, "name": "6c7f93b07c80b10665d5acc696c9eb01", "bike_id": "6c7f93b07c80b10665d5acc696c9eb01"}, {"is_disabled": 0, "is_reserved": 0, "type": "electric_scooter", "lon": -77.0330845, "fusion_lon": 0.0, "lat": 38.95614666666667, "rental_uris": {"android": "https://dc.lft.to/lastmile_qr_scan", "ios": "https://dc.lft.to/lastmile_qr_scan"}, "fusion_lat": 0.0, "name": "1e757667cfab0e579f72edf6c2260a9a", "bike_id": "1e757667cfab0e579f72edf6c2260a9a"}, {"is_disabled": 0, "is_reserved": 0, "type": "electric_scooter", "lon": -76.93185516666667, "fusion_lon": 0.0, "lat": 38.89877283333333, "rental_uris": {"android": "https://dc.lft.to/lastmile_qr_scan", "ios": "https://dc.lft.to/lastmile_qr_scan"}, "fusion_lat": 0.0, "name": "0c1da036510c371268279814f959a4e2", "bike_id": "0c1da036510c371268279814f959a4e2"}, {"is_disabled": 0, "is_reserved": 0, "type": "electric_scooter", "lon": -77.00736316666666, "fusion_lon": 0.0, "lat": 38.898331, "rental_uris": {"android": "https://dc.lft.to/lastmile_qr_scan", "ios": "https://dc.lft.to/lastmile_qr_scan"}, "fusion_lat": 0.0, "name": "cee049ea0fadf5c09ae815a31f221108", "bike_id": "cee049ea0fadf5c09ae815a31f221108"}, {"is_disabled": 0, "is_reserved": 0, "type": "electric_scooter", "lon": -77.02676216666667, "fusion_lon": 0.0, "lat": 38.8998885, "rental_uris": {"android": "https://dc.lft.to/lastmile_qr_scan", "ios": "https://dc.lft.to/lastmile_qr_scan"}, "fusion_lat": 0.0, "name": "2e0ee4093537cd006efe8d5c73c8dcf8", "bike_id": "2e0ee4093537cd006efe8d5c73c8dcf8"}, {"is_disabled": 0, "is_reserved": 0, "type": "electric_scooter", "lon": -77.02225483333334, "fusion_lon": 0.0, "lat": 38.892182, "rental_uris": {"android": "https://dc.lft.to/lastmile_qr_scan", "ios": "https://dc.lft.to/lastmile_qr_scan"}, "fusion_lat": 0.0, "name": "d938dc9ea27247ae9f7bee01370e9d20", "bike_id": "d938dc9ea27247ae9f7bee01370e9d20"}, {"is_disabled": 0, "is_reserved": 0, "type": "electric_bike", "lon": -77.09833616666667, "fusion_lon": 0.0, "lat": 38.857898, "rental_uris": {"android": "https://dc.lft.to/lastmile_qr_scan", "ios": "https://dc.lft.to/lastmile_qr_scan"}, "fusion_lat": 0.0, "name": "014d0d5dfac3f4cabab64d99654b5036", "bike_id": "014d0d5dfac3f4cabab64d99654b5036"}, {"is_disabled": 0, "is_reserved": 0, "type": "electric_bike", "lon": -77.02498, "fusion_lon": 0.0, "lat": 38.9740305, "rental_uris": {"android": "https://dc.lft.to/lastmile_qr_scan", "ios": "https://dc.lft.to/lastmile_qr_scan"}, "fusion_lat": 0.0, "name": "d51911d0a4483e3de3dcba3044e60b70", "bike_id": "d51911d0a4483e3de3dcba3044e60b70"}, {"is_disabled": 0, "is_reserved": 0, "type": "electric_scooter", "lon": -77.02174166666667, "fusion_lon": 0.0, "lat": 38.9429345, "rental_uris": {"android": "https://dc.lft.to/lastmile_qr_scan", "ios": "https://dc.lft.to/lastmile_qr_scan"}, "fusion_lat": 0.0, "name": "6e0c77b9654cc819815ebfa05783a9f8", "bike_id": "6e0c77b9654cc819815ebfa05783a9f8"}, {"is_disabled": 0, "is_reserved": 0, "type": "electric_scooter", "lon": -76.99087166666666, "fusion_lon": 0.0, "lat": 38.904209, "rental_uris": {"android": "https://dc.lft.to/lastmile_qr_scan", "ios": "https://dc.lft.to/lastmile_qr_scan"}, "fusion_lat": 0.0, "name": "122c8ef0c3b4e641a522db7797c13ef6", "bike_id": "122c8ef0c3b4e641a522db7797c13ef6"}, {"is_disabled": 0, "is_reserved": 0, "type": "electric_scooter", "lon": -77.053194, "fusion_lon": 0.0, "lat": 38.905856, "rental_uris": {"android": "https://dc.lft.to/lastmile_qr_scan", "ios": "https://dc.lft.to/lastmile_qr_scan"}, "fusion_lat": 0.0, "name": "df9ba19930ae015083fdac454459a12b", "bike_id": "df9ba19930ae015083fdac454459a12b"}, {"is_disabled": 0, "is_reserved": 0, "type": "electric_scooter", "lon": -77.046399, "fusion_lon": 0.0, "lat": 38.90461416666667, "rental_uris": {"android": "https://dc.lft.to/lastmile_qr_scan", "ios": "https://dc.lft.to/lastmile_qr_scan"}, "fusion_lat": 0.0, "name": "8e5557f4f1e7f5c6146e944ea0947af9", "bike_id": "8e5557f4f1e7f5c6146e944ea0947af9"}, {"is_disabled": 0, "is_reserved": 0, "type": "electric_scooter", "lon": -76.93524666666667, "fusion_lon": 0.0, "lat": 38.87897366666667, "rental_uris": {"android": "https://dc.lft.to/lastmile_qr_scan", "ios": "https://dc.lft.to/lastmile_qr_scan"}, "fusion_lat": 0.0, "name": "76515e528943888cfdc57b27ef3c2573", "bike_id": "76515e528943888cfdc57b27ef3c2573"}, {"is_disabled": 0, "is_reserved": 0, "type": "electric_scooter", "lon": -76.93358266666667, "fusion_lon": 0.0, "lat": 38.901926333333336, "rental_uris": {"android": "https://dc.lft.to/lastmile_qr_scan", "ios": "https://dc.lft.to/lastmile_qr_scan"}, "fusion_lat": 0.0, "name": "55bfd5238d58f850051b0d1e4be6dbe1", "bike_id": "55bfd5238d58f850051b0d1e4be6dbe1"}, {"is_disabled": 0, "is_reserved": 0, "type": "electric_scooter", "lon": -77.0316845, "fusion_lon": 0.0, "lat": 38.898924666666666, "rental_uris": {"android": "https://dc.lft.to/lastmile_qr_scan", "ios": "https://dc.lft.to/lastmile_qr_scan"}, "fusion_lat": 0.0, "name": "d13b9f61a3512d62ffdc787f10622454", "bike_id": "d13b9f61a3512d62ffdc787f10622454"}, {"is_disabled": 0, "is_reserved": 0, "type": "electric_scooter", "lon": -77.03499983333333, "fusion_lon": 0.0, "lat": 38.92349466666667, "rental_uris": {"android": "https://dc.lft.to/lastmile_qr_scan", "ios": "https://dc.lft.to/lastmile_qr_scan"}, "fusion_lat": 0.0, "name": "0ada9d777052b7d7bbc8538563bbb9f0", "bike_id": "0ada9d777052b7d7bbc8538563bbb9f0"}, {"is_disabled": 0, "is_reserved": 0, "type": "electric_scooter", "lon": -77.042098, "fusion_lon": 0.0, "lat": 38.92312366666667, "rental_uris": {"android": "https://dc.lft.to/lastmile_qr_scan", "ios": "https://dc.lft.to/lastmile_qr_scan"}, "fusion_lat": 0.0, "name": "ba86f48a04acd0a167ac34d59b9b3f99", "bike_id": "ba86f48a04acd0a167ac34d59b9b3f99"}, {"is_disabled": 0, "is_reserved": 0, "type": "electric_scooter", "lon": -77.04616, "fusion_lon": 0.0, "lat": 38.902795, "rental_uris": {"android": "https://dc.lft.to/lastmile_qr_scan", "ios": "https://dc.lft.to/lastmile_qr_scan"}, "fusion_lat": 0.0, "name": "c615ae797f58e9f4c1912a011a5bcec3", "bike_id": "c615ae797f58e9f4c1912a011a5bcec3"}, {"is_disabled": 0, "is_reserved": 0, "type": "electric_scooter", "lon": -77.0072785, "fusion_lon": 0.0, "lat": 38.8849115, "rental_uris": {"android": "https://dc.lft.to/lastmile_qr_scan", "ios": "https://dc.lft.to/lastmile_qr_scan"}, "fusion_lat": 0.0, "name": "c6cc7650f6bde9183b023a56cd137602", "bike_id": "c6cc7650f6bde9183b023a56cd137602"}, {"is_disabled": 0, "is_reserved": 0, "type": "electric_scooter", "lon": -77.04828366666666, "fusion_lon": 0.0, "lat": 38.900702833333334, "rental_uris": {"android": "https://dc.lft.to/lastmile_qr_scan", "ios": "https://dc.lft.to/lastmile_qr_scan"}, "fusion_lat": 0.0, "name": "67d82ec4993c4bab52ae9a467c4f1e39", "bike_id": "67d82ec4993c4bab52ae9a467c4f1e39"}, {"is_disabled": 0, "is_reserved": 0, "type": "electric_scooter", "lon": -77.05704833333333, "fusion_lon": 0.0, "lat": 38.91059766666667, "rental_uris": {"android": "https://dc.lft.to/lastmile_qr_scan", "ios": "https://dc.lft.to/lastmile_qr_scan"}, "fusion_lat": 0.0, "name": "ebbd4dc923ce4ffc0d0b1a772acec46b", "bike_id": "ebbd4dc923ce4ffc0d0b1a772acec46b"}, {"is_disabled": 0, "is_reserved": 0, "type": "electric_scooter", "lon": -77.03856216666667, "fusion_lon": 0.0, "lat": 38.918412833333335, "rental_uris": {"android": "https://dc.lft.to/lastmile_qr_scan", "ios": "https://dc.lft.to/lastmile_qr_scan"}, "fusion_lat": 0.0, "name": "61d8947a138e418f93a1bb92e03cdc53", "bike_id": "61d8947a138e418f93a1bb92e03cdc53"}, {"is_disabled": 0, "is_reserved": 0, "type": "electric_scooter", "lon": -76.99520616666666, "fusion_lon": 0.0, "lat": 38.894860333333334, "rental_uris": {"android": "https://dc.lft.to/lastmile_qr_scan", "ios": "https://dc.lft.to/lastmile_qr_scan"}, "fusion_lat": 0.0, "name": "d2f6bafb54675415a325d4bce7d0ea8e", "bike_id": "d2f6bafb54675415a325d4bce7d0ea8e"}, {"is_disabled": 0, "is_reserved": 0, "type": "electric_scooter", "lon": -77.03348233333334, "fusion_lon": 0.0, "lat": 38.895724, "rental_uris": {"android": "https://dc.lft.to/lastmile_qr_scan", "ios": "https://dc.lft.to/lastmile_qr_scan"}, "fusion_lat": 0.0, "name": "df49c08a01882d92b51f1a988ff033d8", "bike_id": "df49c08a01882d92b51f1a988ff033d8"}, {"is_disabled": 0, "is_reserved": 0, "type": "electric_scooter", "lon": -77.00046716666667, "fusion_lon": 0.0, "lat": 38.9189925, "rental_uris": {"android": "https://dc.lft.to/lastmile_qr_scan", "ios": "https://dc.lft.to/lastmile_qr_scan"}, "fusion_lat": 0.0, "name": "6616aa3d30b91d7a2377b46bbd141568", "bike_id": "6616aa3d30b91d7a2377b46bbd141568"}, {"is_disabled": 0, "is_reserved": 0, "type": "electric_bike", "lon": -76.96059983333333, "fusion_lon": 0.0, "lat": 38.88402383333333, "rental_uris": {"android": "https://dc.lft.to/lastmile_qr_scan", "ios": "https://dc.lft.to/lastmile_qr_scan"}, "fusion_lat": 0.0, "name": "fb2714c34525eb39533351d7928234a0", "bike_id": "fb2714c34525eb39533351d7928234a0"}, {"is_disabled": 0, "is_reserved": 0, "type": "electric_scooter", "lon": -77.0320975, "fusion_lon": 0.0, "lat": 38.917442666666666, "rental_uris": {"android": "https://dc.lft.to/lastmile_qr_scan", "ios": "https://dc.lft.to/lastmile_qr_scan"}, "fusion_lat": 0.0, "name": "a128ab18984a493ff858d982fb11db3e", "bike_id": "a128ab18984a493ff858d982fb11db3e"}, {"is_disabled": 0, "is_reserved": 0, "type": "electric_bike", "lon": -76.977072, "fusion_lon": 0.0, "lat": 38.8885285, "rental_uris": {"android": "https://dc.lft.to/lastmile_qr_scan", "ios": "https://dc.lft.to/lastmile_qr_scan"}, "fusion_lat": 0.0, "name": "8f9c5ec3e2fed3bd5d0f08371bd2778b", "bike_id": "8f9c5ec3e2fed3bd5d0f08371bd2778b"}, {"is_disabled": 0, "is_reserved": 0, "type": "electric_scooter", "lon": -77.0268435, "fusion_lon": 0.0, "lat": 38.89640816666667, "rental_uris": {"android": "https://dc.lft.to/lastmile_qr_scan", "ios": "https://dc.lft.to/lastmile_qr_scan"}, "fusion_lat": 0.0, "name": "a2cae1652eb42c18145590f63b9747e7", "bike_id": "a2cae1652eb42c18145590f63b9747e7"}, {"is_disabled": 0, "is_reserved": 0, "type": "electric_scooter", "lon": -76.988826, "fusion_lon": 0.0, "lat": 38.8666265, "rental_uris": {"android": "https://dc.lft.to/lastmile_qr_scan", "ios": "https://dc.lft.to/lastmile_qr_scan"}, "fusion_lat": 0.0, "name": "74acf6a9fca9190ba4c9984a9bd83276", "bike_id": "74acf6a9fca9190ba4c9984a9bd83276"}, {"is_disabled": 0, "is_reserved": 0, "type": "electric_scooter", "lon": -77.03235, "fusion_lon": 0.0, "lat": 38.901513333333334, "rental_uris": {"android": "https://dc.lft.to/lastmile_qr_scan", "ios": "https://dc.lft.to/lastmile_qr_scan"}, "fusion_lat": 0.0, "name": "c62f7b3db903e2e7293e2e7361845026", "bike_id": "c62f7b3db903e2e7293e2e7361845026"}, {"is_disabled": 0, "is_reserved": 0, "type": "electric_scooter", "lon": -77.04878083333334, "fusion_lon": 0.0, "lat": 38.907477166666666, "rental_uris": {"android": "https://dc.lft.to/lastmile_qr_scan", "ios": "https://dc.lft.to/lastmile_qr_scan"}, "fusion_lat": 0.0, "name": "a978e3a2dfe6669c32775508f2d52085", "bike_id": "a978e3a2dfe6669c32775508f2d52085"}, {"is_disabled": 0, "is_reserved": 0, "type": "electric_scooter", "lon": -77.04399133333334, "fusion_lon": 0.0, "lat": 38.893971666666665, "rental_uris": {"android": "https://dc.lft.to/lastmile_qr_scan", "ios": "https://dc.lft.to/lastmile_qr_scan"}, "fusion_lat": 0.0, "name": "180ffb1c7baf2c31319f2bf14cb2b542", "bike_id": "180ffb1c7baf2c31319f2bf14cb2b542"}, {"is_disabled": 0, "is_reserved": 0, "type": "electric_scooter", "lon": -77.020758, "fusion_lon": 0.0, "lat": 38.881261333333335, "rental_uris": {"android": "https://dc.lft.to/lastmile_qr_scan", "ios": "https://dc.lft.to/lastmile_qr_scan"}, "fusion_lat": 0.0, "name": "b7f5add8dbc0e5100f899b868c2d5455", "bike_id": "b7f5add8dbc0e5100f899b868c2d5455"}, {"is_disabled": 0, "is_reserved": 0, "type": "electric_scooter", "lon": -77.0259265, "fusion_lon": 0.0, "lat": 38.90495333333333, "rental_uris": {"android": "https://dc.lft.to/lastmile_qr_scan", "ios": "https://dc.lft.to/lastmile_qr_scan"}, "fusion_lat": 0.0, "name": "216f051151468029fa0513aa5cc32913", "bike_id": "216f051151468029fa0513aa5cc32913"}, {"is_disabled": 0, "is_reserved": 0, "type": "electric_scooter", "lon": -77.00563066666666, "fusion_lon": 0.0, "lat": 38.88508566666667, "rental_uris": {"android": "https://dc.lft.to/lastmile_qr_scan", "ios": "https://dc.lft.to/lastmile_qr_scan"}, "fusion_lat": 0.0, "name": "39df5546b1b04b6c848d01218d73962f", "bike_id": "39df5546b1b04b6c848d01218d73962f"}, {"is_disabled": 0, "is_reserved": 0, "type": "electric_scooter", "lon": -77.03487483333333, "fusion_lon": 0.0, "lat": 38.92487366666667, "rental_uris": {"android": "https://dc.lft.to/lastmile_qr_scan", "ios": "https://dc.lft.to/lastmile_qr_scan"}, "fusion_lat": 0.0, "name": "4b90135a45cb5103ecbcac208207a9f1", "bike_id": "4b90135a45cb5103ecbcac208207a9f1"}, {"is_disabled": 0, "is_reserved": 0, "type": "electric_scooter", "lon": -77.06135066666667, "fusion_lon": 0.0, "lat": 38.9052655, "rental_uris": {"android": "https://dc.lft.to/lastmile_qr_scan", "ios": "https://dc.lft.to/lastmile_qr_scan"}, "fusion_lat": 0.0, "name": "b4072995d125692a2d856d69d91308de", "bike_id": "b4072995d125692a2d856d69d91308de"}, {"is_disabled": 0, "is_reserved": 0, "type": "electric_scooter", "lon": -76.97872916666667, "fusion_lon": 0.0, "lat": 38.89925133333333, "rental_uris": {"android": "https://dc.lft.to/lastmile_qr_scan", "ios": "https://dc.lft.to/lastmile_qr_scan"}, "fusion_lat": 0.0, "name": "e822bd0d70f1360725ad7faab4c89ba7", "bike_id": "e822bd0d70f1360725ad7faab4c89ba7"}, {"is_disabled": 0, "is_reserved": 0, "type": "electric_scooter", "lon": -77.04001566666666, "fusion_lon": 0.0, "lat": 38.903554, "rental_uris": {"android": "https://dc.lft.to/lastmile_qr_scan", "ios": "https://dc.lft.to/lastmile_qr_scan"}, "fusion_lat": 0.0, "name": "f8ac6d6d7f729553815ae271fb96b9d8", "bike_id": "f8ac6d6d7f729553815ae271fb96b9d8"}, {"is_disabled": 0, "is_reserved": 0, "type": "electric_bike", "lon": -77.07044166666667, "fusion_lon": 0.0, "lat": 38.824478666666664, "rental_uris": {"android": "https://dc.lft.to/lastmile_qr_scan", "ios": "https://dc.lft.to/lastmile_qr_scan"}, "fusion_lat": 0.0, "name": "52a1a936bb66cd347be62b4f1e7f42fe", "bike_id": "52a1a936bb66cd347be62b4f1e7f42fe"}, {"is_disabled": 0, "is_reserved": 0, "type": "electric_scooter", "lon": -77.04475483333333, "fusion_lon": 0.0, "lat": 38.904067833333336, "rental_uris": {"android": "https://dc.lft.to/lastmile_qr_scan", "ios": "https://dc.lft.to/lastmile_qr_scan"}, "fusion_lat": 0.0, "name": "fb96ed6afa533699aae477dc2f996f18", "bike_id": "fb96ed6afa533699aae477dc2f996f18"}, {"is_disabled": 0, "is_reserved": 0, "type": "electric_scooter", "lon": -77.0385785, "fusion_lon": 0.0, "lat": 38.9265, "rental_uris": {"android": "https://dc.lft.to/lastmile_qr_scan", "ios": "https://dc.lft.to/lastmile_qr_scan"}, "fusion_lat": 0.0, "name": "064afb74ab9705d17c3f98e72612bc72", "bike_id": "064afb74ab9705d17c3f98e72612bc72"}, {"is_disabled": 0, "is_reserved": 0, "type": "electric_scooter", "lon": -77.02256883333334, "fusion_lon": 0.0, "lat": 38.878615333333336, "rental_uris": {"android": "https://dc.lft.to/lastmile_qr_scan", "ios": "https://dc.lft.to/lastmile_qr_scan"}, "fusion_lat": 0.0, "name": "2f87cf303d5c48e4a197f973cbf84250", "bike_id": "2f87cf303d5c48e4a197f973cbf84250"}, {"is_disabled": 0, "is_reserved": 0, "type": "electric_bike", "lon": -77.1282055, "fusion_lon": 0.0, "lat": 38.8652585, "rental_uris": {"android": "https://dc.lft.to/lastmile_qr_scan", "ios": "https://dc.lft.to/lastmile_qr_scan"}, "fusion_lat": 0.0, "name": "c4341dd3e8e66080ab60198a4edd6722", "bike_id": "c4341dd3e8e66080ab60198a4edd6722"}, {"is_disabled": 0, "is_reserved": 0, "type": "electric_scooter", "lon": -77.04157466666666, "fusion_lon": 0.0, "lat": 38.915718, "rental_uris": {"android": "https://dc.lft.to/lastmile_qr_scan", "ios": "https://dc.lft.to/lastmile_qr_scan"}, "fusion_lat": 0.0, "name": "1a83afd6498d2dd84003c7683640346f", "bike_id": "1a83afd6498d2dd84003c7683640346f"}, {"is_disabled": 0, "is_reserved": 0, "type": "electric_scooter", "lon": -76.98708216666667, "fusion_lon": 0.0, "lat": 38.865336666666664, "rental_uris": {"android": "https://dc.lft.to/lastmile_qr_scan", "ios": "https://dc.lft.to/lastmile_qr_scan"}, "fusion_lat": 0.0, "name": "ad0462ec67051eb5a97fadc73d757de7", "bike_id": "ad0462ec67051eb5a97fadc73d757de7"}, {"is_disabled": 0, "is_reserved": 0, "type": "electric_scooter", "lon": -77.046769, "fusion_lon": 0.0, "lat": 38.89560016666667, "rental_uris": {"android": "https://dc.lft.to/lastmile_qr_scan", "ios": "https://dc.lft.to/lastmile_qr_scan"}, "fusion_lat": 0.0, "name": "a324fecb45a5b52f9870d148d0d5314a", "bike_id": "a324fecb45a5b52f9870d148d0d5314a"}, {"is_disabled": 0, "is_reserved": 0, "type": "electric_scooter", "lon": -77.032692, "fusion_lon": 0.0, "lat": 38.919260666666666, "rental_uris": {"android": "https://dc.lft.to/lastmile_qr_scan", "ios": "https://dc.lft.to/lastmile_qr_scan"}, "fusion_lat": 0.0, "name": "fdab81586a07f0eb0f424e9ddd991bd5", "bike_id": "fdab81586a07f0eb0f424e9ddd991bd5"}, {"is_disabled": 0, "is_reserved": 0, "type": "electric_bike", "lon": -77.10731133333333, "fusion_lon": 0.0, "lat": 38.855426, "rental_uris": {"android": "https://dc.lft.to/lastmile_qr_scan", "ios": "https://dc.lft.to/lastmile_qr_scan"}, "fusion_lat": 0.0, "name": "44b8a229ffa1e169a1c74e2df48d7ee3", "bike_id": "44b8a229ffa1e169a1c74e2df48d7ee3"}, {"is_disabled": 0, "is_reserved": 0, "type": "electric_scooter", "lon": -76.97820633333333, "fusion_lon": 0.0, "lat": 38.84613866666667, "rental_uris": {"android": "https://dc.lft.to/lastmile_qr_scan", "ios": "https://dc.lft.to/lastmile_qr_scan"}, "fusion_lat": 0.0, "name": "b94ad9bdf898a2bbfdfe34a135f76a2f", "bike_id": "b94ad9bdf898a2bbfdfe34a135f76a2f"}, {"is_disabled": 0, "is_reserved": 0, "type": "electric_scooter", "lon": -76.948902, "fusion_lon": 0.0, "lat": 38.8951215, "rental_uris": {"android": "https://dc.lft.to/lastmile_qr_scan", "ios": "https://dc.lft.to/lastmile_qr_scan"}, "fusion_lat": 0.0, "name": "2989c2ee5c9fc5d91115122f4167effe", "bike_id": "2989c2ee5c9fc5d91115122f4167effe"}, {"is_disabled": 0, "is_reserved": 0, "type": "electric_scooter", "lon": -77.00840266666667, "fusion_lon": 0.0, "lat": 38.8766325, "rental_uris": {"android": "https://dc.lft.to/lastmile_qr_scan", "ios": "https://dc.lft.to/lastmile_qr_scan"}, "fusion_lat": 0.0, "name": "650b7b0344e64f8f1302028a17d71424", "bike_id": "650b7b0344e64f8f1302028a17d71424"}, {"is_disabled": 0, "is_reserved": 0, "type": "electric_scooter", "lon": -77.01657616666667, "fusion_lon": 0.0, "lat": 38.929001166666666, "rental_uris": {"android": "https://dc.lft.to/lastmile_qr_scan", "ios": "https://dc.lft.to/lastmile_qr_scan"}, "fusion_lat": 0.0, "name": "4c73ca715b8d75f56cbfa48a6819e0b1", "bike_id": "4c73ca715b8d75f56cbfa48a6819e0b1"}, {"is_disabled": 0, "is_reserved": 0, "type": "electric_scooter", "lon": -77.044891, "fusion_lon": 0.0, "lat": 38.89608883333333, "rental_uris": {"android": "https://dc.lft.to/lastmile_qr_scan", "ios": "https://dc.lft.to/lastmile_qr_scan"}, "fusion_lat": 0.0, "name": "7e35885432ba36718fb5446aaeb08f10", "bike_id": "7e35885432ba36718fb5446aaeb08f10"}, {"is_disabled": 0, "is_reserved": 0, "type": "electric_scooter", "lon": -76.99532283333333, "fusion_lon": 0.0, "lat": 38.900232, "rental_uris": {"android": "https://dc.lft.to/lastmile_qr_scan", "ios": "https://dc.lft.to/lastmile_qr_scan"}, "fusion_lat": 0.0, "name": "8add33745f1b2bbaed9421bab79fe5ba", "bike_id": "8add33745f1b2bbaed9421bab79fe5ba"}, {"is_disabled": 0, "is_reserved": 0, "type": "electric_scooter", "lon": -77.02408633333333, "fusion_lon": 0.0, "lat": 38.89249983333333, "rental_uris": {"android": "https://dc.lft.to/lastmile_qr_scan", "ios": "https://dc.lft.to/lastmile_qr_scan"}, "fusion_lat": 0.0, "name": "8e9c76b1be8a671137fbfc8ef3ffee80", "bike_id": "8e9c76b1be8a671137fbfc8ef3ffee80"}, {"is_disabled": 0, "is_reserved": 0, "type": "electric_bike", "lon": -76.96388033333334, "fusion_lon": 0.0, "lat": 38.975795166666664, "rental_uris": {"android": "https://dc.lft.to/lastmile_qr_scan", "ios": "https://dc.lft.to/lastmile_qr_scan"}, "fusion_lat": 0.0, "name": "a2318b128ee9df6d2172784633760559", "bike_id": "a2318b128ee9df6d2172784633760559"}, {"is_disabled": 0, "is_reserved": 0, "type": "electric_bike", "lon": -76.94865133333333, "fusion_lon": 0.0, "lat": 38.889679666666666, "rental_uris": {"android": "https://dc.lft.to/lastmile_qr_scan", "ios": "https://dc.lft.to/lastmile_qr_scan"}, "fusion_lat": 0.0, "name": "f40f9b67d3a9a0b2e4a0442a2d71d33e", "bike_id": "f40f9b67d3a9a0b2e4a0442a2d71d33e"}, {"is_disabled": 0, "is_reserved": 0, "type": "electric_bike", "lon": -77.03319483333334, "fusion_lon": 0.0, "lat": 38.89225, "rental_uris": {"android": "https://dc.lft.to/lastmile_qr_scan", "ios": "https://dc.lft.to/lastmile_qr_scan"}, "fusion_lat": 0.0, "name": "549854874d3d8271ce447006e4fb314a", "bike_id": "549854874d3d8271ce447006e4fb314a"}, {"is_disabled": 0, "is_reserved": 0, "type": "electric_bike", "lon": -76.877701, "fusion_lon": 0.0, "lat": 38.99233516666666, "rental_uris": {"android": "https://dc.lft.to/lastmile_qr_scan", "ios": "https://dc.lft.to/lastmile_qr_scan"}, "fusion_lat": 0.0, "name": "246b34b1b7c837d04ff6a50c4bc63548", "bike_id": "246b34b1b7c837d04ff6a50c4bc63548"}, {"is_disabled": 0, "is_reserved": 0, "type": "electric_scooter", "lon": -76.94287283333334, "fusion_lon": 0.0, "lat": 38.8830185, "rental_uris": {"android": "https://dc.lft.to/lastmile_qr_scan", "ios": "https://dc.lft.to/lastmile_qr_scan"}, "fusion_lat": 0.0, "name": "e9a5f4cd8bb412b866730346d1c8e8d5", "bike_id": "e9a5f4cd8bb412b866730346d1c8e8d5"}, {"is_disabled": 0, "is_reserved": 0, "type": "electric_bike", "lon": -77.051375, "fusion_lon": 0.0, "lat": 38.92536966666667, "rental_uris": {"android": "https://dc.lft.to/lastmile_qr_scan", "ios": "https://dc.lft.to/lastmile_qr_scan"}, "fusion_lat": 0.0, "name": "9d1e181575ea271d8abc577b642f3323", "bike_id": "9d1e181575ea271d8abc577b642f3323"}, {"is_disabled": 0, "is_reserved": 0, "type": "electric_scooter", "lon": -77.01213583333333, "fusion_lon": 0.0, "lat": 38.91818833333333, "rental_uris": {"android": "https://dc.lft.to/lastmile_qr_scan", "ios": "https://dc.lft.to/lastmile_qr_scan"}, "fusion_lat": 0.0, "name": "0a6e72dd6f76ecc8cd54570503b26243", "bike_id": "0a6e72dd6f76ecc8cd54570503b26243"}, {"is_disabled": 0, "is_reserved": 0, "type": "electric_scooter", "lon": -77.04649583333334, "fusion_lon": 0.0, "lat": 38.893468, "rental_uris": {"android": "https://dc.lft.to/lastmile_qr_scan", "ios": "https://dc.lft.to/lastmile_qr_scan"}, "fusion_lat": 0.0, "name": "deb1b49f6f37deb5c401d787c178130f", "bike_id": "deb1b49f6f37deb5c401d787c178130f"}, {"is_disabled": 0, "is_reserved": 0, "type": "electric_scooter", "lon": -77.03188766666666, "fusion_lon": 0.0, "lat": 38.91920183333333, "rental_uris": {"android": "https://dc.lft.to/lastmile_qr_scan", "ios": "https://dc.lft.to/lastmile_qr_scan"}, "fusion_lat": 0.0, "name": "04ebc75b004098addee42a1981ff00df", "bike_id": "04ebc75b004098addee42a1981ff00df"}, {"is_disabled": 0, "is_reserved": 0, "type": "electric_scooter", "lon": -77.04684916666666, "fusion_lon": 0.0, "lat": 38.892244, "rental_uris": {"android": "https://dc.lft.to/lastmile_qr_scan", "ios": "https://dc.lft.to/lastmile_qr_scan"}, "fusion_lat": 0.0, "name": "d3e27ca6ea01a96fe625c24ac69e0952", "bike_id": "d3e27ca6ea01a96fe625c24ac69e0952"}, {"is_disabled": 0, "is_reserved": 0, "type": "electric_scooter", "lon": -77.03465483333333, "fusion_lon": 0.0, "lat": 38.906384, "rental_uris": {"android": "https://dc.lft.to/lastmile_qr_scan", "ios": "https://dc.lft.to/lastmile_qr_scan"}, "fusion_lat": 0.0, "name": "39baa3c88699d067d2683f248b4ab63f", "bike_id": "39baa3c88699d067d2683f248b4ab63f"}, {"is_disabled": 0, "is_reserved": 0, "type": "electric_scooter", "lon": -77.03339283333334, "fusion_lon": 0.0, "lat": 38.917093, "rental_uris": {"android": "https://dc.lft.to/lastmile_qr_scan", "ios": "https://dc.lft.to/lastmile_qr_scan"}, "fusion_lat": 0.0, "name": "a783aa5f93396010cfee509e5dcc5e1d", "bike_id": "a783aa5f93396010cfee509e5dcc5e1d"}, {"is_disabled": 0, "is_reserved": 0, "type": "electric_scooter", "lon": -77.02306733333333, "fusion_lon": 0.0, "lat": 38.909029, "rental_uris": {"android": "https://dc.lft.to/lastmile_qr_scan", "ios": "https://dc.lft.to/lastmile_qr_scan"}, "fusion_lat": 0.0, "name": "452f624ae9de282bad40a7aa2fa5ff61", "bike_id": "452f624ae9de282bad40a7aa2fa5ff61"}, {"is_disabled": 0, "is_reserved": 0, "type": "electric_scooter", "lon": -77.00089433333333, "fusion_lon": 0.0, "lat": 38.894065833333336, "rental_uris": {"android": "https://dc.lft.to/lastmile_qr_scan", "ios": "https://dc.lft.to/lastmile_qr_scan"}, "fusion_lat": 0.0, "name": "52c031aceaeb266cf6f1d49e486d8a36", "bike_id": "52c031aceaeb266cf6f1d49e486d8a36"}, {"is_disabled": 0, "is_reserved": 0, "type": "electric_scooter", "lon": -77.03310733333333, "fusion_lon": 0.0, "lat": 38.95615766666667, "rental_uris": {"android": "https://dc.lft.to/lastmile_qr_scan", "ios": "https://dc.lft.to/lastmile_qr_scan"}, "fusion_lat": 0.0, "name": "2e4d0bf1f9fc09a63cf887fa93bd1a61", "bike_id": "2e4d0bf1f9fc09a63cf887fa93bd1a61"}, {"is_disabled": 0, "is_reserved": 0, "type": "electric_bike", "lon": -77.08484983333334, "fusion_lon": 0.0, "lat": 38.89053216666667, "rental_uris": {"android": "https://dc.lft.to/lastmile_qr_scan", "ios": "https://dc.lft.to/lastmile_qr_scan"}, "fusion_lat": 0.0, "name": "1d95d3cf4de9adf1ec82f33c43efc67d", "bike_id": "1d95d3cf4de9adf1ec82f33c43efc67d"}, {"is_disabled": 0, "is_reserved": 0, "type": "electric_scooter", "lon": -77.01383633333333, "fusion_lon": 0.0, "lat": 38.910066, "rental_uris": {"android": "https://dc.lft.to/lastmile_qr_scan", "ios": "https://dc.lft.to/lastmile_qr_scan"}, "fusion_lat": 0.0, "name": "5727cee4a88c2842591b3ba4238dd6dc", "bike_id": "5727cee4a88c2842591b3ba4238dd6dc"}, {"is_disabled": 0, "is_reserved": 0, "type": "electric_scooter", "lon": -77.023131, "fusion_lon": 0.0, "lat": 38.878848166666664, "rental_uris": {"android": "https://dc.lft.to/lastmile_qr_scan", "ios": "https://dc.lft.to/lastmile_qr_scan"}, "fusion_lat": 0.0, "name": "a92e601d0e79b7fe3f0515eb8f343d0b", "bike_id": "a92e601d0e79b7fe3f0515eb8f343d0b"}, {"is_disabled": 0, "is_reserved": 0, "type": "electric_scooter", "lon": -77.02240983333333, "fusion_lon": 0.0, "lat": 38.892229666666665, "rental_uris": {"android": "https://dc.lft.to/lastmile_qr_scan", "ios": "https://dc.lft.to/lastmile_qr_scan"}, "fusion_lat": 0.0, "name": "074e976145f4755d53f095aa72aa4c00", "bike_id": "074e976145f4755d53f095aa72aa4c00"}, {"is_disabled": 0, "is_reserved": 0, "type": "electric_scooter", "lon": -77.02153716666666, "fusion_lon": 0.0, "lat": 38.92603233333333, "rental_uris": {"android": "https://dc.lft.to/lastmile_qr_scan", "ios": "https://dc.lft.to/lastmile_qr_scan"}, "fusion_lat": 0.0, "name": "d7142e225fafb6c3ce7c466f745fbc89", "bike_id": "d7142e225fafb6c3ce7c466f745fbc89"}, {"is_disabled": 0, "is_reserved": 0, "type": "electric_scooter", "lon": -77.07250533333334, "fusion_lon": 0.0, "lat": 38.90784416666666, "rental_uris": {"android": "https://dc.lft.to/lastmile_qr_scan", "ios": "https://dc.lft.to/lastmile_qr_scan"}, "fusion_lat": 0.0, "name": "bfc1d741944322e7627ab317405b1880", "bike_id": "bfc1d741944322e7627ab317405b1880"}, {"is_disabled": 0, "is_reserved": 0, "type": "electric_scooter", "lon": -77.01237133333333, "fusion_lon": 0.0, "lat": 38.874747666666664, "rental_uris": {"android": "https://dc.lft.to/lastmile_qr_scan", "ios": "https://dc.lft.to/lastmile_qr_scan"}, "fusion_lat": 0.0, "name": "22d0d6fe56929843da97c16127d2ef56", "bike_id": "22d0d6fe56929843da97c16127d2ef56"}, {"is_disabled": 0, "is_reserved": 0, "type": "electric_scooter", "lon": -77.00898416666666, "fusion_lon": 0.0, "lat": 38.91287833333333, "rental_uris": {"android": "https://dc.lft.to/lastmile_qr_scan", "ios": "https://dc.lft.to/lastmile_qr_scan"}, "fusion_lat": 0.0, "name": "f374447916fdbcb453dc7c2af12c9445", "bike_id": "f374447916fdbcb453dc7c2af12c9445"}, {"is_disabled": 0, "is_reserved": 0, "type": "electric_scooter", "lon": -76.98624683333334, "fusion_lon": 0.0, "lat": 38.854672666666666, "rental_uris": {"android": "https://dc.lft.to/lastmile_qr_scan", "ios": "https://dc.lft.to/lastmile_qr_scan"}, "fusion_lat": 0.0, "name": "60baba26956abcdc60c9fe98ea03e7af", "bike_id": "60baba26956abcdc60c9fe98ea03e7af"}, {"is_disabled": 0, "is_reserved": 0, "type": "electric_bike", "lon": -77.162318, "fusion_lon": 0.0, "lat": 38.88653133333333, "rental_uris": {"android": "https://dc.lft.to/lastmile_qr_scan", "ios": "https://dc.lft.to/lastmile_qr_scan"}, "fusion_lat": 0.0, "name": "cae6e84824226bf4915468a3707e172a", "bike_id": "cae6e84824226bf4915468a3707e172a"}, {"is_disabled": 0, "is_reserved": 0, "type": "electric_scooter", "lon": -77.00747283333334, "fusion_lon": 0.0, "lat": 38.900713833333334, "rental_uris": {"android": "https://dc.lft.to/lastmile_qr_scan", "ios": "https://dc.lft.to/lastmile_qr_scan"}, "fusion_lat": 0.0, "name": "cfd5c69ef586ae13e6d4e0a4e1c545ef", "bike_id": "cfd5c69ef586ae13e6d4e0a4e1c545ef"}, {"is_disabled": 0, "is_reserved": 0, "type": "electric_scooter", "lon": -77.0635, "fusion_lon": 0.0, "lat": 38.944516666666665, "rental_uris": {"android": "https://dc.lft.to/lastmile_qr_scan", "ios": "https://dc.lft.to/lastmile_qr_scan"}, "fusion_lat": 0.0, "name": "ca9f67b30bdf383a03f1ce72f1ca7e02", "bike_id": "ca9f67b30bdf383a03f1ce72f1ca7e02"}, {"is_disabled": 0, "is_reserved": 0, "type": "electric_scooter", "lon": -77.02462883333334, "fusion_lon": 0.0, "lat": 38.937678, "rental_uris": {"android": "https://dc.lft.to/lastmile_qr_scan", "ios": "https://dc.lft.to/lastmile_qr_scan"}, "fusion_lat": 0.0, "name": "8d3d4c8f26ab18d4a13bb094a1422759", "bike_id": "8d3d4c8f26ab18d4a13bb094a1422759"}, {"is_disabled": 0, "is_reserved": 0, "type": "electric_scooter", "lon": -77.04613483333333, "fusion_lon": 0.0, "lat": 38.899768, "rental_uris": {"android": "https://dc.lft.to/lastmile_qr_scan", "ios": "https://dc.lft.to/lastmile_qr_scan"}, "fusion_lat": 0.0, "name": "3696fa428ed67c6b9e5e639501e8d2f8", "bike_id": "3696fa428ed67c6b9e5e639501e8d2f8"}, {"is_disabled": 0, "is_reserved": 0, "type": "electric_scooter", "lon": -77.04171983333333, "fusion_lon": 0.0, "lat": 38.908015, "rental_uris": {"android": "https://dc.lft.to/lastmile_qr_scan", "ios": "https://dc.lft.to/lastmile_qr_scan"}, "fusion_lat": 0.0, "name": "a8ae160d3db54fe6aa0107bb4548a9db", "bike_id": "a8ae160d3db54fe6aa0107bb4548a9db"}, {"is_disabled": 0, "is_reserved": 0, "type": "electric_scooter", "lon": -77.02703716666667, "fusion_lon": 0.0, "lat": 38.91964866666667, "rental_uris": {"android": "https://dc.lft.to/lastmile_qr_scan", "ios": "https://dc.lft.to/lastmile_qr_scan"}, "fusion_lat": 0.0, "name": "1d99b9f3316a008460825380801fd00e", "bike_id": "1d99b9f3316a008460825380801fd00e"}, {"is_disabled": 0, "is_reserved": 0, "type": "electric_scooter", "lon": -76.94119016666667, "fusion_lon": 0.0, "lat": 38.907934, "rental_uris": {"android": "https://dc.lft.to/lastmile_qr_scan", "ios": "https://dc.lft.to/lastmile_qr_scan"}, "fusion_lat": 0.0, "name": "2b7ba32165dc0debda3e26545cbbff45", "bike_id": "2b7ba32165dc0debda3e26545cbbff45"}, {"is_disabled": 0, "is_reserved": 0, "type": "electric_scooter", "lon": -77.010029, "fusion_lon": 0.0, "lat": 38.87209033333333, "rental_uris": {"android": "https://dc.lft.to/lastmile_qr_scan", "ios": "https://dc.lft.to/lastmile_qr_scan"}, "fusion_lat": 0.0, "name": "f89701137fc5dbc9ca0c103b7339173b", "bike_id": "f89701137fc5dbc9ca0c103b7339173b"}, {"is_disabled": 0, "is_reserved": 0, "type": "electric_scooter", "lon": -77.027881, "fusion_lon": 0.0, "lat": 38.90386483333333, "rental_uris": {"android": "https://dc.lft.to/lastmile_qr_scan", "ios": "https://dc.lft.to/lastmile_qr_scan"}, "fusion_lat": 0.0, "name": "208c94595742268883f1419e42ef592a", "bike_id": "208c94595742268883f1419e42ef592a"}, {"is_disabled": 0, "is_reserved": 0, "type": "electric_bike", "lon": -77.12404583333333, "fusion_lon": 0.0, "lat": 38.893336833333336, "rental_uris": {"android": "https://dc.lft.to/lastmile_qr_scan", "ios": "https://dc.lft.to/lastmile_qr_scan"}, "fusion_lat": 0.0, "name": "5400c59d2496fdaefb0151c6787ff843", "bike_id": "5400c59d2496fdaefb0151c6787ff843"}, {"is_disabled": 0, "is_reserved": 0, "type": "electric_scooter", "lon": -76.930513, "fusion_lon": 0.0, "lat": 38.8979225, "rental_uris": {"android": "https://dc.lft.to/lastmile_qr_scan", "ios": "https://dc.lft.to/lastmile_qr_scan"}, "fusion_lat": 0.0, "name": "6c1e9bd9b818ce0172605839f0d25436", "bike_id": "6c1e9bd9b818ce0172605839f0d25436"}, {"is_disabled": 0, "is_reserved": 0, "type": "electric_bike", "lon": -77.04622866666666, "fusion_lon": 0.0, "lat": 38.91641716666667, "rental_uris": {"android": "https://dc.lft.to/lastmile_qr_scan", "ios": "https://dc.lft.to/lastmile_qr_scan"}, "fusion_lat": 0.0, "name": "e77c017482b09d39491f8b252c4eda4e", "bike_id": "e77c017482b09d39491f8b252c4eda4e"}, {"is_disabled": 0, "is_reserved": 0, "type": "electric_scooter", "lon": -77.03381816666666, "fusion_lon": 0.0, "lat": 38.920457666666664, "rental_uris": {"android": "https://dc.lft.to/lastmile_qr_scan", "ios": "https://dc.lft.to/lastmile_qr_scan"}, "fusion_lat": 0.0, "name": "a5074aec7783b02fdf5bf59925c0a044", "bike_id": "a5074aec7783b02fdf5bf59925c0a044"}, {"is_disabled": 0, "is_reserved": 0, "type": "electric_scooter", "lon": -76.99635333333333, "fusion_lon": 0.0, "lat": 38.846219166666664, "rental_uris": {"android": "https://dc.lft.to/lastmile_qr_scan", "ios": "https://dc.lft.to/lastmile_qr_scan"}, "fusion_lat": 0.0, "name": "c258bf8d682db02121dd890fba38f0d8", "bike_id": "c258bf8d682db02121dd890fba38f0d8"}, {"is_disabled": 0, "is_reserved": 0, "type": "electric_scooter", "lon": -77.03622533333333, "fusion_lon": 0.0, "lat": 38.90305033333333, "rental_uris": {"android": "https://dc.lft.to/lastmile_qr_scan", "ios": "https://dc.lft.to/lastmile_qr_scan"}, "fusion_lat": 0.0, "name": "c15967f2431f3f328d07980e251e4676", "bike_id": "c15967f2431f3f328d07980e251e4676"}, {"is_disabled": 0, "is_reserved": 0, "type": "electric_scooter", "lon": -77.041617, "fusion_lon": 0.0, "lat": 38.91415383333333, "rental_uris": {"android": "https://dc.lft.to/lastmile_qr_scan", "ios": "https://dc.lft.to/lastmile_qr_scan"}, "fusion_lat": 0.0, "name": "23a833c3246567c379d5d95e92acb1ad", "bike_id": "23a833c3246567c379d5d95e92acb1ad"}, {"is_disabled": 0, "is_reserved": 0, "type": "electric_scooter", "lon": -77.0392125, "fusion_lon": 0.0, "lat": 38.9191225, "rental_uris": {"android": "https://dc.lft.to/lastmile_qr_scan", "ios": "https://dc.lft.to/lastmile_qr_scan"}, "fusion_lat": 0.0, "name": "67c5de88154a2bf5fbaa93b58385170f", "bike_id": "67c5de88154a2bf5fbaa93b58385170f"}, {"is_disabled": 0, "is_reserved": 0, "type": "electric_scooter", "lon": -77.02942633333333, "fusion_lon": 0.0, "lat": 38.896325833333336, "rental_uris": {"android": "https://dc.lft.to/lastmile_qr_scan", "ios": "https://dc.lft.to/lastmile_qr_scan"}, "fusion_lat": 0.0, "name": "6d0c085e1dbad681f0214e6f26a0b026", "bike_id": "6d0c085e1dbad681f0214e6f26a0b026"}, {"is_disabled": 0, "is_reserved": 0, "type": "electric_scooter", "lon": -77.03429633333333, "fusion_lon": 0.0, "lat": 38.92737833333333, "rental_uris": {"android": "https://dc.lft.to/lastmile_qr_scan", "ios": "https://dc.lft.to/lastmile_qr_scan"}, "fusion_lat": 0.0, "name": "f2c6062cb244b718f8d6758e379a768c", "bike_id": "f2c6062cb244b718f8d6758e379a768c"}, {"is_disabled": 0, "is_reserved": 0, "type": "electric_scooter", "lon": -77.03338566666666, "fusion_lon": 0.0, "lat": 38.9180595, "rental_uris": {"android": "https://dc.lft.to/lastmile_qr_scan", "ios": "https://dc.lft.to/lastmile_qr_scan"}, "fusion_lat": 0.0, "name": "99e04ad852b5ccf3d739b293c689b921", "bike_id": "99e04ad852b5ccf3d739b293c689b921"}, {"is_disabled": 0, "is_reserved": 0, "type": "electric_scooter", "lon": -77.0336825, "fusion_lon": 0.0, "lat": 38.89837466666667, "rental_uris": {"android": "https://dc.lft.to/lastmile_qr_scan", "ios": "https://dc.lft.to/lastmile_qr_scan"}, "fusion_lat": 0.0, "name": "d40c66297747d2599061304de9663433", "bike_id": "d40c66297747d2599061304de9663433"}, {"is_disabled": 0, "is_reserved": 0, "type": "electric_scooter", "lon": -77.022213, "fusion_lon": 0.0, "lat": 38.935531, "rental_uris": {"android": "https://dc.lft.to/lastmile_qr_scan", "ios": "https://dc.lft.to/lastmile_qr_scan"}, "fusion_lat": 0.0, "name": "a7442f22fdc3f7b43012d4a50d8c9b21", "bike_id": "a7442f22fdc3f7b43012d4a50d8c9b21"}, {"is_disabled": 0, "is_reserved": 0, "type": "electric_scooter", "lon": -77.03230833333333, "fusion_lon": 0.0, "lat": 38.9125685, "rental_uris": {"android": "https://dc.lft.to/lastmile_qr_scan", "ios": "https://dc.lft.to/lastmile_qr_scan"}, "fusion_lat": 0.0, "name": "844f49911871167ca8da811861fd4394", "bike_id": "844f49911871167ca8da811861fd4394"}, {"is_disabled": 0, "is_reserved": 0, "type": "electric_scooter", "lon": -77.02163166666666, "fusion_lon": 0.0, "lat": 38.926118833333334, "rental_uris": {"android": "https://dc.lft.to/lastmile_qr_scan", "ios": "https://dc.lft.to/lastmile_qr_scan"}, "fusion_lat": 0.0, "name": "53c1b77da100c4f20a24d774def48f3d", "bike_id": "53c1b77da100c4f20a24d774def48f3d"}, {"is_disabled": 0, "is_reserved": 0, "type": "electric_scooter", "lon": -77.00579433333333, "fusion_lon": 0.0, "lat": 38.875317333333335, "rental_uris": {"android": "https://dc.lft.to/lastmile_qr_scan", "ios": "https://dc.lft.to/lastmile_qr_scan"}, "fusion_lat": 0.0, "name": "d169619ccd4c2e03b7f378d66c4698c7", "bike_id": "d169619ccd4c2e03b7f378d66c4698c7"}, {"is_disabled": 0, "is_reserved": 0, "type": "electric_scooter", "lon": -77.043285, "fusion_lon": 0.0, "lat": 38.91537, "rental_uris": {"android": "https://dc.lft.to/lastmile_qr_scan", "ios": "https://dc.lft.to/lastmile_qr_scan"}, "fusion_lat": 0.0, "name": "2c671f41c87279fd6b8297794b632939", "bike_id": "2c671f41c87279fd6b8297794b632939"}, {"is_disabled": 0, "is_reserved": 0, "type": "electric_scooter", "lon": -77.00208816666667, "fusion_lon": 0.0, "lat": 38.891394, "rental_uris": {"android": "https://dc.lft.to/lastmile_qr_scan", "ios": "https://dc.lft.to/lastmile_qr_scan"}, "fusion_lat": 0.0, "name": "46f1245714a2fbb32e2eb45774cedd3a", "bike_id": "46f1245714a2fbb32e2eb45774cedd3a"}, {"is_disabled": 0, "is_reserved": 0, "type": "electric_scooter", "lon": -76.993926, "fusion_lon": 0.0, "lat": 38.921616666666665, "rental_uris": {"android": "https://dc.lft.to/lastmile_qr_scan", "ios": "https://dc.lft.to/lastmile_qr_scan"}, "fusion_lat": 0.0, "name": "5dc0f9505fa039253e356ae9efb5533d", "bike_id": "5dc0f9505fa039253e356ae9efb5533d"}, {"is_disabled": 0, "is_reserved": 0, "type": "electric_scooter", "lon": -77.03048116666666, "fusion_lon": 0.0, "lat": 38.939785, "rental_uris": {"android": "https://dc.lft.to/lastmile_qr_scan", "ios": "https://dc.lft.to/lastmile_qr_scan"}, "fusion_lat": 0.0, "name": "41bf4818424fb6427e4628afa024e385", "bike_id": "41bf4818424fb6427e4628afa024e385"}, {"is_disabled": 0, "is_reserved": 0, "type": "electric_bike", "lon": -76.97999733333333, "fusion_lon": 0.0, "lat": 38.8775705, "rental_uris": {"android": "https://dc.lft.to/lastmile_qr_scan", "ios": "https://dc.lft.to/lastmile_qr_scan"}, "fusion_lat": 0.0, "name": "84ce155821a7290bf248f8ee7065f93b", "bike_id": "84ce155821a7290bf248f8ee7065f93b"}, {"is_disabled": 0, "is_reserved": 0, "type": "electric_scooter", "lon": -76.9859805, "fusion_lon": 0.0, "lat": 38.9065765, "rental_uris": {"android": "https://dc.lft.to/lastmile_qr_scan", "ios": "https://dc.lft.to/lastmile_qr_scan"}, "fusion_lat": 0.0, "name": "7063629d223220e2020f2b88aea99cc2", "bike_id": "7063629d223220e2020f2b88aea99cc2"}, {"is_disabled": 0, "is_reserved": 0, "type": "electric_scooter", "lon": -77.04360866666667, "fusion_lon": 0.0, "lat": 38.90229983333333, "rental_uris": {"android": "https://dc.lft.to/lastmile_qr_scan", "ios": "https://dc.lft.to/lastmile_qr_scan"}, "fusion_lat": 0.0, "name": "f67d1aa7e185a39e38d832bd908192e7", "bike_id": "f67d1aa7e185a39e38d832bd908192e7"}, {"is_disabled": 0, "is_reserved": 0, "type": "electric_scooter", "lon": -77.05599616666667, "fusion_lon": 0.0, "lat": 38.937004, "rental_uris": {"android": "https://dc.lft.to/lastmile_qr_scan", "ios": "https://dc.lft.to/lastmile_qr_scan"}, "fusion_lat": 0.0, "name": "8215560a485e838f3bcdc7b26771b0bd", "bike_id": "8215560a485e838f3bcdc7b26771b0bd"}, {"is_disabled": 0, "is_reserved": 0, "type": "electric_scooter", "lon": -77.02722166666666, "fusion_lon": 0.0, "lat": 38.908545333333336, "rental_uris": {"android": "https://dc.lft.to/lastmile_qr_scan", "ios": "https://dc.lft.to/lastmile_qr_scan"}, "fusion_lat": 0.0, "name": "5d6b6071b787f01780138a6880549377", "bike_id": "5d6b6071b787f01780138a6880549377"}, {"is_disabled": 0, "is_reserved": 0, "type": "electric_scooter", "lon": -77.03064283333333, "fusion_lon": 0.0, "lat": 38.93982233333333, "rental_uris": {"android": "https://dc.lft.to/lastmile_qr_scan", "ios": "https://dc.lft.to/lastmile_qr_scan"}, "fusion_lat": 0.0, "name": "a21d731affcd0d37ae70219f1bb26559", "bike_id": "a21d731affcd0d37ae70219f1bb26559"}, {"is_disabled": 0, "is_reserved": 0, "type": "electric_scooter", "lon": -77.050479, "fusion_lon": 0.0, "lat": 38.9053, "rental_uris": {"android": "https://dc.lft.to/lastmile_qr_scan", "ios": "https://dc.lft.to/lastmile_qr_scan"}, "fusion_lat": 0.0, "name": "0f79c17b0d992bdba33a83c9349d39fa", "bike_id": "0f79c17b0d992bdba33a83c9349d39fa"}, {"is_disabled": 0, "is_reserved": 0, "type": "electric_scooter", "lon": -77.0378595, "fusion_lon": 0.0, "lat": 38.92621483333333, "rental_uris": {"android": "https://dc.lft.to/lastmile_qr_scan", "ios": "https://dc.lft.to/lastmile_qr_scan"}, "fusion_lat": 0.0, "name": "a25015223c42fc122f059599ae03bb4b", "bike_id": "a25015223c42fc122f059599ae03bb4b"}, {"is_disabled": 0, "is_reserved": 0, "type": "electric_scooter", "lon": -77.01365316666667, "fusion_lon": 0.0, "lat": 38.87899316666667, "rental_uris": {"android": "https://dc.lft.to/lastmile_qr_scan", "ios": "https://dc.lft.to/lastmile_qr_scan"}, "fusion_lat": 0.0, "name": "72600fca1a79621f589fa23408aa7d10", "bike_id": "72600fca1a79621f589fa23408aa7d10"}, {"is_disabled": 0, "is_reserved": 0, "type": "electric_bike", "lon": -76.98047066666666, "fusion_lon": 0.0, "lat": 38.900886166666666, "rental_uris": {"android": "https://dc.lft.to/lastmile_qr_scan", "ios": "https://dc.lft.to/lastmile_qr_scan"}, "fusion_lat": 0.0, "name": "1d5bf9010fa5831e7693e00f8ed2ad8a", "bike_id": "1d5bf9010fa5831e7693e00f8ed2ad8a"}, {"is_disabled": 0, "is_reserved": 0, "type": "electric_bike", "lon": -77.36087783333333, "fusion_lon": 0.0, "lat": 38.93961016666667, "rental_uris": {"android": "https://dc.lft.to/lastmile_qr_scan", "ios": "https://dc.lft.to/lastmile_qr_scan"}, "fusion_lat": 0.0, "name": "c8071678dce91f5b3085963ffd0fbec9", "bike_id": "c8071678dce91f5b3085963ffd0fbec9"}, {"is_disabled": 0, "is_reserved": 0, "type": "electric_scooter", "lon": -77.02174, "fusion_lon": 0.0, "lat": 38.942947833333335, "rental_uris": {"android": "https://dc.lft.to/lastmile_qr_scan", "ios": "https://dc.lft.to/lastmile_qr_scan"}, "fusion_lat": 0.0, "name": "b9f1524f0d4b069cc9667c54ea39ce0f", "bike_id": "b9f1524f0d4b069cc9667c54ea39ce0f"}, {"is_disabled": 0, "is_reserved": 0, "type": "electric_scooter", "lon": -77.04175166666667, "fusion_lon": 0.0, "lat": 38.92007233333333, "rental_uris": {"android": "https://dc.lft.to/lastmile_qr_scan", "ios": "https://dc.lft.to/lastmile_qr_scan"}, "fusion_lat": 0.0, "name": "c5ef9c0aa82c0c0af0fd601b16b862ee", "bike_id": "c5ef9c0aa82c0c0af0fd601b16b862ee"}, {"is_disabled": 0, "is_reserved": 0, "type": "electric_scooter", "lon": -77.03109216666667, "fusion_lon": 0.0, "lat": 38.92027516666667, "rental_uris": {"android": "https://dc.lft.to/lastmile_qr_scan", "ios": "https://dc.lft.to/lastmile_qr_scan"}, "fusion_lat": 0.0, "name": "1c1db2884a0fcf34073053f8772b6f3c", "bike_id": "1c1db2884a0fcf34073053f8772b6f3c"}, {"is_disabled": 0, "is_reserved": 0, "type": "electric_scooter", "lon": -77.03309783333333, "fusion_lon": 0.0, "lat": 38.90554216666666, "rental_uris": {"android": "https://dc.lft.to/lastmile_qr_scan", "ios": "https://dc.lft.to/lastmile_qr_scan"}, "fusion_lat": 0.0, "name": "4cdf57a68d08a401fe12a35f7111e674", "bike_id": "4cdf57a68d08a401fe12a35f7111e674"}, {"is_disabled": 0, "is_reserved": 0, "type": "electric_scooter", "lon": -77.019975, "fusion_lon": 0.0, "lat": 38.966256, "rental_uris": {"android": "https://dc.lft.to/lastmile_qr_scan", "ios": "https://dc.lft.to/lastmile_qr_scan"}, "fusion_lat": 0.0, "name": "85c8fb5bfc88bdebbe6165014f22c6f1", "bike_id": "85c8fb5bfc88bdebbe6165014f22c6f1"}, {"is_disabled": 0, "is_reserved": 0, "type": "electric_scooter", "lon": -77.03701066666666, "fusion_lon": 0.0, "lat": 38.9264585, "rental_uris": {"android": "https://dc.lft.to/lastmile_qr_scan", "ios": "https://dc.lft.to/lastmile_qr_scan"},