{"data": {"bikes": [{"fusion_lon": 0.0, "bike_id": "64597cb318149198663ae6d2167831fe", "lon": -77.06803933333333, "type": "electric_scooter", "is_disabled": 0, "rental_uris": {"ios": "https://dc.lft.to/lastmile_qr_scan", "android": "https://dc.lft.to/lastmile_qr_scan"}, "is_reserved": 0, "fusion_lat": 0.0, "name": "64597cb318149198663ae6d2167831fe", "lat": 38.90401}, {"fusion_lon": 0.0, "bike_id": "b3ab5368fe73d92be9266e17794c05af", "lon": -77.05848133333333, "type": "electric_scooter", "is_disabled": 0, "rental_uris": {"ios": "https://dc.lft.to/lastmile_qr_scan", "android": "https://dc.lft.to/lastmile_qr_scan"}, "is_reserved": 0, "fusion_lat": 0.0, "name": "b3ab5368fe73d92be9266e17794c05af", "lat": 38.90461283333333}, {"fusion_lon": 0.0, "bike_id": "62954a638a442da20a8f3678c7c37487", "lon": -77.0216915, "type": "electric_scooter", "is_disabled": 0, "rental_uris": {"ios": "https://dc.lft.to/lastmile_qr_scan", "android": "https://dc.lft.to/lastmile_qr_scan"}, "is_reserved": 0, "fusion_lat": 0.0, "name": "62954a638a442da20a8f3678c7c37487", "lat": 38.926138333333334}, {"fusion_lon": 0.0, "bike_id": "b593b0e18a897d3436d6dd4d0ad8c772", "lon": -77.04228466666666, "type": "electric_scooter", "is_disabled": 0, "rental_uris": {"ios": "https://dc.lft.to/lastmile_qr_scan", "android": "https://dc.lft.to/lastmile_qr_scan"}, "is_reserved": 0, "fusion_lat": 0.0, "name": "b593b0e18a897d3436d6dd4d0ad8c772", "lat": 38.92115883333334}, {"fusion_lon": 0.0, "bike_id": "591427bf3af740da46a5751c966317e5", "lon": -77.03667183333333, "type": "electric_scooter", "is_disabled": 0, "rental_uris": {"ios": "https://dc.lft.to/lastmile_qr_scan", "android": "https://dc.lft.to/lastmile_qr_scan"}, "is_reserved": 0, "fusion_lat": 0.0, "name": "591427bf3af740da46a5751c966317e5", "lat": 38.923871166666665}, {"fusion_lon": 0.0, "bike_id": "43715592b35884985afb823014137556", "lon": -77.02374033333334, "type": "electric_scooter", "is_disabled": 0, "rental_uris": {"ios": "https://dc.lft.to/lastmile_qr_scan", "android": "https://dc.lft.to/lastmile_qr_scan"}, "is_reserved": 0, "fusion_lat": 0.0, "name": "43715592b35884985afb823014137556", "lat": 38.892235166666666}, {"fusion_lon": 0.0, "bike_id": "21100d0a0647e223dcd7c02f1a56027e", "lon": -76.99697633333334, "type": "electric_scooter", "is_disabled": 0, "rental_uris": {"ios": "https://dc.lft.to/lastmile_qr_scan", "android": "https://dc.lft.to/lastmile_qr_scan"}, "is_reserved": 0, "fusion_lat": 0.0, "name": "21100d0a0647e223dcd7c02f1a56027e", "lat": 38.8772045}, {"fusion_lon": 0.0, "bike_id": "be46660ddbdf3b511eab678045905e05", "lon": -77.02644783333334, "type": "electric_scooter", "is_disabled": 0, "rental_uris": {"ios": "https://dc.lft.to/lastmile_qr_scan", "android": "https://dc.lft.to/lastmile_qr_scan"}, "is_reserved": 0, "fusion_lat": 0.0, "name": "be46660ddbdf3b511eab678045905e05", "lat": 38.940999166666664}, {"fusion_lon": 0.0, "bike_id": "e7461b525d12d30a2413c740c712dee7", "lon": -77.01914983333333, "type": "electric_scooter", "is_disabled": 0, "rental_uris": {"ios": "https://dc.lft.to/lastmile_qr_scan", "android": "https://dc.lft.to/lastmile_qr_scan"}, "is_reserved": 0, "fusion_lat": 0.0, "name": "e7461b525d12d30a2413c740c712dee7", "lat": 38.9225325}, {"fusion_lon": 0.0, "bike_id": "5d0c6afd4cb1e541893b715dc360d85c", "lon": -77.017566, "type": "electric_scooter", "is_disabled": 0, "rental_uris": {"ios": "https://dc.lft.to/lastmile_qr_scan", "android": "https://dc.lft.to/lastmile_qr_scan"}, "is_reserved": 0, "fusion_lat": 0.0, "name": "5d0c6afd4cb1e541893b715dc360d85c", "lat": 38.877172333333334}, {"fusion_lon": 0.0, "bike_id": "991425686558a23988ac6284653ba819", "lon": -77.07150133333333, "type": "electric_scooter", "is_disabled": 0, "rental_uris": {"ios": "https://dc.lft.to/lastmile_qr_scan", "android": "https://dc.lft.to/lastmile_qr_scan"}, "is_reserved": 0, "fusion_lat": 0.0, "name": "991425686558a23988ac6284653ba819", "lat": 38.9203265}, {"fusion_lon": 0.0, "bike_id": "8719dfeb3110ad3aed87b350c7edfcbf", "lon": -76.97799283333333, "type": "electric_scooter", "is_disabled": 0, "rental_uris": {"ios": "https://dc.lft.to/lastmile_qr_scan", "android": "https://dc.lft.to/lastmile_qr_scan"}, "is_reserved": 0, "fusion_lat": 0.0, "name": "8719dfeb3110ad3aed87b350c7edfcbf", "lat": 38.90310983333333}, {"fusion_lon": 0.0, "bike_id": "b87cf9ad3528080bb3a36a07eed3c0ee", "lon": -77.022404, "type": "electric_scooter", "is_disabled": 0, "rental_uris": {"ios": "https://dc.lft.to/lastmile_qr_scan", "android": "https://dc.lft.to/lastmile_qr_scan"}, "is_reserved": 0, "fusion_lat": 0.0, "name": "b87cf9ad3528080bb3a36a07eed3c0ee", "lat": 38.92246216666667}, {"fusion_lon": 0.0, "bike_id": "806b329767790204cc2ba6eb7fb7896e", "lon": -77.02629483333334, "type": "electric_scooter", "is_disabled": 0, "rental_uris": {"ios": "https://dc.lft.to/lastmile_qr_scan", "android": "https://dc.lft.to/lastmile_qr_scan"}, "is_reserved": 0, "fusion_lat": 0.0, "name": "806b329767790204cc2ba6eb7fb7896e", "lat": 38.89226516666667}, {"fusion_lon": 0.0, "bike_id": "6ec393cc3d850bcd6d779fbc898ec1dc", "lon": -77.03856383333333, "type": "electric_scooter", "is_disabled": 0, "rental_uris": {"ios": "https://dc.lft.to/lastmile_qr_scan", "android": "https://dc.lft.to/lastmile_qr_scan"}, "is_reserved": 0, "fusion_lat": 0.0, "name": "6ec393cc3d850bcd6d779fbc898ec1dc", "lat": 38.902764166666664}, {"fusion_lon": 0.0, "bike_id": "946b0e4e53de9e88ef5f792fd7602a3d", "lon": -76.99498266666667, "type": "electric_scooter", "is_disabled": 0, "rental_uris": {"ios": "https://dc.lft.to/lastmile_qr_scan", "android": "https://dc.lft.to/lastmile_qr_scan"}, "is_reserved": 0, "fusion_lat": 0.0, "name": "946b0e4e53de9e88ef5f792fd7602a3d", "lat": 38.899874}, {"fusion_lon": 0.0, "bike_id": "ec35387a39feb67c08ea88ac7904aa34", "lon": -77.040865, "type": "electric_scooter", "is_disabled": 0, "rental_uris": {"ios": "https://dc.lft.to/lastmile_qr_scan", "android": "https://dc.lft.to/lastmile_qr_scan"}, "is_reserved": 0, "fusion_lat": 0.0, "name": "ec35387a39feb67c08ea88ac7904aa34", "lat": 38.91712183333333}, {"fusion_lon": 0.0, "bike_id": "93ed8e4b96efa8e9901f5c99db7a0060", "lon": -76.99225833333334, "type": "electric_scooter", "is_disabled": 0, "rental_uris": {"ios": "https://dc.lft.to/lastmile_qr_scan", "android": "https://dc.lft.to/lastmile_qr_scan"}, "is_reserved": 0, "fusion_lat": 0.0, "name": "93ed8e4b96efa8e9901f5c99db7a0060", "lat": 38.862953833333336}, {"fusion_lon": 0.0, "bike_id": "55924d8d968d0578fe1520ce60276622", "lon": -77.020094, "type": "electric_scooter", "is_disabled": 0, "rental_uris": {"ios": "https://dc.lft.to/lastmile_qr_scan", "android": "https://dc.lft.to/lastmile_qr_scan"}, "is_reserved": 0, "fusion_lat": 0.0, "name": "55924d8d968d0578fe1520ce60276622", "lat": 38.928377166666664}, {"fusion_lon": 0.0, "bike_id": "3411f81af399db43cc0dc3e3a8825c3d", "lon": -77.02715233333333, "type": "electric_scooter", "is_disabled": 0, "rental_uris": {"ios": "https://dc.lft.to/lastmile_qr_scan", "android": "https://dc.lft.to/lastmile_qr_scan"}, "is_reserved": 0, "fusion_lat": 0.0, "name": "3411f81af399db43cc0dc3e3a8825c3d", "lat": 38.899787333333336}, {"fusion_lon": 0.0, "bike_id": "74f8d2ee0e4144bf2ec88730e3924875", "lon": -77.07903033333334, "type": "electric_bike", "is_disabled": 0, "rental_uris": {"ios": "https://dc.lft.to/lastmile_qr_scan", "android": "https://dc.lft.to/lastmile_qr_scan"}, "is_reserved": 0, "fusion_lat": 0.0, "name": "74f8d2ee0e4144bf2ec88730e3924875", "lat": 38.848228}, {"fusion_lon": 0.0, "bike_id": "a011b8a2686943a3a3974b236c072434", "lon": -76.99617166666667, "type": "electric_scooter", "is_disabled": 0, "rental_uris": {"ios": "https://dc.lft.to/lastmile_qr_scan", "android": "https://dc.lft.to/lastmile_qr_scan"}, "is_reserved": 0, "fusion_lat": 0.0, "name": "a011b8a2686943a3a3974b236c072434", "lat": 38.882639166666664}, {"fusion_lon": 0.0, "bike_id": "91e9924af1726ca1aaeaa8a957625645", "lon": -77.0185795, "type": "electric_scooter", "is_disabled": 0, "rental_uris": {"ios": "https://dc.lft.to/lastmile_qr_scan", "android": "https://dc.lft.to/lastmile_qr_scan"}, "is_reserved": 0, "fusion_lat": 0.0, "name": "91e9924af1726ca1aaeaa8a957625645", "lat": 38.9488315}, {"fusion_lon": 0.0, "bike_id": "be22d918855416cbc90de530cb179ad4", "lon": -77.02978333333333, "type": "electric_scooter", "is_disabled": 0, "rental_uris": {"ios": "https://dc.lft.to/lastmile_qr_scan", "android": "https://dc.lft.to/lastmile_qr_scan"}, "is_reserved": 0, "fusion_lat": 0.0, "name": "be22d918855416cbc90de530cb179ad4", "lat": 38.90782083333333}, {"fusion_lon": 0.0, "bike_id": "e7b730b283a83b47cc8a79dd342354ec", "lon": -77.0503415, "type": "electric_scooter", "is_disabled": 0, "rental_uris": {"ios": "https://dc.lft.to/lastmile_qr_scan", "android": "https://dc.lft.to/lastmile_qr_scan"}, "is_reserved": 0, "fusion_lat": 0.0, "name": "e7b730b283a83b47cc8a79dd342354ec", "lat": 38.898347666666666}, {"fusion_lon": 0.0, "bike_id": "3add65a91c0345d679978683816aad2b", "lon": -77.03956416666666, "type": "electric_scooter", "is_disabled": 0, "rental_uris": {"ios": "https://dc.lft.to/lastmile_qr_scan", "android": "https://dc.lft.to/lastmile_qr_scan"}, "is_reserved": 0, "fusion_lat": 0.0, "name": "3add65a91c0345d679978683816aad2b", "lat": 38.91557783333333}, {"fusion_lon": 0.0, "bike_id": "11859cb5dc0823471978c3a5b42ab4ef", "lon": -77.05184866666667, "type": "electric_scooter", "is_disabled": 0, "rental_uris": {"ios": "https://dc.lft.to/lastmile_qr_scan", "android": "https://dc.lft.to/lastmile_qr_scan"}, "is_reserved": 0, "fusion_lat": 0.0, "name": "11859cb5dc0823471978c3a5b42ab4ef", "lat": 38.923430833333335}, {"fusion_lon": 0.0, "bike_id": "f86741070aa3de6bdb115a1e774b3145", "lon": -76.94005983333334, "type": "electric_bike", "is_disabled": 0, "rental_uris": {"ios": "https://dc.lft.to/lastmile_qr_scan", "android": "https://dc.lft.to/lastmile_qr_scan"}, "is_reserved": 0, "fusion_lat": 0.0, "name": "f86741070aa3de6bdb115a1e774b3145", "lat": 38.96043366666667}, {"fusion_lon": 0.0, "bike_id": "6a4efa1bf16dcaa4edfc26e472713ce5", "lon": -77.08823633333333, "type": "electric_bike", "is_disabled": 0, "rental_uris": {"ios": "https://dc.lft.to/lastmile_qr_scan", "android": "https://dc.lft.to/lastmile_qr_scan"}, "is_reserved": 0, "fusion_lat": 0.0, "name": "6a4efa1bf16dcaa4edfc26e472713ce5", "lat": 38.90974033333333}, {"fusion_lon": 0.0, "bike_id": "f952501d84794ec946512f06c7c09f7e", "lon": -77.00519783333333, "type": "electric_scooter", "is_disabled": 0, "rental_uris": {"ios": "https://dc.lft.to/lastmile_qr_scan", "android": "https://dc.lft.to/lastmile_qr_scan"}, "is_reserved": 0, "fusion_lat": 0.0, "name": "f952501d84794ec946512f06c7c09f7e", "lat": 38.896728333333336}, {"fusion_lon": 0.0, "bike_id": "9a3e00683ff98370a572387534014664", "lon": -76.99950116666666, "type": "electric_scooter", "is_disabled": 0, "rental_uris": {"ios": "https://dc.lft.to/lastmile_qr_scan", "android": "https://dc.lft.to/lastmile_qr_scan"}, "is_reserved": 0, "fusion_lat": 0.0, "name": "9a3e00683ff98370a572387534014664", "lat": 38.923562833333335}, {"fusion_lon": 0.0, "bike_id": "475c1ed9a8e143e2a6b830915d1fef41", "lon": -77.00082216666667, "type": "electric_bike", "is_disabled": 0, "rental_uris": {"ios": "https://dc.lft.to/lastmile_qr_scan", "android": "https://dc.lft.to/lastmile_qr_scan"}, "is_reserved": 0, "fusion_lat": 0.0, "name": "475c1ed9a8e143e2a6b830915d1fef41", "lat": 38.885994333333336}, {"fusion_lon": 0.0, "bike_id": "954a6b2de8fac1f380560a3636b03601", "lon": -76.94536916666667, "type": "electric_bike", "is_disabled": 0, "rental_uris": {"ios": "https://dc.lft.to/lastmile_qr_scan", "android": "https://dc.lft.to/lastmile_qr_scan"}, "is_reserved": 0, "fusion_lat": 0.0, "name": "954a6b2de8fac1f380560a3636b03601", "lat": 38.86750216666667}, {"fusion_lon": 0.0, "bike_id": "45a62c373fe3329800dd9667ce725997", "lon": -76.983233, "type": "electric_scooter", "is_disabled": 0, "rental_uris": {"ios": "https://dc.lft.to/lastmile_qr_scan", "android": "https://dc.lft.to/lastmile_qr_scan"}, "is_reserved": 0, "fusion_lat": 0.0, "name": "45a62c373fe3329800dd9667ce725997", "lat": 38.9433725}, {"fusion_lon": 0.0, "bike_id": "168a7c19d3a88c15f1fef4de6f166dfa", "lon": -77.05292633333333, "type": "electric_scooter", "is_disabled": 0, "rental_uris": {"ios": "https://dc.lft.to/lastmile_qr_scan", "android": "https://dc.lft.to/lastmile_qr_scan"}, "is_reserved": 0, "fusion_lat": 0.0, "name": "168a7c19d3a88c15f1fef4de6f166dfa", "lat": 38.922582166666665}, {"fusion_lon": 0.0, "bike_id": "1a13889b8080b8a26347b7a8e8b8e0ce", "lon": -77.0053845, "type": "electric_scooter", "is_disabled": 0, "rental_uris": {"ios": "https://dc.lft.to/lastmile_qr_scan", "android": "https://dc.lft.to/lastmile_qr_scan"}, "is_reserved": 0, "fusion_lat": 0.0, "name": "1a13889b8080b8a26347b7a8e8b8e0ce", "lat": 38.875462}, {"fusion_lon": 0.0, "bike_id": "ccf0a2b1a604744d67168846302f38a3", "lon": -77.01076666666667, "type": "electric_scooter", "is_disabled": 0, "rental_uris": {"ios": "https://dc.lft.to/lastmile_qr_scan", "android": "https://dc.lft.to/lastmile_qr_scan"}, "is_reserved": 0, "fusion_lat": 0.0, "name": "ccf0a2b1a604744d67168846302f38a3", "lat": 38.89442583333334}, {"fusion_lon": 0.0, "bike_id": "cb6b285ab46de5c1ffeeb2be11a440fd", "lon": -77.02999433333333, "type": "electric_scooter", "is_disabled": 0, "rental_uris": {"ios": "https://dc.lft.to/lastmile_qr_scan", "android": "https://dc.lft.to/lastmile_qr_scan"}, "is_reserved": 0, "fusion_lat": 0.0, "name": "cb6b285ab46de5c1ffeeb2be11a440fd", "lat": 38.91632833333333}, {"fusion_lon": 0.0, "bike_id": "f58df945a365fb84cf6d1b0f35cb625a", "lon": -77.0274195, "type": "electric_scooter", "is_disabled": 0, "rental_uris": {"ios": "https://dc.lft.to/lastmile_qr_scan", "android": "https://dc.lft.to/lastmile_qr_scan"}, "is_reserved": 0, "fusion_lat": 0.0, "name": "f58df945a365fb84cf6d1b0f35cb625a", "lat": 38.96608766666667}, {"fusion_lon": 0.0, "bike_id": "a188bf35daa565a9f3b9c03a659a5c16", "lon": -77.02794566666667, "type": "electric_scooter", "is_disabled": 0, "rental_uris": {"ios": "https://dc.lft.to/lastmile_qr_scan", "android": "https://dc.lft.to/lastmile_qr_scan"}, "is_reserved": 0, "fusion_lat": 0.0, "name": "a188bf35daa565a9f3b9c03a659a5c16", "lat": 38.941752}, {"fusion_lon": 0.0, "bike_id": "139c2ebb461f25e301e83489480dc6bf", "lon": -77.02183266666667, "type": "electric_scooter", "is_disabled": 0, "rental_uris": {"ios": "https://dc.lft.to/lastmile_qr_scan", "android": "https://dc.lft.to/lastmile_qr_scan"}, "is_reserved": 0, "fusion_lat": 0.0, "name": "139c2ebb461f25e301e83489480dc6bf", "lat": 38.89977016666667}, {"fusion_lon": 0.0, "bike_id": "c7281382dd77cb37fd4ca9973dea9532", "lon": -77.02010116666666, "type": "electric_scooter", "is_disabled": 0, "rental_uris": {"ios": "https://dc.lft.to/lastmile_qr_scan", "android": "https://dc.lft.to/lastmile_qr_scan"}, "is_reserved": 0, "fusion_lat": 0.0, "name": "c7281382dd77cb37fd4ca9973dea9532", "lat": 38.92415783333333}, {"fusion_lon": 0.0, "bike_id": "0996a9a3fdb211bb5dcdecc045aa17be", "lon": -76.9857145, "type": "electric_bike", "is_disabled": 0, "rental_uris": {"ios": "https://dc.lft.to/lastmile_qr_scan", "android": "https://dc.lft.to/lastmile_qr_scan"}, "is_reserved": 0, "fusion_lat": 0.0, "name": "0996a9a3fdb211bb5dcdecc045aa17be", "lat": 38.91467816666667}, {"fusion_lon": 0.0, "bike_id": "5cb52b8dc3daf4b89f556c52996ef180", "lon": -77.028266, "type": "electric_scooter", "is_disabled": 0, "rental_uris": {"ios": "https://dc.lft.to/lastmile_qr_scan", "android": "https://dc.lft.to/lastmile_qr_scan"}, "is_reserved": 0, "fusion_lat": 0.0, "name": "5cb52b8dc3daf4b89f556c52996ef180", "lat": 38.887407}, {"fusion_lon": 0.0, "bike_id": "8b6eae54fec9cea5bb94247d3f2be5cd", "lon": -77.03245966666667, "type": "electric_scooter", "is_disabled": 0, "rental_uris": {"ios": "https://dc.lft.to/lastmile_qr_scan", "android": "https://dc.lft.to/lastmile_qr_scan"}, "is_reserved": 0, "fusion_lat": 0.0, "name": "8b6eae54fec9cea5bb94247d3f2be5cd", "lat": 38.929308}, {"fusion_lon": 0.0, "bike_id": "a7429b00f343613b4725b1570d96e49b", "lon": -77.027591, "type": "electric_scooter", "is_disabled": 0, "rental_uris": {"ios": "https://dc.lft.to/lastmile_qr_scan", "android": "https://dc.lft.to/lastmile_qr_scan"}, "is_reserved": 0, "fusion_lat": 0.0, "name": "a7429b00f343613b4725b1570d96e49b", "lat": 38.9561535}, {"fusion_lon": 0.0, "bike_id": "bce2d94f19f7dc073826854890fd1dda", "lon": -77.07391483333333, "type": "electric_scooter", "is_disabled": 0, "rental_uris": {"ios": "https://dc.lft.to/lastmile_qr_scan", "android": "https://dc.lft.to/lastmile_qr_scan"}, "is_reserved": 0, "fusion_lat": 0.0, "name": "bce2d94f19f7dc073826854890fd1dda", "lat": 38.910358}, {"fusion_lon": 0.0, "bike_id": "ab5813493f897d2925a080f631a0540d", "lon": -77.044218, "type": "electric_scooter", "is_disabled": 0, "rental_uris": {"ios": "https://dc.lft.to/lastmile_qr_scan", "android": "https://dc.lft.to/lastmile_qr_scan"}, "is_reserved": 0, "fusion_lat": 0.0, "name": "ab5813493f897d2925a080f631a0540d", "lat": 38.897304}, {"fusion_lon": 0.0, "bike_id": "81573527b47d974fd55ecb436780aa3e", "lon": -77.0319205, "type": "electric_scooter", "is_disabled": 0, "rental_uris": {"ios": "https://dc.lft.to/lastmile_qr_scan", "android": "https://dc.lft.to/lastmile_qr_scan"}, "is_reserved": 0, "fusion_lat": 0.0, "name": "81573527b47d974fd55ecb436780aa3e", "lat": 38.910900833333336}, {"fusion_lon": 0.0, "bike_id": "bf7b7fee7b3d7f86f74b23057a24d423", "lon": -77.07349266666667, "type": "electric_scooter", "is_disabled": 0, "rental_uris": {"ios": "https://dc.lft.to/lastmile_qr_scan", "android": "https://dc.lft.to/lastmile_qr_scan"}, "is_reserved": 0, "fusion_lat": 0.0, "name": "bf7b7fee7b3d7f86f74b23057a24d423", "lat": 38.93345866666667}, {"fusion_lon": 0.0, "bike_id": "ef6c04be6ef203c12841f224a6de77ff", "lon": -77.0333605, "type": "electric_scooter", "is_disabled": 0, "rental_uris": {"ios": "https://dc.lft.to/lastmile_qr_scan", "android": "https://dc.lft.to/lastmile_qr_scan"}, "is_reserved": 0, "fusion_lat": 0.0, "name": "ef6c04be6ef203c12841f224a6de77ff", "lat": 38.9192405}, {"fusion_lon": 0.0, "bike_id": "cb41874a2f198a3c71349dacc4126bc0", "lon": -77.046762, "type": "electric_scooter", "is_disabled": 0, "rental_uris": {"ios": "https://dc.lft.to/lastmile_qr_scan", "android": "https://dc.lft.to/lastmile_qr_scan"}, "is_reserved": 0, "fusion_lat": 0.0, "name": "cb41874a2f198a3c71349dacc4126bc0", "lat": 38.897379}, {"fusion_lon": 0.0, "bike_id": "8183b7414778627bad20fccdc6f10888", "lon": -77.02378616666667, "type": "electric_scooter", "is_disabled": 0, "rental_uris": {"ios": "https://dc.lft.to/lastmile_qr_scan", "android": "https://dc.lft.to/lastmile_qr_scan"}, "is_reserved": 0, "fusion_lat": 0.0, "name": "8183b7414778627bad20fccdc6f10888", "lat": 38.90960183333333}, {"fusion_lon": 0.0, "bike_id": "4afed9b0aa310cc310ee12ea23ad9225", "lon": -77.0319595, "type": "electric_scooter", "is_disabled": 0, "rental_uris": {"ios": "https://dc.lft.to/lastmile_qr_scan", "android": "https://dc.lft.to/lastmile_qr_scan"}, "is_reserved": 0, "fusion_lat": 0.0, "name": "4afed9b0aa310cc310ee12ea23ad9225", "lat": 38.913237}, {"fusion_lon": 0.0, "bike_id": "c862c5a54cb66e4e03ced8eba3712e79", "lon": -77.0135955, "type": "electric_scooter", "is_disabled": 0, "rental_uris": {"ios": "https://dc.lft.to/lastmile_qr_scan", "android": "https://dc.lft.to/lastmile_qr_scan"}, "is_reserved": 0, "fusion_lat": 0.0, "name": "c862c5a54cb66e4e03ced8eba3712e79", "lat": 38.872693}, {"fusion_lon": 0.0, "bike_id": "b3197082a209e126a293fb2923a92fb6", "lon": -77.02778433333333, "type": "electric_scooter", "is_disabled": 0, "rental_uris": {"ios": "https://dc.lft.to/lastmile_qr_scan", "android": "https://dc.lft.to/lastmile_qr_scan"}, "is_reserved": 0, "fusion_lat": 0.0, "name": "b3197082a209e126a293fb2923a92fb6", "lat": 38.927706666666666}, {"fusion_lon": 0.0, "bike_id": "610fd481a1ab27f66861d13c9ffa3890", "lon": -77.03857016666667, "type": "electric_scooter", "is_disabled": 0, "rental_uris": {"ios": "https://dc.lft.to/lastmile_qr_scan", "android": "https://dc.lft.to/lastmile_qr_scan"}, "is_reserved": 0, "fusion_lat": 0.0, "name": "610fd481a1ab27f66861d13c9ffa3890", "lat": 38.919652666666664}, {"fusion_lon": 0.0, "bike_id": "1edf624e2e21afe8b07d8cbee331a530", "lon": -77.04237966666666, "type": "electric_scooter", "is_disabled": 0, "rental_uris": {"ios": "https://dc.lft.to/lastmile_qr_scan", "android": "https://dc.lft.to/lastmile_qr_scan"}, "is_reserved": 0, "fusion_lat": 0.0, "name": "1edf624e2e21afe8b07d8cbee331a530", "lat": 38.910478166666664}, {"fusion_lon": 0.0, "bike_id": "26995c4c109753dddb0d3e1652c6b24b", "lon": -77.02630366666666, "type": "electric_scooter", "is_disabled": 0, "rental_uris": {"ios": "https://dc.lft.to/lastmile_qr_scan", "android": "https://dc.lft.to/lastmile_qr_scan"}, "is_reserved": 0, "fusion_lat": 0.0, "name": "26995c4c109753dddb0d3e1652c6b24b", "lat": 38.8935565}, {"fusion_lon": 0.0, "bike_id": "676eab35e342666ef77dd8d09b24658d", "lon": -77.00755933333333, "type": "electric_scooter", "is_disabled": 0, "rental_uris": {"ios": "https://dc.lft.to/lastmile_qr_scan", "android": "https://dc.lft.to/lastmile_qr_scan"}, "is_reserved": 0, "fusion_lat": 0.0, "name": "676eab35e342666ef77dd8d09b24658d", "lat": 38.871116}, {"fusion_lon": 0.0, "bike_id": "4a06bc210cf73f72c7c5af97cf2b9f7f", "lon": -77.04368266666667, "type": "electric_scooter", "is_disabled": 0, "rental_uris": {"ios": "https://dc.lft.to/lastmile_qr_scan", "android": "https://dc.lft.to/lastmile_qr_scan"}, "is_reserved": 0, "fusion_lat": 0.0, "name": "4a06bc210cf73f72c7c5af97cf2b9f7f", "lat": 38.91121183333333}, {"fusion_lon": 0.0, "bike_id": "71f2e2bd99c8f5e24f508ebe1d6a1618", "lon": -76.9784755, "type": "electric_scooter", "is_disabled": 0, "rental_uris": {"ios": "https://dc.lft.to/lastmile_qr_scan", "android": "https://dc.lft.to/lastmile_qr_scan"}, "is_reserved": 0, "fusion_lat": 0.0, "name": "71f2e2bd99c8f5e24f508ebe1d6a1618", "lat": 38.869681}, {"fusion_lon": 0.0, "bike_id": "535684551e0e72057e84341b74255f5d", "lon": -77.04182883333333, "type": "electric_scooter", "is_disabled": 0, "rental_uris": {"ios": "https://dc.lft.to/lastmile_qr_scan", "android": "https://dc.lft.to/lastmile_qr_scan"}, "is_reserved": 0, "fusion_lat": 0.0, "name": "535684551e0e72057e84341b74255f5d", "lat": 38.92300483333333}, {"fusion_lon": 0.0, "bike_id": "0031b361b8cff3ccd15deb892e6e481c", "lon": -77.050042, "type": "electric_scooter", "is_disabled": 0, "rental_uris": {"ios": "https://dc.lft.to/lastmile_qr_scan", "android": "https://dc.lft.to/lastmile_qr_scan"}, "is_reserved": 0, "fusion_lat": 0.0, "name": "0031b361b8cff3ccd15deb892e6e481c", "lat": 38.89871616666667}, {"fusion_lon": 0.0, "bike_id": "0fd53d1c4c175c8da0c76ca6229262e2", "lon": -76.98095066666667, "type": "electric_bike", "is_disabled": 0, "rental_uris": {"ios": "https://dc.lft.to/lastmile_qr_scan", "android": "https://dc.lft.to/lastmile_qr_scan"}, "is_reserved": 0, "fusion_lat": 0.0, "name": "0fd53d1c4c175c8da0c76ca6229262e2", "lat": 38.9536}, {"fusion_lon": 0.0, "bike_id": "d234930d264c6a983db06e3ce3f05cd7", "lon": -76.9733585, "type": "electric_scooter", "is_disabled": 0, "rental_uris": {"ios": "https://dc.lft.to/lastmile_qr_scan", "android": "https://dc.lft.to/lastmile_qr_scan"}, "is_reserved": 0, "fusion_lat": 0.0, "name": "d234930d264c6a983db06e3ce3f05cd7", "lat": 38.904095833333336}, {"fusion_lon": 0.0, "bike_id": "7f490b947511cbac146e81cb958ab1d5", "lon": -77.01123733333333, "type": "electric_scooter", "is_disabled": 0, "rental_uris": {"ios": "https://dc.lft.to/lastmile_qr_scan", "android": "https://dc.lft.to/lastmile_qr_scan"}, "is_reserved": 0, "fusion_lat": 0.0, "name": "7f490b947511cbac146e81cb958ab1d5", "lat": 38.900293}, {"fusion_lon": 0.0, "bike_id": "524a95164838df66a8d5c382a1017cf6", "lon": -77.03001216666667, "type": "electric_scooter", "is_disabled": 0, "rental_uris": {"ios": "https://dc.lft.to/lastmile_qr_scan", "android": "https://dc.lft.to/lastmile_qr_scan"}, "is_reserved": 0, "fusion_lat": 0.0, "name": "524a95164838df66a8d5c382a1017cf6", "lat": 38.9051505}, {"fusion_lon": 0.0, "bike_id": "04046f1b99f1d11555533e4283b6e79e", "lon": -77.02189716666666, "type": "electric_scooter", "is_disabled": 0, "rental_uris": {"ios": "https://dc.lft.to/lastmile_qr_scan", "android": "https://dc.lft.to/lastmile_qr_scan"}, "is_reserved": 0, "fusion_lat": 0.0, "name": "04046f1b99f1d11555533e4283b6e79e", "lat": 38.8860505}, {"fusion_lon": 0.0, "bike_id": "c633cb54207700a516b8cec7bf450269", "lon": -77.00559883333334, "type": "electric_scooter", "is_disabled": 0, "rental_uris": {"ios": "https://dc.lft.to/lastmile_qr_scan", "android": "https://dc.lft.to/lastmile_qr_scan"}, "is_reserved": 0, "fusion_lat": 0.0, "name": "c633cb54207700a516b8cec7bf450269", "lat": 38.8755845}, {"fusion_lon": 0.0, "bike_id": "9ef592900d03a8bbf79bc04d71f3b096", "lon": -77.0727795, "type": "electric_scooter", "is_disabled": 0, "rental_uris": {"ios": "https://dc.lft.to/lastmile_qr_scan", "android": "https://dc.lft.to/lastmile_qr_scan"}, "is_reserved": 0, "fusion_lat": 0.0, "name": "9ef592900d03a8bbf79bc04d71f3b096", "lat": 38.9347035}, {"fusion_lon": 0.0, "bike_id": "4ad113df0bfaf5ba45ebc1a939cf3abd", "lon": -77.036101, "type": "electric_scooter", "is_disabled": 0, "rental_uris": {"ios": "https://dc.lft.to/lastmile_qr_scan", "android": "https://dc.lft.to/lastmile_qr_scan"}, "is_reserved": 0, "fusion_lat": 0.0, "name": "4ad113df0bfaf5ba45ebc1a939cf3abd", "lat": 38.934848}, {"fusion_lon": 0.0, "bike_id": "f9b1320e6fb0166175034797009d39c4", "lon": -77.03661416666667, "type": "electric_scooter", "is_disabled": 0, "rental_uris": {"ios": "https://dc.lft.to/lastmile_qr_scan", "android": "https://dc.lft.to/lastmile_qr_scan"}, "is_reserved": 0, "fusion_lat": 0.0, "name": "f9b1320e6fb0166175034797009d39c4", "lat": 38.922839833333335}, {"fusion_lon": 0.0, "bike_id": "85383a6ff0e79b6398f8c5bfad7d420b", "lon": -77.026914, "type": "electric_scooter", "is_disabled": 0, "rental_uris": {"ios": "https://dc.lft.to/lastmile_qr_scan", "android": "https://dc.lft.to/lastmile_qr_scan"}, "is_reserved": 0, "fusion_lat": 0.0, "name": "85383a6ff0e79b6398f8c5bfad7d420b", "lat": 38.908559}, {"fusion_lon": 0.0, "bike_id": "f3258e3349ff2556b7942b7b4cf1a7ba", "lon": -76.998408, "type": "electric_scooter", "is_disabled": 0, "rental_uris": {"ios": "https://dc.lft.to/lastmile_qr_scan", "android": "https://dc.lft.to/lastmile_qr_scan"}, "is_reserved": 0, "fusion_lat": 0.0, "name": "f3258e3349ff2556b7942b7b4cf1a7ba", "lat": 38.83962433333333}, {"fusion_lon": 0.0, "bike_id": "1eff9acb865f83915e6a6539c7b7d7aa", "lon": -77.04542983333333, "type": "electric_scooter", "is_disabled": 0, "rental_uris": {"ios": "https://dc.lft.to/lastmile_qr_scan", "android": "https://dc.lft.to/lastmile_qr_scan"}, "is_reserved": 0, "fusion_lat": 0.0, "name": "1eff9acb865f83915e6a6539c7b7d7aa", "lat": 38.91111866666667}, {"fusion_lon": 0.0, "bike_id": "b33354c92df2881b532ef9bbee218444", "lon": -76.99320716666666, "type": "electric_bike", "is_disabled": 0, "rental_uris": {"ios": "https://dc.lft.to/lastmile_qr_scan", "android": "https://dc.lft.to/lastmile_qr_scan"}, "is_reserved": 0, "fusion_lat": 0.0, "name": "b33354c92df2881b532ef9bbee218444", "lat": 38.9384795}, {"fusion_lon": 0.0, "bike_id": "bfba5816f228d010fa4c7d78ad78ed32", "lon": -76.97427066666667, "type": "electric_bike", "is_disabled": 0, "rental_uris": {"ios": "https://dc.lft.to/lastmile_qr_scan", "android": "https://dc.lft.to/lastmile_qr_scan"}, "is_reserved": 0, "fusion_lat": 0.0, "name": "bfba5816f228d010fa4c7d78ad78ed32", "lat": 38.932378166666666}, {"fusion_lon": 0.0, "bike_id": "1965e2b7122bee72f9874603e9383dab", "lon": -77.01972933333333, "type": "electric_scooter", "is_disabled": 0, "rental_uris": {"ios": "https://dc.lft.to/lastmile_qr_scan", "android": "https://dc.lft.to/lastmile_qr_scan"}, "is_reserved": 0, "fusion_lat": 0.0, "name": "1965e2b7122bee72f9874603e9383dab", "lat": 38.90850233333333}, {"fusion_lon": 0.0, "bike_id": "1286b1265bad68ee8c17439b1b7fa28f", "lon": -77.00209116666667, "type": "electric_scooter", "is_disabled": 0, "rental_uris": {"ios": "https://dc.lft.to/lastmile_qr_scan", "android": "https://dc.lft.to/lastmile_qr_scan"}, "is_reserved": 0, "fusion_lat": 0.0, "name": "1286b1265bad68ee8c17439b1b7fa28f", "lat": 38.90038783333333}, {"fusion_lon": 0.0, "bike_id": "a10342d08389cfe88cff9676cc2aa72f", "lon": -77.0033065, "type": "electric_scooter", "is_disabled": 0, "rental_uris": {"ios": "https://dc.lft.to/lastmile_qr_scan", "android": "https://dc.lft.to/lastmile_qr_scan"}, "is_reserved": 0, "fusion_lat": 0.0, "name": "a10342d08389cfe88cff9676cc2aa72f", "lat": 38.8766825}, {"fusion_lon": 0.0, "bike_id": "9081242027d5a8e20b3f0327218936a0", "lon": -77.01663183333334, "type": "electric_scooter", "is_disabled": 0, "rental_uris": {"ios": "https://dc.lft.to/lastmile_qr_scan", "android": "https://dc.lft.to/lastmile_qr_scan"}, "is_reserved": 0, "fusion_lat": 0.0, "name": "9081242027d5a8e20b3f0327218936a0", "lat": 38.918424}, {"fusion_lon": 0.0, "bike_id": "ccb7edcff67646324936c87a8b8a2463", "lon": -77.0144755, "type": "electric_scooter", "is_disabled": 0, "rental_uris": {"ios": "https://dc.lft.to/lastmile_qr_scan", "android": "https://dc.lft.to/lastmile_qr_scan"}, "is_reserved": 0, "fusion_lat": 0.0, "name": "ccb7edcff67646324936c87a8b8a2463", "lat": 38.9159385}, {"fusion_lon": 0.0, "bike_id": "fc68470abbb2bf84bf7f48efccce900e", "lon": -77.0244905, "type": "electric_scooter", "is_disabled": 0, "rental_uris": {"ios": "https://dc.lft.to/lastmile_qr_scan", "android": "https://dc.lft.to/lastmile_qr_scan"}, "is_reserved": 0, "fusion_lat": 0.0, "name": "fc68470abbb2bf84bf7f48efccce900e", "lat": 38.92341483333333}, {"fusion_lon": 0.0, "bike_id": "8fd73043d690d9c1546f2c13390f1315", "lon": -77.035782, "type": "electric_scooter", "is_disabled": 0, "rental_uris": {"ios": "https://dc.lft.to/lastmile_qr_scan", "android": "https://dc.lft.to/lastmile_qr_scan"}, "is_reserved": 0, "fusion_lat": 0.0, "name": "8fd73043d690d9c1546f2c13390f1315", "lat": 38.9176775}, {"fusion_lon": 0.0, "bike_id": "3c288d6ed6fc685fc0e9dd3b1b98be12", "lon": -77.03561616666667, "type": "electric_scooter", "is_disabled": 0, "rental_uris": {"ios": "https://dc.lft.to/lastmile_qr_scan", "android": "https://dc.lft.to/lastmile_qr_scan"}, "is_reserved": 0, "fusion_lat": 0.0, "name": "3c288d6ed6fc685fc0e9dd3b1b98be12", "lat": 38.91833616666667}, {"fusion_lon": 0.0, "bike_id": "0420b8facd68d63dead18a082b9ffa34", "lon": -77.0316525, "type": "electric_scooter", "is_disabled": 0, "rental_uris": {"ios": "https://dc.lft.to/lastmile_qr_scan", "android": "https://dc.lft.to/lastmile_qr_scan"}, "is_reserved": 0, "fusion_lat": 0.0, "name": "0420b8facd68d63dead18a082b9ffa34", "lat": 38.899675333333334}, {"fusion_lon": 0.0, "bike_id": "8324c2a96cc3f78f96f379e052b6e79e", "lon": -76.95751233333333, "type": "electric_bike", "is_disabled": 0, "rental_uris": {"ios": "https://dc.lft.to/lastmile_qr_scan", "android": "https://dc.lft.to/lastmile_qr_scan"}, "is_reserved": 0, "fusion_lat": 0.0, "name": "8324c2a96cc3f78f96f379e052b6e79e", "lat": 38.888408}, {"fusion_lon": 0.0, "bike_id": "4d44cb0658f27076412ac3dfcc7cda41", "lon": -77.0309385, "type": "electric_scooter", "is_disabled": 0, "rental_uris": {"ios": "https://dc.lft.to/lastmile_qr_scan", "android": "https://dc.lft.to/lastmile_qr_scan"}, "is_reserved": 0, "fusion_lat": 0.0, "name": "4d44cb0658f27076412ac3dfcc7cda41", "lat": 38.910538833333334}, {"fusion_lon": 0.0, "bike_id": "cdbaa8e101d44636fcb7279140f58af2", "lon": -76.97984716666667, "type": "electric_scooter", "is_disabled": 0, "rental_uris": {"ios": "https://dc.lft.to/lastmile_qr_scan", "android": "https://dc.lft.to/lastmile_qr_scan"}, "is_reserved": 0, "fusion_lat": 0.0, "name": "cdbaa8e101d44636fcb7279140f58af2", "lat": 38.90733733333333}, {"fusion_lon": 0.0, "bike_id": "2158ac2a9f8d532082f1856d5de9de7c", "lon": -77.03592033333334, "type": "electric_scooter", "is_disabled": 0, "rental_uris": {"ios": "https://dc.lft.to/lastmile_qr_scan", "android": "https://dc.lft.to/lastmile_qr_scan"}, "is_reserved": 0, "fusion_lat": 0.0, "name": "2158ac2a9f8d532082f1856d5de9de7c", "lat": 38.93678666666667}, {"fusion_lon": 0.0, "bike_id": "04d886f0e368faf2b41662931edcb0f0", "lon": -77.01692283333334, "type": "electric_scooter", "is_disabled": 0, "rental_uris": {"ios": "https://dc.lft.to/lastmile_qr_scan", "android": "https://dc.lft.to/lastmile_qr_scan"}, "is_reserved": 0, "fusion_lat": 0.0, "name": "04d886f0e368faf2b41662931edcb0f0", "lat": 38.91738383333333}, {"fusion_lon": 0.0, "bike_id": "1a27d89172245d7348ddf383311d6c7e", "lon": -76.994091, "type": "electric_bike", "is_disabled": 0, "rental_uris": {"ios": "https://dc.lft.to/lastmile_qr_scan", "android": "https://dc.lft.to/lastmile_qr_scan"}, "is_reserved": 0, "fusion_lat": 0.0, "name": "1a27d89172245d7348ddf383311d6c7e", "lat": 38.83143583333333}, {"fusion_lon": 0.0, "bike_id": "935cb15fcb4140874b81710783433a21", "lon": -77.05393516666666, "type": "electric_scooter", "is_disabled": 0, "rental_uris": {"ios": "https://dc.lft.to/lastmile_qr_scan", "android": "https://dc.lft.to/lastmile_qr_scan"}, "is_reserved": 0, "fusion_lat": 0.0, "name": "935cb15fcb4140874b81710783433a21", "lat": 38.928102333333335}, {"fusion_lon": 0.0, "bike_id": "1ebb952f620066b7e667f5fd32135695", "lon": -77.03549833333334, "type": "electric_scooter", "is_disabled": 0, "rental_uris": {"ios": "https://dc.lft.to/lastmile_qr_scan", "android": "https://dc.lft.to/lastmile_qr_scan"}, "is_reserved": 0, "fusion_lat": 0.0, "name": "1ebb952f620066b7e667f5fd32135695", "lat": 38.914198166666665}, {"fusion_lon": 0.0, "bike_id": "92e863a24dbbd91ddaf8752d36b4d14b", "lon": -77.02938033333334, "type": "electric_scooter", "is_disabled": 0, "rental_uris": {"ios": "https://dc.lft.to/lastmile_qr_scan", "android": "https://dc.lft.to/lastmile_qr_scan"}, "is_reserved": 0, "fusion_lat": 0.0, "name": "92e863a24dbbd91ddaf8752d36b4d14b", "lat": 38.910269}, {"fusion_lon": 0.0, "bike_id": "5ef290aabbdcebe304281ee6d5fd34f1", "lon": -77.00025783333334, "type": "electric_scooter", "is_disabled": 0, "rental_uris": {"ios": "https://dc.lft.to/lastmile_qr_scan", "android": "https://dc.lft.to/lastmile_qr_scan"}, "is_reserved": 0, "fusion_lat": 0.0, "name": "5ef290aabbdcebe304281ee6d5fd34f1", "lat": 38.906889166666666}, {"fusion_lon": 0.0, "bike_id": "036af6a818cf5980cdcc713db87fa7a1", "lon": -77.02187, "type": "electric_bike", "is_disabled": 0, "rental_uris": {"ios": "https://dc.lft.to/lastmile_qr_scan", "android": "https://dc.lft.to/lastmile_qr_scan"}, "is_reserved": 0, "fusion_lat": 0.0, "name": "036af6a818cf5980cdcc713db87fa7a1", "lat": 39.004812333333334}, {"fusion_lon": 0.0, "bike_id": "925193800232a2ed363bfab710d6101d", "lon": -77.01615583333333, "type": "electric_scooter", "is_disabled": 0, "rental_uris": {"ios": "https://dc.lft.to/lastmile_qr_scan", "android": "https://dc.lft.to/lastmile_qr_scan"}, "is_reserved": 0, "fusion_lat": 0.0, "name": "925193800232a2ed363bfab710d6101d", "lat": 38.901642}, {"fusion_lon": 0.0, "bike_id": "758e0b25f1601b6b501b9aa2e187a1dd", "lon": -77.036511, "type": "electric_scooter", "is_disabled": 0, "rental_uris": {"ios": "https://dc.lft.to/lastmile_qr_scan", "android": "https://dc.lft.to/lastmile_qr_scan"}, "is_reserved": 0, "fusion_lat": 0.0, "name": "758e0b25f1601b6b501b9aa2e187a1dd", "lat": 38.91280116666667}, {"fusion_lon": 0.0, "bike_id": "8e78643707c7624d7095dc2543efba14", "lon": -77.038189, "type": "electric_scooter", "is_disabled": 0, "rental_uris": {"ios": "https://dc.lft.to/lastmile_qr_scan", "android": "https://dc.lft.to/lastmile_qr_scan"}, "is_reserved": 0, "fusion_lat": 0.0, "name": "8e78643707c7624d7095dc2543efba14", "lat": 38.90678783333333}, {"fusion_lon": 0.0, "bike_id": "8a268501e9b98d03406c16f63cb65ae7", "lon": -77.03170616666667, "type": "electric_scooter", "is_disabled": 0, "rental_uris": {"ios": "https://dc.lft.to/lastmile_qr_scan", "android": "https://dc.lft.to/lastmile_qr_scan"}, "is_reserved": 0, "fusion_lat": 0.0, "name": "8a268501e9b98d03406c16f63cb65ae7", "lat": 38.8922055}, {"fusion_lon": 0.0, "bike_id": "3104f8986090d9491d1525dfdb839685", "lon": -77.04488883333333, "type": "electric_scooter", "is_disabled": 0, "rental_uris": {"ios": "https://dc.lft.to/lastmile_qr_scan", "android": "https://dc.lft.to/lastmile_qr_scan"}, "is_reserved": 0, "fusion_lat": 0.0, "name": "3104f8986090d9491d1525dfdb839685", "lat": 38.92235383333333}, {"fusion_lon": 0.0, "bike_id": "2326ad5b5b70a4173c2f054712e6d615", "lon": -76.98839633333333, "type": "electric_scooter", "is_disabled": 0, "rental_uris": {"ios": "https://dc.lft.to/lastmile_qr_scan", "android": "https://dc.lft.to/lastmile_qr_scan"}, "is_reserved": 0, "fusion_lat": 0.0, "name": "2326ad5b5b70a4173c2f054712e6d615", "lat": 38.892465333333334}, {"fusion_lon": 0.0, "bike_id": "182749b5d2b3c4ca447cb4ab619032a3", "lon": -77.023831, "type": "electric_scooter", "is_disabled": 0, "rental_uris": {"ios": "https://dc.lft.to/lastmile_qr_scan", "android": "https://dc.lft.to/lastmile_qr_scan"}, "is_reserved": 0, "fusion_lat": 0.0, "name": "182749b5d2b3c4ca447cb4ab619032a3", "lat": 38.90971166666667}, {"fusion_lon": 0.0, "bike_id": "295d9d540b6c956f3a2f2fc8457a1811", "lon": -76.93481, "type": "electric_bike", "is_disabled": 0, "rental_uris": {"ios": "https://dc.lft.to/lastmile_qr_scan", "android": "https://dc.lft.to/lastmile_qr_scan"}, "is_reserved": 0, "fusion_lat": 0.0, "name": "295d9d540b6c956f3a2f2fc8457a1811", "lat": 38.891058666666666}, {"fusion_lon": 0.0, "bike_id": "55858151376a1e0b8e22a7c1fd1220ac", "lon": -77.035511, "type": "electric_scooter", "is_disabled": 0, "rental_uris": {"ios": "https://dc.lft.to/lastmile_qr_scan", "android": "https://dc.lft.to/lastmile_qr_scan"}, "is_reserved": 0, "fusion_lat": 0.0, "name": "55858151376a1e0b8e22a7c1fd1220ac", "lat": 38.925816166666664}, {"fusion_lon": 0.0, "bike_id": "5b8326a38bade1e54dad21d1a2f9236a", "lon": -77.0238365, "type": "electric_scooter", "is_disabled": 0, "rental_uris": {"ios": "https://dc.lft.to/lastmile_qr_scan", "android": "https://dc.lft.to/lastmile_qr_scan"}, "is_reserved": 0, "fusion_lat": 0.0, "name": "5b8326a38bade1e54dad21d1a2f9236a", "lat": 38.887308833333336}, {"fusion_lon": 0.0, "bike_id": "6e737a978d6ade2e17b108a97f1c72cc", "lon": -77.02377716666666, "type": "electric_scooter", "is_disabled": 0, "rental_uris": {"ios": "https://dc.lft.to/lastmile_qr_scan", "android": "https://dc.lft.to/lastmile_qr_scan"}, "is_reserved": 0, "fusion_lat": 0.0, "name": "6e737a978d6ade2e17b108a97f1c72cc", "lat": 38.8919615}, {"fusion_lon": 0.0, "bike_id": "59b021924b0a7b44934f2475762cb1c6", "lon": -77.02970716666667, "type": "electric_scooter", "is_disabled": 0, "rental_uris": {"ios": "https://dc.lft.to/lastmile_qr_scan", "android": "https://dc.lft.to/lastmile_qr_scan"}, "is_reserved": 0, "fusion_lat": 0.0, "name": "59b021924b0a7b44934f2475762cb1c6", "lat": 38.907448}, {"fusion_lon": 0.0, "bike_id": "a7c64d14965eece6e758eabc78a7b365", "lon": -77.00932666666667, "type": "electric_scooter", "is_disabled": 0, "rental_uris": {"ios": "https://dc.lft.to/lastmile_qr_scan", "android": "https://dc.lft.to/lastmile_qr_scan"}, "is_reserved": 0, "fusion_lat": 0.0, "name": "a7c64d14965eece6e758eabc78a7b365", "lat": 38.89612783333333}, {"fusion_lon": 0.0, "bike_id": "8ac9a4db04c24a2341171f7c3a330322", "lon": -77.0135795, "type": "electric_scooter", "is_disabled": 0, "rental_uris": {"ios": "https://dc.lft.to/lastmile_qr_scan", "android": "https://dc.lft.to/lastmile_qr_scan"}, "is_reserved": 0, "fusion_lat": 0.0, "name": "8ac9a4db04c24a2341171f7c3a330322", "lat": 38.95682333333333}, {"fusion_lon": 0.0, "bike_id": "da4356bbb1f5ea44f755112dcc1dfe44", "lon": -77.028074, "type": "electric_scooter", "is_disabled": 0, "rental_uris": {"ios": "https://dc.lft.to/lastmile_qr_scan", "android": "https://dc.lft.to/lastmile_qr_scan"}, "is_reserved": 0, "fusion_lat": 0.0, "name": "da4356bbb1f5ea44f755112dcc1dfe44", "lat": 38.916645833333334}, {"fusion_lon": 0.0, "bike_id": "bb6ae05eebb39696048ce573618ac586", "lon": -77.04116033333334, "type": "electric_scooter", "is_disabled": 0, "rental_uris": {"ios": "https://dc.lft.to/lastmile_qr_scan", "android": "https://dc.lft.to/lastmile_qr_scan"}, "is_reserved": 0, "fusion_lat": 0.0, "name": "bb6ae05eebb39696048ce573618ac586", "lat": 38.920521666666666}, {"fusion_lon": 0.0, "bike_id": "9c5ad475eab2fd6e4778abe934138f85", "lon": -77.0196965, "type": "electric_scooter", "is_disabled": 0, "rental_uris": {"ios": "https://dc.lft.to/lastmile_qr_scan", "android": "https://dc.lft.to/lastmile_qr_scan"}, "is_reserved": 0, "fusion_lat": 0.0, "name": "9c5ad475eab2fd6e4778abe934138f85", "lat": 38.95653716666666}, {"fusion_lon": 0.0, "bike_id": "e4e0c7622a30255bdc77da0b3a5b83c0", "lon": -77.02611716666667, "type": "electric_scooter", "is_disabled": 0, "rental_uris": {"ios": "https://dc.lft.to/lastmile_qr_scan", "android": "https://dc.lft.to/lastmile_qr_scan"}, "is_reserved": 0, "fusion_lat": 0.0, "name": "e4e0c7622a30255bdc77da0b3a5b83c0", "lat": 38.9277265}, {"fusion_lon": 0.0, "bike_id": "4b6261519eff46349ef7996a7efaddf1", "lon": -77.03296516666667, "type": "electric_scooter", "is_disabled": 0, "rental_uris": {"ios": "https://dc.lft.to/lastmile_qr_scan", "android": "https://dc.lft.to/lastmile_qr_scan"}, "is_reserved": 0, "fusion_lat": 0.0, "name": "4b6261519eff46349ef7996a7efaddf1", "lat": 38.9289235}, {"fusion_lon": 0.0, "bike_id": "aa7afa284e38124742f2de0146a02898", "lon": -77.02711183333334, "type": "electric_scooter", "is_disabled": 0, "rental_uris": {"ios": "https://dc.lft.to/lastmile_qr_scan", "android": "https://dc.lft.to/lastmile_qr_scan"}, "is_reserved": 0, "fusion_lat": 0.0, "name": "aa7afa284e38124742f2de0146a02898", "lat": 38.91795583333333}, {"fusion_lon": 0.0, "bike_id": "2e8fd8fe66c15ac9ed808cdd587014fd", "lon": -77.04703433333333, "type": "electric_scooter", "is_disabled": 0, "rental_uris": {"ios": "https://dc.lft.to/lastmile_qr_scan", "android": "https://dc.lft.to/lastmile_qr_scan"}, "is_reserved": 0, "fusion_lat": 0.0, "name": "2e8fd8fe66c15ac9ed808cdd587014fd", "lat": 38.905546666666666}, {"fusion_lon": 0.0, "bike_id": "7f13b1ca2a4bede79da3a4a3c70a8117", "lon": -77.02780816666667, "type": "electric_scooter", "is_disabled": 0, "rental_uris": {"ios": "https://dc.lft.to/lastmile_qr_scan", "android": "https://dc.lft.to/lastmile_qr_scan"}, "is_reserved": 0, "fusion_lat": 0.0, "name": "7f13b1ca2a4bede79da3a4a3c70a8117", "lat": 38.8922075}, {"fusion_lon": 0.0, "bike_id": "25124c0179e7b161c2a2105be8b37a8a", "lon": -77.02590116666667, "type": "electric_scooter", "is_disabled": 0, "rental_uris": {"ios": "https://dc.lft.to/lastmile_qr_scan", "android": "https://dc.lft.to/lastmile_qr_scan"}, "is_reserved": 0, "fusion_lat": 0.0, "name": "25124c0179e7b161c2a2105be8b37a8a", "lat": 38.941986}, {"fusion_lon": 0.0, "bike_id": "9117ab6bdc3e4f2fdbc4202f553b20a3", "lon": -77.07314916666667, "type": "electric_scooter", "is_disabled": 0, "rental_uris": {"ios": "https://dc.lft.to/lastmile_qr_scan", "android": "https://dc.lft.to/lastmile_qr_scan"}, "is_reserved": 0, "fusion_lat": 0.0, "name": "9117ab6bdc3e4f2fdbc4202f553b20a3", "lat": 38.92243116666667}, {"fusion_lon": 0.0, "bike_id": "528c82027fc84448d721c633b9d951ba", "lon": -77.0322945, "type": "electric_scooter", "is_disabled": 0, "rental_uris": {"ios": "https://dc.lft.to/lastmile_qr_scan", "android": "https://dc.lft.to/lastmile_qr_scan"}, "is_reserved": 0, "fusion_lat": 0.0, "name": "528c82027fc84448d721c633b9d951ba", "lat": 38.961540666666664}, {"fusion_lon": 0.0, "bike_id": "9f3245fdd8996f16f079dfef2f101b00", "lon": -77.03802066666667, "type": "electric_scooter", "is_disabled": 0, "rental_uris": {"ios": "https://dc.lft.to/lastmile_qr_scan", "android": "https://dc.lft.to/lastmile_qr_scan"}, "is_reserved": 0, "fusion_lat": 0.0, "name": "9f3245fdd8996f16f079dfef2f101b00", "lat": 38.918094833333335}, {"fusion_lon": 0.0, "bike_id": "c82388e112cbab5bb4a18d7d80ad1e7f", "lon": -77.0103595, "type": "electric_scooter", "is_disabled": 0, "rental_uris": {"ios": "https://dc.lft.to/lastmile_qr_scan", "android": "https://dc.lft.to/lastmile_qr_scan"}, "is_reserved": 0, "fusion_lat": 0.0, "name": "c82388e112cbab5bb4a18d7d80ad1e7f", "lat": 38.920308666666664}, {"fusion_lon": 0.0, "bike_id": "f07f00527d6433ca56980324c485aa1c", "lon": -77.02165383333333, "type": "electric_scooter", "is_disabled": 0, "rental_uris": {"ios": "https://dc.lft.to/lastmile_qr_scan", "android": "https://dc.lft.to/lastmile_qr_scan"}, "is_reserved": 0, "fusion_lat": 0.0, "name": "f07f00527d6433ca56980324c485aa1c", "lat": 38.92616}, {"fusion_lon": 0.0, "bike_id": "7b7afcc3616af5381775767823548317", "lon": -77.0691995, "type": "electric_bike", "is_disabled": 0, "rental_uris": {"ios": "https://dc.lft.to/lastmile_qr_scan", "android": "https://dc.lft.to/lastmile_qr_scan"}, "is_reserved": 0, "fusion_lat": 0.0, "name": "7b7afcc3616af5381775767823548317", "lat": 38.80673683333333}, {"fusion_lon": 0.0, "bike_id": "e5ad43e6478255633094525fa5ca8cd6", "lon": -77.02189433333334, "type": "electric_scooter", "is_disabled": 0, "rental_uris": {"ios": "https://dc.lft.to/lastmile_qr_scan", "android": "https://dc.lft.to/lastmile_qr_scan"}, "is_reserved": 0, "fusion_lat": 0.0, "name": "e5ad43e6478255633094525fa5ca8cd6", "lat": 38.93951366666667}, {"fusion_lon": 0.0, "bike_id": "64d28cf6dab954753e8740f16c895455", "lon": -77.02404183333333, "type": "electric_scooter", "is_disabled": 0, "rental_uris": {"ios": "https://dc.lft.to/lastmile_qr_scan", "android": "https://dc.lft.to/lastmile_qr_scan"}, "is_reserved": 0, "fusion_lat": 0.0, "name": "64d28cf6dab954753e8740f16c895455", "lat": 38.936965}, {"fusion_lon": 0.0, "bike_id": "646ac097fc1a6dccfd1c6eeb982deb81", "lon": -77.009774, "type": "electric_scooter", "is_disabled": 0, "rental_uris": {"ios": "https://dc.lft.to/lastmile_qr_scan", "android": "https://dc.lft.to/lastmile_qr_scan"}, "is_reserved": 0, "fusion_lat": 0.0, "name": "646ac097fc1a6dccfd1c6eeb982deb81", "lat": 38.89889933333333}, {"fusion_lon": 0.0, "bike_id": "6e00512f05d4258ae23c567d0313a88e", "lon": -76.98435433333333, "type": "electric_bike", "is_disabled": 0, "rental_uris": {"ios": "https://dc.lft.to/lastmile_qr_scan", "android": "https://dc.lft.to/lastmile_qr_scan"}, "is_reserved": 0, "fusion_lat": 0.0, "name": "6e00512f05d4258ae23c567d0313a88e", "lat": 38.85517383333333}, {"fusion_lon": 0.0, "bike_id": "38f109c46623c97944db9b581d16969d", "lon": -77.0438565, "type": "electric_scooter", "is_disabled": 0, "rental_uris": {"ios": "https://dc.lft.to/lastmile_qr_scan", "android": "https://dc.lft.to/lastmile_qr_scan"}, "is_reserved": 0, "fusion_lat": 0.0, "name": "38f109c46623c97944db9b581d16969d", "lat": 38.90713016666667}, {"fusion_lon": 0.0, "bike_id": "9ecd89788c1e7d06cfbd8c7e2ac4ecba", "lon": -76.980598, "type": "electric_scooter", "is_disabled": 0, "rental_uris": {"ios": "https://dc.lft.to/lastmile_qr_scan", "android": "https://dc.lft.to/lastmile_qr_scan"}, "is_reserved": 0, "fusion_lat": 0.0, "name": "9ecd89788c1e7d06cfbd8c7e2ac4ecba", "lat": 38.884925833333334}, {"fusion_lon": 0.0, "bike_id": "b05adbd1eac9006730e9a373db404396", "lon": -77.027699, "type": "electric_scooter", "is_disabled": 0, "rental_uris": {"ios": "https://dc.lft.to/lastmile_qr_scan", "android": "https://dc.lft.to/lastmile_qr_scan"}, "is_reserved": 0, "fusion_lat": 0.0, "name": "b05adbd1eac9006730e9a373db404396", "lat": 38.9042415}, {"fusion_lon": 0.0, "bike_id": "d785ddfb33b02404a740d8de27db3b9c", "lon": -77.0363605, "type": "electric_scooter", "is_disabled": 0, "rental_uris": {"ios": "https://dc.lft.to/lastmile_qr_scan", "android": "https://dc.lft.to/lastmile_qr_scan"}, "is_reserved": 0, "fusion_lat": 0.0, "name": "d785ddfb33b02404a740d8de27db3b9c", "lat": 38.91819983333333}, {"fusion_lon": 0.0, "bike_id": "f0a588ad9c2691bd155bdfe10d9e4d37", "lon": -77.02310716666666, "type": "electric_scooter", "is_disabled": 0, "rental_uris": {"ios": "https://dc.lft.to/lastmile_qr_scan", "android": "https://dc.lft.to/lastmile_qr_scan"}, "is_reserved": 0, "fusion_lat": 0.0, "name": "f0a588ad9c2691bd155bdfe10d9e4d37", "lat": 38.91780766666667}, {"fusion_lon": 0.0, "bike_id": "6d802e97fe0975545c8ead8861cfa629", "lon": -77.02919283333334, "type": "electric_scooter", "is_disabled": 0, "rental_uris": {"ios": "https://dc.lft.to/lastmile_qr_scan", "android": "https://dc.lft.to/lastmile_qr_scan"}, "is_reserved": 0, "fusion_lat": 0.0, "name": "6d802e97fe0975545c8ead8861cfa629", "lat": 38.916925166666665}, {"fusion_lon": 0.0, "bike_id": "869d1ae975ae3d23114efd8a84b0d711", "lon": -77.04018583333334, "type": "electric_bike", "is_disabled": 0, "rental_uris": {"ios": "https://dc.lft.to/lastmile_qr_scan", "android": "https://dc.lft.to/lastmile_qr_scan"}, "is_reserved": 0, "fusion_lat": 0.0, "name": "869d1ae975ae3d23114efd8a84b0d711", "lat": 38.91609783333333}, {"fusion_lon": 0.0, "bike_id": "2d2f0fc586726e76839097e68a92fef0", "lon": -77.04475633333334, "type": "electric_scooter", "is_disabled": 0, "rental_uris": {"ios": "https://dc.lft.to/lastmile_qr_scan", "android": "https://dc.lft.to/lastmile_qr_scan"}, "is_reserved": 0, "fusion_lat": 0.0, "name": "2d2f0fc586726e76839097e68a92fef0", "lat": 38.89222383333333}, {"fusion_lon": 0.0, "bike_id": "f833e5480483f3b46c0ff9f02e476935", "lon": -76.99538016666666, "type": "electric_scooter", "is_disabled": 0, "rental_uris": {"ios": "https://dc.lft.to/lastmile_qr_scan", "android": "https://dc.lft.to/lastmile_qr_scan"}, "is_reserved": 0, "fusion_lat": 0.0, "name": "f833e5480483f3b46c0ff9f02e476935", "lat": 38.862680833333336}, {"fusion_lon": 0.0, "bike_id": "085ecff2799e562487164d565866f406", "lon": -77.0385565, "type": "electric_scooter", "is_disabled": 0, "rental_uris": {"ios": "https://dc.lft.to/lastmile_qr_scan", "android": "https://dc.lft.to/lastmile_qr_scan"}, "is_reserved": 0, "fusion_lat": 0.0, "name": "085ecff2799e562487164d565866f406", "lat": 38.9162475}, {"fusion_lon": 0.0, "bike_id": "18d7cd86113ae6e764cca2f739e4f4cf", "lon": -77.043378, "type": "electric_scooter", "is_disabled": 0, "rental_uris": {"ios": "https://dc.lft.to/lastmile_qr_scan", "android": "https://dc.lft.to/lastmile_qr_scan"}, "is_reserved": 0, "fusion_lat": 0.0, "name": "18d7cd86113ae6e764cca2f739e4f4cf", "lat": 38.8922505}, {"fusion_lon": 0.0, "bike_id": "b07d25cb2438c99eb11a28c05a4dd4ab", "lon": -77.037051, "type": "electric_scooter", "is_disabled": 0, "rental_uris": {"ios": "https://dc.lft.to/lastmile_qr_scan", "android": "https://dc.lft.to/lastmile_qr_scan"}, "is_reserved": 0, "fusion_lat": 0.0, "name": "b07d25cb2438c99eb11a28c05a4dd4ab", "lat": 38.926364666666665}, {"fusion_lon": 0.0, "bike_id": "d55c01c1341e011568101b869321c123", "lon": -77.02158166666666, "type": "electric_scooter", "is_disabled": 0, "rental_uris": {"ios": "https://dc.lft.to/lastmile_qr_scan", "android": "https://dc.lft.to/lastmile_qr_scan"}, "is_reserved": 0, "fusion_lat": 0.0, "name": "d55c01c1341e011568101b869321c123", "lat": 38.926021666666664}, {"fusion_lon": 0.0, "bike_id": "fc716c9a7c1bd214062e889a9d6fe57e", "lon": -77.0324645, "type": "electric_scooter", "is_disabled": 0, "rental_uris": {"ios": "https://dc.lft.to/lastmile_qr_scan", "android": "https://dc.lft.to/lastmile_qr_scan"}, "is_reserved": 0, "fusion_lat": 0.0, "name": "fc716c9a7c1bd214062e889a9d6fe57e", "lat": 38.91713466666667}, {"fusion_lon": 0.0, "bike_id": "865661c36aae597bc692beb0524fbf98", "lon": -77.02889033333334, "type": "electric_scooter", "is_disabled": 0, "rental_uris": {"ios": "https://dc.lft.to/lastmile_qr_scan", "android": "https://dc.lft.to/lastmile_qr_scan"}, "is_reserved": 0, "fusion_lat": 0.0, "name": "865661c36aae597bc692beb0524fbf98", "lat": 38.96075716666667}, {"fusion_lon": 0.0, "bike_id": "d56121ce86d051cee1272efa907194b5", "lon": -77.03167733333333, "type": "electric_scooter", "is_disabled": 0, "rental_uris": {"ios": "https://dc.lft.to/lastmile_qr_scan", "android": "https://dc.lft.to/lastmile_qr_scan"}, "is_reserved": 0, "fusion_lat": 0.0, "name": "d56121ce86d051cee1272efa907194b5", "lat": 38.8921745}, {"fusion_lon": 0.0, "bike_id": "422c679848d9f8beee764b7f1aa8d30b", "lon": -77.02567883333333, "type": "electric_scooter", "is_disabled": 0, "rental_uris": {"ios": "https://dc.lft.to/lastmile_qr_scan", "android": "https://dc.lft.to/lastmile_qr_scan"}, "is_reserved": 0, "fusion_lat": 0.0, "name": "422c679848d9f8beee764b7f1aa8d30b", "lat": 38.9393145}, {"fusion_lon": 0.0, "bike_id": "3350f0ac974760d12de30e89d1f9529f", "lon": -77.0321295, "type": "electric_scooter", "is_disabled": 0, "rental_uris": {"ios": "https://dc.lft.to/lastmile_qr_scan", "android": "https://dc.lft.to/lastmile_qr_scan"}, "is_reserved": 0, "fusion_lat": 0.0, "name": "3350f0ac974760d12de30e89d1f9529f", "lat": 38.911179}, {"fusion_lon": 0.0, "bike_id": "453e88ea79281002496f8cf1fe09cf77", "lon": -77.03228616666667, "type": "electric_scooter", "is_disabled": 0, "rental_uris": {"ios": "https://dc.lft.to/lastmile_qr_scan", "android": "https://dc.lft.to/lastmile_qr_scan"}, "is_reserved": 0, "fusion_lat": 0.0, "name": "453e88ea79281002496f8cf1fe09cf77", "lat": 38.9235685}, {"fusion_lon": 0.0, "bike_id": "38f001c748507d927a04bf1af76f2956", "lon": -77.0322665, "type": "electric_scooter", "is_disabled": 0, "rental_uris": {"ios": "https://dc.lft.to/lastmile_qr_scan", "android": "https://dc.lft.to/lastmile_qr_scan"}, "is_reserved": 0, "fusion_lat": 0.0, "name": "38f001c748507d927a04bf1af76f2956", "lat": 38.91484616666666}, {"fusion_lon": 0.0, "bike_id": "7c31b4e0873659fcb369d055bf3611fe", "lon": -77.0304975, "type": "electric_scooter", "is_disabled": 0, "rental_uris": {"ios": "https://dc.lft.to/lastmile_qr_scan", "android": "https://dc.lft.to/lastmile_qr_scan"}, "is_reserved": 0, "fusion_lat": 0.0, "name": "7c31b4e0873659fcb369d055bf3611fe", "lat": 38.91682766666667}, {"fusion_lon": 0.0, "bike_id": "df60dfafef698d5676abacbb042ced45", "lon": -77.030408, "type": "electric_scooter", "is_disabled": 0, "rental_uris": {"ios": "https://dc.lft.to/lastmile_qr_scan", "android": "https://dc.lft.to/lastmile_qr_scan"}, "is_reserved": 0, "fusion_lat": 0.0, "name": "df60dfafef698d5676abacbb042ced45", "lat": 38.898022166666664}, {"fusion_lon": 0.0, "bike_id": "9a120cde3377fab85e24a87ff16ebaed", "lon": -77.04309116666667, "type": "electric_bike", "is_disabled": 0, "rental_uris": {"ios": "https://dc.lft.to/lastmile_qr_scan", "android": "https://dc.lft.to/lastmile_qr_scan"}, "is_reserved": 0, "fusion_lat": 0.0, "name": "9a120cde3377fab85e24a87ff16ebaed", "lat": 38.934103}, {"fusion_lon": 0.0, "bike_id": "0dc5a575b407f5f0f0a29b21746351eb", "lon": -77.0220905, "type": "electric_scooter", "is_disabled": 0, "rental_uris": {"ios": "https://dc.lft.to/lastmile_qr_scan", "android": "https://dc.lft.to/lastmile_qr_scan"}, "is_reserved": 0, "fusion_lat": 0.0, "name": "0dc5a575b407f5f0f0a29b21746351eb", "lat": 38.903515166666665}, {"fusion_lon": 0.0, "bike_id": "95d99bbff97f94824a4d26a7551133f6", "lon": -77.02706483333333, "type": "electric_scooter", "is_disabled": 0, "rental_uris": {"ios": "https://dc.lft.to/lastmile_qr_scan", "android": "https://dc.lft.to/lastmile_qr_scan"}, "is_reserved": 0, "fusion_lat": 0.0, "name": "95d99bbff97f94824a4d26a7551133f6", "lat": 38.9172615}, {"fusion_lon": 0.0, "bike_id": "2e1ca7f597eb753782afbb2f98dfc5aa", "lon": -77.039894, "type": "electric_scooter", "is_disabled": 0, "rental_uris": {"ios": "https://dc.lft.to/lastmile_qr_scan", "android": "https://dc.lft.to/lastmile_qr_scan"}, "is_reserved": 0, "fusion_lat": 0.0, "name": "2e1ca7f597eb753782afbb2f98dfc5aa", "lat": 38.8984235}, {"fusion_lon": 0.0, "bike_id": "a4bf6ce3b5ea5921b97dce1428baebcd", "lon": -77.0194375, "type": "electric_scooter", "is_disabled": 0, "rental_uris": {"ios": "https://dc.lft.to/lastmile_qr_scan", "android": "https://dc.lft.to/lastmile_qr_scan"}, "is_reserved": 0, "fusion_lat": 0.0, "name": "a4bf6ce3b5ea5921b97dce1428baebcd", "lat": 38.92422166666667}, {"fusion_lon": 0.0, "bike_id": "b5a076142e84e3b73bbc71659c5264f4", "lon": -76.977763, "type": "electric_bike", "is_disabled": 0, "rental_uris": {"ios": "https://dc.lft.to/lastmile_qr_scan", "android": "https://dc.lft.to/lastmile_qr_scan"}, "is_reserved": 0, "fusion_lat": 0.0, "name": "b5a076142e84e3b73bbc71659c5264f4", "lat": 38.8572475}, {"fusion_lon": 0.0, "bike_id": "6e843b4074c9cb6cb342d6ffed442cb0", "lon": -76.93190666666666, "type": "electric_scooter", "is_disabled": 0, "rental_uris": {"ios": "https://dc.lft.to/lastmile_qr_scan", "android": "https://dc.lft.to/lastmile_qr_scan"}, "is_reserved": 0, "fusion_lat": 0.0, "name": "6e843b4074c9cb6cb342d6ffed442cb0", "lat": 38.898778666666665}, {"fusion_lon": 0.0, "bike_id": "020cbdb89850947fbadc45fd06d2e832", "lon": -77.023012, "type": "electric_scooter", "is_disabled": 0, "rental_uris": {"ios": "https://dc.lft.to/lastmile_qr_scan", "android": "https://dc.lft.to/lastmile_qr_scan"}, "is_reserved": 0, "fusion_lat": 0.0, "name": "020cbdb89850947fbadc45fd06d2e832", "lat": 38.917823}, {"fusion_lon": 0.0, "bike_id": "8683b61a21599e85b183a6ccfe03dd58", "lon": -77.01709483333333, "type": "electric_scooter", "is_disabled": 0, "rental_uris": {"ios": "https://dc.lft.to/lastmile_qr_scan", "android": "https://dc.lft.to/lastmile_qr_scan"}, "is_reserved": 0, "fusion_lat": 0.0, "name": "8683b61a21599e85b183a6ccfe03dd58", "lat": 38.9204675}, {"fusion_lon": 0.0, "bike_id": "2f67374d3a9aed6ef855b69a4e704182", "lon": -77.0340015, "type": "electric_scooter", "is_disabled": 0, "rental_uris": {"ios": "https://dc.lft.to/lastmile_qr_scan", "android": "https://dc.lft.to/lastmile_qr_scan"}, "is_reserved": 0, "fusion_lat": 0.0, "name": "2f67374d3a9aed6ef855b69a4e704182", "lat": 38.92641183333333}, {"fusion_lon": 0.0, "bike_id": "e32bdb58c850c1a8db36b51a2ee5648b", "lon": -76.98463066666666, "type": "electric_scooter", "is_disabled": 0, "rental_uris": {"ios": "https://dc.lft.to/lastmile_qr_scan", "android": "https://dc.lft.to/lastmile_qr_scan"}, "is_reserved": 0, "fusion_lat": 0.0, "name": "e32bdb58c850c1a8db36b51a2ee5648b", "lat": 38.89763416666667}, {"fusion_lon": 0.0, "bike_id": "95cc5054dc08fc917e58a5e20a3e4e7e", "lon": -77.05316516666667, "type": "electric_scooter", "is_disabled": 0, "rental_uris": {"ios": "https://dc.lft.to/lastmile_qr_scan", "android": "https://dc.lft.to/lastmile_qr_scan"}, "is_reserved": 0, "fusion_lat": 0.0, "name": "95cc5054dc08fc917e58a5e20a3e4e7e", "lat": 38.902711333333336}, {"fusion_lon": 0.0, "bike_id": "74a4871a878a010776bdb3385b86197f", "lon": -77.02139516666666, "type": "electric_scooter", "is_disabled": 0, "rental_uris": {"ios": "https://dc.lft.to/lastmile_qr_scan", "android": "https://dc.lft.to/lastmile_qr_scan"}, "is_reserved": 0, "fusion_lat": 0.0, "name": "74a4871a878a010776bdb3385b86197f", "lat": 38.93115316666667}, {"fusion_lon": 0.0, "bike_id": "46c38f8a71473ca4afe7e5fef9594bda", "lon": -77.03787483333333, "type": "electric_scooter", "is_disabled": 0, "rental_uris": {"ios": "https://dc.lft.to/lastmile_qr_scan", "android": "https://dc.lft.to/lastmile_qr_scan"}, "is_reserved": 0, "fusion_lat": 0.0, "name": "46c38f8a71473ca4afe7e5fef9594bda", "lat": 38.92192033333333}, {"fusion_lon": 0.0, "bike_id": "dff6d6120b6a15707d689b163d77cf25", "lon": -76.9967565, "type": "electric_scooter", "is_disabled": 0, "rental_uris": {"ios": "https://dc.lft.to/lastmile_qr_scan", "android": "https://dc.lft.to/lastmile_qr_scan"}, "is_reserved": 0, "fusion_lat": 0.0, "name": "dff6d6120b6a15707d689b163d77cf25", "lat": 38.877027}, {"fusion_lon": 0.0, "bike_id": "21c5b206d064fc84d6ea4206d232f8e6", "lon": -77.04155833333333, "type": "electric_scooter", "is_disabled": 0, "rental_uris": {"ios": "https://dc.lft.to/lastmile_qr_scan", "android": "https://dc.lft.to/lastmile_qr_scan"}, "is_reserved": 0, "fusion_lat": 0.0, "name": "21c5b206d064fc84d6ea4206d232f8e6", "lat": 38.919127}, {"fusion_lon": 0.0, "bike_id": "2fb10c383c91c90478e573dcad14eccb", "lon": -76.96715516666667, "type": "electric_scooter", "is_disabled": 0, "rental_uris": {"ios": "https://dc.lft.to/lastmile_qr_scan", "android": "https://dc.lft.to/lastmile_qr_scan"}, "is_reserved": 0, "fusion_lat": 0.0, "name": "2fb10c383c91c90478e573dcad14eccb", "lat": 38.86062366666667}, {"fusion_lon": 0.0, "bike_id": "5cbe19377fb9d12e49ba868cd399b6ae", "lon": -77.04825133333334, "type": "electric_scooter", "is_disabled": 0, "rental_uris": {"ios": "https://dc.lft.to/lastmile_qr_scan", "android": "https://dc.lft.to/lastmile_qr_scan"}, "is_reserved": 0, "fusion_lat": 0.0, "name": "5cbe19377fb9d12e49ba868cd399b6ae", "lat": 38.90507083333333}, {"fusion_lon": 0.0, "bike_id": "5968c198b6c8ba3429d17af9e85d42ca", "lon": -77.035386, "type": "electric_scooter", "is_disabled": 0, "rental_uris": {"ios": "https://dc.lft.to/lastmile_qr_scan", "android": "https://dc.lft.to/lastmile_qr_scan"}, "is_reserved": 0, "fusion_lat": 0.0, "name": "5968c198b6c8ba3429d17af9e85d42ca", "lat": 38.92342766666667}, {"fusion_lon": 0.0, "bike_id": "0b5be83cd825df25428e20a83c09eed6", "lon": -77.01829516666666, "type": "electric_scooter", "is_disabled": 0, "rental_uris": {"ios": "https://dc.lft.to/lastmile_qr_scan", "android": "https://dc.lft.to/lastmile_qr_scan"}, "is_reserved": 0, "fusion_lat": 0.0, "name": "0b5be83cd825df25428e20a83c09eed6", "lat": 38.92144116666667}, {"fusion_lon": 0.0, "bike_id": "5ab814f6042722fe8f16b073e2191fed", "lon": -77.04302716666666, "type": "electric_bike", "is_disabled": 0, "rental_uris": {"ios": "https://dc.lft.to/lastmile_qr_scan", "android": "https://dc.lft.to/lastmile_qr_scan"}, "is_reserved": 0, "fusion_lat": 0.0, "name": "5ab814f6042722fe8f16b073e2191fed", "lat": 39.034257333333336}, {"fusion_lon": 0.0, "bike_id": "635699acbcb1fea5e6ba378d8ece77a1", "lon": -77.01152333333333, "type": "electric_scooter", "is_disabled": 0, "rental_uris": {"ios": "https://dc.lft.to/lastmile_qr_scan", "android": "https://dc.lft.to/lastmile_qr_scan"}, "is_reserved": 0, "fusion_lat": 0.0, "name": "635699acbcb1fea5e6ba378d8ece77a1", "lat": 38.916042833333336}, {"fusion_lon": 0.0, "bike_id": "c8168f3bb9818bd1ec54b754a70fadfb", "lon": -77.04861416666667, "type": "electric_scooter", "is_disabled": 0, "rental_uris": {"ios": "https://dc.lft.to/lastmile_qr_scan", "android": "https://dc.lft.to/lastmile_qr_scan"}, "is_reserved": 0, "fusion_lat": 0.0, "name": "c8168f3bb9818bd1ec54b754a70fadfb", "lat": 38.903802666666664}, {"fusion_lon": 0.0, "bike_id": "43231ec825efeab7d0c1daf85113feab", "lon": -77.01763816666667, "type": "electric_scooter", "is_disabled": 0, "rental_uris": {"ios": "https://dc.lft.to/lastmile_qr_scan", "android": "https://dc.lft.to/lastmile_qr_scan"}, "is_reserved": 0, "fusion_lat": 0.0, "name": "43231ec825efeab7d0c1daf85113feab", "lat": 38.8770815}, {"fusion_lon": 0.0, "bike_id": "2a1c0446b320b0dfc04434fe3c9de662", "lon": -77.03444516666667, "type": "electric_scooter", "is_disabled": 0, "rental_uris": {"ios": "https://dc.lft.to/lastmile_qr_scan", "android": "https://dc.lft.to/lastmile_qr_scan"}, "is_reserved": 0, "fusion_lat": 0.0, "name": "2a1c0446b320b0dfc04434fe3c9de662", "lat": 38.92878616666667}, {"fusion_lon": 0.0, "bike_id": "5f06297c458da545f91b427e1d8e1789", "lon": -77.02319783333333, "type": "electric_scooter", "is_disabled": 0, "rental_uris": {"ios": "https://dc.lft.to/lastmile_qr_scan", "android": "https://dc.lft.to/lastmile_qr_scan"}, "is_reserved": 0, "fusion_lat": 0.0, "name": "5f06297c458da545f91b427e1d8e1789", "lat": 38.92072316666667}, {"fusion_lon": 0.0, "bike_id": "060b04369eaab5b51bf2d9fd987975f3", "lon": -76.958808, "type": "electric_scooter", "is_disabled": 0, "rental_uris": {"ios": "https://dc.lft.to/lastmile_qr_scan", "android": "https://dc.lft.to/lastmile_qr_scan"}, "is_reserved": 0, "fusion_lat": 0.0, "name": "060b04369eaab5b51bf2d9fd987975f3", "lat": 38.85946533333333}, {"fusion_lon": 0.0, "bike_id": "bd87d187e3d77de6c656b52d601eaefc", "lon": -77.01772466666667, "type": "electric_scooter", "is_disabled": 0, "rental_uris": {"ios": "https://dc.lft.to/lastmile_qr_scan", "android": "https://dc.lft.to/lastmile_qr_scan"}, "is_reserved": 0, "fusion_lat": 0.0, "name": "bd87d187e3d77de6c656b52d601eaefc", "lat": 38.92056633333333}, {"fusion_lon": 0.0, "bike_id": "d949de12e789548cfa58bf40790c7c63", "lon": -77.01783666666667, "type": "electric_scooter", "is_disabled": 0, "rental_uris": {"ios": "https://dc.lft.to/lastmile_qr_scan", "android": "https://dc.lft.to/lastmile_qr_scan"}, "is_reserved": 0, "fusion_lat": 0.0, "name": "d949de12e789548cfa58bf40790c7c63", "lat": 38.944196833333336}, {"fusion_lon": 0.0, "bike_id": "b2362845a742d55b1b2c9468bb8f71ab", "lon": -77.01271533333333, "type": "electric_scooter", "is_disabled": 0, "rental_uris": {"ios": "https://dc.lft.to/lastmile_qr_scan", "android": "https://dc.lft.to/lastmile_qr_scan"}, "is_reserved": 0, "fusion_lat": 0.0, "name": "b2362845a742d55b1b2c9468bb8f71ab", "lat": 38.89933116666667}, {"fusion_lon": 0.0, "bike_id": "bb35249cedb45569ede4bc397a0dd937", "lon": -77.0152975, "type": "electric_scooter", "is_disabled": 0, "rental_uris": {"ios": "https://dc.lft.to/lastmile_qr_scan", "android": "https://dc.lft.to/lastmile_qr_scan"}, "is_reserved": 0, "fusion_lat": 0.0, "name": "bb35249cedb45569ede4bc397a0dd937", "lat": 38.88738083333333}, {"fusion_lon": 0.0, "bike_id": "6bd7a66f5470a705317aa8bd7f9da436", "lon": -76.93578566666666, "type": "electric_scooter", "is_disabled": 0, "rental_uris": {"ios": "https://dc.lft.to/lastmile_qr_scan", "android": "https://dc.lft.to/lastmile_qr_scan"}, "is_reserved": 0, "fusion_lat": 0.0, "name": "6bd7a66f5470a705317aa8bd7f9da436", "lat": 38.897043333333336}, {"fusion_lon": 0.0, "bike_id": "e8c3c204d05d33df444d4e9804b20b47", "lon": -77.03222066666666, "type": "electric_scooter", "is_disabled": 0, "rental_uris": {"ios": "https://dc.lft.to/lastmile_qr_scan", "android": "https://dc.lft.to/lastmile_qr_scan"}, "is_reserved": 0, "fusion_lat": 0.0, "name": "e8c3c204d05d33df444d4e9804b20b47", "lat": 38.916018666666666}, {"fusion_lon": 0.0, "bike_id": "d19b3e3566196e905f006fda1949b81f", "lon": -77.02812416666667, "type": "electric_scooter", "is_disabled": 0, "rental_uris": {"ios": "https://dc.lft.to/lastmile_qr_scan", "android": "https://dc.lft.to/lastmile_qr_scan"}, "is_reserved": 0, "fusion_lat": 0.0, "name": "d19b3e3566196e905f006fda1949b81f", "lat": 38.961374}, {"fusion_lon": 0.0, "bike_id": "647c90dce168845a5f2aa9d0f8c44fc5", "lon": -77.02917466666666, "type": "electric_scooter", "is_disabled": 0, "rental_uris": {"ios": "https://dc.lft.to/lastmile_qr_scan", "android": "https://dc.lft.to/lastmile_qr_scan"}, "is_reserved": 0, "fusion_lat": 0.0, "name": "647c90dce168845a5f2aa9d0f8c44fc5", "lat": 38.93453816666667}, {"fusion_lon": 0.0, "bike_id": "6a6890d791eb9be32993382b7e151d14", "lon": -77.03640366666667, "type": "electric_scooter", "is_disabled": 0, "rental_uris": {"ios": "https://dc.lft.to/lastmile_qr_scan", "android": "https://dc.lft.to/lastmile_qr_scan"}, "is_reserved": 0, "fusion_lat": 0.0, "name": "6a6890d791eb9be32993382b7e151d14", "lat": 38.92810516666667}, {"fusion_lon": 0.0, "bike_id": "4f11a0f3faa248d56288c5f5ae9fb328", "lon": -77.0636125, "type": "electric_scooter", "is_disabled": 0, "rental_uris": {"ios": "https://dc.lft.to/lastmile_qr_scan", "android": "https://dc.lft.to/lastmile_qr_scan"}, "is_reserved": 0, "fusion_lat": 0.0, "name": "4f11a0f3faa248d56288c5f5ae9fb328", "lat": 38.9445085}, {"fusion_lon": 0.0, "bike_id": "02fc62ec06c012cbb6df5075470b42df", "lon": -77.07431916666667, "type": "electric_scooter", "is_disabled": 0, "rental_uris": {"ios": "https://dc.lft.to/lastmile_qr_scan", "android": "https://dc.lft.to/lastmile_qr_scan"}, "is_reserved": 0, "fusion_lat": 0.0, "name": "02fc62ec06c012cbb6df5075470b42df", "lat": 38.91266233333333}, {"fusion_lon": 0.0, "bike_id": "b110d8f3e7eda1fa92a44829af8bf8b8", "lon": -77.0283695, "type": "electric_scooter", "is_disabled": 0, "rental_uris": {"ios": "https://dc.lft.to/lastmile_qr_scan", "android": "https://dc.lft.to/lastmile_qr_scan"}, "is_reserved": 0, "fusion_lat": 0.0, "name": "b110d8f3e7eda1fa92a44829af8bf8b8", "lat": 38.887149666666666}, {"fusion_lon": 0.0, "bike_id": "b5ba5d7c1a635908928fd790eb858eb5", "lon": -77.02318566666666, "type": "electric_scooter", "is_disabled": 0, "rental_uris": {"ios": "https://dc.lft.to/lastmile_qr_scan", "android": "https://dc.lft.to/lastmile_qr_scan"}, "is_reserved": 0, "fusion_lat": 0.0, "name": "b5ba5d7c1a635908928fd790eb858eb5", "lat": 38.920747166666665}, {"fusion_lon": 0.0, "bike_id": "cbd0daa1e22101f5fe8c7d6b780209ab", "lon": -76.95793316666666, "type": "electric_bike", "is_disabled": 0, "rental_uris": {"ios": "https://dc.lft.to/lastmile_qr_scan", "android": "https://dc.lft.to/lastmile_qr_scan"}, "is_reserved": 0, "fusion_lat": 0.0, "name": "cbd0daa1e22101f5fe8c7d6b780209ab", "lat": 38.980424}, {"fusion_lon": 0.0, "bike_id": "cc2891fd2944f42bf5bb9c4fbf002b36", "lon": -76.98556783333333, "type": "electric_scooter", "is_disabled": 0, "rental_uris": {"ios": "https://dc.lft.to/lastmile_qr_scan", "android": "https://dc.lft.to/lastmile_qr_scan"}, "is_reserved": 0, "fusion_lat": 0.0, "name": "cc2891fd2944f42bf5bb9c4fbf002b36", "lat": 38.897561}, {"fusion_lon": 0.0, "bike_id": "90cb29e62a911ac43b50d21d97280c59", "lon": -77.02298, "type": "electric_scooter", "is_disabled": 0, "rental_uris": {"ios": "https://dc.lft.to/lastmile_qr_scan", "android": "https://dc.lft.to/lastmile_qr_scan"}, "is_reserved": 0, "fusion_lat": 0.0, "name": "90cb29e62a911ac43b50d21d97280c59", "lat": 38.91452266666667}, {"fusion_lon": 0.0, "bike_id": "350c29ac549dd4ed22e52b62d3f91420", "lon": -77.00332116666667, "type": "electric_scooter", "is_disabled": 0, "rental_uris": {"ios": "https://dc.lft.to/lastmile_qr_scan", "android": "https://dc.lft.to/lastmile_qr_scan"}, "is_reserved": 0, "fusion_lat": 0.0, "name": "350c29ac549dd4ed22e52b62d3f91420", "lat": 38.89352783333333}, {"fusion_lon": 0.0, "bike_id": "ce915aae5a52ebdcf4198cf6b60cff0a", "lon": -76.95227816666667, "type": "electric_scooter", "is_disabled": 0, "rental_uris": {"ios": "https://dc.lft.to/lastmile_qr_scan", "android": "https://dc.lft.to/lastmile_qr_scan"}, "is_reserved": 0, "fusion_lat": 0.0, "name": "ce915aae5a52ebdcf4198cf6b60cff0a", "lat": 38.893446}, {"fusion_lon": 0.0, "bike_id": "c11e9818d787045fdf9fcd663e5d9368", "lon": -77.03339666666666, "type": "electric_scooter", "is_disabled": 0, "rental_uris": {"ios": "https://dc.lft.to/lastmile_qr_scan", "android": "https://dc.lft.to/lastmile_qr_scan"}, "is_reserved": 0, "fusion_lat": 0.0, "name": "c11e9818d787045fdf9fcd663e5d9368", "lat": 38.97211766666667}, {"fusion_lon": 0.0, "bike_id": "87b69b298326edb2b3657bd00e13618a", "lon": -77.0194615, "type": "electric_scooter", "is_disabled": 0, "rental_uris": {"ios": "https://dc.lft.to/lastmile_qr_scan", "android": "https://dc.lft.to/lastmile_qr_scan"}, "is_reserved": 0, "fusion_lat": 0.0, "name": "87b69b298326edb2b3657bd00e13618a", "lat": 38.899213333333336}, {"fusion_lon": 0.0, "bike_id": "5bc8cee0f5c607af2119c03acb01790d", "lon": -77.03788666666667, "type": "electric_scooter", "is_disabled": 0, "rental_uris": {"ios": "https://dc.lft.to/lastmile_qr_scan", "android": "https://dc.lft.to/lastmile_qr_scan"}, "is_reserved": 0, "fusion_lat": 0.0, "name": "5bc8cee0f5c607af2119c03acb01790d", "lat": 38.91820516666667}, {"fusion_lon": 0.0, "bike_id": "0d55dcadf8e0bf194b593fc681606a29", "lon": -77.1061255, "type": "electric_bike", "is_disabled": 0, "rental_uris": {"ios": "https://dc.lft.to/lastmile_qr_scan", "android": "https://dc.lft.to/lastmile_qr_scan"}, "is_reserved": 0, "fusion_lat": 0.0, "name": "0d55dcadf8e0bf194b593fc681606a29", "lat": 38.93567083333333}, {"fusion_lon": 0.0, "bike_id": "53068af6a7822ebc368a76cfa0ef5210", "lon": -76.99264883333333, "type": "electric_scooter", "is_disabled": 0, "rental_uris": {"ios": "https://dc.lft.to/lastmile_qr_scan", "android": "https://dc.lft.to/lastmile_qr_scan"}, "is_reserved": 0, "fusion_lat": 0.0, "name": "53068af6a7822ebc368a76cfa0ef5210", "lat": 38.9029415}, {"fusion_lon": 0.0, "bike_id": "db1830cceecf7941bbcc500d243d3a61", "lon": -76.99964233333333, "type": "electric_scooter", "is_disabled": 0, "rental_uris": {"ios": "https://dc.lft.to/lastmile_qr_scan", "android": "https://dc.lft.to/lastmile_qr_scan"}, "is_reserved": 0, "fusion_lat": 0.0, "name": "db1830cceecf7941bbcc500d243d3a61", "lat": 38.90938666666667}, {"fusion_lon": 0.0, "bike_id": "b6c026416a95bf0dd6c6457e402edaea", "lon": -77.05907783333333, "type": "electric_bike", "is_disabled": 0, "rental_uris": {"ios": "https://dc.lft.to/lastmile_qr_scan", "android": "https://dc.lft.to/lastmile_qr_scan"}, "is_reserved": 0, "fusion_lat": 0.0, "name": "b6c026416a95bf0dd6c6457e402edaea", "lat": 38.9008075}, {"fusion_lon": 0.0, "bike_id": "e402893b517d2e407c57a643ad393a64", "lon": -77.02191433333333, "type": "electric_scooter", "is_disabled": 0, "rental_uris": {"ios": "https://dc.lft.to/lastmile_qr_scan", "android": "https://dc.lft.to/lastmile_qr_scan"}, "is_reserved": 0, "fusion_lat": 0.0, "name": "e402893b517d2e407c57a643ad393a64", "lat": 38.911329333333335}, {"fusion_lon": 0.0, "bike_id": "8082d9d32c46c7df98bc8bacddd4f4a4", "lon": -77.00643466666666, "type": "electric_scooter", "is_disabled": 0, "rental_uris": {"ios": "https://dc.lft.to/lastmile_qr_scan", "android": "https://dc.lft.to/lastmile_qr_scan"}, "is_reserved": 0, "fusion_lat": 0.0, "name": "8082d9d32c46c7df98bc8bacddd4f4a4", "lat": 38.8718195}, {"fusion_lon": 0.0, "bike_id": "30951a3b9fd2f345399560ab4d428a9d", "lon": -77.0547795, "type": "electric_scooter", "is_disabled": 0, "rental_uris": {"ios": "https://dc.lft.to/lastmile_qr_scan", "android": "https://dc.lft.to/lastmile_qr_scan"}, "is_reserved": 0, "fusion_lat": 0.0, "name": "30951a3b9fd2f345399560ab4d428a9d", "lat": 38.9030105}, {"fusion_lon": 0.0, "bike_id": "5725a693ba8f3ddf7ec162c9326c9645", "lon": -77.07287333333333, "type": "electric_scooter", "is_disabled": 0, "rental_uris": {"ios": "https://dc.lft.to/lastmile_qr_scan", "android": "https://dc.lft.to/lastmile_qr_scan"}, "is_reserved": 0, "fusion_lat": 0.0, "name": "5725a693ba8f3ddf7ec162c9326c9645", "lat": 38.9222745}, {"fusion_lon": 0.0, "bike_id": "14c18b57712ca70c884c3f1093f7bf91", "lon": -77.03292766666667, "type": "electric_scooter", "is_disabled": 0, "rental_uris": {"ios": "https://dc.lft.to/lastmile_qr_scan", "android": "https://dc.lft.to/lastmile_qr_scan"}, "is_reserved": 0, "fusion_lat": 0.0, "name": "14c18b57712ca70c884c3f1093f7bf91", "lat": 38.937648333333335}, {"fusion_lon": 0.0, "bike_id": "256eaf9219cad8c6c304348e7b11978c", "lon": -77.01827783333333, "type": "electric_scooter", "is_disabled": 0, "rental_uris": {"ios": "https://dc.lft.to/lastmile_qr_scan", "android": "https://dc.lft.to/lastmile_qr_scan"}, "is_reserved": 0, "fusion_lat": 0.0, "name": "256eaf9219cad8c6c304348e7b11978c", "lat": 38.901205833333336}, {"fusion_lon": 0.0, "bike_id": "20cf86ea0971f6a1c157780051367884", "lon": -77.03870716666667, "type": "electric_scooter", "is_disabled": 0, "rental_uris": {"ios": "https://dc.lft.to/lastmile_qr_scan", "android": "https://dc.lft.to/lastmile_qr_scan"}, "is_reserved": 0, "fusion_lat": 0.0, "name": "20cf86ea0971f6a1c157780051367884", "lat": 38.9155385}, {"fusion_lon": 0.0, "bike_id": "bc60bb5dae63a3a0667983c69bf185da", "lon": -77.0087705, "type": "electric_scooter", "is_disabled": 0, "rental_uris": {"ios": "https://dc.lft.to/lastmile_qr_scan", "android": "https://dc.lft.to/lastmile_qr_scan"}, "is_reserved": 0, "fusion_lat": 0.0, "name": "bc60bb5dae63a3a0667983c69bf185da", "lat": 38.906360166666666}, {"fusion_lon": 0.0, "bike_id": "6cb4014c757a91575857b8c951c31966", "lon": -77.01903366666667, "type": "electric_scooter", "is_disabled": 0, "rental_uris": {"ios": "https://dc.lft.to/lastmile_qr_scan", "android": "https://dc.lft.to/lastmile_qr_scan"}, "is_reserved": 0, "fusion_lat": 0.0, "name": "6cb4014c757a91575857b8c951c31966", "lat": 38.919141333333336}, {"fusion_lon": 0.0, "bike_id": "cce2e76ad0f4ec31c62d4e006ef330fc", "lon": -77.0531285, "type": "electric_scooter", "is_disabled": 0, "rental_uris": {"ios": "https://dc.lft.to/lastmile_qr_scan", "android": "https://dc.lft.to/lastmile_qr_scan"}, "is_reserved": 0, "fusion_lat": 0.0, "name": "cce2e76ad0f4ec31c62d4e006ef330fc", "lat": 38.902634666666664}, {"fusion_lon": 0.0, "bike_id": "c5f933c78685ff9566484e7f1a620569", "lon": -77.02196916666666, "type": "electric_scooter", "is_disabled": 0, "rental_uris": {"ios": "https://dc.lft.to/lastmile_qr_scan", "android": "https://dc.lft.to/lastmile_qr_scan"}, "is_reserved": 0, "fusion_lat": 0.0, "name": "c5f933c78685ff9566484e7f1a620569", "lat": 38.912082166666664}, {"fusion_lon": 0.0, "bike_id": "bdb9abf4128f8fcc94c32ed1e49ce292", "lon": -77.06379616666666, "type": "electric_scooter", "is_disabled": 0, "rental_uris": {"ios": "https://dc.lft.to/lastmile_qr_scan", "android": "https://dc.lft.to/lastmile_qr_scan"}, "is_reserved": 0, "fusion_lat": 0.0, "name": "bdb9abf4128f8fcc94c32ed1e49ce292", "lat": 38.9052595}, {"fusion_lon": 0.0, "bike_id": "3d0203eaa17b858a58b812928d0dea70", "lon": -77.02377433333334, "type": "electric_scooter", "is_disabled": 0, "rental_uris": {"ios": "https://dc.lft.to/lastmile_qr_scan", "android": "https://dc.lft.to/lastmile_qr_scan"}, "is_reserved": 0, "fusion_lat": 0.0, "name": "3d0203eaa17b858a58b812928d0dea70", "lat": 38.902040166666666}, {"fusion_lon": 0.0, "bike_id": "3a8da696ffd5c72bd45b9e77c0f97f36", "lon": -76.97668166666666, "type": "electric_scooter", "is_disabled": 0, "rental_uris": {"ios": "https://dc.lft.to/lastmile_qr_scan", "android": "https://dc.lft.to/lastmile_qr_scan"}, "is_reserved": 0, "fusion_lat": 0.0, "name": "3a8da696ffd5c72bd45b9e77c0f97f36", "lat": 38.840558333333334}, {"fusion_lon": 0.0, "bike_id": "834d3f09ad409a968552f572d0215593", "lon": -77.04627666666667, "type": "electric_scooter", "is_disabled": 0, "rental_uris": {"ios": "https://dc.lft.to/lastmile_qr_scan", "android": "https://dc.lft.to/lastmile_qr_scan"}, "is_reserved": 0, "fusion_lat": 0.0, "name": "834d3f09ad409a968552f572d0215593", "lat": 38.91908266666667}, {"fusion_lon": 0.0, "bike_id": "0cb97ca843807aa70fcc34e470f861d1", "lon": -77.04704383333333, "type": "electric_scooter", "is_disabled": 0, "rental_uris": {"ios": "https://dc.lft.to/lastmile_qr_scan", "android": "https://dc.lft.to/lastmile_qr_scan"}, "is_reserved": 0, "fusion_lat": 0.0, "name": "0cb97ca843807aa70fcc34e470f861d1", "lat": 38.921335166666665}, {"fusion_lon": 0.0, "bike_id": "152bd52b07b02056e257293d3b9169e4", "lon": -77.0366255, "type": "electric_scooter", "is_disabled": 0, "rental_uris": {"ios": "https://dc.lft.to/lastmile_qr_scan", "android": "https://dc.lft.to/lastmile_qr_scan"}, "is_reserved": 0, "fusion_lat": 0.0, "name": "152bd52b07b02056e257293d3b9169e4", "lat": 38.91720566666667}, {"fusion_lon": 0.0, "bike_id": "7c915d89648c30044da0b1927177c32a", "lon": -77.03865983333333, "type": "electric_scooter", "is_disabled": 0, "rental_uris": {"ios": "https://dc.lft.to/lastmile_qr_scan", "android": "https://dc.lft.to/lastmile_qr_scan"}, "is_reserved": 0, "fusion_lat": 0.0, "name": "7c915d89648c30044da0b1927177c32a", "lat": 38.917079}, {"fusion_lon": 0.0, "bike_id": "7dc1b80afaf46418e992781f7b91c3a5", "lon": -77.01844566666666, "type": "electric_scooter", "is_disabled": 0, "rental_uris": {"ios": "https://dc.lft.to/lastmile_qr_scan", "android": "https://dc.lft.to/lastmile_qr_scan"}, "is_reserved": 0, "fusion_lat": 0.0, "name": "7dc1b80afaf46418e992781f7b91c3a5", "lat": 38.92234233333333}, {"fusion_lon": 0.0, "bike_id": "d6e04c9f46579571442bbe2a1c183cd3", "lon": -77.0449245, "type": "electric_scooter", "is_disabled": 0, "rental_uris": {"ios": "https://dc.lft.to/lastmile_qr_scan", "android": "https://dc.lft.to/lastmile_qr_scan"}, "is_reserved": 0, "fusion_lat": 0.0, "name": "d6e04c9f46579571442bbe2a1c183cd3", "lat": 38.89979}, {"fusion_lon": 0.0, "bike_id": "92e12e02345f94b5a9a769364a3bb4a3", "lon": -77.021195, "type": "electric_scooter", "is_disabled": 0, "rental_uris": {"ios": "https://dc.lft.to/lastmile_qr_scan", "android": "https://dc.lft.to/lastmile_qr_scan"}, "is_reserved": 0, "fusion_lat": 0.0, "name": "92e12e02345f94b5a9a769364a3bb4a3", "lat": 38.926719166666665}, {"fusion_lon": 0.0, "bike_id": "ab6ea5a4208fa29b6789512d1e80b4fe", "lon": -77.04187416666667, "type": "electric_scooter", "is_disabled": 0, "rental_uris": {"ios": "https://dc.lft.to/lastmile_qr_scan", "android": "https://dc.lft.to/lastmile_qr_scan"}, "is_reserved": 0, "fusion_lat": 0.0, "name": "ab6ea5a4208fa29b6789512d1e80b4fe", "lat": 38.9221775}, {"fusion_lon": 0.0, "bike_id": "466454500487b48e64b963e74ac5490c", "lon": -77.04301333333333, "type": "electric_scooter", "is_disabled": 0, "rental_uris": {"ios": "https://dc.lft.to/lastmile_qr_scan", "android": "https://dc.lft.to/lastmile_qr_scan"}, "is_reserved": 0, "fusion_lat": 0.0, "name": "466454500487b48e64b963e74ac5490c", "lat": 38.93178233333333}, {"fusion_lon": 0.0, "bike_id": "28948b7fd1f495db51fe31c32aba388e", "lon": -77.062823, "type": "electric_scooter", "is_disabled": 0, "rental_uris": {"ios": "https://dc.lft.to/lastmile_qr_scan", "android": "https://dc.lft.to/lastmile_qr_scan"}, "is_reserved": 0, "fusion_lat": 0.0, "name": "28948b7fd1f495db51fe31c32aba388e", "lat": 38.90279016666667}, {"fusion_lon": 0.0, "bike_id": "b8cde45c1bdfdf4f604e2124a43c5170", "lon": -77.04337016666666, "type": "electric_scooter", "is_disabled": 0, "rental_uris": {"ios": "https://dc.lft.to/lastmile_qr_scan", "android": "https://dc.lft.to/lastmile_qr_scan"}, "is_reserved": 0, "fusion_lat": 0.0, "name": "b8cde45c1bdfdf4f604e2124a43c5170", "lat": 38.92229916666667}, {"fusion_lon": 0.0, "bike_id": "5d35220656c8dd8a9c145368083ed1b3", "lon": -77.01829533333333, "type": "electric_scooter", "is_disabled": 0, "rental_uris": {"ios": "https://dc.lft.to/lastmile_qr_scan", "android": "https://dc.lft.to/lastmile_qr_scan"}, "is_reserved": 0, "fusion_lat": 0.0, "name": "5d35220656c8dd8a9c145368083ed1b3", "lat": 38.922431}, {"fusion_lon": 0.0, "bike_id": "d759b7361638ef8c45f70a5abbd3471d", "lon": -77.01981633333334, "type": "electric_scooter", "is_disabled": 0, "rental_uris": {"ios": "https://dc.lft.to/lastmile_qr_scan", "android": "https://dc.lft.to/lastmile_qr_scan"}, "is_reserved": 0, "fusion_lat": 0.0, "name": "d759b7361638ef8c45f70a5abbd3471d", "lat": 38.9115795}, {"fusion_lon": 0.0, "bike_id": "c67b3108867b1394fb8a90fbb91138ce", "lon": -76.99505833333333, "type": "electric_scooter", "is_disabled": 0, "rental_uris": {"ios": "https://dc.lft.to/lastmile_qr_scan", "android": "https://dc.lft.to/lastmile_qr_scan"}, "is_reserved": 0, "fusion_lat": 0.0, "name": "c67b3108867b1394fb8a90fbb91138ce", "lat": 38.90466583333333}, {"fusion_lon": 0.0, "bike_id": "ad0b76f2ff99e28c6aabf0e3a9f4d61c", "lon": -77.03831166666667, "type": "electric_scooter", "is_disabled": 0, "rental_uris": {"ios": "https://dc.lft.to/lastmile_qr_scan", "android": "https://dc.lft.to/lastmile_qr_scan"}, "is_reserved": 0, "fusion_lat": 0.0, "name": "ad0b76f2ff99e28c6aabf0e3a9f4d61c", "lat": 38.918887166666664}, {"fusion_lon": 0.0, "bike_id": "c1144c5c950dc1bdaae5dbc6b44ff07a", "lon": -77.023305, "type": "electric_scooter", "is_disabled": 0, "rental_uris": {"ios": "https://dc.lft.to/lastmile_qr_scan", "android": "https://dc.lft.to/lastmile_qr_scan"}, "is_reserved": 0, "fusion_lat": 0.0, "name": "c1144c5c950dc1bdaae5dbc6b44ff07a", "lat": 38.923010833333336}, {"fusion_lon": 0.0, "bike_id": "7b4ad141cac0b9afa38c615ee753ce13", "lon": -77.072803, "type": "electric_scooter", "is_disabled": 0, "rental_uris": {"ios": "https://dc.lft.to/lastmile_qr_scan", "android": "https://dc.lft.to/lastmile_qr_scan"}, "is_reserved": 0, "fusion_lat": 0.0, "name": "7b4ad141cac0b9afa38c615ee753ce13", "lat": 38.93469116666667}, {"fusion_lon": 0.0, "bike_id": "c220e2a5231d964beeddb9921f25d259", "lon": -76.99493366666667, "type": "electric_scooter", "is_disabled": 0, "rental_uris": {"ios": "https://dc.lft.to/lastmile_qr_scan", "android": "https://dc.lft.to/lastmile_qr_scan"}, "is_reserved": 0, "fusion_lat": 0.0, "name": "c220e2a5231d964beeddb9921f25d259", "lat": 38.87962}, {"fusion_lon": 0.0, "bike_id": "f6c6340a246a2302f064a28234087cfb", "lon": -77.029529, "type": "electric_scooter", "is_disabled": 0, "rental_uris": {"ios": "https://dc.lft.to/lastmile_qr_scan", "android": "https://dc.lft.to/lastmile_qr_scan"}, "is_reserved": 0, "fusion_lat": 0.0, "name": "f6c6340a246a2302f064a28234087cfb", "lat": 38.89941566666667}, {"fusion_lon": 0.0, "bike_id": "319dd573ec5a99f45fb00449d8f4382a", "lon": -77.033945, "type": "electric_scooter", "is_disabled": 0, "rental_uris": {"ios": "https://dc.lft.to/lastmile_qr_scan", "android": "https://dc.lft.to/lastmile_qr_scan"}, "is_reserved": 0, "fusion_lat": 0.0, "name": "319dd573ec5a99f45fb00449d8f4382a", "lat": 38.886563333333335}, {"fusion_lon": 0.0, "bike_id": "5173c7ad77128234502ebbb1d569ff8e", "lon": -77.02173516666667, "type": "electric_scooter", "is_disabled": 0, "rental_uris": {"ios": "https://dc.lft.to/lastmile_qr_scan", "android": "https://dc.lft.to/lastmile_qr_scan"}, "is_reserved": 0, "fusion_lat": 0.0, "name": "5173c7ad77128234502ebbb1d569ff8e", "lat": 38.942935}, {"fusion_lon": 0.0, "bike_id": "bd4baa7262d6eda48257c181017892ce", "lon": -77.01675333333333, "type": "electric_scooter", "is_disabled": 0, "rental_uris": {"ios": "https://dc.lft.to/lastmile_qr_scan", "android": "https://dc.lft.to/lastmile_qr_scan"}, "is_reserved": 0, "fusion_lat": 0.0, "name": "bd4baa7262d6eda48257c181017892ce", "lat": 38.881233}, {"fusion_lon": 0.0, "bike_id": "47cc9e85a9db6ae3b76f3ce7c434838d", "lon": -77.04147616666667, "type": "electric_scooter", "is_disabled": 0, "rental_uris": {"ios": "https://dc.lft.to/lastmile_qr_scan", "android": "https://dc.lft.to/lastmile_qr_scan"}, "is_reserved": 0, "fusion_lat": 0.0, "name": "47cc9e85a9db6ae3b76f3ce7c434838d", "lat": 38.92339066666667}, {"fusion_lon": 0.0, "bike_id": "6e83a3b7586378d5462ef09ef3e02409", "lon": -77.02907533333334, "type": "electric_scooter", "is_disabled": 0, "rental_uris": {"ios": "https://dc.lft.to/lastmile_qr_scan", "android": "https://dc.lft.to/lastmile_qr_scan"}, "is_reserved": 0, "fusion_lat": 0.0, "name": "6e83a3b7586378d5462ef09ef3e02409", "lat": 38.91703316666667}, {"fusion_lon": 0.0, "bike_id": "151afb2aae432e923784d334e2e5253e", "lon": -77.02480716666666, "type": "electric_scooter", "is_disabled": 0, "rental_uris": {"ios": "https://dc.lft.to/lastmile_qr_scan", "android": "https://dc.lft.to/lastmile_qr_scan"}, "is_reserved": 0, "fusion_lat": 0.0, "name": "151afb2aae432e923784d334e2e5253e", "lat": 38.88002266666667}, {"fusion_lon": 0.0, "bike_id": "6c6d383072850d80b45038498bf630b1", "lon": -77.02211266666667, "type": "electric_scooter", "is_disabled": 0, "rental_uris": {"ios": "https://dc.lft.to/lastmile_qr_scan", "android": "https://dc.lft.to/lastmile_qr_scan"}, "is_reserved": 0, "fusion_lat": 0.0, "name": "6c6d383072850d80b45038498bf630b1", "lat": 38.92797916666667}, {"fusion_lon": 0.0, "bike_id": "92b64ab8edfb8f0959e92395c0da7cf6", "lon": -77.028489, "type": "electric_scooter", "is_disabled": 0, "rental_uris": {"ios": "https://dc.lft.to/lastmile_qr_scan", "android": "https://dc.lft.to/lastmile_qr_scan"}, "is_reserved": 0, "fusion_lat": 0.0, "name": "92b64ab8edfb8f0959e92395c0da7cf6", "lat": 38.93589583333333}, {"fusion_lon": 0.0, "bike_id": "5552f6e3f4a3c52b6a3db65a6b2006b7", "lon": -76.99367733333334, "type": "electric_scooter", "is_disabled": 0, "rental_uris": {"ios": "https://dc.lft.to/lastmile_qr_scan", "android": "https://dc.lft.to/lastmile_qr_scan"}, "is_reserved": 0, "fusion_lat": 0.0, "name": "5552f6e3f4a3c52b6a3db65a6b2006b7", "lat": 38.90042183333333}, {"fusion_lon": 0.0, "bike_id": "e7e9e2a094945ed4072f8a79008c4303", "lon": -77.05006566666667, "type": "electric_scooter", "is_disabled": 0, "rental_uris": {"ios": "https://dc.lft.to/lastmile_qr_scan", "android": "https://dc.lft.to/lastmile_qr_scan"}, "is_reserved": 0, "fusion_lat": 0.0, "name": "e7e9e2a094945ed4072f8a79008c4303", "lat": 38.90105466666667}, {"fusion_lon": 0.0, "bike_id": "0b060c1b3f323ecf43375a75d7e399fd", "lon": -76.950992, "type": "electric_scooter", "is_disabled": 0, "rental_uris": {"ios": "https://dc.lft.to/lastmile_qr_scan", "android": "https://dc.lft.to/lastmile_qr_scan"}, "is_reserved": 0, "fusion_lat": 0.0, "name": "0b060c1b3f323ecf43375a75d7e399fd", "lat": 38.884494833333335}, {"fusion_lon": 0.0, "bike_id": "93e3fbc9092e1a4d08ec74200f75176f", "lon": -77.027812, "type": "electric_scooter", "is_disabled": 0, "rental_uris": {"ios": "https://dc.lft.to/lastmile_qr_scan", "android": "https://dc.lft.to/lastmile_qr_scan"}, "is_reserved": 0, "fusion_lat": 0.0, "name": "93e3fbc9092e1a4d08ec74200f75176f", "lat": 38.91711016666667}, {"fusion_lon": 0.0, "bike_id": "41626928607cfd6effa965485b7304d7", "lon": -77.0383355, "type": "electric_scooter", "is_disabled": 0, "rental_uris": {"ios": "https://dc.lft.to/lastmile_qr_scan", "android": "https://dc.lft.to/lastmile_qr_scan"}, "is_reserved": 0, "fusion_lat": 0.0, "name": "41626928607cfd6effa965485b7304d7", "lat": 38.90780183333333}, {"fusion_lon": 0.0, "bike_id": "879b06b73e03f292703b10831bc7956f", "lon": -77.02600216666667, "type": "electric_scooter", "is_disabled": 0, "rental_uris": {"ios": "https://dc.lft.to/lastmile_qr_scan", "android": "https://dc.lft.to/lastmile_qr_scan"}, "is_reserved": 0, "fusion_lat": 0.0, "name": "879b06b73e03f292703b10831bc7956f", "lat": 38.916967}, {"fusion_lon": 0.0, "bike_id": "81d903f35b9d885e2ec43f6e14cb1766", "lon": -77.0103395, "type": "electric_scooter", "is_disabled": 0, "rental_uris": {"ios": "https://dc.lft.to/lastmile_qr_scan", "android": "https://dc.lft.to/lastmile_qr_scan"}, "is_reserved": 0, "fusion_lat": 0.0, "name": "81d903f35b9d885e2ec43f6e14cb1766", "lat": 38.897404333333334}, {"fusion_lon": 0.0, "bike_id": "d19b70b304071a3743418a176c066000", "lon": -77.03677983333333, "type": "electric_scooter", "is_disabled": 0, "rental_uris": {"ios": "https://dc.lft.to/lastmile_qr_scan", "android": "https://dc.lft.to/lastmile_qr_scan"}, "is_reserved": 0, "fusion_lat": 0.0, "name": "d19b70b304071a3743418a176c066000", "lat": 38.9002815}, {"fusion_lon": 0.0, "bike_id": "ae19a4bd45c219ec07e64a90afc280c4", "lon": -77.03209916666667, "type": "electric_scooter", "is_disabled": 0, "rental_uris": {"ios": "https://dc.lft.to/lastmile_qr_scan", "android": "https://dc.lft.to/lastmile_qr_scan"}, "is_reserved": 0, "fusion_lat": 0.0, "name": "ae19a4bd45c219ec07e64a90afc280c4", "lat": 38.9018355}, {"fusion_lon": 0.0, "bike_id": "678be17f5fc5b4146111c5c48e766d88", "lon": -77.03476033333334, "type": "electric_scooter", "is_disabled": 0, "rental_uris": {"ios": "https://dc.lft.to/lastmile_qr_scan", "android": "https://dc.lft.to/lastmile_qr_scan"}, "is_reserved": 0, "fusion_lat": 0.0, "name": "678be17f5fc5b4146111c5c48e766d88", "lat": 38.908281}, {"fusion_lon": 0.0, "bike_id": "fca0c40f0d35d0517d4298bfc4490992", "lon": -76.92586566666667, "type": "electric_scooter", "is_disabled": 0, "rental_uris": {"ios": "https://dc.lft.to/lastmile_qr_scan", "android": "https://dc.lft.to/lastmile_qr_scan"}, "is_reserved": 0, "fusion_lat": 0.0, "name": "fca0c40f0d35d0517d4298bfc4490992", "lat": 38.886345}, {"fusion_lon": 0.0, "bike_id": "23c8b37d9060fd98e88d88830f0688c3", "lon": -76.96266383333334, "type": "electric_scooter", "is_disabled": 0, "rental_uris": {"ios": "https://dc.lft.to/lastmile_qr_scan", "android": "https://dc.lft.to/lastmile_qr_scan"}, "is_reserved": 0, "fusion_lat": 0.0, "name": "23c8b37d9060fd98e88d88830f0688c3", "lat": 38.87864166666667}, {"fusion_lon": 0.0, "bike_id": "684cdbf5ed28d379d183cb189d47b5ce", "lon": -77.050075, "type": "electric_scooter", "is_disabled": 0, "rental_uris": {"ios": "https://dc.lft.to/lastmile_qr_scan", "android": "https://dc.lft.to/lastmile_qr_scan"}, "is_reserved": 0, "fusion_lat": 0.0, "name": "684cdbf5ed28d379d183cb189d47b5ce", "lat": 38.899269833333335}, {"fusion_lon": 0.0, "bike_id": "db8a57400435b89057cd3033ee793ea4", "lon": -77.03377633333334, "type": "electric_scooter", "is_disabled": 0, "rental_uris": {"ios": "https://dc.lft.to/lastmile_qr_scan", "android": "https://dc.lft.to/lastmile_qr_scan"}, "is_reserved": 0, "fusion_lat": 0.0, "name": "db8a57400435b89057cd3033ee793ea4", "lat": 38.919632}, {"fusion_lon": 0.0, "bike_id": "358e2e006644a5f9ecbb5ba6fe878c80", "lon": -77.04474033333334, "type": "electric_scooter", "is_disabled": 0, "rental_uris": {"ios": "https://dc.lft.to/lastmile_qr_scan", "android": "https://dc.lft.to/lastmile_qr_scan"}, "is_reserved": 0, "fusion_lat": 0.0, "name": "358e2e006644a5f9ecbb5ba6fe878c80", "lat": 38.919095}, {"fusion_lon": 0.0, "bike_id": "08755705714274310f145351ea86dabf", "lon": -77.03883466666667, "type": "electric_scooter", "is_disabled": 0, "rental_uris": {"ios": "https://dc.lft.to/lastmile_qr_scan", "android": "https://dc.lft.to/lastmile_qr_scan"}, "is_reserved": 0, "fusion_lat": 0.0, "name": "08755705714274310f145351ea86dabf", "lat": 38.906236}, {"fusion_lon": 0.0, "bike_id": "05473186295a6e793688beaf46388c10", "lon": -77.04471483333333, "type": "electric_scooter", "is_disabled": 0, "rental_uris": {"ios": "https://dc.lft.to/lastmile_qr_scan", "android": "https://dc.lft.to/lastmile_qr_scan"}, "is_reserved": 0, "fusion_lat": 0.0, "name": "05473186295a6e793688beaf46388c10", "lat": 38.89937716666667}, {"fusion_lon": 0.0, "bike_id": "5b5d03851ddab8fe36ac8e7085e0caf7", "lon": -77.01369316666667, "type": "electric_scooter", "is_disabled": 0, "rental_uris": {"ios": "https://dc.lft.to/lastmile_qr_scan", "android": "https://dc.lft.to/lastmile_qr_scan"}, "is_reserved": 0, "fusion_lat": 0.0, "name": "5b5d03851ddab8fe36ac8e7085e0caf7", "lat": 38.9287945}, {"fusion_lon": 0.0, "bike_id": "31431392e580cea2e40831f42b05c686", "lon": -76.95758616666667, "type": "electric_scooter", "is_disabled": 0, "rental_uris": {"ios": "https://dc.lft.to/lastmile_qr_scan", "android": "https://dc.lft.to/lastmile_qr_scan"}, "is_reserved": 0, "fusion_lat": 0.0, "name": "31431392e580cea2e40831f42b05c686", "lat": 38.884262666666665}, {"fusion_lon": 0.0, "bike_id": "17dcc1b70a7f2f1bec37c2ee9c83260c", "lon": -77.02776183333333, "type": "electric_scooter", "is_disabled": 0, "rental_uris": {"ios": "https://dc.lft.to/lastmile_qr_scan", "android": "https://dc.lft.to/lastmile_qr_scan"}, "is_reserved": 0, "fusion_lat": 0.0, "name": "17dcc1b70a7f2f1bec37c2ee9c83260c", "lat": 38.88743983333333}, {"fusion_lon": 0.0, "bike_id": "826ef634b8cb9a4cf827dfe2b31e7479", "lon": -76.97745566666667, "type": "electric_bike", "is_disabled": 0, "rental_uris": {"ios": "https://dc.lft.to/lastmile_qr_scan", "android": "https://dc.lft.to/lastmile_qr_scan"}, "is_reserved": 0, "fusion_lat": 0.0, "name": "826ef634b8cb9a4cf827dfe2b31e7479", "lat": 38.865011333333335}, {"fusion_lon": 0.0, "bike_id": "b8788d76b17d0137ee2bb04b89b6b308", "lon": -77.043381, "type": "electric_scooter", "is_disabled": 0, "rental_uris": {"ios": "https://dc.lft.to/lastmile_qr_scan", "android": "https://dc.lft.to/lastmile_qr_scan"}, "is_reserved": 0, "fusion_lat": 0.0, "name": "b8788d76b17d0137ee2bb04b89b6b308", "lat": 38.90783916666667}, {"fusion_lon": 0.0, "bike_id": "60c0010a634a47cc15c610c092bb9bf5", "lon": -77.04214116666667, "type": "electric_scooter", "is_disabled": 0, "rental_uris": {"ios": "https://dc.lft.to/lastmile_qr_scan", "android": "https://dc.lft.to/lastmile_qr_scan"}, "is_reserved": 0, "fusion_lat": 0.0, "name": "60c0010a634a47cc15c610c092bb9bf5", "lat": 38.92114383333333}, {"fusion_lon": 0.0, "bike_id": "272cf8cdb9b0a301c2347f12d8e25208", "lon": -77.05073466666667, "type": "electric_scooter", "is_disabled": 0, "rental_uris": {"ios": "https://dc.lft.to/lastmile_qr_scan", "android": "https://dc.lft.to/lastmile_qr_scan"}, "is_reserved": 0, "fusion_lat": 0.0, "name": "272cf8cdb9b0a301c2347f12d8e25208", "lat": 38.91629283333333}, {"fusion_lon": 0.0, "bike_id": "ee28fd94d7a564b49a4b7f0e9709f6fc", "lon": -77.040354, "type": "electric_bike", "is_disabled": 0, "rental_uris": {"ios": "https://dc.lft.to/lastmile_qr_scan", "android": "https://dc.lft.to/lastmile_qr_scan"}, "is_reserved": 0, "fusion_lat": 0.0, "name": "ee28fd94d7a564b49a4b7f0e9709f6fc", "lat": 38.915575833333335}, {"fusion_lon": 0.0, "bike_id": "29ac51a0e5d3d6300fb2209e26dc7c0b", "lon": -77.024548, "type": "electric_scooter", "is_disabled": 0, "rental_uris": {"ios": "https://dc.lft.to/lastmile_qr_scan", "android": "https://dc.lft.to/lastmile_qr_scan"}, "is_reserved": 0, "fusion_lat": 0.0, "name": "29ac51a0e5d3d6300fb2209e26dc7c0b", "lat": 38.89975366666667}, {"fusion_lon": 0.0, "bike_id": "d3d90bafc0de2b371c001ec5446882cc", "lon": -77.027967, "type": "electric_scooter", "is_disabled": 0, "rental_uris": {"ios": "https://dc.lft.to/lastmile_qr_scan", "android": "https://dc.lft.to/lastmile_qr_scan"}, "is_reserved": 0, "fusion_lat": 0.0, "name": "d3d90bafc0de2b371c001ec5446882cc", "lat": 38.954023666666664}, {"fusion_lon": 0.0, "bike_id": "b157896489146bde4abbaeec62660b16", "lon": -77.05037366666667, "type": "electric_scooter", "is_disabled": 0, "rental_uris": {"ios": "https://dc.lft.to/lastmile_qr_scan", "android": "https://dc.lft.to/lastmile_qr_scan"}, "is_reserved": 0, "fusion_lat": 0.0, "name": "b157896489146bde4abbaeec62660b16", "lat": 38.90533166666667}, {"fusion_lon": 0.0, "bike_id": "eaca580a6f253aafc9ee85930d467dc9", "lon": -77.02937583333333, "type": "electric_scooter", "is_disabled": 0, "rental_uris": {"ios": "https://dc.lft.to/lastmile_qr_scan", "android": "https://dc.lft.to/lastmile_qr_scan"}, "is_reserved": 0, "fusion_lat": 0.0, "name": "eaca580a6f253aafc9ee85930d467dc9", "lat": 38.91026383333333}, {"fusion_lon": 0.0, "bike_id": "ec1948686c13615a4eaeaa751609d831", "lon": -76.994862, "type": "electric_scooter", "is_disabled": 0, "rental_uris": {"ios": "https://dc.lft.to/lastmile_qr_scan", "android": "https://dc.lft.to/lastmile_qr_scan"}, "is_reserved": 0, "fusion_lat": 0.0, "name": "ec1948686c13615a4eaeaa751609d831", "lat": 38.92542233333333}, {"fusion_lon": 0.0, "bike_id": "36639e1e631584a23fa22df72ad48b87", "lon": -77.03843716666667, "type": "electric_scooter", "is_disabled": 0, "rental_uris": {"ios": "https://dc.lft.to/lastmile_qr_scan", "android": "https://dc.lft.to/lastmile_qr_scan"}, "is_reserved": 0, "fusion_lat": 0.0, "name": "36639e1e631584a23fa22df72ad48b87", "lat": 38.908686333333335}, {"fusion_lon": 0.0, "bike_id": "345d0fc1c7e336b2b71599d735801b2f", "lon": -77.08209533333333, "type": "electric_scooter", "is_disabled": 0, "rental_uris": {"ios": "https://dc.lft.to/lastmile_qr_scan", "android": "https://dc.lft.to/lastmile_qr_scan"}, "is_reserved": 0, "fusion_lat": 0.0, "name": "345d0fc1c7e336b2b71599d735801b2f", "lat": 38.92086533333333}, {"fusion_lon": 0.0, "bike_id": "f306fc6da400e612d73acb22d6f9287a", "lon": -77.027234, "type": "electric_scooter", "is_disabled": 0, "rental_uris": {"ios": "https://dc.lft.to/lastmile_qr_scan", "android": "https://dc.lft.to/lastmile_qr_scan"}, "is_reserved": 0, "fusion_lat": 0.0, "name": "f306fc6da400e612d73acb22d6f9287a", "lat": 38.94085883333333}, {"fusion_lon": 0.0, "bike_id": "39328a548d9e28ad5786bac6555c8aee", "lon": -77.03194083333334, "type": "electric_scooter", "is_disabled": 0, "rental_uris": {"ios": "https://dc.lft.to/lastmile_qr_scan", "android": "https://dc.lft.to/lastmile_qr_scan"}, "is_reserved": 0, "fusion_lat": 0.0, "name": "39328a548d9e28ad5786bac6555c8aee", "lat": 38.9082665}, {"fusion_lon": 0.0, "bike_id": "0b62e127e0860ccd28eb067e4a7e6927", "lon": -77.045386, "type": "electric_scooter", "is_disabled": 0, "rental_uris": {"ios": "https://dc.lft.to/lastmile_qr_scan", "android": "https://dc.lft.to/lastmile_qr_scan"}, "is_reserved": 0, "fusion_lat": 0.0, "name": "0b62e127e0860ccd28eb067e4a7e6927", "lat": 38.911127}, {"fusion_lon": 0.0, "bike_id": "7189e60baaa74823e92e0b0d3562bc9d", "lon": -77.05006233333333, "type": "electric_scooter", "is_disabled": 0, "rental_uris": {"ios": "https://dc.lft.to/lastmile_qr_scan", "android": "https://dc.lft.to/lastmile_qr_scan"}, "is_reserved": 0, "fusion_lat": 0.0, "name": "7189e60baaa74823e92e0b0d3562bc9d", "lat": 38.905282},