{"data": {"bikes": [{"fusion_lat": 0.0, "bike_id": "eeacdc9e8c6d57bdd0430bc454860fea", "fusion_lon": 0.0, "lon": -77.04136216666667, "lat": 38.926477, "is_reserved": 0, "is_disabled": 0, "rental_uris": {"android": "https://dc.lft.to/lastmile_qr_scan", "ios": "https://dc.lft.to/lastmile_qr_scan"}, "name": "eeacdc9e8c6d57bdd0430bc454860fea", "type": "electric_scooter"}, {"fusion_lat": 0.0, "bike_id": "4ec08b8414e9bc487cba10ee9103e9b8", "fusion_lon": 0.0, "lon": -77.03448033333333, "lat": 38.93091233333333, "is_reserved": 0, "is_disabled": 0, "rental_uris": {"android": "https://dc.lft.to/lastmile_qr_scan", "ios": "https://dc.lft.to/lastmile_qr_scan"}, "name": "4ec08b8414e9bc487cba10ee9103e9b8", "type": "electric_scooter"}, {"fusion_lat": 0.0, "bike_id": "54ab32077d68ec92643a4b204e8c3660", "fusion_lon": 0.0, "lon": -76.99533083333333, "lat": 38.88369466666666, "is_reserved": 0, "is_disabled": 0, "rental_uris": {"android": "https://dc.lft.to/lastmile_qr_scan", "ios": "https://dc.lft.to/lastmile_qr_scan"}, "name": "54ab32077d68ec92643a4b204e8c3660", "type": "electric_scooter"}, {"fusion_lat": 0.0, "bike_id": "03dffb578dabe09fb8eea1835ef448fe", "fusion_lon": 0.0, "lon": -76.997776, "lat": 38.844263, "is_reserved": 0, "is_disabled": 0, "rental_uris": {"android": "https://dc.lft.to/lastmile_qr_scan", "ios": "https://dc.lft.to/lastmile_qr_scan"}, "name": "03dffb578dabe09fb8eea1835ef448fe", "type": "electric_scooter"}, {"fusion_lat": 0.0, "bike_id": "f310d6cda39fee13895e7b1dc262ee4f", "fusion_lon": 0.0, "lon": -77.0259375, "lat": 38.94199666666667, "is_reserved": 0, "is_disabled": 0, "rental_uris": {"android": "https://dc.lft.to/lastmile_qr_scan", "ios": "https://dc.lft.to/lastmile_qr_scan"}, "name": "f310d6cda39fee13895e7b1dc262ee4f", "type": "electric_scooter"}, {"fusion_lat": 0.0, "bike_id": "c9ad8581d311192dbf274cda8ae8bd92", "fusion_lon": 0.0, "lon": -77.02813433333333, "lat": 38.91427133333333, "is_reserved": 0, "is_disabled": 0, "rental_uris": {"android": "https://dc.lft.to/lastmile_qr_scan", "ios": "https://dc.lft.to/lastmile_qr_scan"}, "name": "c9ad8581d311192dbf274cda8ae8bd92", "type": "electric_scooter"}, {"fusion_lat": 0.0, "bike_id": "aab2a855dcc3740c8bd23039a0847256", "fusion_lon": 0.0, "lon": -77.02234183333333, "lat": 38.892216, "is_reserved": 0, "is_disabled": 0, "rental_uris": {"android": "https://dc.lft.to/lastmile_qr_scan", "ios": "https://dc.lft.to/lastmile_qr_scan"}, "name": "aab2a855dcc3740c8bd23039a0847256", "type": "electric_scooter"}, {"fusion_lat": 0.0, "bike_id": "2a99cb8f38b542a70d008e33ed80a1b0", "fusion_lon": 0.0, "lon": -77.0302045, "lat": 38.918077, "is_reserved": 0, "is_disabled": 0, "rental_uris": {"android": "https://dc.lft.to/lastmile_qr_scan", "ios": "https://dc.lft.to/lastmile_qr_scan"}, "name": "2a99cb8f38b542a70d008e33ed80a1b0", "type": "electric_scooter"}, {"fusion_lat": 0.0, "bike_id": "4764d2d95b621384b54c53ecc8cbcb4c", "fusion_lon": 0.0, "lon": -77.02960233333333, "lat": 38.930631166666664, "is_reserved": 0, "is_disabled": 0, "rental_uris": {"android": "https://dc.lft.to/lastmile_qr_scan", "ios": "https://dc.lft.to/lastmile_qr_scan"}, "name": "4764d2d95b621384b54c53ecc8cbcb4c", "type": "electric_scooter"}, {"fusion_lat": 0.0, "bike_id": "a66962ad188cefc41a5bc15f2cb3b314", "fusion_lon": 0.0, "lon": -77.06746516666666, "lat": 38.903383, "is_reserved": 0, "is_disabled": 0, "rental_uris": {"android": "https://dc.lft.to/lastmile_qr_scan", "ios": "https://dc.lft.to/lastmile_qr_scan"}, "name": "a66962ad188cefc41a5bc15f2cb3b314", "type": "electric_scooter"}, {"fusion_lat": 0.0, "bike_id": "0107f96bc65805f07caea5523ee429b6", "fusion_lon": 0.0, "lon": -77.00115133333334, "lat": 38.907504833333334, "is_reserved": 0, "is_disabled": 0, "rental_uris": {"android": "https://dc.lft.to/lastmile_qr_scan", "ios": "https://dc.lft.to/lastmile_qr_scan"}, "name": "0107f96bc65805f07caea5523ee429b6", "type": "electric_scooter"}, {"fusion_lat": 0.0, "bike_id": "885cd14c7f5e4a4c4eed53731d79c0df", "fusion_lon": 0.0, "lon": -76.97588833333333, "lat": 38.90333866666667, "is_reserved": 0, "is_disabled": 0, "rental_uris": {"android": "https://dc.lft.to/lastmile_qr_scan", "ios": "https://dc.lft.to/lastmile_qr_scan"}, "name": "885cd14c7f5e4a4c4eed53731d79c0df", "type": "electric_scooter"}, {"fusion_lat": 0.0, "bike_id": "cc349ed7c743c76cc9f4dc2be73ef1ab", "fusion_lon": 0.0, "lon": -77.03869166666667, "lat": 38.90278, "is_reserved": 0, "is_disabled": 0, "rental_uris": {"android": "https://dc.lft.to/lastmile_qr_scan", "ios": "https://dc.lft.to/lastmile_qr_scan"}, "name": "cc349ed7c743c76cc9f4dc2be73ef1ab", "type": "electric_scooter"}, {"fusion_lat": 0.0, "bike_id": "29f96afb88f86264942b11602c29de8b", "fusion_lon": 0.0, "lon": -77.03639166666666, "lat": 38.92307233333333, "is_reserved": 0, "is_disabled": 0, "rental_uris": {"android": "https://dc.lft.to/lastmile_qr_scan", "ios": "https://dc.lft.to/lastmile_qr_scan"}, "name": "29f96afb88f86264942b11602c29de8b", "type": "electric_scooter"}, {"fusion_lat": 0.0, "bike_id": "104a196659bd9f25070139d29806a7e9", "fusion_lon": 0.0, "lon": -77.06268833333333, "lat": 38.90493716666667, "is_reserved": 0, "is_disabled": 0, "rental_uris": {"android": "https://dc.lft.to/lastmile_qr_scan", "ios": "https://dc.lft.to/lastmile_qr_scan"}, "name": "104a196659bd9f25070139d29806a7e9", "type": "electric_scooter"}, {"fusion_lat": 0.0, "bike_id": "28bc6ce02b0c9c1cccb6ad85a0098587", "fusion_lon": 0.0, "lon": -77.04164883333333, "lat": 38.905317833333335, "is_reserved": 0, "is_disabled": 0, "rental_uris": {"android": "https://dc.lft.to/lastmile_qr_scan", "ios": "https://dc.lft.to/lastmile_qr_scan"}, "name": "28bc6ce02b0c9c1cccb6ad85a0098587", "type": "electric_scooter"}, {"fusion_lat": 0.0, "bike_id": "6b9a956940ccbdbb7105304ef2afdf99", "fusion_lon": 0.0, "lon": -77.0519835, "lat": 38.9030965, "is_reserved": 0, "is_disabled": 0, "rental_uris": {"android": "https://dc.lft.to/lastmile_qr_scan", "ios": "https://dc.lft.to/lastmile_qr_scan"}, "name": "6b9a956940ccbdbb7105304ef2afdf99", "type": "electric_scooter"}, {"fusion_lat": 0.0, "bike_id": "8132989a9c5e0c6f555fb4a14cc21fc3", "fusion_lon": 0.0, "lon": -77.05395016666667, "lat": 38.92796033333333, "is_reserved": 0, "is_disabled": 0, "rental_uris": {"android": "https://dc.lft.to/lastmile_qr_scan", "ios": "https://dc.lft.to/lastmile_qr_scan"}, "name": "8132989a9c5e0c6f555fb4a14cc21fc3", "type": "electric_scooter"}, {"fusion_lat": 0.0, "bike_id": "469388664ef73b41446f737a0cfd0118", "fusion_lon": 0.0, "lon": -77.0428875, "lat": 38.908934333333335, "is_reserved": 0, "is_disabled": 0, "rental_uris": {"android": "https://dc.lft.to/lastmile_qr_scan", "ios": "https://dc.lft.to/lastmile_qr_scan"}, "name": "469388664ef73b41446f737a0cfd0118", "type": "electric_scooter"}, {"fusion_lat": 0.0, "bike_id": "645afd801feaa67e87461e46124f92f5", "fusion_lon": 0.0, "lon": -77.0368255, "lat": 38.926372666666666, "is_reserved": 0, "is_disabled": 0, "rental_uris": {"android": "https://dc.lft.to/lastmile_qr_scan", "ios": "https://dc.lft.to/lastmile_qr_scan"}, "name": "645afd801feaa67e87461e46124f92f5", "type": "electric_scooter"}, {"fusion_lat": 0.0, "bike_id": "c3d5fe96e98b3274f948f6534b7e0e9b", "fusion_lon": 0.0, "lon": -77.03863016666666, "lat": 38.911984333333336, "is_reserved": 0, "is_disabled": 0, "rental_uris": {"android": "https://dc.lft.to/lastmile_qr_scan", "ios": "https://dc.lft.to/lastmile_qr_scan"}, "name": "c3d5fe96e98b3274f948f6534b7e0e9b", "type": "electric_scooter"}, {"fusion_lat": 0.0, "bike_id": "d7b2102625444c6f963a4a63284aadbf", "fusion_lon": 0.0, "lon": -77.03822066666666, "lat": 38.91044866666667, "is_reserved": 0, "is_disabled": 0, "rental_uris": {"android": "https://dc.lft.to/lastmile_qr_scan", "ios": "https://dc.lft.to/lastmile_qr_scan"}, "name": "d7b2102625444c6f963a4a63284aadbf", "type": "electric_scooter"}, {"fusion_lat": 0.0, "bike_id": "01d22b257b3484899cf4de914c0b2795", "fusion_lon": 0.0, "lon": -76.9547025, "lat": 38.886396833333336, "is_reserved": 0, "is_disabled": 0, "rental_uris": {"android": "https://dc.lft.to/lastmile_qr_scan", "ios": "https://dc.lft.to/lastmile_qr_scan"}, "name": "01d22b257b3484899cf4de914c0b2795", "type": "electric_scooter"}, {"fusion_lat": 0.0, "bike_id": "d3dd8250171c2a0cac8ddfb8a1082f5b", "fusion_lon": 0.0, "lon": -77.056877, "lat": 38.86488833333333, "is_reserved": 0, "is_disabled": 0, "rental_uris": {"android": "https://dc.lft.to/lastmile_qr_scan", "ios": "https://dc.lft.to/lastmile_qr_scan"}, "name": "d3dd8250171c2a0cac8ddfb8a1082f5b", "type": "electric_bike"}, {"fusion_lat": 0.0, "bike_id": "04a48fe6e3592c7cf5f7eb45198e1368", "fusion_lon": 0.0, "lon": -77.0300365, "lat": 38.895932, "is_reserved": 0, "is_disabled": 0, "rental_uris": {"android": "https://dc.lft.to/lastmile_qr_scan", "ios": "https://dc.lft.to/lastmile_qr_scan"}, "name": "04a48fe6e3592c7cf5f7eb45198e1368", "type": "electric_scooter"}, {"fusion_lat": 0.0, "bike_id": "15e933d62fe6ed2efdf9c7ddc3d699d1", "fusion_lon": 0.0, "lon": -77.0334385, "lat": 38.9013505, "is_reserved": 0, "is_disabled": 0, "rental_uris": {"android": "https://dc.lft.to/lastmile_qr_scan", "ios": "https://dc.lft.to/lastmile_qr_scan"}, "name": "15e933d62fe6ed2efdf9c7ddc3d699d1", "type": "electric_scooter"}, {"fusion_lat": 0.0, "bike_id": "22a93c57551707451af2bea829a80175", "fusion_lon": 0.0, "lon": -77.02657666666667, "lat": 38.92782733333333, "is_reserved": 0, "is_disabled": 0, "rental_uris": {"android": "https://dc.lft.to/lastmile_qr_scan", "ios": "https://dc.lft.to/lastmile_qr_scan"}, "name": "22a93c57551707451af2bea829a80175", "type": "electric_scooter"}, {"fusion_lat": 0.0, "bike_id": "06f9d4ea775bee4b25ff843f7549040f", "fusion_lon": 0.0, "lon": -77.031884, "lat": 38.91744216666667, "is_reserved": 0, "is_disabled": 0, "rental_uris": {"android": "https://dc.lft.to/lastmile_qr_scan", "ios": "https://dc.lft.to/lastmile_qr_scan"}, "name": "06f9d4ea775bee4b25ff843f7549040f", "type": "electric_scooter"}, {"fusion_lat": 0.0, "bike_id": "6258861977e8a6f7399892f4f9f2c7fc", "fusion_lon": 0.0, "lon": -77.02815866666667, "lat": 38.911321, "is_reserved": 0, "is_disabled": 0, "rental_uris": {"android": "https://dc.lft.to/lastmile_qr_scan", "ios": "https://dc.lft.to/lastmile_qr_scan"}, "name": "6258861977e8a6f7399892f4f9f2c7fc", "type": "electric_scooter"}, {"fusion_lat": 0.0, "bike_id": "8cd1ed6d56a13891b2deb0f13683abd5", "fusion_lon": 0.0, "lon": -77.00043466666666, "lat": 38.96798666666667, "is_reserved": 0, "is_disabled": 0, "rental_uris": {"android": "https://dc.lft.to/lastmile_qr_scan", "ios": "https://dc.lft.to/lastmile_qr_scan"}, "name": "8cd1ed6d56a13891b2deb0f13683abd5", "type": "electric_bike"}, {"fusion_lat": 0.0, "bike_id": "7c9c5830823f166148ce88197b4f10d3", "fusion_lon": 0.0, "lon": -77.036711, "lat": 38.922742, "is_reserved": 0, "is_disabled": 0, "rental_uris": {"android": "https://dc.lft.to/lastmile_qr_scan", "ios": "https://dc.lft.to/lastmile_qr_scan"}, "name": "7c9c5830823f166148ce88197b4f10d3", "type": "electric_scooter"}, {"fusion_lat": 0.0, "bike_id": "6b33274c3810e7b829eb3fa57c3998f0", "fusion_lon": 0.0, "lon": -77.02385683333334, "lat": 38.892360333333336, "is_reserved": 0, "is_disabled": 0, "rental_uris": {"android": "https://dc.lft.to/lastmile_qr_scan", "ios": "https://dc.lft.to/lastmile_qr_scan"}, "name": "6b33274c3810e7b829eb3fa57c3998f0", "type": "electric_scooter"}, {"fusion_lat": 0.0, "bike_id": "29da121d740c6595fc50f7d599b21172", "fusion_lon": 0.0, "lon": -77.002008, "lat": 38.90243516666666, "is_reserved": 0, "is_disabled": 0, "rental_uris": {"android": "https://dc.lft.to/lastmile_qr_scan", "ios": "https://dc.lft.to/lastmile_qr_scan"}, "name": "29da121d740c6595fc50f7d599b21172", "type": "electric_scooter"}, {"fusion_lat": 0.0, "bike_id": "f439ec7bb1f8f43aefbb21e1c77d1c1c", "fusion_lon": 0.0, "lon": -77.05043083333334, "lat": 38.92361283333334, "is_reserved": 0, "is_disabled": 0, "rental_uris": {"android": "https://dc.lft.to/lastmile_qr_scan", "ios": "https://dc.lft.to/lastmile_qr_scan"}, "name": "f439ec7bb1f8f43aefbb21e1c77d1c1c", "type": "electric_scooter"}, {"fusion_lat": 0.0, "bike_id": "76b3701e385d965eab1b16a58baa13c3", "fusion_lon": 0.0, "lon": -77.0366215, "lat": 38.9213935, "is_reserved": 0, "is_disabled": 0, "rental_uris": {"android": "https://dc.lft.to/lastmile_qr_scan", "ios": "https://dc.lft.to/lastmile_qr_scan"}, "name": "76b3701e385d965eab1b16a58baa13c3", "type": "electric_scooter"}, {"fusion_lat": 0.0, "bike_id": "f6e503f3a00b4d8cb8901da4d1d21f5b", "fusion_lon": 0.0, "lon": -77.03879466666666, "lat": 38.92962933333333, "is_reserved": 0, "is_disabled": 0, "rental_uris": {"android": "https://dc.lft.to/lastmile_qr_scan", "ios": "https://dc.lft.to/lastmile_qr_scan"}, "name": "f6e503f3a00b4d8cb8901da4d1d21f5b", "type": "electric_scooter"}, {"fusion_lat": 0.0, "bike_id": "649e05e02d896cd8f060b3219491e088", "fusion_lon": 0.0, "lon": -77.02839683333333, "lat": 38.925833833333336, "is_reserved": 0, "is_disabled": 0, "rental_uris": {"android": "https://dc.lft.to/lastmile_qr_scan", "ios": "https://dc.lft.to/lastmile_qr_scan"}, "name": "649e05e02d896cd8f060b3219491e088", "type": "electric_scooter"}, {"fusion_lat": 0.0, "bike_id": "55452f7b1021b720cff9a62fb2aece0a", "fusion_lon": 0.0, "lon": -77.032083, "lat": 38.896266833333335, "is_reserved": 0, "is_disabled": 0, "rental_uris": {"android": "https://dc.lft.to/lastmile_qr_scan", "ios": "https://dc.lft.to/lastmile_qr_scan"}, "name": "55452f7b1021b720cff9a62fb2aece0a", "type": "electric_scooter"}, {"fusion_lat": 0.0, "bike_id": "828f595698c90287cbfe9ba30cfc28a5", "fusion_lon": 0.0, "lon": -77.03203816666667, "lat": 38.90459633333333, "is_reserved": 0, "is_disabled": 0, "rental_uris": {"android": "https://dc.lft.to/lastmile_qr_scan", "ios": "https://dc.lft.to/lastmile_qr_scan"}, "name": "828f595698c90287cbfe9ba30cfc28a5", "type": "electric_scooter"}, {"fusion_lat": 0.0, "bike_id": "4db221e160304dfe7d7a0b21b4406dbd", "fusion_lon": 0.0, "lon": -77.05090966666667, "lat": 38.90178483333333, "is_reserved": 0, "is_disabled": 0, "rental_uris": {"android": "https://dc.lft.to/lastmile_qr_scan", "ios": "https://dc.lft.to/lastmile_qr_scan"}, "name": "4db221e160304dfe7d7a0b21b4406dbd", "type": "electric_scooter"}, {"fusion_lat": 0.0, "bike_id": "dac068313e5ed4e2f2901ce61743e7d5", "fusion_lon": 0.0, "lon": -77.02058016666666, "lat": 38.92366533333333, "is_reserved": 0, "is_disabled": 0, "rental_uris": {"android": "https://dc.lft.to/lastmile_qr_scan", "ios": "https://dc.lft.to/lastmile_qr_scan"}, "name": "dac068313e5ed4e2f2901ce61743e7d5", "type": "electric_scooter"}, {"fusion_lat": 0.0, "bike_id": "ee594198c9cc7020e8aeaf03a5018c26", "fusion_lon": 0.0, "lon": -77.02487366666666, "lat": 38.91694483333333, "is_reserved": 0, "is_disabled": 0, "rental_uris": {"android": "https://dc.lft.to/lastmile_qr_scan", "ios": "https://dc.lft.to/lastmile_qr_scan"}, "name": "ee594198c9cc7020e8aeaf03a5018c26", "type": "electric_scooter"}, {"fusion_lat": 0.0, "bike_id": "1c0374710fbf850195f523546bb20f51", "fusion_lon": 0.0, "lon": -77.06711983333334, "lat": 38.91443116666667, "is_reserved": 0, "is_disabled": 0, "rental_uris": {"android": "https://dc.lft.to/lastmile_qr_scan", "ios": "https://dc.lft.to/lastmile_qr_scan"}, "name": "1c0374710fbf850195f523546bb20f51", "type": "electric_scooter"}, {"fusion_lat": 0.0, "bike_id": "e7735d0a2a01e2295af6368147a04652", "fusion_lon": 0.0, "lon": -77.055049, "lat": 38.92981616666667, "is_reserved": 0, "is_disabled": 0, "rental_uris": {"android": "https://dc.lft.to/lastmile_qr_scan", "ios": "https://dc.lft.to/lastmile_qr_scan"}, "name": "e7735d0a2a01e2295af6368147a04652", "type": "electric_scooter"}, {"fusion_lat": 0.0, "bike_id": "5d05639de23a02940e731bf7c82aa5d1", "fusion_lon": 0.0, "lon": -77.03041383333333, "lat": 38.917088166666666, "is_reserved": 0, "is_disabled": 0, "rental_uris": {"android": "https://dc.lft.to/lastmile_qr_scan", "ios": "https://dc.lft.to/lastmile_qr_scan"}, "name": "5d05639de23a02940e731bf7c82aa5d1", "type": "electric_scooter"}, {"fusion_lat": 0.0, "bike_id": "38cee77cc772d0bd25156f37a0bbf00a", "fusion_lon": 0.0, "lon": -77.04408766666667, "lat": 38.900154666666666, "is_reserved": 0, "is_disabled": 0, "rental_uris": {"android": "https://dc.lft.to/lastmile_qr_scan", "ios": "https://dc.lft.to/lastmile_qr_scan"}, "name": "38cee77cc772d0bd25156f37a0bbf00a", "type": "electric_scooter"}, {"fusion_lat": 0.0, "bike_id": "f0a506a0341a078b1b51fda71cf979ca", "fusion_lon": 0.0, "lon": -77.03276316666667, "lat": 38.92001166666667, "is_reserved": 0, "is_disabled": 0, "rental_uris": {"android": "https://dc.lft.to/lastmile_qr_scan", "ios": "https://dc.lft.to/lastmile_qr_scan"}, "name": "f0a506a0341a078b1b51fda71cf979ca", "type": "electric_scooter"}, {"fusion_lat": 0.0, "bike_id": "3da29a62dfcaa71c80e319bfee48dff8", "fusion_lon": 0.0, "lon": -77.03176533333334, "lat": 38.91398, "is_reserved": 0, "is_disabled": 0, "rental_uris": {"android": "https://dc.lft.to/lastmile_qr_scan", "ios": "https://dc.lft.to/lastmile_qr_scan"}, "name": "3da29a62dfcaa71c80e319bfee48dff8", "type": "electric_scooter"}, {"fusion_lat": 0.0, "bike_id": "5d4c29526c72444543f82dbded680b39", "fusion_lon": 0.0, "lon": -77.01411766666666, "lat": 38.91479983333333, "is_reserved": 0, "is_disabled": 0, "rental_uris": {"android": "https://dc.lft.to/lastmile_qr_scan", "ios": "https://dc.lft.to/lastmile_qr_scan"}, "name": "5d4c29526c72444543f82dbded680b39", "type": "electric_scooter"}, {"fusion_lat": 0.0, "bike_id": "0acf632f3473af02a517e75724d100f4", "fusion_lon": 0.0, "lon": -77.11283216666666, "lat": 39.047539, "is_reserved": 0, "is_disabled": 0, "rental_uris": {"android": "https://dc.lft.to/lastmile_qr_scan", "ios": "https://dc.lft.to/lastmile_qr_scan"}, "name": "0acf632f3473af02a517e75724d100f4", "type": "electric_bike"}, {"fusion_lat": 0.0, "bike_id": "95402b2de6e0d64d49162d0778dea57d", "fusion_lon": 0.0, "lon": -77.03813083333333, "lat": 38.909682333333336, "is_reserved": 0, "is_disabled": 0, "rental_uris": {"android": "https://dc.lft.to/lastmile_qr_scan", "ios": "https://dc.lft.to/lastmile_qr_scan"}, "name": "95402b2de6e0d64d49162d0778dea57d", "type": "electric_scooter"}, {"fusion_lat": 0.0, "bike_id": "0631a23a506d3d10151085ff4dbd6fd8", "fusion_lon": 0.0, "lon": -76.97868383333333, "lat": 38.88304, "is_reserved": 0, "is_disabled": 0, "rental_uris": {"android": "https://dc.lft.to/lastmile_qr_scan", "ios": "https://dc.lft.to/lastmile_qr_scan"}, "name": "0631a23a506d3d10151085ff4dbd6fd8", "type": "electric_scooter"}, {"fusion_lat": 0.0, "bike_id": "b46d22a4247782e3564eb8dc7f1d3ea9", "fusion_lon": 0.0, "lon": -77.0176485, "lat": 38.887305166666664, "is_reserved": 0, "is_disabled": 0, "rental_uris": {"android": "https://dc.lft.to/lastmile_qr_scan", "ios": "https://dc.lft.to/lastmile_qr_scan"}, "name": "b46d22a4247782e3564eb8dc7f1d3ea9", "type": "electric_scooter"}, {"fusion_lat": 0.0, "bike_id": "5b36061d1b3f8a8d15007ae0a48d3cbc", "fusion_lon": 0.0, "lon": -77.0255925, "lat": 38.9417185, "is_reserved": 0, "is_disabled": 0, "rental_uris": {"android": "https://dc.lft.to/lastmile_qr_scan", "ios": "https://dc.lft.to/lastmile_qr_scan"}, "name": "5b36061d1b3f8a8d15007ae0a48d3cbc", "type": "electric_scooter"}, {"fusion_lat": 0.0, "bike_id": "dbe2bc1283783062f1b8ac9ace8c7e03", "fusion_lon": 0.0, "lon": -77.02965433333334, "lat": 38.91275616666667, "is_reserved": 0, "is_disabled": 0, "rental_uris": {"android": "https://dc.lft.to/lastmile_qr_scan", "ios": "https://dc.lft.to/lastmile_qr_scan"}, "name": "dbe2bc1283783062f1b8ac9ace8c7e03", "type": "electric_scooter"}, {"fusion_lat": 0.0, "bike_id": "987f80bb7680fd9eef9fd68fbc55d45b", "fusion_lon": 0.0, "lon": -77.013645, "lat": 38.92875266666667, "is_reserved": 0, "is_disabled": 0, "rental_uris": {"android": "https://dc.lft.to/lastmile_qr_scan", "ios": "https://dc.lft.to/lastmile_qr_scan"}, "name": "987f80bb7680fd9eef9fd68fbc55d45b", "type": "electric_scooter"}, {"fusion_lat": 0.0, "bike_id": "514279ee35c62c817538f14fa1980b7c", "fusion_lon": 0.0, "lon": -77.06307733333334, "lat": 38.86549333333333, "is_reserved": 0, "is_disabled": 0, "rental_uris": {"android": "https://dc.lft.to/lastmile_qr_scan", "ios": "https://dc.lft.to/lastmile_qr_scan"}, "name": "514279ee35c62c817538f14fa1980b7c", "type": "electric_bike"}, {"fusion_lat": 0.0, "bike_id": "62263c27452f33d68793c88818e48020", "fusion_lon": 0.0, "lon": -77.038637, "lat": 38.92017083333333, "is_reserved": 0, "is_disabled": 0, "rental_uris": {"android": "https://dc.lft.to/lastmile_qr_scan", "ios": "https://dc.lft.to/lastmile_qr_scan"}, "name": "62263c27452f33d68793c88818e48020", "type": "electric_scooter"}, {"fusion_lat": 0.0, "bike_id": "160377c37592fba062b223a4e50938c5", "fusion_lon": 0.0, "lon": -77.0344285, "lat": 38.918011, "is_reserved": 0, "is_disabled": 0, "rental_uris": {"android": "https://dc.lft.to/lastmile_qr_scan", "ios": "https://dc.lft.to/lastmile_qr_scan"}, "name": "160377c37592fba062b223a4e50938c5", "type": "electric_scooter"}, {"fusion_lat": 0.0, "bike_id": "6e3a18e9e2de9fb9517323f102bd8f92", "fusion_lon": 0.0, "lon": -76.98588566666666, "lat": 38.8840055, "is_reserved": 0, "is_disabled": 0, "rental_uris": {"android": "https://dc.lft.to/lastmile_qr_scan", "ios": "https://dc.lft.to/lastmile_qr_scan"}, "name": "6e3a18e9e2de9fb9517323f102bd8f92", "type": "electric_scooter"}, {"fusion_lat": 0.0, "bike_id": "c543237570d32ce7eef2eaabe4998484", "fusion_lon": 0.0, "lon": -77.064436, "lat": 38.90519116666667, "is_reserved": 0, "is_disabled": 0, "rental_uris": {"android": "https://dc.lft.to/lastmile_qr_scan", "ios": "https://dc.lft.to/lastmile_qr_scan"}, "name": "c543237570d32ce7eef2eaabe4998484", "type": "electric_scooter"}, {"fusion_lat": 0.0, "bike_id": "3520394d0a37ababf8306f34280bde2a", "fusion_lon": 0.0, "lon": -77.04976983333333, "lat": 39.0629215, "is_reserved": 0, "is_disabled": 0, "rental_uris": {"android": "https://dc.lft.to/lastmile_qr_scan", "ios": "https://dc.lft.to/lastmile_qr_scan"}, "name": "3520394d0a37ababf8306f34280bde2a", "type": "electric_bike"}, {"fusion_lat": 0.0, "bike_id": "add78f6e7101eaff41602bb838fa4e14", "fusion_lon": 0.0, "lon": -77.05529066666666, "lat": 38.92664083333333, "is_reserved": 0, "is_disabled": 0, "rental_uris": {"android": "https://dc.lft.to/lastmile_qr_scan", "ios": "https://dc.lft.to/lastmile_qr_scan"}, "name": "add78f6e7101eaff41602bb838fa4e14", "type": "electric_scooter"}, {"fusion_lat": 0.0, "bike_id": "27cffd9215443ab48bc2a7daba8a346c", "fusion_lon": 0.0, "lon": -77.048041, "lat": 38.9140495, "is_reserved": 0, "is_disabled": 0, "rental_uris": {"android": "https://dc.lft.to/lastmile_qr_scan", "ios": "https://dc.lft.to/lastmile_qr_scan"}, "name": "27cffd9215443ab48bc2a7daba8a346c", "type": "electric_scooter"}, {"fusion_lat": 0.0, "bike_id": "56d6c3470facc0e0ff596d1cd9e14c13", "fusion_lon": 0.0, "lon": -77.050466, "lat": 38.923781, "is_reserved": 0, "is_disabled": 0, "rental_uris": {"android": "https://dc.lft.to/lastmile_qr_scan", "ios": "https://dc.lft.to/lastmile_qr_scan"}, "name": "56d6c3470facc0e0ff596d1cd9e14c13", "type": "electric_scooter"}, {"fusion_lat": 0.0, "bike_id": "fc414a105ae7e067ef8f5a58b6fcfc74", "fusion_lon": 0.0, "lon": -76.98237266666666, "lat": 38.8886525, "is_reserved": 0, "is_disabled": 0, "rental_uris": {"android": "https://dc.lft.to/lastmile_qr_scan", "ios": "https://dc.lft.to/lastmile_qr_scan"}, "name": "fc414a105ae7e067ef8f5a58b6fcfc74", "type": "electric_scooter"}, {"fusion_lat": 0.0, "bike_id": "6756d7bf05cb684a3f7156aad45886a7", "fusion_lon": 0.0, "lon": -77.04181483333333, "lat": 38.8922475, "is_reserved": 0, "is_disabled": 0, "rental_uris": {"android": "https://dc.lft.to/lastmile_qr_scan", "ios": "https://dc.lft.to/lastmile_qr_scan"}, "name": "6756d7bf05cb684a3f7156aad45886a7", "type": "electric_scooter"}, {"fusion_lat": 0.0, "bike_id": "b5224646b48a212d3b913b3e41b93244", "fusion_lon": 0.0, "lon": -77.03831816666667, "lat": 38.91268933333333, "is_reserved": 0, "is_disabled": 0, "rental_uris": {"android": "https://dc.lft.to/lastmile_qr_scan", "ios": "https://dc.lft.to/lastmile_qr_scan"}, "name": "b5224646b48a212d3b913b3e41b93244", "type": "electric_scooter"}, {"fusion_lat": 0.0, "bike_id": "f2d0d8d75205c67c68877ce704a4d5c7", "fusion_lon": 0.0, "lon": -77.01784383333333, "lat": 38.88596016666666, "is_reserved": 0, "is_disabled": 0, "rental_uris": {"android": "https://dc.lft.to/lastmile_qr_scan", "ios": "https://dc.lft.to/lastmile_qr_scan"}, "name": "f2d0d8d75205c67c68877ce704a4d5c7", "type": "electric_scooter"}, {"fusion_lat": 0.0, "bike_id": "5ae2288dec440216cd6922e4ef4eb975", "fusion_lon": 0.0, "lon": -77.04159683333333, "lat": 38.912528, "is_reserved": 0, "is_disabled": 0, "rental_uris": {"android": "https://dc.lft.to/lastmile_qr_scan", "ios": "https://dc.lft.to/lastmile_qr_scan"}, "name": "5ae2288dec440216cd6922e4ef4eb975", "type": "electric_scooter"}, {"fusion_lat": 0.0, "bike_id": "415c85dab87da15730fefcfa6db42127", "fusion_lon": 0.0, "lon": -77.03809616666666, "lat": 38.92071116666666, "is_reserved": 0, "is_disabled": 0, "rental_uris": {"android": "https://dc.lft.to/lastmile_qr_scan", "ios": "https://dc.lft.to/lastmile_qr_scan"}, "name": "415c85dab87da15730fefcfa6db42127", "type": "electric_scooter"}, {"fusion_lat": 0.0, "bike_id": "efcbf81d966857667270841b7ac1bb31", "fusion_lon": 0.0, "lon": -76.9776875, "lat": 38.951529666666666, "is_reserved": 0, "is_disabled": 0, "rental_uris": {"android": "https://dc.lft.to/lastmile_qr_scan", "ios": "https://dc.lft.to/lastmile_qr_scan"}, "name": "efcbf81d966857667270841b7ac1bb31", "type": "electric_bike"}, {"fusion_lat": 0.0, "bike_id": "db8df98ba74f854401de6506345d2a2c", "fusion_lon": 0.0, "lon": -76.9994695, "lat": 38.921038833333334, "is_reserved": 0, "is_disabled": 0, "rental_uris": {"android": "https://dc.lft.to/lastmile_qr_scan", "ios": "https://dc.lft.to/lastmile_qr_scan"}, "name": "db8df98ba74f854401de6506345d2a2c", "type": "electric_scooter"}, {"fusion_lat": 0.0, "bike_id": "ee537a80a3b70d8a26e9f1a713f016db", "fusion_lon": 0.0, "lon": -77.033343, "lat": 38.909770333333334, "is_reserved": 0, "is_disabled": 0, "rental_uris": {"android": "https://dc.lft.to/lastmile_qr_scan", "ios": "https://dc.lft.to/lastmile_qr_scan"}, "name": "ee537a80a3b70d8a26e9f1a713f016db", "type": "electric_scooter"}, {"fusion_lat": 0.0, "bike_id": "2afcb9c173b65071b47e0833dcdfb68a", "fusion_lon": 0.0, "lon": -77.02591916666667, "lat": 38.941975166666666, "is_reserved": 0, "is_disabled": 0, "rental_uris": {"android": "https://dc.lft.to/lastmile_qr_scan", "ios": "https://dc.lft.to/lastmile_qr_scan"}, "name": "2afcb9c173b65071b47e0833dcdfb68a", "type": "electric_scooter"}, {"fusion_lat": 0.0, "bike_id": "afef572338e500bd782e2d09ab6ac6da", "fusion_lon": 0.0, "lon": -77.04374083333333, "lat": 38.9209805, "is_reserved": 0, "is_disabled": 0, "rental_uris": {"android": "https://dc.lft.to/lastmile_qr_scan", "ios": "https://dc.lft.to/lastmile_qr_scan"}, "name": "afef572338e500bd782e2d09ab6ac6da", "type": "electric_scooter"}, {"fusion_lat": 0.0, "bike_id": "1a42d4c4711fa5c73c82ba5ea28ce171", "fusion_lon": 0.0, "lon": -77.00728466666666, "lat": 38.88494433333334, "is_reserved": 0, "is_disabled": 0, "rental_uris": {"android": "https://dc.lft.to/lastmile_qr_scan", "ios": "https://dc.lft.to/lastmile_qr_scan"}, "name": "1a42d4c4711fa5c73c82ba5ea28ce171", "type": "electric_scooter"}, {"fusion_lat": 0.0, "bike_id": "fb58d383eaac1ebfaa6359e7555dd853", "fusion_lon": 0.0, "lon": -77.0320885, "lat": 38.89880433333333, "is_reserved": 0, "is_disabled": 0, "rental_uris": {"android": "https://dc.lft.to/lastmile_qr_scan", "ios": "https://dc.lft.to/lastmile_qr_scan"}, "name": "fb58d383eaac1ebfaa6359e7555dd853", "type": "electric_scooter"}, {"fusion_lat": 0.0, "bike_id": "5c83b530c4a99b7edc2fe937d1da4cc9", "fusion_lon": 0.0, "lon": -77.0095905, "lat": 38.953429666666665, "is_reserved": 0, "is_disabled": 0, "rental_uris": {"android": "https://dc.lft.to/lastmile_qr_scan", "ios": "https://dc.lft.to/lastmile_qr_scan"}, "name": "5c83b530c4a99b7edc2fe937d1da4cc9", "type": "electric_bike"}, {"fusion_lat": 0.0, "bike_id": "58747355434923a86c4ac648ffd9cec6", "fusion_lon": 0.0, "lon": -76.9852715, "lat": 38.86688433333333, "is_reserved": 0, "is_disabled": 0, "rental_uris": {"android": "https://dc.lft.to/lastmile_qr_scan", "ios": "https://dc.lft.to/lastmile_qr_scan"}, "name": "58747355434923a86c4ac648ffd9cec6", "type": "electric_scooter"}, {"fusion_lat": 0.0, "bike_id": "ad7e1d4961467b5ce821286762d08ae0", "fusion_lon": 0.0, "lon": -77.07473116666667, "lat": 38.96372616666667, "is_reserved": 0, "is_disabled": 0, "rental_uris": {"android": "https://dc.lft.to/lastmile_qr_scan", "ios": "https://dc.lft.to/lastmile_qr_scan"}, "name": "ad7e1d4961467b5ce821286762d08ae0", "type": "electric_scooter"}, {"fusion_lat": 0.0, "bike_id": "1a39a55075b41a4fed395a05876a8b31", "fusion_lon": 0.0, "lon": -77.03716616666667, "lat": 38.92648233333333, "is_reserved": 0, "is_disabled": 0, "rental_uris": {"android": "https://dc.lft.to/lastmile_qr_scan", "ios": "https://dc.lft.to/lastmile_qr_scan"}, "name": "1a39a55075b41a4fed395a05876a8b31", "type": "electric_scooter"}, {"fusion_lat": 0.0, "bike_id": "024a0e504c0dd7d7c7073f340c53ba9a", "fusion_lon": 0.0, "lon": -77.05394716666666, "lat": 38.92790433333333, "is_reserved": 0, "is_disabled": 0, "rental_uris": {"android": "https://dc.lft.to/lastmile_qr_scan", "ios": "https://dc.lft.to/lastmile_qr_scan"}, "name": "024a0e504c0dd7d7c7073f340c53ba9a", "type": "electric_scooter"}, {"fusion_lat": 0.0, "bike_id": "55d819b5f85bf79088b900dc0ed9e476", "fusion_lon": 0.0, "lon": -77.02185366666667, "lat": 38.909773333333334, "is_reserved": 0, "is_disabled": 0, "rental_uris": {"android": "https://dc.lft.to/lastmile_qr_scan", "ios": "https://dc.lft.to/lastmile_qr_scan"}, "name": "55d819b5f85bf79088b900dc0ed9e476", "type": "electric_scooter"}, {"fusion_lat": 0.0, "bike_id": "9531980275ec5431ba2f6887da12a2ef", "fusion_lon": 0.0, "lon": -77.0255435, "lat": 38.90966866666667, "is_reserved": 0, "is_disabled": 0, "rental_uris": {"android": "https://dc.lft.to/lastmile_qr_scan", "ios": "https://dc.lft.to/lastmile_qr_scan"}, "name": "9531980275ec5431ba2f6887da12a2ef", "type": "electric_scooter"}, {"fusion_lat": 0.0, "bike_id": "318473e5aa09a80e298d3453c0595d43", "fusion_lon": 0.0, "lon": -77.02796666666667, "lat": 38.94180133333333, "is_reserved": 0, "is_disabled": 0, "rental_uris": {"android": "https://dc.lft.to/lastmile_qr_scan", "ios": "https://dc.lft.to/lastmile_qr_scan"}, "name": "318473e5aa09a80e298d3453c0595d43", "type": "electric_scooter"}, {"fusion_lat": 0.0, "bike_id": "70dc757f4e03fdebae91a268375bae99", "fusion_lon": 0.0, "lon": -77.11575333333333, "lat": 38.993468166666666, "is_reserved": 0, "is_disabled": 0, "rental_uris": {"android": "https://dc.lft.to/lastmile_qr_scan", "ios": "https://dc.lft.to/lastmile_qr_scan"}, "name": "70dc757f4e03fdebae91a268375bae99", "type": "electric_bike"}, {"fusion_lat": 0.0, "bike_id": "2815e93d646576859782246f6a15c430", "fusion_lon": 0.0, "lon": -77.03202166666667, "lat": 38.91095466666667, "is_reserved": 0, "is_disabled": 0, "rental_uris": {"android": "https://dc.lft.to/lastmile_qr_scan", "ios": "https://dc.lft.to/lastmile_qr_scan"}, "name": "2815e93d646576859782246f6a15c430", "type": "electric_scooter"}, {"fusion_lat": 0.0, "bike_id": "861c3a6402d654cff31fb6513c670d8c", "fusion_lon": 0.0, "lon": -77.02403083333333, "lat": 38.891919666666666, "is_reserved": 0, "is_disabled": 0, "rental_uris": {"android": "https://dc.lft.to/lastmile_qr_scan", "ios": "https://dc.lft.to/lastmile_qr_scan"}, "name": "861c3a6402d654cff31fb6513c670d8c", "type": "electric_scooter"}, {"fusion_lat": 0.0, "bike_id": "f31f50747f4c06fc1192ddcf672db1e9", "fusion_lon": 0.0, "lon": -77.03385216666666, "lat": 38.9215895, "is_reserved": 0, "is_disabled": 0, "rental_uris": {"android": "https://dc.lft.to/lastmile_qr_scan", "ios": "https://dc.lft.to/lastmile_qr_scan"}, "name": "f31f50747f4c06fc1192ddcf672db1e9", "type": "electric_scooter"}, {"fusion_lat": 0.0, "bike_id": "a5c219d03deebb3c0928be583e487eab", "fusion_lon": 0.0, "lon": -77.0298135, "lat": 38.923125, "is_reserved": 0, "is_disabled": 0, "rental_uris": {"android": "https://dc.lft.to/lastmile_qr_scan", "ios": "https://dc.lft.to/lastmile_qr_scan"}, "name": "a5c219d03deebb3c0928be583e487eab", "type": "electric_scooter"}, {"fusion_lat": 0.0, "bike_id": "e4872765dff3e7e117fb92e3d71d80e7", "fusion_lon": 0.0, "lon": -76.97725816666667, "lat": 38.8646925, "is_reserved": 0, "is_disabled": 0, "rental_uris": {"android": "https://dc.lft.to/lastmile_qr_scan", "ios": "https://dc.lft.to/lastmile_qr_scan"}, "name": "e4872765dff3e7e117fb92e3d71d80e7", "type": "electric_scooter"}, {"fusion_lat": 0.0, "bike_id": "cabecdeae0e3cb01483bf2cba21a83a3", "fusion_lon": 0.0, "lon": -76.97328333333333, "lat": 38.904085333333335, "is_reserved": 0, "is_disabled": 0, "rental_uris": {"android": "https://dc.lft.to/lastmile_qr_scan", "ios": "https://dc.lft.to/lastmile_qr_scan"}, "name": "cabecdeae0e3cb01483bf2cba21a83a3", "type": "electric_scooter"}, {"fusion_lat": 0.0, "bike_id": "53cefd8ef41c51331c4f51c5d6eb706c", "fusion_lon": 0.0, "lon": -76.93061, "lat": 38.90152283333333, "is_reserved": 0, "is_disabled": 0, "rental_uris": {"android": "https://dc.lft.to/lastmile_qr_scan", "ios": "https://dc.lft.to/lastmile_qr_scan"}, "name": "53cefd8ef41c51331c4f51c5d6eb706c", "type": "electric_scooter"}, {"fusion_lat": 0.0, "bike_id": "559873729f8d772ba6240bc8e43702b3", "fusion_lon": 0.0, "lon": -77.03824733333333, "lat": 38.9104455, "is_reserved": 0, "is_disabled": 0, "rental_uris": {"android": "https://dc.lft.to/lastmile_qr_scan", "ios": "https://dc.lft.to/lastmile_qr_scan"}, "name": "559873729f8d772ba6240bc8e43702b3", "type": "electric_scooter"}, {"fusion_lat": 0.0, "bike_id": "621049d163b918938d1a53661fdff4f9", "fusion_lon": 0.0, "lon": -76.97227333333333, "lat": 38.90033233333333, "is_reserved": 0, "is_disabled": 0, "rental_uris": {"android": "https://dc.lft.to/lastmile_qr_scan", "ios": "https://dc.lft.to/lastmile_qr_scan"}, "name": "621049d163b918938d1a53661fdff4f9", "type": "electric_bike"}, {"fusion_lat": 0.0, "bike_id": "f8e78863f5b19acea9c1602d18f53908", "fusion_lon": 0.0, "lon": -77.05032516666667, "lat": 38.9039, "is_reserved": 0, "is_disabled": 0, "rental_uris": {"android": "https://dc.lft.to/lastmile_qr_scan", "ios": "https://dc.lft.to/lastmile_qr_scan"}, "name": "f8e78863f5b19acea9c1602d18f53908", "type": "electric_scooter"}, {"fusion_lat": 0.0, "bike_id": "39131a94073200aa24fa82d01b60f371", "fusion_lon": 0.0, "lon": -77.029717, "lat": 38.916786333333334, "is_reserved": 0, "is_disabled": 0, "rental_uris": {"android": "https://dc.lft.to/lastmile_qr_scan", "ios": "https://dc.lft.to/lastmile_qr_scan"}, "name": "39131a94073200aa24fa82d01b60f371", "type": "electric_scooter"}, {"fusion_lat": 0.0, "bike_id": "156f5bc3a0b702fc9efb3293234abb3d", "fusion_lon": 0.0, "lon": -77.03317416666667, "lat": 38.925557833333336, "is_reserved": 0, "is_disabled": 0, "rental_uris": {"android": "https://dc.lft.to/lastmile_qr_scan", "ios": "https://dc.lft.to/lastmile_qr_scan"}, "name": "156f5bc3a0b702fc9efb3293234abb3d", "type": "electric_scooter"}, {"fusion_lat": 0.0, "bike_id": "8b25de63dcdcc58c98570be4f9ba981d", "fusion_lon": 0.0, "lon": -77.047665, "lat": 38.921403166666664, "is_reserved": 0, "is_disabled": 0, "rental_uris": {"android": "https://dc.lft.to/lastmile_qr_scan", "ios": "https://dc.lft.to/lastmile_qr_scan"}, "name": "8b25de63dcdcc58c98570be4f9ba981d", "type": "electric_scooter"}, {"fusion_lat": 0.0, "bike_id": "3b0311377606fd263830b45afae2c282", "fusion_lon": 0.0, "lon": -77.009252, "lat": 38.89982833333333, "is_reserved": 0, "is_disabled": 0, "rental_uris": {"android": "https://dc.lft.to/lastmile_qr_scan", "ios": "https://dc.lft.to/lastmile_qr_scan"}, "name": "3b0311377606fd263830b45afae2c282", "type": "electric_scooter"}, {"fusion_lat": 0.0, "bike_id": "35f562157432803e0fe2bd1d4254b248", "fusion_lon": 0.0, "lon": -77.01944866666666, "lat": 38.9368335, "is_reserved": 0, "is_disabled": 0, "rental_uris": {"android": "https://dc.lft.to/lastmile_qr_scan", "ios": "https://dc.lft.to/lastmile_qr_scan"}, "name": "35f562157432803e0fe2bd1d4254b248", "type": "electric_scooter"}, {"fusion_lat": 0.0, "bike_id": "d44df7a915c43cb4bff513ade0be0098", "fusion_lon": 0.0, "lon": -77.024701, "lat": 38.941962833333335, "is_reserved": 0, "is_disabled": 0, "rental_uris": {"android": "https://dc.lft.to/lastmile_qr_scan", "ios": "https://dc.lft.to/lastmile_qr_scan"}, "name": "d44df7a915c43cb4bff513ade0be0098", "type": "electric_scooter"}, {"fusion_lat": 0.0, "bike_id": "3ab21469a837289018ffe4cc4d9f7e08", "fusion_lon": 0.0, "lon": -77.021146, "lat": 38.915857833333334, "is_reserved": 0, "is_disabled": 0, "rental_uris": {"android": "https://dc.lft.to/lastmile_qr_scan", "ios": "https://dc.lft.to/lastmile_qr_scan"}, "name": "3ab21469a837289018ffe4cc4d9f7e08", "type": "electric_scooter"}, {"fusion_lat": 0.0, "bike_id": "b4f232abde3309b6a7525de97537a473", "fusion_lon": 0.0, "lon": -76.962603, "lat": 38.88246916666667, "is_reserved": 0, "is_disabled": 0, "rental_uris": {"android": "https://dc.lft.to/lastmile_qr_scan", "ios": "https://dc.lft.to/lastmile_qr_scan"}, "name": "b4f232abde3309b6a7525de97537a473", "type": "electric_bike"}, {"fusion_lat": 0.0, "bike_id": "399287ca50d97d0344192000a3cc454b", "fusion_lon": 0.0, "lon": -77.039203, "lat": 38.918401, "is_reserved": 0, "is_disabled": 0, "rental_uris": {"android": "https://dc.lft.to/lastmile_qr_scan", "ios": "https://dc.lft.to/lastmile_qr_scan"}, "name": "399287ca50d97d0344192000a3cc454b", "type": "electric_scooter"}, {"fusion_lat": 0.0, "bike_id": "9a86f9d617cb616df6bf91bc332956f1", "fusion_lon": 0.0, "lon": -77.00257716666667, "lat": 38.894746, "is_reserved": 0, "is_disabled": 0, "rental_uris": {"android": "https://dc.lft.to/lastmile_qr_scan", "ios": "https://dc.lft.to/lastmile_qr_scan"}, "name": "9a86f9d617cb616df6bf91bc332956f1", "type": "electric_scooter"}, {"fusion_lat": 0.0, "bike_id": "8b605d393fc6490580373951ea9bc6e7", "fusion_lon": 0.0, "lon": -76.98509433333334, "lat": 38.860140666666666, "is_reserved": 0, "is_disabled": 0, "rental_uris": {"android": "https://dc.lft.to/lastmile_qr_scan", "ios": "https://dc.lft.to/lastmile_qr_scan"}, "name": "8b605d393fc6490580373951ea9bc6e7", "type": "electric_scooter"}, {"fusion_lat": 0.0, "bike_id": "a4db2c2c03cf7abeafeec8f2292e37ca", "fusion_lon": 0.0, "lon": -77.00135233333333, "lat": 38.89472816666667, "is_reserved": 0, "is_disabled": 0, "rental_uris": {"android": "https://dc.lft.to/lastmile_qr_scan", "ios": "https://dc.lft.to/lastmile_qr_scan"}, "name": "a4db2c2c03cf7abeafeec8f2292e37ca", "type": "electric_scooter"}, {"fusion_lat": 0.0, "bike_id": "97cee3934b045bf74db5d592eb5769ff", "fusion_lon": 0.0, "lon": -77.03179866666666, "lat": 38.89622333333333, "is_reserved": 0, "is_disabled": 0, "rental_uris": {"android": "https://dc.lft.to/lastmile_qr_scan", "ios": "https://dc.lft.to/lastmile_qr_scan"}, "name": "97cee3934b045bf74db5d592eb5769ff", "type": "electric_scooter"}, {"fusion_lat": 0.0, "bike_id": "12789030e8fdaa0920f142b52bc1ae46", "fusion_lon": 0.0, "lon": -76.985968, "lat": 38.86683283333333, "is_reserved": 0, "is_disabled": 0, "rental_uris": {"android": "https://dc.lft.to/lastmile_qr_scan", "ios": "https://dc.lft.to/lastmile_qr_scan"}, "name": "12789030e8fdaa0920f142b52bc1ae46", "type": "electric_scooter"}, {"fusion_lat": 0.0, "bike_id": "6b91c07b8dcc263ec6de9cadb9a41fc7", "fusion_lon": 0.0, "lon": -77.05046716666666, "lat": 38.905251, "is_reserved": 0, "is_disabled": 0, "rental_uris": {"android": "https://dc.lft.to/lastmile_qr_scan", "ios": "https://dc.lft.to/lastmile_qr_scan"}, "name": "6b91c07b8dcc263ec6de9cadb9a41fc7", "type": "electric_scooter"}, {"fusion_lat": 0.0, "bike_id": "e8b92d980e6d5ce6e655055724880b6c", "fusion_lon": 0.0, "lon": -77.01136, "lat": 38.893690666666664, "is_reserved": 0, "is_disabled": 0, "rental_uris": {"android": "https://dc.lft.to/lastmile_qr_scan", "ios": "https://dc.lft.to/lastmile_qr_scan"}, "name": "e8b92d980e6d5ce6e655055724880b6c", "type": "electric_scooter"}, {"fusion_lat": 0.0, "bike_id": "2bd65d646b4575d11f1d889dbbdb0782", "fusion_lon": 0.0, "lon": -77.035099, "lat": 38.92148383333333, "is_reserved": 0, "is_disabled": 0, "rental_uris": {"android": "https://dc.lft.to/lastmile_qr_scan", "ios": "https://dc.lft.to/lastmile_qr_scan"}, "name": "2bd65d646b4575d11f1d889dbbdb0782", "type": "electric_scooter"}, {"fusion_lat": 0.0, "bike_id": "6c67d7f1185aaa19e95d5a8d8258575f", "fusion_lon": 0.0, "lon": -77.02455166666667, "lat": 38.9025535, "is_reserved": 0, "is_disabled": 0, "rental_uris": {"android": "https://dc.lft.to/lastmile_qr_scan", "ios": "https://dc.lft.to/lastmile_qr_scan"}, "name": "6c67d7f1185aaa19e95d5a8d8258575f", "type": "electric_scooter"}, {"fusion_lat": 0.0, "bike_id": "a1de120c7ef716ac34aaa86991b094df", "fusion_lon": 0.0, "lon": -77.03210783333333, "lat": 38.916369833333334, "is_reserved": 0, "is_disabled": 0, "rental_uris": {"android": "https://dc.lft.to/lastmile_qr_scan", "ios": "https://dc.lft.to/lastmile_qr_scan"}, "name": "a1de120c7ef716ac34aaa86991b094df", "type": "electric_scooter"}, {"fusion_lat": 0.0, "bike_id": "5b2ae1e1e9ba6b61eeb4473d39e0dc61", "fusion_lon": 0.0, "lon": -77.00609383333334, "lat": 38.90575, "is_reserved": 0, "is_disabled": 0, "rental_uris": {"android": "https://dc.lft.to/lastmile_qr_scan", "ios": "https://dc.lft.to/lastmile_qr_scan"}, "name": "5b2ae1e1e9ba6b61eeb4473d39e0dc61", "type": "electric_scooter"}, {"fusion_lat": 0.0, "bike_id": "d9058466185587b12dc62e8e44205b95", "fusion_lon": 0.0, "lon": -77.04895616666667, "lat": 38.89226166666667, "is_reserved": 0, "is_disabled": 0, "rental_uris": {"android": "https://dc.lft.to/lastmile_qr_scan", "ios": "https://dc.lft.to/lastmile_qr_scan"}, "name": "d9058466185587b12dc62e8e44205b95", "type": "electric_scooter"}, {"fusion_lat": 0.0, "bike_id": "78566afec27d26c2a0fcf24d34f73dc8", "fusion_lon": 0.0, "lon": -77.0045435, "lat": 38.87661583333333, "is_reserved": 0, "is_disabled": 0, "rental_uris": {"android": "https://dc.lft.to/lastmile_qr_scan", "ios": "https://dc.lft.to/lastmile_qr_scan"}, "name": "78566afec27d26c2a0fcf24d34f73dc8", "type": "electric_scooter"}, {"fusion_lat": 0.0, "bike_id": "5add6fb4bd8f8e086e11f67cbe8fc6b1", "fusion_lon": 0.0, "lon": -77.0231815, "lat": 38.927842, "is_reserved": 0, "is_disabled": 0, "rental_uris": {"android": "https://dc.lft.to/lastmile_qr_scan", "ios": "https://dc.lft.to/lastmile_qr_scan"}, "name": "5add6fb4bd8f8e086e11f67cbe8fc6b1", "type": "electric_scooter"}, {"fusion_lat": 0.0, "bike_id": "569da104e85c19636a7406201c865c47", "fusion_lon": 0.0, "lon": -77.02716183333334, "lat": 38.91674033333334, "is_reserved": 0, "is_disabled": 0, "rental_uris": {"android": "https://dc.lft.to/lastmile_qr_scan", "ios": "https://dc.lft.to/lastmile_qr_scan"}, "name": "569da104e85c19636a7406201c865c47", "type": "electric_scooter"}, {"fusion_lat": 0.0, "bike_id": "e9e3745bf6d59a341706e36faf14fa59", "fusion_lon": 0.0, "lon": -77.04177133333333, "lat": 38.9054835, "is_reserved": 0, "is_disabled": 0, "rental_uris": {"android": "https://dc.lft.to/lastmile_qr_scan", "ios": "https://dc.lft.to/lastmile_qr_scan"}, "name": "e9e3745bf6d59a341706e36faf14fa59", "type": "electric_scooter"}, {"fusion_lat": 0.0, "bike_id": "5f5f516ce9d071ddbac58f3364109f3f", "fusion_lon": 0.0, "lon": -77.01781133333333, "lat": 38.884063833333336, "is_reserved": 0, "is_disabled": 0, "rental_uris": {"android": "https://dc.lft.to/lastmile_qr_scan", "ios": "https://dc.lft.to/lastmile_qr_scan"}, "name": "5f5f516ce9d071ddbac58f3364109f3f", "type": "electric_scooter"}, {"fusion_lat": 0.0, "bike_id": "5c70039f65fcbd35e4d6591f6db8bd99", "fusion_lon": 0.0, "lon": -77.02682366666667, "lat": 38.943282333333336, "is_reserved": 0, "is_disabled": 0, "rental_uris": {"android": "https://dc.lft.to/lastmile_qr_scan", "ios": "https://dc.lft.to/lastmile_qr_scan"}, "name": "5c70039f65fcbd35e4d6591f6db8bd99", "type": "electric_scooter"}, {"fusion_lat": 0.0, "bike_id": "f169f744398928629e25492e01aef088", "fusion_lon": 0.0, "lon": -76.93379083333333, "lat": 38.91028033333333, "is_reserved": 0, "is_disabled": 0, "rental_uris": {"android": "https://dc.lft.to/lastmile_qr_scan", "ios": "https://dc.lft.to/lastmile_qr_scan"}, "name": "f169f744398928629e25492e01aef088", "type": "electric_scooter"}, {"fusion_lat": 0.0, "bike_id": "02b6ef75adeef7bd306590ab98b6e18f", "fusion_lon": 0.0, "lon": -76.9850275, "lat": 38.8667055, "is_reserved": 0, "is_disabled": 0, "rental_uris": {"android": "https://dc.lft.to/lastmile_qr_scan", "ios": "https://dc.lft.to/lastmile_qr_scan"}, "name": "02b6ef75adeef7bd306590ab98b6e18f", "type": "electric_scooter"}, {"fusion_lat": 0.0, "bike_id": "ffcc9c98072384bee7a68e3cdbe11e8a", "fusion_lon": 0.0, "lon": -77.0447735, "lat": 38.910328, "is_reserved": 0, "is_disabled": 0, "rental_uris": {"android": "https://dc.lft.to/lastmile_qr_scan", "ios": "https://dc.lft.to/lastmile_qr_scan"}, "name": "ffcc9c98072384bee7a68e3cdbe11e8a", "type": "electric_scooter"}, {"fusion_lat": 0.0, "bike_id": "b74ccba90b1b2a74bb29885a39ef690a", "fusion_lon": 0.0, "lon": -76.93342383333334, "lat": 38.8991725, "is_reserved": 0, "is_disabled": 0, "rental_uris": {"android": "https://dc.lft.to/lastmile_qr_scan", "ios": "https://dc.lft.to/lastmile_qr_scan"}, "name": "b74ccba90b1b2a74bb29885a39ef690a", "type": "electric_scooter"}, {"fusion_lat": 0.0, "bike_id": "ed55626c7b7752699bba09a7c6951f18", "fusion_lon": 0.0, "lon": -76.99109283333334, "lat": 38.903224, "is_reserved": 0, "is_disabled": 0, "rental_uris": {"android": "https://dc.lft.to/lastmile_qr_scan", "ios": "https://dc.lft.to/lastmile_qr_scan"}, "name": "ed55626c7b7752699bba09a7c6951f18", "type": "electric_scooter"}, {"fusion_lat": 0.0, "bike_id": "d58ea74ff1f44fb0a3d70fcbe23a27fb", "fusion_lon": 0.0, "lon": -77.01748033333334, "lat": 38.8771455, "is_reserved": 0, "is_disabled": 0, "rental_uris": {"android": "https://dc.lft.to/lastmile_qr_scan", "ios": "https://dc.lft.to/lastmile_qr_scan"}, "name": "d58ea74ff1f44fb0a3d70fcbe23a27fb", "type": "electric_scooter"}, {"fusion_lat": 0.0, "bike_id": "45496cd1cc30ca16448b1f7b524c6eee", "fusion_lon": 0.0, "lon": -77.03308766666666, "lat": 38.9097725, "is_reserved": 0, "is_disabled": 0, "rental_uris": {"android": "https://dc.lft.to/lastmile_qr_scan", "ios": "https://dc.lft.to/lastmile_qr_scan"}, "name": "45496cd1cc30ca16448b1f7b524c6eee", "type": "electric_scooter"}, {"fusion_lat": 0.0, "bike_id": "daa6690b5da0ccaae3e2c00127449525", "fusion_lon": 0.0, "lon": -77.0300315, "lat": 39.041921333333335, "is_reserved": 0, "is_disabled": 0, "rental_uris": {"android": "https://dc.lft.to/lastmile_qr_scan", "ios": "https://dc.lft.to/lastmile_qr_scan"}, "name": "daa6690b5da0ccaae3e2c00127449525", "type": "electric_bike"}, {"fusion_lat": 0.0, "bike_id": "919d4d10309c33a68b52c0e1e3a7729c", "fusion_lon": 0.0, "lon": -77.026952, "lat": 38.91873983333333, "is_reserved": 0, "is_disabled": 0, "rental_uris": {"android": "https://dc.lft.to/lastmile_qr_scan", "ios": "https://dc.lft.to/lastmile_qr_scan"}, "name": "919d4d10309c33a68b52c0e1e3a7729c", "type": "electric_scooter"}, {"fusion_lat": 0.0, "bike_id": "76c83979e9d6acac8f4cfe7e0692110d", "fusion_lon": 0.0, "lon": -77.046639, "lat": 38.90878333333333, "is_reserved": 0, "is_disabled": 0, "rental_uris": {"android": "https://dc.lft.to/lastmile_qr_scan", "ios": "https://dc.lft.to/lastmile_qr_scan"}, "name": "76c83979e9d6acac8f4cfe7e0692110d", "type": "electric_scooter"}, {"fusion_lat": 0.0, "bike_id": "e5ad68764aec7c2cd16f6f1ba5814a92", "fusion_lon": 0.0, "lon": -77.04213266666666, "lat": 38.92133066666667, "is_reserved": 0, "is_disabled": 0, "rental_uris": {"android": "https://dc.lft.to/lastmile_qr_scan", "ios": "https://dc.lft.to/lastmile_qr_scan"}, "name": "e5ad68764aec7c2cd16f6f1ba5814a92", "type": "electric_scooter"}, {"fusion_lat": 0.0, "bike_id": "12e5269ac7e1378d38fd2305aaf8ec04", "fusion_lon": 0.0, "lon": -77.0247245, "lat": 38.918144833333336, "is_reserved": 0, "is_disabled": 0, "rental_uris": {"android": "https://dc.lft.to/lastmile_qr_scan", "ios": "https://dc.lft.to/lastmile_qr_scan"}, "name": "12e5269ac7e1378d38fd2305aaf8ec04", "type": "electric_scooter"}, {"fusion_lat": 0.0, "bike_id": "9f5b5e26637a04d2119b1207cb2b040a", "fusion_lon": 0.0, "lon": -77.01378566666666, "lat": 38.8982565, "is_reserved": 0, "is_disabled": 0, "rental_uris": {"android": "https://dc.lft.to/lastmile_qr_scan", "ios": "https://dc.lft.to/lastmile_qr_scan"}, "name": "9f5b5e26637a04d2119b1207cb2b040a", "type": "electric_scooter"}, {"fusion_lat": 0.0, "bike_id": "f08c97d763154d67bd6bc25256aa46d2", "fusion_lon": 0.0, "lon": -76.97652583333333, "lat": 38.89872366666667, "is_reserved": 0, "is_disabled": 0, "rental_uris": {"android": "https://dc.lft.to/lastmile_qr_scan", "ios": "https://dc.lft.to/lastmile_qr_scan"}, "name": "f08c97d763154d67bd6bc25256aa46d2", "type": "electric_bike"}, {"fusion_lat": 0.0, "bike_id": "c9508c62c0a10b81fab305254397260a", "fusion_lon": 0.0, "lon": -77.04190216666667, "lat": 38.920601833333336, "is_reserved": 0, "is_disabled": 0, "rental_uris": {"android": "https://dc.lft.to/lastmile_qr_scan", "ios": "https://dc.lft.to/lastmile_qr_scan"}, "name": "c9508c62c0a10b81fab305254397260a", "type": "electric_scooter"}, {"fusion_lat": 0.0, "bike_id": "26302eb8b202ecca1cd6f0a7a3e1cda7", "fusion_lon": 0.0, "lon": -77.07795433333334, "lat": 38.99604266666667, "is_reserved": 0, "is_disabled": 0, "rental_uris": {"android": "https://dc.lft.to/lastmile_qr_scan", "ios": "https://dc.lft.to/lastmile_qr_scan"}, "name": "26302eb8b202ecca1cd6f0a7a3e1cda7", "type": "electric_bike"}, {"fusion_lat": 0.0, "bike_id": "53fd02ccfdf92f129c64217f72046750", "fusion_lon": 0.0, "lon": -77.02537733333334, "lat": 38.92753716666667, "is_reserved": 0, "is_disabled": 0, "rental_uris": {"android": "https://dc.lft.to/lastmile_qr_scan", "ios": "https://dc.lft.to/lastmile_qr_scan"}, "name": "53fd02ccfdf92f129c64217f72046750", "type": "electric_scooter"}, {"fusion_lat": 0.0, "bike_id": "7a96ca3d9933e3b8a01d1011645f4719", "fusion_lon": 0.0, "lon": -76.98595283333333, "lat": 38.8668435, "is_reserved": 0, "is_disabled": 0, "rental_uris": {"android": "https://dc.lft.to/lastmile_qr_scan", "ios": "https://dc.lft.to/lastmile_qr_scan"}, "name": "7a96ca3d9933e3b8a01d1011645f4719", "type": "electric_scooter"}, {"fusion_lat": 0.0, "bike_id": "9db9021d431311372ceff505c52d6a6b", "fusion_lon": 0.0, "lon": -77.03864333333334, "lat": 38.90275283333333, "is_reserved": 0, "is_disabled": 0, "rental_uris": {"android": "https://dc.lft.to/lastmile_qr_scan", "ios": "https://dc.lft.to/lastmile_qr_scan"}, "name": "9db9021d431311372ceff505c52d6a6b", "type": "electric_scooter"}, {"fusion_lat": 0.0, "bike_id": "a9171894d6d1951f4a4de3ec2500798c", "fusion_lon": 0.0, "lon": -77.02392833333333, "lat": 38.898665, "is_reserved": 0, "is_disabled": 0, "rental_uris": {"android": "https://dc.lft.to/lastmile_qr_scan", "ios": "https://dc.lft.to/lastmile_qr_scan"}, "name": "a9171894d6d1951f4a4de3ec2500798c", "type": "electric_scooter"}, {"fusion_lat": 0.0, "bike_id": "1679365f116bdf2c9a72ea3cca2c5f5c", "fusion_lon": 0.0, "lon": -77.043925, "lat": 38.90265483333334, "is_reserved": 0, "is_disabled": 0, "rental_uris": {"android": "https://dc.lft.to/lastmile_qr_scan", "ios": "https://dc.lft.to/lastmile_qr_scan"}, "name": "1679365f116bdf2c9a72ea3cca2c5f5c", "type": "electric_scooter"}, {"fusion_lat": 0.0, "bike_id": "ff45afd1d3447466095931037513d9c5", "fusion_lon": 0.0, "lon": -76.99482433333333, "lat": 38.8861115, "is_reserved": 0, "is_disabled": 0, "rental_uris": {"android": "https://dc.lft.to/lastmile_qr_scan", "ios": "https://dc.lft.to/lastmile_qr_scan"}, "name": "ff45afd1d3447466095931037513d9c5", "type": "electric_scooter"}, {"fusion_lat": 0.0, "bike_id": "6aa844a92388c5a68a0f9c427c52636d", "fusion_lon": 0.0, "lon": -77.02628133333333, "lat": 38.96225583333333, "is_reserved": 0, "is_disabled": 0, "rental_uris": {"android": "https://dc.lft.to/lastmile_qr_scan", "ios": "https://dc.lft.to/lastmile_qr_scan"}, "name": "6aa844a92388c5a68a0f9c427c52636d", "type": "electric_bike"}, {"fusion_lat": 0.0, "bike_id": "75ba6bc4a30c22588e63f24ceeddc2a7", "fusion_lon": 0.0, "lon": -76.98288633333334, "lat": 38.916462, "is_reserved": 0, "is_disabled": 0, "rental_uris": {"android": "https://dc.lft.to/lastmile_qr_scan", "ios": "https://dc.lft.to/lastmile_qr_scan"}, "name": "75ba6bc4a30c22588e63f24ceeddc2a7", "type": "electric_scooter"}, {"fusion_lat": 0.0, "bike_id": "559e9dea1e675318b1cb32d7529c2406", "fusion_lon": 0.0, "lon": -77.051794, "lat": 38.92427433333334, "is_reserved": 0, "is_disabled": 0, "rental_uris": {"android": "https://dc.lft.to/lastmile_qr_scan", "ios": "https://dc.lft.to/lastmile_qr_scan"}, "name": "559e9dea1e675318b1cb32d7529c2406", "type": "electric_scooter"}, {"fusion_lat": 0.0, "bike_id": "4b55d0ff903e0835d5707cdc87f32344", "fusion_lon": 0.0, "lon": -76.98543716666667, "lat": 38.920140333333336, "is_reserved": 0, "is_disabled": 0, "rental_uris": {"android": "https://dc.lft.to/lastmile_qr_scan", "ios": "https://dc.lft.to/lastmile_qr_scan"}, "name": "4b55d0ff903e0835d5707cdc87f32344", "type": "electric_scooter"}, {"fusion_lat": 0.0, "bike_id": "845d580464e6d09a861270d1419c8eae", "fusion_lon": 0.0, "lon": -77.07343966666667, "lat": 38.910011833333336, "is_reserved": 0, "is_disabled": 0, "rental_uris": {"android": "https://dc.lft.to/lastmile_qr_scan", "ios": "https://dc.lft.to/lastmile_qr_scan"}, "name": "845d580464e6d09a861270d1419c8eae", "type": "electric_scooter"}, {"fusion_lat": 0.0, "bike_id": "6fe8821baaf1a3091f5c0d1d09af35b8", "fusion_lon": 0.0, "lon": -77.02844216666666, "lat": 38.925714666666664, "is_reserved": 0, "is_disabled": 0, "rental_uris": {"android": "https://dc.lft.to/lastmile_qr_scan", "ios": "https://dc.lft.to/lastmile_qr_scan"}, "name": "6fe8821baaf1a3091f5c0d1d09af35b8", "type": "electric_scooter"}, {"fusion_lat": 0.0, "bike_id": "31a984c0606b20b83c83dda6abe5108f", "fusion_lon": 0.0, "lon": -77.04350733333334, "lat": 38.9105145, "is_reserved": 0, "is_disabled": 0, "rental_uris": {"android": "https://dc.lft.to/lastmile_qr_scan", "ios": "https://dc.lft.to/lastmile_qr_scan"}, "name": "31a984c0606b20b83c83dda6abe5108f", "type": "electric_scooter"}, {"fusion_lat": 0.0, "bike_id": "9701b80883c95fdcc0a1a133c80eb99d", "fusion_lon": 0.0, "lon": -77.0539325, "lat": 38.92791416666667, "is_reserved": 0, "is_disabled": 0, "rental_uris": {"android": "https://dc.lft.to/lastmile_qr_scan", "ios": "https://dc.lft.to/lastmile_qr_scan"}, "name": "9701b80883c95fdcc0a1a133c80eb99d", "type": "electric_scooter"}, {"fusion_lat": 0.0, "bike_id": "a62d46fabd2611508baf118753985832", "fusion_lon": 0.0, "lon": -77.02283666666666, "lat": 38.92572766666667, "is_reserved": 0, "is_disabled": 0, "rental_uris": {"android": "https://dc.lft.to/lastmile_qr_scan", "ios": "https://dc.lft.to/lastmile_qr_scan"}, "name": "a62d46fabd2611508baf118753985832", "type": "electric_scooter"}, {"fusion_lat": 0.0, "bike_id": "f5c3f67d97da67fd5e73453fb3a37c24", "fusion_lon": 0.0, "lon": -77.02218366666666, "lat": 38.926215166666665, "is_reserved": 0, "is_disabled": 0, "rental_uris": {"android": "https://dc.lft.to/lastmile_qr_scan", "ios": "https://dc.lft.to/lastmile_qr_scan"}, "name": "f5c3f67d97da67fd5e73453fb3a37c24", "type": "electric_scooter"}, {"fusion_lat": 0.0, "bike_id": "f093a4da515908739e3c8ee9494ab5c3", "fusion_lon": 0.0, "lon": -77.03500683333333, "lat": 38.91872516666667, "is_reserved": 0, "is_disabled": 0, "rental_uris": {"android": "https://dc.lft.to/lastmile_qr_scan", "ios": "https://dc.lft.to/lastmile_qr_scan"}, "name": "f093a4da515908739e3c8ee9494ab5c3", "type": "electric_scooter"}, {"fusion_lat": 0.0, "bike_id": "99385d00247db9a949ae0c6af8e27157", "fusion_lon": 0.0, "lon": -77.04390683333334, "lat": 39.0471665, "is_reserved": 0, "is_disabled": 0, "rental_uris": {"android": "https://dc.lft.to/lastmile_qr_scan", "ios": "https://dc.lft.to/lastmile_qr_scan"}, "name": "99385d00247db9a949ae0c6af8e27157", "type": "electric_bike"}, {"fusion_lat": 0.0, "bike_id": "101696ea2fc32171b4d15cb61adbd728", "fusion_lon": 0.0, "lon": -77.04487, "lat": 38.897429333333335, "is_reserved": 0, "is_disabled": 0, "rental_uris": {"android": "https://dc.lft.to/lastmile_qr_scan", "ios": "https://dc.lft.to/lastmile_qr_scan"}, "name": "101696ea2fc32171b4d15cb61adbd728", "type": "electric_scooter"}, {"fusion_lat": 0.0, "bike_id": "484ab36974a6e20047bb79b1b73e9055", "fusion_lon": 0.0, "lon": -77.03247483333334, "lat": 38.904649, "is_reserved": 0, "is_disabled": 0, "rental_uris": {"android": "https://dc.lft.to/lastmile_qr_scan", "ios": "https://dc.lft.to/lastmile_qr_scan"}, "name": "484ab36974a6e20047bb79b1b73e9055", "type": "electric_scooter"}, {"fusion_lat": 0.0, "bike_id": "385bd8f730952731258a7d0a33eea8ca", "fusion_lon": 0.0, "lon": -76.95576266666667, "lat": 38.887683, "is_reserved": 0, "is_disabled": 0, "rental_uris": {"android": "https://dc.lft.to/lastmile_qr_scan", "ios": "https://dc.lft.to/lastmile_qr_scan"}, "name": "385bd8f730952731258a7d0a33eea8ca", "type": "electric_scooter"}, {"fusion_lat": 0.0, "bike_id": "7f9db40ab59e74339e9fed687058ec07", "fusion_lon": 0.0, "lon": -77.02035516666666, "lat": 38.908573, "is_reserved": 0, "is_disabled": 0, "rental_uris": {"android": "https://dc.lft.to/lastmile_qr_scan", "ios": "https://dc.lft.to/lastmile_qr_scan"}, "name": "7f9db40ab59e74339e9fed687058ec07", "type": "electric_scooter"}, {"fusion_lat": 0.0, "bike_id": "9e2eedae3d56e56f71f72855c3c20b6b", "fusion_lon": 0.0, "lon": -77.0266315, "lat": 38.91695433333334, "is_reserved": 0, "is_disabled": 0, "rental_uris": {"android": "https://dc.lft.to/lastmile_qr_scan", "ios": "https://dc.lft.to/lastmile_qr_scan"}, "name": "9e2eedae3d56e56f71f72855c3c20b6b", "type": "electric_scooter"}, {"fusion_lat": 0.0, "bike_id": "ab60e106a20edd91610db71867f401ef", "fusion_lon": 0.0, "lon": -77.0540855, "lat": 38.95049383333333, "is_reserved": 0, "is_disabled": 0, "rental_uris": {"android": "https://dc.lft.to/lastmile_qr_scan", "ios": "https://dc.lft.to/lastmile_qr_scan"}, "name": "ab60e106a20edd91610db71867f401ef", "type": "electric_scooter"}, {"fusion_lat": 0.0, "bike_id": "72523f8cd4f0345259fba34fec06bb31", "fusion_lon": 0.0, "lon": -77.04353033333334, "lat": 38.92175183333333, "is_reserved": 0, "is_disabled": 0, "rental_uris": {"android": "https://dc.lft.to/lastmile_qr_scan", "ios": "https://dc.lft.to/lastmile_qr_scan"}, "name": "72523f8cd4f0345259fba34fec06bb31", "type": "electric_scooter"}, {"fusion_lat": 0.0, "bike_id": "16c5ab554654949d8488afd7a59b3fa8", "fusion_lon": 0.0, "lon": -77.0431105, "lat": 38.922158833333334, "is_reserved": 0, "is_disabled": 0, "rental_uris": {"android": "https://dc.lft.to/lastmile_qr_scan", "ios": "https://dc.lft.to/lastmile_qr_scan"}, "name": "16c5ab554654949d8488afd7a59b3fa8", "type": "electric_scooter"}, {"fusion_lat": 0.0, "bike_id": "dd13d7a3319ecfe9e34034c47149c2e8", "fusion_lon": 0.0, "lon": -77.0266255, "lat": 38.92180966666667, "is_reserved": 0, "is_disabled": 0, "rental_uris": {"android": "https://dc.lft.to/lastmile_qr_scan", "ios": "https://dc.lft.to/lastmile_qr_scan"}, "name": "dd13d7a3319ecfe9e34034c47149c2e8", "type": "electric_scooter"}, {"fusion_lat": 0.0, "bike_id": "fe9e9aa9fe2ccbc4e9a899d2def85a10", "fusion_lon": 0.0, "lon": -77.01876716666666, "lat": 38.9377365, "is_reserved": 0, "is_disabled": 0, "rental_uris": {"android": "https://dc.lft.to/lastmile_qr_scan", "ios": "https://dc.lft.to/lastmile_qr_scan"}, "name": "fe9e9aa9fe2ccbc4e9a899d2def85a10", "type": "electric_bike"}, {"fusion_lat": 0.0, "bike_id": "a70d5927b34eea3621f33fe8a1ead0ce", "fusion_lon": 0.0, "lon": -76.98522383333334, "lat": 38.866836, "is_reserved": 0, "is_disabled": 0, "rental_uris": {"android": "https://dc.lft.to/lastmile_qr_scan", "ios": "https://dc.lft.to/lastmile_qr_scan"}, "name": "a70d5927b34eea3621f33fe8a1ead0ce", "type": "electric_scooter"}, {"fusion_lat": 0.0, "bike_id": "abd77768de80b4fbb8f25e6c8c5328a8", "fusion_lon": 0.0, "lon": -77.03171483333334, "lat": 38.89199983333334, "is_reserved": 0, "is_disabled": 0, "rental_uris": {"android": "https://dc.lft.to/lastmile_qr_scan", "ios": "https://dc.lft.to/lastmile_qr_scan"}, "name": "abd77768de80b4fbb8f25e6c8c5328a8", "type": "electric_scooter"}, {"fusion_lat": 0.0, "bike_id": "7d0b8c0bbc0faeba052f452f58d68761", "fusion_lon": 0.0, "lon": -77.00528083333333, "lat": 38.929737333333335, "is_reserved": 0, "is_disabled": 0, "rental_uris": {"android": "https://dc.lft.to/lastmile_qr_scan", "ios": "https://dc.lft.to/lastmile_qr_scan"}, "name": "7d0b8c0bbc0faeba052f452f58d68761", "type": "electric_scooter"}, {"fusion_lat": 0.0, "bike_id": "74da24fb06e0ff4c15002105b90ecebc", "fusion_lon": 0.0, "lon": -77.02267966666666, "lat": 38.93769366666667, "is_reserved": 0, "is_disabled": 0, "rental_uris": {"android": "https://dc.lft.to/lastmile_qr_scan", "ios": "https://dc.lft.to/lastmile_qr_scan"}, "name": "74da24fb06e0ff4c15002105b90ecebc", "type": "electric_scooter"}, {"fusion_lat": 0.0, "bike_id": "da9c9fc07e84aa948fa1eede28207d66", "fusion_lon": 0.0, "lon": -77.023007, "lat": 38.916038666666665, "is_reserved": 0, "is_disabled": 0, "rental_uris": {"android": "https://dc.lft.to/lastmile_qr_scan", "ios": "https://dc.lft.to/lastmile_qr_scan"}, "name": "da9c9fc07e84aa948fa1eede28207d66", "type": "electric_scooter"}, {"fusion_lat": 0.0, "bike_id": "51ebbc7e2548a48925e069abd79fd4e5", "fusion_lon": 0.0, "lon": -77.04614083333334, "lat": 38.91548, "is_reserved": 0, "is_disabled": 0, "rental_uris": {"android": "https://dc.lft.to/lastmile_qr_scan", "ios": "https://dc.lft.to/lastmile_qr_scan"}, "name": "51ebbc7e2548a48925e069abd79fd4e5", "type": "electric_scooter"}, {"fusion_lat": 0.0, "bike_id": "5313e3a24bd27e784144a1df052f8c31", "fusion_lon": 0.0, "lon": -77.04485033333333, "lat": 38.89227283333334, "is_reserved": 0, "is_disabled": 0, "rental_uris": {"android": "https://dc.lft.to/lastmile_qr_scan", "ios": "https://dc.lft.to/lastmile_qr_scan"}, "name": "5313e3a24bd27e784144a1df052f8c31", "type": "electric_scooter"}, {"fusion_lat": 0.0, "bike_id": "7047f175978476b7c690810f49124126", "fusion_lon": 0.0, "lon": -76.93059433333333, "lat": 38.883920833333335, "is_reserved": 0, "is_disabled": 0, "rental_uris": {"android": "https://dc.lft.to/lastmile_qr_scan", "ios": "https://dc.lft.to/lastmile_qr_scan"}, "name": "7047f175978476b7c690810f49124126", "type": "electric_scooter"}, {"fusion_lat": 0.0, "bike_id": "fdf1056b1e376937d56763483ffd1da7", "fusion_lon": 0.0, "lon": -77.0242625, "lat": 38.9203545, "is_reserved": 0, "is_disabled": 0, "rental_uris": {"android": "https://dc.lft.to/lastmile_qr_scan", "ios": "https://dc.lft.to/lastmile_qr_scan"}, "name": "fdf1056b1e376937d56763483ffd1da7", "type": "electric_scooter"}, {"fusion_lat": 0.0, "bike_id": "c8902c36402625f0ff7be49521a3481d", "fusion_lon": 0.0, "lon": -77.03218216666667, "lat": 38.907291, "is_reserved": 0, "is_disabled": 0, "rental_uris": {"android": "https://dc.lft.to/lastmile_qr_scan", "ios": "https://dc.lft.to/lastmile_qr_scan"}, "name": "c8902c36402625f0ff7be49521a3481d", "type": "electric_scooter"}, {"fusion_lat": 0.0, "bike_id": "26af4b0634eedbee5cdeebc5249c3970", "fusion_lon": 0.0, "lon": -77.038495, "lat": 38.9216665, "is_reserved": 0, "is_disabled": 0, "rental_uris": {"android": "https://dc.lft.to/lastmile_qr_scan", "ios": "https://dc.lft.to/lastmile_qr_scan"}, "name": "26af4b0634eedbee5cdeebc5249c3970", "type": "electric_scooter"}, {"fusion_lat": 0.0, "bike_id": "47be48763127761e980cf82b0a1c61fb", "fusion_lon": 0.0, "lon": -77.03256033333334, "lat": 38.948472, "is_reserved": 0, "is_disabled": 0, "rental_uris": {"android": "https://dc.lft.to/lastmile_qr_scan", "ios": "https://dc.lft.to/lastmile_qr_scan"}, "name": "47be48763127761e980cf82b0a1c61fb", "type": "electric_scooter"}, {"fusion_lat": 0.0, "bike_id": "f7ba5712bfff87bc071a0ed799ccbdc6", "fusion_lon": 0.0, "lon": -77.03180566666667, "lat": 38.916752, "is_reserved": 0, "is_disabled": 0, "rental_uris": {"android": "https://dc.lft.to/lastmile_qr_scan", "ios": "https://dc.lft.to/lastmile_qr_scan"}, "name": "f7ba5712bfff87bc071a0ed799ccbdc6", "type": "electric_scooter"}, {"fusion_lat": 0.0, "bike_id": "76d84ad52a149a48da71d9a8e0a19067", "fusion_lon": 0.0, "lon": -77.04269433333333, "lat": 38.904302, "is_reserved": 0, "is_disabled": 0, "rental_uris": {"android": "https://dc.lft.to/lastmile_qr_scan", "ios": "https://dc.lft.to/lastmile_qr_scan"}, "name": "76d84ad52a149a48da71d9a8e0a19067", "type": "electric_scooter"}, {"fusion_lat": 0.0, "bike_id": "f2dab37ada612faae697329bd021f7ee", "fusion_lon": 0.0, "lon": -77.039957, "lat": 38.93279416666667, "is_reserved": 0, "is_disabled": 0, "rental_uris": {"android": "https://dc.lft.to/lastmile_qr_scan", "ios": "https://dc.lft.to/lastmile_qr_scan"}, "name": "f2dab37ada612faae697329bd021f7ee", "type": "electric_scooter"}, {"fusion_lat": 0.0, "bike_id": "140f6c7795204b21a2ac73e340a5cee1", "fusion_lon": 0.0, "lon": -77.02537383333333, "lat": 38.94092933333334, "is_reserved": 0, "is_disabled": 0, "rental_uris": {"android": "https://dc.lft.to/lastmile_qr_scan", "ios": "https://dc.lft.to/lastmile_qr_scan"}, "name": "140f6c7795204b21a2ac73e340a5cee1", "type": "electric_scooter"}, {"fusion_lat": 0.0, "bike_id": "7f659f6890e6c8b122baf04e7f26a3ed", "fusion_lon": 0.0, "lon": -76.992985, "lat": 38.85755416666667, "is_reserved": 0, "is_disabled": 0, "rental_uris": {"android": "https://dc.lft.to/lastmile_qr_scan", "ios": "https://dc.lft.to/lastmile_qr_scan"}, "name": "7f659f6890e6c8b122baf04e7f26a3ed", "type": "electric_scooter"}, {"fusion_lat": 0.0, "bike_id": "453431b2c0d0807552b8fbec0adb0c41", "fusion_lon": 0.0, "lon": -77.166292, "lat": 38.8883825, "is_reserved": 0, "is_disabled": 0, "rental_uris": {"android": "https://dc.lft.to/lastmile_qr_scan", "ios": "https://dc.lft.to/lastmile_qr_scan"}, "name": "453431b2c0d0807552b8fbec0adb0c41", "type": "electric_bike"}, {"fusion_lat": 0.0, "bike_id": "10ae67fa591d47acd437dbb456a91ea6", "fusion_lon": 0.0, "lon": -76.99523733333334, "lat": 38.8917055, "is_reserved": 0, "is_disabled": 0, "rental_uris": {"android": "https://dc.lft.to/lastmile_qr_scan", "ios": "https://dc.lft.to/lastmile_qr_scan"}, "name": "10ae67fa591d47acd437dbb456a91ea6", "type": "electric_scooter"}, {"fusion_lat": 0.0, "bike_id": "5e535d2841a083679d64df3d2ae2336e", "fusion_lon": 0.0, "lon": -76.99400383333334, "lat": 38.90009933333333, "is_reserved": 0, "is_disabled": 0, "rental_uris": {"android": "https://dc.lft.to/lastmile_qr_scan", "ios": "https://dc.lft.to/lastmile_qr_scan"}, "name": "5e535d2841a083679d64df3d2ae2336e", "type": "electric_bike"}, {"fusion_lat": 0.0, "bike_id": "81b2d23693216cb81895a6080b0cf288", "fusion_lon": 0.0, "lon": -77.04697516666667, "lat": 38.921361, "is_reserved": 0, "is_disabled": 0, "rental_uris": {"android": "https://dc.lft.to/lastmile_qr_scan", "ios": "https://dc.lft.to/lastmile_qr_scan"}, "name": "81b2d23693216cb81895a6080b0cf288", "type": "electric_scooter"}, {"fusion_lat": 0.0, "bike_id": "083e1f7eaf1136a800b445aae506b78b", "fusion_lon": 0.0, "lon": -77.05146466666666, "lat": 38.92372066666667, "is_reserved": 0, "is_disabled": 0, "rental_uris": {"android": "https://dc.lft.to/lastmile_qr_scan", "ios": "https://dc.lft.to/lastmile_qr_scan"}, "name": "083e1f7eaf1136a800b445aae506b78b", "type": "electric_scooter"}, {"fusion_lat": 0.0, "bike_id": "195b36a6bd688e59db828b1ec799f332", "fusion_lon": 0.0, "lon": -77.03171583333334, "lat": 38.891989, "is_reserved": 0, "is_disabled": 0, "rental_uris": {"android": "https://dc.lft.to/lastmile_qr_scan", "ios": "https://dc.lft.to/lastmile_qr_scan"}, "name": "195b36a6bd688e59db828b1ec799f332", "type": "electric_scooter"}, {"fusion_lat": 0.0, "bike_id": "8fc84f57abbeed8b3e58399ede4308e2", "fusion_lon": 0.0, "lon": -77.02273966666667, "lat": 38.9247735, "is_reserved": 0, "is_disabled": 0, "rental_uris": {"android": "https://dc.lft.to/lastmile_qr_scan", "ios": "https://dc.lft.to/lastmile_qr_scan"}, "name": "8fc84f57abbeed8b3e58399ede4308e2", "type": "electric_scooter"}, {"fusion_lat": 0.0, "bike_id": "72e0b3d2fd4b47a166b8ab5079410d3b", "fusion_lon": 0.0, "lon": -77.04120333333333, "lat": 38.898423666666666, "is_reserved": 0, "is_disabled": 0, "rental_uris": {"android": "https://dc.lft.to/lastmile_qr_scan", "ios": "https://dc.lft.to/lastmile_qr_scan"}, "name": "72e0b3d2fd4b47a166b8ab5079410d3b", "type": "electric_scooter"}, {"fusion_lat": 0.0, "bike_id": "9f8d674158e35f06f2fda3520b36b988", "fusion_lon": 0.0, "lon": -77.03220166666667, "lat": 38.89220866666667, "is_reserved": 0, "is_disabled": 0, "rental_uris": {"android": "https://dc.lft.to/lastmile_qr_scan", "ios": "https://dc.lft.to/lastmile_qr_scan"}, "name": "9f8d674158e35f06f2fda3520b36b988", "type": "electric_scooter"}, {"fusion_lat": 0.0, "bike_id": "44b8f9ce93f66f64856ffe7f0ce63a5e", "fusion_lon": 0.0, "lon": -77.03380433333334, "lat": 38.902646, "is_reserved": 0, "is_disabled": 0, "rental_uris": {"android": "https://dc.lft.to/lastmile_qr_scan", "ios": "https://dc.lft.to/lastmile_qr_scan"}, "name": "44b8f9ce93f66f64856ffe7f0ce63a5e", "type": "electric_scooter"}, {"fusion_lat": 0.0, "bike_id": "0d300c52eca8a4405ba1d5878149af68", "fusion_lon": 0.0, "lon": -77.04272933333333, "lat": 38.899905833333335, "is_reserved": 0, "is_disabled": 0, "rental_uris": {"android": "https://dc.lft.to/lastmile_qr_scan", "ios": "https://dc.lft.to/lastmile_qr_scan"}, "name": "0d300c52eca8a4405ba1d5878149af68", "type": "electric_scooter"}, {"fusion_lat": 0.0, "bike_id": "ec60a2acdadf833462907a4a648ff25b", "fusion_lon": 0.0, "lon": -77.03265083333334, "lat": 38.911122, "is_reserved": 0, "is_disabled": 0, "rental_uris": {"android": "https://dc.lft.to/lastmile_qr_scan", "ios": "https://dc.lft.to/lastmile_qr_scan"}, "name": "ec60a2acdadf833462907a4a648ff25b", "type": "electric_bike"}, {"fusion_lat": 0.0, "bike_id": "132c29f56411c01590b3fa3108fb25ed", "fusion_lon": 0.0, "lon": -77.03331416666667, "lat": 38.90010066666667, "is_reserved": 0, "is_disabled": 0, "rental_uris": {"android": "https://dc.lft.to/lastmile_qr_scan", "ios": "https://dc.lft.to/lastmile_qr_scan"}, "name": "132c29f56411c01590b3fa3108fb25ed", "type": "electric_scooter"}, {"fusion_lat": 0.0, "bike_id": "c40924c6bff22e012b158a3e67df0468", "fusion_lon": 0.0, "lon": -76.99458183333333, "lat": 38.90372516666667, "is_reserved": 0, "is_disabled": 0, "rental_uris": {"android": "https://dc.lft.to/lastmile_qr_scan", "ios": "https://dc.lft.to/lastmile_qr_scan"}, "name": "c40924c6bff22e012b158a3e67df0468", "type": "electric_scooter"}, {"fusion_lat": 0.0, "bike_id": "f4e58982cf04f1a58062776c1577ad9e", "fusion_lon": 0.0, "lon": -77.01999166666667, "lat": 38.96625816666667, "is_reserved": 0, "is_disabled": 0, "rental_uris": {"android": "https://dc.lft.to/lastmile_qr_scan", "ios": "https://dc.lft.to/lastmile_qr_scan"}, "name": "f4e58982cf04f1a58062776c1577ad9e", "type": "electric_scooter"}, {"fusion_lat": 0.0, "bike_id": "de409699554a998bc653c2da0d557f63", "fusion_lon": 0.0, "lon": -77.030406, "lat": 38.917127, "is_reserved": 0, "is_disabled": 0, "rental_uris": {"android": "https://dc.lft.to/lastmile_qr_scan", "ios": "https://dc.lft.to/lastmile_qr_scan"}, "name": "de409699554a998bc653c2da0d557f63", "type": "electric_scooter"}, {"fusion_lat": 0.0, "bike_id": "c9e4ffb9cc4e59750303d80fdb31bdd2", "fusion_lon": 0.0, "lon": -77.07593866666667, "lat": 38.91218383333333, "is_reserved": 0, "is_disabled": 0, "rental_uris": {"android": "https://dc.lft.to/lastmile_qr_scan", "ios": "https://dc.lft.to/lastmile_qr_scan"}, "name": "c9e4ffb9cc4e59750303d80fdb31bdd2", "type": "electric_scooter"}, {"fusion_lat": 0.0, "bike_id": "f9a7dfb3cb745ef72e11221778ab5fbd", "fusion_lon": 0.0, "lon": -77.02388416666666, "lat": 38.91289166666667, "is_reserved": 0, "is_disabled": 0, "rental_uris": {"android": "https://dc.lft.to/lastmile_qr_scan", "ios": "https://dc.lft.to/lastmile_qr_scan"}, "name": "f9a7dfb3cb745ef72e11221778ab5fbd", "type": "electric_scooter"}, {"fusion_lat": 0.0, "bike_id": "356bfac5ddff6f2e2a05df3270e039c9", "fusion_lon": 0.0, "lon": -77.02186083333333, "lat": 38.90975483333333, "is_reserved": 0, "is_disabled": 0, "rental_uris": {"android": "https://dc.lft.to/lastmile_qr_scan", "ios": "https://dc.lft.to/lastmile_qr_scan"}, "name": "356bfac5ddff6f2e2a05df3270e039c9", "type": "electric_scooter"}, {"fusion_lat": 0.0, "bike_id": "9af6253d7636fc082d49c683ffd159d2", "fusion_lon": 0.0, "lon": -76.99382983333334, "lat": 38.89902816666667, "is_reserved": 0, "is_disabled": 0, "rental_uris": {"android": "https://dc.lft.to/lastmile_qr_scan", "ios": "https://dc.lft.to/lastmile_qr_scan"}, "name": "9af6253d7636fc082d49c683ffd159d2", "type": "electric_scooter"}, {"fusion_lat": 0.0, "bike_id": "e970a8dc34319cf18819cda44873563b", "fusion_lon": 0.0, "lon": -76.99672783333334, "lat": 38.83831566666667, "is_reserved": 0, "is_disabled": 0, "rental_uris": {"android": "https://dc.lft.to/lastmile_qr_scan", "ios": "https://dc.lft.to/lastmile_qr_scan"}, "name": "e970a8dc34319cf18819cda44873563b", "type": "electric_bike"}, {"fusion_lat": 0.0, "bike_id": "bc20473194e9e678143ded0f0791d789", "fusion_lon": 0.0, "lon": -77.03962933333334, "lat": 38.904775666666666, "is_reserved": 0, "is_disabled": 0, "rental_uris": {"android": "https://dc.lft.to/lastmile_qr_scan", "ios": "https://dc.lft.to/lastmile_qr_scan"}, "name": "bc20473194e9e678143ded0f0791d789", "type": "electric_scooter"}, {"fusion_lat": 0.0, "bike_id": "0c18b00fb846f1f344e2b8b76044603b", "fusion_lon": 0.0, "lon": -77.05468316666666, "lat": 38.90434283333333, "is_reserved": 0, "is_disabled": 0, "rental_uris": {"android": "https://dc.lft.to/lastmile_qr_scan", "ios": "https://dc.lft.to/lastmile_qr_scan"}, "name": "0c18b00fb846f1f344e2b8b76044603b", "type": "electric_scooter"}, {"fusion_lat": 0.0, "bike_id": "d2693fdd597b524fe22d97f2dd0c02a0", "fusion_lon": 0.0, "lon": -76.98526116666666, "lat": 38.86686233333333, "is_reserved": 0, "is_disabled": 0, "rental_uris": {"android": "https://dc.lft.to/lastmile_qr_scan", "ios": "https://dc.lft.to/lastmile_qr_scan"}, "name": "d2693fdd597b524fe22d97f2dd0c02a0", "type": "electric_scooter"}, {"fusion_lat": 0.0, "bike_id": "56be9c29bc8a77cbc942702cd909167a", "fusion_lon": 0.0, "lon": -76.97240366666666, "lat": 38.9034325, "is_reserved": 0, "is_disabled": 0, "rental_uris": {"android": "https://dc.lft.to/lastmile_qr_scan", "ios": "https://dc.lft.to/lastmile_qr_scan"}, "name": "56be9c29bc8a77cbc942702cd909167a", "type": "electric_scooter"}, {"fusion_lat": 0.0, "bike_id": "520c575ae823d4c17b31c08cdc2b5349", "fusion_lon": 0.0, "lon": -77.03337216666667, "lat": 38.90269716666667, "is_reserved": 0, "is_disabled": 0, "rental_uris": {"android": "https://dc.lft.to/lastmile_qr_scan", "ios": "https://dc.lft.to/lastmile_qr_scan"}, "name": "520c575ae823d4c17b31c08cdc2b5349", "type": "electric_scooter"}, {"fusion_lat": 0.0, "bike_id": "ae8f92f563f00a8915b6aad869f2cd0a", "fusion_lon": 0.0, "lon": -77.0328655, "lat": 38.9376385, "is_reserved": 0, "is_disabled": 0, "rental_uris": {"android": "https://dc.lft.to/lastmile_qr_scan", "ios": "https://dc.lft.to/lastmile_qr_scan"}, "name": "ae8f92f563f00a8915b6aad869f2cd0a", "type": "electric_scooter"}, {"fusion_lat": 0.0, "bike_id": "9565aded5cdc7d641dbb7b06cd72ebde", "fusion_lon": 0.0, "lon": -77.03210683333333, "lat": 38.91674666666667, "is_reserved": 0, "is_disabled": 0, "rental_uris": {"android": "https://dc.lft.to/lastmile_qr_scan", "ios": "https://dc.lft.to/lastmile_qr_scan"}, "name": "9565aded5cdc7d641dbb7b06cd72ebde", "type": "electric_scooter"}, {"fusion_lat": 0.0, "bike_id": "51c8135b311956813a3e8ecf62f53a26", "fusion_lon": 0.0, "lon": -77.05051416666667, "lat": 38.9252145, "is_reserved": 0, "is_disabled": 0, "rental_uris": {"android": "https://dc.lft.to/lastmile_qr_scan", "ios": "https://dc.lft.to/lastmile_qr_scan"}, "name": "51c8135b311956813a3e8ecf62f53a26", "type": "electric_scooter"}, {"fusion_lat": 0.0, "bike_id": "57bce7a73b8285a7f9c3ba072520be33", "fusion_lon": 0.0, "lon": -77.05183533333333, "lat": 38.92385733333333, "is_reserved": 0, "is_disabled": 0, "rental_uris": {"android": "https://dc.lft.to/lastmile_qr_scan", "ios": "https://dc.lft.to/lastmile_qr_scan"}, "name": "57bce7a73b8285a7f9c3ba072520be33", "type": "electric_scooter"}, {"fusion_lat": 0.0, "bike_id": "d69ea0daa13883fd7ac36e1e59f6562e", "fusion_lon": 0.0, "lon": -77.01624883333334, "lat": 38.90683033333333, "is_reserved": 0, "is_disabled": 0, "rental_uris": {"android": "https://dc.lft.to/lastmile_qr_scan", "ios": "https://dc.lft.to/lastmile_qr_scan"}, "name": "d69ea0daa13883fd7ac36e1e59f6562e", "type": "electric_scooter"}, {"fusion_lat": 0.0, "bike_id": "45832e4d272722440e4ed26f3d637d1b", "fusion_lon": 0.0, "lon": -76.98408033333334, "lat": 38.9062745, "is_reserved": 0, "is_disabled": 0, "rental_uris": {"android": "https://dc.lft.to/lastmile_qr_scan", "ios": "https://dc.lft.to/lastmile_qr_scan"}, "name": "45832e4d272722440e4ed26f3d637d1b", "type": "electric_scooter"}, {"fusion_lat": 0.0, "bike_id": "9c847a3fee0b8104d63a8d1d0ce229ef", "fusion_lon": 0.0, "lon": -77.00009083333333, "lat": 38.95717783333333, "is_reserved": 0, "is_disabled": 0, "rental_uris": {"android": "https://dc.lft.to/lastmile_qr_scan", "ios": "https://dc.lft.to/lastmile_qr_scan"}, "name": "9c847a3fee0b8104d63a8d1d0ce229ef", "type": "electric_scooter"}, {"fusion_lat": 0.0, "bike_id": "ad766655773d8db9dfeb4673f0c5b32c", "fusion_lon": 0.0, "lon": -76.9903665, "lat": 38.898028833333335, "is_reserved": 0, "is_disabled": 0, "rental_uris": {"android": "https://dc.lft.to/lastmile_qr_scan", "ios": "https://dc.lft.to/lastmile_qr_scan"}, "name": "ad766655773d8db9dfeb4673f0c5b32c", "type": "electric_scooter"}, {"fusion_lat": 0.0, "bike_id": "5519cc5b7ad907b3aa4f8241acac8a10", "fusion_lon": 0.0, "lon": -77.02798116666666, "lat": 38.9428835, "is_reserved": 0, "is_disabled": 0, "rental_uris": {"android": "https://dc.lft.to/lastmile_qr_scan", "ios": "https://dc.lft.to/lastmile_qr_scan"}, "name": "5519cc5b7ad907b3aa4f8241acac8a10", "type": "electric_scooter"}, {"fusion_lat": 0.0, "bike_id": "f4de0ec1cc847b69a739ad31c1bc7f3d", "fusion_lon": 0.0, "lon": -77.039632, "lat": 38.916294, "is_reserved": 0, "is_disabled": 0, "rental_uris": {"android": "https://dc.lft.to/lastmile_qr_scan", "ios": "https://dc.lft.to/lastmile_qr_scan"}, "name": "f4de0ec1cc847b69a739ad31c1bc7f3d", "type": "electric_scooter"}, {"fusion_lat": 0.0, "bike_id": "a2c35049408cc1c4017ed647a61f990c", "fusion_lon": 0.0, "lon": -77.027867, "lat": 38.895698, "is_reserved": 0, "is_disabled": 0, "rental_uris": {"android": "https://dc.lft.to/lastmile_qr_scan", "ios": "https://dc.lft.to/lastmile_qr_scan"}, "name": "a2c35049408cc1c4017ed647a61f990c", "type": "electric_scooter"}, {"fusion_lat": 0.0, "bike_id": "6f97fd1c406ee3beef69f28304a33cba", "fusion_lon": 0.0, "lon": -77.032574, "lat": 38.932643166666665, "is_reserved": 0, "is_disabled": 0, "rental_uris": {"android": "https://dc.lft.to/lastmile_qr_scan", "ios": "https://dc.lft.to/lastmile_qr_scan"}, "name": "6f97fd1c406ee3beef69f28304a33cba", "type": "electric_scooter"}, {"fusion_lat": 0.0, "bike_id": "01125655a253895911a8e09faa73d864", "fusion_lon": 0.0, "lon": -77.02699366666667, "lat": 38.906661, "is_reserved": 0, "is_disabled": 0, "rental_uris": {"android": "https://dc.lft.to/lastmile_qr_scan", "ios": "https://dc.lft.to/lastmile_qr_scan"}, "name": "01125655a253895911a8e09faa73d864", "type": "electric_scooter"}, {"fusion_lat": 0.0, "bike_id": "49f5b476aa1db8cc5749891f8a43fe36", "fusion_lon": 0.0, "lon": -77.0219645, "lat": 38.894765, "is_reserved": 0, "is_disabled": 0, "rental_uris": {"android": "https://dc.lft.to/lastmile_qr_scan", "ios": "https://dc.lft.to/lastmile_qr_scan"}, "name": "49f5b476aa1db8cc5749891f8a43fe36", "type": "electric_scooter"}, {"fusion_lat": 0.0, "bike_id": "cd79793c0b25865b26ae9ae21dddb9fd", "fusion_lon": 0.0, "lon": -76.99127766666666, "lat": 38.90142016666667, "is_reserved": 0, "is_disabled": 0, "rental_uris": {"android": "https://dc.lft.to/lastmile_qr_scan", "ios": "https://dc.lft.to/lastmile_qr_scan"}, "name": "cd79793c0b25865b26ae9ae21dddb9fd", "type": "electric_scooter"}, {"fusion_lat": 0.0, "bike_id": "7db02f03a20e956286f830019517240f", "fusion_lon": 0.0, "lon": -77.04489683333334, "lat": 38.900475666666665, "is_reserved": 0, "is_disabled": 0, "rental_uris": {"android": "https://dc.lft.to/lastmile_qr_scan", "ios": "https://dc.lft.to/lastmile_qr_scan"}, "name": "7db02f03a20e956286f830019517240f", "type": "electric_scooter"}, {"fusion_lat": 0.0, "bike_id": "be4b85cbe54601aba19e0b8ebe9beb79", "fusion_lon": 0.0, "lon": -77.03712166666666, "lat": 38.9148775, "is_reserved": 0, "is_disabled": 0, "rental_uris": {"android": "https://dc.lft.to/lastmile_qr_scan", "ios": "https://dc.lft.to/lastmile_qr_scan"}, "name": "be4b85cbe54601aba19e0b8ebe9beb79", "type": "electric_scooter"}, {"fusion_lat": 0.0, "bike_id": "6e65d6779c1d92899d9a84cddcbf6ada", "fusion_lon": 0.0, "lon": -77.04952, "lat": 38.900781333333335, "is_reserved": 0, "is_disabled": 0, "rental_uris": {"android": "https://dc.lft.to/lastmile_qr_scan", "ios": "https://dc.lft.to/lastmile_qr_scan"}, "name": "6e65d6779c1d92899d9a84cddcbf6ada", "type": "electric_scooter"}, {"fusion_lat": 0.0, "bike_id": "9fb13609efa0abbf2da640543f2364f7", "fusion_lon": 0.0, "lon": -77.051835, "lat": 38.923861, "is_reserved": 0, "is_disabled": 0, "rental_uris": {"android": "https://dc.lft.to/lastmile_qr_scan", "ios": "https://dc.lft.to/lastmile_qr_scan"}, "name": "9fb13609efa0abbf2da640543f2364f7", "type": "electric_scooter"}, {"fusion_lat": 0.0, "bike_id": "2e6660d40bc6ef99426bcfe677abdacb", "fusion_lon": 0.0, "lon": -77.03685966666667, "lat": 38.92636533333334, "is_reserved": 0, "is_disabled": 0, "rental_uris": {"android": "https://dc.lft.to/lastmile_qr_scan", "ios": "https://dc.lft.to/lastmile_qr_scan"}, "name": "2e6660d40bc6ef99426bcfe677abdacb", "type": "electric_scooter"}, {"fusion_lat": 0.0, "bike_id": "9981106f8bdc4af68adec5641845578a", "fusion_lon": 0.0, "lon": -77.03458783333333, "lat": 38.907348166666665, "is_reserved": 0, "is_disabled": 0, "rental_uris": {"android": "https://dc.lft.to/lastmile_qr_scan", "ios": "https://dc.lft.to/lastmile_qr_scan"}, "name": "9981106f8bdc4af68adec5641845578a", "type": "electric_scooter"}, {"fusion_lat": 0.0, "bike_id": "856f02c2227d5c2b8731d05d75fa0d63", "fusion_lon": 0.0, "lon": -77.0300875, "lat": 38.9398275, "is_reserved": 0, "is_disabled": 0, "rental_uris": {"android": "https://dc.lft.to/lastmile_qr_scan", "ios": "https://dc.lft.to/lastmile_qr_scan"}, "name": "856f02c2227d5c2b8731d05d75fa0d63", "type": "electric_scooter"}, {"fusion_lat": 0.0, "bike_id": "5320ea134d5f23e2b1068db2af01ba7c", "fusion_lon": 0.0, "lon": -77.0281555, "lat": 38.91631183333333, "is_reserved": 0, "is_disabled": 0, "rental_uris": {"android": "https://dc.lft.to/lastmile_qr_scan", "ios": "https://dc.lft.to/lastmile_qr_scan"}, "name": "5320ea134d5f23e2b1068db2af01ba7c", "type": "electric_scooter"}, {"fusion_lat": 0.0, "bike_id": "5fec21ab75b9179e117ece22da6c4eff", "fusion_lon": 0.0, "lon": -77.0141365, "lat": 38.92852283333333, "is_reserved": 0, "is_disabled": 0, "rental_uris": {"android": "https://dc.lft.to/lastmile_qr_scan", "ios": "https://dc.lft.to/lastmile_qr_scan"}, "name": "5fec21ab75b9179e117ece22da6c4eff", "type": "electric_scooter"}, {"fusion_lat": 0.0, "bike_id": "4456acf78b25451366dadfee9119bf2f", "fusion_lon": 0.0, "lon": -77.01355, "lat": 38.898174166666664, "is_reserved": 0, "is_disabled": 0, "rental_uris": {"android": "https://dc.lft.to/lastmile_qr_scan", "ios": "https://dc.lft.to/lastmile_qr_scan"}, "name": "4456acf78b25451366dadfee9119bf2f", "type": "electric_scooter"}, {"fusion_lat": 0.0, "bike_id": "ceba714b8e43273c5ab27083766a117b", "fusion_lon": 0.0, "lon": -77.02638033333334, "lat": 38.9169855, "is_reserved": 0, "is_disabled": 0, "rental_uris": {"android": "https://dc.lft.to/lastmile_qr_scan", "ios": "https://dc.lft.to/lastmile_qr_scan"}, "name": "ceba714b8e43273c5ab27083766a117b", "type": "electric_scooter"}, {"fusion_lat": 0.0, "bike_id": "50b8d37406f275a2e987beab448fa040", "fusion_lon": 0.0, "lon": -77.05886316666667, "lat": 38.936075, "is_reserved": 0, "is_disabled": 0, "rental_uris": {"android": "https://dc.lft.to/lastmile_qr_scan", "ios": "https://dc.lft.to/lastmile_qr_scan"}, "name": "50b8d37406f275a2e987beab448fa040", "type": "electric_scooter"}, {"fusion_lat": 0.0, "bike_id": "3b7c445b750dca8eb24b8bf53b11d4e3", "fusion_lon": 0.0, "lon": -76.990734, "lat": 38.89817216666667, "is_reserved": 0, "is_disabled": 0, "rental_uris": {"android": "https://dc.lft.to/lastmile_qr_scan", "ios": "https://dc.lft.to/lastmile_qr_scan"}, "name": "3b7c445b750dca8eb24b8bf53b11d4e3", "type": "electric_bike"}, {"fusion_lat": 0.0, "bike_id": "81893a9fc076421f4ef36a1b281bddc4", "fusion_lon": 0.0, "lon": -77.001261, "lat": 38.87373433333333, "is_reserved": 0, "is_disabled": 0, "rental_uris": {"android": "https://dc.lft.to/lastmile_qr_scan", "ios": "https://dc.lft.to/lastmile_qr_scan"}, "name": "81893a9fc076421f4ef36a1b281bddc4", "type": "electric_scooter"}, {"fusion_lat": 0.0, "bike_id": "bee7959143496e12a2338079ec3fc60d", "fusion_lon": 0.0, "lon": -77.03262, "lat": 38.932163, "is_reserved": 0, "is_disabled": 0, "rental_uris": {"android": "https://dc.lft.to/lastmile_qr_scan", "ios": "https://dc.lft.to/lastmile_qr_scan"}, "name": "bee7959143496e12a2338079ec3fc60d", "type": "electric_scooter"}, {"fusion_lat": 0.0, "bike_id": "1d58471dcb91f2943b2ce046354b242f", "fusion_lon": 0.0, "lon": -77.01695333333333, "lat": 38.904575, "is_reserved": 0, "is_disabled": 0, "rental_uris": {"android": "https://dc.lft.to/lastmile_qr_scan", "ios": "https://dc.lft.to/lastmile_qr_scan"}, "name": "1d58471dcb91f2943b2ce046354b242f", "type": "electric_scooter"}, {"fusion_lat": 0.0, "bike_id": "b12c688b2f79459e3267212efac8100a", "fusion_lon": 0.0, "lon": -77.01838583333334, "lat": 38.909595333333336, "is_reserved": 0, "is_disabled": 0, "rental_uris": {"android": "https://dc.lft.to/lastmile_qr_scan", "ios": "https://dc.lft.to/lastmile_qr_scan"}, "name": "b12c688b2f79459e3267212efac8100a", "type": "electric_scooter"}, {"fusion_lat": 0.0, "bike_id": "eb5ee7f14c9d92e260372494d299a935", "fusion_lon": 0.0, "lon": -77.04175233333333, "lat": 38.898487, "is_reserved": 0, "is_disabled": 0, "rental_uris": {"android": "https://dc.lft.to/lastmile_qr_scan", "ios": "https://dc.lft.to/lastmile_qr_scan"}, "name": "eb5ee7f14c9d92e260372494d299a935", "type": "electric_scooter"}, {"fusion_lat": 0.0, "bike_id": "b5f4ab5eadc4bf5b08112666f173ae48", "fusion_lon": 0.0, "lon": -77.03415833333334, "lat": 38.927457833333335, "is_reserved": 0, "is_disabled": 0, "rental_uris": {"android": "https://dc.lft.to/lastmile_qr_scan", "ios": "https://dc.lft.to/lastmile_qr_scan"}, "name": "b5f4ab5eadc4bf5b08112666f173ae48", "type": "electric_scooter"}, {"fusion_lat": 0.0, "bike_id": "6e92008739949ea44b502631d63551b2", "fusion_lon": 0.0, "lon": -77.0307415, "lat": 38.917061833333335, "is_reserved": 0, "is_disabled": 0, "rental_uris": {"android": "https://dc.lft.to/lastmile_qr_scan", "ios": "https://dc.lft.to/lastmile_qr_scan"}, "name": "6e92008739949ea44b502631d63551b2", "type": "electric_scooter"}, {"fusion_lat": 0.0, "bike_id": "252cc688fd23d90b611fe51b1974b8f0", "fusion_lon": 0.0, "lon": -77.0517585, "lat": 38.9241845, "is_reserved": 0, "is_disabled": 0, "rental_uris": {"android": "https://dc.lft.to/lastmile_qr_scan", "ios": "https://dc.lft.to/lastmile_qr_scan"}, "name": "252cc688fd23d90b611fe51b1974b8f0", "type": "electric_scooter"}, {"fusion_lat": 0.0, "bike_id": "ffd22e28abca904de6abc207f49294b5", "fusion_lon": 0.0, "lon": -76.97328966666667, "lat": 38.86519233333333, "is_reserved": 0, "is_disabled": 0, "rental_uris": {"android": "https://dc.lft.to/lastmile_qr_scan", "ios": "https://dc.lft.to/lastmile_qr_scan"}, "name": "ffd22e28abca904de6abc207f49294b5", "type": "electric_bike"}, {"fusion_lat": 0.0, "bike_id": "44756810c59b875aec3203d68a4651ab", "fusion_lon": 0.0, "lon": -77.03274316666666, "lat": 38.9325215, "is_reserved": 0, "is_disabled": 0, "rental_uris": {"android": "https://dc.lft.to/lastmile_qr_scan", "ios": "https://dc.lft.to/lastmile_qr_scan"}, "name": "44756810c59b875aec3203d68a4651ab", "type": "electric_scooter"}, {"fusion_lat": 0.0, "bike_id": "5912ae05b8b62893bf618cfb115f788c", "fusion_lon": 0.0, "lon": -76.99502016666666, "lat": 38.882811833333335, "is_reserved": 0, "is_disabled": 0, "rental_uris": {"android": "https://dc.lft.to/lastmile_qr_scan", "ios": "https://dc.lft.to/lastmile_qr_scan"}, "name": "5912ae05b8b62893bf618cfb115f788c", "type": "electric_scooter"}, {"fusion_lat": 0.0, "bike_id": "8ac5ab7efd4774d79bf4b6644329bc65", "fusion_lon": 0.0, "lon": -77.0322155, "lat": 38.89221283333333, "is_reserved": 0, "is_disabled": 0, "rental_uris": {"android": "https://dc.lft.to/lastmile_qr_scan", "ios": "https://dc.lft.to/lastmile_qr_scan"}, "name": "8ac5ab7efd4774d79bf4b6644329bc65", "type": "electric_scooter"}, {"fusion_lat": 0.0, "bike_id": "9e51e3044c6b6c72c82eb030cae72a9e", "fusion_lon": 0.0, "lon": -76.98501983333334, "lat": 38.866697333333335, "is_reserved": 0, "is_disabled": 0, "rental_uris": {"android": "https://dc.lft.to/lastmile_qr_scan", "ios": "https://dc.lft.to/lastmile_qr_scan"}, "name": "9e51e3044c6b6c72c82eb030cae72a9e", "type": "electric_scooter"}, {"fusion_lat": 0.0, "bike_id": "b6f26d3f84bd854ffb1e2f61200f804a", "fusion_lon": 0.0, "lon": -76.9855755, "lat": 38.9091575, "is_reserved": 0, "is_disabled": 0, "rental_uris": {"android": "https://dc.lft.to/lastmile_qr_scan", "ios": "https://dc.lft.to/lastmile_qr_scan"}, "name": "b6f26d3f84bd854ffb1e2f61200f804a", "type": "electric_scooter"}, {"fusion_lat": 0.0, "bike_id": "2ca043938e3c2e54358880cf417579ff", "fusion_lon": 0.0, "lon": -77.007765, "lat": 38.91489283333333, "is_reserved": 0, "is_disabled": 0, "rental_uris": {"android": "https://dc.lft.to/lastmile_qr_scan", "ios": "https://dc.lft.to/lastmile_qr_scan"}, "name": "2ca043938e3c2e54358880cf417579ff", "type": "electric_scooter"}, {"fusion_lat": 0.0, "bike_id": "f238d30bf00013a8cb89974fc05f1014", "fusion_lon": 0.0, "lon": -77.03629033333333, "lat": 38.93678533333333, "is_reserved": 0, "is_disabled": 0, "rental_uris": {"android": "https://dc.lft.to/lastmile_qr_scan", "ios": "https://dc.lft.to/lastmile_qr_scan"}, "name": "f238d30bf00013a8cb89974fc05f1014", "type": "electric_scooter"}, {"fusion_lat": 0.0, "bike_id": "2f2d9c855766aea996f48407631bb1c8", "fusion_lon": 0.0, "lon": -77.0432405, "lat": 38.900454333333336, "is_reserved": 0, "is_disabled": 0, "rental_uris": {"android": "https://dc.lft.to/lastmile_qr_scan", "ios": "https://dc.lft.to/lastmile_qr_scan"}, "name": "2f2d9c855766aea996f48407631bb1c8", "type": "electric_scooter"}, {"fusion_lat": 0.0, "bike_id": "489e98cbd399229e7a24aca8399080e8", "fusion_lon": 0.0, "lon": -77.0444675, "lat": 38.92165966666666, "is_reserved": 0, "is_disabled": 0, "rental_uris": {"android": "https://dc.lft.to/lastmile_qr_scan", "ios": "https://dc.lft.to/lastmile_qr_scan"}, "name": "489e98cbd399229e7a24aca8399080e8", "type": "electric_scooter"}, {"fusion_lat": 0.0, "bike_id": "720f4a7f7f6582294d4142ef166997b7", "fusion_lon": 0.0, "lon": -77.01533766666667, "lat": 38.887400666666665, "is_reserved": 0, "is_disabled": 0, "rental_uris": {"android": "https://dc.lft.to/lastmile_qr_scan", "ios": "https://dc.lft.to/lastmile_qr_scan"}, "name": "720f4a7f7f6582294d4142ef166997b7", "type": "electric_scooter"}, {"fusion_lat": 0.0, "bike_id": "77bdd9458019a1f25d6025e7eb07c361", "fusion_lon": 0.0, "lon": -77.0331335, "lat": 38.90962566666666, "is_reserved": 0, "is_disabled": 0, "rental_uris": {"android": "https://dc.lft.to/lastmile_qr_scan", "ios": "https://dc.lft.to/lastmile_qr_scan"}, "name": "77bdd9458019a1f25d6025e7eb07c361", "type": "electric_scooter"}, {"fusion_lat": 0.0, "bike_id": "9496e0dde0c5e1593b9e6bcc27b83aa7", "fusion_lon": 0.0, "lon": -77.041685, "lat": 38.9062515, "is_reserved": 0, "is_disabled": 0, "rental_uris": {"android": "https://dc.lft.to/lastmile_qr_scan", "ios": "https://dc.lft.to/lastmile_qr_scan"}, "name": "9496e0dde0c5e1593b9e6bcc27b83aa7", "type": "electric_scooter"}, {"fusion_lat": 0.0, "bike_id": "1f2025aeb32099d638b6b0289965dcbb", "fusion_lon": 0.0, "lon": -76.97862933333333, "lat": 38.871945833333335, "is_reserved": 0, "is_disabled": 0, "rental_uris": {"android": "https://dc.lft.to/lastmile_qr_scan", "ios": "https://dc.lft.to/lastmile_qr_scan"}, "name": "1f2025aeb32099d638b6b0289965dcbb", "type": "electric_scooter"}, {"fusion_lat": 0.0, "bike_id": "2bab7e163c870d66e346450defdd45f8", "fusion_lon": 0.0, "lon": -76.97422233333333, "lat": 38.93237716666667, "is_reserved": 0, "is_disabled": 0, "rental_uris": {"android": "https://dc.lft.to/lastmile_qr_scan", "ios": "https://dc.lft.to/lastmile_qr_scan"}, "name": "2bab7e163c870d66e346450defdd45f8", "type": "electric_bike"}, {"fusion_lat": 0.0, "bike_id": "515bbd19ca211113beee78713939cd03", "fusion_lon": 0.0, "lon": -77.04376533333334, "lat": 38.892199166666664, "is_reserved": 0, "is_disabled": 0, "rental_uris": {"android": "https://dc.lft.to/lastmile_qr_scan", "ios": "https://dc.lft.to/lastmile_qr_scan"}, "name": "515bbd19ca211113beee78713939cd03", "type": "electric_scooter"}, {"fusion_lat": 0.0, "bike_id": "390558ff9dbc88d373d5e13dea91809b", "fusion_lon": 0.0, "lon": -76.99106566666667, "lat": 38.908989, "is_reserved": 0, "is_disabled": 0, "rental_uris": {"android": "https://dc.lft.to/lastmile_qr_scan", "ios": "https://dc.lft.to/lastmile_qr_scan"}, "name": "390558ff9dbc88d373d5e13dea91809b", "type": "electric_scooter"}, {"fusion_lat": 0.0, "bike_id": "6026b2a6b3749f8df2306c5c451719cc", "fusion_lon": 0.0, "lon": -77.06100733333334, "lat": 38.905279, "is_reserved": 0, "is_disabled": 0, "rental_uris": {"android": "https://dc.lft.to/lastmile_qr_scan", "ios": "https://dc.lft.to/lastmile_qr_scan"}, "name": "6026b2a6b3749f8df2306c5c451719cc", "type": "electric_scooter"}, {"fusion_lat": 0.0, "bike_id": "b8788a0f44a8ee884aab7e0456dc647a", "fusion_lon": 0.0, "lon": -77.014077, "lat": 38.928529, "is_reserved": 0, "is_disabled": 0, "rental_uris": {"android": "https://dc.lft.to/lastmile_qr_scan", "ios": "https://dc.lft.to/lastmile_qr_scan"}, "name": "b8788a0f44a8ee884aab7e0456dc647a", "type": "electric_scooter"}, {"fusion_lat": 0.0, "bike_id": "da2c86b457642da1b3e6244d62a395e2", "fusion_lon": 0.0, "lon": -77.00891083333333, "lat": 38.92650316666667, "is_reserved": 0, "is_disabled": 0, "rental_uris": {"android": "https://dc.lft.to/lastmile_qr_scan", "ios": "https://dc.lft.to/lastmile_qr_scan"}, "name": "da2c86b457642da1b3e6244d62a395e2", "type": "electric_scooter"}, {"fusion_lat": 0.0, "bike_id": "2e13b27fc22b2267424eb1dc49669c2c", "fusion_lon": 0.0, "lon": -76.98710783333334, "lat": 38.8669445, "is_reserved": 0, "is_disabled": 0, "rental_uris": {"android": "https://dc.lft.to/lastmile_qr_scan", "ios": "https://dc.lft.to/lastmile_qr_scan"}, "name": "2e13b27fc22b2267424eb1dc49669c2c", "type": "electric_scooter"}, {"fusion_lat": 0.0, "bike_id": "92a02d8dd5069673eb2127963eac43bd", "fusion_lon": 0.0, "lon": -77.04676066666667, "lat": 38.89556483333333, "is_reserved": 0, "is_disabled": 0, "rental_uris": {"android": "https://dc.lft.to/lastmile_qr_scan", "ios": "https://dc.lft.to/lastmile_qr_scan"}, "name": "92a02d8dd5069673eb2127963eac43bd", "type": "electric_scooter"}, {"fusion_lat": 0.0, "bike_id": "aac14d2d0a94c2f91c45ca8d1ad119e5", "fusion_lon": 0.0, "lon": -77.02001033333333, "lat": 38.8874415, "is_reserved": 0, "is_disabled": 0, "rental_uris": {"android": "https://dc.lft.to/lastmile_qr_scan", "ios": "https://dc.lft.to/lastmile_qr_scan"}, "name": "aac14d2d0a94c2f91c45ca8d1ad119e5", "type": "electric_scooter"}, {"fusion_lat": 0.0, "bike_id": "4cd831ca2e8eadcaa117dd7ee6bc8be7", "fusion_lon": 0.0, "lon": -77.02151433333333, "lat": 38.89505066666667, "is_reserved": 0, "is_disabled": 0, "rental_uris": {"android": "https://dc.lft.to/lastmile_qr_scan", "ios": "https://dc.lft.to/lastmile_qr_scan"}, "name": "4cd831ca2e8eadcaa117dd7ee6bc8be7", "type": "electric_scooter"}, {"fusion_lat": 0.0, "bike_id": "a122ae0ca43ee81269ea04cc1129982c", "fusion_lon": 0.0, "lon": -77.02491166666667, "lat": 38.92742666666667, "is_reserved": 0, "is_disabled": 0, "rental_uris": {"android": "https://dc.lft.to/lastmile_qr_scan", "ios": "https://dc.lft.to/lastmile_qr_scan"}, "name": "a122ae0ca43ee81269ea04cc1129982c", "type": "electric_scooter"}, {"fusion_lat": 0.0, "bike_id": "723799ec6c8bd232e198d58e61707ad8", "fusion_lon": 0.0, "lon": -77.03253766666667, "lat": 38.93387933333333, "is_reserved": 0, "is_disabled": 0, "rental_uris": {"android": "https://dc.lft.to/lastmile_qr_scan", "ios": "https://dc.lft.to/lastmile_qr_scan"}, "name": "723799ec6c8bd232e198d58e61707ad8", "type": "electric_scooter"}, {"fusion_lat": 0.0, "bike_id": "44992a6b25afb11c6d5e8b3734516fe2", "fusion_lon": 0.0, "lon": -77.04539666666666, "lat": 38.91323966666667, "is_reserved": 0, "is_disabled": 0, "rental_uris": {"android": "https://dc.lft.to/lastmile_qr_scan", "ios": "https://dc.lft.to/lastmile_qr_scan"}, "name": "44992a6b25afb11c6d5e8b3734516fe2", "type": "electric_scooter"}, {"fusion_lat": 0.0, "bike_id": "45fd411a8fda134a24cc342e67ac23ab", "fusion_lon": 0.0, "lon": -77.02219583333333, "lat": 38.935544666666665, "is_reserved": 0, "is_disabled": 0, "rental_uris": {"android": "https://dc.lft.to/lastmile_qr_scan", "ios": "https://dc.lft.to/lastmile_qr_scan"}, "name": "45fd411a8fda134a24cc342e67ac23ab", "type": "electric_scooter"}, {"fusion_lat": 0.0, "bike_id": "28da7599319fa0eceb8ca12b77d9f228", "fusion_lon": 0.0, "lon": -77.04374883333334, "lat": 38.892220333333334, "is_reserved": 0, "is_disabled": 0, "rental_uris": {"android": "https://dc.lft.to/lastmile_qr_scan", "ios": "https://dc.lft.to/lastmile_qr_scan"}, "name": "28da7599319fa0eceb8ca12b77d9f228", "type": "electric_scooter"}, {"fusion_lat": 0.0, "bike_id": "61949ae0c0a4ead731c0d588cfe7dc55", "fusion_lon": 0.0, "lon": -77.04506866666667, "lat": 38.89224183333333, "is_reserved": 0, "is_disabled": 0, "rental_uris": {"android": "https://dc.lft.to/lastmile_qr_scan", "ios": "https://dc.lft.to/lastmile_qr_scan"}, "name": "61949ae0c0a4ead731c0d588cfe7dc55", "type": "electric_scooter"}, {"fusion_lat": 0.0, "bike_id": "1206042e7bb382c5826c26b459e2637c", "fusion_lon": 0.0, "lon": -77.050117, "lat": 38.900847666666664, "is_reserved": 0, "is_disabled": 0, "rental_uris": {"android": "https://dc.lft.to/lastmile_qr_scan", "ios": "https://dc.lft.to/lastmile_qr_scan"}, "name": "1206042e7bb382c5826c26b459e2637c", "type": "electric_scooter"}, {"fusion_lat": 0.0, "bike_id": "44efd1f10d0ae63ec43fc5d1a9757fc7", "fusion_lon": 0.0, "lon": -77.0198285, "lat": 38.960292833333334, "is_reserved": 0, "is_disabled": 0, "rental_uris": {"android": "https://dc.lft.to/lastmile_qr_scan", "ios": "https://dc.lft.to/lastmile_qr_scan"}, "name": "44efd1f10d0ae63ec43fc5d1a9757fc7", "type": "electric_scooter"}, {"fusion_lat": 0.0, "bike_id": "55feae8d7fdda38f7fceb674cf6ec6ca", "fusion_lon": 0.0, "lon": -77.0551075, "lat": 38.935552333333334, "is_reserved": 0, "is_disabled": 0, "rental_uris": {"android": "https://dc.lft.to/lastmile_qr_scan", "ios": "https://dc.lft.to/lastmile_qr_scan"}, "name": "55feae8d7fdda38f7fceb674cf6ec6ca", "type": "electric_scooter"}, {"fusion_lat": 0.0, "bike_id": "8ad222de58c68b2bb9d6a40644de01be", "fusion_lon": 0.0, "lon": -76.93174466666666, "lat": 38.89889183333333, "is_reserved": 0, "is_disabled": 0, "rental_uris": {"android": "https://dc.lft.to/lastmile_qr_scan", "ios": "https://dc.lft.to/lastmile_qr_scan"}, "name": "8ad222de58c68b2bb9d6a40644de01be", "type": "electric_scooter"}, {"fusion_lat": 0.0, "bike_id": "a9ff959bb5a4e6b18252ddcec11938e6", "fusion_lon": 0.0, "lon": -77.01667, "lat": 38.877099, "is_reserved": 0, "is_disabled": 0, "rental_uris": {"android": "https://dc.lft.to/lastmile_qr_scan", "ios": "https://dc.lft.to/lastmile_qr_scan"}, "name": "a9ff959bb5a4e6b18252ddcec11938e6", "type": "electric_scooter"},