{"data": {"bikes": [{"fusion_lat": 0.0, "name": "426a9f08a30b28230e57927d62ba18f1", "is_disabled": 0, "rental_uris": {"android": "https://dc.lft.to/lastmile_qr_scan", "ios": "https://dc.lft.to/lastmile_qr_scan"}, "fusion_lon": 0.0, "lat": 38.933575166666664, "bike_id": "426a9f08a30b28230e57927d62ba18f1", "type": "electric_scooter", "is_reserved": 0, "lon": -77.03437433333333}, {"fusion_lat": 0.0, "name": "d4be1e3377405f25e759fb4b47c0b52a", "is_disabled": 0, "rental_uris": {"android": "https://dc.lft.to/lastmile_qr_scan", "ios": "https://dc.lft.to/lastmile_qr_scan"}, "fusion_lon": 0.0, "lat": 38.8577155, "bike_id": "d4be1e3377405f25e759fb4b47c0b52a", "type": "electric_bike", "is_reserved": 0, "lon": -76.98760166666666}, {"fusion_lat": 0.0, "name": "e9e219d6140746dd0599ea081e2671f7", "is_disabled": 0, "rental_uris": {"android": "https://dc.lft.to/lastmile_qr_scan", "ios": "https://dc.lft.to/lastmile_qr_scan"}, "fusion_lon": 0.0, "lat": 38.902694, "bike_id": "e9e219d6140746dd0599ea081e2671f7", "type": "electric_scooter", "is_reserved": 0, "lon": -77.03979783333334}, {"fusion_lat": 0.0, "name": "133b792dc3b679efe68d5b4c29bd3c90", "is_disabled": 0, "rental_uris": {"android": "https://dc.lft.to/lastmile_qr_scan", "ios": "https://dc.lft.to/lastmile_qr_scan"}, "fusion_lon": 0.0, "lat": 38.8987155, "bike_id": "133b792dc3b679efe68d5b4c29bd3c90", "type": "electric_scooter", "is_reserved": 0, "lon": -77.021753}, {"fusion_lat": 0.0, "name": "a4aaab6036ce1c7faed7ce80087114d4", "is_disabled": 0, "rental_uris": {"android": "https://dc.lft.to/lastmile_qr_scan", "ios": "https://dc.lft.to/lastmile_qr_scan"}, "fusion_lon": 0.0, "lat": 38.91210683333333, "bike_id": "a4aaab6036ce1c7faed7ce80087114d4", "type": "electric_scooter", "is_reserved": 0, "lon": -77.04492183333333}, {"fusion_lat": 0.0, "name": "e1d40a8197b24cb3ee88cff9ef255359", "is_disabled": 0, "rental_uris": {"android": "https://dc.lft.to/lastmile_qr_scan", "ios": "https://dc.lft.to/lastmile_qr_scan"}, "fusion_lon": 0.0, "lat": 38.90402483333333, "bike_id": "e1d40a8197b24cb3ee88cff9ef255359", "type": "electric_scooter", "is_reserved": 0, "lon": -77.02493266666667}, {"fusion_lat": 0.0, "name": "991114b67aaab291a863fb6ff3b75d9e", "is_disabled": 0, "rental_uris": {"android": "https://dc.lft.to/lastmile_qr_scan", "ios": "https://dc.lft.to/lastmile_qr_scan"}, "fusion_lon": 0.0, "lat": 38.916929333333336, "bike_id": "991114b67aaab291a863fb6ff3b75d9e", "type": "electric_scooter", "is_reserved": 0, "lon": -77.02596933333334}, {"fusion_lat": 0.0, "name": "84fc0523e2a1f9fa6276f02132157eae", "is_disabled": 0, "rental_uris": {"android": "https://dc.lft.to/lastmile_qr_scan", "ios": "https://dc.lft.to/lastmile_qr_scan"}, "fusion_lon": 0.0, "lat": 38.883823166666666, "bike_id": "84fc0523e2a1f9fa6276f02132157eae", "type": "electric_scooter", "is_reserved": 0, "lon": -76.93054533333333}, {"fusion_lat": 0.0, "name": "6dc6834a34f30d7cc34d764137a5cbf2", "is_disabled": 0, "rental_uris": {"android": "https://dc.lft.to/lastmile_qr_scan", "ios": "https://dc.lft.to/lastmile_qr_scan"}, "fusion_lon": 0.0, "lat": 38.921514333333334, "bike_id": "6dc6834a34f30d7cc34d764137a5cbf2", "type": "electric_scooter", "is_reserved": 0, "lon": -77.03869566666667}, {"fusion_lat": 0.0, "name": "cfdb8bcdbb9acaff4337edf25429e844", "is_disabled": 0, "rental_uris": {"android": "https://dc.lft.to/lastmile_qr_scan", "ios": "https://dc.lft.to/lastmile_qr_scan"}, "fusion_lon": 0.0, "lat": 38.934005, "bike_id": "cfdb8bcdbb9acaff4337edf25429e844", "type": "electric_scooter", "is_reserved": 0, "lon": -77.0284385}, {"fusion_lat": 0.0, "name": "553ed607546eb0afbd56d35aa5b40e92", "is_disabled": 0, "rental_uris": {"android": "https://dc.lft.to/lastmile_qr_scan", "ios": "https://dc.lft.to/lastmile_qr_scan"}, "fusion_lon": 0.0, "lat": 38.94091783333333, "bike_id": "553ed607546eb0afbd56d35aa5b40e92", "type": "electric_scooter", "is_reserved": 0, "lon": -77.0617585}, {"fusion_lat": 0.0, "name": "8cb67b8bf0d89076acc6425697eea3f9", "is_disabled": 0, "rental_uris": {"android": "https://dc.lft.to/lastmile_qr_scan", "ios": "https://dc.lft.to/lastmile_qr_scan"}, "fusion_lon": 0.0, "lat": 38.92471533333333, "bike_id": "8cb67b8bf0d89076acc6425697eea3f9", "type": "electric_scooter", "is_reserved": 0, "lon": -77.08024183333333}, {"fusion_lat": 0.0, "name": "fe5aa9fe516c133c993593088b02257b", "is_disabled": 0, "rental_uris": {"android": "https://dc.lft.to/lastmile_qr_scan", "ios": "https://dc.lft.to/lastmile_qr_scan"}, "fusion_lon": 0.0, "lat": 38.883125166666666, "bike_id": "fe5aa9fe516c133c993593088b02257b", "type": "electric_scooter", "is_reserved": 0, "lon": -77.01845}, {"fusion_lat": 0.0, "name": "9e53ba9112ac4bcf4d919253d79c5127", "is_disabled": 0, "rental_uris": {"android": "https://dc.lft.to/lastmile_qr_scan", "ios": "https://dc.lft.to/lastmile_qr_scan"}, "fusion_lon": 0.0, "lat": 38.892573166666665, "bike_id": "9e53ba9112ac4bcf4d919253d79c5127", "type": "electric_bike", "is_reserved": 0, "lon": -76.9511465}, {"fusion_lat": 0.0, "name": "3e5cdca536958585c4a4167b9b55eeba", "is_disabled": 0, "rental_uris": {"android": "https://dc.lft.to/lastmile_qr_scan", "ios": "https://dc.lft.to/lastmile_qr_scan"}, "fusion_lon": 0.0, "lat": 38.91329916666667, "bike_id": "3e5cdca536958585c4a4167b9b55eeba", "type": "electric_scooter", "is_reserved": 0, "lon": -77.03183766666666}, {"fusion_lat": 0.0, "name": "d2f9825d0e2c3761f349f11e48011482", "is_disabled": 0, "rental_uris": {"android": "https://dc.lft.to/lastmile_qr_scan", "ios": "https://dc.lft.to/lastmile_qr_scan"}, "fusion_lon": 0.0, "lat": 38.96727533333333, "bike_id": "d2f9825d0e2c3761f349f11e48011482", "type": "electric_scooter", "is_reserved": 0, "lon": -77.009182}, {"fusion_lat": 0.0, "name": "590535f862f9051ddeca9c6e9291609c", "is_disabled": 0, "rental_uris": {"android": "https://dc.lft.to/lastmile_qr_scan", "ios": "https://dc.lft.to/lastmile_qr_scan"}, "fusion_lon": 0.0, "lat": 38.95244366666667, "bike_id": "590535f862f9051ddeca9c6e9291609c", "type": "electric_scooter", "is_reserved": 0, "lon": -77.02380883333333}, {"fusion_lat": 0.0, "name": "3ee924dc11fe9510ac958926abe6ad4e", "is_disabled": 0, "rental_uris": {"android": "https://dc.lft.to/lastmile_qr_scan", "ios": "https://dc.lft.to/lastmile_qr_scan"}, "fusion_lon": 0.0, "lat": 38.893521, "bike_id": "3ee924dc11fe9510ac958926abe6ad4e", "type": "electric_scooter", "is_reserved": 0, "lon": -77.000681}, {"fusion_lat": 0.0, "name": "0a05d7139bc2f32f15a372956f08422e", "is_disabled": 0, "rental_uris": {"android": "https://dc.lft.to/lastmile_qr_scan", "ios": "https://dc.lft.to/lastmile_qr_scan"}, "fusion_lon": 0.0, "lat": 38.919154, "bike_id": "0a05d7139bc2f32f15a372956f08422e", "type": "electric_scooter", "is_reserved": 0, "lon": -77.02616183333333}, {"fusion_lat": 0.0, "name": "4219f137fe1c746f7c5a83e28e42d681", "is_disabled": 0, "rental_uris": {"android": "https://dc.lft.to/lastmile_qr_scan", "ios": "https://dc.lft.to/lastmile_qr_scan"}, "fusion_lon": 0.0, "lat": 38.902672, "bike_id": "4219f137fe1c746f7c5a83e28e42d681", "type": "electric_scooter", "is_reserved": 0, "lon": -77.01766616666667}, {"fusion_lat": 0.0, "name": "057478b21dcdc7e00065fc7a86ce8177", "is_disabled": 0, "rental_uris": {"android": "https://dc.lft.to/lastmile_qr_scan", "ios": "https://dc.lft.to/lastmile_qr_scan"}, "fusion_lon": 0.0, "lat": 38.89621433333333, "bike_id": "057478b21dcdc7e00065fc7a86ce8177", "type": "electric_scooter", "is_reserved": 0, "lon": -77.02657383333333}, {"fusion_lat": 0.0, "name": "9ba9260743fe2d22fb98c5f6e9b6efa5", "is_disabled": 0, "rental_uris": {"android": "https://dc.lft.to/lastmile_qr_scan", "ios": "https://dc.lft.to/lastmile_qr_scan"}, "fusion_lon": 0.0, "lat": 38.9136265, "bike_id": "9ba9260743fe2d22fb98c5f6e9b6efa5", "type": "electric_scooter", "is_reserved": 0, "lon": -77.0204875}, {"fusion_lat": 0.0, "name": "124f50dfc87d1b944702621e3bbc01ed", "is_disabled": 0, "rental_uris": {"android": "https://dc.lft.to/lastmile_qr_scan", "ios": "https://dc.lft.to/lastmile_qr_scan"}, "fusion_lon": 0.0, "lat": 38.9168025, "bike_id": "124f50dfc87d1b944702621e3bbc01ed", "type": "electric_scooter", "is_reserved": 0, "lon": -77.03686516666667}, {"fusion_lat": 0.0, "name": "9e8377c9a0e20d31e45f51690e77d5fe", "is_disabled": 0, "rental_uris": {"android": "https://dc.lft.to/lastmile_qr_scan", "ios": "https://dc.lft.to/lastmile_qr_scan"}, "fusion_lon": 0.0, "lat": 38.905572166666666, "bike_id": "9e8377c9a0e20d31e45f51690e77d5fe", "type": "electric_scooter", "is_reserved": 0, "lon": -77.04293933333334}, {"fusion_lat": 0.0, "name": "c05c2dc440cc305db64549d58ed0fda8", "is_disabled": 0, "rental_uris": {"android": "https://dc.lft.to/lastmile_qr_scan", "ios": "https://dc.lft.to/lastmile_qr_scan"}, "fusion_lon": 0.0, "lat": 38.873775333333334, "bike_id": "c05c2dc440cc305db64549d58ed0fda8", "type": "electric_scooter", "is_reserved": 0, "lon": -77.000904}, {"fusion_lat": 0.0, "name": "809fddd61343984cf8c3fe3c44bbdebc", "is_disabled": 0, "rental_uris": {"android": "https://dc.lft.to/lastmile_qr_scan", "ios": "https://dc.lft.to/lastmile_qr_scan"}, "fusion_lon": 0.0, "lat": 38.9014645, "bike_id": "809fddd61343984cf8c3fe3c44bbdebc", "type": "electric_bike", "is_reserved": 0, "lon": -77.1289625}, {"fusion_lat": 0.0, "name": "e75991518845039d8ebebf129940de22", "is_disabled": 0, "rental_uris": {"android": "https://dc.lft.to/lastmile_qr_scan", "ios": "https://dc.lft.to/lastmile_qr_scan"}, "fusion_lon": 0.0, "lat": 38.90987166666667, "bike_id": "e75991518845039d8ebebf129940de22", "type": "electric_scooter", "is_reserved": 0, "lon": -77.03398383333334}, {"fusion_lat": 0.0, "name": "cd3ce907a747f085cb9fad89527faeea", "is_disabled": 0, "rental_uris": {"android": "https://dc.lft.to/lastmile_qr_scan", "ios": "https://dc.lft.to/lastmile_qr_scan"}, "fusion_lon": 0.0, "lat": 38.921024833333334, "bike_id": "cd3ce907a747f085cb9fad89527faeea", "type": "electric_scooter", "is_reserved": 0, "lon": -77.07469533333334}, {"fusion_lat": 0.0, "name": "5f68acb83ec74dd70e68f959b98ecde8", "is_disabled": 0, "rental_uris": {"android": "https://dc.lft.to/lastmile_qr_scan", "ios": "https://dc.lft.to/lastmile_qr_scan"}, "fusion_lon": 0.0, "lat": 38.881583666666664, "bike_id": "5f68acb83ec74dd70e68f959b98ecde8", "type": "electric_scooter", "is_reserved": 0, "lon": -77.0276455}, {"fusion_lat": 0.0, "name": "9bce0b6417302e3f5e9b35b5179c9664", "is_disabled": 0, "rental_uris": {"android": "https://dc.lft.to/lastmile_qr_scan", "ios": "https://dc.lft.to/lastmile_qr_scan"}, "fusion_lon": 0.0, "lat": 38.90359133333333, "bike_id": "9bce0b6417302e3f5e9b35b5179c9664", "type": "electric_scooter", "is_reserved": 0, "lon": -77.0626755}, {"fusion_lat": 0.0, "name": "a4381b210a4a86af8085e35f7aee2ab3", "is_disabled": 0, "rental_uris": {"android": "https://dc.lft.to/lastmile_qr_scan", "ios": "https://dc.lft.to/lastmile_qr_scan"}, "fusion_lon": 0.0, "lat": 38.866560666666665, "bike_id": "a4381b210a4a86af8085e35f7aee2ab3", "type": "electric_scooter", "is_reserved": 0, "lon": -76.98520583333334}, {"fusion_lat": 0.0, "name": "23d8f8151d009cdde16aca1100338239", "is_disabled": 0, "rental_uris": {"android": "https://dc.lft.to/lastmile_qr_scan", "ios": "https://dc.lft.to/lastmile_qr_scan"}, "fusion_lon": 0.0, "lat": 38.90012383333333, "bike_id": "23d8f8151d009cdde16aca1100338239", "type": "electric_scooter", "is_reserved": 0, "lon": -77.04099}, {"fusion_lat": 0.0, "name": "3ac557bcaa288411856646dc79ede84f", "is_disabled": 0, "rental_uris": {"android": "https://dc.lft.to/lastmile_qr_scan", "ios": "https://dc.lft.to/lastmile_qr_scan"}, "fusion_lon": 0.0, "lat": 38.91837783333333, "bike_id": "3ac557bcaa288411856646dc79ede84f", "type": "electric_scooter", "is_reserved": 0, "lon": -77.04176633333333}, {"fusion_lat": 0.0, "name": "c6a67029f6903feb33f496ad47dfb470", "is_disabled": 0, "rental_uris": {"android": "https://dc.lft.to/lastmile_qr_scan", "ios": "https://dc.lft.to/lastmile_qr_scan"}, "fusion_lon": 0.0, "lat": 38.86519933333334, "bike_id": "c6a67029f6903feb33f496ad47dfb470", "type": "electric_bike", "is_reserved": 0, "lon": -76.9733505}, {"fusion_lat": 0.0, "name": "351a85180cedeb48669a54e49d892eb5", "is_disabled": 0, "rental_uris": {"android": "https://dc.lft.to/lastmile_qr_scan", "ios": "https://dc.lft.to/lastmile_qr_scan"}, "fusion_lon": 0.0, "lat": 38.9055295, "bike_id": "351a85180cedeb48669a54e49d892eb5", "type": "electric_scooter", "is_reserved": 0, "lon": -77.03128183333334}, {"fusion_lat": 0.0, "name": "6ee69143ba7943c6c478a6dde2d13498", "is_disabled": 0, "rental_uris": {"android": "https://dc.lft.to/lastmile_qr_scan", "ios": "https://dc.lft.to/lastmile_qr_scan"}, "fusion_lon": 0.0, "lat": 38.934271, "bike_id": "6ee69143ba7943c6c478a6dde2d13498", "type": "electric_scooter", "is_reserved": 0, "lon": -77.03452683333333}, {"fusion_lat": 0.0, "name": "77e35c075b1495e1930e94d3f53da7ef", "is_disabled": 0, "rental_uris": {"android": "https://dc.lft.to/lastmile_qr_scan", "ios": "https://dc.lft.to/lastmile_qr_scan"}, "fusion_lon": 0.0, "lat": 38.926089166666664, "bike_id": "77e35c075b1495e1930e94d3f53da7ef", "type": "electric_scooter", "is_reserved": 0, "lon": -77.0395855}, {"fusion_lat": 0.0, "name": "fc13527f5f994588e4ed857cfd21b484", "is_disabled": 0, "rental_uris": {"android": "https://dc.lft.to/lastmile_qr_scan", "ios": "https://dc.lft.to/lastmile_qr_scan"}, "fusion_lon": 0.0, "lat": 38.91553433333333, "bike_id": "fc13527f5f994588e4ed857cfd21b484", "type": "electric_scooter", "is_reserved": 0, "lon": -77.032553}, {"fusion_lat": 0.0, "name": "b13524cdcce13eaa538750ac7fddf63a", "is_disabled": 0, "rental_uris": {"android": "https://dc.lft.to/lastmile_qr_scan", "ios": "https://dc.lft.to/lastmile_qr_scan"}, "fusion_lon": 0.0, "lat": 38.90873916666666, "bike_id": "b13524cdcce13eaa538750ac7fddf63a", "type": "electric_scooter", "is_reserved": 0, "lon": -77.042852}, {"fusion_lat": 0.0, "name": "67ce4d1564fa09c494a662f16a1fae64", "is_disabled": 0, "rental_uris": {"android": "https://dc.lft.to/lastmile_qr_scan", "ios": "https://dc.lft.to/lastmile_qr_scan"}, "fusion_lon": 0.0, "lat": 38.9618555, "bike_id": "67ce4d1564fa09c494a662f16a1fae64", "type": "electric_bike", "is_reserved": 0, "lon": -77.0526605}, {"fusion_lat": 0.0, "name": "cecab6436c78def030adc81b539a2643", "is_disabled": 0, "rental_uris": {"android": "https://dc.lft.to/lastmile_qr_scan", "ios": "https://dc.lft.to/lastmile_qr_scan"}, "fusion_lon": 0.0, "lat": 38.9112405, "bike_id": "cecab6436c78def030adc81b539a2643", "type": "electric_scooter", "is_reserved": 0, "lon": -77.02093416666666}, {"fusion_lat": 0.0, "name": "5544eec2d9a398093cb0ca83325e1afd", "is_disabled": 0, "rental_uris": {"android": "https://dc.lft.to/lastmile_qr_scan", "ios": "https://dc.lft.to/lastmile_qr_scan"}, "fusion_lon": 0.0, "lat": 38.89693666666667, "bike_id": "5544eec2d9a398093cb0ca83325e1afd", "type": "electric_scooter", "is_reserved": 0, "lon": -77.04334233333333}, {"fusion_lat": 0.0, "name": "0544152a7093c108cf4d93553bce9151", "is_disabled": 0, "rental_uris": {"android": "https://dc.lft.to/lastmile_qr_scan", "ios": "https://dc.lft.to/lastmile_qr_scan"}, "fusion_lon": 0.0, "lat": 38.891165666666666, "bike_id": "0544152a7093c108cf4d93553bce9151", "type": "electric_scooter", "is_reserved": 0, "lon": -76.94381366666667}, {"fusion_lat": 0.0, "name": "7497862623bff8e1f1bd4066018fb254", "is_disabled": 0, "rental_uris": {"android": "https://dc.lft.to/lastmile_qr_scan", "ios": "https://dc.lft.to/lastmile_qr_scan"}, "fusion_lon": 0.0, "lat": 38.96992516666667, "bike_id": "7497862623bff8e1f1bd4066018fb254", "type": "electric_scooter", "is_reserved": 0, "lon": -77.0115995}, {"fusion_lat": 0.0, "name": "71a55c8b226ad1250cb9457e63895e6b", "is_disabled": 0, "rental_uris": {"android": "https://dc.lft.to/lastmile_qr_scan", "ios": "https://dc.lft.to/lastmile_qr_scan"}, "fusion_lon": 0.0, "lat": 38.911731333333336, "bike_id": "71a55c8b226ad1250cb9457e63895e6b", "type": "electric_scooter", "is_reserved": 0, "lon": -77.00451866666667}, {"fusion_lat": 0.0, "name": "e3368d8deac54ab3b3c8fff65ff1dc04", "is_disabled": 0, "rental_uris": {"android": "https://dc.lft.to/lastmile_qr_scan", "ios": "https://dc.lft.to/lastmile_qr_scan"}, "fusion_lon": 0.0, "lat": 38.930552666666664, "bike_id": "e3368d8deac54ab3b3c8fff65ff1dc04", "type": "electric_scooter", "is_reserved": 0, "lon": -77.04055416666667}, {"fusion_lat": 0.0, "name": "5b74fa05e264a53f4fbc08b611c1e6e1", "is_disabled": 0, "rental_uris": {"android": "https://dc.lft.to/lastmile_qr_scan", "ios": "https://dc.lft.to/lastmile_qr_scan"}, "fusion_lon": 0.0, "lat": 38.897335, "bike_id": "5b74fa05e264a53f4fbc08b611c1e6e1", "type": "electric_bike", "is_reserved": 0, "lon": -76.92044433333334}, {"fusion_lat": 0.0, "name": "1a7070f1a17b2a8688b2da3cf5f17120", "is_disabled": 0, "rental_uris": {"android": "https://dc.lft.to/lastmile_qr_scan", "ios": "https://dc.lft.to/lastmile_qr_scan"}, "fusion_lon": 0.0, "lat": 38.909251166666664, "bike_id": "1a7070f1a17b2a8688b2da3cf5f17120", "type": "electric_scooter", "is_reserved": 0, "lon": -77.07271133333333}, {"fusion_lat": 0.0, "name": "21e069abecd2dc0cdbcb209a8dfa4b15", "is_disabled": 0, "rental_uris": {"android": "https://dc.lft.to/lastmile_qr_scan", "ios": "https://dc.lft.to/lastmile_qr_scan"}, "fusion_lon": 0.0, "lat": 38.91105483333333, "bike_id": "21e069abecd2dc0cdbcb209a8dfa4b15", "type": "electric_scooter", "is_reserved": 0, "lon": -77.02772166666666}, {"fusion_lat": 0.0, "name": "d2bb36da0671625033a64b30db29e2e4", "is_disabled": 0, "rental_uris": {"android": "https://dc.lft.to/lastmile_qr_scan", "ios": "https://dc.lft.to/lastmile_qr_scan"}, "fusion_lon": 0.0, "lat": 38.97375666666667, "bike_id": "d2bb36da0671625033a64b30db29e2e4", "type": "electric_scooter", "is_reserved": 0, "lon": -77.01282833333333}, {"fusion_lat": 0.0, "name": "ab4b828f4e02c37423e6cd7dad3613b1", "is_disabled": 0, "rental_uris": {"android": "https://dc.lft.to/lastmile_qr_scan", "ios": "https://dc.lft.to/lastmile_qr_scan"}, "fusion_lon": 0.0, "lat": 38.88714316666667, "bike_id": "ab4b828f4e02c37423e6cd7dad3613b1", "type": "electric_scooter", "is_reserved": 0, "lon": -77.0177715}, {"fusion_lat": 0.0, "name": "cb7647b7d26ef5469dfa3fd9a7041a06", "is_disabled": 0, "rental_uris": {"android": "https://dc.lft.to/lastmile_qr_scan", "ios": "https://dc.lft.to/lastmile_qr_scan"}, "fusion_lon": 0.0, "lat": 38.92158883333333, "bike_id": "cb7647b7d26ef5469dfa3fd9a7041a06", "type": "electric_scooter", "is_reserved": 0, "lon": -77.02420383333333}, {"fusion_lat": 0.0, "name": "0f2ff564f4db7b730762707aea8a3587", "is_disabled": 0, "rental_uris": {"android": "https://dc.lft.to/lastmile_qr_scan", "ios": "https://dc.lft.to/lastmile_qr_scan"}, "fusion_lon": 0.0, "lat": 38.867631833333334, "bike_id": "0f2ff564f4db7b730762707aea8a3587", "type": "electric_scooter", "is_reserved": 0, "lon": -76.982727}, {"fusion_lat": 0.0, "name": "ef89555c0b6f608e076d2db36114b08d", "is_disabled": 0, "rental_uris": {"android": "https://dc.lft.to/lastmile_qr_scan", "ios": "https://dc.lft.to/lastmile_qr_scan"}, "fusion_lon": 0.0, "lat": 38.87463616666667, "bike_id": "ef89555c0b6f608e076d2db36114b08d", "type": "electric_scooter", "is_reserved": 0, "lon": -77.00053666666666}, {"fusion_lat": 0.0, "name": "164a9304ed47cdcceebaff40824ba6bd", "is_disabled": 0, "rental_uris": {"android": "https://dc.lft.to/lastmile_qr_scan", "ios": "https://dc.lft.to/lastmile_qr_scan"}, "fusion_lon": 0.0, "lat": 38.90053416666667, "bike_id": "164a9304ed47cdcceebaff40824ba6bd", "type": "electric_scooter", "is_reserved": 0, "lon": -76.98818466666667}, {"fusion_lat": 0.0, "name": "c1a3b85e5d56aab4cf74fe41a4ccc763", "is_disabled": 0, "rental_uris": {"android": "https://dc.lft.to/lastmile_qr_scan", "ios": "https://dc.lft.to/lastmile_qr_scan"}, "fusion_lon": 0.0, "lat": 38.88904316666667, "bike_id": "c1a3b85e5d56aab4cf74fe41a4ccc763", "type": "electric_scooter", "is_reserved": 0, "lon": -76.977309}, {"fusion_lat": 0.0, "name": "c71a70c6ec893e260dd07a228d53bb9a", "is_disabled": 0, "rental_uris": {"android": "https://dc.lft.to/lastmile_qr_scan", "ios": "https://dc.lft.to/lastmile_qr_scan"}, "fusion_lon": 0.0, "lat": 38.90720183333333, "bike_id": "c71a70c6ec893e260dd07a228d53bb9a", "type": "electric_scooter", "is_reserved": 0, "lon": -77.02980483333333}, {"fusion_lat": 0.0, "name": "247fbb9f5cf72930b58dc01a1c7c9490", "is_disabled": 0, "rental_uris": {"android": "https://dc.lft.to/lastmile_qr_scan", "ios": "https://dc.lft.to/lastmile_qr_scan"}, "fusion_lon": 0.0, "lat": 38.853079666666666, "bike_id": "247fbb9f5cf72930b58dc01a1c7c9490", "type": "electric_bike", "is_reserved": 0, "lon": -77.04612516666667}, {"fusion_lat": 0.0, "name": "ab89bc5e1bee3714091e326810931aae", "is_disabled": 0, "rental_uris": {"android": "https://dc.lft.to/lastmile_qr_scan", "ios": "https://dc.lft.to/lastmile_qr_scan"}, "fusion_lon": 0.0, "lat": 38.9294935, "bike_id": "ab89bc5e1bee3714091e326810931aae", "type": "electric_scooter", "is_reserved": 0, "lon": -77.03464633333333}, {"fusion_lat": 0.0, "name": "8646fcb62da0fe17af7c736bfbd39e40", "is_disabled": 0, "rental_uris": {"android": "https://dc.lft.to/lastmile_qr_scan", "ios": "https://dc.lft.to/lastmile_qr_scan"}, "fusion_lon": 0.0, "lat": 38.90773733333333, "bike_id": "8646fcb62da0fe17af7c736bfbd39e40", "type": "electric_scooter", "is_reserved": 0, "lon": -77.03196416666667}, {"fusion_lat": 0.0, "name": "0ffa79829517406837ca0156a9d39fb3", "is_disabled": 0, "rental_uris": {"android": "https://dc.lft.to/lastmile_qr_scan", "ios": "https://dc.lft.to/lastmile_qr_scan"}, "fusion_lon": 0.0, "lat": 38.897324833333336, "bike_id": "0ffa79829517406837ca0156a9d39fb3", "type": "electric_scooter", "is_reserved": 0, "lon": -77.04359466666666}, {"fusion_lat": 0.0, "name": "a2fbabdaeac9a0ba847d604a2048fc6f", "is_disabled": 0, "rental_uris": {"android": "https://dc.lft.to/lastmile_qr_scan", "ios": "https://dc.lft.to/lastmile_qr_scan"}, "fusion_lon": 0.0, "lat": 38.897325333333335, "bike_id": "a2fbabdaeac9a0ba847d604a2048fc6f", "type": "electric_scooter", "is_reserved": 0, "lon": -77.009698}, {"fusion_lat": 0.0, "name": "a03c30ff058a0624a21d6b825fdd4477", "is_disabled": 0, "rental_uris": {"android": "https://dc.lft.to/lastmile_qr_scan", "ios": "https://dc.lft.to/lastmile_qr_scan"}, "fusion_lon": 0.0, "lat": 38.842787333333334, "bike_id": "a03c30ff058a0624a21d6b825fdd4477", "type": "electric_bike", "is_reserved": 0, "lon": -77.04505216666666}, {"fusion_lat": 0.0, "name": "27aa1e5c8053bea82067f52061bcd5ef", "is_disabled": 0, "rental_uris": {"android": "https://dc.lft.to/lastmile_qr_scan", "ios": "https://dc.lft.to/lastmile_qr_scan"}, "fusion_lon": 0.0, "lat": 38.928480666666665, "bike_id": "27aa1e5c8053bea82067f52061bcd5ef", "type": "electric_scooter", "is_reserved": 0, "lon": -77.0327255}, {"fusion_lat": 0.0, "name": "82f80db829a6da98ac5bf3f3666bdb5e", "is_disabled": 0, "rental_uris": {"android": "https://dc.lft.to/lastmile_qr_scan", "ios": "https://dc.lft.to/lastmile_qr_scan"}, "fusion_lon": 0.0, "lat": 38.886752, "bike_id": "82f80db829a6da98ac5bf3f3666bdb5e", "type": "electric_bike", "is_reserved": 0, "lon": -77.16236733333334}, {"fusion_lat": 0.0, "name": "36ea0d16a6d4eb93bc36bfb03f3b7b87", "is_disabled": 0, "rental_uris": {"android": "https://dc.lft.to/lastmile_qr_scan", "ios": "https://dc.lft.to/lastmile_qr_scan"}, "fusion_lon": 0.0, "lat": 38.919162, "bike_id": "36ea0d16a6d4eb93bc36bfb03f3b7b87", "type": "electric_scooter", "is_reserved": 0, "lon": -77.02876716666667}, {"fusion_lat": 0.0, "name": "7ab1563f3b19b2c8a5e4655dbb2b7844", "is_disabled": 0, "rental_uris": {"android": "https://dc.lft.to/lastmile_qr_scan", "ios": "https://dc.lft.to/lastmile_qr_scan"}, "fusion_lon": 0.0, "lat": 38.90980316666667, "bike_id": "7ab1563f3b19b2c8a5e4655dbb2b7844", "type": "electric_scooter", "is_reserved": 0, "lon": -77.0447695}, {"fusion_lat": 0.0, "name": "116569f8fc968bb6da9dad173057b19f", "is_disabled": 0, "rental_uris": {"android": "https://dc.lft.to/lastmile_qr_scan", "ios": "https://dc.lft.to/lastmile_qr_scan"}, "fusion_lon": 0.0, "lat": 38.93611216666667, "bike_id": "116569f8fc968bb6da9dad173057b19f", "type": "electric_scooter", "is_reserved": 0, "lon": -77.03199066666667}, {"fusion_lat": 0.0, "name": "ac3d3e36c3b4fdfc77b0a64ce07014d7", "is_disabled": 0, "rental_uris": {"android": "https://dc.lft.to/lastmile_qr_scan", "ios": "https://dc.lft.to/lastmile_qr_scan"}, "fusion_lon": 0.0, "lat": 38.884926, "bike_id": "ac3d3e36c3b4fdfc77b0a64ce07014d7", "type": "electric_scooter", "is_reserved": 0, "lon": -77.007251}, {"fusion_lat": 0.0, "name": "44d7583b8c2b154a1ec6c9b5d280f0c8", "is_disabled": 0, "rental_uris": {"android": "https://dc.lft.to/lastmile_qr_scan", "ios": "https://dc.lft.to/lastmile_qr_scan"}, "fusion_lon": 0.0, "lat": 38.928534166666665, "bike_id": "44d7583b8c2b154a1ec6c9b5d280f0c8", "type": "electric_scooter", "is_reserved": 0, "lon": -77.0309975}, {"fusion_lat": 0.0, "name": "37eea4e64a7586a3faa27d570510400e", "is_disabled": 0, "rental_uris": {"android": "https://dc.lft.to/lastmile_qr_scan", "ios": "https://dc.lft.to/lastmile_qr_scan"}, "fusion_lon": 0.0, "lat": 38.957381, "bike_id": "37eea4e64a7586a3faa27d570510400e", "type": "electric_bike", "is_reserved": 0, "lon": -76.98081216666667}, {"fusion_lat": 0.0, "name": "eccbc58295bf89c8435c97aa24fc3cdc", "is_disabled": 0, "rental_uris": {"android": "https://dc.lft.to/lastmile_qr_scan", "ios": "https://dc.lft.to/lastmile_qr_scan"}, "fusion_lon": 0.0, "lat": 38.920345833333336, "bike_id": "eccbc58295bf89c8435c97aa24fc3cdc", "type": "electric_scooter", "is_reserved": 0, "lon": -77.048111}, {"fusion_lat": 0.0, "name": "e3500d7cb43824e5f341394e556bf5f0", "is_disabled": 0, "rental_uris": {"android": "https://dc.lft.to/lastmile_qr_scan", "ios": "https://dc.lft.to/lastmile_qr_scan"}, "fusion_lon": 0.0, "lat": 38.9111745, "bike_id": "e3500d7cb43824e5f341394e556bf5f0", "type": "electric_scooter", "is_reserved": 0, "lon": -77.02237433333333}, {"fusion_lat": 0.0, "name": "e4c9ce27f3f19bec68d613d84352201f", "is_disabled": 0, "rental_uris": {"android": "https://dc.lft.to/lastmile_qr_scan", "ios": "https://dc.lft.to/lastmile_qr_scan"}, "fusion_lon": 0.0, "lat": 38.91757033333333, "bike_id": "e4c9ce27f3f19bec68d613d84352201f", "type": "electric_scooter", "is_reserved": 0, "lon": -77.0269845}, {"fusion_lat": 0.0, "name": "9ac9042c576e4cb6f546fa2d9db40db6", "is_disabled": 0, "rental_uris": {"android": "https://dc.lft.to/lastmile_qr_scan", "ios": "https://dc.lft.to/lastmile_qr_scan"}, "fusion_lon": 0.0, "lat": 38.959621, "bike_id": "9ac9042c576e4cb6f546fa2d9db40db6", "type": "electric_bike", "is_reserved": 0, "lon": -76.98160433333334}, {"fusion_lat": 0.0, "name": "ec18a8ff4b563e26f5cb5ab880dcb55d", "is_disabled": 0, "rental_uris": {"android": "https://dc.lft.to/lastmile_qr_scan", "ios": "https://dc.lft.to/lastmile_qr_scan"}, "fusion_lon": 0.0, "lat": 38.899076666666666, "bike_id": "ec18a8ff4b563e26f5cb5ab880dcb55d", "type": "electric_scooter", "is_reserved": 0, "lon": -76.93357916666666}, {"fusion_lat": 0.0, "name": "c91923327daf6901533646f479814d68", "is_disabled": 0, "rental_uris": {"android": "https://dc.lft.to/lastmile_qr_scan", "ios": "https://dc.lft.to/lastmile_qr_scan"}, "fusion_lon": 0.0, "lat": 38.904118, "bike_id": "c91923327daf6901533646f479814d68", "type": "electric_scooter", "is_reserved": 0, "lon": -76.973299}, {"fusion_lat": 0.0, "name": "448b5a7a9b3c6bbb0821b446fc0c1e49", "is_disabled": 0, "rental_uris": {"android": "https://dc.lft.to/lastmile_qr_scan", "ios": "https://dc.lft.to/lastmile_qr_scan"}, "fusion_lon": 0.0, "lat": 38.900199, "bike_id": "448b5a7a9b3c6bbb0821b446fc0c1e49", "type": "electric_scooter", "is_reserved": 0, "lon": -77.0398965}, {"fusion_lat": 0.0, "name": "2eb70052f16007f71502d8c985751118", "is_disabled": 0, "rental_uris": {"android": "https://dc.lft.to/lastmile_qr_scan", "ios": "https://dc.lft.to/lastmile_qr_scan"}, "fusion_lon": 0.0, "lat": 38.892066, "bike_id": "2eb70052f16007f71502d8c985751118", "type": "electric_scooter", "is_reserved": 0, "lon": -76.97703316666667}, {"fusion_lat": 0.0, "name": "5a7cb1ef955283a8f7f8ef422f7dff8b", "is_disabled": 0, "rental_uris": {"android": "https://dc.lft.to/lastmile_qr_scan", "ios": "https://dc.lft.to/lastmile_qr_scan"}, "fusion_lon": 0.0, "lat": 38.922562166666665, "bike_id": "5a7cb1ef955283a8f7f8ef422f7dff8b", "type": "electric_scooter", "is_reserved": 0, "lon": -77.01840933333334}, {"fusion_lat": 0.0, "name": "e891d55b421342105daafd5a477d81fa", "is_disabled": 0, "rental_uris": {"android": "https://dc.lft.to/lastmile_qr_scan", "ios": "https://dc.lft.to/lastmile_qr_scan"}, "fusion_lon": 0.0, "lat": 38.90487916666667, "bike_id": "e891d55b421342105daafd5a477d81fa", "type": "electric_scooter", "is_reserved": 0, "lon": -77.05125566666666}, {"fusion_lat": 0.0, "name": "0fa22c6af8193e3456fb7be560a8d164", "is_disabled": 0, "rental_uris": {"android": "https://dc.lft.to/lastmile_qr_scan", "ios": "https://dc.lft.to/lastmile_qr_scan"}, "fusion_lon": 0.0, "lat": 38.91261766666667, "bike_id": "0fa22c6af8193e3456fb7be560a8d164", "type": "electric_scooter", "is_reserved": 0, "lon": -77.03883333333333}, {"fusion_lat": 0.0, "name": "6e0e40217ff92d2eca8e19e6393cd1d4", "is_disabled": 0, "rental_uris": {"android": "https://dc.lft.to/lastmile_qr_scan", "ios": "https://dc.lft.to/lastmile_qr_scan"}, "fusion_lon": 0.0, "lat": 38.862173, "bike_id": "6e0e40217ff92d2eca8e19e6393cd1d4", "type": "electric_bike", "is_reserved": 0, "lon": -76.99555733333334}, {"fusion_lat": 0.0, "name": "b9a5f0740013b3203b978a7813e8f6a1", "is_disabled": 0, "rental_uris": {"android": "https://dc.lft.to/lastmile_qr_scan", "ios": "https://dc.lft.to/lastmile_qr_scan"}, "fusion_lon": 0.0, "lat": 38.89983083333333, "bike_id": "b9a5f0740013b3203b978a7813e8f6a1", "type": "electric_scooter", "is_reserved": 0, "lon": -77.02089183333334}, {"fusion_lat": 0.0, "name": "3d67c4f79c77d9336520ac7caacbafaa", "is_disabled": 0, "rental_uris": {"android": "https://dc.lft.to/lastmile_qr_scan", "ios": "https://dc.lft.to/lastmile_qr_scan"}, "fusion_lon": 0.0, "lat": 38.877671166666666, "bike_id": "3d67c4f79c77d9336520ac7caacbafaa", "type": "electric_scooter", "is_reserved": 0, "lon": -76.99380533333333}, {"fusion_lat": 0.0, "name": "5901ad0b19f3ff16491da7dd96104100", "is_disabled": 0, "rental_uris": {"android": "https://dc.lft.to/lastmile_qr_scan", "ios": "https://dc.lft.to/lastmile_qr_scan"}, "fusion_lon": 0.0, "lat": 38.933080333333336, "bike_id": "5901ad0b19f3ff16491da7dd96104100", "type": "electric_scooter", "is_reserved": 0, "lon": -77.030787}, {"fusion_lat": 0.0, "name": "1547f191bd1c7e264dd997436f2d9673", "is_disabled": 0, "rental_uris": {"android": "https://dc.lft.to/lastmile_qr_scan", "ios": "https://dc.lft.to/lastmile_qr_scan"}, "fusion_lon": 0.0, "lat": 38.899035166666664, "bike_id": "1547f191bd1c7e264dd997436f2d9673", "type": "electric_scooter", "is_reserved": 0, "lon": -77.041742}, {"fusion_lat": 0.0, "name": "70f0533da2f3ffe85c370676ed7720ac", "is_disabled": 0, "rental_uris": {"android": "https://dc.lft.to/lastmile_qr_scan", "ios": "https://dc.lft.to/lastmile_qr_scan"}, "fusion_lon": 0.0, "lat": 38.905856166666666, "bike_id": "70f0533da2f3ffe85c370676ed7720ac", "type": "electric_scooter", "is_reserved": 0, "lon": -77.038429}, {"fusion_lat": 0.0, "name": "da0efe65ab860b3df074ddf2166457fa", "is_disabled": 0, "rental_uris": {"android": "https://dc.lft.to/lastmile_qr_scan", "ios": "https://dc.lft.to/lastmile_qr_scan"}, "fusion_lon": 0.0, "lat": 38.88990833333333, "bike_id": "da0efe65ab860b3df074ddf2166457fa", "type": "electric_scooter", "is_reserved": 0, "lon": -76.98737066666666}, {"fusion_lat": 0.0, "name": "6da9bdd760a7ccefbe6cc3889083991f", "is_disabled": 0, "rental_uris": {"android": "https://dc.lft.to/lastmile_qr_scan", "ios": "https://dc.lft.to/lastmile_qr_scan"}, "fusion_lon": 0.0, "lat": 38.91807466666667, "bike_id": "6da9bdd760a7ccefbe6cc3889083991f", "type": "electric_scooter", "is_reserved": 0, "lon": -77.03661383333333}, {"fusion_lat": 0.0, "name": "8ba7c6f9ca327014446a68237a3b93f5", "is_disabled": 0, "rental_uris": {"android": "https://dc.lft.to/lastmile_qr_scan", "ios": "https://dc.lft.to/lastmile_qr_scan"}, "fusion_lon": 0.0, "lat": 38.91565933333333, "bike_id": "8ba7c6f9ca327014446a68237a3b93f5", "type": "electric_scooter", "is_reserved": 0, "lon": -77.03151066666666}, {"fusion_lat": 0.0, "name": "5f508f49c562a5c64b0827c2a695abc9", "is_disabled": 0, "rental_uris": {"android": "https://dc.lft.to/lastmile_qr_scan", "ios": "https://dc.lft.to/lastmile_qr_scan"}, "fusion_lon": 0.0, "lat": 38.939474, "bike_id": "5f508f49c562a5c64b0827c2a695abc9", "type": "electric_scooter", "is_reserved": 0, "lon": -77.03319666666667}, {"fusion_lat": 0.0, "name": "6769ca33a4bad0b7e7eada7356fd9c3a", "is_disabled": 0, "rental_uris": {"android": "https://dc.lft.to/lastmile_qr_scan", "ios": "https://dc.lft.to/lastmile_qr_scan"}, "fusion_lon": 0.0, "lat": 38.894011666666664, "bike_id": "6769ca33a4bad0b7e7eada7356fd9c3a", "type": "electric_scooter", "is_reserved": 0, "lon": -76.9480705}, {"fusion_lat": 0.0, "name": "cf50fd7a1a4ca67fe11f71fc781a1f8d", "is_disabled": 0, "rental_uris": {"android": "https://dc.lft.to/lastmile_qr_scan", "ios": "https://dc.lft.to/lastmile_qr_scan"}, "fusion_lon": 0.0, "lat": 38.90931233333333, "bike_id": "cf50fd7a1a4ca67fe11f71fc781a1f8d", "type": "electric_scooter", "is_reserved": 0, "lon": -77.02127333333334}, {"fusion_lat": 0.0, "name": "b7798e382f4e8e55398ea77d909daa29", "is_disabled": 0, "rental_uris": {"android": "https://dc.lft.to/lastmile_qr_scan", "ios": "https://dc.lft.to/lastmile_qr_scan"}, "fusion_lon": 0.0, "lat": 38.92252366666666, "bike_id": "b7798e382f4e8e55398ea77d909daa29", "type": "electric_scooter", "is_reserved": 0, "lon": -77.01952083333333}, {"fusion_lat": 0.0, "name": "e59a1d00f6f60042226318782fdd4d0c", "is_disabled": 0, "rental_uris": {"android": "https://dc.lft.to/lastmile_qr_scan", "ios": "https://dc.lft.to/lastmile_qr_scan"}, "fusion_lon": 0.0, "lat": 38.875347, "bike_id": "e59a1d00f6f60042226318782fdd4d0c", "type": "electric_scooter", "is_reserved": 0, "lon": -77.00072783333333}, {"fusion_lat": 0.0, "name": "f14592477571956dfa00a41a4765704a", "is_disabled": 0, "rental_uris": {"android": "https://dc.lft.to/lastmile_qr_scan", "ios": "https://dc.lft.to/lastmile_qr_scan"}, "fusion_lon": 0.0, "lat": 38.90072216666667, "bike_id": "f14592477571956dfa00a41a4765704a", "type": "electric_scooter", "is_reserved": 0, "lon": -77.0219455}, {"fusion_lat": 0.0, "name": "73f1084f6bde1fcb3f07f2b43f79c945", "is_disabled": 0, "rental_uris": {"android": "https://dc.lft.to/lastmile_qr_scan", "ios": "https://dc.lft.to/lastmile_qr_scan"}, "fusion_lon": 0.0, "lat": 38.89005916666667, "bike_id": "73f1084f6bde1fcb3f07f2b43f79c945", "type": "electric_scooter", "is_reserved": 0, "lon": -76.93743016666667}, {"fusion_lat": 0.0, "name": "18abf3ea7c8441ee4deb944dc2962c56", "is_disabled": 0, "rental_uris": {"android": "https://dc.lft.to/lastmile_qr_scan", "ios": "https://dc.lft.to/lastmile_qr_scan"}, "fusion_lon": 0.0, "lat": 38.958863, "bike_id": "18abf3ea7c8441ee4deb944dc2962c56", "type": "electric_bike", "is_reserved": 0, "lon": -76.92483183333333}, {"fusion_lat": 0.0, "name": "75c436b0e1c00522be54720bd09192f5", "is_disabled": 0, "rental_uris": {"android": "https://dc.lft.to/lastmile_qr_scan", "ios": "https://dc.lft.to/lastmile_qr_scan"}, "fusion_lon": 0.0, "lat": 38.901630833333336, "bike_id": "75c436b0e1c00522be54720bd09192f5", "type": "electric_scooter", "is_reserved": 0, "lon": -77.02290733333334}, {"fusion_lat": 0.0, "name": "70bfebe172c5aa003c70094fbc617bc2", "is_disabled": 0, "rental_uris": {"android": "https://dc.lft.to/lastmile_qr_scan", "ios": "https://dc.lft.to/lastmile_qr_scan"}, "fusion_lon": 0.0, "lat": 38.961884, "bike_id": "70bfebe172c5aa003c70094fbc617bc2", "type": "electric_bike", "is_reserved": 0, "lon": -77.05269483333333}, {"fusion_lat": 0.0, "name": "82df84d4b4fd0b43b49e7358ace32e68", "is_disabled": 0, "rental_uris": {"android": "https://dc.lft.to/lastmile_qr_scan", "ios": "https://dc.lft.to/lastmile_qr_scan"}, "fusion_lon": 0.0, "lat": 38.89616783333334, "bike_id": "82df84d4b4fd0b43b49e7358ace32e68", "type": "electric_bike", "is_reserved": 0, "lon": -76.90746216666666}, {"fusion_lat": 0.0, "name": "d76f92b9f3bc969f49a1a403e3090c11", "is_disabled": 0, "rental_uris": {"android": "https://dc.lft.to/lastmile_qr_scan", "ios": "https://dc.lft.to/lastmile_qr_scan"}, "fusion_lon": 0.0, "lat": 38.92674516666666, "bike_id": "d76f92b9f3bc969f49a1a403e3090c11", "type": "electric_scooter", "is_reserved": 0, "lon": -77.0363475}, {"fusion_lat": 0.0, "name": "edca5c5e304b5141bd6263ec8b4488c4", "is_disabled": 0, "rental_uris": {"android": "https://dc.lft.to/lastmile_qr_scan", "ios": "https://dc.lft.to/lastmile_qr_scan"}, "fusion_lon": 0.0, "lat": 38.87894883333333, "bike_id": "edca5c5e304b5141bd6263ec8b4488c4", "type": "electric_scooter", "is_reserved": 0, "lon": -76.9950805}, {"fusion_lat": 0.0, "name": "bbba0f4656c13985609c770b67686b7e", "is_disabled": 0, "rental_uris": {"android": "https://dc.lft.to/lastmile_qr_scan", "ios": "https://dc.lft.to/lastmile_qr_scan"}, "fusion_lon": 0.0, "lat": 38.92823966666667, "bike_id": "bbba0f4656c13985609c770b67686b7e", "type": "electric_scooter", "is_reserved": 0, "lon": -77.01406516666667}, {"fusion_lat": 0.0, "name": "bd7e3a8051c4e99c0d25f0887fbf1276", "is_disabled": 0, "rental_uris": {"android": "https://dc.lft.to/lastmile_qr_scan", "ios": "https://dc.lft.to/lastmile_qr_scan"}, "fusion_lon": 0.0, "lat": 38.9223885, "bike_id": "bd7e3a8051c4e99c0d25f0887fbf1276", "type": "electric_scooter", "is_reserved": 0, "lon": -77.01842783333333}, {"fusion_lat": 0.0, "name": "fea5cb379c110bc2a3d74dfdb7e718d0", "is_disabled": 0, "rental_uris": {"android": "https://dc.lft.to/lastmile_qr_scan", "ios": "https://dc.lft.to/lastmile_qr_scan"}, "fusion_lon": 0.0, "lat": 38.94615683333333, "bike_id": "fea5cb379c110bc2a3d74dfdb7e718d0", "type": "electric_scooter", "is_reserved": 0, "lon": -77.08021433333333}, {"fusion_lat": 0.0, "name": "17f440da6293e998aa95d1c6ee16f295", "is_disabled": 0, "rental_uris": {"android": "https://dc.lft.to/lastmile_qr_scan", "ios": "https://dc.lft.to/lastmile_qr_scan"}, "fusion_lon": 0.0, "lat": 38.874923333333335, "bike_id": "17f440da6293e998aa95d1c6ee16f295", "type": "electric_bike", "is_reserved": 0, "lon": -77.211231}, {"fusion_lat": 0.0, "name": "ba50fcbaf0d36d0170914966f289c67e", "is_disabled": 0, "rental_uris": {"android": "https://dc.lft.to/lastmile_qr_scan", "ios": "https://dc.lft.to/lastmile_qr_scan"}, "fusion_lon": 0.0, "lat": 38.948313666666664, "bike_id": "ba50fcbaf0d36d0170914966f289c67e", "type": "electric_scooter", "is_reserved": 0, "lon": -77.07997933333333}, {"fusion_lat": 0.0, "name": "1af1a35fcc4d8a32ca414161a3b9f754", "is_disabled": 0, "rental_uris": {"android": "https://dc.lft.to/lastmile_qr_scan", "ios": "https://dc.lft.to/lastmile_qr_scan"}, "fusion_lon": 0.0, "lat": 38.91772733333333, "bike_id": "1af1a35fcc4d8a32ca414161a3b9f754", "type": "electric_scooter", "is_reserved": 0, "lon": -77.03223716666666}, {"fusion_lat": 0.0, "name": "70cad6aa261a4817ef36d9a6751eb6b4", "is_disabled": 0, "rental_uris": {"android": "https://dc.lft.to/lastmile_qr_scan", "ios": "https://dc.lft.to/lastmile_qr_scan"}, "fusion_lon": 0.0, "lat": 38.92862316666667, "bike_id": "70cad6aa261a4817ef36d9a6751eb6b4", "type": "electric_scooter", "is_reserved": 0, "lon": -77.0562555}, {"fusion_lat": 0.0, "name": "b1262084ceec4d986bf1d5d79e8eb799", "is_disabled": 0, "rental_uris": {"android": "https://dc.lft.to/lastmile_qr_scan", "ios": "https://dc.lft.to/lastmile_qr_scan"}, "fusion_lon": 0.0, "lat": 38.843549833333334, "bike_id": "b1262084ceec4d986bf1d5d79e8eb799", "type": "electric_bike", "is_reserved": 0, "lon": -76.97815783333333}, {"fusion_lat": 0.0, "name": "77ad593f61120d1f5d29e49e0f079f88", "is_disabled": 0, "rental_uris": {"android": "https://dc.lft.to/lastmile_qr_scan", "ios": "https://dc.lft.to/lastmile_qr_scan"}, "fusion_lon": 0.0, "lat": 38.908596833333334, "bike_id": "77ad593f61120d1f5d29e49e0f079f88", "type": "electric_scooter", "is_reserved": 0, "lon": -77.00930116666666}, {"fusion_lat": 0.0, "name": "7e3b156be8565fb6471d2ed11d5572e0", "is_disabled": 0, "rental_uris": {"android": "https://dc.lft.to/lastmile_qr_scan", "ios": "https://dc.lft.to/lastmile_qr_scan"}, "fusion_lon": 0.0, "lat": 38.87647583333333, "bike_id": "7e3b156be8565fb6471d2ed11d5572e0", "type": "electric_scooter", "is_reserved": 0, "lon": -77.00121516666667}, {"fusion_lat": 0.0, "name": "78c44a7a7fcbea18b772d460462af5f0", "is_disabled": 0, "rental_uris": {"android": "https://dc.lft.to/lastmile_qr_scan", "ios": "https://dc.lft.to/lastmile_qr_scan"}, "fusion_lon": 0.0, "lat": 38.919591, "bike_id": "78c44a7a7fcbea18b772d460462af5f0", "type": "electric_bike", "is_reserved": 0, "lon": -77.101077}, {"fusion_lat": 0.0, "name": "66678ce79a57f1098f499d39c3503c22", "is_disabled": 0, "rental_uris": {"android": "https://dc.lft.to/lastmile_qr_scan", "ios": "https://dc.lft.to/lastmile_qr_scan"}, "fusion_lon": 0.0, "lat": 38.906413, "bike_id": "66678ce79a57f1098f499d39c3503c22", "type": "electric_scooter", "is_reserved": 0, "lon": -77.01415366666667}, {"fusion_lat": 0.0, "name": "1ca22861899773db4cfc0e648b34fc25", "is_disabled": 0, "rental_uris": {"android": "https://dc.lft.to/lastmile_qr_scan", "ios": "https://dc.lft.to/lastmile_qr_scan"}, "fusion_lon": 0.0, "lat": 38.90635, "bike_id": "1ca22861899773db4cfc0e648b34fc25", "type": "electric_scooter", "is_reserved": 0, "lon": -77.05035183333334}, {"fusion_lat": 0.0, "name": "3cdd52798561c2d8e172c6c0dd5b99f8", "is_disabled": 0, "rental_uris": {"android": "https://dc.lft.to/lastmile_qr_scan", "ios": "https://dc.lft.to/lastmile_qr_scan"}, "fusion_lon": 0.0, "lat": 38.9222235, "bike_id": "3cdd52798561c2d8e172c6c0dd5b99f8", "type": "electric_scooter", "is_reserved": 0, "lon": -76.98376616666667}, {"fusion_lat": 0.0, "name": "e311863898ab135efa2d6516a721e3a6", "is_disabled": 0, "rental_uris": {"android": "https://dc.lft.to/lastmile_qr_scan", "ios": "https://dc.lft.to/lastmile_qr_scan"}, "fusion_lon": 0.0, "lat": 38.91693383333333, "bike_id": "e311863898ab135efa2d6516a721e3a6", "type": "electric_scooter", "is_reserved": 0, "lon": -77.0259665}, {"fusion_lat": 0.0, "name": "0ab3dcf1271b08a5e808a15f12ca49b0", "is_disabled": 0, "rental_uris": {"android": "https://dc.lft.to/lastmile_qr_scan", "ios": "https://dc.lft.to/lastmile_qr_scan"}, "fusion_lon": 0.0, "lat": 38.919567, "bike_id": "0ab3dcf1271b08a5e808a15f12ca49b0", "type": "electric_scooter", "is_reserved": 0, "lon": -77.02481566666667}, {"fusion_lat": 0.0, "name": "894b2a47aede5dd47f7ca033052dc0d2", "is_disabled": 0, "rental_uris": {"android": "https://dc.lft.to/lastmile_qr_scan", "ios": "https://dc.lft.to/lastmile_qr_scan"}, "fusion_lon": 0.0, "lat": 38.892231333333335, "bike_id": "894b2a47aede5dd47f7ca033052dc0d2", "type": "electric_scooter", "is_reserved": 0, "lon": -77.04687066666666}, {"fusion_lat": 0.0, "name": "2246cde022ea69d3508a4fd0e29f5dc3", "is_disabled": 0, "rental_uris": {"android": "https://dc.lft.to/lastmile_qr_scan", "ios": "https://dc.lft.to/lastmile_qr_scan"}, "fusion_lon": 0.0, "lat": 38.885297666666666, "bike_id": "2246cde022ea69d3508a4fd0e29f5dc3", "type": "electric_scooter", "is_reserved": 0, "lon": -76.92925533333333}, {"fusion_lat": 0.0, "name": "3528d159c1d7e4b283406d86a6e9a0e8", "is_disabled": 0, "rental_uris": {"android": "https://dc.lft.to/lastmile_qr_scan", "ios": "https://dc.lft.to/lastmile_qr_scan"}, "fusion_lon": 0.0, "lat": 38.89911433333333, "bike_id": "3528d159c1d7e4b283406d86a6e9a0e8", "type": "electric_scooter", "is_reserved": 0, "lon": -76.9458605}, {"fusion_lat": 0.0, "name": "deb62b66d538aef077e081b55103f0e9", "is_disabled": 0, "rental_uris": {"android": "https://dc.lft.to/lastmile_qr_scan", "ios": "https://dc.lft.to/lastmile_qr_scan"}, "fusion_lon": 0.0, "lat": 38.89909, "bike_id": "deb62b66d538aef077e081b55103f0e9", "type": "electric_scooter", "is_reserved": 0, "lon": -76.93351716666666}, {"fusion_lat": 0.0, "name": "ff4262f161a5374e2f65af7c83f8eddf", "is_disabled": 0, "rental_uris": {"android": "https://dc.lft.to/lastmile_qr_scan", "ios": "https://dc.lft.to/lastmile_qr_scan"}, "fusion_lon": 0.0, "lat": 38.9213825, "bike_id": "ff4262f161a5374e2f65af7c83f8eddf", "type": "electric_scooter", "is_reserved": 0, "lon": -77.018033}, {"fusion_lat": 0.0, "name": "25c2a08e7808168ae38b68ea0cff40dd", "is_disabled": 0, "rental_uris": {"android": "https://dc.lft.to/lastmile_qr_scan", "ios": "https://dc.lft.to/lastmile_qr_scan"}, "fusion_lon": 0.0, "lat": 38.91671633333333, "bike_id": "25c2a08e7808168ae38b68ea0cff40dd", "type": "electric_scooter", "is_reserved": 0, "lon": -77.03201816666666}, {"fusion_lat": 0.0, "name": "ef777428f23a8de464a0de780b86c961", "is_disabled": 0, "rental_uris": {"android": "https://dc.lft.to/lastmile_qr_scan", "ios": "https://dc.lft.to/lastmile_qr_scan"}, "fusion_lon": 0.0, "lat": 38.875806833333336, "bike_id": "ef777428f23a8de464a0de780b86c961", "type": "electric_bike", "is_reserved": 0, "lon": -77.23411533333334}, {"fusion_lat": 0.0, "name": "170693ed2f3747307c67317ad50fc87d", "is_disabled": 0, "rental_uris": {"android": "https://dc.lft.to/lastmile_qr_scan", "ios": "https://dc.lft.to/lastmile_qr_scan"}, "fusion_lon": 0.0, "lat": 38.9014215, "bike_id": "170693ed2f3747307c67317ad50fc87d", "type": "electric_bike", "is_reserved": 0, "lon": -77.0338455}, {"fusion_lat": 0.0, "name": "2233546414052896e69efc44d3706ebc", "is_disabled": 0, "rental_uris": {"android": "https://dc.lft.to/lastmile_qr_scan", "ios": "https://dc.lft.to/lastmile_qr_scan"}, "fusion_lon": 0.0, "lat": 38.89220516666666, "bike_id": "2233546414052896e69efc44d3706ebc", "type": "electric_scooter", "is_reserved": 0, "lon": -77.01468266666667}, {"fusion_lat": 0.0, "name": "34b65b04a3ab1f132872cb4146d120ec", "is_disabled": 0, "rental_uris": {"android": "https://dc.lft.to/lastmile_qr_scan", "ios": "https://dc.lft.to/lastmile_qr_scan"}, "fusion_lon": 0.0, "lat": 38.95056, "bike_id": "34b65b04a3ab1f132872cb4146d120ec", "type": "electric_scooter", "is_reserved": 0, "lon": -77.080248}, {"fusion_lat": 0.0, "name": "6139e10debed67ebcb1ab4284183bb13", "is_disabled": 0, "rental_uris": {"android": "https://dc.lft.to/lastmile_qr_scan", "ios": "https://dc.lft.to/lastmile_qr_scan"}, "fusion_lon": 0.0, "lat": 38.88872816666667, "bike_id": "6139e10debed67ebcb1ab4284183bb13", "type": "electric_scooter", "is_reserved": 0, "lon": -77.03996116666667}, {"fusion_lat": 0.0, "name": "8a190ddd60589016066e08a7e3e20343", "is_disabled": 0, "rental_uris": {"android": "https://dc.lft.to/lastmile_qr_scan", "ios": "https://dc.lft.to/lastmile_qr_scan"}, "fusion_lon": 0.0, "lat": 38.90398883333334, "bike_id": "8a190ddd60589016066e08a7e3e20343", "type": "electric_scooter", "is_reserved": 0, "lon": -77.03539633333334}, {"fusion_lat": 0.0, "name": "e568f57fc1cd02e381a5e40f8f706d94", "is_disabled": 0, "rental_uris": {"android": "https://dc.lft.to/lastmile_qr_scan", "ios": "https://dc.lft.to/lastmile_qr_scan"}, "fusion_lon": 0.0, "lat": 38.928338833333335, "bike_id": "e568f57fc1cd02e381a5e40f8f706d94", "type": "electric_scooter", "is_reserved": 0, "lon": -77.014123}, {"fusion_lat": 0.0, "name": "9e8e853819f88fea203897c6fa69b426", "is_disabled": 0, "rental_uris": {"android": "https://dc.lft.to/lastmile_qr_scan", "ios": "https://dc.lft.to/lastmile_qr_scan"}, "fusion_lon": 0.0, "lat": 38.866247, "bike_id": "9e8e853819f88fea203897c6fa69b426", "type": "electric_bike", "is_reserved": 0, "lon": -76.94570083333333}, {"fusion_lat": 0.0, "name": "6abc2fed9422620488b3a22f814c9608", "is_disabled": 0, "rental_uris": {"android": "https://dc.lft.to/lastmile_qr_scan", "ios": "https://dc.lft.to/lastmile_qr_scan"}, "fusion_lon": 0.0, "lat": 38.915526166666666, "bike_id": "6abc2fed9422620488b3a22f814c9608", "type": "electric_scooter", "is_reserved": 0, "lon": -77.01203116666667}, {"fusion_lat": 0.0, "name": "599812332c0915a9fccd418f9b5bad5e", "is_disabled": 0, "rental_uris": {"android": "https://dc.lft.to/lastmile_qr_scan", "ios": "https://dc.lft.to/lastmile_qr_scan"}, "fusion_lon": 0.0, "lat": 38.90433516666667, "bike_id": "599812332c0915a9fccd418f9b5bad5e", "type": "electric_scooter", "is_reserved": 0, "lon": -77.0250485}, {"fusion_lat": 0.0, "name": "b33e8981a7efd89376e7e78d5b438f70", "is_disabled": 0, "rental_uris": {"android": "https://dc.lft.to/lastmile_qr_scan", "ios": "https://dc.lft.to/lastmile_qr_scan"}, "fusion_lon": 0.0, "lat": 38.914145166666664, "bike_id": "b33e8981a7efd89376e7e78d5b438f70", "type": "electric_scooter", "is_reserved": 0, "lon": -77.03177266666667}, {"fusion_lat": 0.0, "name": "c727125633d10a736ba892b95efaf63b", "is_disabled": 0, "rental_uris": {"android": "https://dc.lft.to/lastmile_qr_scan", "ios": "https://dc.lft.to/lastmile_qr_scan"}, "fusion_lon": 0.0, "lat": 38.9302015, "bike_id": "c727125633d10a736ba892b95efaf63b", "type": "electric_scooter", "is_reserved": 0, "lon": -77.03781116666667}, {"fusion_lat": 0.0, "name": "2ce7afe87753750f4d5c5d9af4121d0b", "is_disabled": 0, "rental_uris": {"android": "https://dc.lft.to/lastmile_qr_scan", "ios": "https://dc.lft.to/lastmile_qr_scan"}, "fusion_lon": 0.0, "lat": 38.92016, "bike_id": "2ce7afe87753750f4d5c5d9af4121d0b", "type": "electric_scooter", "is_reserved": 0, "lon": -77.03138583333333}, {"fusion_lat": 0.0, "name": "85fcdc093d50ed2fcd9c2fda3dea710b", "is_disabled": 0, "rental_uris": {"android": "https://dc.lft.to/lastmile_qr_scan", "ios": "https://dc.lft.to/lastmile_qr_scan"}, "fusion_lon": 0.0, "lat": 38.9166005, "bike_id": "85fcdc093d50ed2fcd9c2fda3dea710b", "type": "electric_scooter", "is_reserved": 0, "lon": -77.03852666666667}, {"fusion_lat": 0.0, "name": "5128aa62f9c8f4d685152a2760d8d6f2", "is_disabled": 0, "rental_uris": {"android": "https://dc.lft.to/lastmile_qr_scan", "ios": "https://dc.lft.to/lastmile_qr_scan"}, "fusion_lon": 0.0, "lat": 38.916177, "bike_id": "5128aa62f9c8f4d685152a2760d8d6f2", "type": "electric_scooter", "is_reserved": 0, "lon": -77.029493}, {"fusion_lat": 0.0, "name": "8e2d5765c20b4a7842112466b03383fb", "is_disabled": 0, "rental_uris": {"android": "https://dc.lft.to/lastmile_qr_scan", "ios": "https://dc.lft.to/lastmile_qr_scan"}, "fusion_lon": 0.0, "lat": 38.9192605, "bike_id": "8e2d5765c20b4a7842112466b03383fb", "type": "electric_scooter", "is_reserved": 0, "lon": -77.03424583333333}, {"fusion_lat": 0.0, "name": "cda5cf55584fec729a40ae0ee75da53f", "is_disabled": 0, "rental_uris": {"android": "https://dc.lft.to/lastmile_qr_scan", "ios": "https://dc.lft.to/lastmile_qr_scan"}, "fusion_lon": 0.0, "lat": 38.921802, "bike_id": "cda5cf55584fec729a40ae0ee75da53f", "type": "electric_scooter", "is_reserved": 0, "lon": -76.99791533333334}, {"fusion_lat": 0.0, "name": "987ce81fc742565041698874afc63a5a", "is_disabled": 0, "rental_uris": {"android": "https://dc.lft.to/lastmile_qr_scan", "ios": "https://dc.lft.to/lastmile_qr_scan"}, "fusion_lon": 0.0, "lat": 38.912584833333334, "bike_id": "987ce81fc742565041698874afc63a5a", "type": "electric_scooter", "is_reserved": 0, "lon": -77.049218}, {"fusion_lat": 0.0, "name": "59184ae2fed8813e83670eb6a4cd1922", "is_disabled": 0, "rental_uris": {"android": "https://dc.lft.to/lastmile_qr_scan", "ios": "https://dc.lft.to/lastmile_qr_scan"}, "fusion_lon": 0.0, "lat": 38.904709833333335, "bike_id": "59184ae2fed8813e83670eb6a4cd1922", "type": "electric_scooter", "is_reserved": 0, "lon": -77.03355733333333}, {"fusion_lat": 0.0, "name": "cefdf044de7ddb9d226c99e964d5169c", "is_disabled": 0, "rental_uris": {"android": "https://dc.lft.to/lastmile_qr_scan", "ios": "https://dc.lft.to/lastmile_qr_scan"}, "fusion_lon": 0.0, "lat": 38.9136285, "bike_id": "cefdf044de7ddb9d226c99e964d5169c", "type": "electric_scooter", "is_reserved": 0, "lon": -77.04873933333333}, {"fusion_lat": 0.0, "name": "7cb3f7e58630d07431f8c39c7a9b2924", "is_disabled": 0, "rental_uris": {"android": "https://dc.lft.to/lastmile_qr_scan", "ios": "https://dc.lft.to/lastmile_qr_scan"}, "fusion_lon": 0.0, "lat": 38.910335333333336, "bike_id": "7cb3f7e58630d07431f8c39c7a9b2924", "type": "electric_scooter", "is_reserved": 0, "lon": -77.01516416666666}, {"fusion_lat": 0.0, "name": "7ec06daaff05a0a9ef233b7213b902fa", "is_disabled": 0, "rental_uris": {"android": "https://dc.lft.to/lastmile_qr_scan", "ios": "https://dc.lft.to/lastmile_qr_scan"}, "fusion_lon": 0.0, "lat": 38.890096, "bike_id": "7ec06daaff05a0a9ef233b7213b902fa", "type": "electric_scooter", "is_reserved": 0, "lon": -76.93743983333333}, {"fusion_lat": 0.0, "name": "f516e48055acbe6fc84140ac7e9933df", "is_disabled": 0, "rental_uris": {"android": "https://dc.lft.to/lastmile_qr_scan", "ios": "https://dc.lft.to/lastmile_qr_scan"}, "fusion_lon": 0.0, "lat": 38.89850933333334, "bike_id": "f516e48055acbe6fc84140ac7e9933df", "type": "electric_scooter", "is_reserved": 0, "lon": -77.02819866666667}, {"fusion_lat": 0.0, "name": "f91e0a9be444b85cabfe72999917576e", "is_disabled": 0, "rental_uris": {"android": "https://dc.lft.to/lastmile_qr_scan", "ios": "https://dc.lft.to/lastmile_qr_scan"}, "fusion_lon": 0.0, "lat": 38.916609666666666, "bike_id": "f91e0a9be444b85cabfe72999917576e", "type": "electric_scooter", "is_reserved": 0, "lon": -77.043811}, {"fusion_lat": 0.0, "name": "1c9f4af5c4b5f5a76067f5af108d4a8d", "is_disabled": 0, "rental_uris": {"android": "https://dc.lft.to/lastmile_qr_scan", "ios": "https://dc.lft.to/lastmile_qr_scan"}, "fusion_lon": 0.0, "lat": 38.9239695, "bike_id": "1c9f4af5c4b5f5a76067f5af108d4a8d", "type": "electric_scooter", "is_reserved": 0, "lon": -77.02413633333333}, {"fusion_lat": 0.0, "name": "20bdefe718aa89daf0bb44ad300b5e5c", "is_disabled": 0, "rental_uris": {"android": "https://dc.lft.to/lastmile_qr_scan", "ios": "https://dc.lft.to/lastmile_qr_scan"}, "fusion_lon": 0.0, "lat": 39.056341, "bike_id": "20bdefe718aa89daf0bb44ad300b5e5c", "type": "electric_bike", "is_reserved": 0, "lon": -77.12526183333334}, {"fusion_lat": 0.0, "name": "e056222b0585cc81ccccd675669d40e4", "is_disabled": 0, "rental_uris": {"android": "https://dc.lft.to/lastmile_qr_scan", "ios": "https://dc.lft.to/lastmile_qr_scan"}, "fusion_lon": 0.0, "lat": 38.916960333333336, "bike_id": "e056222b0585cc81ccccd675669d40e4", "type": "electric_scooter", "is_reserved": 0, "lon": -77.03587216666666}, {"fusion_lat": 0.0, "name": "f6b33260c00dce759b78052fb994edbd", "is_disabled": 0, "rental_uris": {"android": "https://dc.lft.to/lastmile_qr_scan", "ios": "https://dc.lft.to/lastmile_qr_scan"}, "fusion_lon": 0.0, "lat": 38.902669833333334, "bike_id": "f6b33260c00dce759b78052fb994edbd", "type": "electric_scooter", "is_reserved": 0, "lon": -77.03384333333334}, {"fusion_lat": 0.0, "name": "076fc6d48c0e2e09f40d827045cdc06d", "is_disabled": 0, "rental_uris": {"android": "https://dc.lft.to/lastmile_qr_scan", "ios": "https://dc.lft.to/lastmile_qr_scan"}, "fusion_lon": 0.0, "lat": 38.886149333333336, "bike_id": "076fc6d48c0e2e09f40d827045cdc06d", "type": "electric_scooter", "is_reserved": 0, "lon": -77.0155555}, {"fusion_lat": 0.0, "name": "80c13941729d4c7096f762219f79c7bb", "is_disabled": 0, "rental_uris": {"android": "https://dc.lft.to/lastmile_qr_scan", "ios": "https://dc.lft.to/lastmile_qr_scan"}, "fusion_lon": 0.0, "lat": 38.9481825, "bike_id": "80c13941729d4c7096f762219f79c7bb", "type": "electric_scooter", "is_reserved": 0, "lon": -77.0261765}, {"fusion_lat": 0.0, "name": "b0f75c5788b47d452599a0d8da84e14d", "is_disabled": 0, "rental_uris": {"android": "https://dc.lft.to/lastmile_qr_scan", "ios": "https://dc.lft.to/lastmile_qr_scan"}, "fusion_lon": 0.0, "lat": 38.915538, "bike_id": "b0f75c5788b47d452599a0d8da84e14d", "type": "electric_scooter", "is_reserved": 0, "lon": -77.01201883333333}, {"fusion_lat": 0.0, "name": "e9871f638871deb9aa4cdbb02ed107a8", "is_disabled": 0, "rental_uris": {"android": "https://dc.lft.to/lastmile_qr_scan", "ios": "https://dc.lft.to/lastmile_qr_scan"}, "fusion_lon": 0.0, "lat": 38.884729, "bike_id": "e9871f638871deb9aa4cdbb02ed107a8", "type": "electric_scooter", "is_reserved": 0, "lon": -76.9967435}, {"fusion_lat": 0.0, "name": "4a5b7ce7de7461c5d643d78e7039eadc", "is_disabled": 0, "rental_uris": {"android": "https://dc.lft.to/lastmile_qr_scan", "ios": "https://dc.lft.to/lastmile_qr_scan"}, "fusion_lon": 0.0, "lat": 38.9006095, "bike_id": "4a5b7ce7de7461c5d643d78e7039eadc", "type": "electric_scooter", "is_reserved": 0, "lon": -76.93385383333333}, {"fusion_lat": 0.0, "name": "052165816f4f0a645df88ec44ffe78e4", "is_disabled": 0, "rental_uris": {"android": "https://dc.lft.to/lastmile_qr_scan", "ios": "https://dc.lft.to/lastmile_qr_scan"}, "fusion_lon": 0.0, "lat": 38.90766516666667, "bike_id": "052165816f4f0a645df88ec44ffe78e4", "type": "electric_scooter", "is_reserved": 0, "lon": -77.05590916666667}, {"fusion_lat": 0.0, "name": "03c7060fbd76bd8ef7f634aaacc3772a", "is_disabled": 0, "rental_uris": {"android": "https://dc.lft.to/lastmile_qr_scan", "ios": "https://dc.lft.to/lastmile_qr_scan"}, "fusion_lon": 0.0, "lat": 38.835058333333336, "bike_id": "03c7060fbd76bd8ef7f634aaacc3772a", "type": "electric_bike", "is_reserved": 0, "lon": -76.98681716666667}, {"fusion_lat": 0.0, "name": "8c78c04b8f654cf0cf9c85658ebb3255", "is_disabled": 0, "rental_uris": {"android": "https://dc.lft.to/lastmile_qr_scan", "ios": "https://dc.lft.to/lastmile_qr_scan"}, "fusion_lon": 0.0, "lat": 38.9424345, "bike_id": "8c78c04b8f654cf0cf9c85658ebb3255", "type": "electric_scooter", "is_reserved": 0, "lon": -77.076386}, {"fusion_lat": 0.0, "name": "b8e4b028c1aa2352cafeb5683c843abd", "is_disabled": 0, "rental_uris": {"android": "https://dc.lft.to/lastmile_qr_scan", "ios": "https://dc.lft.to/lastmile_qr_scan"}, "fusion_lon": 0.0, "lat": 38.920723833333334, "bike_id": "b8e4b028c1aa2352cafeb5683c843abd", "type": "electric_scooter", "is_reserved": 0, "lon": -77.02411216666667}, {"fusion_lat": 0.0, "name": "ae35764aa6b5d8cc0ad5ea0cbde8c20d", "is_disabled": 0, "rental_uris": {"android": "https://dc.lft.to/lastmile_qr_scan", "ios": "https://dc.lft.to/lastmile_qr_scan"}, "fusion_lon": 0.0, "lat": 38.924539833333334, "bike_id": "ae35764aa6b5d8cc0ad5ea0cbde8c20d", "type": "electric_scooter", "is_reserved": 0, "lon": -77.03426066666667}, {"fusion_lat": 0.0, "name": "0e17f85c8d895f1615813f1b86a9a829", "is_disabled": 0, "rental_uris": {"android": "https://dc.lft.to/lastmile_qr_scan", "ios": "https://dc.lft.to/lastmile_qr_scan"}, "fusion_lon": 0.0, "lat": 38.91551966666667, "bike_id": "0e17f85c8d895f1615813f1b86a9a829", "type": "electric_scooter", "is_reserved": 0, "lon": -77.03232116666666}, {"fusion_lat": 0.0, "name": "4381add2bb5e01ce8ed18ff51696c934", "is_disabled": 0, "rental_uris": {"android": "https://dc.lft.to/lastmile_qr_scan", "ios": "https://dc.lft.to/lastmile_qr_scan"}, "fusion_lon": 0.0, "lat": 38.876607666666665, "bike_id": "4381add2bb5e01ce8ed18ff51696c934", "type": "electric_scooter", "is_reserved": 0, "lon": -77.0091485}, {"fusion_lat": 0.0, "name": "ca1dee63e2192dab669d36df71a2950c", "is_disabled": 0, "rental_uris": {"android": "https://dc.lft.to/lastmile_qr_scan", "ios": "https://dc.lft.to/lastmile_qr_scan"}, "fusion_lon": 0.0, "lat": 38.901400333333335, "bike_id": "ca1dee63e2192dab669d36df71a2950c", "type": "electric_scooter", "is_reserved": 0, "lon": -77.00068966666667}, {"fusion_lat": 0.0, "name": "7c743933daa398c339be1b5e2f186f1a", "is_disabled": 0, "rental_uris": {"android": "https://dc.lft.to/lastmile_qr_scan", "ios": "https://dc.lft.to/lastmile_qr_scan"}, "fusion_lon": 0.0, "lat": 38.91456783333334, "bike_id": "7c743933daa398c339be1b5e2f186f1a", "type": "electric_scooter", "is_reserved": 0, "lon": -77.03215433333334}, {"fusion_lat": 0.0, "name": "ff9673c1442ef5d76f392af439996117", "is_disabled": 0, "rental_uris": {"android": "https://dc.lft.to/lastmile_qr_scan", "ios": "https://dc.lft.to/lastmile_qr_scan"}, "fusion_lon": 0.0, "lat": 38.958792333333335, "bike_id": "ff9673c1442ef5d76f392af439996117", "type": "electric_scooter", "is_reserved": 0, "lon": -77.01167983333333}, {"fusion_lat": 0.0, "name": "ab305369c20351abf99ceb3d1c1e67ea", "is_disabled": 0, "rental_uris": {"android": "https://dc.lft.to/lastmile_qr_scan", "ios": "https://dc.lft.to/lastmile_qr_scan"}, "fusion_lon": 0.0, "lat": 38.92827283333333, "bike_id": "ab305369c20351abf99ceb3d1c1e67ea", "type": "electric_scooter", "is_reserved": 0, "lon": -77.02256683333333}, {"fusion_lat": 0.0, "name": "a5f7b583610aec631f189a71982c7b03", "is_disabled": 0, "rental_uris": {"android": "https://dc.lft.to/lastmile_qr_scan", "ios": "https://dc.lft.to/lastmile_qr_scan"}, "fusion_lon": 0.0, "lat": 38.88231966666667, "bike_id": "a5f7b583610aec631f189a71982c7b03", "type": "electric_scooter", "is_reserved": 0, "lon": -77.026145}, {"fusion_lat": 0.0, "name": "0cfc15e6746b598e7b2aaf5daea0c079", "is_disabled": 0, "rental_uris": {"android": "https://dc.lft.to/lastmile_qr_scan", "ios": "https://dc.lft.to/lastmile_qr_scan"}, "fusion_lon": 0.0, "lat": 38.931298166666664, "bike_id": "0cfc15e6746b598e7b2aaf5daea0c079", "type": "electric_scooter", "is_reserved": 0, "lon": -77.02347366666666}, {"fusion_lat": 0.0, "name": "1a809c10c77143ad510121b7a7875ffa", "is_disabled": 0, "rental_uris": {"android": "https://dc.lft.to/lastmile_qr_scan", "ios": "https://dc.lft.to/lastmile_qr_scan"}, "fusion_lon": 0.0, "lat": 38.915527, "bike_id": "1a809c10c77143ad510121b7a7875ffa", "type": "electric_scooter", "is_reserved": 0, "lon": -77.03228166666666}, {"fusion_lat": 0.0, "name": "84aa6f8073aecc50980c43e7c228d70a", "is_disabled": 0, "rental_uris": {"android": "https://dc.lft.to/lastmile_qr_scan", "ios": "https://dc.lft.to/lastmile_qr_scan"}, "fusion_lon": 0.0, "lat": 38.8791335, "bike_id": "84aa6f8073aecc50980c43e7c228d70a", "type": "electric_scooter", "is_reserved": 0, "lon": -77.008826}, {"fusion_lat": 0.0, "name": "77ab6d21c1466eb0a649f86eb303de5e", "is_disabled": 0, "rental_uris": {"android": "https://dc.lft.to/lastmile_qr_scan", "ios": "https://dc.lft.to/lastmile_qr_scan"}, "fusion_lon": 0.0, "lat": 38.9233285, "bike_id": "77ab6d21c1466eb0a649f86eb303de5e", "type": "electric_scooter", "is_reserved": 0, "lon": -77.04299066666667}, {"fusion_lat": 0.0, "name": "a5c9811656295df65c3a72885d104110", "is_disabled": 0, "rental_uris": {"android": "https://dc.lft.to/lastmile_qr_scan", "ios": "https://dc.lft.to/lastmile_qr_scan"}, "fusion_lon": 0.0, "lat": 38.90354416666667, "bike_id": "a5c9811656295df65c3a72885d104110", "type": "electric_scooter", "is_reserved": 0, "lon": -77.01775333333333}, {"fusion_lat": 0.0, "name": "f2346bfd7eea37cb93bb01f49974a7b8", "is_disabled": 0, "rental_uris": {"android": "https://dc.lft.to/lastmile_qr_scan", "ios": "https://dc.lft.to/lastmile_qr_scan"}, "fusion_lon": 0.0, "lat": 38.897901166666664, "bike_id": "f2346bfd7eea37cb93bb01f49974a7b8", "type": "electric_scooter", "is_reserved": 0, "lon": -77.0119295}, {"fusion_lat": 0.0, "name": "9f2a6d115700068a949e25b0f36ef0a0", "is_disabled": 0, "rental_uris": {"android": "https://dc.lft.to/lastmile_qr_scan", "ios": "https://dc.lft.to/lastmile_qr_scan"}, "fusion_lon": 0.0, "lat": 38.9289595, "bike_id": "9f2a6d115700068a949e25b0f36ef0a0", "type": "electric_bike", "is_reserved": 0, "lon": -77.2317725}, {"fusion_lat": 0.0, "name": "9dd4383decb6fd60dc840a560a4474de", "is_disabled": 0, "rental_uris": {"android": "https://dc.lft.to/lastmile_qr_scan", "ios": "https://dc.lft.to/lastmile_qr_scan"}, "fusion_lon": 0.0, "lat": 38.95300966666667, "bike_id": "9dd4383decb6fd60dc840a560a4474de", "type": "electric_scooter", "is_reserved": 0, "lon": -77.06870816666667}, {"fusion_lat": 0.0, "name": "44f041579e692030c765b5fb0bb36422", "is_disabled": 0, "rental_uris": {"android": "https://dc.lft.to/lastmile_qr_scan", "ios": "https://dc.lft.to/lastmile_qr_scan"}, "fusion_lon": 0.0, "lat": 38.897362333333334, "bike_id": "44f041579e692030c765b5fb0bb36422", "type": "electric_scooter", "is_reserved": 0, "lon": -77.0201575}, {"fusion_lat": 0.0, "name": "4cda76e06ceb0849fdad7e5c2f599299", "is_disabled": 0, "rental_uris": {"android": "https://dc.lft.to/lastmile_qr_scan", "ios": "https://dc.lft.to/lastmile_qr_scan"}, "fusion_lon": 0.0, "lat": 38.931895833333336, "bike_id": "4cda76e06ceb0849fdad7e5c2f599299", "type": "electric_scooter", "is_reserved": 0, "lon": -77.04298733333333}, {"fusion_lat": 0.0, "name": "2bf7bd1c8087675eb65c5084e5160ab0", "is_disabled": 0, "rental_uris": {"android": "https://dc.lft.to/lastmile_qr_scan", "ios": "https://dc.lft.to/lastmile_qr_scan"}, "fusion_lon": 0.0, "lat": 38.90681383333333, "bike_id": "2bf7bd1c8087675eb65c5084e5160ab0", "type": "electric_bike", "is_reserved": 0, "lon": -77.06350583333334}, {"fusion_lat": 0.0, "name": "6930ec3917ddb1287ced3f3c3edbc89d", "is_disabled": 0, "rental_uris": {"android": "https://dc.lft.to/lastmile_qr_scan", "ios": "https://dc.lft.to/lastmile_qr_scan"}, "fusion_lon": 0.0, "lat": 38.905250333333335, "bike_id": "6930ec3917ddb1287ced3f3c3edbc89d", "type": "electric_scooter", "is_reserved": 0, "lon": -77.05879683333333}, {"fusion_lat": 0.0, "name": "dddeecbdf9bd558e5e5971edff987e23", "is_disabled": 0, "rental_uris": {"android": "https://dc.lft.to/lastmile_qr_scan", "ios": "https://dc.lft.to/lastmile_qr_scan"}, "fusion_lon": 0.0, "lat": 38.84138433333333, "bike_id": "dddeecbdf9bd558e5e5971edff987e23", "type": "electric_bike", "is_reserved": 0, "lon": -76.94758316666666}, {"fusion_lat": 0.0, "name": "21b7d28d53765ce7471dcbe64edc208b", "is_disabled": 0, "rental_uris": {"android": "https://dc.lft.to/lastmile_qr_scan", "ios": "https://dc.lft.to/lastmile_qr_scan"}, "fusion_lon": 0.0, "lat": 38.921957666666664, "bike_id": "21b7d28d53765ce7471dcbe64edc208b", "type": "electric_scooter", "is_reserved": 0, "lon": -77.05047766666667}, {"fusion_lat": 0.0, "name": "a1d262becc6830f73a4cb5489c8d6cba", "is_disabled": 0, "rental_uris": {"android": "https://dc.lft.to/lastmile_qr_scan", "ios": "https://dc.lft.to/lastmile_qr_scan"}, "fusion_lon": 0.0, "lat": 38.912719833333334, "bike_id": "a1d262becc6830f73a4cb5489c8d6cba", "type": "electric_scooter", "is_reserved": 0, "lon": -77.01223866666666}, {"fusion_lat": 0.0, "name": "3560d9d1845526353030749ac2920b7e", "is_disabled": 0, "rental_uris": {"android": "https://dc.lft.to/lastmile_qr_scan", "ios": "https://dc.lft.to/lastmile_qr_scan"}, "fusion_lon": 0.0, "lat": 38.92435583333334, "bike_id": "3560d9d1845526353030749ac2920b7e", "type": "electric_scooter", "is_reserved": 0, "lon": -77.00069666666667}, {"fusion_lat": 0.0, "name": "7a61cd5335bb32e660c8d66cb0835dab", "is_disabled": 0, "rental_uris": {"android": "https://dc.lft.to/lastmile_qr_scan", "ios": "https://dc.lft.to/lastmile_qr_scan"}, "fusion_lon": 0.0, "lat": 38.8872285, "bike_id": "7a61cd5335bb32e660c8d66cb0835dab", "type": "electric_scooter", "is_reserved": 0, "lon": -76.98352816666667}, {"fusion_lat": 0.0, "name": "dff083706687f6a7e41f3f7caafcdedd", "is_disabled": 0, "rental_uris": {"android": "https://dc.lft.to/lastmile_qr_scan", "ios": "https://dc.lft.to/lastmile_qr_scan"}, "fusion_lon": 0.0, "lat": 38.88555933333333, "bike_id": "dff083706687f6a7e41f3f7caafcdedd", "type": "electric_scooter", "is_reserved": 0, "lon": -76.9977675}, {"fusion_lat": 0.0, "name": "7c5711ca2cd18795d34698c446992449", "is_disabled": 0, "rental_uris": {"android": "https://dc.lft.to/lastmile_qr_scan", "ios": "https://dc.lft.to/lastmile_qr_scan"}, "fusion_lon": 0.0, "lat": 38.905505, "bike_id": "7c5711ca2cd18795d34698c446992449", "type": "electric_scooter", "is_reserved": 0, "lon": -77.06264116666667}, {"fusion_lat": 0.0, "name": "1336aea507cc7d3ba75246a9aba3dd1c", "is_disabled": 0, "rental_uris": {"android": "https://dc.lft.to/lastmile_qr_scan", "ios": "https://dc.lft.to/lastmile_qr_scan"}, "fusion_lon": 0.0, "lat": 38.898337, "bike_id": "1336aea507cc7d3ba75246a9aba3dd1c", "type": "electric_scooter", "is_reserved": 0, "lon": -77.02641983333334}, {"fusion_lat": 0.0, "name": "1a1ee58a116e2a2a7e974a5b12e13b61", "is_disabled": 0, "rental_uris": {"android": "https://dc.lft.to/lastmile_qr_scan", "ios": "https://dc.lft.to/lastmile_qr_scan"}, "fusion_lon": 0.0, "lat": 38.904093833333334, "bike_id": "1a1ee58a116e2a2a7e974a5b12e13b61", "type": "electric_scooter", "is_reserved": 0, "lon": -76.97330933333333}, {"fusion_lat": 0.0, "name": "c2f6d5ce9638635af4392a8664f2002d", "is_disabled": 0, "rental_uris": {"android": "https://dc.lft.to/lastmile_qr_scan", "ios": "https://dc.lft.to/lastmile_qr_scan"}, "fusion_lon": 0.0, "lat": 38.87637433333333, "bike_id": "c2f6d5ce9638635af4392a8664f2002d", "type": "electric_scooter", "is_reserved": 0, "lon": -77.009117}, {"fusion_lat": 0.0, "name": "f5096fe862b70298bd89711f660c24f1", "is_disabled": 0, "rental_uris": {"android": "https://dc.lft.to/lastmile_qr_scan", "ios": "https://dc.lft.to/lastmile_qr_scan"}, "fusion_lon": 0.0, "lat": 38.887654833333336, "bike_id": "f5096fe862b70298bd89711f660c24f1", "type": "electric_scooter", "is_reserved": 0, "lon": -76.9775065}, {"fusion_lat": 0.0, "name": "0194d5e0e9aa420d0459984d50af0de3", "is_disabled": 0, "rental_uris": {"android": "https://dc.lft.to/lastmile_qr_scan", "ios": "https://dc.lft.to/lastmile_qr_scan"}, "fusion_lon": 0.0, "lat": 38.914112833333334, "bike_id": "0194d5e0e9aa420d0459984d50af0de3", "type": "electric_scooter", "is_reserved": 0, "lon": -77.039365}, {"fusion_lat": 0.0, "name": "7c69473de611b5e634d7d2466b8614fa", "is_disabled": 0, "rental_uris": {"android": "https://dc.lft.to/lastmile_qr_scan", "ios": "https://dc.lft.to/lastmile_qr_scan"}, "fusion_lon": 0.0, "lat": 38.9250115, "bike_id": "7c69473de611b5e634d7d2466b8614fa", "type": "electric_scooter", "is_reserved": 0, "lon": -77.05228816666667}, {"fusion_lat": 0.0, "name": "98b810729123a3a8bb1406de3b847e3a", "is_disabled": 0, "rental_uris": {"android": "https://dc.lft.to/lastmile_qr_scan", "ios": "https://dc.lft.to/lastmile_qr_scan"}, "fusion_lon": 0.0, "lat": 38.90952083333333, "bike_id": "98b810729123a3a8bb1406de3b847e3a", "type": "electric_scooter", "is_reserved": 0, "lon": -76.98551}, {"fusion_lat": 0.0, "name": "3ec4c1dd6fa325028d82aeeb0c91f9c5", "is_disabled": 0, "rental_uris": {"android": "https://dc.lft.to/lastmile_qr_scan", "ios": "https://dc.lft.to/lastmile_qr_scan"}, "fusion_lon": 0.0, "lat": 38.8246255, "bike_id": "3ec4c1dd6fa325028d82aeeb0c91f9c5", "type": "electric_bike", "is_reserved": 0, "lon": -77.0079145}, {"fusion_lat": 0.0, "name": "ab8fb88669b51051a250e3bc4e2a8ad9", "is_disabled": 0, "rental_uris": {"android": "https://dc.lft.to/lastmile_qr_scan", "ios": "https://dc.lft.to/lastmile_qr_scan"}, "fusion_lon": 0.0, "lat": 38.89903, "bike_id": "ab8fb88669b51051a250e3bc4e2a8ad9", "type": "electric_scooter", "is_reserved": 0, "lon": -76.9454735}, {"fusion_lat": 0.0, "name": "42abc938d5b095f6bfd01b972e9518e8", "is_disabled": 0, "rental_uris": {"android": "https://dc.lft.to/lastmile_qr_scan", "ios": "https://dc.lft.to/lastmile_qr_scan"}, "fusion_lon": 0.0, "lat": 38.90868583333334, "bike_id": "42abc938d5b095f6bfd01b972e9518e8", "type": "electric_scooter", "is_reserved": 0, "lon": -77.08590933333333}, {"fusion_lat": 0.0, "name": "78eb011e0e50a8965d6ee8a4835c96e2", "is_disabled": 0, "rental_uris": {"android": "https://dc.lft.to/lastmile_qr_scan", "ios": "https://dc.lft.to/lastmile_qr_scan"}, "fusion_lon": 0.0, "lat": 38.91358966666667, "bike_id": "78eb011e0e50a8965d6ee8a4835c96e2", "type": "electric_scooter", "is_reserved": 0, "lon": -77.04575016666666}, {"fusion_lat": 0.0, "name": "2cbc5d59b949a806b40dda2c456d7d69", "is_disabled": 0, "rental_uris": {"android": "https://dc.lft.to/lastmile_qr_scan", "ios": "https://dc.lft.to/lastmile_qr_scan"}, "fusion_lon": 0.0, "lat": 38.877008000000004, "bike_id": "2cbc5d59b949a806b40dda2c456d7d69", "type": "electric_scooter", "is_reserved": 0, "lon": -77.00730533333333}, {"fusion_lat": 0.0, "name": "4389d8c9289ff86abcf536f54ed4e753", "is_disabled": 0, "rental_uris": {"android": "https://dc.lft.to/lastmile_qr_scan", "ios": "https://dc.lft.to/lastmile_qr_scan"}, "fusion_lon": 0.0, "lat": 38.90520083333333, "bike_id": "4389d8c9289ff86abcf536f54ed4e753", "type": "electric_scooter", "is_reserved": 0, "lon": -77.05652366666666}, {"fusion_lat": 0.0, "name": "c37fc7960c0d19bd6952b5ae138e39d3", "is_disabled": 0, "rental_uris": {"android": "https://dc.lft.to/lastmile_qr_scan", "ios": "https://dc.lft.to/lastmile_qr_scan"}, "fusion_lon": 0.0, "lat": 38.923948833333334, "bike_id": "c37fc7960c0d19bd6952b5ae138e39d3", "type": "electric_scooter", "is_reserved": 0, "lon": -77.03643183333334}, {"fusion_lat": 0.0, "name": "56a86b04efc6c4de95874d9a0179d18f", "is_disabled": 0, "rental_uris": {"android": "https://dc.lft.to/lastmile_qr_scan", "ios": "https://dc.lft.to/lastmile_qr_scan"}, "fusion_lon": 0.0, "lat": 38.90037, "bike_id": "56a86b04efc6c4de95874d9a0179d18f", "type": "electric_scooter", "is_reserved": 0, "lon": -77.00737733333334}, {"fusion_lat": 0.0, "name": "66e229df252f92f21be589339479ed22", "is_disabled": 0, "rental_uris": {"android": "https://dc.lft.to/lastmile_qr_scan", "ios": "https://dc.lft.to/lastmile_qr_scan"}, "fusion_lon": 0.0, "lat": 38.87883716666666, "bike_id": "66e229df252f92f21be589339479ed22", "type": "electric_scooter", "is_reserved": 0, "lon": -77.02235333333333}, {"fusion_lat": 0.0, "name": "9f8add6f319180446fef653e839f77cd", "is_disabled": 0, "rental_uris": {"android": "https://dc.lft.to/lastmile_qr_scan", "ios": "https://dc.lft.to/lastmile_qr_scan"}, "fusion_lon": 0.0, "lat": 38.88767383333333, "bike_id": "9f8add6f319180446fef653e839f77cd", "type": "electric_scooter", "is_reserved": 0, "lon": -76.99468666666667}, {"fusion_lat": 0.0, "name": "0980f577d5b2c5bd94b5a8ef66d6f679", "is_disabled": 0, "rental_uris": {"android": "https://dc.lft.to/lastmile_qr_scan", "ios": "https://dc.lft.to/lastmile_qr_scan"}, "fusion_lon": 0.0, "lat": 38.9847445, "bike_id": "0980f577d5b2c5bd94b5a8ef66d6f679", "type": "electric_scooter", "is_reserved": 0, "lon": -77.02645166666667}, {"fusion_lat": 0.0, "name": "058b5d96691eefc839b2809fbf6fa2b7", "is_disabled": 0, "rental_uris": {"android": "https://dc.lft.to/lastmile_qr_scan", "ios": "https://dc.lft.to/lastmile_qr_scan"}, "fusion_lon": 0.0, "lat": 38.921606833333335, "bike_id": "058b5d96691eefc839b2809fbf6fa2b7", "type": "electric_scooter", "is_reserved": 0, "lon": -77.03667083333333}, {"fusion_lat": 0.0, "name": "296d5bcc89a93790709ac4d025f4695b", "is_disabled": 0, "rental_uris": {"android": "https://dc.lft.to/lastmile_qr_scan", "ios": "https://dc.lft.to/lastmile_qr_scan"}, "fusion_lon": 0.0, "lat": 38.95834833333333, "bike_id": "296d5bcc89a93790709ac4d025f4695b", "type": "electric_bike", "is_reserved": 0, "lon": -77.01516783333334}, {"fusion_lat": 0.0, "name": "d23feb51ff226ec2d04d27c016a9416d", "is_disabled": 0, "rental_uris": {"android": "https://dc.lft.to/lastmile_qr_scan", "ios": "https://dc.lft.to/lastmile_qr_scan"}, "fusion_lon": 0.0, "lat": 38.91842033333333, "bike_id": "d23feb51ff226ec2d04d27c016a9416d", "type": "electric_scooter", "is_reserved": 0, "lon": -76.96539483333333}, {"fusion_lat": 0.0, "name": "bb5e2d9467d16235f9a586925f87a960", "is_disabled": 0, "rental_uris": {"android": "https://dc.lft.to/lastmile_qr_scan", "ios": "https://dc.lft.to/lastmile_qr_scan"}, "fusion_lon": 0.0, "lat": 38.88044283333333, "bike_id": "bb5e2d9467d16235f9a586925f87a960", "type": "electric_bike", "is_reserved": 0, "lon": -77.025212}, {"fusion_lat": 0.0, "name": "fa4f37aa35803cc4e32551e65028d277", "is_disabled": 0, "rental_uris": {"android": "https://dc.lft.to/lastmile_qr_scan", "ios": "https://dc.lft.to/lastmile_qr_scan"}, "fusion_lon": 0.0, "lat": 38.9171675, "bike_id": "fa4f37aa35803cc4e32551e65028d277", "type": "electric_scooter", "is_reserved": 0, "lon": -77.02737116666667}, {"fusion_lat": 0.0, "name": "af6d0df1774ad28b8bec1708dbd14f3c", "is_disabled": 0, "rental_uris": {"android": "https://dc.lft.to/lastmile_qr_scan", "ios": "https://dc.lft.to/lastmile_qr_scan"}, "fusion_lon": 0.0, "lat": 38.91666283333333, "bike_id": "af6d0df1774ad28b8bec1708dbd14f3c", "type": "electric_scooter", "is_reserved": 0, "lon": -77.02821616666667}, {"fusion_lat": 0.0, "name": "5e49a3a216fcd3681fe1fb0bf0736d6a", "is_disabled": 0, "rental_uris": {"android": "https://dc.lft.to/lastmile_qr_scan", "ios": "https://dc.lft.to/lastmile_qr_scan"}, "fusion_lon": 0.0, "lat": 38.916879, "bike_id": "5e49a3a216fcd3681fe1fb0bf0736d6a", "type": "electric_scooter", "is_reserved": 0, "lon": -77.02875983333334}, {"fusion_lat": 0.0, "name": "94939e5656b0a96ecfa9296c8f4d9119", "is_disabled": 0, "rental_uris": {"android": "https://dc.lft.to/lastmile_qr_scan", "ios": "https://dc.lft.to/lastmile_qr_scan"}, "fusion_lon": 0.0, "lat": 38.897360666666664, "bike_id": "94939e5656b0a96ecfa9296c8f4d9119", "type": "electric_scooter", "is_reserved": 0, "lon": -77.04622983333333}, {"fusion_lat": 0.0, "name": "06301affb1c62178d94aaceff1aaa8c5", "is_disabled": 0, "rental_uris": {"android": "https://dc.lft.to/lastmile_qr_scan", "ios": "https://dc.lft.to/lastmile_qr_scan"}, "fusion_lon": 0.0, "lat": 38.91820966666667, "bike_id": "06301affb1c62178d94aaceff1aaa8c5", "type": "electric_scooter", "is_reserved": 0, "lon": -77.00255883333334}, {"fusion_lat": 0.0, "name": "b3b805531af85917110db24fcdd8e8c8", "is_disabled": 0, "rental_uris": {"android": "https://dc.lft.to/lastmile_qr_scan", "ios": "https://dc.lft.to/lastmile_qr_scan"}, "fusion_lon": 0.0, "lat": 38.952857333333334, "bike_id": "b3b805531af85917110db24fcdd8e8c8", "type": "electric_scooter", "is_reserved": 0, "lon": -77.03650783333333}, {"fusion_lat": 0.0, "name": "f212c4671935419ff790714ea7ddb20d", "is_disabled": 0, "rental_uris": {"android": "https://dc.lft.to/lastmile_qr_scan", "ios": "https://dc.lft.to/lastmile_qr_scan"}, "fusion_lon": 0.0, "lat": 38.85521583333333, "bike_id": "f212c4671935419ff790714ea7ddb20d", "type": "electric_bike", "is_reserved": 0, "lon": -77.11999683333333}, {"fusion_lat": 0.0, "name": "46878e28485098d61b83839eb8c86c0a", "is_disabled": 0, "rental_uris": {"android": "https://dc.lft.to/lastmile_qr_scan", "ios": "https://dc.lft.to/lastmile_qr_scan"}, "fusion_lon": 0.0, "lat": 38.90687483333333, "bike_id": "46878e28485098d61b83839eb8c86c0a", "type": "electric_scooter", "is_reserved": 0, "lon": -77.0269815}, {"fusion_lat": 0.0, "name": "fbee30e58605c0997cf6374abd17a4e4", "is_disabled": 0, "rental_uris": {"android": "https://dc.lft.to/lastmile_qr_scan", "ios": "https://dc.lft.to/lastmile_qr_scan"}, "fusion_lon": 0.0, "lat": 38.992097666666666, "bike_id": "fbee30e58605c0997cf6374abd17a4e4", "type": "electric_bike", "is_reserved": 0, "lon": -76.94461483333333}, {"fusion_lat": 0.0, "name": "f980c95da74f7a5a77f331f163cf8726", "is_disabled": 0, "rental_uris": {"android": "https://dc.lft.to/lastmile_qr_scan", "ios": "https://dc.lft.to/lastmile_qr_scan"}, "fusion_lon": 0.0, "lat": 38.91734133333333, "bike_id": "f980c95da74f7a5a77f331f163cf8726", "type": "electric_scooter", "is_reserved": 0, "lon": -77.02385116666666}, {"fusion_lat": 0.0, "name": "4602cfa41b8e9cafa2e5514695d773d8", "is_disabled": 0, "rental_uris": {"android": "https://dc.lft.to/lastmile_qr_scan", "ios": "https://dc.lft.to/lastmile_qr_scan"}, "fusion_lon": 0.0, "lat": 38.9152625, "bike_id": "4602cfa41b8e9cafa2e5514695d773d8", "type": "electric_scooter", "is_reserved": 0, "lon": -77.01323683333334}, {"fusion_lat": 0.0, "name": "79e5dd61b2d3e8e6b5c85d78882f1cc9", "is_disabled": 0, "rental_uris": {"android": "https://dc.lft.to/lastmile_qr_scan", "ios": "https://dc.lft.to/lastmile_qr_scan"}, "fusion_lon": 0.0, "lat": 38.900319333333336, "bike_id": "79e5dd61b2d3e8e6b5c85d78882f1cc9", "type": "electric_scooter", "is_reserved": 0, "lon": -76.99841916666666}, {"fusion_lat": 0.0, "name": "704f2a3eb29883351f067e667379ace2", "is_disabled": 0, "rental_uris": {"android": "https://dc.lft.to/lastmile_qr_scan", "ios": "https://dc.lft.to/lastmile_qr_scan"}, "fusion_lon": 0.0, "lat": 38.9223305, "bike_id": "704f2a3eb29883351f067e667379ace2", "type": "electric_scooter", "is_reserved": 0, "lon": -77.0464945}, {"fusion_lat": 0.0, "name": "4733e8859c3f77c604cb65c35e43678f", "is_disabled": 0, "rental_uris": {"android": "https://dc.lft.to/lastmile_qr_scan", "ios": "https://dc.lft.to/lastmile_qr_scan"}, "fusion_lon": 0.0, "lat": 38.9065925, "bike_id": "4733e8859c3f77c604cb65c35e43678f", "type": "electric_scooter", "is_reserved": 0, "lon": -77.00913833333334}, {"fusion_lat": 0.0, "name": "4bd6503088e3af275ced668055e1116f", "is_disabled": 0, "rental_uris": {"android": "https://dc.lft.to/lastmile_qr_scan", "ios": "https://dc.lft.to/lastmile_qr_scan"}, "fusion_lon": 0.0, "lat": 38.904653833333334, "bike_id": "4bd6503088e3af275ced668055e1116f", "type": "electric_scooter", "is_reserved": 0, "lon": -77.029585}, {"fusion_lat": 0.0, "name": "f1294104d571ccc27d154cd24953f825", "is_disabled": 0, "rental_uris": {"android": "https://dc.lft.to/lastmile_qr_scan", "ios": "https://dc.lft.to/lastmile_qr_scan"}, "fusion_lon": 0.0, "lat": 38.983958, "bike_id": "f1294104d571ccc27d154cd24953f825", "type": "electric_scooter", "is_reserved": 0, "lon": -77.02629116666667}, {"fusion_lat": 0.0, "name": "c971314ed75400ca13f1c74caa61ff0e", "is_disabled": 0, "rental_uris": {"android": "https://dc.lft.to/lastmile_qr_scan", "ios": "https://dc.lft.to/lastmile_qr_scan"}, "fusion_lon": 0.0, "lat": 38.9089305, "bike_id": "c971314ed75400ca13f1c74caa61ff0e", "type": "electric_scooter", "is_reserved": 0, "lon": -77.03211433333334}, {"fusion_lat": 0.0, "name": "8f0a9dd8a89aceb73dd2a1768d0a0744", "is_disabled": 0, "rental_uris": {"android": "https://dc.lft.to/lastmile_qr_scan", "ios": "https://dc.lft.to/lastmile_qr_scan"}, "fusion_lon": 0.0, "lat": 38.92791833333333, "bike_id": "8f0a9dd8a89aceb73dd2a1768d0a0744", "type": "electric_scooter", "is_reserved": 0, "lon": -76.995597}, {"fusion_lat": 0.0, "name": "71da4be0daa5cbcdd820391d4175d021", "is_disabled": 0, "rental_uris": {"android": "https://dc.lft.to/lastmile_qr_scan", "ios": "https://dc.lft.to/lastmile_qr_scan"}, "fusion_lon": 0.0, "lat": 38.90241816666666, "bike_id": "71da4be0daa5cbcdd820391d4175d021", "type": "electric_scooter", "is_reserved": 0, "lon": -77.02765866666667}, {"fusion_lat": 0.0, "name": "632de8d7e6ffa8b86cba97b4751296cd", "is_disabled": 0, "rental_uris": {"android": "https://dc.lft.to/lastmile_qr_scan", "ios": "https://dc.lft.to/lastmile_qr_scan"}, "fusion_lon": 0.0, "lat": 38.94523016666667, "bike_id": "632de8d7e6ffa8b86cba97b4751296cd", "type": "electric_scooter", "is_reserved": 0, "lon": -77.0226955}, {"fusion_lat": 0.0, "name": "39d2efd5fbe2d3cc3b4b5d8203513ea3", "is_disabled": 0, "rental_uris": {"android": "https://dc.lft.to/lastmile_qr_scan", "ios": "https://dc.lft.to/lastmile_qr_scan"}, "fusion_lon": 0.0, "lat": 38.919127333333336, "bike_id": "39d2efd5fbe2d3cc3b4b5d8203513ea3", "type": "electric_scooter", "is_reserved": 0, "lon": -77.0121785}, {"fusion_lat": 0.0, "name": "42def7c471c808910c358a0b409241c0", "is_disabled": 0, "rental_uris": {"android": "https://dc.lft.to/lastmile_qr_scan", "ios": "https://dc.lft.to/lastmile_qr_scan"}, "fusion_lon": 0.0, "lat": 38.921491833333334, "bike_id": "42def7c471c808910c358a0b409241c0", "type": "electric_scooter", "is_reserved": 0, "lon": -77.03872816666667}, {"fusion_lat": 0.0, "name": "a6d88746bce71b3d195ff26d74312653", "is_disabled": 0, "rental_uris": {"android": "https://dc.lft.to/lastmile_qr_scan", "ios": "https://dc.lft.to/lastmile_qr_scan"}, "fusion_lon": 0.0, "lat": 38.902572, "bike_id": "a6d88746bce71b3d195ff26d74312653", "type": "electric_scooter", "is_reserved": 0, "lon": -77.01743366666666}, {"fusion_lat": 0.0, "name": "321bf0fb0b6dfedc8a1a379f593836c7", "is_disabled": 0, "rental_uris": {"android": "https://dc.lft.to/lastmile_qr_scan", "ios": "https://dc.lft.to/lastmile_qr_scan"}, "fusion_lon": 0.0, "lat": 38.9362735, "bike_id": "321bf0fb0b6dfedc8a1a379f593836c7", "type": "electric_scooter", "is_reserved": 0, "lon": -77.081848}, {"fusion_lat": 0.0, "name": "d01578c94b6552120daf5c459861143a", "is_disabled": 0, "rental_uris": {"android": "https://dc.lft.to/lastmile_qr_scan", "ios": "https://dc.lft.to/lastmile_qr_scan"}, "fusion_lon": 0.0, "lat": 38.9340205, "bike_id": "d01578c94b6552120daf5c459861143a", "type": "electric_scooter", "is_reserved": 0, "lon": -77.05744166666666}, {"fusion_lat": 0.0, "name": "60c6d988afb310acfac72f450de3cb15", "is_disabled": 0, "rental_uris": {"android": "https://dc.lft.to/lastmile_qr_scan", "ios": "https://dc.lft.to/lastmile_qr_scan"}, "fusion_lon": 0.0, "lat": 38.950559, "bike_id": "60c6d988afb310acfac72f450de3cb15", "type": "electric_scooter", "is_reserved": 0, "lon": -77.08029366666666}, {"fusion_lat": 0.0, "name": "5a8dde1210dfb5115546add08bd24f7d", "is_disabled": 0, "rental_uris": {"android": "https://dc.lft.to/lastmile_qr_scan", "ios": "https://dc.lft.to/lastmile_qr_scan"}, "fusion_lon": 0.0, "lat": 38.916651, "bike_id": "5a8dde1210dfb5115546add08bd24f7d", "type": "electric_scooter", "is_reserved": 0, "lon": -77.038521}, {"fusion_lat": 0.0, "name": "523032bb27d0f253d8488eec67f3dc9e", "is_disabled": 0, "rental_uris": {"android": "https://dc.lft.to/lastmile_qr_scan", "ios": "https://dc.lft.to/lastmile_qr_scan"}, "fusion_lon": 0.0, "lat": 38.908292333333335, "bike_id": "523032bb27d0f253d8488eec67f3dc9e", "type": "electric_scooter", "is_reserved": 0, "lon": -76.98420166666666}, {"fusion_lat": 0.0, "name": "ebc7d45cddb6a9f01460c1e31bbea3dd", "is_disabled": 0, "rental_uris": {"android": "https://dc.lft.to/lastmile_qr_scan", "ios": "https://dc.lft.to/lastmile_qr_scan"}, "fusion_lon": 0.0, "lat": 38.91053866666667, "bike_id": "ebc7d45cddb6a9f01460c1e31bbea3dd", "type": "electric_scooter", "is_reserved": 0, "lon": -77.0411035}, {"fusion_lat": 0.0, "name": "e06a9bfc70ef6e0508781942bda70445", "is_disabled": 0, "rental_uris": {"android": "https://dc.lft.to/lastmile_qr_scan", "ios": "https://dc.lft.to/lastmile_qr_scan"}, "fusion_lon": 0.0, "lat": 38.911281, "bike_id": "e06a9bfc70ef6e0508781942bda70445", "type": "electric_scooter", "is_reserved": 0, "lon": -77.0219595}, {"fusion_lat": 0.0, "name": "2224993c6092ad393d73ee812346af0e", "is_disabled": 0, "rental_uris": {"android": "https://dc.lft.to/lastmile_qr_scan", "ios": "https://dc.lft.to/lastmile_qr_scan"}, "fusion_lon": 0.0, "lat": 38.885946, "bike_id": "2224993c6092ad393d73ee812346af0e", "type": "electric_scooter", "is_reserved": 0, "lon": -77.01721916666666}, {"fusion_lat": 0.0, "name": "7e3b97cc4a909eec68e6dff3a60918c0", "is_disabled": 0, "rental_uris": {"android": "https://dc.lft.to/lastmile_qr_scan", "ios": "https://dc.lft.to/lastmile_qr_scan"}, "fusion_lon": 0.0, "lat": 38.906236166666666, "bike_id": "7e3b97cc4a909eec68e6dff3a60918c0", "type": "electric_scooter", "is_reserved": 0, "lon": -77.02406766666667}, {"fusion_lat": 0.0, "name": "740416cc8d17d637e12589e30a6daf0a", "is_disabled": 0, "rental_uris": {"android": "https://dc.lft.to/lastmile_qr_scan", "ios": "https://dc.lft.to/lastmile_qr_scan"}, "fusion_lon": 0.0, "lat": 38.901243666666666, "bike_id": "740416cc8d17d637e12589e30a6daf0a", "type": "electric_scooter", "is_reserved": 0, "lon": -77.04477833333333}, {"fusion_lat": 0.0, "name": "c201e922b224cfd7b8f40407512d1556", "is_disabled": 0, "rental_uris": {"android": "https://dc.lft.to/lastmile_qr_scan", "ios": "https://dc.lft.to/lastmile_qr_scan"}, "fusion_lon": 0.0, "lat": 38.89337283333333, "bike_id": "c201e922b224cfd7b8f40407512d1556", "type": "electric_scooter", "is_reserved": 0, "lon": -77.04673466666667}, {"fusion_lat": 0.0, "name": "b7cf84f0620e8f87ecd12c2a7fe8480c", "is_disabled": 0, "rental_uris": {"android": "https://dc.lft.to/lastmile_qr_scan", "ios": "https://dc.lft.to/lastmile_qr_scan"}, "fusion_lon": 0.0, "lat": 38.924685833333335, "bike_id": "b7cf84f0620e8f87ecd12c2a7fe8480c", "type": "electric_scooter", "is_reserved": 0, "lon": -77.04468983333334}, {"fusion_lat": 0.0, "name": "b1104dc16c0c3d14056e3ea69878bef5", "is_disabled": 0, "rental_uris": {"android": "https://dc.lft.to/lastmile_qr_scan", "ios": "https://dc.lft.to/lastmile_qr_scan"}, "fusion_lon": 0.0, "lat": 38.85408816666666, "bike_id": "b1104dc16c0c3d14056e3ea69878bef5", "type": "electric_bike", "is_reserved": 0, "lon": -77.1207185}, {"fusion_lat": 0.0, "name": "788dfb8905bdcd3843bfdf0480681d10", "is_disabled": 0, "rental_uris": {"android": "https://dc.lft.to/lastmile_qr_scan", "ios": "https://dc.lft.to/lastmile_qr_scan"}, "fusion_lon": 0.0, "lat": 38.919952, "bike_id": "788dfb8905bdcd3843bfdf0480681d10", "type": "electric_scooter", "is_reserved": 0, "lon": -77.07191683333333}, {"fusion_lat": 0.0, "name": "5e792764f12f3c443a891d7dab285b26", "is_disabled": 0, "rental_uris": {"android": "https://dc.lft.to/lastmile_qr_scan", "ios": "https://dc.lft.to/lastmile_qr_scan"}, "fusion_lon": 0.0, "lat": 38.98548783333333, "bike_id": "5e792764f12f3c443a891d7dab285b26", "type": "electric_bike", "is_reserved": 0, "lon": -77.0040235}, {"fusion_lat": 0.0, "name": "450137d18df8ba753bc8cc7f1075e139", "is_disabled": 0, "rental_uris": {"android": "https://dc.lft.to/lastmile_qr_scan", "ios": "https://dc.lft.to/lastmile_qr_scan"}, "fusion_lon": 0.0, "lat": 38.94292883333333, "bike_id": "450137d18df8ba753bc8cc7f1075e139", "type": "electric_scooter", "is_reserved": 0, "lon": -77.021696}, {"fusion_lat": 0.0, "name": "2eb2a768b2c2343d25f2b58d16606469", "is_disabled": 0, "rental_uris": {"android": "https://dc.lft.to/lastmile_qr_scan", "ios": "https://dc.lft.to/lastmile_qr_scan"}, "fusion_lon": 0.0, "lat": 38.8829855, "bike_id": "2eb2a768b2c2343d25f2b58d16606469", "type": "electric_scooter", "is_reserved": 0, "lon": -76.94853533333334}, {"fusion_lat": 0.0, "name": "906161c74bcbeee4398840ea83c92734", "is_disabled": 0, "rental_uris": {"android": "https://dc.lft.to/lastmile_qr_scan", "ios": "https://dc.lft.to/lastmile_qr_scan"}, "fusion_lon": 0.0, "lat": 38.924154333333334, "bike_id": "906161c74bcbeee4398840ea83c92734", "type": "electric_scooter", "is_reserved": 0, "lon": -76.9962495}, {"fusion_lat": 0.0, "name": "4e1e921d373091830e1ca211416cfbf7", "is_disabled": 0, "rental_uris": {"android": "https://dc.lft.to/lastmile_qr_scan", "ios": "https://dc.lft.to/lastmile_qr_scan"}, "fusion_lon": 0.0, "lat": 38.89843783333333, "bike_id": "4e1e921d373091830e1ca211416cfbf7", "type": "electric_scooter", "is_reserved": 0, "lon": -77.01339233333333}, {"fusion_lat": 0.0, "name": "93fcbaddbcea599bd5c9c17f3adf8e4e", "is_disabled": 0, "rental_uris": {"android": "https://dc.lft.to/lastmile_qr_scan", "ios": "https://dc.lft.to/lastmile_qr_scan"}, "fusion_lon": 0.0, "lat": 38.909464166666666, "bike_id": "93fcbaddbcea599bd5c9c17f3adf8e4e", "type": "electric_scooter", "is_reserved": 0, "lon": -77.044803}, {"fusion_lat": 0.0, "name": "9cb3a9ba54eb561983215d42b3c092fa", "is_disabled": 0, "rental_uris": {"android": "https://dc.lft.to/lastmile_qr_scan", "ios": "https://dc.lft.to/lastmile_qr_scan"}, "fusion_lon": 0.0, "lat": 38.8842965, "bike_id": "9cb3a9ba54eb561983215d42b3c092fa", "type": "electric_scooter", "is_reserved": 0, "lon": -76.95754033333333}, {"fusion_lat": 0.0, "name": "483a459c8e78bb8c5a94d6ff0c78cdc3", "is_disabled": 0, "rental_uris": {"android": "https://dc.lft.to/lastmile_qr_scan", "ios": "https://dc.lft.to/lastmile_qr_scan"}, "fusion_lon": 0.0, "lat": 38.91620566666667, "bike_id": "483a459c8e78bb8c5a94d6ff0c78cdc3", "type": "electric_scooter", "is_reserved": 0, "lon": -77.031982}, {"fusion_lat": 0.0, "name": "f3b5b3ab5d4afbe402adf53fa1bd546a", "is_disabled": 0, "rental_uris": {"android": "https://dc.lft.to/lastmile_qr_scan", "ios": "https://dc.lft.to/lastmile_qr_scan"}, "fusion_lon": 0.0, "lat": 38.92511, "bike_id": "f3b5b3ab5d4afbe402adf53fa1bd546a", "type": "electric_scooter", "is_reserved": 0, "lon": -77.02285983333333}, {"fusion_lat": 0.0, "name": "4d61378a1cad80d66b29af984c2a5c05", "is_disabled": 0, "rental_uris": {"android": "https://dc.lft.to/lastmile_qr_scan", "ios": "https://dc.lft.to/lastmile_qr_scan"}, "fusion_lon": 0.0, "lat": 38.883803, "bike_id": "4d61378a1cad80d66b29af984c2a5c05", "type": "electric_scooter", "is_reserved": 0, "lon": -77.04608333333333}, {"fusion_lat": 0.0, "name": "95b544542088e840f9803271dc0170dc", "is_disabled": 0, "rental_uris": {"android": "https://dc.lft.to/lastmile_qr_scan", "ios": "https://dc.lft.to/lastmile_qr_scan"}, "fusion_lon": 0.0, "lat": 38.93582583333333, "bike_id": "95b544542088e840f9803271dc0170dc", "type": "electric_scooter", "is_reserved": 0, "lon": -77.02842633333333}, {"fusion_lat": 0.0, "name": "c3dc7084f698f28572ba88b30d7e41d1", "is_disabled": 0, "rental_uris": {"android": "https://dc.lft.to/lastmile_qr_scan", "ios": "https://dc.lft.to/lastmile_qr_scan"}, "fusion_lon": 0.0, "lat": 38.95219133333333, "bike_id": "c3dc7084f698f28572ba88b30d7e41d1", "type": "electric_scooter", "is_reserved": 0, "lon": -77.08215266666667}, {"fusion_lat": 0.0, "name": "19aaa04dea0ce2244a25e8aae1a1202d", "is_disabled": 0, "rental_uris": {"android": "https://dc.lft.to/lastmile_qr_scan", "ios": "https://dc.lft.to/lastmile_qr_scan"}, "fusion_lon": 0.0, "lat": 38.920809166666665, "bike_id": "19aaa04dea0ce2244a25e8aae1a1202d", "type": "electric_scooter", "is_reserved": 0, "lon": -76.99444466666667}, {"fusion_lat": 0.0, "name": "282bff92a88f445cdf266108adaa30ec", "is_disabled": 0, "rental_uris": {"android": "https://dc.lft.to/lastmile_qr_scan", "ios": "https://dc.lft.to/lastmile_qr_scan"}, "fusion_lon": 0.0, "lat": 38.914665166666666, "bike_id": "282bff92a88f445cdf266108adaa30ec", "type": "electric_scooter", "is_reserved": 0, "lon": -77.032015}, {"fusion_lat": 0.0, "name": "1664101eb18ed9bbba83f411cf220ffa", "is_disabled": 0, "rental_uris": {"android": "https://dc.lft.to/lastmile_qr_scan", "ios": "https://dc.lft.to/lastmile_qr_scan"}, "fusion_lon": 0.0, "lat": 38.91414983333333, "bike_id": "1664101eb18ed9bbba83f411cf220ffa", "type": "electric_scooter", "is_reserved": 0, "lon": -77.03173783333334}, {"fusion_lat": 0.0, "name": "37afa91e30d1cb35262c93e20d0adcb6", "is_disabled": 0, "rental_uris": {"android": "https://dc.lft.to/lastmile_qr_scan", "ios": "https://dc.lft.to/lastmile_qr_scan"}, "fusion_lon": 0.0, "lat": 38.89223, "bike_id": "37afa91e30d1cb35262c93e20d0adcb6", "type": "electric_scooter", "is_reserved": 0, "lon": -77.04866716666666}, {"fusion_lat": 0.0, "name": "56b83ec180c42c2dd0191f936393c1ab", "is_disabled": 0, "rental_uris": {"android": "https://dc.lft.to/lastmile_qr_scan", "ios": "https://dc.lft.to/lastmile_qr_scan"}, "fusion_lon": 0.0, "lat": 38.916628833333334, "bike_id": "56b83ec180c42c2dd0191f936393c1ab", "type": "electric_scooter", "is_reserved": 0, "lon": -77.0281845}, {"fusion_lat": 0.0, "name": "0b5c8a585a7fc13e394d3cc16c8d1b93", "is_disabled": 0, "rental_uris": {"android": "https://dc.lft.to/lastmile_qr_scan", "ios": "https://dc.lft.to/lastmile_qr_scan"}, "fusion_lon": 0.0, "lat": 38.89614183333333, "bike_id": "0b5c8a585a7fc13e394d3cc16c8d1b93", "type": "electric_bike", "is_reserved": 0, "lon": -76.90735433333333}, {"fusion_lat": 0.0, "name": "48b35ab125afd97dd736251e7b2c6c9a", "is_disabled": 0, "rental_uris": {"android": "https://dc.lft.to/lastmile_qr_scan", "ios": "https://dc.lft.to/lastmile_qr_scan"}, "fusion_lon": 0.0, "lat": 38.92744783333333, "bike_id": "48b35ab125afd97dd736251e7b2c6c9a", "type": "electric_scooter", "is_reserved": 0, "lon": -77.02535033333334}, {"fusion_lat": 0.0, "name": "a0cf264343eef024a99d1bd0502bd055", "is_disabled": 0, "rental_uris": {"android": "https://dc.lft.to/lastmile_qr_scan", "ios": "https://dc.lft.to/lastmile_qr_scan"}, "fusion_lon": 0.0, "lat": 38.878805166666666, "bike_id": "a0cf264343eef024a99d1bd0502bd055", "type": "electric_scooter", "is_reserved": 0, "lon": -77.022306}, {"fusion_lat": 0.0, "name": "a5715b7df2b31abc897837625eb5c6bf", "is_disabled": 0, "rental_uris": {"android": "https://dc.lft.to/lastmile_qr_scan", "ios": "https://dc.lft.to/lastmile_qr_scan"}, "fusion_lon": 0.0, "lat": 38.9233875, "bike_id": "a5715b7df2b31abc897837625eb5c6bf", "type": "electric_scooter", "is_reserved": 0, "lon": -77.053}, {"fusion_lat": 0.0, "name": "cd11be78ccde41252ff1db0431779031", "is_disabled": 0, "rental_uris": {"android": "https://dc.lft.to/lastmile_qr_scan", "ios": "https://dc.lft.to/lastmile_qr_scan"}, "fusion_lon": 0.0, "lat": 38.88713283333333, "bike_id": "cd11be78ccde41252ff1db0431779031", "type": "electric_scooter", "is_reserved": 0, "lon": -77.01774283333333}, {"fusion_lat": 0.0, "name": "4a1bf3b790459369ca2d7af4f1839498", "is_disabled": 0, "rental_uris": {"android": "https://dc.lft.to/lastmile_qr_scan", "ios": "https://dc.lft.to/lastmile_qr_scan"}, "fusion_lon": 0.0, "lat": 38.8133805, "bike_id": "4a1bf3b790459369ca2d7af4f1839498", "type": "electric_bike", "is_reserved": 0, "lon": -77.05082316666666}, {"fusion_lat": 0.0, "name": "44bf24162195ae086f22933f7feb0cf4", "is_disabled": 0, "rental_uris": {"android": "https://dc.lft.to/lastmile_qr_scan", "ios": "https://dc.lft.to/lastmile_qr_scan"}, "fusion_lon": 0.0, "lat": 38.90386516666667, "bike_id": "44bf24162195ae086f22933f7feb0cf4", "type": "electric_scooter", "is_reserved": 0, "lon": -77.0670765}, {"fusion_lat": 0.0, "name": "3ab3260cfd996fbb936c94db48dc2354", "is_disabled": 0, "rental_uris": {"android": "https://dc.lft.to/lastmile_qr_scan", "ios": "https://dc.lft.to/lastmile_qr_scan"}, "fusion_lon": 0.0, "lat": 38.883824, "bike_id": "3ab3260cfd996fbb936c94db48dc2354", "type": "electric_scooter", "is_reserved": 0, "lon": -76.93052683333333}, {"fusion_lat": 0.0, "name": "129fa9acf828e68020577b5243b7a178", "is_disabled": 0, "rental_uris": {"android": "https://dc.lft.to/lastmile_qr_scan", "ios": "https://dc.lft.to/lastmile_qr_scan"}, "fusion_lon": 0.0, "lat": 38.90914933333333, "bike_id": "129fa9acf828e68020577b5243b7a178", "type": "electric_scooter", "is_reserved": 0, "lon": -77.04473}, {"fusion_lat": 0.0, "name": "6f400ad0613ed84a2f44f1f23f2b90ac", "is_disabled": 0, "rental_uris": {"android": "https://dc.lft.to/lastmile_qr_scan", "ios": "https://dc.lft.to/lastmile_qr_scan"}, "fusion_lon": 0.0, "lat": 38.920694166666664, "bike_id": "6f400ad0613ed84a2f44f1f23f2b90ac", "type": "electric_scooter", "is_reserved": 0, "lon": -77.0241925}, {"fusion_lat": 0.0, "name": "ad650ffa889d544f91d528ae7555ea16", "is_disabled": 0, "rental_uris": {"android": "https://dc.lft.to/lastmile_qr_scan", "ios": "https://dc.lft.to/lastmile_qr_scan"}, "fusion_lon": 0.0, "lat": 38.896513666666664, "bike_id": "ad650ffa889d544f91d528ae7555ea16", "type": "electric_scooter", "is_reserved": 0, "lon": -77.04999816666667}, {"fusion_lat": 0.0, "name": "0d321df9fca42b8772e6f592d5d237b8", "is_disabled": 0, "rental_uris": {"android": "https://dc.lft.to/lastmile_qr_scan", "ios": "https://dc.lft.to/lastmile_qr_scan"}, "fusion_lon": 0.0, "lat": 38.94934583333333, "bike_id": "0d321df9fca42b8772e6f592d5d237b8", "type": "electric_bike", "is_reserved": 0, "lon": -77.06644966666667}, {"fusion_lat": 0.0, "name": "0fa57173c7e73d2039c00f65694a2c9e", "is_disabled": 0, "rental_uris": {"android": "https://dc.lft.to/lastmile_qr_scan", "ios": "https://dc.lft.to/lastmile_qr_scan"}, "fusion_lon": 0.0, "lat": 38.958940166666665, "bike_id": "0fa57173c7e73d2039c00f65694a2c9e", "type": "electric_scooter", "is_reserved": 0, "lon": -77.027376}, {"fusion_lat": 0.0, "name": "f077590c5d7149af0640b037b5558775", "is_disabled": 0, "rental_uris": {"android": "https://dc.lft.to/lastmile_qr_scan", "ios": "https://dc.lft.to/lastmile_qr_scan"}, "fusion_lon": 0.0, "lat": 38.90746433333333, "bike_id": "f077590c5d7149af0640b037b5558775", "type": "electric_scooter", "is_reserved": 0, "lon": -76.99877816666667}, {"fusion_lat": 0.0, "name": "59bc7fba18bc8d56dffcf30909ba1628", "is_disabled": 0, "rental_uris": {"android": "https://dc.lft.to/lastmile_qr_scan", "ios": "https://dc.lft.to/lastmile_qr_scan"}, "fusion_lon": 0.0, "lat": 38.91924133333333, "bike_id": "59bc7fba18bc8d56dffcf30909ba1628", "type": "electric_scooter", "is_reserved": 0, "lon": -77.009813}, {"fusion_lat": 0.0, "name": "50872af66ca61dd34c64ccc2cb44c052", "is_disabled": 0, "rental_uris": {"android": "https://dc.lft.to/lastmile_qr_scan", "ios": "https://dc.lft.to/lastmile_qr_scan"}, "fusion_lon": 0.0, "lat": 38.88728033333334, "bike_id": "50872af66ca61dd34c64ccc2cb44c052", "type": "electric_scooter", "is_reserved": 0, "lon": -77.01765516666667},