{"data": {"bikes": [{"rental_uris": {"ios": "https://dc.lft.to/lastmile_qr_scan", "android": "https://dc.lft.to/lastmile_qr_scan"}, "fusion_lat": 0.0, "name": "25b3ba20d5860be71c243897a289b964", "bike_id": "25b3ba20d5860be71c243897a289b964", "is_disabled": 0, "type": "electric_scooter", "lat": 38.9068575, "lon": -77.027001, "is_reserved": 0, "fusion_lon": 0.0}, {"rental_uris": {"ios": "https://dc.lft.to/lastmile_qr_scan", "android": "https://dc.lft.to/lastmile_qr_scan"}, "fusion_lat": 0.0, "name": "005aab18a4219e6ca8ca26a902ba3f9d", "bike_id": "005aab18a4219e6ca8ca26a902ba3f9d", "is_disabled": 0, "type": "electric_bike", "lat": 38.86390083333333, "lon": -76.9899245, "is_reserved": 0, "fusion_lon": 0.0}, {"rental_uris": {"ios": "https://dc.lft.to/lastmile_qr_scan", "android": "https://dc.lft.to/lastmile_qr_scan"}, "fusion_lat": 0.0, "name": "7b43cf4d05c2ea87f799f4d5b3ef71e4", "bike_id": "7b43cf4d05c2ea87f799f4d5b3ef71e4", "is_disabled": 0, "type": "electric_scooter", "lat": 38.9542275, "lon": -77.0276635, "is_reserved": 0, "fusion_lon": 0.0}, {"rental_uris": {"ios": "https://dc.lft.to/lastmile_qr_scan", "android": "https://dc.lft.to/lastmile_qr_scan"}, "fusion_lat": 0.0, "name": "59c42e51ce9d941152000e6f95c316cc", "bike_id": "59c42e51ce9d941152000e6f95c316cc", "is_disabled": 0, "type": "electric_scooter", "lat": 38.88733233333333, "lon": -77.028259, "is_reserved": 0, "fusion_lon": 0.0}, {"rental_uris": {"ios": "https://dc.lft.to/lastmile_qr_scan", "android": "https://dc.lft.to/lastmile_qr_scan"}, "fusion_lat": 0.0, "name": "35f94a37bce13967479dd53cf856b6e6", "bike_id": "35f94a37bce13967479dd53cf856b6e6", "is_disabled": 0, "type": "electric_scooter", "lat": 38.931940833333336, "lon": -77.03312716666667, "is_reserved": 0, "fusion_lon": 0.0}, {"rental_uris": {"ios": "https://dc.lft.to/lastmile_qr_scan", "android": "https://dc.lft.to/lastmile_qr_scan"}, "fusion_lat": 0.0, "name": "c80aabf7dc37bd669a22cf3f956faf3e", "bike_id": "c80aabf7dc37bd669a22cf3f956faf3e", "is_disabled": 0, "type": "electric_bike", "lat": 38.96285066666667, "lon": -76.98299033333333, "is_reserved": 0, "fusion_lon": 0.0}, {"rental_uris": {"ios": "https://dc.lft.to/lastmile_qr_scan", "android": "https://dc.lft.to/lastmile_qr_scan"}, "fusion_lat": 0.0, "name": "8e030e65e23377eecdc48735f9462275", "bike_id": "8e030e65e23377eecdc48735f9462275", "is_disabled": 0, "type": "electric_scooter", "lat": 38.935534, "lon": -77.0222565, "is_reserved": 0, "fusion_lon": 0.0}, {"rental_uris": {"ios": "https://dc.lft.to/lastmile_qr_scan", "android": "https://dc.lft.to/lastmile_qr_scan"}, "fusion_lat": 0.0, "name": "294e81b110454c992e1fc3efca5cf918", "bike_id": "294e81b110454c992e1fc3efca5cf918", "is_disabled": 0, "type": "electric_scooter", "lat": 38.86957483333333, "lon": -76.96682866666667, "is_reserved": 0, "fusion_lon": 0.0}, {"rental_uris": {"ios": "https://dc.lft.to/lastmile_qr_scan", "android": "https://dc.lft.to/lastmile_qr_scan"}, "fusion_lat": 0.0, "name": "7303123cfb6301ffd713d5c1b2f3533d", "bike_id": "7303123cfb6301ffd713d5c1b2f3533d", "is_disabled": 0, "type": "electric_scooter", "lat": 38.88431683333334, "lon": -76.957587, "is_reserved": 0, "fusion_lon": 0.0}, {"rental_uris": {"ios": "https://dc.lft.to/lastmile_qr_scan", "android": "https://dc.lft.to/lastmile_qr_scan"}, "fusion_lat": 0.0, "name": "d9534b97dad3a333cc92640f6ac475b3", "bike_id": "d9534b97dad3a333cc92640f6ac475b3", "is_disabled": 0, "type": "electric_scooter", "lat": 38.887621833333334, "lon": -76.9554585, "is_reserved": 0, "fusion_lon": 0.0}, {"rental_uris": {"ios": "https://dc.lft.to/lastmile_qr_scan", "android": "https://dc.lft.to/lastmile_qr_scan"}, "fusion_lat": 0.0, "name": "f115d4e9c2d56464203f77401769cfab", "bike_id": "f115d4e9c2d56464203f77401769cfab", "is_disabled": 0, "type": "electric_bike", "lat": 38.92900316666667, "lon": -77.1060165, "is_reserved": 0, "fusion_lon": 0.0}, {"rental_uris": {"ios": "https://dc.lft.to/lastmile_qr_scan", "android": "https://dc.lft.to/lastmile_qr_scan"}, "fusion_lat": 0.0, "name": "aefbaf460e9b92f1708a7b70d5e4430b", "bike_id": "aefbaf460e9b92f1708a7b70d5e4430b", "is_disabled": 0, "type": "electric_scooter", "lat": 38.917102166666666, "lon": -77.0114075, "is_reserved": 0, "fusion_lon": 0.0}, {"rental_uris": {"ios": "https://dc.lft.to/lastmile_qr_scan", "android": "https://dc.lft.to/lastmile_qr_scan"}, "fusion_lat": 0.0, "name": "a65450278677e46577c43eff2482e166", "bike_id": "a65450278677e46577c43eff2482e166", "is_disabled": 0, "type": "electric_scooter", "lat": 38.90599866666667, "lon": -77.03415666666666, "is_reserved": 0, "fusion_lon": 0.0}, {"rental_uris": {"ios": "https://dc.lft.to/lastmile_qr_scan", "android": "https://dc.lft.to/lastmile_qr_scan"}, "fusion_lat": 0.0, "name": "dd992af264bb086377b4e6b2f81afa0c", "bike_id": "dd992af264bb086377b4e6b2f81afa0c", "is_disabled": 0, "type": "electric_scooter", "lat": 38.887472833333334, "lon": -77.0212765, "is_reserved": 0, "fusion_lon": 0.0}, {"rental_uris": {"ios": "https://dc.lft.to/lastmile_qr_scan", "android": "https://dc.lft.to/lastmile_qr_scan"}, "fusion_lat": 0.0, "name": "0a60282f8eb1bfc31933690e95046f37", "bike_id": "0a60282f8eb1bfc31933690e95046f37", "is_disabled": 0, "type": "electric_scooter", "lat": 38.923115, "lon": -77.04203166666667, "is_reserved": 0, "fusion_lon": 0.0}, {"rental_uris": {"ios": "https://dc.lft.to/lastmile_qr_scan", "android": "https://dc.lft.to/lastmile_qr_scan"}, "fusion_lat": 0.0, "name": "3c089928a748478c8c072efa3a582f93", "bike_id": "3c089928a748478c8c072efa3a582f93", "is_disabled": 0, "type": "electric_scooter", "lat": 38.92614483333333, "lon": -77.02162566666667, "is_reserved": 0, "fusion_lon": 0.0}, {"rental_uris": {"ios": "https://dc.lft.to/lastmile_qr_scan", "android": "https://dc.lft.to/lastmile_qr_scan"}, "fusion_lat": 0.0, "name": "c572eb94399d173cf37d85bddfc65433", "bike_id": "c572eb94399d173cf37d85bddfc65433", "is_disabled": 0, "type": "electric_scooter", "lat": 38.91164766666667, "lon": -77.0448075, "is_reserved": 0, "fusion_lon": 0.0}, {"rental_uris": {"ios": "https://dc.lft.to/lastmile_qr_scan", "android": "https://dc.lft.to/lastmile_qr_scan"}, "fusion_lat": 0.0, "name": "eea00f2fb21533852c4025200607d79d", "bike_id": "eea00f2fb21533852c4025200607d79d", "is_disabled": 0, "type": "electric_scooter", "lat": 38.92359166666667, "lon": -77.04036766666667, "is_reserved": 0, "fusion_lon": 0.0}, {"rental_uris": {"ios": "https://dc.lft.to/lastmile_qr_scan", "android": "https://dc.lft.to/lastmile_qr_scan"}, "fusion_lat": 0.0, "name": "101f2570f2beae2472ba54d1413ad0a9", "bike_id": "101f2570f2beae2472ba54d1413ad0a9", "is_disabled": 0, "type": "electric_scooter", "lat": 38.9030105, "lon": -77.01184083333334, "is_reserved": 0, "fusion_lon": 0.0}, {"rental_uris": {"ios": "https://dc.lft.to/lastmile_qr_scan", "android": "https://dc.lft.to/lastmile_qr_scan"}, "fusion_lat": 0.0, "name": "249fcb9c7239b6a93962e2277736f8ff", "bike_id": "249fcb9c7239b6a93962e2277736f8ff", "is_disabled": 0, "type": "electric_scooter", "lat": 38.84423983333333, "lon": -76.99778216666667, "is_reserved": 0, "fusion_lon": 0.0}, {"rental_uris": {"ios": "https://dc.lft.to/lastmile_qr_scan", "android": "https://dc.lft.to/lastmile_qr_scan"}, "fusion_lat": 0.0, "name": "cf5179ce8c3475e5ede774b9d6bb3ebd", "bike_id": "cf5179ce8c3475e5ede774b9d6bb3ebd", "is_disabled": 0, "type": "electric_scooter", "lat": 38.914093, "lon": -77.04049783333333, "is_reserved": 0, "fusion_lon": 0.0}, {"rental_uris": {"ios": "https://dc.lft.to/lastmile_qr_scan", "android": "https://dc.lft.to/lastmile_qr_scan"}, "fusion_lat": 0.0, "name": "55933b52206fa04dbf496de622a46ece", "bike_id": "55933b52206fa04dbf496de622a46ece", "is_disabled": 0, "type": "electric_scooter", "lat": 38.90952166666667, "lon": -77.03211866666666, "is_reserved": 0, "fusion_lon": 0.0}, {"rental_uris": {"ios": "https://dc.lft.to/lastmile_qr_scan", "android": "https://dc.lft.to/lastmile_qr_scan"}, "fusion_lat": 0.0, "name": "7875e0419e24c397725c7de0361c6e43", "bike_id": "7875e0419e24c397725c7de0361c6e43", "is_disabled": 0, "type": "electric_scooter", "lat": 38.906752166666664, "lon": -77.02718483333334, "is_reserved": 0, "fusion_lon": 0.0}, {"rental_uris": {"ios": "https://dc.lft.to/lastmile_qr_scan", "android": "https://dc.lft.to/lastmile_qr_scan"}, "fusion_lat": 0.0, "name": "9ca4adb80276773637e2c6efe6f33601", "bike_id": "9ca4adb80276773637e2c6efe6f33601", "is_disabled": 0, "type": "electric_scooter", "lat": 38.93089616666666, "lon": -77.034433, "is_reserved": 0, "fusion_lon": 0.0}, {"rental_uris": {"ios": "https://dc.lft.to/lastmile_qr_scan", "android": "https://dc.lft.to/lastmile_qr_scan"}, "fusion_lat": 0.0, "name": "be67359b37c20f16fa2eaeee7de3ab69", "bike_id": "be67359b37c20f16fa2eaeee7de3ab69", "is_disabled": 0, "type": "electric_scooter", "lat": 38.89013633333333, "lon": -76.937315, "is_reserved": 0, "fusion_lon": 0.0}, {"rental_uris": {"ios": "https://dc.lft.to/lastmile_qr_scan", "android": "https://dc.lft.to/lastmile_qr_scan"}, "fusion_lat": 0.0, "name": "92fd1f7a63f8c6be8797002ab6a1b286", "bike_id": "92fd1f7a63f8c6be8797002ab6a1b286", "is_disabled": 0, "type": "electric_scooter", "lat": 38.892261166666664, "lon": -77.0321865, "is_reserved": 0, "fusion_lon": 0.0}, {"rental_uris": {"ios": "https://dc.lft.to/lastmile_qr_scan", "android": "https://dc.lft.to/lastmile_qr_scan"}, "fusion_lat": 0.0, "name": "14aafdf47c7b1494f92f1d9cb6b95196", "bike_id": "14aafdf47c7b1494f92f1d9cb6b95196", "is_disabled": 0, "type": "electric_scooter", "lat": 38.9516755, "lon": -77.0275385, "is_reserved": 0, "fusion_lon": 0.0}, {"rental_uris": {"ios": "https://dc.lft.to/lastmile_qr_scan", "android": "https://dc.lft.to/lastmile_qr_scan"}, "fusion_lat": 0.0, "name": "13f9feb8628db850a42f7e239e6c51fb", "bike_id": "13f9feb8628db850a42f7e239e6c51fb", "is_disabled": 0, "type": "electric_scooter", "lat": 38.892206, "lon": -77.01375683333333, "is_reserved": 0, "fusion_lon": 0.0}, {"rental_uris": {"ios": "https://dc.lft.to/lastmile_qr_scan", "android": "https://dc.lft.to/lastmile_qr_scan"}, "fusion_lat": 0.0, "name": "6f62ee2d7b7e93545efcada9ad37e2d9", "bike_id": "6f62ee2d7b7e93545efcada9ad37e2d9", "is_disabled": 0, "type": "electric_scooter", "lat": 38.9419765, "lon": -77.02592066666666, "is_reserved": 0, "fusion_lon": 0.0}, {"rental_uris": {"ios": "https://dc.lft.to/lastmile_qr_scan", "android": "https://dc.lft.to/lastmile_qr_scan"}, "fusion_lat": 0.0, "name": "8b5de189bc3258338575ae1b6d351539", "bike_id": "8b5de189bc3258338575ae1b6d351539", "is_disabled": 0, "type": "electric_scooter", "lat": 38.87794616666667, "lon": -76.99411566666667, "is_reserved": 0, "fusion_lon": 0.0}, {"rental_uris": {"ios": "https://dc.lft.to/lastmile_qr_scan", "android": "https://dc.lft.to/lastmile_qr_scan"}, "fusion_lat": 0.0, "name": "9c415838889968ae8d9a08216bfcdc30", "bike_id": "9c415838889968ae8d9a08216bfcdc30", "is_disabled": 0, "type": "electric_bike", "lat": 38.859375666666665, "lon": -77.08615116666667, "is_reserved": 0, "fusion_lon": 0.0}, {"rental_uris": {"ios": "https://dc.lft.to/lastmile_qr_scan", "android": "https://dc.lft.to/lastmile_qr_scan"}, "fusion_lat": 0.0, "name": "49994163bbc775c5f68176ac788571e5", "bike_id": "49994163bbc775c5f68176ac788571e5", "is_disabled": 0, "type": "electric_scooter", "lat": 38.93302216666667, "lon": -77.03590183333333, "is_reserved": 0, "fusion_lon": 0.0}, {"rental_uris": {"ios": "https://dc.lft.to/lastmile_qr_scan", "android": "https://dc.lft.to/lastmile_qr_scan"}, "fusion_lat": 0.0, "name": "8f4707ea26d9858c850b193d4400909b", "bike_id": "8f4707ea26d9858c850b193d4400909b", "is_disabled": 0, "type": "electric_scooter", "lat": 38.90816566666667, "lon": -77.01842016666667, "is_reserved": 0, "fusion_lon": 0.0}, {"rental_uris": {"ios": "https://dc.lft.to/lastmile_qr_scan", "android": "https://dc.lft.to/lastmile_qr_scan"}, "fusion_lat": 0.0, "name": "ccd59e6fd160a55bd48d677a3378d4b7", "bike_id": "ccd59e6fd160a55bd48d677a3378d4b7", "is_disabled": 0, "type": "electric_bike", "lat": 39.038765, "lon": -77.0500875, "is_reserved": 0, "fusion_lon": 0.0}, {"rental_uris": {"ios": "https://dc.lft.to/lastmile_qr_scan", "android": "https://dc.lft.to/lastmile_qr_scan"}, "fusion_lat": 0.0, "name": "d21f794f98df83bd6f44aa0f98339814", "bike_id": "d21f794f98df83bd6f44aa0f98339814", "is_disabled": 0, "type": "electric_scooter", "lat": 38.91566183333333, "lon": -77.03146166666667, "is_reserved": 0, "fusion_lon": 0.0}, {"rental_uris": {"ios": "https://dc.lft.to/lastmile_qr_scan", "android": "https://dc.lft.to/lastmile_qr_scan"}, "fusion_lat": 0.0, "name": "2928129c759ccb432936bc355042d08f", "bike_id": "2928129c759ccb432936bc355042d08f", "is_disabled": 0, "type": "electric_scooter", "lat": 38.884874833333335, "lon": -77.021915, "is_reserved": 0, "fusion_lon": 0.0}, {"rental_uris": {"ios": "https://dc.lft.to/lastmile_qr_scan", "android": "https://dc.lft.to/lastmile_qr_scan"}, "fusion_lat": 0.0, "name": "8f969b4d0553b89b0bcd51f6a387d497", "bike_id": "8f969b4d0553b89b0bcd51f6a387d497", "is_disabled": 0, "type": "electric_bike", "lat": 38.92213616666667, "lon": -76.987978, "is_reserved": 0, "fusion_lon": 0.0}, {"rental_uris": {"ios": "https://dc.lft.to/lastmile_qr_scan", "android": "https://dc.lft.to/lastmile_qr_scan"}, "fusion_lat": 0.0, "name": "7dd4e1a5d12842356ba06181fbb8507f", "bike_id": "7dd4e1a5d12842356ba06181fbb8507f", "is_disabled": 0, "type": "electric_scooter", "lat": 38.916839, "lon": -77.0297475, "is_reserved": 0, "fusion_lon": 0.0}, {"rental_uris": {"ios": "https://dc.lft.to/lastmile_qr_scan", "android": "https://dc.lft.to/lastmile_qr_scan"}, "fusion_lat": 0.0, "name": "4222a34a6cb8a98da42e5f656fd5fb9b", "bike_id": "4222a34a6cb8a98da42e5f656fd5fb9b", "is_disabled": 0, "type": "electric_scooter", "lat": 38.94699766666667, "lon": -77.02167933333334, "is_reserved": 0, "fusion_lon": 0.0}, {"rental_uris": {"ios": "https://dc.lft.to/lastmile_qr_scan", "android": "https://dc.lft.to/lastmile_qr_scan"}, "fusion_lat": 0.0, "name": "d234b24dd63109119e24b369eef57dad", "bike_id": "d234b24dd63109119e24b369eef57dad", "is_disabled": 0, "type": "electric_scooter", "lat": 38.9593735, "lon": -77.031237, "is_reserved": 0, "fusion_lon": 0.0}, {"rental_uris": {"ios": "https://dc.lft.to/lastmile_qr_scan", "android": "https://dc.lft.to/lastmile_qr_scan"}, "fusion_lat": 0.0, "name": "c73dc3a16e05d88fd356d3cb0caa49e3", "bike_id": "c73dc3a16e05d88fd356d3cb0caa49e3", "is_disabled": 0, "type": "electric_scooter", "lat": 38.9248135, "lon": -77.031802, "is_reserved": 0, "fusion_lon": 0.0}, {"rental_uris": {"ios": "https://dc.lft.to/lastmile_qr_scan", "android": "https://dc.lft.to/lastmile_qr_scan"}, "fusion_lat": 0.0, "name": "2ca7fdbc992d4b8e25a8ccc3c8ad42d4", "bike_id": "2ca7fdbc992d4b8e25a8ccc3c8ad42d4", "is_disabled": 0, "type": "electric_scooter", "lat": 38.9166415, "lon": -77.02301483333333, "is_reserved": 0, "fusion_lon": 0.0}, {"rental_uris": {"ios": "https://dc.lft.to/lastmile_qr_scan", "android": "https://dc.lft.to/lastmile_qr_scan"}, "fusion_lat": 0.0, "name": "b100c0b419a778ec73e2206ea5e99e0f", "bike_id": "b100c0b419a778ec73e2206ea5e99e0f", "is_disabled": 0, "type": "electric_scooter", "lat": 38.892293, "lon": -77.05002466666667, "is_reserved": 0, "fusion_lon": 0.0}, {"rental_uris": {"ios": "https://dc.lft.to/lastmile_qr_scan", "android": "https://dc.lft.to/lastmile_qr_scan"}, "fusion_lat": 0.0, "name": "4e122bb6555964bc0382092000d06946", "bike_id": "4e122bb6555964bc0382092000d06946", "is_disabled": 0, "type": "electric_bike", "lat": 38.98274033333333, "lon": -77.01775166666667, "is_reserved": 0, "fusion_lon": 0.0}, {"rental_uris": {"ios": "https://dc.lft.to/lastmile_qr_scan", "android": "https://dc.lft.to/lastmile_qr_scan"}, "fusion_lat": 0.0, "name": "879baa1ec0d2c264a822eeecc60d80bd", "bike_id": "879baa1ec0d2c264a822eeecc60d80bd", "is_disabled": 0, "type": "electric_bike", "lat": 38.80575616666667, "lon": -77.068627, "is_reserved": 0, "fusion_lon": 0.0}, {"rental_uris": {"ios": "https://dc.lft.to/lastmile_qr_scan", "android": "https://dc.lft.to/lastmile_qr_scan"}, "fusion_lat": 0.0, "name": "d12ad3fe3b998fe75fdcdfed2315a1ad", "bike_id": "d12ad3fe3b998fe75fdcdfed2315a1ad", "is_disabled": 0, "type": "electric_scooter", "lat": 38.904359666666664, "lon": -77.0345315, "is_reserved": 0, "fusion_lon": 0.0}, {"rental_uris": {"ios": "https://dc.lft.to/lastmile_qr_scan", "android": "https://dc.lft.to/lastmile_qr_scan"}, "fusion_lat": 0.0, "name": "eb209d79d2f9495fb2870c4a9550aff1", "bike_id": "eb209d79d2f9495fb2870c4a9550aff1", "is_disabled": 0, "type": "electric_scooter", "lat": 38.9379245, "lon": -77.02451833333333, "is_reserved": 0, "fusion_lon": 0.0}, {"rental_uris": {"ios": "https://dc.lft.to/lastmile_qr_scan", "android": "https://dc.lft.to/lastmile_qr_scan"}, "fusion_lat": 0.0, "name": "784a1a8977ea3ef53d0173f936f36e62", "bike_id": "784a1a8977ea3ef53d0173f936f36e62", "is_disabled": 0, "type": "electric_scooter", "lat": 38.9150995, "lon": -77.02184816666667, "is_reserved": 0, "fusion_lon": 0.0}, {"rental_uris": {"ios": "https://dc.lft.to/lastmile_qr_scan", "android": "https://dc.lft.to/lastmile_qr_scan"}, "fusion_lat": 0.0, "name": "fbeddc70c5795a07b52af49316a76881", "bike_id": "fbeddc70c5795a07b52af49316a76881", "is_disabled": 0, "type": "electric_bike", "lat": 38.95878416666667, "lon": -77.0103575, "is_reserved": 0, "fusion_lon": 0.0}, {"rental_uris": {"ios": "https://dc.lft.to/lastmile_qr_scan", "android": "https://dc.lft.to/lastmile_qr_scan"}, "fusion_lat": 0.0, "name": "7cd4d1d1169d257dd91f1004408e143f", "bike_id": "7cd4d1d1169d257dd91f1004408e143f", "is_disabled": 0, "type": "electric_scooter", "lat": 38.909714, "lon": -77.032143, "is_reserved": 0, "fusion_lon": 0.0}, {"rental_uris": {"ios": "https://dc.lft.to/lastmile_qr_scan", "android": "https://dc.lft.to/lastmile_qr_scan"}, "fusion_lat": 0.0, "name": "c5342116ab4ecf178788a9ef4e045982", "bike_id": "c5342116ab4ecf178788a9ef4e045982", "is_disabled": 0, "type": "electric_scooter", "lat": 38.89300933333333, "lon": -77.02180066666666, "is_reserved": 0, "fusion_lon": 0.0}, {"rental_uris": {"ios": "https://dc.lft.to/lastmile_qr_scan", "android": "https://dc.lft.to/lastmile_qr_scan"}, "fusion_lat": 0.0, "name": "98137446818877976a0fb3981edf4cba", "bike_id": "98137446818877976a0fb3981edf4cba", "is_disabled": 0, "type": "electric_scooter", "lat": 38.89448616666667, "lon": -76.97810183333333, "is_reserved": 0, "fusion_lon": 0.0}, {"rental_uris": {"ios": "https://dc.lft.to/lastmile_qr_scan", "android": "https://dc.lft.to/lastmile_qr_scan"}, "fusion_lat": 0.0, "name": "011a56eceff1783256daa78168d5df71", "bike_id": "011a56eceff1783256daa78168d5df71", "is_disabled": 0, "type": "electric_bike", "lat": 38.9850715, "lon": -76.982109, "is_reserved": 0, "fusion_lon": 0.0}, {"rental_uris": {"ios": "https://dc.lft.to/lastmile_qr_scan", "android": "https://dc.lft.to/lastmile_qr_scan"}, "fusion_lat": 0.0, "name": "e450396d9aaf4d2d5663b3278a266ad1", "bike_id": "e450396d9aaf4d2d5663b3278a266ad1", "is_disabled": 0, "type": "electric_bike", "lat": 38.963157833333334, "lon": -77.03326733333333, "is_reserved": 0, "fusion_lon": 0.0}, {"rental_uris": {"ios": "https://dc.lft.to/lastmile_qr_scan", "android": "https://dc.lft.to/lastmile_qr_scan"}, "fusion_lat": 0.0, "name": "d326ce89b80a8e6461ef50b048787154", "bike_id": "d326ce89b80a8e6461ef50b048787154", "is_disabled": 0, "type": "electric_scooter", "lat": 38.961322333333335, "lon": -77.02787816666667, "is_reserved": 0, "fusion_lon": 0.0}, {"rental_uris": {"ios": "https://dc.lft.to/lastmile_qr_scan", "android": "https://dc.lft.to/lastmile_qr_scan"}, "fusion_lat": 0.0, "name": "9cafa103dff22a39ee659c259ddd33c5", "bike_id": "9cafa103dff22a39ee659c259ddd33c5", "is_disabled": 0, "type": "electric_scooter", "lat": 38.91708966666667, "lon": -77.025799, "is_reserved": 0, "fusion_lon": 0.0}, {"rental_uris": {"ios": "https://dc.lft.to/lastmile_qr_scan", "android": "https://dc.lft.to/lastmile_qr_scan"}, "fusion_lat": 0.0, "name": "f59dad67e6011621cef6011fe7e7d064", "bike_id": "f59dad67e6011621cef6011fe7e7d064", "is_disabled": 0, "type": "electric_scooter", "lat": 38.9169655, "lon": -77.03366133333333, "is_reserved": 0, "fusion_lon": 0.0}, {"rental_uris": {"ios": "https://dc.lft.to/lastmile_qr_scan", "android": "https://dc.lft.to/lastmile_qr_scan"}, "fusion_lat": 0.0, "name": "eaeb06fa5f92decd588fa0e2698f8ebb", "bike_id": "eaeb06fa5f92decd588fa0e2698f8ebb", "is_disabled": 0, "type": "electric_scooter", "lat": 38.95399366666667, "lon": -77.02793033333333, "is_reserved": 0, "fusion_lon": 0.0}, {"rental_uris": {"ios": "https://dc.lft.to/lastmile_qr_scan", "android": "https://dc.lft.to/lastmile_qr_scan"}, "fusion_lat": 0.0, "name": "277fd69304ad32591a96c56249c44c2d", "bike_id": "277fd69304ad32591a96c56249c44c2d", "is_disabled": 0, "type": "electric_scooter", "lat": 38.905431666666665, "lon": -77.0417145, "is_reserved": 0, "fusion_lon": 0.0}, {"rental_uris": {"ios": "https://dc.lft.to/lastmile_qr_scan", "android": "https://dc.lft.to/lastmile_qr_scan"}, "fusion_lat": 0.0, "name": "2e5213214fd870517446c73f137a89b7", "bike_id": "2e5213214fd870517446c73f137a89b7", "is_disabled": 0, "type": "electric_scooter", "lat": 38.9579245, "lon": -77.0274845, "is_reserved": 0, "fusion_lon": 0.0}, {"rental_uris": {"ios": "https://dc.lft.to/lastmile_qr_scan", "android": "https://dc.lft.to/lastmile_qr_scan"}, "fusion_lat": 0.0, "name": "6760fd1200b2d2d171cac61706baa65a", "bike_id": "6760fd1200b2d2d171cac61706baa65a", "is_disabled": 0, "type": "electric_scooter", "lat": 38.90538333333333, "lon": -77.0347755, "is_reserved": 0, "fusion_lon": 0.0}, {"rental_uris": {"ios": "https://dc.lft.to/lastmile_qr_scan", "android": "https://dc.lft.to/lastmile_qr_scan"}, "fusion_lat": 0.0, "name": "5d30044825f51107fb55d110406dcc3d", "bike_id": "5d30044825f51107fb55d110406dcc3d", "is_disabled": 0, "type": "electric_scooter", "lat": 38.915535166666665, "lon": -77.0221635, "is_reserved": 0, "fusion_lon": 0.0}, {"rental_uris": {"ios": "https://dc.lft.to/lastmile_qr_scan", "android": "https://dc.lft.to/lastmile_qr_scan"}, "fusion_lat": 0.0, "name": "3cc2d62e3b3513728129f4339b32d4d7", "bike_id": "3cc2d62e3b3513728129f4339b32d4d7", "is_disabled": 0, "type": "electric_scooter", "lat": 38.892216166666664, "lon": -77.04146033333333, "is_reserved": 0, "fusion_lon": 0.0}, {"rental_uris": {"ios": "https://dc.lft.to/lastmile_qr_scan", "android": "https://dc.lft.to/lastmile_qr_scan"}, "fusion_lat": 0.0, "name": "0f754f5ec2995a678bace89c493b0639", "bike_id": "0f754f5ec2995a678bace89c493b0639", "is_disabled": 0, "type": "electric_scooter", "lat": 38.899906, "lon": -77.0319355, "is_reserved": 0, "fusion_lon": 0.0}, {"rental_uris": {"ios": "https://dc.lft.to/lastmile_qr_scan", "android": "https://dc.lft.to/lastmile_qr_scan"}, "fusion_lat": 0.0, "name": "87adf2d4330b096306f9662984233be1", "bike_id": "87adf2d4330b096306f9662984233be1", "is_disabled": 0, "type": "electric_scooter", "lat": 38.892300166666665, "lon": -77.03210766666666, "is_reserved": 0, "fusion_lon": 0.0}, {"rental_uris": {"ios": "https://dc.lft.to/lastmile_qr_scan", "android": "https://dc.lft.to/lastmile_qr_scan"}, "fusion_lat": 0.0, "name": "82280fe3e844e8bebe5fffe726bbca5f", "bike_id": "82280fe3e844e8bebe5fffe726bbca5f", "is_disabled": 0, "type": "electric_scooter", "lat": 38.91753666666666, "lon": -77.02403166666667, "is_reserved": 0, "fusion_lon": 0.0}, {"rental_uris": {"ios": "https://dc.lft.to/lastmile_qr_scan", "android": "https://dc.lft.to/lastmile_qr_scan"}, "fusion_lat": 0.0, "name": "f0ad513e94020072663a6e7d528720eb", "bike_id": "f0ad513e94020072663a6e7d528720eb", "is_disabled": 0, "type": "electric_scooter", "lat": 38.898284, "lon": -76.98782183333333, "is_reserved": 0, "fusion_lon": 0.0}, {"rental_uris": {"ios": "https://dc.lft.to/lastmile_qr_scan", "android": "https://dc.lft.to/lastmile_qr_scan"}, "fusion_lat": 0.0, "name": "2d02f558d4eed62d09fc8bf5085529b8", "bike_id": "2d02f558d4eed62d09fc8bf5085529b8", "is_disabled": 0, "type": "electric_scooter", "lat": 38.92361016666667, "lon": -77.05131933333334, "is_reserved": 0, "fusion_lon": 0.0}, {"rental_uris": {"ios": "https://dc.lft.to/lastmile_qr_scan", "android": "https://dc.lft.to/lastmile_qr_scan"}, "fusion_lat": 0.0, "name": "0a7d60024fd89798bd2f349d933308e5", "bike_id": "0a7d60024fd89798bd2f349d933308e5", "is_disabled": 0, "type": "electric_scooter", "lat": 38.922041, "lon": -77.04255833333333, "is_reserved": 0, "fusion_lon": 0.0}, {"rental_uris": {"ios": "https://dc.lft.to/lastmile_qr_scan", "android": "https://dc.lft.to/lastmile_qr_scan"}, "fusion_lat": 0.0, "name": "eac65fbb353b6d8f3d9577610201884d", "bike_id": "eac65fbb353b6d8f3d9577610201884d", "is_disabled": 0, "type": "electric_scooter", "lat": 38.93273833333333, "lon": -77.03481816666667, "is_reserved": 0, "fusion_lon": 0.0}, {"rental_uris": {"ios": "https://dc.lft.to/lastmile_qr_scan", "android": "https://dc.lft.to/lastmile_qr_scan"}, "fusion_lat": 0.0, "name": "32147b8be979d09af405dd7851465cb2", "bike_id": "32147b8be979d09af405dd7851465cb2", "is_disabled": 0, "type": "electric_bike", "lat": 38.933573833333334, "lon": -77.0996455, "is_reserved": 0, "fusion_lon": 0.0}, {"rental_uris": {"ios": "https://dc.lft.to/lastmile_qr_scan", "android": "https://dc.lft.to/lastmile_qr_scan"}, "fusion_lat": 0.0, "name": "52cdb1c8b6837e3625042616b69dec73", "bike_id": "52cdb1c8b6837e3625042616b69dec73", "is_disabled": 0, "type": "electric_bike", "lat": 38.871125166666666, "lon": -76.92331583333333, "is_reserved": 0, "fusion_lon": 0.0}, {"rental_uris": {"ios": "https://dc.lft.to/lastmile_qr_scan", "android": "https://dc.lft.to/lastmile_qr_scan"}, "fusion_lat": 0.0, "name": "bce2104c0058a1110d991334037026fc", "bike_id": "bce2104c0058a1110d991334037026fc", "is_disabled": 0, "type": "electric_scooter", "lat": 38.9265135, "lon": -77.0413875, "is_reserved": 0, "fusion_lon": 0.0}, {"rental_uris": {"ios": "https://dc.lft.to/lastmile_qr_scan", "android": "https://dc.lft.to/lastmile_qr_scan"}, "fusion_lat": 0.0, "name": "43b195ff8dd27cf4ebd1f1cdc68a035a", "bike_id": "43b195ff8dd27cf4ebd1f1cdc68a035a", "is_disabled": 0, "type": "electric_scooter", "lat": 38.900043333333336, "lon": -77.04491116666667, "is_reserved": 0, "fusion_lon": 0.0}, {"rental_uris": {"ios": "https://dc.lft.to/lastmile_qr_scan", "android": "https://dc.lft.to/lastmile_qr_scan"}, "fusion_lat": 0.0, "name": "9a41fdb5fb9243baaf8e3768cf8457eb", "bike_id": "9a41fdb5fb9243baaf8e3768cf8457eb", "is_disabled": 0, "type": "electric_scooter", "lat": 38.893337, "lon": -77.012091, "is_reserved": 0, "fusion_lon": 0.0}, {"rental_uris": {"ios": "https://dc.lft.to/lastmile_qr_scan", "android": "https://dc.lft.to/lastmile_qr_scan"}, "fusion_lat": 0.0, "name": "9bbd7da5f02e77d70a4418b0f58e5168", "bike_id": "9bbd7da5f02e77d70a4418b0f58e5168", "is_disabled": 0, "type": "electric_scooter", "lat": 38.91845583333333, "lon": -77.03452283333333, "is_reserved": 0, "fusion_lon": 0.0}, {"rental_uris": {"ios": "https://dc.lft.to/lastmile_qr_scan", "android": "https://dc.lft.to/lastmile_qr_scan"}, "fusion_lat": 0.0, "name": "c5d0d4192ae3b96f7835fca8e50bd9b3", "bike_id": "c5d0d4192ae3b96f7835fca8e50bd9b3", "is_disabled": 0, "type": "electric_scooter", "lat": 38.872956333333335, "lon": -77.009891, "is_reserved": 0, "fusion_lon": 0.0}, {"rental_uris": {"ios": "https://dc.lft.to/lastmile_qr_scan", "android": "https://dc.lft.to/lastmile_qr_scan"}, "fusion_lat": 0.0, "name": "99fc1c36389b5bc709c726f7b691b9d7", "bike_id": "99fc1c36389b5bc709c726f7b691b9d7", "is_disabled": 0, "type": "electric_scooter", "lat": 38.948525, "lon": -77.0194355, "is_reserved": 0, "fusion_lon": 0.0}, {"rental_uris": {"ios": "https://dc.lft.to/lastmile_qr_scan", "android": "https://dc.lft.to/lastmile_qr_scan"}, "fusion_lat": 0.0, "name": "b13911436308fccffee1d5e74b623cd5", "bike_id": "b13911436308fccffee1d5e74b623cd5", "is_disabled": 0, "type": "electric_scooter", "lat": 38.91842166666667, "lon": -77.02439366666667, "is_reserved": 0, "fusion_lon": 0.0}, {"rental_uris": {"ios": "https://dc.lft.to/lastmile_qr_scan", "android": "https://dc.lft.to/lastmile_qr_scan"}, "fusion_lat": 0.0, "name": "114cf8701235bdc0e0cbb09db91a0fa4", "bike_id": "114cf8701235bdc0e0cbb09db91a0fa4", "is_disabled": 0, "type": "electric_scooter", "lat": 38.89885183333333, "lon": -77.03979066666666, "is_reserved": 0, "fusion_lon": 0.0}, {"rental_uris": {"ios": "https://dc.lft.to/lastmile_qr_scan", "android": "https://dc.lft.to/lastmile_qr_scan"}, "fusion_lat": 0.0, "name": "fb5b1edef26647337c3a1fdfe0e85181", "bike_id": "fb5b1edef26647337c3a1fdfe0e85181", "is_disabled": 0, "type": "electric_scooter", "lat": 38.92495066666667, "lon": -77.02161433333333, "is_reserved": 0, "fusion_lon": 0.0}, {"rental_uris": {"ios": "https://dc.lft.to/lastmile_qr_scan", "android": "https://dc.lft.to/lastmile_qr_scan"}, "fusion_lat": 0.0, "name": "67c4f98f787364d7a28eabd3329ed3e5", "bike_id": "67c4f98f787364d7a28eabd3329ed3e5", "is_disabled": 0, "type": "electric_bike", "lat": 38.994347, "lon": -77.03132783333334, "is_reserved": 0, "fusion_lon": 0.0}, {"rental_uris": {"ios": "https://dc.lft.to/lastmile_qr_scan", "android": "https://dc.lft.to/lastmile_qr_scan"}, "fusion_lat": 0.0, "name": "fb2e37f7cc9c077c6bab2385303f278a", "bike_id": "fb2e37f7cc9c077c6bab2385303f278a", "is_disabled": 0, "type": "electric_bike", "lat": 38.9196485, "lon": -76.9726565, "is_reserved": 0, "fusion_lon": 0.0}, {"rental_uris": {"ios": "https://dc.lft.to/lastmile_qr_scan", "android": "https://dc.lft.to/lastmile_qr_scan"}, "fusion_lat": 0.0, "name": "de4a7eb1070d323f74ef3dfa8b0308cf", "bike_id": "de4a7eb1070d323f74ef3dfa8b0308cf", "is_disabled": 0, "type": "electric_scooter", "lat": 38.903121, "lon": -77.036472, "is_reserved": 0, "fusion_lon": 0.0}, {"rental_uris": {"ios": "https://dc.lft.to/lastmile_qr_scan", "android": "https://dc.lft.to/lastmile_qr_scan"}, "fusion_lat": 0.0, "name": "6ca4db23df5e4823449381bcc383bf29", "bike_id": "6ca4db23df5e4823449381bcc383bf29", "is_disabled": 0, "type": "electric_bike", "lat": 38.93014, "lon": -77.21649816666667, "is_reserved": 0, "fusion_lon": 0.0}, {"rental_uris": {"ios": "https://dc.lft.to/lastmile_qr_scan", "android": "https://dc.lft.to/lastmile_qr_scan"}, "fusion_lat": 0.0, "name": "3f744051fecfb664d698214a823a2f42", "bike_id": "3f744051fecfb664d698214a823a2f42", "is_disabled": 0, "type": "electric_scooter", "lat": 38.92551483333333, "lon": -77.0007085, "is_reserved": 0, "fusion_lon": 0.0}, {"rental_uris": {"ios": "https://dc.lft.to/lastmile_qr_scan", "android": "https://dc.lft.to/lastmile_qr_scan"}, "fusion_lat": 0.0, "name": "572462056b6ef7500721474a5f3971fc", "bike_id": "572462056b6ef7500721474a5f3971fc", "is_disabled": 0, "type": "electric_scooter", "lat": 38.95708916666667, "lon": -77.01607466666667, "is_reserved": 0, "fusion_lon": 0.0}, {"rental_uris": {"ios": "https://dc.lft.to/lastmile_qr_scan", "android": "https://dc.lft.to/lastmile_qr_scan"}, "fusion_lat": 0.0, "name": "a35a98aad846c749e10e9edfeb4bd350", "bike_id": "a35a98aad846c749e10e9edfeb4bd350", "is_disabled": 0, "type": "electric_scooter", "lat": 38.899471166666665, "lon": -77.04137, "is_reserved": 0, "fusion_lon": 0.0}, {"rental_uris": {"ios": "https://dc.lft.to/lastmile_qr_scan", "android": "https://dc.lft.to/lastmile_qr_scan"}, "fusion_lat": 0.0, "name": "f895a2d50e910b2bae3830b9293cf54e", "bike_id": "f895a2d50e910b2bae3830b9293cf54e", "is_disabled": 0, "type": "electric_bike", "lat": 38.88402966666666, "lon": -76.96060483333333, "is_reserved": 0, "fusion_lon": 0.0}, {"rental_uris": {"ios": "https://dc.lft.to/lastmile_qr_scan", "android": "https://dc.lft.to/lastmile_qr_scan"}, "fusion_lat": 0.0, "name": "f49d4fc3f701218a4a984512d11b2335", "bike_id": "f49d4fc3f701218a4a984512d11b2335", "is_disabled": 0, "type": "electric_bike", "lat": 38.95898316666667, "lon": -77.05880516666667, "is_reserved": 0, "fusion_lon": 0.0}, {"rental_uris": {"ios": "https://dc.lft.to/lastmile_qr_scan", "android": "https://dc.lft.to/lastmile_qr_scan"}, "fusion_lat": 0.0, "name": "5c2b09c1b9b5b7f9b1aefa22be167eb5", "bike_id": "5c2b09c1b9b5b7f9b1aefa22be167eb5", "is_disabled": 0, "type": "electric_scooter", "lat": 38.948274166666664, "lon": -77.0261785, "is_reserved": 0, "fusion_lon": 0.0}, {"rental_uris": {"ios": "https://dc.lft.to/lastmile_qr_scan", "android": "https://dc.lft.to/lastmile_qr_scan"}, "fusion_lat": 0.0, "name": "be4c0efa2a609e2528ff03e076c5778d", "bike_id": "be4c0efa2a609e2528ff03e076c5778d", "is_disabled": 0, "type": "electric_bike", "lat": 38.93679066666667, "lon": -76.95203583333333, "is_reserved": 0, "fusion_lon": 0.0}, {"rental_uris": {"ios": "https://dc.lft.to/lastmile_qr_scan", "android": "https://dc.lft.to/lastmile_qr_scan"}, "fusion_lat": 0.0, "name": "a9f80744c65abadcde2ebb09bf75c0b4", "bike_id": "a9f80744c65abadcde2ebb09bf75c0b4", "is_disabled": 0, "type": "electric_scooter", "lat": 38.907096333333335, "lon": -77.029892, "is_reserved": 0, "fusion_lon": 0.0}, {"rental_uris": {"ios": "https://dc.lft.to/lastmile_qr_scan", "android": "https://dc.lft.to/lastmile_qr_scan"}, "fusion_lat": 0.0, "name": "9749fc89d7bdefebf488938ffec3b8af", "bike_id": "9749fc89d7bdefebf488938ffec3b8af", "is_disabled": 0, "type": "electric_scooter", "lat": 38.90410133333334, "lon": -76.97329183333333, "is_reserved": 0, "fusion_lon": 0.0}, {"rental_uris": {"ios": "https://dc.lft.to/lastmile_qr_scan", "android": "https://dc.lft.to/lastmile_qr_scan"}, "fusion_lat": 0.0, "name": "c4d925fc1ba9262089044ba581b77cc6", "bike_id": "c4d925fc1ba9262089044ba581b77cc6", "is_disabled": 0, "type": "electric_scooter", "lat": 38.917457, "lon": -77.02404, "is_reserved": 0, "fusion_lon": 0.0}, {"rental_uris": {"ios": "https://dc.lft.to/lastmile_qr_scan", "android": "https://dc.lft.to/lastmile_qr_scan"}, "fusion_lat": 0.0, "name": "7cb52be57a25e5bbfd836c1c0dabeca2", "bike_id": "7cb52be57a25e5bbfd836c1c0dabeca2", "is_disabled": 0, "type": "electric_scooter", "lat": 38.903450666666664, "lon": -77.04677316666667, "is_reserved": 0, "fusion_lon": 0.0}, {"rental_uris": {"ios": "https://dc.lft.to/lastmile_qr_scan", "android": "https://dc.lft.to/lastmile_qr_scan"}, "fusion_lat": 0.0, "name": "6b94c1072160bcbb57719056dfecea1c", "bike_id": "6b94c1072160bcbb57719056dfecea1c", "is_disabled": 0, "type": "electric_scooter", "lat": 38.91566133333333, "lon": -77.03204566666666, "is_reserved": 0, "fusion_lon": 0.0}, {"rental_uris": {"ios": "https://dc.lft.to/lastmile_qr_scan", "android": "https://dc.lft.to/lastmile_qr_scan"}, "fusion_lat": 0.0, "name": "1839c42e9007863cb9da2f27752ad861", "bike_id": "1839c42e9007863cb9da2f27752ad861", "is_disabled": 0, "type": "electric_scooter", "lat": 38.89394866666667, "lon": -77.05003016666667, "is_reserved": 0, "fusion_lon": 0.0}, {"rental_uris": {"ios": "https://dc.lft.to/lastmile_qr_scan", "android": "https://dc.lft.to/lastmile_qr_scan"}, "fusion_lat": 0.0, "name": "323ac6ed4802a2696686ad1d32c00ac6", "bike_id": "323ac6ed4802a2696686ad1d32c00ac6", "is_disabled": 0, "type": "electric_scooter", "lat": 38.902664, "lon": -77.06319933333333, "is_reserved": 0, "fusion_lon": 0.0}, {"rental_uris": {"ios": "https://dc.lft.to/lastmile_qr_scan", "android": "https://dc.lft.to/lastmile_qr_scan"}, "fusion_lat": 0.0, "name": "0ce4613b0299ce026a4097780c304f02", "bike_id": "0ce4613b0299ce026a4097780c304f02", "is_disabled": 0, "type": "electric_scooter", "lat": 38.916801166666666, "lon": -77.02977916666667, "is_reserved": 0, "fusion_lon": 0.0}, {"rental_uris": {"ios": "https://dc.lft.to/lastmile_qr_scan", "android": "https://dc.lft.to/lastmile_qr_scan"}, "fusion_lat": 0.0, "name": "ed0bf8d67b640c8d3b1749239b212c50", "bike_id": "ed0bf8d67b640c8d3b1749239b212c50", "is_disabled": 0, "type": "electric_scooter", "lat": 38.91108066666666, "lon": -77.03827333333334, "is_reserved": 0, "fusion_lon": 0.0}, {"rental_uris": {"ios": "https://dc.lft.to/lastmile_qr_scan", "android": "https://dc.lft.to/lastmile_qr_scan"}, "fusion_lat": 0.0, "name": "8307bd2d443ea2502ab258ca1abff165", "bike_id": "8307bd2d443ea2502ab258ca1abff165", "is_disabled": 0, "type": "electric_scooter", "lat": 38.916327833333334, "lon": -77.0108205, "is_reserved": 0, "fusion_lon": 0.0}, {"rental_uris": {"ios": "https://dc.lft.to/lastmile_qr_scan", "android": "https://dc.lft.to/lastmile_qr_scan"}, "fusion_lat": 0.0, "name": "12030b1425335c27837eef43230c0f90", "bike_id": "12030b1425335c27837eef43230c0f90", "is_disabled": 0, "type": "electric_scooter", "lat": 38.921452, "lon": -77.07300633333334, "is_reserved": 0, "fusion_lon": 0.0}, {"rental_uris": {"ios": "https://dc.lft.to/lastmile_qr_scan", "android": "https://dc.lft.to/lastmile_qr_scan"}, "fusion_lat": 0.0, "name": "3418af746fdf92360a3eb7d10c48f8ad", "bike_id": "3418af746fdf92360a3eb7d10c48f8ad", "is_disabled": 0, "type": "electric_bike", "lat": 39.030517333333336, "lon": -77.09488066666667, "is_reserved": 0, "fusion_lon": 0.0}, {"rental_uris": {"ios": "https://dc.lft.to/lastmile_qr_scan", "android": "https://dc.lft.to/lastmile_qr_scan"}, "fusion_lat": 0.0, "name": "5b49ce5c28ab4b9b19c7d9a7edd84edd", "bike_id": "5b49ce5c28ab4b9b19c7d9a7edd84edd", "is_disabled": 0, "type": "electric_scooter", "lat": 38.85445416666666, "lon": -76.97224816666667, "is_reserved": 0, "fusion_lon": 0.0}, {"rental_uris": {"ios": "https://dc.lft.to/lastmile_qr_scan", "android": "https://dc.lft.to/lastmile_qr_scan"}, "fusion_lat": 0.0, "name": "7ab2f4d09be242da9dbc71a3f9765303", "bike_id": "7ab2f4d09be242da9dbc71a3f9765303", "is_disabled": 0, "type": "electric_scooter", "lat": 38.87792066666667, "lon": -77.00122, "is_reserved": 0, "fusion_lon": 0.0}, {"rental_uris": {"ios": "https://dc.lft.to/lastmile_qr_scan", "android": "https://dc.lft.to/lastmile_qr_scan"}, "fusion_lat": 0.0, "name": "11a12da45b6f0874eb6f855f1b53cba9", "bike_id": "11a12da45b6f0874eb6f855f1b53cba9", "is_disabled": 0, "type": "electric_scooter", "lat": 38.905759833333335, "lon": -77.000609, "is_reserved": 0, "fusion_lon": 0.0}, {"rental_uris": {"ios": "https://dc.lft.to/lastmile_qr_scan", "android": "https://dc.lft.to/lastmile_qr_scan"}, "fusion_lat": 0.0, "name": "756295d161f8914f0be925f215e11fb4", "bike_id": "756295d161f8914f0be925f215e11fb4", "is_disabled": 0, "type": "electric_scooter", "lat": 38.913427, "lon": -77.04884116666666, "is_reserved": 0, "fusion_lon": 0.0}, {"rental_uris": {"ios": "https://dc.lft.to/lastmile_qr_scan", "android": "https://dc.lft.to/lastmile_qr_scan"}, "fusion_lat": 0.0, "name": "07b055c79140b130de16f27bff2502da", "bike_id": "07b055c79140b130de16f27bff2502da", "is_disabled": 0, "type": "electric_scooter", "lat": 38.884361, "lon": -77.0304585, "is_reserved": 0, "fusion_lon": 0.0}, {"rental_uris": {"ios": "https://dc.lft.to/lastmile_qr_scan", "android": "https://dc.lft.to/lastmile_qr_scan"}, "fusion_lat": 0.0, "name": "834745180a223a40836f2d667904dfcc", "bike_id": "834745180a223a40836f2d667904dfcc", "is_disabled": 0, "type": "electric_scooter", "lat": 38.875664, "lon": -77.02080933333333, "is_reserved": 0, "fusion_lon": 0.0}, {"rental_uris": {"ios": "https://dc.lft.to/lastmile_qr_scan", "android": "https://dc.lft.to/lastmile_qr_scan"}, "fusion_lat": 0.0, "name": "e02458a60b30f05863980d492e5d92fd", "bike_id": "e02458a60b30f05863980d492e5d92fd", "is_disabled": 0, "type": "electric_bike", "lat": 38.85029, "lon": -77.09804416666667, "is_reserved": 0, "fusion_lon": 0.0}, {"rental_uris": {"ios": "https://dc.lft.to/lastmile_qr_scan", "android": "https://dc.lft.to/lastmile_qr_scan"}, "fusion_lat": 0.0, "name": "99fa5ce799dd19805a19becd44145e34", "bike_id": "99fa5ce799dd19805a19becd44145e34", "is_disabled": 0, "type": "electric_scooter", "lat": 38.916376666666665, "lon": -77.03203116666667, "is_reserved": 0, "fusion_lon": 0.0}, {"rental_uris": {"ios": "https://dc.lft.to/lastmile_qr_scan", "android": "https://dc.lft.to/lastmile_qr_scan"}, "fusion_lat": 0.0, "name": "9278f0b4a689767f45fa35cb24c6dcf1", "bike_id": "9278f0b4a689767f45fa35cb24c6dcf1", "is_disabled": 0, "type": "electric_scooter", "lat": 38.880218, "lon": -77.002452, "is_reserved": 0, "fusion_lon": 0.0}, {"rental_uris": {"ios": "https://dc.lft.to/lastmile_qr_scan", "android": "https://dc.lft.to/lastmile_qr_scan"}, "fusion_lat": 0.0, "name": "5474a939748fb49dbefba24779d55250", "bike_id": "5474a939748fb49dbefba24779d55250", "is_disabled": 0, "type": "electric_scooter", "lat": 38.915594666666664, "lon": -77.02215816666667, "is_reserved": 0, "fusion_lon": 0.0}, {"rental_uris": {"ios": "https://dc.lft.to/lastmile_qr_scan", "android": "https://dc.lft.to/lastmile_qr_scan"}, "fusion_lat": 0.0, "name": "3872f4b032cd5f37594f86978dea7651", "bike_id": "3872f4b032cd5f37594f86978dea7651", "is_disabled": 0, "type": "electric_scooter", "lat": 38.897194, "lon": -77.0217575, "is_reserved": 0, "fusion_lon": 0.0}, {"rental_uris": {"ios": "https://dc.lft.to/lastmile_qr_scan", "android": "https://dc.lft.to/lastmile_qr_scan"}, "fusion_lat": 0.0, "name": "f55b804ec302b25d38065f4c716b1d99", "bike_id": "f55b804ec302b25d38065f4c716b1d99", "is_disabled": 0, "type": "electric_scooter", "lat": 38.885206, "lon": -76.928688, "is_reserved": 0, "fusion_lon": 0.0}, {"rental_uris": {"ios": "https://dc.lft.to/lastmile_qr_scan", "android": "https://dc.lft.to/lastmile_qr_scan"}, "fusion_lat": 0.0, "name": "0447cf92d8cbfee5428132bb98453d76", "bike_id": "0447cf92d8cbfee5428132bb98453d76", "is_disabled": 0, "type": "electric_scooter", "lat": 38.92631216666667, "lon": -77.03792933333334, "is_reserved": 0, "fusion_lon": 0.0}, {"rental_uris": {"ios": "https://dc.lft.to/lastmile_qr_scan", "android": "https://dc.lft.to/lastmile_qr_scan"}, "fusion_lat": 0.0, "name": "ef7bb30a688946799ce8f5ccd774cb5f", "bike_id": "ef7bb30a688946799ce8f5ccd774cb5f", "is_disabled": 0, "type": "electric_bike", "lat": 38.964419666666664, "lon": -77.02069183333333, "is_reserved": 0, "fusion_lon": 0.0}, {"rental_uris": {"ios": "https://dc.lft.to/lastmile_qr_scan", "android": "https://dc.lft.to/lastmile_qr_scan"}, "fusion_lat": 0.0, "name": "dcf0ee8709896f669105c8ae295de3ae", "bike_id": "dcf0ee8709896f669105c8ae295de3ae", "is_disabled": 0, "type": "electric_scooter", "lat": 38.91632516666667, "lon": -77.02306883333334, "is_reserved": 0, "fusion_lon": 0.0}, {"rental_uris": {"ios": "https://dc.lft.to/lastmile_qr_scan", "android": "https://dc.lft.to/lastmile_qr_scan"}, "fusion_lat": 0.0, "name": "c4bfd11f1ab87bf0204ebb301e02ea6d", "bike_id": "c4bfd11f1ab87bf0204ebb301e02ea6d", "is_disabled": 0, "type": "electric_scooter", "lat": 38.901386333333335, "lon": -77.0418685, "is_reserved": 0, "fusion_lon": 0.0}, {"rental_uris": {"ios": "https://dc.lft.to/lastmile_qr_scan", "android": "https://dc.lft.to/lastmile_qr_scan"}, "fusion_lat": 0.0, "name": "1191ba98bfc0ca510e08b9b0855c9762", "bike_id": "1191ba98bfc0ca510e08b9b0855c9762", "is_disabled": 0, "type": "electric_scooter", "lat": 38.92495616666667, "lon": -77.05225916666667, "is_reserved": 0, "fusion_lon": 0.0}, {"rental_uris": {"ios": "https://dc.lft.to/lastmile_qr_scan", "android": "https://dc.lft.to/lastmile_qr_scan"}, "fusion_lat": 0.0, "name": "ba328e0c79804ac3b299554ab6bfd9dc", "bike_id": "ba328e0c79804ac3b299554ab6bfd9dc", "is_disabled": 0, "type": "electric_scooter", "lat": 38.94529816666667, "lon": -76.97950916666667, "is_reserved": 0, "fusion_lon": 0.0}, {"rental_uris": {"ios": "https://dc.lft.to/lastmile_qr_scan", "android": "https://dc.lft.to/lastmile_qr_scan"}, "fusion_lat": 0.0, "name": "f56b5f34bf3466d10f5b1c6f982a9afa", "bike_id": "f56b5f34bf3466d10f5b1c6f982a9afa", "is_disabled": 0, "type": "electric_scooter", "lat": 38.930489, "lon": -77.01994733333333, "is_reserved": 0, "fusion_lon": 0.0}, {"rental_uris": {"ios": "https://dc.lft.to/lastmile_qr_scan", "android": "https://dc.lft.to/lastmile_qr_scan"}, "fusion_lat": 0.0, "name": "78c7c2c3abf8bc9f9a43080f98126e04", "bike_id": "78c7c2c3abf8bc9f9a43080f98126e04", "is_disabled": 0, "type": "electric_scooter", "lat": 38.9072755, "lon": -77.03945816666666, "is_reserved": 0, "fusion_lon": 0.0}, {"rental_uris": {"ios": "https://dc.lft.to/lastmile_qr_scan", "android": "https://dc.lft.to/lastmile_qr_scan"}, "fusion_lat": 0.0, "name": "76bc2631ebfb944b6008e5150c0dccd7", "bike_id": "76bc2631ebfb944b6008e5150c0dccd7", "is_disabled": 0, "type": "electric_scooter", "lat": 38.892205, "lon": -77.02221316666666, "is_reserved": 0, "fusion_lon": 0.0}, {"rental_uris": {"ios": "https://dc.lft.to/lastmile_qr_scan", "android": "https://dc.lft.to/lastmile_qr_scan"}, "fusion_lat": 0.0, "name": "01f611a44ec8f36e675a6872130ea8d5", "bike_id": "01f611a44ec8f36e675a6872130ea8d5", "is_disabled": 0, "type": "electric_scooter", "lat": 38.8718245, "lon": -77.006123, "is_reserved": 0, "fusion_lon": 0.0}, {"rental_uris": {"ios": "https://dc.lft.to/lastmile_qr_scan", "android": "https://dc.lft.to/lastmile_qr_scan"}, "fusion_lat": 0.0, "name": "856113d3a60b3312a5a9a598d4af9cbe", "bike_id": "856113d3a60b3312a5a9a598d4af9cbe", "is_disabled": 0, "type": "electric_scooter", "lat": 38.9171105, "lon": -77.04676783333333, "is_reserved": 0, "fusion_lon": 0.0}, {"rental_uris": {"ios": "https://dc.lft.to/lastmile_qr_scan", "android": "https://dc.lft.to/lastmile_qr_scan"}, "fusion_lat": 0.0, "name": "a25d764a0763e89de92b1b1d472162b9", "bike_id": "a25d764a0763e89de92b1b1d472162b9", "is_disabled": 0, "type": "electric_scooter", "lat": 38.90270183333333, "lon": -77.0438515, "is_reserved": 0, "fusion_lon": 0.0}, {"rental_uris": {"ios": "https://dc.lft.to/lastmile_qr_scan", "android": "https://dc.lft.to/lastmile_qr_scan"}, "fusion_lat": 0.0, "name": "1ee2366f075730c5d2cb0493592b53e1", "bike_id": "1ee2366f075730c5d2cb0493592b53e1", "is_disabled": 0, "type": "electric_scooter", "lat": 38.887142833333336, "lon": -77.01781433333333, "is_reserved": 0, "fusion_lon": 0.0}, {"rental_uris": {"ios": "https://dc.lft.to/lastmile_qr_scan", "android": "https://dc.lft.to/lastmile_qr_scan"}, "fusion_lat": 0.0, "name": "d2b5fc62daa641fb5e829535f2782537", "bike_id": "d2b5fc62daa641fb5e829535f2782537", "is_disabled": 0, "type": "electric_scooter", "lat": 38.895605833333335, "lon": -76.9338675, "is_reserved": 0, "fusion_lon": 0.0}, {"rental_uris": {"ios": "https://dc.lft.to/lastmile_qr_scan", "android": "https://dc.lft.to/lastmile_qr_scan"}, "fusion_lat": 0.0, "name": "70462cdb4e9a29ad3566c39279a0e597", "bike_id": "70462cdb4e9a29ad3566c39279a0e597", "is_disabled": 0, "type": "electric_scooter", "lat": 38.915580166666665, "lon": -77.0241975, "is_reserved": 0, "fusion_lon": 0.0}, {"rental_uris": {"ios": "https://dc.lft.to/lastmile_qr_scan", "android": "https://dc.lft.to/lastmile_qr_scan"}, "fusion_lat": 0.0, "name": "6f7250be21c1374c3b52a881d7050ea3", "bike_id": "6f7250be21c1374c3b52a881d7050ea3", "is_disabled": 0, "type": "electric_scooter", "lat": 38.892477166666666, "lon": -77.03340833333333, "is_reserved": 0, "fusion_lon": 0.0}, {"rental_uris": {"ios": "https://dc.lft.to/lastmile_qr_scan", "android": "https://dc.lft.to/lastmile_qr_scan"}, "fusion_lat": 0.0, "name": "f51d2b26b3cdbc3ea5aeecdcfbe39ec0", "bike_id": "f51d2b26b3cdbc3ea5aeecdcfbe39ec0", "is_disabled": 0, "type": "electric_scooter", "lat": 38.9097975, "lon": -77.04409366666667, "is_reserved": 0, "fusion_lon": 0.0}, {"rental_uris": {"ios": "https://dc.lft.to/lastmile_qr_scan", "android": "https://dc.lft.to/lastmile_qr_scan"}, "fusion_lat": 0.0, "name": "795712ce06ae7d0bf113b9e3202fdf0e", "bike_id": "795712ce06ae7d0bf113b9e3202fdf0e", "is_disabled": 0, "type": "electric_scooter", "lat": 38.924802166666666, "lon": -77.03499316666667, "is_reserved": 0, "fusion_lon": 0.0}, {"rental_uris": {"ios": "https://dc.lft.to/lastmile_qr_scan", "android": "https://dc.lft.to/lastmile_qr_scan"}, "fusion_lat": 0.0, "name": "ec88bd41577aa49e3450484bde19e522", "bike_id": "ec88bd41577aa49e3450484bde19e522", "is_disabled": 0, "type": "electric_scooter", "lat": 38.890183, "lon": -76.9373505, "is_reserved": 0, "fusion_lon": 0.0}, {"rental_uris": {"ios": "https://dc.lft.to/lastmile_qr_scan", "android": "https://dc.lft.to/lastmile_qr_scan"}, "fusion_lat": 0.0, "name": "1fff3f43c3da26f8b1f1584ec31c93cb", "bike_id": "1fff3f43c3da26f8b1f1584ec31c93cb", "is_disabled": 0, "type": "electric_scooter", "lat": 38.9142605, "lon": -77.03211666666667, "is_reserved": 0, "fusion_lon": 0.0}, {"rental_uris": {"ios": "https://dc.lft.to/lastmile_qr_scan", "android": "https://dc.lft.to/lastmile_qr_scan"}, "fusion_lat": 0.0, "name": "edd48bc1b274a09aa8f8dd78bce6ce9c", "bike_id": "edd48bc1b274a09aa8f8dd78bce6ce9c", "is_disabled": 0, "type": "electric_scooter", "lat": 38.9113485, "lon": -77.02203716666666, "is_reserved": 0, "fusion_lon": 0.0}, {"rental_uris": {"ios": "https://dc.lft.to/lastmile_qr_scan", "android": "https://dc.lft.to/lastmile_qr_scan"}, "fusion_lat": 0.0, "name": "5591ba9298d56afd2f8625ad67d2c358", "bike_id": "5591ba9298d56afd2f8625ad67d2c358", "is_disabled": 0, "type": "electric_scooter", "lat": 38.9111155, "lon": -77.0383155, "is_reserved": 0, "fusion_lon": 0.0}, {"rental_uris": {"ios": "https://dc.lft.to/lastmile_qr_scan", "android": "https://dc.lft.to/lastmile_qr_scan"}, "fusion_lat": 0.0, "name": "4134802d48803481a4a6f44b2148af07", "bike_id": "4134802d48803481a4a6f44b2148af07", "is_disabled": 0, "type": "electric_scooter", "lat": 38.887426166666664, "lon": -77.01535116666666, "is_reserved": 0, "fusion_lon": 0.0}, {"rental_uris": {"ios": "https://dc.lft.to/lastmile_qr_scan", "android": "https://dc.lft.to/lastmile_qr_scan"}, "fusion_lat": 0.0, "name": "a8e4908adc1e11e8cb59991cc469b3f1", "bike_id": "a8e4908adc1e11e8cb59991cc469b3f1", "is_disabled": 0, "type": "electric_scooter", "lat": 38.897911, "lon": -77.0318375, "is_reserved": 0, "fusion_lon": 0.0}, {"rental_uris": {"ios": "https://dc.lft.to/lastmile_qr_scan", "android": "https://dc.lft.to/lastmile_qr_scan"}, "fusion_lat": 0.0, "name": "6ecaa3918ab06e6065bab70365dea322", "bike_id": "6ecaa3918ab06e6065bab70365dea322", "is_disabled": 0, "type": "electric_scooter", "lat": 38.884018166666664, "lon": -77.01535166666666, "is_reserved": 0, "fusion_lon": 0.0}, {"rental_uris": {"ios": "https://dc.lft.to/lastmile_qr_scan", "android": "https://dc.lft.to/lastmile_qr_scan"}, "fusion_lat": 0.0, "name": "54323716366c7687ae81a7f3ef4bebac", "bike_id": "54323716366c7687ae81a7f3ef4bebac", "is_disabled": 0, "type": "electric_bike", "lat": 38.8699795, "lon": -77.065725, "is_reserved": 0, "fusion_lon": 0.0}, {"rental_uris": {"ios": "https://dc.lft.to/lastmile_qr_scan", "android": "https://dc.lft.to/lastmile_qr_scan"}, "fusion_lat": 0.0, "name": "68bf6609905d582377fd26ad54112791", "bike_id": "68bf6609905d582377fd26ad54112791", "is_disabled": 0, "type": "electric_scooter", "lat": 38.92580866666667, "lon": -77.03987966666666, "is_reserved": 0, "fusion_lon": 0.0}, {"rental_uris": {"ios": "https://dc.lft.to/lastmile_qr_scan", "android": "https://dc.lft.to/lastmile_qr_scan"}, "fusion_lat": 0.0, "name": "60c86276b9f01157d665ac0666f57128", "bike_id": "60c86276b9f01157d665ac0666f57128", "is_disabled": 0, "type": "electric_scooter", "lat": 38.921325833333334, "lon": -77.0365705, "is_reserved": 0, "fusion_lon": 0.0}, {"rental_uris": {"ios": "https://dc.lft.to/lastmile_qr_scan", "android": "https://dc.lft.to/lastmile_qr_scan"}, "fusion_lat": 0.0, "name": "d7004eb0e5588159316e74150cc112cd", "bike_id": "d7004eb0e5588159316e74150cc112cd", "is_disabled": 0, "type": "electric_scooter", "lat": 38.901560333333336, "lon": -77.0435965, "is_reserved": 0, "fusion_lon": 0.0}, {"rental_uris": {"ios": "https://dc.lft.to/lastmile_qr_scan", "android": "https://dc.lft.to/lastmile_qr_scan"}, "fusion_lat": 0.0, "name": "c44a9f184d11399f5c30a54a5372938b", "bike_id": "c44a9f184d11399f5c30a54a5372938b", "is_disabled": 0, "type": "electric_scooter", "lat": 38.9177625, "lon": -77.0364235, "is_reserved": 0, "fusion_lon": 0.0}, {"rental_uris": {"ios": "https://dc.lft.to/lastmile_qr_scan", "android": "https://dc.lft.to/lastmile_qr_scan"}, "fusion_lat": 0.0, "name": "983133a01515f4be40be6e5218e49ce2", "bike_id": "983133a01515f4be40be6e5218e49ce2", "is_disabled": 0, "type": "electric_scooter", "lat": 38.906158833333336, "lon": -77.00595066666666, "is_reserved": 0, "fusion_lon": 0.0}, {"rental_uris": {"ios": "https://dc.lft.to/lastmile_qr_scan", "android": "https://dc.lft.to/lastmile_qr_scan"}, "fusion_lat": 0.0, "name": "ef78277a065ff648186fbccfa4eb5ea0", "bike_id": "ef78277a065ff648186fbccfa4eb5ea0", "is_disabled": 0, "type": "electric_scooter", "lat": 38.921032, "lon": -77.043828, "is_reserved": 0, "fusion_lon": 0.0}, {"rental_uris": {"ios": "https://dc.lft.to/lastmile_qr_scan", "android": "https://dc.lft.to/lastmile_qr_scan"}, "fusion_lat": 0.0, "name": "48fc2d8ff2d5ec60be03390d78c5500e", "bike_id": "48fc2d8ff2d5ec60be03390d78c5500e", "is_disabled": 0, "type": "electric_scooter", "lat": 38.896156, "lon": -77.04471283333334, "is_reserved": 0, "fusion_lon": 0.0}, {"rental_uris": {"ios": "https://dc.lft.to/lastmile_qr_scan", "android": "https://dc.lft.to/lastmile_qr_scan"}, "fusion_lat": 0.0, "name": "297f87011fc2f4dd9908baa6f05f0dbd", "bike_id": "297f87011fc2f4dd9908baa6f05f0dbd", "is_disabled": 0, "type": "electric_bike", "lat": 38.945459666666665, "lon": -76.89537183333333, "is_reserved": 0, "fusion_lon": 0.0}, {"rental_uris": {"ios": "https://dc.lft.to/lastmile_qr_scan", "android": "https://dc.lft.to/lastmile_qr_scan"}, "fusion_lat": 0.0, "name": "33f87bf1fe259c2d049b3c1e684d609b", "bike_id": "33f87bf1fe259c2d049b3c1e684d609b", "is_disabled": 0, "type": "electric_scooter", "lat": 38.907345666666664, "lon": -77.02601216666666, "is_reserved": 0, "fusion_lon": 0.0}, {"rental_uris": {"ios": "https://dc.lft.to/lastmile_qr_scan", "android": "https://dc.lft.to/lastmile_qr_scan"}, "fusion_lat": 0.0, "name": "833d2f3e35945de3aa0fe779062f748b", "bike_id": "833d2f3e35945de3aa0fe779062f748b", "is_disabled": 0, "type": "electric_scooter", "lat": 38.93240816666667, "lon": -77.029833, "is_reserved": 0, "fusion_lon": 0.0}, {"rental_uris": {"ios": "https://dc.lft.to/lastmile_qr_scan", "android": "https://dc.lft.to/lastmile_qr_scan"}, "fusion_lat": 0.0, "name": "048fad87bfa3bf62a3f0cbec01127000", "bike_id": "048fad87bfa3bf62a3f0cbec01127000", "is_disabled": 0, "type": "electric_scooter", "lat": 38.865083, "lon": -76.989791, "is_reserved": 0, "fusion_lon": 0.0}, {"rental_uris": {"ios": "https://dc.lft.to/lastmile_qr_scan", "android": "https://dc.lft.to/lastmile_qr_scan"}, "fusion_lat": 0.0, "name": "971b0e85d73a6f8c0bc0ea64253d0fd3", "bike_id": "971b0e85d73a6f8c0bc0ea64253d0fd3", "is_disabled": 0, "type": "electric_scooter", "lat": 38.915739, "lon": -77.03204616666666, "is_reserved": 0, "fusion_lon": 0.0}, {"rental_uris": {"ios": "https://dc.lft.to/lastmile_qr_scan", "android": "https://dc.lft.to/lastmile_qr_scan"}, "fusion_lat": 0.0, "name": "e994b74ad36981422ac6a7500595c26c", "bike_id": "e994b74ad36981422ac6a7500595c26c", "is_disabled": 0, "type": "electric_scooter", "lat": 38.900243333333336, "lon": -77.04864183333333, "is_reserved": 0, "fusion_lon": 0.0}, {"rental_uris": {"ios": "https://dc.lft.to/lastmile_qr_scan", "android": "https://dc.lft.to/lastmile_qr_scan"}, "fusion_lat": 0.0, "name": "7299b7526650e1ec69c5e41b1ca6a046", "bike_id": "7299b7526650e1ec69c5e41b1ca6a046", "is_disabled": 0, "type": "electric_scooter", "lat": 38.911206, "lon": -77.04462883333333, "is_reserved": 0, "fusion_lon": 0.0}, {"rental_uris": {"ios": "https://dc.lft.to/lastmile_qr_scan", "android": "https://dc.lft.to/lastmile_qr_scan"}, "fusion_lat": 0.0, "name": "731e7c6199af3308d66586dfe25d94a1", "bike_id": "731e7c6199af3308d66586dfe25d94a1", "is_disabled": 0, "type": "electric_scooter", "lat": 38.851956333333334, "lon": -76.97633466666667, "is_reserved": 0, "fusion_lon": 0.0}, {"rental_uris": {"ios": "https://dc.lft.to/lastmile_qr_scan", "android": "https://dc.lft.to/lastmile_qr_scan"}, "fusion_lat": 0.0, "name": "1438878132e6edb49d0fbd3bd92f0cbf", "bike_id": "1438878132e6edb49d0fbd3bd92f0cbf", "is_disabled": 0, "type": "electric_scooter", "lat": 38.902739, "lon": -77.03353716666666, "is_reserved": 0, "fusion_lon": 0.0}, {"rental_uris": {"ios": "https://dc.lft.to/lastmile_qr_scan", "android": "https://dc.lft.to/lastmile_qr_scan"}, "fusion_lat": 0.0, "name": "54af0d3fb6b30d4e1127d4cb63e186e1", "bike_id": "54af0d3fb6b30d4e1127d4cb63e186e1", "is_disabled": 0, "type": "electric_scooter", "lat": 38.920808666666666, "lon": -77.04358433333333, "is_reserved": 0, "fusion_lon": 0.0}, {"rental_uris": {"ios": "https://dc.lft.to/lastmile_qr_scan", "android": "https://dc.lft.to/lastmile_qr_scan"}, "fusion_lat": 0.0, "name": "6f3c0eaef8bb4b871ceb5c8f98e08891", "bike_id": "6f3c0eaef8bb4b871ceb5c8f98e08891", "is_disabled": 0, "type": "electric_scooter", "lat": 38.8997885, "lon": -77.03077, "is_reserved": 0, "fusion_lon": 0.0}, {"rental_uris": {"ios": "https://dc.lft.to/lastmile_qr_scan", "android": "https://dc.lft.to/lastmile_qr_scan"}, "fusion_lat": 0.0, "name": "86172c55a766c13e9226af52957662a4", "bike_id": "86172c55a766c13e9226af52957662a4", "is_disabled": 0, "type": "electric_scooter", "lat": 38.9036145, "lon": -77.03229133333333, "is_reserved": 0, "fusion_lon": 0.0}, {"rental_uris": {"ios": "https://dc.lft.to/lastmile_qr_scan", "android": "https://dc.lft.to/lastmile_qr_scan"}, "fusion_lat": 0.0, "name": "102bd4de11b22778cbc210e8b210f21a", "bike_id": "102bd4de11b22778cbc210e8b210f21a", "is_disabled": 0, "type": "electric_scooter", "lat": 38.88731166666667, "lon": -77.02842316666667, "is_reserved": 0, "fusion_lon": 0.0}, {"rental_uris": {"ios": "https://dc.lft.to/lastmile_qr_scan", "android": "https://dc.lft.to/lastmile_qr_scan"}, "fusion_lat": 0.0, "name": "75a18473369d18d569640583160380d9", "bike_id": "75a18473369d18d569640583160380d9", "is_disabled": 0, "type": "electric_scooter", "lat": 38.90959933333333, "lon": -77.03785333333333, "is_reserved": 0, "fusion_lon": 0.0}, {"rental_uris": {"ios": "https://dc.lft.to/lastmile_qr_scan", "android": "https://dc.lft.to/lastmile_qr_scan"}, "fusion_lat": 0.0, "name": "436ecacab334f5be4f43bfe3942917f4", "bike_id": "436ecacab334f5be4f43bfe3942917f4", "is_disabled": 0, "type": "electric_scooter", "lat": 38.902528, "lon": -77.02823316666667, "is_reserved": 0, "fusion_lon": 0.0}, {"rental_uris": {"ios": "https://dc.lft.to/lastmile_qr_scan", "android": "https://dc.lft.to/lastmile_qr_scan"}, "fusion_lat": 0.0, "name": "7f0450119bf9a5299b8619e3d441c764", "bike_id": "7f0450119bf9a5299b8619e3d441c764", "is_disabled": 0, "type": "electric_scooter", "lat": 38.886066166666666, "lon": -77.030702, "is_reserved": 0, "fusion_lon": 0.0}, {"rental_uris": {"ios": "https://dc.lft.to/lastmile_qr_scan", "android": "https://dc.lft.to/lastmile_qr_scan"}, "fusion_lat": 0.0, "name": "110db6a80e4d2c8e05aa28c59b2597a1", "bike_id": "110db6a80e4d2c8e05aa28c59b2597a1", "is_disabled": 0, "type": "electric_scooter", "lat": 38.893520333333335, "lon": -77.04139833333333, "is_reserved": 0, "fusion_lon": 0.0}, {"rental_uris": {"ios": "https://dc.lft.to/lastmile_qr_scan", "android": "https://dc.lft.to/lastmile_qr_scan"}, "fusion_lat": 0.0, "name": "5ddddc589f4bd8cd67e6fa6c406fbf0f", "bike_id": "5ddddc589f4bd8cd67e6fa6c406fbf0f", "is_disabled": 0, "type": "electric_scooter", "lat": 38.9056125, "lon": -77.00285866666667, "is_reserved": 0, "fusion_lon": 0.0}, {"rental_uris": {"ios": "https://dc.lft.to/lastmile_qr_scan", "android": "https://dc.lft.to/lastmile_qr_scan"}, "fusion_lat": 0.0, "name": "6804bf472748b31891e9f8e021950dee", "bike_id": "6804bf472748b31891e9f8e021950dee", "is_disabled": 0, "type": "electric_scooter", "lat": 38.956443, "lon": -77.0328675, "is_reserved": 0, "fusion_lon": 0.0}, {"rental_uris": {"ios": "https://dc.lft.to/lastmile_qr_scan", "android": "https://dc.lft.to/lastmile_qr_scan"}, "fusion_lat": 0.0, "name": "b6f3c09214148d9c5d5ca558dc595350", "bike_id": "b6f3c09214148d9c5d5ca558dc595350", "is_disabled": 0, "type": "electric_scooter", "lat": 38.9225975, "lon": -77.0347095, "is_reserved": 0, "fusion_lon": 0.0}, {"rental_uris": {"ios": "https://dc.lft.to/lastmile_qr_scan", "android": "https://dc.lft.to/lastmile_qr_scan"}, "fusion_lat": 0.0, "name": "f9b8458496aa7f0fc5538ffcdf68e58c", "bike_id": "f9b8458496aa7f0fc5538ffcdf68e58c", "is_disabled": 0, "type": "electric_bike", "lat": 38.85784116666667, "lon": -77.09963916666666, "is_reserved": 0, "fusion_lon": 0.0}, {"rental_uris": {"ios": "https://dc.lft.to/lastmile_qr_scan", "android": "https://dc.lft.to/lastmile_qr_scan"}, "fusion_lat": 0.0, "name": "37ae19727ebf8bcc1e64b27b7a03a6f0", "bike_id": "37ae19727ebf8bcc1e64b27b7a03a6f0", "is_disabled": 0, "type": "electric_scooter", "lat": 38.9235855, "lon": -77.050243, "is_reserved": 0, "fusion_lon": 0.0}, {"rental_uris": {"ios": "https://dc.lft.to/lastmile_qr_scan", "android": "https://dc.lft.to/lastmile_qr_scan"}, "fusion_lat": 0.0, "name": "2a70a921e56081f0d0cdfd5da79fac4b", "bike_id": "2a70a921e56081f0d0cdfd5da79fac4b", "is_disabled": 0, "type": "electric_scooter", "lat": 38.919092166666665, "lon": -77.0706295, "is_reserved": 0, "fusion_lon": 0.0}, {"rental_uris": {"ios": "https://dc.lft.to/lastmile_qr_scan", "android": "https://dc.lft.to/lastmile_qr_scan"}, "fusion_lat": 0.0, "name": "32eea551ced4ad71a155353ff27cad6d", "bike_id": "32eea551ced4ad71a155353ff27cad6d", "is_disabled": 0, "type": "electric_scooter", "lat": 38.9028295, "lon": -77.04164833333333, "is_reserved": 0, "fusion_lon": 0.0}, {"rental_uris": {"ios": "https://dc.lft.to/lastmile_qr_scan", "android": "https://dc.lft.to/lastmile_qr_scan"}, "fusion_lat": 0.0, "name": "10b4bf93106ff7c90ca6b875316bc0df", "bike_id": "10b4bf93106ff7c90ca6b875316bc0df", "is_disabled": 0, "type": "electric_scooter", "lat": 38.911243166666665, "lon": -77.0421115, "is_reserved": 0, "fusion_lon": 0.0}, {"rental_uris": {"ios": "https://dc.lft.to/lastmile_qr_scan", "android": "https://dc.lft.to/lastmile_qr_scan"}, "fusion_lat": 0.0, "name": "156854fc214ad1c15404011c9f4f1378", "bike_id": "156854fc214ad1c15404011c9f4f1378", "is_disabled": 0, "type": "electric_scooter", "lat": 38.928742166666666, "lon": -77.03288816666667, "is_reserved": 0, "fusion_lon": 0.0}, {"rental_uris": {"ios": "https://dc.lft.to/lastmile_qr_scan", "android": "https://dc.lft.to/lastmile_qr_scan"}, "fusion_lat": 0.0, "name": "bb5665ff33a36ad21ec60d2f24cb96c0", "bike_id": "bb5665ff33a36ad21ec60d2f24cb96c0", "is_disabled": 0, "type": "electric_scooter", "lat": 38.913606, "lon": -77.0336315, "is_reserved": 0, "fusion_lon": 0.0}, {"rental_uris": {"ios": "https://dc.lft.to/lastmile_qr_scan", "android": "https://dc.lft.to/lastmile_qr_scan"}, "fusion_lat": 0.0, "name": "a9e77ed19ef910fa0f644e1c5621b448", "bike_id": "a9e77ed19ef910fa0f644e1c5621b448", "is_disabled": 0, "type": "electric_scooter", "lat": 38.89952616666667, "lon": -77.02644016666666, "is_reserved": 0, "fusion_lon": 0.0}, {"rental_uris": {"ios": "https://dc.lft.to/lastmile_qr_scan", "android": "https://dc.lft.to/lastmile_qr_scan"}, "fusion_lat": 0.0, "name": "ebeb51f18a9cbf1af1642a170eb5cd45", "bike_id": "ebeb51f18a9cbf1af1642a170eb5cd45", "is_disabled": 0, "type": "electric_scooter", "lat": 38.94715, "lon": -77.03296766666666, "is_reserved": 0, "fusion_lon": 0.0}, {"rental_uris": {"ios": "https://dc.lft.to/lastmile_qr_scan", "android": "https://dc.lft.to/lastmile_qr_scan"}, "fusion_lat": 0.0, "name": "8d5cdfc7cc22d17be0abe093351601be", "bike_id": "8d5cdfc7cc22d17be0abe093351601be", "is_disabled": 0, "type": "electric_scooter", "lat": 38.90258466666667, "lon": -77.00997766666667, "is_reserved": 0, "fusion_lon": 0.0}, {"rental_uris": {"ios": "https://dc.lft.to/lastmile_qr_scan", "android": "https://dc.lft.to/lastmile_qr_scan"}, "fusion_lat": 0.0, "name": "f1f152582b33a4900221f7f8d0ceb2df", "bike_id": "f1f152582b33a4900221f7f8d0ceb2df", "is_disabled": 0, "type": "electric_scooter", "lat": 38.920653333333334, "lon": -77.0428785, "is_reserved": 0, "fusion_lon": 0.0}, {"rental_uris": {"ios": "https://dc.lft.to/lastmile_qr_scan", "android": "https://dc.lft.to/lastmile_qr_scan"}, "fusion_lat": 0.0, "name": "35602af15fd43c0700ffd0bf815d627e", "bike_id": "35602af15fd43c0700ffd0bf815d627e", "is_disabled": 0, "type": "electric_scooter", "lat": 38.87179616666667, "lon": -77.006114, "is_reserved": 0, "fusion_lon": 0.0}, {"rental_uris": {"ios": "https://dc.lft.to/lastmile_qr_scan", "android": "https://dc.lft.to/lastmile_qr_scan"}, "fusion_lat": 0.0, "name": "3563362960efd47ca7e0a1fb680d6d8a", "bike_id": "3563362960efd47ca7e0a1fb680d6d8a", "is_disabled": 0, "type": "electric_scooter", "lat": 38.8928755, "lon": -77.04187366666666, "is_reserved": 0, "fusion_lon": 0.0}, {"rental_uris": {"ios": "https://dc.lft.to/lastmile_qr_scan", "android": "https://dc.lft.to/lastmile_qr_scan"}, "fusion_lat": 0.0, "name": "57abc0e1d8cd28c2cf9d965c8469349a", "bike_id": "57abc0e1d8cd28c2cf9d965c8469349a", "is_disabled": 0, "type": "electric_scooter", "lat": 38.89224183333333, "lon": -76.9329725, "is_reserved": 0, "fusion_lon": 0.0}, {"rental_uris": {"ios": "https://dc.lft.to/lastmile_qr_scan", "android": "https://dc.lft.to/lastmile_qr_scan"}, "fusion_lat": 0.0, "name": "93a7e8a145a0ebab118145c35e131341", "bike_id": "93a7e8a145a0ebab118145c35e131341", "is_disabled": 0, "type": "electric_scooter", "lat": 38.90091533333333, "lon": -77.055979, "is_reserved": 0, "fusion_lon": 0.0}, {"rental_uris": {"ios": "https://dc.lft.to/lastmile_qr_scan", "android": "https://dc.lft.to/lastmile_qr_scan"}, "fusion_lat": 0.0, "name": "a6387e09d0969784974ede10294aa91d", "bike_id": "a6387e09d0969784974ede10294aa91d", "is_disabled": 0, "type": "electric_scooter", "lat": 38.89224016666667, "lon": -77.013746, "is_reserved": 0, "fusion_lon": 0.0}, {"rental_uris": {"ios": "https://dc.lft.to/lastmile_qr_scan", "android": "https://dc.lft.to/lastmile_qr_scan"}, "fusion_lat": 0.0, "name": "0729b77d4747ac5f58fa0edff0f56d77", "bike_id": "0729b77d4747ac5f58fa0edff0f56d77", "is_disabled": 0, "type": "electric_scooter", "lat": 38.922559666666665, "lon": -77.019534, "is_reserved": 0, "fusion_lon": 0.0}, {"rental_uris": {"ios": "https://dc.lft.to/lastmile_qr_scan", "android": "https://dc.lft.to/lastmile_qr_scan"}, "fusion_lat": 0.0, "name": "6fc84c96061f34f4f5db3907f7b3e63b", "bike_id": "6fc84c96061f34f4f5db3907f7b3e63b", "is_disabled": 0, "type": "electric_scooter", "lat": 38.896967, "lon": -77.05120966666667, "is_reserved": 0, "fusion_lon": 0.0}, {"rental_uris": {"ios": "https://dc.lft.to/lastmile_qr_scan", "android": "https://dc.lft.to/lastmile_qr_scan"}, "fusion_lat": 0.0, "name": "b7b561aafb27b318ffb8c2005b5d1e5e", "bike_id": "b7b561aafb27b318ffb8c2005b5d1e5e", "is_disabled": 0, "type": "electric_scooter", "lat": 38.88747016666667, "lon": -77.0221115, "is_reserved": 0, "fusion_lon": 0.0}, {"rental_uris": {"ios": "https://dc.lft.to/lastmile_qr_scan", "android": "https://dc.lft.to/lastmile_qr_scan"}, "fusion_lat": 0.0, "name": "edcb22e56f44ac7767b4106dc4383ae4", "bike_id": "edcb22e56f44ac7767b4106dc4383ae4", "is_disabled": 0, "type": "electric_scooter", "lat": 38.94184816666667, "lon": -77.02494183333333, "is_reserved": 0, "fusion_lon": 0.0}, {"rental_uris": {"ios": "https://dc.lft.to/lastmile_qr_scan", "android": "https://dc.lft.to/lastmile_qr_scan"}, "fusion_lat": 0.0, "name": "63665560a22bd1d607c3ec70a4866ea9", "bike_id": "63665560a22bd1d607c3ec70a4866ea9", "is_disabled": 0, "type": "electric_scooter", "lat": 38.89874016666667, "lon": -77.02204333333333, "is_reserved": 0, "fusion_lon": 0.0}, {"rental_uris": {"ios": "https://dc.lft.to/lastmile_qr_scan", "android": "https://dc.lft.to/lastmile_qr_scan"}, "fusion_lat": 0.0, "name": "eb6b9a4fd72875f4586e51906713de4d", "bike_id": "eb6b9a4fd72875f4586e51906713de4d", "is_disabled": 0, "type": "electric_scooter", "lat": 38.896709666666666, "lon": -77.0245565, "is_reserved": 0, "fusion_lon": 0.0}, {"rental_uris": {"ios": "https://dc.lft.to/lastmile_qr_scan", "android": "https://dc.lft.to/lastmile_qr_scan"}, "fusion_lat": 0.0, "name": "bdac99c40d5762b641f29deeeff64151", "bike_id": "bdac99c40d5762b641f29deeeff64151", "is_disabled": 0, "type": "electric_scooter", "lat": 38.907229666666666, "lon": -77.02889366666666, "is_reserved": 0, "fusion_lon": 0.0}, {"rental_uris": {"ios": "https://dc.lft.to/lastmile_qr_scan", "android": "https://dc.lft.to/lastmile_qr_scan"}, "fusion_lat": 0.0, "name": "5abb47b9b7634a1a3ac40b9edb4aeed8", "bike_id": "5abb47b9b7634a1a3ac40b9edb4aeed8", "is_disabled": 0, "type": "electric_scooter", "lat": 38.93738416666667, "lon": -77.03593733333334, "is_reserved": 0, "fusion_lon": 0.0}, {"rental_uris": {"ios": "https://dc.lft.to/lastmile_qr_scan", "android": "https://dc.lft.to/lastmile_qr_scan"}, "fusion_lat": 0.0, "name": "8e0ee3a6683197a90b447c1fa71379d0", "bike_id": "8e0ee3a6683197a90b447c1fa71379d0", "is_disabled": 0, "type": "electric_scooter", "lat": 38.9396765, "lon": -77.02160233333333, "is_reserved": 0, "fusion_lon": 0.0}, {"rental_uris": {"ios": "https://dc.lft.to/lastmile_qr_scan", "android": "https://dc.lft.to/lastmile_qr_scan"}, "fusion_lat": 0.0, "name": "2a001f2bb50deab60ffaab0a8d1a326d", "bike_id": "2a001f2bb50deab60ffaab0a8d1a326d", "is_disabled": 0, "type": "electric_scooter", "lat": 38.9108285, "lon": -77.02102666666667, "is_reserved": 0, "fusion_lon": 0.0}, {"rental_uris": {"ios": "https://dc.lft.to/lastmile_qr_scan", "android": "https://dc.lft.to/lastmile_qr_scan"}, "fusion_lat": 0.0, "name": "820f43ca1f3400a69454954dbfc57e07", "bike_id": "820f43ca1f3400a69454954dbfc57e07", "is_disabled": 0, "type": "electric_scooter", "lat": 38.9257455, "lon": -77.02855533333333, "is_reserved": 0, "fusion_lon": 0.0}, {"rental_uris": {"ios": "https://dc.lft.to/lastmile_qr_scan", "android": "https://dc.lft.to/lastmile_qr_scan"}, "fusion_lat": 0.0, "name": "f13b51bb3c57b31cc4a9e50e0fd41e38", "bike_id": "f13b51bb3c57b31cc4a9e50e0fd41e38", "is_disabled": 0, "type": "electric_scooter", "lat": 38.89223283333333, "lon": -77.03223333333334, "is_reserved": 0, "fusion_lon": 0.0}, {"rental_uris": {"ios": "https://dc.lft.to/lastmile_qr_scan", "android": "https://dc.lft.to/lastmile_qr_scan"}, "fusion_lat": 0.0, "name": "198296f64fed99dc8c39cd4d8540aa9c", "bike_id": "198296f64fed99dc8c39cd4d8540aa9c", "is_disabled": 0, "type": "electric_scooter", "lat": 38.897284, "lon": -77.04690883333333, "is_reserved": 0, "fusion_lon": 0.0}, {"rental_uris": {"ios": "https://dc.lft.to/lastmile_qr_scan", "android": "https://dc.lft.to/lastmile_qr_scan"}, "fusion_lat": 0.0, "name": "62a7e4060959a7248d1213141738a291", "bike_id": "62a7e4060959a7248d1213141738a291", "is_disabled": 0, "type": "electric_scooter", "lat": 38.917299, "lon": -77.04180016666666, "is_reserved": 0, "fusion_lon": 0.0}, {"rental_uris": {"ios": "https://dc.lft.to/lastmile_qr_scan", "android": "https://dc.lft.to/lastmile_qr_scan"}, "fusion_lat": 0.0, "name": "91b7f5c0c38ca6117bcbad2faf3113ee", "bike_id": "91b7f5c0c38ca6117bcbad2faf3113ee", "is_disabled": 0, "type": "electric_scooter", "lat": 38.90531083333333, "lon": -77.04748133333334, "is_reserved": 0, "fusion_lon": 0.0}, {"rental_uris": {"ios": "https://dc.lft.to/lastmile_qr_scan", "android": "https://dc.lft.to/lastmile_qr_scan"}, "fusion_lat": 0.0, "name": "591d91f633f68ccbab9bfe3ad1777462", "bike_id": "591d91f633f68ccbab9bfe3ad1777462", "is_disabled": 0, "type": "electric_scooter", "lat": 38.87904833333333, "lon": -76.99142283333333, "is_reserved": 0, "fusion_lon": 0.0}, {"rental_uris": {"ios": "https://dc.lft.to/lastmile_qr_scan", "android": "https://dc.lft.to/lastmile_qr_scan"}, "fusion_lat": 0.0, "name": "8430dabc1911181ab2b45935e56ba83c", "bike_id": "8430dabc1911181ab2b45935e56ba83c", "is_disabled": 0, "type": "electric_scooter", "lat": 38.86422683333333, "lon": -77.01342833333334, "is_reserved": 0, "fusion_lon": 0.0}, {"rental_uris": {"ios": "https://dc.lft.to/lastmile_qr_scan", "android": "https://dc.lft.to/lastmile_qr_scan"}, "fusion_lat": 0.0, "name": "2ea6645631df3c6862fb99722bd75760", "bike_id": "2ea6645631df3c6862fb99722bd75760", "is_disabled": 0, "type": "electric_scooter", "lat": 38.898439833333335, "lon": -76.94636466666667, "is_reserved": 0, "fusion_lon": 0.0}, {"rental_uris": {"ios": "https://dc.lft.to/lastmile_qr_scan", "android": "https://dc.lft.to/lastmile_qr_scan"}, "fusion_lat": 0.0, "name": "9d6c4d1a0d5ee38d4bc1601dd35ff205", "bike_id": "9d6c4d1a0d5ee38d4bc1601dd35ff205", "is_disabled": 0, "type": "electric_scooter", "lat": 38.91854383333333, "lon": -77.04597616666666, "is_reserved": 0, "fusion_lon": 0.0}, {"rental_uris": {"ios": "https://dc.lft.to/lastmile_qr_scan", "android": "https://dc.lft.to/lastmile_qr_scan"}, "fusion_lat": 0.0, "name": "e9ab4944e7ba4ae7da35c82ccc0a6b31", "bike_id": "e9ab4944e7ba4ae7da35c82ccc0a6b31", "is_disabled": 0, "type": "electric_scooter", "lat": 38.95792933333333, "lon": -77.027597, "is_reserved": 0, "fusion_lon": 0.0}, {"rental_uris": {"ios": "https://dc.lft.to/lastmile_qr_scan", "android": "https://dc.lft.to/lastmile_qr_scan"}, "fusion_lat": 0.0, "name": "8fe1ace93f7faead6647fdcd7588f6d1", "bike_id": "8fe1ace93f7faead6647fdcd7588f6d1", "is_disabled": 0, "type": "electric_scooter", "lat": 38.919257, "lon": -77.03179033333333, "is_reserved": 0, "fusion_lon": 0.0}, {"rental_uris": {"ios": "https://dc.lft.to/lastmile_qr_scan", "android": "https://dc.lft.to/lastmile_qr_scan"}, "fusion_lat": 0.0, "name": "c2ae9d7b66cf09aff3d7fda46b6b6512", "bike_id": "c2ae9d7b66cf09aff3d7fda46b6b6512", "is_disabled": 0, "type": "electric_scooter", "lat": 38.9245595, "lon": -77.05237233333334, "is_reserved": 0, "fusion_lon": 0.0}, {"rental_uris": {"ios": "https://dc.lft.to/lastmile_qr_scan", "android": "https://dc.lft.to/lastmile_qr_scan"}, "fusion_lat": 0.0, "name": "cf9d503d4ef3081dab48453bf4b66c85", "bike_id": "cf9d503d4ef3081dab48453bf4b66c85", "is_disabled": 0, "type": "electric_scooter", "lat": 38.88430066666667, "lon": -76.95757233333333, "is_reserved": 0, "fusion_lon": 0.0}, {"rental_uris": {"ios": "https://dc.lft.to/lastmile_qr_scan", "android": "https://dc.lft.to/lastmile_qr_scan"}, "fusion_lat": 0.0, "name": "dcffb5574a31e1a52b5b25110d988238", "bike_id": "dcffb5574a31e1a52b5b25110d988238", "is_disabled": 0, "type": "electric_scooter", "lat": 38.919878, "lon": -77.03263866666667, "is_reserved": 0, "fusion_lon": 0.0}, {"rental_uris": {"ios": "https://dc.lft.to/lastmile_qr_scan", "android": "https://dc.lft.to/lastmile_qr_scan"}, "fusion_lat": 0.0, "name": "bcc0614ac5f735d6945fab5e56567054", "bike_id": "bcc0614ac5f735d6945fab5e56567054", "is_disabled": 0, "type": "electric_scooter", "lat": 38.90481466666667, "lon": -77.04478166666667, "is_reserved": 0, "fusion_lon": 0.0}, {"rental_uris": {"ios": "https://dc.lft.to/lastmile_qr_scan", "android": "https://dc.lft.to/lastmile_qr_scan"}, "fusion_lat": 0.0, "name": "494df1e03d8e1ba8336cf271d14ba24b", "bike_id": "494df1e03d8e1ba8336cf271d14ba24b", "is_disabled": 0, "type": "electric_scooter", "lat": 38.892977, "lon": -77.02181633333333, "is_reserved": 0, "fusion_lon": 0.0}, {"rental_uris": {"ios": "https://dc.lft.to/lastmile_qr_scan", "android": "https://dc.lft.to/lastmile_qr_scan"}, "fusion_lat": 0.0, "name": "cc1b9502aeba206cbf0ceca75e107b77", "bike_id": "cc1b9502aeba206cbf0ceca75e107b77", "is_disabled": 0, "type": "electric_scooter", "lat": 38.905297166666664, "lon": -77.05935616666666, "is_reserved": 0, "fusion_lon": 0.0}, {"rental_uris": {"ios": "https://dc.lft.to/lastmile_qr_scan", "android": "https://dc.lft.to/lastmile_qr_scan"}, "fusion_lat": 0.0, "name": "ce9ff521fda96ca4a1c141e6d562da3d", "bike_id": "ce9ff521fda96ca4a1c141e6d562da3d", "is_disabled": 0, "type": "electric_scooter", "lat": 38.909763833333336, "lon": -77.03430216666666, "is_reserved": 0, "fusion_lon": 0.0}, {"rental_uris": {"ios": "https://dc.lft.to/lastmile_qr_scan", "android": "https://dc.lft.to/lastmile_qr_scan"}, "fusion_lat": 0.0, "name": "e1215c8ee91e5a94330e323d50486390", "bike_id": "e1215c8ee91e5a94330e323d50486390", "is_disabled": 0, "type": "electric_scooter", "lat": 38.900721, "lon": -77.04925166666666, "is_reserved": 0, "fusion_lon": 0.0}, {"rental_uris": {"ios": "https://dc.lft.to/lastmile_qr_scan", "android": "https://dc.lft.to/lastmile_qr_scan"}, "fusion_lat": 0.0, "name": "bd9a109e7a8c3316de556a8923c05bea", "bike_id": "bd9a109e7a8c3316de556a8923c05bea", "is_disabled": 0, "type": "electric_scooter", "lat": 38.90155133333333, "lon": -77.026082, "is_reserved": 0, "fusion_lon": 0.0}, {"rental_uris": {"ios": "https://dc.lft.to/lastmile_qr_scan", "android": "https://dc.lft.to/lastmile_qr_scan"}, "fusion_lat": 0.0, "name": "c68739dcdb30870ddcf3a637c95873a1", "bike_id": "c68739dcdb30870ddcf3a637c95873a1", "is_disabled": 0, "type": "electric_scooter", "lat": 38.90791083333333, "lon": -76.99728083333333, "is_reserved": 0, "fusion_lon": 0.0}, {"rental_uris": {"ios": "https://dc.lft.to/lastmile_qr_scan", "android": "https://dc.lft.to/lastmile_qr_scan"}, "fusion_lat": 0.0, "name": "b74e243cccecd73cff0c202eb14af729", "bike_id": "b74e243cccecd73cff0c202eb14af729", "is_disabled": 0, "type": "electric_scooter", "lat": 38.8922395, "lon": -77.0223225, "is_reserved": 0, "fusion_lon": 0.0}, {"rental_uris": {"ios": "https://dc.lft.to/lastmile_qr_scan", "android": "https://dc.lft.to/lastmile_qr_scan"}, "fusion_lat": 0.0, "name": "579ec7ea99b14e300687e4f02935b92e", "bike_id": "579ec7ea99b14e300687e4f02935b92e", "is_disabled": 0, "type": "electric_scooter", "lat": 38.911138, "lon": -77.03785566666667, "is_reserved": 0, "fusion_lon": 0.0}, {"rental_uris": {"ios": "https://dc.lft.to/lastmile_qr_scan", "android": "https://dc.lft.to/lastmile_qr_scan"}, "fusion_lat": 0.0, "name": "d78faf9a85b68661480906dcb51b1597", "bike_id": "d78faf9a85b68661480906dcb51b1597", "is_disabled": 0, "type": "electric_scooter", "lat": 38.88091583333333, "lon": -76.98397866666667, "is_reserved": 0, "fusion_lon": 0.0}, {"rental_uris": {"ios": "https://dc.lft.to/lastmile_qr_scan", "android": "https://dc.lft.to/lastmile_qr_scan"}, "fusion_lat": 0.0, "name": "fad77bca0d16b6abac0bc9f919eb4a8e", "bike_id": "fad77bca0d16b6abac0bc9f919eb4a8e", "is_disabled": 0, "type": "electric_scooter", "lat": 38.896842, "lon": -77.00501416666667, "is_reserved": 0, "fusion_lon": 0.0}, {"rental_uris": {"ios": "https://dc.lft.to/lastmile_qr_scan", "android": "https://dc.lft.to/lastmile_qr_scan"}, "fusion_lat": 0.0, "name": "6962934e6b5833450a7b82879969ec53", "bike_id": "6962934e6b5833450a7b82879969ec53", "is_disabled": 0, "type": "electric_scooter", "lat": 38.91766966666667, "lon": -77.03642266666667, "is_reserved": 0, "fusion_lon": 0.0}, {"rental_uris": {"ios": "https://dc.lft.to/lastmile_qr_scan", "android": "https://dc.lft.to/lastmile_qr_scan"}, "fusion_lat": 0.0, "name": "616e3a16bd2bb6f9d96bce13e399a8fe", "bike_id": "616e3a16bd2bb6f9d96bce13e399a8fe", "is_disabled": 0, "type": "electric_bike", "lat": 39.056311, "lon": -77.12528883333333, "is_reserved": 0, "fusion_lon": 0.0}, {"rental_uris": {"ios": "https://dc.lft.to/lastmile_qr_scan", "android": "https://dc.lft.to/lastmile_qr_scan"}, "fusion_lat": 0.0, "name": "80044d475978073a3318fe1e0a262846", "bike_id": "80044d475978073a3318fe1e0a262846", "is_disabled": 0, "type": "electric_scooter", "lat": 38.91876933333333, "lon": -77.031765, "is_reserved": 0, "fusion_lon": 0.0}, {"rental_uris": {"ios": "https://dc.lft.to/lastmile_qr_scan", "android": "https://dc.lft.to/lastmile_qr_scan"}, "fusion_lat": 0.0, "name": "e4c4c823c260fee75995603437de4979", "bike_id": "e4c4c823c260fee75995603437de4979", "is_disabled": 0, "type": "electric_scooter", "lat": 38.919504333333336, "lon": -77.04566933333334, "is_reserved": 0, "fusion_lon": 0.0}, {"rental_uris": {"ios": "https://dc.lft.to/lastmile_qr_scan", "android": "https://dc.lft.to/lastmile_qr_scan"}, "fusion_lat": 0.0, "name": "91c994d82786f6dbd3fcca0a1499c1c4", "bike_id": "91c994d82786f6dbd3fcca0a1499c1c4", "is_disabled": 0, "type": "electric_scooter", "lat": 38.887445166666666, "lon": -77.01530816666667, "is_reserved": 0, "fusion_lon": 0.0}, {"rental_uris": {"ios": "https://dc.lft.to/lastmile_qr_scan", "android": "https://dc.lft.to/lastmile_qr_scan"}, "fusion_lat": 0.0, "name": "e42d6a048ca818b2f38c64da91c70445", "bike_id": "e42d6a048ca818b2f38c64da91c70445", "is_disabled": 0, "type": "electric_scooter", "lat": 38.8982625, "lon": -76.94656533333334, "is_reserved": 0, "fusion_lon": 0.0}, {"rental_uris": {"ios": "https://dc.lft.to/lastmile_qr_scan", "android": "https://dc.lft.to/lastmile_qr_scan"}, "fusion_lat": 0.0, "name": "f705ae2703f8bfcaec7312bec73aed72", "bike_id": "f705ae2703f8bfcaec7312bec73aed72", "is_disabled": 0, "type": "electric_scooter", "lat": 38.903292, "lon": -77.04336816666667, "is_reserved": 0, "fusion_lon": 0.0}, {"rental_uris": {"ios": "https://dc.lft.to/lastmile_qr_scan", "android": "https://dc.lft.to/lastmile_qr_scan"}, "fusion_lat": 0.0, "name": "ea0eeb710fc501f3204721d752ad5843", "bike_id": "ea0eeb710fc501f3204721d752ad5843", "is_disabled": 0, "type": "electric_scooter", "lat": 38.866866, "lon": -76.9853085, "is_reserved": 0, "fusion_lon": 0.0}, {"rental_uris": {"ios": "https://dc.lft.to/lastmile_qr_scan", "android": "https://dc.lft.to/lastmile_qr_scan"}, "fusion_lat": 0.0, "name": "a79cbfce240c9f68be17b3a37e631f6a", "bike_id": "a79cbfce240c9f68be17b3a37e631f6a", "is_disabled": 0, "type": "electric_scooter", "lat": 38.90266316666667, "lon": -77.04383783333333, "is_reserved": 0, "fusion_lon": 0.0}, {"rental_uris": {"ios": "https://dc.lft.to/lastmile_qr_scan", "android": "https://dc.lft.to/lastmile_qr_scan"}, "fusion_lat": 0.0, "name": "6aeda475ba92cbe2e6564d67fdc2d670", "bike_id": "6aeda475ba92cbe2e6564d67fdc2d670", "is_disabled": 0, "type": "electric_scooter", "lat": 38.91418983333333, "lon": -77.0188095, "is_reserved": 0, "fusion_lon": 0.0}, {"rental_uris": {"ios": "https://dc.lft.to/lastmile_qr_scan", "android": "https://dc.lft.to/lastmile_qr_scan"}, "fusion_lat": 0.0, "name": "179b193b83c580e96d0eb9dd3fcad192", "bike_id": "179b193b83c580e96d0eb9dd3fcad192", "is_disabled": 0, "type": "electric_scooter", "lat": 38.912549166666665, "lon": -77.02212316666666, "is_reserved": 0, "fusion_lon": 0.0}, {"rental_uris": {"ios": "https://dc.lft.to/lastmile_qr_scan", "android": "https://dc.lft.to/lastmile_qr_scan"}, "fusion_lat": 0.0, "name": "976f78e916208da0cf32b15c97634a5b", "bike_id": "976f78e916208da0cf32b15c97634a5b", "is_disabled": 0, "type": "electric_scooter", "lat": 38.90860983333334, "lon": -77.04589266666666, "is_reserved": 0, "fusion_lon": 0.0}, {"rental_uris": {"ios": "https://dc.lft.to/lastmile_qr_scan", "android": "https://dc.lft.to/lastmile_qr_scan"}, "fusion_lat": 0.0, "name": "831de8184ebbda7f7cf4736b0a90c983", "bike_id": "831de8184ebbda7f7cf4736b0a90c983", "is_disabled": 0, "type": "electric_scooter", "lat": 38.9001725, "lon": -76.99839016666667, "is_reserved": 0, "fusion_lon": 0.0}, {"rental_uris": {"ios": "https://dc.lft.to/lastmile_qr_scan", "android": "https://dc.lft.to/lastmile_qr_scan"}, "fusion_lat": 0.0, "name": "9ac1af3c87f33840dcdc85366680ce58", "bike_id": "9ac1af3c87f33840dcdc85366680ce58", "is_disabled": 0, "type": "electric_scooter", "lat": 38.9033385, "lon": -76.97597116666667, "is_reserved": 0, "fusion_lon": 0.0}, {"rental_uris": {"ios": "https://dc.lft.to/lastmile_qr_scan", "android": "https://dc.lft.to/lastmile_qr_scan"}, "fusion_lat": 0.0, "name": "6a5dc1bdffbe4e600594b772d67d6e66", "bike_id": "6a5dc1bdffbe4e600594b772d67d6e66", "is_disabled": 0, "type": "electric_scooter", "lat": 38.9236285, "lon": -77.05131983333334, "is_reserved": 0, "fusion_lon": 0.0}, {"rental_uris": {"ios": "https://dc.lft.to/lastmile_qr_scan", "android": "https://dc.lft.to/lastmile_qr_scan"}, "fusion_lat": 0.0, "name": "2cfed674c2b7f9e73d426b25cc806ce0", "bike_id": "2cfed674c2b7f9e73d426b25cc806ce0", "is_disabled": 0, "type": "electric_scooter", "lat": 38.918472666666666, "lon": -77.03452283333333, "is_reserved": 0, "fusion_lon": 0.0}, {"rental_uris": {"ios": "https://dc.lft.to/lastmile_qr_scan", "android": "https://dc.lft.to/lastmile_qr_scan"}, "fusion_lat": 0.0, "name": "feabe0f3e9bb220296179384a4d61325", "bike_id": "feabe0f3e9bb220296179384a4d61325", "is_disabled": 0, "type": "electric_scooter", "lat": 38.924038833333334, "lon": -77.02547616666666, "is_reserved": 0, "fusion_lon": 0.0}, {"rental_uris": {"ios": "https://dc.lft.to/lastmile_qr_scan", "android": "https://dc.lft.to/lastmile_qr_scan"}, "fusion_lat": 0.0, "name": "3f2a2a49b403a21f47b6305faa73dfe6", "bike_id": "3f2a2a49b403a21f47b6305faa73dfe6", "is_disabled": 0, "type": "electric_scooter", "lat": 38.910547333333334, "lon": -77.05588716666666, "is_reserved": 0, "fusion_lon": 0.0}, {"rental_uris": {"ios": "https://dc.lft.to/lastmile_qr_scan", "android": "https://dc.lft.to/lastmile_qr_scan"}, "fusion_lat": 0.0, "name": "6edd1315e9856d55a6ff375d232be386", "bike_id": "6edd1315e9856d55a6ff375d232be386", "is_disabled": 0, "type": "electric_scooter", "lat": 38.902838333333335, "lon": -77.03845716666666, "is_reserved": 0, "fusion_lon": 0.0}, {"rental_uris": {"ios": "https://dc.lft.to/lastmile_qr_scan", "android": "https://dc.lft.to/lastmile_qr_scan"}, "fusion_lat": 0.0, "name": "f2cd99763d2d62ad90ee9d00bdd34ced", "bike_id": "f2cd99763d2d62ad90ee9d00bdd34ced", "is_disabled": 0, "type": "electric_scooter", "lat": 38.885964, "lon": -77.01766333333333, "is_reserved": 0, "fusion_lon": 0.0}, {"rental_uris": {"ios": "https://dc.lft.to/lastmile_qr_scan", "android": "https://dc.lft.to/lastmile_qr_scan"}, "fusion_lat": 0.0, "name": "b923a63e2a8f1a5d78afa0328617509c", "bike_id": "b923a63e2a8f1a5d78afa0328617509c", "is_disabled": 0, "type": "electric_scooter", "lat": 38.88605366666667, "lon": -77.01745616666666, "is_reserved": 0, "fusion_lon": 0.0}, {"rental_uris": {"ios": "https://dc.lft.to/lastmile_qr_scan", "android": "https://dc.lft.to/lastmile_qr_scan"}, "fusion_lat": 0.0, "name": "654e9d8b42b15a9610a56e1e4e4781dd", "bike_id": "654e9d8b42b15a9610a56e1e4e4781dd", "is_disabled": 0, "type": "electric_scooter", "lat": 38.895735, "lon": -77.0320975, "is_reserved": 0, "fusion_lon": 0.0}, {"rental_uris": {"ios": "https://dc.lft.to/lastmile_qr_scan", "android": "https://dc.lft.to/lastmile_qr_scan"}, "fusion_lat": 0.0, "name": "bf3d5d3a4c58f0456ab747cdf58239c5", "bike_id": "bf3d5d3a4c58f0456ab747cdf58239c5", "is_disabled": 0, "type": "electric_scooter", "lat": 38.91326733333333, "lon": -77.0318425, "is_reserved": 0, "fusion_lon": 0.0}, {"rental_uris": {"ios": "https://dc.lft.to/lastmile_qr_scan", "android": "https://dc.lft.to/lastmile_qr_scan"}, "fusion_lat": 0.0, "name": "8b720d1a32ef8bc872523d4c50dfdff1", "bike_id": "8b720d1a32ef8bc872523d4c50dfdff1", "is_disabled": 0, "type": "electric_scooter", "lat": 38.905296166666666, "lon": -77.05154216666666, "is_reserved": 0, "fusion_lon": 0.0}, {"rental_uris": {"ios": "https://dc.lft.to/lastmile_qr_scan", "android": "https://dc.lft.to/lastmile_qr_scan"}, "fusion_lat": 0.0, "name": "a8260e607db555e10973f48dcaa4d052", "bike_id": "a8260e607db555e10973f48dcaa4d052", "is_disabled": 0, "type": "electric_scooter", "lat": 38.89220783333333, "lon": -77.041991, "is_reserved": 0, "fusion_lon": 0.0}, {"rental_uris": {"ios": "https://dc.lft.to/lastmile_qr_scan", "android": "https://dc.lft.to/lastmile_qr_scan"}, "fusion_lat": 0.0, "name": "390a2fd38bd6dc8e82be2167729756f7", "bike_id": "390a2fd38bd6dc8e82be2167729756f7", "is_disabled": 0, "type": "electric_scooter", "lat": 38.904169333333336, "lon": -77.068896, "is_reserved": 0, "fusion_lon": 0.0}, {"rental_uris": {"ios": "https://dc.lft.to/lastmile_qr_scan", "android": "https://dc.lft.to/lastmile_qr_scan"}, "fusion_lat": 0.0, "name": "18fcffa12974cfc81697b9ff9b58a5c7", "bike_id": "18fcffa12974cfc81697b9ff9b58a5c7", "is_disabled": 0, "type": "electric_scooter", "lat": 38.9208545, "lon": -77.0364135, "is_reserved": 0, "fusion_lon": 0.0}, {"rental_uris": {"ios": "https://dc.lft.to/lastmile_qr_scan", "android": "https://dc.lft.to/lastmile_qr_scan"}, "fusion_lat": 0.0, "name": "4d6528e4853e7765113fb199214342f0", "bike_id": "4d6528e4853e7765113fb199214342f0", "is_disabled": 0, "type": "electric_scooter", "lat": 38.902801333333336, "lon": -77.033526, "is_reserved": 0, "fusion_lon": 0.0}, {"rental_uris": {"ios": "https://dc.lft.to/lastmile_qr_scan", "android": "https://dc.lft.to/lastmile_qr_scan"}, "fusion_lat": 0.0, "name": "64e7c3208f9f24d92da153b90b5f08e5", "bike_id": "64e7c3208f9f24d92da153b90b5f08e5", "is_disabled": 0, "type": "electric_scooter", "lat": 38.910158833333334, "lon": -76.993987, "is_reserved": 0, "fusion_lon": 0.0}, {"rental_uris": {"ios": "https://dc.lft.to/lastmile_qr_scan", "android": "https://dc.lft.to/lastmile_qr_scan"}, "fusion_lat": 0.0, "name": "870765c0e313d0971d2234e22d3698ed", "bike_id": "870765c0e313d0971d2234e22d3698ed", "is_disabled": 0, "type": "electric_scooter", "lat": 38.878961333333336, "lon": -76.93526333333334, "is_reserved": 0, "fusion_lon": 0.0}, {"rental_uris": {"ios": "https://dc.lft.to/lastmile_qr_scan", "android": "https://dc.lft.to/lastmile_qr_scan"}, "fusion_lat": 0.0, "name": "bb91a2327c93f02244b588454e781194", "bike_id": "bb91a2327c93f02244b588454e781194", "is_disabled": 0, "type": "electric_scooter", "lat": 38.9233265, "lon": -77.053325, "is_reserved": 0, "fusion_lon": 0.0}, {"rental_uris": {"ios": "https://dc.lft.to/lastmile_qr_scan", "android": "https://dc.lft.to/lastmile_qr_scan"}, "fusion_lat": 0.0, "name": "39c3295f89f8dc34e9e172683adbb11f", "bike_id": "39c3295f89f8dc34e9e172683adbb11f", "is_disabled": 0, "type": "electric_scooter", "lat": 38.920400666666666, "lon": -77.01748316666666, "is_reserved": 0, "fusion_lon": 0.0}, {"rental_uris": {"ios": "https://dc.lft.to/lastmile_qr_scan", "android": "https://dc.lft.to/lastmile_qr_scan"}, "fusion_lat": 0.0, "name": "acf64762d53f7c93a80978595cfd91f1", "bike_id": "acf64762d53f7c93a80978595cfd91f1", "is_disabled": 0, "type": "electric_scooter", "lat": 38.898796833333336, "lon": -77.03289433333333, "is_reserved": 0, "fusion_lon": 0.0}, {"rental_uris": {"ios": "https://dc.lft.to/lastmile_qr_scan", "android": "https://dc.lft.to/lastmile_qr_scan"}, "fusion_lat": 0.0, "name": "a729fb5078ba8c5358dfc9a6c9cb26fb", "bike_id": "a729fb5078ba8c5358dfc9a6c9cb26fb", "is_disabled": 0, "type": "electric_scooter", "lat": 38.91911666666667, "lon": -77.0368085, "is_reserved": 0, "fusion_lon": 0.0}, {"rental_uris": {"ios": "https://dc.lft.to/lastmile_qr_scan", "android": "https://dc.lft.to/lastmile_qr_scan"}, "fusion_lat": 0.0, "name": "a93010533402315d7461983122c9381d", "bike_id": "a93010533402315d7461983122c9381d", "is_disabled": 0, "type": "electric_scooter", "lat": 38.939150833333336, "lon": -77.07656916666667, "is_reserved": 0, "fusion_lon": 0.0}, {"rental_uris": {"ios": "https://dc.lft.to/lastmile_qr_scan", "android": "https://dc.lft.to/lastmile_qr_scan"}, "fusion_lat": 0.0, "name": "368e9f5a870a9bc2e67a8be49fe634fa", "bike_id": "368e9f5a870a9bc2e67a8be49fe634fa", "is_disabled": 0, "type": "electric_scooter", "lat": 38.93752583333333, "lon": -77.03454583333334, "is_reserved": 0, "fusion_lon": 0.0}, {"rental_uris": {"ios": "https://dc.lft.to/lastmile_qr_scan", "android": "https://dc.lft.to/lastmile_qr_scan"}, "fusion_lat": 0.0, "name": "3c32e4d1478e1d74e63eb1d2d9a983dc", "bike_id": "3c32e4d1478e1d74e63eb1d2d9a983dc", "is_disabled": 0, "type": "electric_scooter", "lat": 38.892201666666665, "lon": -77.04333533333333, "is_reserved": 0, "fusion_lon": 0.0}, {"rental_uris": {"ios": "https://dc.lft.to/lastmile_qr_scan", "android": "https://dc.lft.to/lastmile_qr_scan"}, "fusion_lat": 0.0, "name": "a1aa5e9d3294fed6220e9662c503f51a", "bike_id": "a1aa5e9d3294fed6220e9662c503f51a", "is_disabled": 0, "type": "electric_scooter", "lat": 38.909765666666665, "lon": -77.02184766666667, "is_reserved": 0, "fusion_lon": 0.0}, {"rental_uris": {"ios": "https://dc.lft.to/lastmile_qr_scan", "android": "https://dc.lft.to/lastmile_qr_scan"}, "fusion_lat": 0.0, "name": "30e2b6e093b45c8c99fcc7d4042f603b", "bike_id": "30e2b6e093b45c8c99fcc7d4042f603b", "is_disabled": 0, "type": "electric_scooter", "lat": 38.916737499999996, "lon": -77.02386833333334, "is_reserved": 0, "fusion_lon": 0.0}, {"rental_uris": {"ios": "https://dc.lft.to/lastmile_qr_scan", "android": "https://dc.lft.to/lastmile_qr_scan"}, "fusion_lat": 0.0, "name": "94512e1269b344e31e3dce0db0aa746c", "bike_id": "94512e1269b344e31e3dce0db0aa746c", "is_disabled": 0, "type": "electric_scooter", "lat": 38.910404166666666, "lon": -77.04371616666667, "is_reserved": 0, "fusion_lon": 0.0}, {"rental_uris": {"ios": "https://dc.lft.to/lastmile_qr_scan", "android": "https://dc.lft.to/lastmile_qr_scan"}, "fusion_lat": 0.0, "name": "3c504cac79861fb40d709423e5c9399c", "bike_id": "3c504cac79861fb40d709423e5c9399c", "is_disabled": 0, "type": "electric_scooter", "lat": 38.89357316666667, "lon": -77.00340316666667, "is_reserved": 0, "fusion_lon": 0.0}, {"rental_uris": {"ios": "https://dc.lft.to/lastmile_qr_scan", "android": "https://dc.lft.to/lastmile_qr_scan"}, "fusion_lat": 0.0, "name": "cd87bde9f8c59646b3bb6f4a10d11ddb", "bike_id": "cd87bde9f8c59646b3bb6f4a10d11ddb", "is_disabled": 0, "type": "electric_scooter", "lat": 38.895219833333336, "lon": -77.02403483333333, "is_reserved": 0, "fusion_lon": 0.0}, {"rental_uris": {"ios": "https://dc.lft.to/lastmile_qr_scan", "android": "https://dc.lft.to/lastmile_qr_scan"}, "fusion_lat": 0.0, "name": "852eef7be507920dc54ba81b2880e625", "bike_id": "852eef7be507920dc54ba81b2880e625", "is_disabled": 0, "type": "electric_scooter", "lat": 38.887412166666664, "lon": -77.03144216666666, "is_reserved": 0, "fusion_lon": 0.0}, {"rental_uris": {"ios": "https://dc.lft.to/lastmile_qr_scan", "android": "https://dc.lft.to/lastmile_qr_scan"}, "fusion_lat": 0.0, "name": "b8d0a5c7a7406adc1789e82ce8d7ed9f", "bike_id": "b8d0a5c7a7406adc1789e82ce8d7ed9f", "is_disabled": 0, "type": "electric_scooter", "lat": 38.91974, "lon": -77.01221433333333, "is_reserved": 0, "fusion_lon": 0.0}, {"rental_uris": {"ios": "https://dc.lft.to/lastmile_qr_scan", "android": "https://dc.lft.to/lastmile_qr_scan"}, "fusion_lat": 0.0, "name": "7c3d4d7187f41e8685766909a72013c7", "bike_id": "7c3d4d7187f41e8685766909a72013c7", "is_disabled": 0, "type": "electric_scooter", "lat": 38.90682966666667, "lon": -77.02693433333333, "is_reserved": 0, "fusion_lon": 0.0}, {"rental_uris": {"ios": "https://dc.lft.to/lastmile_qr_scan", "android": "https://dc.lft.to/lastmile_qr_scan"}, "fusion_lat": 0.0, "name": "753c24c5fc857dfae93d3cd25e283ae6", "bike_id": "753c24c5fc857dfae93d3cd25e283ae6", "is_disabled": 0, "type": "electric_scooter", "lat": 38.920594666666666, "lon": -77.03393483333333, "is_reserved": 0, "fusion_lon": 0.0}, {"rental_uris": {"ios": "https://dc.lft.to/lastmile_qr_scan", "android": "https://dc.lft.to/lastmile_qr_scan"}, "fusion_lat": 0.0, "name": "5e709f744ddd8bf8c16abf9b5ad06a48", "bike_id": "5e709f744ddd8bf8c16abf9b5ad06a48", "is_disabled": 0, "type": "electric_scooter", "lat": 38.91258116666667, "lon": -77.0375225, "is_reserved": 0, "fusion_lon": 0.0}, {"rental_uris": {"ios": "https://dc.lft.to/lastmile_qr_scan", "android": "https://dc.lft.to/lastmile_qr_scan"}, "fusion_lat": 0.0, "name": "67f228e6517f19a64a8450b2d1a7401f", "bike_id": "67f228e6517f19a64a8450b2d1a7401f", "is_disabled": 0, "type": "electric_scooter", "lat": 38.915648166666664, "lon": -77.02213366666666, "is_reserved": 0, "fusion_lon": 0.0}, {"rental_uris": {"ios": "https://dc.lft.to/lastmile_qr_scan", "android": "https://dc.lft.to/lastmile_qr_scan"}, "fusion_lat": 0.0, "name": "8d37ac838f4cbe79f74b3e6474ae327f", "bike_id": "8d37ac838f4cbe79f74b3e6474ae327f", "is_disabled": 0, "type": "electric_scooter", "lat": 38.866512166666666, "lon": -76.988851, "is_reserved": 0, "fusion_lon": 0.0}, {"rental_uris": {"ios": "https://dc.lft.to/lastmile_qr_scan", "android": "https://dc.lft.to/lastmile_qr_scan"}, "fusion_lat": 0.0, "name": "9c65f341b02412f5cd8845c197746787", "bike_id": "9c65f341b02412f5cd8845c197746787", "is_disabled": 0, "type": "electric_scooter", "lat": 38.91302833333334, "lon": -77.04351966666667, "is_reserved": 0, "fusion_lon": 0.0}, {"rental_uris": {"ios": "https://dc.lft.to/lastmile_qr_scan", "android": "https://dc.lft.to/lastmile_qr_scan"}, "fusion_lat": 0.0, "name": "7844dda47aec73de638fd0ad9fbfb526", "bike_id": "7844dda47aec73de638fd0ad9fbfb526", "is_disabled": 0, "type": "electric_scooter", "lat": 38.90564666666667, "lon": -77.00610316666666, "is_reserved": 0, "fusion_lon": 0.0}, {"rental_uris": {"ios": "https://dc.lft.to/lastmile_qr_scan", "android": "https://dc.lft.to/lastmile_qr_scan"}, "fusion_lat": 0.0, "name": "fd75fcd6dddb57683531d3e9331651de", "bike_id": "fd75fcd6dddb57683531d3e9331651de", "is_disabled": 0, "type": "electric_scooter", "lat": 38.89902983333333, "lon": -76.93358666666667, "is_reserved": 0, "fusion_lon": 0.0}, {"rental_uris": {"ios": "https://dc.lft.to/lastmile_qr_scan", "android": "https://dc.lft.to/lastmile_qr_scan"}, "fusion_lat": 0.0, "name": "6ce752b5b1afcacb790b66c4b5447ce0", "bike_id": "6ce752b5b1afcacb790b66c4b5447ce0", "is_disabled": 0, "type": "electric_scooter", "lat": 38.9000645, "lon": -77.05513066666667, "is_reserved": 0, "fusion_lon": 0.0}, {"rental_uris": {"ios": "https://dc.lft.to/lastmile_qr_scan", "android": "https://dc.lft.to/lastmile_qr_scan"}, "fusion_lat": 0.0, "name": "4e18de0107746ca0796e796f16fc990b", "bike_id": "4e18de0107746ca0796e796f16fc990b", "is_disabled": 0, "type": "electric_scooter", "lat": 38.903701166666664, "lon": -77.0321225, "is_reserved": 0, "fusion_lon": 0.0}, {"rental_uris": {"ios": "https://dc.lft.to/lastmile_qr_scan", "android": "https://dc.lft.to/lastmile_qr_scan"}, "fusion_lat": 0.0, "name": "967fc225ff81c714f20ed12350accf57", "bike_id": "967fc225ff81c714f20ed12350accf57", "is_disabled": 0, "type": "electric_scooter", "lat": 38.91187583333333, "lon": -77.044505, "is_reserved": 0, "fusion_lon": 0.0}, {"rental_uris": {"ios": "https://dc.lft.to/lastmile_qr_scan", "android": "https://dc.lft.to/lastmile_qr_scan"}, "fusion_lat": 0.0, "name": "cd0dc70025b75e5bde36e294ed35672c", "bike_id": "cd0dc70025b75e5bde36e294ed35672c", "is_disabled": 0, "type": "electric_scooter", "lat": 38.956335, "lon": -77.024315, "is_reserved": 0, "fusion_lon": 0.0}, {"rental_uris": {"ios": "https://dc.lft.to/lastmile_qr_scan", "android": "https://dc.lft.to/lastmile_qr_scan"}, "fusion_lat": 0.0, "name": "2d9de9c5f2d5cf689b7272038a759510", "bike_id": "2d9de9c5f2d5cf689b7272038a759510", "is_disabled": 0, "type": "electric_scooter", "lat": 38.8953175, "lon": -77.04343033333333, "is_reserved": 0, "fusion_lon": 0.0}, {"rental_uris": {"ios": "https://dc.lft.to/lastmile_qr_scan", "android": "https://dc.lft.to/lastmile_qr_scan"}, "fusion_lat": 0.0, "name": "fd41c40b47534f1fbc9cb7c0dd6e1c04", "bike_id": "fd41c40b47534f1fbc9cb7c0dd6e1c04", "is_disabled": 0, "type": "electric_scooter", "lat": 38.928825333333336, "lon": -77.07308383333333, "is_reserved": 0, "fusion_lon": 0.0}, {"rental_uris": {"ios": "https://dc.lft.to/lastmile_qr_scan", "android": "https://dc.lft.to/lastmile_qr_scan"}, "fusion_lat": 0.0, "name": "27d17bb93c570ab9e8b90897b2bb5029", "bike_id": "27d17bb93c570ab9e8b90897b2bb5029", "is_disabled": 0, "type": "electric_scooter", "lat": 38.917746666666666, "lon": -77.0235115, "is_reserved": 0, "fusion_lon": 0.0}, {"rental_uris": {"ios": "https://dc.lft.to/lastmile_qr_scan", "android": "https://dc.lft.to/lastmile_qr_scan"}, "fusion_lat": 0.0, "name": "11172fa2d7d49271502d2139f328b72e", "bike_id": "11172fa2d7d49271502d2139f328b72e", "is_disabled": 0, "type": "electric_scooter", "lat": 38.91736616666667, "lon": -77.03217533333333, "is_reserved": 0, "fusion_lon": 0.0}, {"rental_uris": {"ios": "https://dc.lft.to/lastmile_qr_scan", "android": "https://dc.lft.to/lastmile_qr_scan"}, "fusion_lat": 0.0, "name": "35f31950fe114ae61999548b5e5f70bc", "bike_id": "35f31950fe114ae61999548b5e5f70bc", "is_disabled": 0, "type": "electric_scooter", "lat": 38.903504833333336, "lon": -77.0190265, "is_reserved": 0, "fusion_lon": 0.0}, {"rental_uris": {"ios": "https://dc.lft.to/lastmile_qr_scan", "android": "https://dc.lft.to/lastmile_qr_scan"}, "fusion_lat": 0.0, "name": "0240600da4c581e6b10cbe28499d9321", "bike_id": "0240600da4c581e6b10cbe28499d9321", "is_disabled": 0, "type": "electric_bike", "lat": 38.87255733333333, "lon": -77.01209583333333, "is_reserved": 0, "fusion_lon": 0.0}, {"rental_uris": {"ios": "https://dc.lft.to/lastmile_qr_scan", "android": "https://dc.lft.to/lastmile_qr_scan"},