{"data": {"bikes": [{"rental_uris": {"ios": "https://dc.lft.to/lastmile_qr_scan", "android": "https://dc.lft.to/lastmile_qr_scan"}, "lat": 38.84527666666666, "lon": -76.9739885, "fusion_lat": 0.0, "name": "ff3f16542ca57338551dc1a7c18b96b3", "is_disabled": 0, "is_reserved": 0, "bike_id": "ff3f16542ca57338551dc1a7c18b96b3", "fusion_lon": 0.0, "type": "electric_bike"}, {"rental_uris": {"ios": "https://dc.lft.to/lastmile_qr_scan", "android": "https://dc.lft.to/lastmile_qr_scan"}, "lat": 38.912955833333335, "lon": -77.023872, "fusion_lat": 0.0, "name": "2b51524e47d8179b287ee42efe755000", "is_disabled": 0, "is_reserved": 0, "bike_id": "2b51524e47d8179b287ee42efe755000", "fusion_lon": 0.0, "type": "electric_scooter"}, {"rental_uris": {"ios": "https://dc.lft.to/lastmile_qr_scan", "android": "https://dc.lft.to/lastmile_qr_scan"}, "lat": 38.89420483333333, "lon": -77.0316715, "fusion_lat": 0.0, "name": "0cae5b89099bf7bccc8c6bea32296e5c", "is_disabled": 0, "is_reserved": 0, "bike_id": "0cae5b89099bf7bccc8c6bea32296e5c", "fusion_lon": 0.0, "type": "electric_scooter"}, {"rental_uris": {"ios": "https://dc.lft.to/lastmile_qr_scan", "android": "https://dc.lft.to/lastmile_qr_scan"}, "lat": 38.91012966666667, "lon": -76.99867816666666, "fusion_lat": 0.0, "name": "941408e58b066ba2155ec8d21dfef1e3", "is_disabled": 0, "is_reserved": 0, "bike_id": "941408e58b066ba2155ec8d21dfef1e3", "fusion_lon": 0.0, "type": "electric_scooter"}, {"rental_uris": {"ios": "https://dc.lft.to/lastmile_qr_scan", "android": "https://dc.lft.to/lastmile_qr_scan"}, "lat": 38.94793383333333, "lon": -77.021319, "fusion_lat": 0.0, "name": "b0e2dae0d9f47e3cb7981239ee3a9b6d", "is_disabled": 0, "is_reserved": 0, "bike_id": "b0e2dae0d9f47e3cb7981239ee3a9b6d", "fusion_lon": 0.0, "type": "electric_scooter"}, {"rental_uris": {"ios": "https://dc.lft.to/lastmile_qr_scan", "android": "https://dc.lft.to/lastmile_qr_scan"}, "lat": 38.91908316666667, "lon": -77.03442683333333, "fusion_lat": 0.0, "name": "c31c57659ac8a063f95b77fcc9931c35", "is_disabled": 0, "is_reserved": 0, "bike_id": "c31c57659ac8a063f95b77fcc9931c35", "fusion_lon": 0.0, "type": "electric_scooter"}, {"rental_uris": {"ios": "https://dc.lft.to/lastmile_qr_scan", "android": "https://dc.lft.to/lastmile_qr_scan"}, "lat": 38.89747966666667, "lon": -77.03034116666667, "fusion_lat": 0.0, "name": "5c571c844561e33acbba73947f4ad005", "is_disabled": 0, "is_reserved": 0, "bike_id": "5c571c844561e33acbba73947f4ad005", "fusion_lon": 0.0, "type": "electric_scooter"}, {"rental_uris": {"ios": "https://dc.lft.to/lastmile_qr_scan", "android": "https://dc.lft.to/lastmile_qr_scan"}, "lat": 38.90601233333334, "lon": -77.04997616666667, "fusion_lat": 0.0, "name": "a66da4e23e9c21a99f5f00179ec75cee", "is_disabled": 0, "is_reserved": 0, "bike_id": "a66da4e23e9c21a99f5f00179ec75cee", "fusion_lon": 0.0, "type": "electric_scooter"}, {"rental_uris": {"ios": "https://dc.lft.to/lastmile_qr_scan", "android": "https://dc.lft.to/lastmile_qr_scan"}, "lat": 38.892235166666666, "lon": -77.04008283333333, "fusion_lat": 0.0, "name": "a73c453885259dcd9b0e2d62d37e2a5c", "is_disabled": 0, "is_reserved": 0, "bike_id": "a73c453885259dcd9b0e2d62d37e2a5c", "fusion_lon": 0.0, "type": "electric_scooter"}, {"rental_uris": {"ios": "https://dc.lft.to/lastmile_qr_scan", "android": "https://dc.lft.to/lastmile_qr_scan"}, "lat": 38.91414616666667, "lon": -77.03993866666667, "fusion_lat": 0.0, "name": "0917a6df6afe591415e56cf927f6fd93", "is_disabled": 0, "is_reserved": 0, "bike_id": "0917a6df6afe591415e56cf927f6fd93", "fusion_lon": 0.0, "type": "electric_scooter"}, {"rental_uris": {"ios": "https://dc.lft.to/lastmile_qr_scan", "android": "https://dc.lft.to/lastmile_qr_scan"}, "lat": 38.99015833333333, "lon": -77.00430033333333, "fusion_lat": 0.0, "name": "3398dffb60e987b7650d93b81294b5ff", "is_disabled": 0, "is_reserved": 0, "bike_id": "3398dffb60e987b7650d93b81294b5ff", "fusion_lon": 0.0, "type": "electric_bike"}, {"rental_uris": {"ios": "https://dc.lft.to/lastmile_qr_scan", "android": "https://dc.lft.to/lastmile_qr_scan"}, "lat": 38.92697533333333, "lon": -77.02272, "fusion_lat": 0.0, "name": "e1149d542f04ac1e66a9feccdbc5f4ad", "is_disabled": 0, "is_reserved": 0, "bike_id": "e1149d542f04ac1e66a9feccdbc5f4ad", "fusion_lon": 0.0, "type": "electric_scooter"}, {"rental_uris": {"ios": "https://dc.lft.to/lastmile_qr_scan", "android": "https://dc.lft.to/lastmile_qr_scan"}, "lat": 38.907848333333334, "lon": -77.07247083333333, "fusion_lat": 0.0, "name": "d1e0d4395169aaae29e8e86e0e1a4b7f", "is_disabled": 0, "is_reserved": 0, "bike_id": "d1e0d4395169aaae29e8e86e0e1a4b7f", "fusion_lon": 0.0, "type": "electric_scooter"}, {"rental_uris": {"ios": "https://dc.lft.to/lastmile_qr_scan", "android": "https://dc.lft.to/lastmile_qr_scan"}, "lat": 38.91864666666667, "lon": -77.04026966666666, "fusion_lat": 0.0, "name": "e7d69f525ef3c7816d8b49ac1f6c56ce", "is_disabled": 0, "is_reserved": 0, "bike_id": "e7d69f525ef3c7816d8b49ac1f6c56ce", "fusion_lon": 0.0, "type": "electric_scooter"}, {"rental_uris": {"ios": "https://dc.lft.to/lastmile_qr_scan", "android": "https://dc.lft.to/lastmile_qr_scan"}, "lat": 38.85890716666667, "lon": -77.11863783333334, "fusion_lat": 0.0, "name": "918b4db1147242d0fbb7eec60acb6ca7", "is_disabled": 0, "is_reserved": 0, "bike_id": "918b4db1147242d0fbb7eec60acb6ca7", "fusion_lon": 0.0, "type": "electric_bike"}, {"rental_uris": {"ios": "https://dc.lft.to/lastmile_qr_scan", "android": "https://dc.lft.to/lastmile_qr_scan"}, "lat": 38.874711166666664, "lon": -77.00489033333334, "fusion_lat": 0.0, "name": "9f60597c92cb815866148c0f66affbb2", "is_disabled": 0, "is_reserved": 0, "bike_id": "9f60597c92cb815866148c0f66affbb2", "fusion_lon": 0.0, "type": "electric_scooter"}, {"rental_uris": {"ios": "https://dc.lft.to/lastmile_qr_scan", "android": "https://dc.lft.to/lastmile_qr_scan"}, "lat": 38.896799666666666, "lon": -77.0321255, "fusion_lat": 0.0, "name": "558f0e4db400d1449fff43cc8a9d11d9", "is_disabled": 0, "is_reserved": 0, "bike_id": "558f0e4db400d1449fff43cc8a9d11d9", "fusion_lon": 0.0, "type": "electric_scooter"}, {"rental_uris": {"ios": "https://dc.lft.to/lastmile_qr_scan", "android": "https://dc.lft.to/lastmile_qr_scan"}, "lat": 38.8791455, "lon": -77.007125, "fusion_lat": 0.0, "name": "2539217496fe56cd26628ff074c5032c", "is_disabled": 0, "is_reserved": 0, "bike_id": "2539217496fe56cd26628ff074c5032c", "fusion_lon": 0.0, "type": "electric_scooter"}, {"rental_uris": {"ios": "https://dc.lft.to/lastmile_qr_scan", "android": "https://dc.lft.to/lastmile_qr_scan"}, "lat": 38.8973945, "lon": -76.94721516666667, "fusion_lat": 0.0, "name": "845a0cab2dafaadcde00e738a738224b", "is_disabled": 0, "is_reserved": 0, "bike_id": "845a0cab2dafaadcde00e738a738224b", "fusion_lon": 0.0, "type": "electric_scooter"}, {"rental_uris": {"ios": "https://dc.lft.to/lastmile_qr_scan", "android": "https://dc.lft.to/lastmile_qr_scan"}, "lat": 38.89999566666667, "lon": -77.04040483333333, "fusion_lat": 0.0, "name": "277b50cff32d3fb15f5a2ae9ad6ad971", "is_disabled": 0, "is_reserved": 0, "bike_id": "277b50cff32d3fb15f5a2ae9ad6ad971", "fusion_lon": 0.0, "type": "electric_scooter"}, {"rental_uris": {"ios": "https://dc.lft.to/lastmile_qr_scan", "android": "https://dc.lft.to/lastmile_qr_scan"}, "lat": 38.89606283333333, "lon": -76.988649, "fusion_lat": 0.0, "name": "0f8a9cce3519f0ab6838f2b4e7f530c0", "is_disabled": 0, "is_reserved": 0, "bike_id": "0f8a9cce3519f0ab6838f2b4e7f530c0", "fusion_lon": 0.0, "type": "electric_scooter"}, {"rental_uris": {"ios": "https://dc.lft.to/lastmile_qr_scan", "android": "https://dc.lft.to/lastmile_qr_scan"}, "lat": 38.904117666666664, "lon": -76.973305, "fusion_lat": 0.0, "name": "db74faa9c2448552d6afb02f418f31e0", "is_disabled": 0, "is_reserved": 0, "bike_id": "db74faa9c2448552d6afb02f418f31e0", "fusion_lon": 0.0, "type": "electric_scooter"}, {"rental_uris": {"ios": "https://dc.lft.to/lastmile_qr_scan", "android": "https://dc.lft.to/lastmile_qr_scan"}, "lat": 38.88682816666667, "lon": -77.01980833333333, "fusion_lat": 0.0, "name": "8d0540573ba759a4ebaf69e7d3c3277f", "is_disabled": 0, "is_reserved": 0, "bike_id": "8d0540573ba759a4ebaf69e7d3c3277f", "fusion_lon": 0.0, "type": "electric_scooter"}, {"rental_uris": {"ios": "https://dc.lft.to/lastmile_qr_scan", "android": "https://dc.lft.to/lastmile_qr_scan"}, "lat": 38.91382683333333, "lon": -77.0321475, "fusion_lat": 0.0, "name": "515f46920d4502b850b7983a2a12f059", "is_disabled": 0, "is_reserved": 0, "bike_id": "515f46920d4502b850b7983a2a12f059", "fusion_lon": 0.0, "type": "electric_scooter"}, {"rental_uris": {"ios": "https://dc.lft.to/lastmile_qr_scan", "android": "https://dc.lft.to/lastmile_qr_scan"}, "lat": 38.91177066666667, "lon": -77.02831416666666, "fusion_lat": 0.0, "name": "5e3e9a3a364704ac43c04b6e7456c546", "is_disabled": 0, "is_reserved": 0, "bike_id": "5e3e9a3a364704ac43c04b6e7456c546", "fusion_lon": 0.0, "type": "electric_scooter"}, {"rental_uris": {"ios": "https://dc.lft.to/lastmile_qr_scan", "android": "https://dc.lft.to/lastmile_qr_scan"}, "lat": 38.898089166666665, "lon": -77.031997, "fusion_lat": 0.0, "name": "c04b78502f8c9896a0353c6bd7941a18", "is_disabled": 0, "is_reserved": 0, "bike_id": "c04b78502f8c9896a0353c6bd7941a18", "fusion_lon": 0.0, "type": "electric_scooter"}, {"rental_uris": {"ios": "https://dc.lft.to/lastmile_qr_scan", "android": "https://dc.lft.to/lastmile_qr_scan"}, "lat": 38.8922555, "lon": -77.016018, "fusion_lat": 0.0, "name": "3ee68d4829a026826465032f84a42af7", "is_disabled": 0, "is_reserved": 0, "bike_id": "3ee68d4829a026826465032f84a42af7", "fusion_lon": 0.0, "type": "electric_scooter"}, {"rental_uris": {"ios": "https://dc.lft.to/lastmile_qr_scan", "android": "https://dc.lft.to/lastmile_qr_scan"}, "lat": 38.92036783333333, "lon": -77.003026, "fusion_lat": 0.0, "name": "b330c7866f6892719745e39e3070eeee", "is_disabled": 0, "is_reserved": 0, "bike_id": "b330c7866f6892719745e39e3070eeee", "fusion_lon": 0.0, "type": "electric_scooter"}, {"rental_uris": {"ios": "https://dc.lft.to/lastmile_qr_scan", "android": "https://dc.lft.to/lastmile_qr_scan"}, "lat": 38.884927166666664, "lon": -77.00726133333333, "fusion_lat": 0.0, "name": "2aa67ebca8a333603a70b0101eedea73", "is_disabled": 0, "is_reserved": 0, "bike_id": "2aa67ebca8a333603a70b0101eedea73", "fusion_lon": 0.0, "type": "electric_scooter"}, {"rental_uris": {"ios": "https://dc.lft.to/lastmile_qr_scan", "android": "https://dc.lft.to/lastmile_qr_scan"}, "lat": 38.923302666666665, "lon": -77.00883766666666, "fusion_lat": 0.0, "name": "d1c77d12c643fbefbc8231654e5a184e", "is_disabled": 0, "is_reserved": 0, "bike_id": "d1c77d12c643fbefbc8231654e5a184e", "fusion_lon": 0.0, "type": "electric_scooter"}, {"rental_uris": {"ios": "https://dc.lft.to/lastmile_qr_scan", "android": "https://dc.lft.to/lastmile_qr_scan"}, "lat": 38.93540983333333, "lon": -77.0235125, "fusion_lat": 0.0, "name": "3a0c1b8899c4bd536e68d727829f3751", "is_disabled": 0, "is_reserved": 0, "bike_id": "3a0c1b8899c4bd536e68d727829f3751", "fusion_lon": 0.0, "type": "electric_scooter"}, {"rental_uris": {"ios": "https://dc.lft.to/lastmile_qr_scan", "android": "https://dc.lft.to/lastmile_qr_scan"}, "lat": 38.987707666666665, "lon": -77.14056533333333, "fusion_lat": 0.0, "name": "e75c0e8d19dc82b16bf267705de94bbd", "is_disabled": 0, "is_reserved": 0, "bike_id": "e75c0e8d19dc82b16bf267705de94bbd", "fusion_lon": 0.0, "type": "electric_bike"}, {"rental_uris": {"ios": "https://dc.lft.to/lastmile_qr_scan", "android": "https://dc.lft.to/lastmile_qr_scan"}, "lat": 38.922718833333334, "lon": -77.02235066666667, "fusion_lat": 0.0, "name": "262db783cacc703709a6e62773644fdb", "is_disabled": 0, "is_reserved": 0, "bike_id": "262db783cacc703709a6e62773644fdb", "fusion_lon": 0.0, "type": "electric_scooter"}, {"rental_uris": {"ios": "https://dc.lft.to/lastmile_qr_scan", "android": "https://dc.lft.to/lastmile_qr_scan"}, "lat": 38.89822816666667, "lon": -77.02514783333334, "fusion_lat": 0.0, "name": "0aa8b3c9bc3de079710c2be959161790", "is_disabled": 0, "is_reserved": 0, "bike_id": "0aa8b3c9bc3de079710c2be959161790", "fusion_lon": 0.0, "type": "electric_bike"}, {"rental_uris": {"ios": "https://dc.lft.to/lastmile_qr_scan", "android": "https://dc.lft.to/lastmile_qr_scan"}, "lat": 38.91864266666666, "lon": -77.0321905, "fusion_lat": 0.0, "name": "cbc94b8340be74d7b386a3939b9b297e", "is_disabled": 0, "is_reserved": 0, "bike_id": "cbc94b8340be74d7b386a3939b9b297e", "fusion_lon": 0.0, "type": "electric_scooter"}, {"rental_uris": {"ios": "https://dc.lft.to/lastmile_qr_scan", "android": "https://dc.lft.to/lastmile_qr_scan"}, "lat": 38.91656, "lon": -76.97914233333333, "fusion_lat": 0.0, "name": "4e1276c42e8030d061a7ad3341cca077", "is_disabled": 0, "is_reserved": 0, "bike_id": "4e1276c42e8030d061a7ad3341cca077", "fusion_lon": 0.0, "type": "electric_scooter"}, {"rental_uris": {"ios": "https://dc.lft.to/lastmile_qr_scan", "android": "https://dc.lft.to/lastmile_qr_scan"}, "lat": 38.90253516666667, "lon": -77.0345155, "fusion_lat": 0.0, "name": "befeec1b53b562f7824cb08d7fdbd1df", "is_disabled": 0, "is_reserved": 0, "bike_id": "befeec1b53b562f7824cb08d7fdbd1df", "fusion_lon": 0.0, "type": "electric_scooter"}, {"rental_uris": {"ios": "https://dc.lft.to/lastmile_qr_scan", "android": "https://dc.lft.to/lastmile_qr_scan"}, "lat": 38.90707333333334, "lon": -77.02407033333333, "fusion_lat": 0.0, "name": "05ad48b37be42a61c31dc666d83237c2", "is_disabled": 0, "is_reserved": 0, "bike_id": "05ad48b37be42a61c31dc666d83237c2", "fusion_lon": 0.0, "type": "electric_scooter"}, {"rental_uris": {"ios": "https://dc.lft.to/lastmile_qr_scan", "android": "https://dc.lft.to/lastmile_qr_scan"}, "lat": 38.92524366666667, "lon": -77.04117083333334, "fusion_lat": 0.0, "name": "17564f5607ee3c7ac92510f53d592770", "is_disabled": 0, "is_reserved": 0, "bike_id": "17564f5607ee3c7ac92510f53d592770", "fusion_lon": 0.0, "type": "electric_scooter"}, {"rental_uris": {"ios": "https://dc.lft.to/lastmile_qr_scan", "android": "https://dc.lft.to/lastmile_qr_scan"}, "lat": 38.925023833333334, "lon": -76.99022216666667, "fusion_lat": 0.0, "name": "a76d746f14da594368ae6dbf477bf711", "is_disabled": 0, "is_reserved": 0, "bike_id": "a76d746f14da594368ae6dbf477bf711", "fusion_lon": 0.0, "type": "electric_scooter"}, {"rental_uris": {"ios": "https://dc.lft.to/lastmile_qr_scan", "android": "https://dc.lft.to/lastmile_qr_scan"}, "lat": 38.904981666666664, "lon": -77.057547, "fusion_lat": 0.0, "name": "8221a78c574719352c2276a6f424c8df", "is_disabled": 0, "is_reserved": 0, "bike_id": "8221a78c574719352c2276a6f424c8df", "fusion_lon": 0.0, "type": "electric_scooter"}, {"rental_uris": {"ios": "https://dc.lft.to/lastmile_qr_scan", "android": "https://dc.lft.to/lastmile_qr_scan"}, "lat": 38.866464, "lon": -76.9882275, "fusion_lat": 0.0, "name": "406c503eeaa10b1c805b06dc51572f94", "is_disabled": 0, "is_reserved": 0, "bike_id": "406c503eeaa10b1c805b06dc51572f94", "fusion_lon": 0.0, "type": "electric_scooter"}, {"rental_uris": {"ios": "https://dc.lft.to/lastmile_qr_scan", "android": "https://dc.lft.to/lastmile_qr_scan"}, "lat": 38.89298983333333, "lon": -77.0197495, "fusion_lat": 0.0, "name": "a1e269f86a060ec4a670b5d345acd912", "is_disabled": 0, "is_reserved": 0, "bike_id": "a1e269f86a060ec4a670b5d345acd912", "fusion_lon": 0.0, "type": "electric_scooter"}, {"rental_uris": {"ios": "https://dc.lft.to/lastmile_qr_scan", "android": "https://dc.lft.to/lastmile_qr_scan"}, "lat": 38.952565166666666, "lon": -77.01970383333334, "fusion_lat": 0.0, "name": "c70ad66dafca706af033ed7854edba64", "is_disabled": 0, "is_reserved": 0, "bike_id": "c70ad66dafca706af033ed7854edba64", "fusion_lon": 0.0, "type": "electric_scooter"}, {"rental_uris": {"ios": "https://dc.lft.to/lastmile_qr_scan", "android": "https://dc.lft.to/lastmile_qr_scan"}, "lat": 38.984658333333336, "lon": -76.97046266666666, "fusion_lat": 0.0, "name": "ece38a6be2aec322b37ab4cb9e0735e5", "is_disabled": 0, "is_reserved": 0, "bike_id": "ece38a6be2aec322b37ab4cb9e0735e5", "fusion_lon": 0.0, "type": "electric_bike"}, {"rental_uris": {"ios": "https://dc.lft.to/lastmile_qr_scan", "android": "https://dc.lft.to/lastmile_qr_scan"}, "lat": 38.9172825, "lon": -77.03658716666666, "fusion_lat": 0.0, "name": "3d467ff6640be2d6075fea73bbcdfea6", "is_disabled": 0, "is_reserved": 0, "bike_id": "3d467ff6640be2d6075fea73bbcdfea6", "fusion_lon": 0.0, "type": "electric_scooter"}, {"rental_uris": {"ios": "https://dc.lft.to/lastmile_qr_scan", "android": "https://dc.lft.to/lastmile_qr_scan"}, "lat": 38.924447666666666, "lon": -77.020194, "fusion_lat": 0.0, "name": "2bf39ab43a8622ec316f8fb5e18d38bb", "is_disabled": 0, "is_reserved": 0, "bike_id": "2bf39ab43a8622ec316f8fb5e18d38bb", "fusion_lon": 0.0, "type": "electric_scooter"}, {"rental_uris": {"ios": "https://dc.lft.to/lastmile_qr_scan", "android": "https://dc.lft.to/lastmile_qr_scan"}, "lat": 38.9025325, "lon": -77.0380775, "fusion_lat": 0.0, "name": "e7fb67550f2d15fb21002f5511855a7f", "is_disabled": 0, "is_reserved": 0, "bike_id": "e7fb67550f2d15fb21002f5511855a7f", "fusion_lon": 0.0, "type": "electric_scooter"}, {"rental_uris": {"ios": "https://dc.lft.to/lastmile_qr_scan", "android": "https://dc.lft.to/lastmile_qr_scan"}, "lat": 38.866850166666666, "lon": -76.98574616666667, "fusion_lat": 0.0, "name": "3252b5d8790581ec808d86eec1f50e36", "is_disabled": 0, "is_reserved": 0, "bike_id": "3252b5d8790581ec808d86eec1f50e36", "fusion_lon": 0.0, "type": "electric_scooter"}, {"rental_uris": {"ios": "https://dc.lft.to/lastmile_qr_scan", "android": "https://dc.lft.to/lastmile_qr_scan"}, "lat": 38.919463666666665, "lon": -77.00329033333334, "fusion_lat": 0.0, "name": "a341f95a8f12ea73eeffd9f939a5ca4f", "is_disabled": 0, "is_reserved": 0, "bike_id": "a341f95a8f12ea73eeffd9f939a5ca4f", "fusion_lon": 0.0, "type": "electric_scooter"}, {"rental_uris": {"ios": "https://dc.lft.to/lastmile_qr_scan", "android": "https://dc.lft.to/lastmile_qr_scan"}, "lat": 38.915639166666665, "lon": -77.01200016666667, "fusion_lat": 0.0, "name": "4f08de559f4241f50c086f6ba77e3e9c", "is_disabled": 0, "is_reserved": 0, "bike_id": "4f08de559f4241f50c086f6ba77e3e9c", "fusion_lon": 0.0, "type": "electric_scooter"}, {"rental_uris": {"ios": "https://dc.lft.to/lastmile_qr_scan", "android": "https://dc.lft.to/lastmile_qr_scan"}, "lat": 38.87866183333333, "lon": -76.96982666666666, "fusion_lat": 0.0, "name": "fb640ccca3950552e8598c4b17108706", "is_disabled": 0, "is_reserved": 0, "bike_id": "fb640ccca3950552e8598c4b17108706", "fusion_lon": 0.0, "type": "electric_scooter"}, {"rental_uris": {"ios": "https://dc.lft.to/lastmile_qr_scan", "android": "https://dc.lft.to/lastmile_qr_scan"}, "lat": 38.87422, "lon": -76.96908933333333, "fusion_lat": 0.0, "name": "e0190e4266cdec387ef658be171eb5af", "is_disabled": 0, "is_reserved": 0, "bike_id": "e0190e4266cdec387ef658be171eb5af", "fusion_lon": 0.0, "type": "electric_scooter"}, {"rental_uris": {"ios": "https://dc.lft.to/lastmile_qr_scan", "android": "https://dc.lft.to/lastmile_qr_scan"}, "lat": 38.88134866666667, "lon": -77.02261183333333, "fusion_lat": 0.0, "name": "4cfcee0cf8d042deb9776784387c66d2", "is_disabled": 0, "is_reserved": 0, "bike_id": "4cfcee0cf8d042deb9776784387c66d2", "fusion_lon": 0.0, "type": "electric_scooter"}, {"rental_uris": {"ios": "https://dc.lft.to/lastmile_qr_scan", "android": "https://dc.lft.to/lastmile_qr_scan"}, "lat": 38.888476, "lon": -76.926812, "fusion_lat": 0.0, "name": "eb09e6da7505138f1f3b4e98cb854899", "is_disabled": 0, "is_reserved": 0, "bike_id": "eb09e6da7505138f1f3b4e98cb854899", "fusion_lon": 0.0, "type": "electric_scooter"}, {"rental_uris": {"ios": "https://dc.lft.to/lastmile_qr_scan", "android": "https://dc.lft.to/lastmile_qr_scan"}, "lat": 38.887434166666665, "lon": -77.0257, "fusion_lat": 0.0, "name": "ffb8f3b899bcf7c30b2c51361a7bee15", "is_disabled": 0, "is_reserved": 0, "bike_id": "ffb8f3b899bcf7c30b2c51361a7bee15", "fusion_lon": 0.0, "type": "electric_scooter"}, {"rental_uris": {"ios": "https://dc.lft.to/lastmile_qr_scan", "android": "https://dc.lft.to/lastmile_qr_scan"}, "lat": 38.926947, "lon": -77.02282283333334, "fusion_lat": 0.0, "name": "5aaffd1599c9fef4c8ba3f8f2720a03e", "is_disabled": 0, "is_reserved": 0, "bike_id": "5aaffd1599c9fef4c8ba3f8f2720a03e", "fusion_lon": 0.0, "type": "electric_scooter"}, {"rental_uris": {"ios": "https://dc.lft.to/lastmile_qr_scan", "android": "https://dc.lft.to/lastmile_qr_scan"}, "lat": 38.912704166666664, "lon": -77.01682066666666, "fusion_lat": 0.0, "name": "ea32d214822fcd5b707ae1e4514a2257", "is_disabled": 0, "is_reserved": 0, "bike_id": "ea32d214822fcd5b707ae1e4514a2257", "fusion_lon": 0.0, "type": "electric_scooter"}, {"rental_uris": {"ios": "https://dc.lft.to/lastmile_qr_scan", "android": "https://dc.lft.to/lastmile_qr_scan"}, "lat": 38.923626, "lon": -77.05045716666666, "fusion_lat": 0.0, "name": "8efc47cceaf9bddf154ecffc218ac997", "is_disabled": 0, "is_reserved": 0, "bike_id": "8efc47cceaf9bddf154ecffc218ac997", "fusion_lon": 0.0, "type": "electric_scooter"}, {"rental_uris": {"ios": "https://dc.lft.to/lastmile_qr_scan", "android": "https://dc.lft.to/lastmile_qr_scan"}, "lat": 38.918802666666664, "lon": -77.0247565, "fusion_lat": 0.0, "name": "518414d79d465903de47d3e348b3c437", "is_disabled": 0, "is_reserved": 0, "bike_id": "518414d79d465903de47d3e348b3c437", "fusion_lon": 0.0, "type": "electric_scooter"}, {"rental_uris": {"ios": "https://dc.lft.to/lastmile_qr_scan", "android": "https://dc.lft.to/lastmile_qr_scan"}, "lat": 38.905195, "lon": -77.01701933333334, "fusion_lat": 0.0, "name": "ad03f52a414fae7bd45496354a6057c4", "is_disabled": 0, "is_reserved": 0, "bike_id": "ad03f52a414fae7bd45496354a6057c4", "fusion_lon": 0.0, "type": "electric_scooter"}, {"rental_uris": {"ios": "https://dc.lft.to/lastmile_qr_scan", "android": "https://dc.lft.to/lastmile_qr_scan"}, "lat": 38.90730883333333, "lon": -77.02373, "fusion_lat": 0.0, "name": "e794cecbafd7a9dbe055c5d1a2250953", "is_disabled": 0, "is_reserved": 0, "bike_id": "e794cecbafd7a9dbe055c5d1a2250953", "fusion_lon": 0.0, "type": "electric_scooter"}, {"rental_uris": {"ios": "https://dc.lft.to/lastmile_qr_scan", "android": "https://dc.lft.to/lastmile_qr_scan"}, "lat": 38.86686566666667, "lon": -76.98573583333334, "fusion_lat": 0.0, "name": "500e6c2f7b68c85b9b480a4efc6b2302", "is_disabled": 0, "is_reserved": 0, "bike_id": "500e6c2f7b68c85b9b480a4efc6b2302", "fusion_lon": 0.0, "type": "electric_scooter"}, {"rental_uris": {"ios": "https://dc.lft.to/lastmile_qr_scan", "android": "https://dc.lft.to/lastmile_qr_scan"}, "lat": 38.92880533333334, "lon": -77.018423, "fusion_lat": 0.0, "name": "b06e58a91fe2d42e4b7f1439f9924dac", "is_disabled": 0, "is_reserved": 0, "bike_id": "b06e58a91fe2d42e4b7f1439f9924dac", "fusion_lon": 0.0, "type": "electric_scooter"}, {"rental_uris": {"ios": "https://dc.lft.to/lastmile_qr_scan", "android": "https://dc.lft.to/lastmile_qr_scan"}, "lat": 38.927284, "lon": -77.02977266666667, "fusion_lat": 0.0, "name": "e15fd600f7adfb24fd70311664d1b030", "is_disabled": 0, "is_reserved": 0, "bike_id": "e15fd600f7adfb24fd70311664d1b030", "fusion_lon": 0.0, "type": "electric_scooter"}, {"rental_uris": {"ios": "https://dc.lft.to/lastmile_qr_scan", "android": "https://dc.lft.to/lastmile_qr_scan"}, "lat": 38.917048666666666, "lon": -77.023468, "fusion_lat": 0.0, "name": "dea47e0457a82493ec6db669cbf22b2d", "is_disabled": 0, "is_reserved": 0, "bike_id": "dea47e0457a82493ec6db669cbf22b2d", "fusion_lon": 0.0, "type": "electric_scooter"}, {"rental_uris": {"ios": "https://dc.lft.to/lastmile_qr_scan", "android": "https://dc.lft.to/lastmile_qr_scan"}, "lat": 38.93350933333333, "lon": -77.04124316666666, "fusion_lat": 0.0, "name": "3085c277eac6cd46bff2f90e5e2bd190", "is_disabled": 0, "is_reserved": 0, "bike_id": "3085c277eac6cd46bff2f90e5e2bd190", "fusion_lon": 0.0, "type": "electric_scooter"}, {"rental_uris": {"ios": "https://dc.lft.to/lastmile_qr_scan", "android": "https://dc.lft.to/lastmile_qr_scan"}, "lat": 38.89844683333333, "lon": -77.02577616666666, "fusion_lat": 0.0, "name": "686a142c43f1dee7f30c60195836d9d6", "is_disabled": 0, "is_reserved": 0, "bike_id": "686a142c43f1dee7f30c60195836d9d6", "fusion_lon": 0.0, "type": "electric_scooter"}, {"rental_uris": {"ios": "https://dc.lft.to/lastmile_qr_scan", "android": "https://dc.lft.to/lastmile_qr_scan"}, "lat": 38.866857333333336, "lon": -76.98571533333333, "fusion_lat": 0.0, "name": "306b99d308fc13deb5bf18284765e527", "is_disabled": 0, "is_reserved": 0, "bike_id": "306b99d308fc13deb5bf18284765e527", "fusion_lon": 0.0, "type": "electric_scooter"}, {"rental_uris": {"ios": "https://dc.lft.to/lastmile_qr_scan", "android": "https://dc.lft.to/lastmile_qr_scan"}, "lat": 38.8624735, "lon": -76.99504066666667, "fusion_lat": 0.0, "name": "5c9c3c3dbfd898e42cf87455937d5071", "is_disabled": 0, "is_reserved": 0, "bike_id": "5c9c3c3dbfd898e42cf87455937d5071", "fusion_lon": 0.0, "type": "electric_scooter"}, {"rental_uris": {"ios": "https://dc.lft.to/lastmile_qr_scan", "android": "https://dc.lft.to/lastmile_qr_scan"}, "lat": 38.800351166666665, "lon": -77.06331, "fusion_lat": 0.0, "name": "7b9eca739f730c5d541fea1d223b3d6b", "is_disabled": 0, "is_reserved": 0, "bike_id": "7b9eca739f730c5d541fea1d223b3d6b", "fusion_lon": 0.0, "type": "electric_bike"}, {"rental_uris": {"ios": "https://dc.lft.to/lastmile_qr_scan", "android": "https://dc.lft.to/lastmile_qr_scan"}, "lat": 38.901276833333334, "lon": -76.9973415, "fusion_lat": 0.0, "name": "6fa3cf52bd6f524deba37b6f1c3d3d12", "is_disabled": 0, "is_reserved": 0, "bike_id": "6fa3cf52bd6f524deba37b6f1c3d3d12", "fusion_lon": 0.0, "type": "electric_scooter"}, {"rental_uris": {"ios": "https://dc.lft.to/lastmile_qr_scan", "android": "https://dc.lft.to/lastmile_qr_scan"}, "lat": 38.933826333333336, "lon": -77.05762916666667, "fusion_lat": 0.0, "name": "2827b35ccb3b8a35a1468c57d5dfa54f", "is_disabled": 0, "is_reserved": 0, "bike_id": "2827b35ccb3b8a35a1468c57d5dfa54f", "fusion_lon": 0.0, "type": "electric_scooter"}, {"rental_uris": {"ios": "https://dc.lft.to/lastmile_qr_scan", "android": "https://dc.lft.to/lastmile_qr_scan"}, "lat": 38.91685483333333, "lon": -77.02382466666667, "fusion_lat": 0.0, "name": "3e3bb46765dd87621303cb93f7a199d9", "is_disabled": 0, "is_reserved": 0, "bike_id": "3e3bb46765dd87621303cb93f7a199d9", "fusion_lon": 0.0, "type": "electric_scooter"}, {"rental_uris": {"ios": "https://dc.lft.to/lastmile_qr_scan", "android": "https://dc.lft.to/lastmile_qr_scan"}, "lat": 38.92387316666667, "lon": -77.0365895, "fusion_lat": 0.0, "name": "f86a34072fefa366c7de5cf4fe11912a", "is_disabled": 0, "is_reserved": 0, "bike_id": "f86a34072fefa366c7de5cf4fe11912a", "fusion_lon": 0.0, "type": "electric_scooter"}, {"rental_uris": {"ios": "https://dc.lft.to/lastmile_qr_scan", "android": "https://dc.lft.to/lastmile_qr_scan"}, "lat": 38.9161725, "lon": -77.03388466666667, "fusion_lat": 0.0, "name": "7dc8e977f4d645e88166b90a387d636e", "is_disabled": 0, "is_reserved": 0, "bike_id": "7dc8e977f4d645e88166b90a387d636e", "fusion_lon": 0.0, "type": "electric_scooter"}, {"rental_uris": {"ios": "https://dc.lft.to/lastmile_qr_scan", "android": "https://dc.lft.to/lastmile_qr_scan"}, "lat": 38.89479516666667, "lon": -76.9486125, "fusion_lat": 0.0, "name": "449bce17f45d93d87bbaa6f1cc5eb279", "is_disabled": 0, "is_reserved": 0, "bike_id": "449bce17f45d93d87bbaa6f1cc5eb279", "fusion_lon": 0.0, "type": "electric_scooter"}, {"rental_uris": {"ios": "https://dc.lft.to/lastmile_qr_scan", "android": "https://dc.lft.to/lastmile_qr_scan"}, "lat": 38.90533383333333, "lon": -77.00691766666667, "fusion_lat": 0.0, "name": "615620482807ea41cd188d2270e55171", "is_disabled": 0, "is_reserved": 0, "bike_id": "615620482807ea41cd188d2270e55171", "fusion_lon": 0.0, "type": "electric_scooter"}, {"rental_uris": {"ios": "https://dc.lft.to/lastmile_qr_scan", "android": "https://dc.lft.to/lastmile_qr_scan"}, "lat": 38.940202, "lon": -76.97608583333333, "fusion_lat": 0.0, "name": "a134d6303755b0b8913d15cf8e67b225", "is_disabled": 0, "is_reserved": 0, "bike_id": "a134d6303755b0b8913d15cf8e67b225", "fusion_lon": 0.0, "type": "electric_scooter"}, {"rental_uris": {"ios": "https://dc.lft.to/lastmile_qr_scan", "android": "https://dc.lft.to/lastmile_qr_scan"}, "lat": 38.9348105, "lon": -77.07260083333334, "fusion_lat": 0.0, "name": "8719fdc84f7e81b07fb296180609aa23", "is_disabled": 0, "is_reserved": 0, "bike_id": "8719fdc84f7e81b07fb296180609aa23", "fusion_lon": 0.0, "type": "electric_scooter"}, {"rental_uris": {"ios": "https://dc.lft.to/lastmile_qr_scan", "android": "https://dc.lft.to/lastmile_qr_scan"}, "lat": 38.9206035, "lon": -77.02300166666667, "fusion_lat": 0.0, "name": "67b4a97e24ed89a084555380e5f07360", "is_disabled": 0, "is_reserved": 0, "bike_id": "67b4a97e24ed89a084555380e5f07360", "fusion_lon": 0.0, "type": "electric_scooter"}, {"rental_uris": {"ios": "https://dc.lft.to/lastmile_qr_scan", "android": "https://dc.lft.to/lastmile_qr_scan"}, "lat": 38.894091333333336, "lon": -77.010853, "fusion_lat": 0.0, "name": "b4a0f2d3a77d89672ac7a8b6a264e819", "is_disabled": 0, "is_reserved": 0, "bike_id": "b4a0f2d3a77d89672ac7a8b6a264e819", "fusion_lon": 0.0, "type": "electric_scooter"}, {"rental_uris": {"ios": "https://dc.lft.to/lastmile_qr_scan", "android": "https://dc.lft.to/lastmile_qr_scan"}, "lat": 38.8770505, "lon": -77.00532666666666, "fusion_lat": 0.0, "name": "189452f56af64d2dd044f6e7f91d9344", "is_disabled": 0, "is_reserved": 0, "bike_id": "189452f56af64d2dd044f6e7f91d9344", "fusion_lon": 0.0, "type": "electric_scooter"}, {"rental_uris": {"ios": "https://dc.lft.to/lastmile_qr_scan", "android": "https://dc.lft.to/lastmile_qr_scan"}, "lat": 38.91709616666667, "lon": -77.04124633333333, "fusion_lat": 0.0, "name": "75bd7b675b20844493341ad338749219", "is_disabled": 0, "is_reserved": 0, "bike_id": "75bd7b675b20844493341ad338749219", "fusion_lon": 0.0, "type": "electric_scooter"}, {"rental_uris": {"ios": "https://dc.lft.to/lastmile_qr_scan", "android": "https://dc.lft.to/lastmile_qr_scan"}, "lat": 38.8924025, "lon": -77.03348416666667, "fusion_lat": 0.0, "name": "30ed1e64647b604d049ad2d8e2a34288", "is_disabled": 0, "is_reserved": 0, "bike_id": "30ed1e64647b604d049ad2d8e2a34288", "fusion_lon": 0.0, "type": "electric_scooter"}, {"rental_uris": {"ios": "https://dc.lft.to/lastmile_qr_scan", "android": "https://dc.lft.to/lastmile_qr_scan"}, "lat": 38.897526, "lon": -77.02749333333334, "fusion_lat": 0.0, "name": "27c4e5f988126f334e5e27549bd2ebfc", "is_disabled": 0, "is_reserved": 0, "bike_id": "27c4e5f988126f334e5e27549bd2ebfc", "fusion_lon": 0.0, "type": "electric_scooter"}, {"rental_uris": {"ios": "https://dc.lft.to/lastmile_qr_scan", "android": "https://dc.lft.to/lastmile_qr_scan"}, "lat": 38.906487166666665, "lon": -77.048681, "fusion_lat": 0.0, "name": "2336897d292c58919c6926ed2f6e2b49", "is_disabled": 0, "is_reserved": 0, "bike_id": "2336897d292c58919c6926ed2f6e2b49", "fusion_lon": 0.0, "type": "electric_scooter"}, {"rental_uris": {"ios": "https://dc.lft.to/lastmile_qr_scan", "android": "https://dc.lft.to/lastmile_qr_scan"}, "lat": 38.91817483333333, "lon": -77.02695316666667, "fusion_lat": 0.0, "name": "995e0fc1df19b7eeab8dcfdebd3bf19d", "is_disabled": 0, "is_reserved": 0, "bike_id": "995e0fc1df19b7eeab8dcfdebd3bf19d", "fusion_lon": 0.0, "type": "electric_scooter"}, {"rental_uris": {"ios": "https://dc.lft.to/lastmile_qr_scan", "android": "https://dc.lft.to/lastmile_qr_scan"}, "lat": 38.965044166666665, "lon": -77.00198, "fusion_lat": 0.0, "name": "8c0528505c66492b4859de8433abf62f", "is_disabled": 0, "is_reserved": 0, "bike_id": "8c0528505c66492b4859de8433abf62f", "fusion_lon": 0.0, "type": "electric_scooter"}, {"rental_uris": {"ios": "https://dc.lft.to/lastmile_qr_scan", "android": "https://dc.lft.to/lastmile_qr_scan"}, "lat": 38.9215665, "lon": -77.03258966666667, "fusion_lat": 0.0, "name": "4677123ac2cf4faeb7bc80bd067b2e6a", "is_disabled": 0, "is_reserved": 0, "bike_id": "4677123ac2cf4faeb7bc80bd067b2e6a", "fusion_lon": 0.0, "type": "electric_scooter"}, {"rental_uris": {"ios": "https://dc.lft.to/lastmile_qr_scan", "android": "https://dc.lft.to/lastmile_qr_scan"}, "lat": 38.910767166666666, "lon": -77.02209783333333, "fusion_lat": 0.0, "name": "2c45919e91cef22f60a43a9ec6e816bc", "is_disabled": 0, "is_reserved": 0, "bike_id": "2c45919e91cef22f60a43a9ec6e816bc", "fusion_lon": 0.0, "type": "electric_scooter"}, {"rental_uris": {"ios": "https://dc.lft.to/lastmile_qr_scan", "android": "https://dc.lft.to/lastmile_qr_scan"}, "lat": 38.917570833333336, "lon": -77.047654, "fusion_lat": 0.0, "name": "cc66ff68f706f7112910bc3c9ad676f1", "is_disabled": 0, "is_reserved": 0, "bike_id": "cc66ff68f706f7112910bc3c9ad676f1", "fusion_lon": 0.0, "type": "electric_scooter"}, {"rental_uris": {"ios": "https://dc.lft.to/lastmile_qr_scan", "android": "https://dc.lft.to/lastmile_qr_scan"}, "lat": 38.901514, "lon": -77.05912383333333, "fusion_lat": 0.0, "name": "53d2e36df5b5ba75f75550e38171da25", "is_disabled": 0, "is_reserved": 0, "bike_id": "53d2e36df5b5ba75f75550e38171da25", "fusion_lon": 0.0, "type": "electric_scooter"}, {"rental_uris": {"ios": "https://dc.lft.to/lastmile_qr_scan", "android": "https://dc.lft.to/lastmile_qr_scan"}, "lat": 38.88390283333333, "lon": -77.01563616666667, "fusion_lat": 0.0, "name": "babcb50ec161bb4c21f215d59d206936", "is_disabled": 0, "is_reserved": 0, "bike_id": "babcb50ec161bb4c21f215d59d206936", "fusion_lon": 0.0, "type": "electric_scooter"}, {"rental_uris": {"ios": "https://dc.lft.to/lastmile_qr_scan", "android": "https://dc.lft.to/lastmile_qr_scan"}, "lat": 38.907315833333335, "lon": -77.023744, "fusion_lat": 0.0, "name": "246662aeda45ea6d4ef754fe8c90fac8", "is_disabled": 0, "is_reserved": 0, "bike_id": "246662aeda45ea6d4ef754fe8c90fac8", "fusion_lon": 0.0, "type": "electric_scooter"}, {"rental_uris": {"ios": "https://dc.lft.to/lastmile_qr_scan", "android": "https://dc.lft.to/lastmile_qr_scan"}, "lat": 38.92338683333333, "lon": -77.04133866666666, "fusion_lat": 0.0, "name": "ad9a94a76f2ebbb3863c70419fe5915b", "is_disabled": 0, "is_reserved": 0, "bike_id": "ad9a94a76f2ebbb3863c70419fe5915b", "fusion_lon": 0.0, "type": "electric_scooter"}, {"rental_uris": {"ios": "https://dc.lft.to/lastmile_qr_scan", "android": "https://dc.lft.to/lastmile_qr_scan"}, "lat": 38.84434316666667, "lon": -76.998678, "fusion_lat": 0.0, "name": "69ec4bd70939cff8111d6c0783c5507d", "is_disabled": 0, "is_reserved": 0, "bike_id": "69ec4bd70939cff8111d6c0783c5507d", "fusion_lon": 0.0, "type": "electric_scooter"}, {"rental_uris": {"ios": "https://dc.lft.to/lastmile_qr_scan", "android": "https://dc.lft.to/lastmile_qr_scan"}, "lat": 38.9024345, "lon": -77.0019745, "fusion_lat": 0.0, "name": "e8b3debc29529a0718807afe2722e092", "is_disabled": 0, "is_reserved": 0, "bike_id": "e8b3debc29529a0718807afe2722e092", "fusion_lon": 0.0, "type": "electric_scooter"}, {"rental_uris": {"ios": "https://dc.lft.to/lastmile_qr_scan", "android": "https://dc.lft.to/lastmile_qr_scan"}, "lat": 38.914634, "lon": -77.04592833333334, "fusion_lat": 0.0, "name": "8f9913b70b5665e2cd79ea1acd0fb357", "is_disabled": 0, "is_reserved": 0, "bike_id": "8f9913b70b5665e2cd79ea1acd0fb357", "fusion_lon": 0.0, "type": "electric_scooter"}, {"rental_uris": {"ios": "https://dc.lft.to/lastmile_qr_scan", "android": "https://dc.lft.to/lastmile_qr_scan"}, "lat": 38.90441783333333, "lon": -77.04843233333334, "fusion_lat": 0.0, "name": "61287e2ec1a9c03a409deabc7ebe2e25", "is_disabled": 0, "is_reserved": 0, "bike_id": "61287e2ec1a9c03a409deabc7ebe2e25", "fusion_lon": 0.0, "type": "electric_scooter"}, {"rental_uris": {"ios": "https://dc.lft.to/lastmile_qr_scan", "android": "https://dc.lft.to/lastmile_qr_scan"}, "lat": 38.90860333333333, "lon": -76.99959866666667, "fusion_lat": 0.0, "name": "c751b8d17969dc6b5c4647228da9ee74", "is_disabled": 0, "is_reserved": 0, "bike_id": "c751b8d17969dc6b5c4647228da9ee74", "fusion_lon": 0.0, "type": "electric_scooter"}, {"rental_uris": {"ios": "https://dc.lft.to/lastmile_qr_scan", "android": "https://dc.lft.to/lastmile_qr_scan"}, "lat": 38.9204405, "lon": -77.040789, "fusion_lat": 0.0, "name": "5cecc4f0608abc8bd93a9405ff5f6ecd", "is_disabled": 0, "is_reserved": 0, "bike_id": "5cecc4f0608abc8bd93a9405ff5f6ecd", "fusion_lon": 0.0, "type": "electric_scooter"}, {"rental_uris": {"ios": "https://dc.lft.to/lastmile_qr_scan", "android": "https://dc.lft.to/lastmile_qr_scan"}, "lat": 39.0243825, "lon": -77.130979, "fusion_lat": 0.0, "name": "ddd9c27e40fe7f561b63bb6a7f3d1f3a", "is_disabled": 0, "is_reserved": 0, "bike_id": "ddd9c27e40fe7f561b63bb6a7f3d1f3a", "fusion_lon": 0.0, "type": "electric_bike"}, {"rental_uris": {"ios": "https://dc.lft.to/lastmile_qr_scan", "android": "https://dc.lft.to/lastmile_qr_scan"}, "lat": 38.90984066666667, "lon": -77.032068, "fusion_lat": 0.0, "name": "11b225c5ee90d29f4b9f9e89a8318232", "is_disabled": 0, "is_reserved": 0, "bike_id": "11b225c5ee90d29f4b9f9e89a8318232", "fusion_lon": 0.0, "type": "electric_scooter"}, {"rental_uris": {"ios": "https://dc.lft.to/lastmile_qr_scan", "android": "https://dc.lft.to/lastmile_qr_scan"}, "lat": 38.934594, "lon": -76.96444383333333, "fusion_lat": 0.0, "name": "7868555ced2bfebdb6f1e9cdd9d30118", "is_disabled": 0, "is_reserved": 0, "bike_id": "7868555ced2bfebdb6f1e9cdd9d30118", "fusion_lon": 0.0, "type": "electric_scooter"}, {"rental_uris": {"ios": "https://dc.lft.to/lastmile_qr_scan", "android": "https://dc.lft.to/lastmile_qr_scan"}, "lat": 38.902123833333334, "lon": -77.01958183333333, "fusion_lat": 0.0, "name": "b363dc56630481e216da2fcd3bef46ef", "is_disabled": 0, "is_reserved": 0, "bike_id": "b363dc56630481e216da2fcd3bef46ef", "fusion_lon": 0.0, "type": "electric_scooter"}, {"rental_uris": {"ios": "https://dc.lft.to/lastmile_qr_scan", "android": "https://dc.lft.to/lastmile_qr_scan"}, "lat": 38.91497233333333, "lon": -77.04561383333333, "fusion_lat": 0.0, "name": "15ec7543d111cb997c1701cfe41ee8e5", "is_disabled": 0, "is_reserved": 0, "bike_id": "15ec7543d111cb997c1701cfe41ee8e5", "fusion_lon": 0.0, "type": "electric_scooter"}, {"rental_uris": {"ios": "https://dc.lft.to/lastmile_qr_scan", "android": "https://dc.lft.to/lastmile_qr_scan"}, "lat": 38.91784166666667, "lon": -77.02308133333334, "fusion_lat": 0.0, "name": "6ad86b3e8312bff6e834734b5ac76ae6", "is_disabled": 0, "is_reserved": 0, "bike_id": "6ad86b3e8312bff6e834734b5ac76ae6", "fusion_lon": 0.0, "type": "electric_scooter"}, {"rental_uris": {"ios": "https://dc.lft.to/lastmile_qr_scan", "android": "https://dc.lft.to/lastmile_qr_scan"}, "lat": 38.89612783333333, "lon": -77.04449583333333, "fusion_lat": 0.0, "name": "507718d8aee74987299638f70cdac239", "is_disabled": 0, "is_reserved": 0, "bike_id": "507718d8aee74987299638f70cdac239", "fusion_lon": 0.0, "type": "electric_scooter"}, {"rental_uris": {"ios": "https://dc.lft.to/lastmile_qr_scan", "android": "https://dc.lft.to/lastmile_qr_scan"}, "lat": 38.86704433333333, "lon": -76.98710633333333, "fusion_lat": 0.0, "name": "dcf1f882d11f85c6b298a1b20f6aa04a", "is_disabled": 0, "is_reserved": 0, "bike_id": "dcf1f882d11f85c6b298a1b20f6aa04a", "fusion_lon": 0.0, "type": "electric_scooter"}, {"rental_uris": {"ios": "https://dc.lft.to/lastmile_qr_scan", "android": "https://dc.lft.to/lastmile_qr_scan"}, "lat": 38.930906666666665, "lon": -77.0374435, "fusion_lat": 0.0, "name": "7a794ca6df23773e3858e76535305700", "is_disabled": 0, "is_reserved": 0, "bike_id": "7a794ca6df23773e3858e76535305700", "fusion_lon": 0.0, "type": "electric_scooter"}, {"rental_uris": {"ios": "https://dc.lft.to/lastmile_qr_scan", "android": "https://dc.lft.to/lastmile_qr_scan"}, "lat": 38.898464833333335, "lon": -77.05296416666667, "fusion_lat": 0.0, "name": "e9810daa4c2a0dea36025bab572ba319", "is_disabled": 0, "is_reserved": 0, "bike_id": "e9810daa4c2a0dea36025bab572ba319", "fusion_lon": 0.0, "type": "electric_bike"}, {"rental_uris": {"ios": "https://dc.lft.to/lastmile_qr_scan", "android": "https://dc.lft.to/lastmile_qr_scan"}, "lat": 38.917064, "lon": -77.02874033333333, "fusion_lat": 0.0, "name": "ade70de7293cd95e430c62fce8faa149", "is_disabled": 0, "is_reserved": 0, "bike_id": "ade70de7293cd95e430c62fce8faa149", "fusion_lon": 0.0, "type": "electric_scooter"}, {"rental_uris": {"ios": "https://dc.lft.to/lastmile_qr_scan", "android": "https://dc.lft.to/lastmile_qr_scan"}, "lat": 38.93139166666667, "lon": -77.042477, "fusion_lat": 0.0, "name": "75f83586c02be2d6da7cbb1175c42340", "is_disabled": 0, "is_reserved": 0, "bike_id": "75f83586c02be2d6da7cbb1175c42340", "fusion_lon": 0.0, "type": "electric_scooter"}, {"rental_uris": {"ios": "https://dc.lft.to/lastmile_qr_scan", "android": "https://dc.lft.to/lastmile_qr_scan"}, "lat": 38.8922245, "lon": -77.04366366666666, "fusion_lat": 0.0, "name": "e21786e2a8122020551e787bab1b383d", "is_disabled": 0, "is_reserved": 0, "bike_id": "e21786e2a8122020551e787bab1b383d", "fusion_lon": 0.0, "type": "electric_scooter"}, {"rental_uris": {"ios": "https://dc.lft.to/lastmile_qr_scan", "android": "https://dc.lft.to/lastmile_qr_scan"}, "lat": 38.9191455, "lon": -77.033356, "fusion_lat": 0.0, "name": "e1d8874cbcb4909bcffd24f5e6a0f7e3", "is_disabled": 0, "is_reserved": 0, "bike_id": "e1d8874cbcb4909bcffd24f5e6a0f7e3", "fusion_lon": 0.0, "type": "electric_scooter"}, {"rental_uris": {"ios": "https://dc.lft.to/lastmile_qr_scan", "android": "https://dc.lft.to/lastmile_qr_scan"}, "lat": 38.920004, "lon": -77.02170133333334, "fusion_lat": 0.0, "name": "1135497e3bde473e57185cd5e173af93", "is_disabled": 0, "is_reserved": 0, "bike_id": "1135497e3bde473e57185cd5e173af93", "fusion_lon": 0.0, "type": "electric_scooter"}, {"rental_uris": {"ios": "https://dc.lft.to/lastmile_qr_scan", "android": "https://dc.lft.to/lastmile_qr_scan"}, "lat": 38.898643, "lon": -76.94639383333333, "fusion_lat": 0.0, "name": "d06f1bc2beacde9bf774ef57e9b5dbd7", "is_disabled": 0, "is_reserved": 0, "bike_id": "d06f1bc2beacde9bf774ef57e9b5dbd7", "fusion_lon": 0.0, "type": "electric_scooter"}, {"rental_uris": {"ios": "https://dc.lft.to/lastmile_qr_scan", "android": "https://dc.lft.to/lastmile_qr_scan"}, "lat": 38.894805833333336, "lon": -76.94858933333333, "fusion_lat": 0.0, "name": "0f8f9d42716fe4cb77c5de0095c26614", "is_disabled": 0, "is_reserved": 0, "bike_id": "0f8f9d42716fe4cb77c5de0095c26614", "fusion_lon": 0.0, "type": "electric_scooter"}, {"rental_uris": {"ios": "https://dc.lft.to/lastmile_qr_scan", "android": "https://dc.lft.to/lastmile_qr_scan"}, "lat": 38.907318, "lon": -77.02318833333334, "fusion_lat": 0.0, "name": "26538a4d3dd4ff2af52304e75b100b0e", "is_disabled": 0, "is_reserved": 0, "bike_id": "26538a4d3dd4ff2af52304e75b100b0e", "fusion_lon": 0.0, "type": "electric_scooter"}, {"rental_uris": {"ios": "https://dc.lft.to/lastmile_qr_scan", "android": "https://dc.lft.to/lastmile_qr_scan"}, "lat": 38.952834833333334, "lon": -77.01793416666666, "fusion_lat": 0.0, "name": "c84f820692b86d08bda13259fb880470", "is_disabled": 0, "is_reserved": 0, "bike_id": "c84f820692b86d08bda13259fb880470", "fusion_lon": 0.0, "type": "electric_scooter"}, {"rental_uris": {"ios": "https://dc.lft.to/lastmile_qr_scan", "android": "https://dc.lft.to/lastmile_qr_scan"}, "lat": 38.906246333333335, "lon": -77.04884383333334, "fusion_lat": 0.0, "name": "882b38e43a9d15d403ebb42fc82096db", "is_disabled": 0, "is_reserved": 0, "bike_id": "882b38e43a9d15d403ebb42fc82096db", "fusion_lon": 0.0, "type": "electric_scooter"}, {"rental_uris": {"ios": "https://dc.lft.to/lastmile_qr_scan", "android": "https://dc.lft.to/lastmile_qr_scan"}, "lat": 38.91616483333333, "lon": -77.023084, "fusion_lat": 0.0, "name": "d6eb7fec1bf0d0154f11d53301eede3e", "is_disabled": 0, "is_reserved": 0, "bike_id": "d6eb7fec1bf0d0154f11d53301eede3e", "fusion_lon": 0.0, "type": "electric_scooter"}, {"rental_uris": {"ios": "https://dc.lft.to/lastmile_qr_scan", "android": "https://dc.lft.to/lastmile_qr_scan"}, "lat": 38.8748435, "lon": -76.96521716666666, "fusion_lat": 0.0, "name": "e75323fcaf72a5c20c8c33ef45c66b10", "is_disabled": 0, "is_reserved": 0, "bike_id": "e75323fcaf72a5c20c8c33ef45c66b10", "fusion_lon": 0.0, "type": "electric_bike"}, {"rental_uris": {"ios": "https://dc.lft.to/lastmile_qr_scan", "android": "https://dc.lft.to/lastmile_qr_scan"}, "lat": 38.8994845, "lon": -77.07178916666666, "fusion_lat": 0.0, "name": "e8f810c236bd5ebb7205323bcbfa35fe", "is_disabled": 0, "is_reserved": 0, "bike_id": "e8f810c236bd5ebb7205323bcbfa35fe", "fusion_lon": 0.0, "type": "electric_scooter"}, {"rental_uris": {"ios": "https://dc.lft.to/lastmile_qr_scan", "android": "https://dc.lft.to/lastmile_qr_scan"}, "lat": 38.9042725, "lon": -76.97908216666667, "fusion_lat": 0.0, "name": "e25c612b8e27ac204458e610c913241a", "is_disabled": 0, "is_reserved": 0, "bike_id": "e25c612b8e27ac204458e610c913241a", "fusion_lon": 0.0, "type": "electric_scooter"}, {"rental_uris": {"ios": "https://dc.lft.to/lastmile_qr_scan", "android": "https://dc.lft.to/lastmile_qr_scan"}, "lat": 38.928792, "lon": -77.03341466666667, "fusion_lat": 0.0, "name": "3b68b0ec321310733db3404bc1a8de5c", "is_disabled": 0, "is_reserved": 0, "bike_id": "3b68b0ec321310733db3404bc1a8de5c", "fusion_lon": 0.0, "type": "electric_scooter"}, {"rental_uris": {"ios": "https://dc.lft.to/lastmile_qr_scan", "android": "https://dc.lft.to/lastmile_qr_scan"}, "lat": 38.87833916666666, "lon": -77.00789983333334, "fusion_lat": 0.0, "name": "88578b3b5411aaeda9535af68c0fe289", "is_disabled": 0, "is_reserved": 0, "bike_id": "88578b3b5411aaeda9535af68c0fe289", "fusion_lon": 0.0, "type": "electric_scooter"}, {"rental_uris": {"ios": "https://dc.lft.to/lastmile_qr_scan", "android": "https://dc.lft.to/lastmile_qr_scan"}, "lat": 38.9321305, "lon": -77.032657, "fusion_lat": 0.0, "name": "914245f1189bf617a7eb553aeb0cf0e6", "is_disabled": 0, "is_reserved": 0, "bike_id": "914245f1189bf617a7eb553aeb0cf0e6", "fusion_lon": 0.0, "type": "electric_scooter"}, {"rental_uris": {"ios": "https://dc.lft.to/lastmile_qr_scan", "android": "https://dc.lft.to/lastmile_qr_scan"}, "lat": 38.89245183333333, "lon": -77.0502545, "fusion_lat": 0.0, "name": "d02398313d65de243836accef7006d80", "is_disabled": 0, "is_reserved": 0, "bike_id": "d02398313d65de243836accef7006d80", "fusion_lon": 0.0, "type": "electric_scooter"}, {"rental_uris": {"ios": "https://dc.lft.to/lastmile_qr_scan", "android": "https://dc.lft.to/lastmile_qr_scan"}, "lat": 38.907635, "lon": -77.016939, "fusion_lat": 0.0, "name": "eabd47db7ee22328deb402242a596961", "is_disabled": 0, "is_reserved": 0, "bike_id": "eabd47db7ee22328deb402242a596961", "fusion_lon": 0.0, "type": "electric_scooter"}, {"rental_uris": {"ios": "https://dc.lft.to/lastmile_qr_scan", "android": "https://dc.lft.to/lastmile_qr_scan"}, "lat": 38.90129316666667, "lon": -77.04234883333334, "fusion_lat": 0.0, "name": "32ba63c15ea07b8759589fd1a8f263d3", "is_disabled": 0, "is_reserved": 0, "bike_id": "32ba63c15ea07b8759589fd1a8f263d3", "fusion_lon": 0.0, "type": "electric_scooter"}, {"rental_uris": {"ios": "https://dc.lft.to/lastmile_qr_scan", "android": "https://dc.lft.to/lastmile_qr_scan"}, "lat": 38.922230666666664, "lon": -77.0345165, "fusion_lat": 0.0, "name": "7d42add964ce578183dca1c3a07eb64d", "is_disabled": 0, "is_reserved": 0, "bike_id": "7d42add964ce578183dca1c3a07eb64d", "fusion_lon": 0.0, "type": "electric_scooter"}, {"rental_uris": {"ios": "https://dc.lft.to/lastmile_qr_scan", "android": "https://dc.lft.to/lastmile_qr_scan"}, "lat": 38.90721766666667, "lon": -77.02264633333333, "fusion_lat": 0.0, "name": "f4c958cd06cee0e9c4b1b7dbec3057dc", "is_disabled": 0, "is_reserved": 0, "bike_id": "f4c958cd06cee0e9c4b1b7dbec3057dc", "fusion_lon": 0.0, "type": "electric_scooter"}, {"rental_uris": {"ios": "https://dc.lft.to/lastmile_qr_scan", "android": "https://dc.lft.to/lastmile_qr_scan"}, "lat": 38.921203166666665, "lon": -77.03657766666667, "fusion_lat": 0.0, "name": "602f00b9b012dfc9dffb21c34764cc67", "is_disabled": 0, "is_reserved": 0, "bike_id": "602f00b9b012dfc9dffb21c34764cc67", "fusion_lon": 0.0, "type": "electric_scooter"}, {"rental_uris": {"ios": "https://dc.lft.to/lastmile_qr_scan", "android": "https://dc.lft.to/lastmile_qr_scan"}, "lat": 39.039928, "lon": -76.999221, "fusion_lat": 0.0, "name": "c04bfdb622122916ecae89723e84b219", "is_disabled": 0, "is_reserved": 0, "bike_id": "c04bfdb622122916ecae89723e84b219", "fusion_lon": 0.0, "type": "electric_bike"}, {"rental_uris": {"ios": "https://dc.lft.to/lastmile_qr_scan", "android": "https://dc.lft.to/lastmile_qr_scan"}, "lat": 38.91740183333334, "lon": -77.0318895, "fusion_lat": 0.0, "name": "c81083efeb9d90ea6f567ceacb8d53e5", "is_disabled": 0, "is_reserved": 0, "bike_id": "c81083efeb9d90ea6f567ceacb8d53e5", "fusion_lon": 0.0, "type": "electric_scooter"}, {"rental_uris": {"ios": "https://dc.lft.to/lastmile_qr_scan", "android": "https://dc.lft.to/lastmile_qr_scan"}, "lat": 38.916164, "lon": -77.0483615, "fusion_lat": 0.0, "name": "1929c7a1d8b8af4e40dd14054c9210bd", "is_disabled": 0, "is_reserved": 0, "bike_id": "1929c7a1d8b8af4e40dd14054c9210bd", "fusion_lon": 0.0, "type": "electric_scooter"}, {"rental_uris": {"ios": "https://dc.lft.to/lastmile_qr_scan", "android": "https://dc.lft.to/lastmile_qr_scan"}, "lat": 38.88820183333333, "lon": -76.93009566666667, "fusion_lat": 0.0, "name": "c1219c46f105a58fb1e826fd9c3fc825", "is_disabled": 0, "is_reserved": 0, "bike_id": "c1219c46f105a58fb1e826fd9c3fc825", "fusion_lon": 0.0, "type": "electric_scooter"}, {"rental_uris": {"ios": "https://dc.lft.to/lastmile_qr_scan", "android": "https://dc.lft.to/lastmile_qr_scan"}, "lat": 38.923842, "lon": -77.03003033333333, "fusion_lat": 0.0, "name": "fb2a5ea2e99e0566c58b95bae4116100", "is_disabled": 0, "is_reserved": 0, "bike_id": "fb2a5ea2e99e0566c58b95bae4116100", "fusion_lon": 0.0, "type": "electric_bike"}, {"rental_uris": {"ios": "https://dc.lft.to/lastmile_qr_scan", "android": "https://dc.lft.to/lastmile_qr_scan"}, "lat": 38.90051016666666, "lon": -77.03653883333334, "fusion_lat": 0.0, "name": "610702263359f557a6d3d05873df656b", "is_disabled": 0, "is_reserved": 0, "bike_id": "610702263359f557a6d3d05873df656b", "fusion_lon": 0.0, "type": "electric_scooter"}, {"rental_uris": {"ios": "https://dc.lft.to/lastmile_qr_scan", "android": "https://dc.lft.to/lastmile_qr_scan"}, "lat": 38.9235015, "lon": -77.03497283333333, "fusion_lat": 0.0, "name": "7156669ffc3d225dac8de56a6252535b", "is_disabled": 0, "is_reserved": 0, "bike_id": "7156669ffc3d225dac8de56a6252535b", "fusion_lon": 0.0, "type": "electric_scooter"}, {"rental_uris": {"ios": "https://dc.lft.to/lastmile_qr_scan", "android": "https://dc.lft.to/lastmile_qr_scan"}, "lat": 38.929271166666666, "lon": -77.03274533333334, "fusion_lat": 0.0, "name": "72e628d6f188995a8bd719cb703aa6f4", "is_disabled": 0, "is_reserved": 0, "bike_id": "72e628d6f188995a8bd719cb703aa6f4", "fusion_lon": 0.0, "type": "electric_scooter"}, {"rental_uris": {"ios": "https://dc.lft.to/lastmile_qr_scan", "android": "https://dc.lft.to/lastmile_qr_scan"}, "lat": 38.901282333333334, "lon": -77.04361216666666, "fusion_lat": 0.0, "name": "c6ce8d75f5b1533312c72158e42703d5", "is_disabled": 0, "is_reserved": 0, "bike_id": "c6ce8d75f5b1533312c72158e42703d5", "fusion_lon": 0.0, "type": "electric_scooter"}, {"rental_uris": {"ios": "https://dc.lft.to/lastmile_qr_scan", "android": "https://dc.lft.to/lastmile_qr_scan"}, "lat": 38.932447, "lon": -76.99511016666666, "fusion_lat": 0.0, "name": "ff9741b77c3ae5c60afa0ad07180ef5e", "is_disabled": 0, "is_reserved": 0, "bike_id": "ff9741b77c3ae5c60afa0ad07180ef5e", "fusion_lon": 0.0, "type": "electric_scooter"}, {"rental_uris": {"ios": "https://dc.lft.to/lastmile_qr_scan", "android": "https://dc.lft.to/lastmile_qr_scan"}, "lat": 38.9396825, "lon": -77.02728933333333, "fusion_lat": 0.0, "name": "5db3169bd4b332689b2c7eaebaccce76", "is_disabled": 0, "is_reserved": 0, "bike_id": "5db3169bd4b332689b2c7eaebaccce76", "fusion_lon": 0.0, "type": "electric_scooter"}, {"rental_uris": {"ios": "https://dc.lft.to/lastmile_qr_scan", "android": "https://dc.lft.to/lastmile_qr_scan"}, "lat": 38.900321166666664, "lon": -77.02702466666666, "fusion_lat": 0.0, "name": "b23f8ca5262afed53626dbfb8da5d9c7", "is_disabled": 0, "is_reserved": 0, "bike_id": "b23f8ca5262afed53626dbfb8da5d9c7", "fusion_lon": 0.0, "type": "electric_scooter"}, {"rental_uris": {"ios": "https://dc.lft.to/lastmile_qr_scan", "android": "https://dc.lft.to/lastmile_qr_scan"}, "lat": 38.91665716666667, "lon": -77.032074, "fusion_lat": 0.0, "name": "7cc6dbe3aea63b9516d675ac73bd5d50", "is_disabled": 0, "is_reserved": 0, "bike_id": "7cc6dbe3aea63b9516d675ac73bd5d50", "fusion_lon": 0.0, "type": "electric_scooter"}, {"rental_uris": {"ios": "https://dc.lft.to/lastmile_qr_scan", "android": "https://dc.lft.to/lastmile_qr_scan"}, "lat": 38.896663, "lon": -76.9321015, "fusion_lat": 0.0, "name": "b340197a51dce78d66bb60a9f95c26de", "is_disabled": 0, "is_reserved": 0, "bike_id": "b340197a51dce78d66bb60a9f95c26de", "fusion_lon": 0.0, "type": "electric_scooter"}, {"rental_uris": {"ios": "https://dc.lft.to/lastmile_qr_scan", "android": "https://dc.lft.to/lastmile_qr_scan"}, "lat": 38.907318333333336, "lon": -77.02375433333333, "fusion_lat": 0.0, "name": "41c3be1b5bc933e26d8abbaf1d6802ab", "is_disabled": 0, "is_reserved": 0, "bike_id": "41c3be1b5bc933e26d8abbaf1d6802ab", "fusion_lon": 0.0, "type": "electric_scooter"}, {"rental_uris": {"ios": "https://dc.lft.to/lastmile_qr_scan", "android": "https://dc.lft.to/lastmile_qr_scan"}, "lat": 38.903679333333336, "lon": -77.04677616666666, "fusion_lat": 0.0, "name": "4ab84e1720b80d46742d0f5332760d73", "is_disabled": 0, "is_reserved": 0, "bike_id": "4ab84e1720b80d46742d0f5332760d73", "fusion_lon": 0.0, "type": "electric_scooter"}, {"rental_uris": {"ios": "https://dc.lft.to/lastmile_qr_scan", "android": "https://dc.lft.to/lastmile_qr_scan"}, "lat": 38.92427583333333, "lon": -77.01962233333333, "fusion_lat": 0.0, "name": "4d89e73eb857cfbfffe7da99e0209452", "is_disabled": 0, "is_reserved": 0, "bike_id": "4d89e73eb857cfbfffe7da99e0209452", "fusion_lon": 0.0, "type": "electric_scooter"}, {"rental_uris": {"ios": "https://dc.lft.to/lastmile_qr_scan", "android": "https://dc.lft.to/lastmile_qr_scan"}, "lat": 38.90609833333333, "lon": -77.0413585, "fusion_lat": 0.0, "name": "b5643b3384d321984fb6fc1f0065a979", "is_disabled": 0, "is_reserved": 0, "bike_id": "b5643b3384d321984fb6fc1f0065a979", "fusion_lon": 0.0, "type": "electric_scooter"}, {"rental_uris": {"ios": "https://dc.lft.to/lastmile_qr_scan", "android": "https://dc.lft.to/lastmile_qr_scan"}, "lat": 38.90863616666667, "lon": -77.02455183333333, "fusion_lat": 0.0, "name": "18c7b3a02d8325d9576c94c864c5a24d", "is_disabled": 0, "is_reserved": 0, "bike_id": "18c7b3a02d8325d9576c94c864c5a24d", "fusion_lon": 0.0, "type": "electric_scooter"}, {"rental_uris": {"ios": "https://dc.lft.to/lastmile_qr_scan", "android": "https://dc.lft.to/lastmile_qr_scan"}, "lat": 38.892217333333335, "lon": -77.03168483333333, "fusion_lat": 0.0, "name": "f4638e5330eb6a6ce18d34bc6bd20fea", "is_disabled": 0, "is_reserved": 0, "bike_id": "f4638e5330eb6a6ce18d34bc6bd20fea", "fusion_lon": 0.0, "type": "electric_scooter"}, {"rental_uris": {"ios": "https://dc.lft.to/lastmile_qr_scan", "android": "https://dc.lft.to/lastmile_qr_scan"}, "lat": 38.907310833333334, "lon": -77.00069683333334, "fusion_lat": 0.0, "name": "555c447959cdea80e730463c23671995", "is_disabled": 0, "is_reserved": 0, "bike_id": "555c447959cdea80e730463c23671995", "fusion_lon": 0.0, "type": "electric_scooter"}, {"rental_uris": {"ios": "https://dc.lft.to/lastmile_qr_scan", "android": "https://dc.lft.to/lastmile_qr_scan"}, "lat": 38.93273116666667, "lon": -77.034967, "fusion_lat": 0.0, "name": "c4e80176ddcb270e3f2b36544b31f443", "is_disabled": 0, "is_reserved": 0, "bike_id": "c4e80176ddcb270e3f2b36544b31f443", "fusion_lon": 0.0, "type": "electric_scooter"}, {"rental_uris": {"ios": "https://dc.lft.to/lastmile_qr_scan", "android": "https://dc.lft.to/lastmile_qr_scan"}, "lat": 38.903969833333335, "lon": -77.065063, "fusion_lat": 0.0, "name": "30b3706bc494312cc275f1f3c38a14c8", "is_disabled": 0, "is_reserved": 0, "bike_id": "30b3706bc494312cc275f1f3c38a14c8", "fusion_lon": 0.0, "type": "electric_scooter"}, {"rental_uris": {"ios": "https://dc.lft.to/lastmile_qr_scan", "android": "https://dc.lft.to/lastmile_qr_scan"}, "lat": 38.938235666666664, "lon": -77.071645, "fusion_lat": 0.0, "name": "982d3ff5da7b802c65218c3d3ca4b356", "is_disabled": 0, "is_reserved": 0, "bike_id": "982d3ff5da7b802c65218c3d3ca4b356", "fusion_lon": 0.0, "type": "electric_scooter"}, {"rental_uris": {"ios": "https://dc.lft.to/lastmile_qr_scan", "android": "https://dc.lft.to/lastmile_qr_scan"}, "lat": 38.9236345, "lon": -77.0504715, "fusion_lat": 0.0, "name": "18ad77be16554688bcf353438267cf95", "is_disabled": 0, "is_reserved": 0, "bike_id": "18ad77be16554688bcf353438267cf95", "fusion_lon": 0.0, "type": "electric_scooter"}, {"rental_uris": {"ios": "https://dc.lft.to/lastmile_qr_scan", "android": "https://dc.lft.to/lastmile_qr_scan"}, "lat": 38.902142166666664, "lon": -77.01977716666667, "fusion_lat": 0.0, "name": "056479182ce8bd74995fe35399a18ae1", "is_disabled": 0, "is_reserved": 0, "bike_id": "056479182ce8bd74995fe35399a18ae1", "fusion_lon": 0.0, "type": "electric_scooter"}, {"rental_uris": {"ios": "https://dc.lft.to/lastmile_qr_scan", "android": "https://dc.lft.to/lastmile_qr_scan"}, "lat": 38.92397233333333, "lon": -77.04093716666667, "fusion_lat": 0.0, "name": "ab998c13ebce044fd6711571ed860e7d", "is_disabled": 0, "is_reserved": 0, "bike_id": "ab998c13ebce044fd6711571ed860e7d", "fusion_lon": 0.0, "type": "electric_scooter"}, {"rental_uris": {"ios": "https://dc.lft.to/lastmile_qr_scan", "android": "https://dc.lft.to/lastmile_qr_scan"}, "lat": 38.908656666666666, "lon": -77.02708983333333, "fusion_lat": 0.0, "name": "c0424372da0274910a83c8a6e760c84b", "is_disabled": 0, "is_reserved": 0, "bike_id": "c0424372da0274910a83c8a6e760c84b", "fusion_lon": 0.0, "type": "electric_scooter"}, {"rental_uris": {"ios": "https://dc.lft.to/lastmile_qr_scan", "android": "https://dc.lft.to/lastmile_qr_scan"}, "lat": 38.905645666666665, "lon": -77.04659283333334, "fusion_lat": 0.0, "name": "4edeb2262e2638ff744862d261262e63", "is_disabled": 0, "is_reserved": 0, "bike_id": "4edeb2262e2638ff744862d261262e63", "fusion_lon": 0.0, "type": "electric_scooter"}, {"rental_uris": {"ios": "https://dc.lft.to/lastmile_qr_scan", "android": "https://dc.lft.to/lastmile_qr_scan"}, "lat": 38.89837, "lon": -77.04497266666667, "fusion_lat": 0.0, "name": "a016dbfb703d4e0dd5bc1603436ec9e2", "is_disabled": 0, "is_reserved": 0, "bike_id": "a016dbfb703d4e0dd5bc1603436ec9e2", "fusion_lon": 0.0, "type": "electric_scooter"}, {"rental_uris": {"ios": "https://dc.lft.to/lastmile_qr_scan", "android": "https://dc.lft.to/lastmile_qr_scan"}, "lat": 38.87475366666666, "lon": -77.01069983333333, "fusion_lat": 0.0, "name": "d13de820ad24a0a37ec285a84b72a87f", "is_disabled": 0, "is_reserved": 0, "bike_id": "d13de820ad24a0a37ec285a84b72a87f", "fusion_lon": 0.0, "type": "electric_scooter"}, {"rental_uris": {"ios": "https://dc.lft.to/lastmile_qr_scan", "android": "https://dc.lft.to/lastmile_qr_scan"}, "lat": 38.90191433333333, "lon": -76.92891416666667, "fusion_lat": 0.0, "name": "9c3d0d98b9920eab2c8dfd3fe453cca8", "is_disabled": 0, "is_reserved": 0, "bike_id": "9c3d0d98b9920eab2c8dfd3fe453cca8", "fusion_lon": 0.0, "type": "electric_scooter"}, {"rental_uris": {"ios": "https://dc.lft.to/lastmile_qr_scan", "android": "https://dc.lft.to/lastmile_qr_scan"}, "lat": 38.91741416666667, "lon": -77.031871, "fusion_lat": 0.0, "name": "e62a1a2a6454982116d6481f7b24199c", "is_disabled": 0, "is_reserved": 0, "bike_id": "e62a1a2a6454982116d6481f7b24199c", "fusion_lon": 0.0, "type": "electric_scooter"}, {"rental_uris": {"ios": "https://dc.lft.to/lastmile_qr_scan", "android": "https://dc.lft.to/lastmile_qr_scan"}, "lat": 38.93327466666667, "lon": -77.02924816666666, "fusion_lat": 0.0, "name": "093cfc487a1ed2f538bab0685384e8fd", "is_disabled": 0, "is_reserved": 0, "bike_id": "093cfc487a1ed2f538bab0685384e8fd", "fusion_lon": 0.0, "type": "electric_scooter"}, {"rental_uris": {"ios": "https://dc.lft.to/lastmile_qr_scan", "android": "https://dc.lft.to/lastmile_qr_scan"}, "lat": 38.90329766666667, "lon": -77.0287445, "fusion_lat": 0.0, "name": "84f317e5fa4205c654c83f24720e3b5b", "is_disabled": 0, "is_reserved": 0, "bike_id": "84f317e5fa4205c654c83f24720e3b5b", "fusion_lon": 0.0, "type": "electric_scooter"}, {"rental_uris": {"ios": "https://dc.lft.to/lastmile_qr_scan", "android": "https://dc.lft.to/lastmile_qr_scan"}, "lat": 38.93639266666667, "lon": -77.06868116666666, "fusion_lat": 0.0, "name": "e991101eb048c3196de5ffe2be0cb013", "is_disabled": 0, "is_reserved": 0, "bike_id": "e991101eb048c3196de5ffe2be0cb013", "fusion_lon": 0.0, "type": "electric_scooter"}, {"rental_uris": {"ios": "https://dc.lft.to/lastmile_qr_scan", "android": "https://dc.lft.to/lastmile_qr_scan"}, "lat": 38.907560333333336, "lon": -77.03192166666666, "fusion_lat": 0.0, "name": "af7f823ebfa8984d3941e4fed4c5f215", "is_disabled": 0, "is_reserved": 0, "bike_id": "af7f823ebfa8984d3941e4fed4c5f215", "fusion_lon": 0.0, "type": "electric_scooter"}, {"rental_uris": {"ios": "https://dc.lft.to/lastmile_qr_scan", "android": "https://dc.lft.to/lastmile_qr_scan"}, "lat": 38.878866, "lon": -77.09612, "fusion_lat": 0.0, "name": "92d786f89df60cca047d989e1e2b3663", "is_disabled": 0, "is_reserved": 0, "bike_id": "92d786f89df60cca047d989e1e2b3663", "fusion_lon": 0.0, "type": "electric_bike"}, {"rental_uris": {"ios": "https://dc.lft.to/lastmile_qr_scan", "android": "https://dc.lft.to/lastmile_qr_scan"}, "lat": 38.90023866666667, "lon": -77.04890366666666, "fusion_lat": 0.0, "name": "34dc99a9a88a10277117775d1f0ea580", "is_disabled": 0, "is_reserved": 0, "bike_id": "34dc99a9a88a10277117775d1f0ea580", "fusion_lon": 0.0, "type": "electric_bike"}, {"rental_uris": {"ios": "https://dc.lft.to/lastmile_qr_scan", "android": "https://dc.lft.to/lastmile_qr_scan"}, "lat": 38.914175166666666, "lon": -77.0225445, "fusion_lat": 0.0, "name": "5155f0a60b17156023baf643480fc06b", "is_disabled": 0, "is_reserved": 0, "bike_id": "5155f0a60b17156023baf643480fc06b", "fusion_lon": 0.0, "type": "electric_scooter"}, {"rental_uris": {"ios": "https://dc.lft.to/lastmile_qr_scan", "android": "https://dc.lft.to/lastmile_qr_scan"}, "lat": 38.924811166666665, "lon": -77.0088925, "fusion_lat": 0.0, "name": "c2078d1974d65ac83acb964c9c295a4c", "is_disabled": 0, "is_reserved": 0, "bike_id": "c2078d1974d65ac83acb964c9c295a4c", "fusion_lon": 0.0, "type": "electric_scooter"}, {"rental_uris": {"ios": "https://dc.lft.to/lastmile_qr_scan", "android": "https://dc.lft.to/lastmile_qr_scan"}, "lat": 38.91536216666667, "lon": -77.01225233333334, "fusion_lat": 0.0, "name": "3182c4ab9621c2388fa313c535fbfc5a", "is_disabled": 0, "is_reserved": 0, "bike_id": "3182c4ab9621c2388fa313c535fbfc5a", "fusion_lon": 0.0, "type": "electric_scooter"}, {"rental_uris": {"ios": "https://dc.lft.to/lastmile_qr_scan", "android": "https://dc.lft.to/lastmile_qr_scan"}, "lat": 38.83157333333333, "lon": -76.99550416666666, "fusion_lat": 0.0, "name": "09d082d683581d348ecc9976e7818390", "is_disabled": 0, "is_reserved": 0, "bike_id": "09d082d683581d348ecc9976e7818390", "fusion_lon": 0.0, "type": "electric_bike"}, {"rental_uris": {"ios": "https://dc.lft.to/lastmile_qr_scan", "android": "https://dc.lft.to/lastmile_qr_scan"}, "lat": 38.8972, "lon": -77.00795483333333, "fusion_lat": 0.0, "name": "8a049f74cbf841987dbc0c8e2d351117", "is_disabled": 0, "is_reserved": 0, "bike_id": "8a049f74cbf841987dbc0c8e2d351117", "fusion_lon": 0.0, "type": "electric_scooter"}, {"rental_uris": {"ios": "https://dc.lft.to/lastmile_qr_scan", "android": "https://dc.lft.to/lastmile_qr_scan"}, "lat": 38.88716516666667, "lon": -77.01774, "fusion_lat": 0.0, "name": "d38974263e690ba398d9458820c033f6", "is_disabled": 0, "is_reserved": 0, "bike_id": "d38974263e690ba398d9458820c033f6", "fusion_lon": 0.0, "type": "electric_scooter"}, {"rental_uris": {"ios": "https://dc.lft.to/lastmile_qr_scan", "android": "https://dc.lft.to/lastmile_qr_scan"}, "lat": 38.89703216666667, "lon": -77.02449866666667, "fusion_lat": 0.0, "name": "10f251d6b85bba08e9e64daa9e0c0774", "is_disabled": 0, "is_reserved": 0, "bike_id": "10f251d6b85bba08e9e64daa9e0c0774", "fusion_lon": 0.0, "type": "electric_scooter"}, {"rental_uris": {"ios": "https://dc.lft.to/lastmile_qr_scan", "android": "https://dc.lft.to/lastmile_qr_scan"}, "lat": 38.93702833333333, "lon": -77.056108, "fusion_lat": 0.0, "name": "6d8a6bf3e7e931d3a78a5e14a16fa5ca", "is_disabled": 0, "is_reserved": 0, "bike_id": "6d8a6bf3e7e931d3a78a5e14a16fa5ca", "fusion_lon": 0.0, "type": "electric_bike"}, {"rental_uris": {"ios": "https://dc.lft.to/lastmile_qr_scan", "android": "https://dc.lft.to/lastmile_qr_scan"}, "lat": 38.91786, "lon": -77.04353233333333, "fusion_lat": 0.0, "name": "1cb3e503dc661865f26e5296432bda28", "is_disabled": 0, "is_reserved": 0, "bike_id": "1cb3e503dc661865f26e5296432bda28", "fusion_lon": 0.0, "type": "electric_scooter"}, {"rental_uris": {"ios": "https://dc.lft.to/lastmile_qr_scan", "android": "https://dc.lft.to/lastmile_qr_scan"}, "lat": 38.92044583333333, "lon": -77.03412283333333, "fusion_lat": 0.0, "name": "90aef3cc2807594d940bc782c56588ed", "is_disabled": 0, "is_reserved": 0, "bike_id": "90aef3cc2807594d940bc782c56588ed", "fusion_lon": 0.0, "type": "electric_scooter"}, {"rental_uris": {"ios": "https://dc.lft.to/lastmile_qr_scan", "android": "https://dc.lft.to/lastmile_qr_scan"}, "lat": 38.90504, "lon": -77.06882666666667, "fusion_lat": 0.0, "name": "c29149383d31b00edb3f8b0b2aed41e9", "is_disabled": 0, "is_reserved": 0, "bike_id": "c29149383d31b00edb3f8b0b2aed41e9", "fusion_lon": 0.0, "type": "electric_scooter"}, {"rental_uris": {"ios": "https://dc.lft.to/lastmile_qr_scan", "android": "https://dc.lft.to/lastmile_qr_scan"}, "lat": 38.9548275, "lon": -77.07705916666667, "fusion_lat": 0.0, "name": "1e2fd06a72d49adddb9c642d4322226f", "is_disabled": 0, "is_reserved": 0, "bike_id": "1e2fd06a72d49adddb9c642d4322226f", "fusion_lon": 0.0, "type": "electric_bike"}, {"rental_uris": {"ios": "https://dc.lft.to/lastmile_qr_scan", "android": "https://dc.lft.to/lastmile_qr_scan"}, "lat": 38.90091566666667, "lon": -76.98333083333333, "fusion_lat": 0.0, "name": "f17ffe3a57d50fb5701ddc8f441e6b68", "is_disabled": 0, "is_reserved": 0, "bike_id": "f17ffe3a57d50fb5701ddc8f441e6b68", "fusion_lon": 0.0, "type": "electric_scooter"}, {"rental_uris": {"ios": "https://dc.lft.to/lastmile_qr_scan", "android": "https://dc.lft.to/lastmile_qr_scan"}, "lat": 38.933087666666665, "lon": -77.07255616666667, "fusion_lat": 0.0, "name": "f7e96bd8dc0d3d7d0d5b9ce296ea4437", "is_disabled": 0, "is_reserved": 0, "bike_id": "f7e96bd8dc0d3d7d0d5b9ce296ea4437", "fusion_lon": 0.0, "type": "electric_scooter"}, {"rental_uris": {"ios": "https://dc.lft.to/lastmile_qr_scan", "android": "https://dc.lft.to/lastmile_qr_scan"}, "lat": 38.898406333333334, "lon": -77.027643, "fusion_lat": 0.0, "name": "4508d9641d2fba592fbeec6e7a45ca85", "is_disabled": 0, "is_reserved": 0, "bike_id": "4508d9641d2fba592fbeec6e7a45ca85", "fusion_lon": 0.0, "type": "electric_scooter"}, {"rental_uris": {"ios": "https://dc.lft.to/lastmile_qr_scan", "android": "https://dc.lft.to/lastmile_qr_scan"}, "lat": 38.9024015, "lon": -77.05904116666666, "fusion_lat": 0.0, "name": "87adf46538baa355d0c26e363bf6950f", "is_disabled": 0, "is_reserved": 0, "bike_id": "87adf46538baa355d0c26e363bf6950f", "fusion_lon": 0.0, "type": "electric_scooter"}, {"rental_uris": {"ios": "https://dc.lft.to/lastmile_qr_scan", "android": "https://dc.lft.to/lastmile_qr_scan"}, "lat": 38.94349533333333, "lon": -77.03765516666667, "fusion_lat": 0.0, "name": "f57b27dc1f938580a6ead2b519393c5d", "is_disabled": 0, "is_reserved": 0, "bike_id": "f57b27dc1f938580a6ead2b519393c5d", "fusion_lon": 0.0, "type": "electric_scooter"}, {"rental_uris": {"ios": "https://dc.lft.to/lastmile_qr_scan", "android": "https://dc.lft.to/lastmile_qr_scan"}, "lat": 38.86684483333333, "lon": -76.98575683333334, "fusion_lat": 0.0, "name": "04e52838b90dac871e13247bf3c5eb01", "is_disabled": 0, "is_reserved": 0, "bike_id": "04e52838b90dac871e13247bf3c5eb01", "fusion_lon": 0.0, "type": "electric_scooter"}, {"rental_uris": {"ios": "https://dc.lft.to/lastmile_qr_scan", "android": "https://dc.lft.to/lastmile_qr_scan"}, "lat": 38.92969983333333, "lon": -77.027916, "fusion_lat": 0.0, "name": "d519b059556a10631b0f39e6ca7ebe92", "is_disabled": 0, "is_reserved": 0, "bike_id": "d519b059556a10631b0f39e6ca7ebe92", "fusion_lon": 0.0, "type": "electric_scooter"}, {"rental_uris": {"ios": "https://dc.lft.to/lastmile_qr_scan", "android": "https://dc.lft.to/lastmile_qr_scan"}, "lat": 38.91672966666667, "lon": -77.02312933333333, "fusion_lat": 0.0, "name": "bf6debe03c505770e5fa3b9604496273", "is_disabled": 0, "is_reserved": 0, "bike_id": "bf6debe03c505770e5fa3b9604496273", "fusion_lon": 0.0, "type": "electric_scooter"}, {"rental_uris": {"ios": "https://dc.lft.to/lastmile_qr_scan", "android": "https://dc.lft.to/lastmile_qr_scan"}, "lat": 38.905317, "lon": -77.04147316666666, "fusion_lat": 0.0, "name": "409479557d37209a04dbfd69e6508226", "is_disabled": 0, "is_reserved": 0, "bike_id": "409479557d37209a04dbfd69e6508226", "fusion_lon": 0.0, "type": "electric_scooter"}, {"rental_uris": {"ios": "https://dc.lft.to/lastmile_qr_scan", "android": "https://dc.lft.to/lastmile_qr_scan"}, "lat": 38.865068666666666, "lon": -76.9900755, "fusion_lat": 0.0, "name": "1364d46729089968feb421e8805ad2a5", "is_disabled": 0, "is_reserved": 0, "bike_id": "1364d46729089968feb421e8805ad2a5", "fusion_lon": 0.0, "type": "electric_scooter"}, {"rental_uris": {"ios": "https://dc.lft.to/lastmile_qr_scan", "android": "https://dc.lft.to/lastmile_qr_scan"}, "lat": 38.906401833333334, "lon": -77.07028066666666, "fusion_lat": 0.0, "name": "3f1fdde816b210de69ba2b4cd1f61df7", "is_disabled": 0, "is_reserved": 0, "bike_id": "3f1fdde816b210de69ba2b4cd1f61df7", "fusion_lon": 0.0, "type": "electric_scooter"}, {"rental_uris": {"ios": "https://dc.lft.to/lastmile_qr_scan", "android": "https://dc.lft.to/lastmile_qr_scan"}, "lat": 38.898336666666665, "lon": -76.91950066666666, "fusion_lat": 0.0, "name": "177cacf445f918fd1efbe204566fd35c", "is_disabled": 0, "is_reserved": 0, "bike_id": "177cacf445f918fd1efbe204566fd35c", "fusion_lon": 0.0, "type": "electric_scooter"}, {"rental_uris": {"ios": "https://dc.lft.to/lastmile_qr_scan", "android": "https://dc.lft.to/lastmile_qr_scan"}, "lat": 38.91550066666667, "lon": -77.04448183333334, "fusion_lat": 0.0, "name": "8efdd15564ae461dc64bc451b598b85f", "is_disabled": 0, "is_reserved": 0, "bike_id": "8efdd15564ae461dc64bc451b598b85f", "fusion_lon": 0.0, "type": "electric_scooter"}, {"rental_uris": {"ios": "https://dc.lft.to/lastmile_qr_scan", "android": "https://dc.lft.to/lastmile_qr_scan"}, "lat": 38.9171135, "lon": -77.02614916666667, "fusion_lat": 0.0, "name": "a45dd7e0f347253f68d7ca7a9eb878f3", "is_disabled": 0, "is_reserved": 0, "bike_id": "a45dd7e0f347253f68d7ca7a9eb878f3", "fusion_lon": 0.0, "type": "electric_scooter"}, {"rental_uris": {"ios": "https://dc.lft.to/lastmile_qr_scan", "android": "https://dc.lft.to/lastmile_qr_scan"}, "lat": 38.9171305, "lon": -77.02615433333334, "fusion_lat": 0.0, "name": "2afd33b0505d8b25a162b431775e127a", "is_disabled": 0, "is_reserved": 0, "bike_id": "2afd33b0505d8b25a162b431775e127a", "fusion_lon": 0.0, "type": "electric_scooter"}, {"rental_uris": {"ios": "https://dc.lft.to/lastmile_qr_scan", "android": "https://dc.lft.to/lastmile_qr_scan"}, "lat": 38.900333833333335, "lon": -76.9722555, "fusion_lat": 0.0, "name": "8588d4d4e9225ebc427db11979c30215", "is_disabled": 0, "is_reserved": 0, "bike_id": "8588d4d4e9225ebc427db11979c30215", "fusion_lon": 0.0, "type": "electric_bike"}, {"rental_uris": {"ios": "https://dc.lft.to/lastmile_qr_scan", "android": "https://dc.lft.to/lastmile_qr_scan"}, "lat": 38.90416333333334, "lon": -76.97331066666666, "fusion_lat": 0.0, "name": "d5e791db6e47d3323add9a1cae4d91c6", "is_disabled": 0, "is_reserved": 0, "bike_id": "d5e791db6e47d3323add9a1cae4d91c6", "fusion_lon": 0.0, "type": "electric_scooter"}, {"rental_uris": {"ios": "https://dc.lft.to/lastmile_qr_scan", "android": "https://dc.lft.to/lastmile_qr_scan"}, "lat": 38.919729333333336, "lon": -77.01219716666667, "fusion_lat": 0.0, "name": "f3ef149f9fd4ab20e98b709693499bfc", "is_disabled": 0, "is_reserved": 0, "bike_id": "f3ef149f9fd4ab20e98b709693499bfc", "fusion_lon": 0.0, "type": "electric_scooter"}, {"rental_uris": {"ios": "https://dc.lft.to/lastmile_qr_scan", "android": "https://dc.lft.to/lastmile_qr_scan"}, "lat": 38.905288166666665, "lon": -77.040881, "fusion_lat": 0.0, "name": "f49eff841e6410c87a453abc2b64b20b", "is_disabled": 0, "is_reserved": 0, "bike_id": "f49eff841e6410c87a453abc2b64b20b", "fusion_lon": 0.0, "type": "electric_scooter"}, {"rental_uris": {"ios": "https://dc.lft.to/lastmile_qr_scan", "android": "https://dc.lft.to/lastmile_qr_scan"}, "lat": 38.91703483333333, "lon": -77.09578983333333, "fusion_lat": 0.0, "name": "2c7d924f44dbad34f782913a1b8d564a", "is_disabled": 0, "is_reserved": 0, "bike_id": "2c7d924f44dbad34f782913a1b8d564a", "fusion_lon": 0.0, "type": "electric_scooter"}, {"rental_uris": {"ios": "https://dc.lft.to/lastmile_qr_scan", "android": "https://dc.lft.to/lastmile_qr_scan"}, "lat": 38.883773166666664, "lon": -77.01759133333333, "fusion_lat": 0.0, "name": "99be12edf5c030fcab294b8a66d4caa0", "is_disabled": 0, "is_reserved": 0, "bike_id": "99be12edf5c030fcab294b8a66d4caa0", "fusion_lon": 0.0, "type": "electric_scooter"}, {"rental_uris": {"ios": "https://dc.lft.to/lastmile_qr_scan", "android": "https://dc.lft.to/lastmile_qr_scan"}, "lat": 38.886995666666664, "lon": -77.013718, "fusion_lat": 0.0, "name": "595a944bdca3b721c4c19aa1a66a3ef1", "is_disabled": 0, "is_reserved": 0, "bike_id": "595a944bdca3b721c4c19aa1a66a3ef1", "fusion_lon": 0.0, "type": "electric_scooter"}, {"rental_uris": {"ios": "https://dc.lft.to/lastmile_qr_scan", "android": "https://dc.lft.to/lastmile_qr_scan"}, "lat": 38.90230866666667, "lon": -77.05993116666667, "fusion_lat": 0.0, "name": "f0000cb0916116d4eda3021fe87c7065", "is_disabled": 0, "is_reserved": 0, "bike_id": "f0000cb0916116d4eda3021fe87c7065", "fusion_lon": 0.0, "type": "electric_scooter"}, {"rental_uris": {"ios": "https://dc.lft.to/lastmile_qr_scan", "android": "https://dc.lft.to/lastmile_qr_scan"}, "lat": 38.86469833333334, "lon": -76.98237616666667, "fusion_lat": 0.0, "name": "9054c5a5809d90be3a5a0335adfd9b97", "is_disabled": 0, "is_reserved": 0, "bike_id": "9054c5a5809d90be3a5a0335adfd9b97", "fusion_lon": 0.0, "type": "electric_scooter"}, {"rental_uris": {"ios": "https://dc.lft.to/lastmile_qr_scan", "android": "https://dc.lft.to/lastmile_qr_scan"}, "lat": 38.93908166666667, "lon": -77.060522, "fusion_lat": 0.0, "name": "cb0363665b8ab549fcb72f6b4a9930a5", "is_disabled": 0, "is_reserved": 0, "bike_id": "cb0363665b8ab549fcb72f6b4a9930a5", "fusion_lon": 0.0, "type": "electric_scooter"}, {"rental_uris": {"ios": "https://dc.lft.to/lastmile_qr_scan", "android": "https://dc.lft.to/lastmile_qr_scan"}, "lat": 38.9186935, "lon": -77.040639, "fusion_lat": 0.0, "name": "4b967f287cbe9f29296ba4beee467bfa", "is_disabled": 0, "is_reserved": 0, "bike_id": "4b967f287cbe9f29296ba4beee467bfa", "fusion_lon": 0.0, "type": "electric_scooter"}, {"rental_uris": {"ios": "https://dc.lft.to/lastmile_qr_scan", "android": "https://dc.lft.to/lastmile_qr_scan"}, "lat": 38.862491166666665, "lon": -76.99264966666667, "fusion_lat": 0.0, "name": "bb7661be6365c2095ed5ee24554950a0", "is_disabled": 0, "is_reserved": 0, "bike_id": "bb7661be6365c2095ed5ee24554950a0", "fusion_lon": 0.0, "type": "electric_scooter"}, {"rental_uris": {"ios": "https://dc.lft.to/lastmile_qr_scan", "android": "https://dc.lft.to/lastmile_qr_scan"}, "lat": 38.91575483333333, "lon": -77.03184383333334, "fusion_lat": 0.0, "name": "7ed10e2893e6b5e627c2adf7be17506d", "is_disabled": 0, "is_reserved": 0, "bike_id": "7ed10e2893e6b5e627c2adf7be17506d", "fusion_lon": 0.0, "type": "electric_scooter"}, {"rental_uris": {"ios": "https://dc.lft.to/lastmile_qr_scan", "android": "https://dc.lft.to/lastmile_qr_scan"}, "lat": 38.86506266666667, "lon": -76.990046, "fusion_lat": 0.0, "name": "e25b0334f2c10df8d6f4cf71d36aace5", "is_disabled": 0, "is_reserved": 0, "bike_id": "e25b0334f2c10df8d6f4cf71d36aace5", "fusion_lon": 0.0, "type": "electric_scooter"}, {"rental_uris": {"ios": "https://dc.lft.to/lastmile_qr_scan", "android": "https://dc.lft.to/lastmile_qr_scan"}, "lat": 38.887473, "lon": -76.90086166666667, "fusion_lat": 0.0, "name": "0f949b8204dde7b10e060691a7b2e911", "is_disabled": 0, "is_reserved": 0, "bike_id": "0f949b8204dde7b10e060691a7b2e911", "fusion_lon": 0.0, "type": "electric_bike"}, {"rental_uris": {"ios": "https://dc.lft.to/lastmile_qr_scan", "android": "https://dc.lft.to/lastmile_qr_scan"}, "lat": 38.86252016666667, "lon": -76.99554333333333, "fusion_lat": 0.0, "name": "90c884bfce9c81d8c8fc2d6ab2aa7cfe", "is_disabled": 0, "is_reserved": 0, "bike_id": "90c884bfce9c81d8c8fc2d6ab2aa7cfe", "fusion_lon": 0.0, "type": "electric_scooter"}, {"rental_uris": {"ios": "https://dc.lft.to/lastmile_qr_scan", "android": "https://dc.lft.to/lastmile_qr_scan"}, "lat": 38.9220005, "lon": -77.04013966666666, "fusion_lat": 0.0, "name": "bd914abf5b5ab19380d820f8763d8e85", "is_disabled": 0, "is_reserved": 0, "bike_id": "bd914abf5b5ab19380d820f8763d8e85", "fusion_lon": 0.0, "type": "electric_scooter"}, {"rental_uris": {"ios": "https://dc.lft.to/lastmile_qr_scan", "android": "https://dc.lft.to/lastmile_qr_scan"}, "lat": 38.90382983333333, "lon": -77.04019133333334, "fusion_lat": 0.0, "name": "09d1591a4f74c6f0fa4f4ea767325fcd", "is_disabled": 0, "is_reserved": 0, "bike_id": "09d1591a4f74c6f0fa4f4ea767325fcd", "fusion_lon": 0.0, "type": "electric_scooter"}, {"rental_uris": {"ios": "https://dc.lft.to/lastmile_qr_scan", "android": "https://dc.lft.to/lastmile_qr_scan"}, "lat": 38.917105, "lon": -77.02612866666666, "fusion_lat": 0.0, "name": "41c2b2607e4e90aeb46eb64f6343548f", "is_disabled": 0, "is_reserved": 0, "bike_id": "41c2b2607e4e90aeb46eb64f6343548f", "fusion_lon": 0.0, "type": "electric_scooter"}, {"rental_uris": {"ios": "https://dc.lft.to/lastmile_qr_scan", "android": "https://dc.lft.to/lastmile_qr_scan"}, "lat": 38.877177, "lon": -77.00324383333333, "fusion_lat": 0.0, "name": "930b7fc07030ef00a7498b56b5c6036f", "is_disabled": 0, "is_reserved": 0, "bike_id": "930b7fc07030ef00a7498b56b5c6036f", "fusion_lon": 0.0, "type": "electric_scooter"}, {"rental_uris": {"ios": "https://dc.lft.to/lastmile_qr_scan", "android": "https://dc.lft.to/lastmile_qr_scan"}, "lat": 38.89656733333333, "lon": -77.01185933333333, "fusion_lat": 0.0, "name": "32223f0a5fdf11c194e68b01405b632b", "is_disabled": 0, "is_reserved": 0, "bike_id": "32223f0a5fdf11c194e68b01405b632b", "fusion_lon": 0.0, "type": "electric_scooter"}, {"rental_uris": {"ios": "https://dc.lft.to/lastmile_qr_scan", "android": "https://dc.lft.to/lastmile_qr_scan"}, "lat": 38.935343333333336, "lon": -77.02352066666667, "fusion_lat": 0.0, "name": "6936115006c02a36fc8007383a59a6ee", "is_disabled": 0, "is_reserved": 0, "bike_id": "6936115006c02a36fc8007383a59a6ee", "fusion_lon": 0.0, "type": "electric_scooter"}, {"rental_uris": {"ios": "https://dc.lft.to/lastmile_qr_scan", "android": "https://dc.lft.to/lastmile_qr_scan"}, "lat": 38.921628166666665, "lon": -77.03334483333333, "fusion_lat": 0.0, "name": "43954e2ab1a39c309cfb397f8c6bd331", "is_disabled": 0, "is_reserved": 0, "bike_id": "43954e2ab1a39c309cfb397f8c6bd331", "fusion_lon": 0.0, "type": "electric_scooter"}, {"rental_uris": {"ios": "https://dc.lft.to/lastmile_qr_scan", "android": "https://dc.lft.to/lastmile_qr_scan"}, "lat": 38.90447866666667, "lon": -77.0531845, "fusion_lat": 0.0, "name": "1553fe5519a4bce7472ba3a813bbc4c6", "is_disabled": 0, "is_reserved": 0, "bike_id": "1553fe5519a4bce7472ba3a813bbc4c6", "fusion_lon": 0.0, "type": "electric_scooter"}, {"rental_uris": {"ios": "https://dc.lft.to/lastmile_qr_scan", "android": "https://dc.lft.to/lastmile_qr_scan"}, "lat": 38.91821866666667, "lon": -77.02581316666667, "fusion_lat": 0.0, "name": "1d2462398a6b68c7198bc0b7fc8dfb1f", "is_disabled": 0, "is_reserved": 0, "bike_id": "1d2462398a6b68c7198bc0b7fc8dfb1f", "fusion_lon": 0.0, "type": "electric_scooter"}, {"rental_uris": {"ios": "https://dc.lft.to/lastmile_qr_scan", "android": "https://dc.lft.to/lastmile_qr_scan"}, "lat": 38.909868, "lon": -77.02205916666666, "fusion_lat": 0.0, "name": "1e3105ef04a04f37ea084e8562825090", "is_disabled": 0, "is_reserved": 0, "bike_id": "1e3105ef04a04f37ea084e8562825090", "fusion_lon": 0.0, "type": "electric_scooter"}, {"rental_uris": {"ios": "https://dc.lft.to/lastmile_qr_scan", "android": "https://dc.lft.to/lastmile_qr_scan"}, "lat": 38.88437233333333, "lon": -77.00347066666667, "fusion_lat": 0.0, "name": "1fe3a80ddfe457693429fb5ea9961aab", "is_disabled": 0, "is_reserved": 0, "bike_id": "1fe3a80ddfe457693429fb5ea9961aab", "fusion_lon": 0.0, "type": "electric_scooter"}, {"rental_uris": {"ios": "https://dc.lft.to/lastmile_qr_scan", "android": "https://dc.lft.to/lastmile_qr_scan"}, "lat": 38.903520666666665, "lon": -77.016182, "fusion_lat": 0.0, "name": "0290efb0f50c54792c25b1e76d4ec507", "is_disabled": 0, "is_reserved": 0, "bike_id": "0290efb0f50c54792c25b1e76d4ec507", "fusion_lon": 0.0, "type": "electric_scooter"}, {"rental_uris": {"ios": "https://dc.lft.to/lastmile_qr_scan", "android": "https://dc.lft.to/lastmile_qr_scan"}, "lat": 38.897252, "lon": -77.02168733333333, "fusion_lat": 0.0, "name": "cbe5a8632cb53b2d91e54963b1e55491", "is_disabled": 0, "is_reserved": 0, "bike_id": "cbe5a8632cb53b2d91e54963b1e55491", "fusion_lon": 0.0, "type": "electric_scooter"}, {"rental_uris": {"ios": "https://dc.lft.to/lastmile_qr_scan", "android": "https://dc.lft.to/lastmile_qr_scan"}, "lat": 38.9181865, "lon": -77.03196333333334, "fusion_lat": 0.0, "name": "55aac0e241675811e3fd995c3b7d1725", "is_disabled": 0, "is_reserved": 0, "bike_id": "55aac0e241675811e3fd995c3b7d1725", "fusion_lon": 0.0, "type": "electric_scooter"}, {"rental_uris": {"ios": "https://dc.lft.to/lastmile_qr_scan", "android": "https://dc.lft.to/lastmile_qr_scan"}, "lat": 38.898488666666665, "lon": -76.92905066666667, "fusion_lat": 0.0, "name": "860aed37524b2241fc906683751d5bc4", "is_disabled": 0, "is_reserved": 0, "bike_id": "860aed37524b2241fc906683751d5bc4", "fusion_lon": 0.0, "type": "electric_scooter"}, {"rental_uris": {"ios": "https://dc.lft.to/lastmile_qr_scan", "android": "https://dc.lft.to/lastmile_qr_scan"}, "lat": 38.931900166666665, "lon": -77.04294233333333, "fusion_lat": 0.0, "name": "b36215549d7574a89a7896224a9ef299", "is_disabled": 0, "is_reserved": 0, "bike_id": "b36215549d7574a89a7896224a9ef299", "fusion_lon": 0.0, "type": "electric_scooter"}, {"rental_uris": {"ios": "https://dc.lft.to/lastmile_qr_scan", "android": "https://dc.lft.to/lastmile_qr_scan"}, "lat": 38.91546666666667, "lon": -77.03198916666666, "fusion_lat": 0.0, "name": "36109953c4213e59897c4bdb016ed5d9", "is_disabled": 0, "is_reserved": 0, "bike_id": "36109953c4213e59897c4bdb016ed5d9", "fusion_lon": 0.0, "type": "electric_scooter"}, {"rental_uris": {"ios": "https://dc.lft.to/lastmile_qr_scan", "android": "https://dc.lft.to/lastmile_qr_scan"}, "lat": 38.89388316666667, "lon": -77.02266333333333, "fusion_lat": 0.0, "name": "b6b6de5e4847256f789fd41ba536e0ec", "is_disabled": 0, "is_reserved": 0, "bike_id": "b6b6de5e4847256f789fd41ba536e0ec", "fusion_lon": 0.0, "type": "electric_scooter"}, {"rental_uris": {"ios": "https://dc.lft.to/lastmile_qr_scan", "android": "https://dc.lft.to/lastmile_qr_scan"}, "lat": 38.879197166666664, "lon": -77.02354183333334, "fusion_lat": 0.0, "name": "1cd3a2aed49f16f1a572b1b889aec916", "is_disabled": 0, "is_reserved": 0, "bike_id": "1cd3a2aed49f16f1a572b1b889aec916", "fusion_lon": 0.0, "type": "electric_scooter"}, {"rental_uris": {"ios": "https://dc.lft.to/lastmile_qr_scan", "android": "https://dc.lft.to/lastmile_qr_scan"}, "lat": 38.92510716666666, "lon": -77.00224583333333, "fusion_lat": 0.0, "name": "e90675641003a2bc5522e8e372855f50", "is_disabled": 0, "is_reserved": 0, "bike_id": "e90675641003a2bc5522e8e372855f50", "fusion_lon": 0.0, "type": "electric_scooter"}, {"rental_uris": {"ios": "https://dc.lft.to/lastmile_qr_scan", "android": "https://dc.lft.to/lastmile_qr_scan"}, "lat": 38.9143045, "lon": -77.031819, "fusion_lat": 0.0, "name": "9347235c655fb93b43230801b094abb6", "is_disabled": 0, "is_reserved": 0, "bike_id": "9347235c655fb93b43230801b094abb6", "fusion_lon": 0.0, "type": "electric_scooter"}, {"rental_uris": {"ios": "https://dc.lft.to/lastmile_qr_scan", "android": "https://dc.lft.to/lastmile_qr_scan"}, "lat": 38.918874, "lon": -77.02474283333333, "fusion_lat": 0.0, "name": "f1c778f9ec2bdb7bf0dd831846585959", "is_disabled": 0, "is_reserved": 0, "bike_id": "f1c778f9ec2bdb7bf0dd831846585959", "fusion_lon": 0.0, "type": "electric_scooter"}, {"rental_uris": {"ios": "https://dc.lft.to/lastmile_qr_scan", "android": "https://dc.lft.to/lastmile_qr_scan"}, "lat": 38.9244895, "lon": -77.02261883333334, "fusion_lat": 0.0, "name": "b3caed8d9f38b7cdce23df267d0f09d9", "is_disabled": 0, "is_reserved": 0, "bike_id": "b3caed8d9f38b7cdce23df267d0f09d9", "fusion_lon": 0.0, "type": "electric_scooter"}, {"rental_uris": {"ios": "https://dc.lft.to/lastmile_qr_scan", "android": "https://dc.lft.to/lastmile_qr_scan"}, "lat": 38.902548, "lon": -77.03427516666666, "fusion_lat": 0.0, "name": "518a7180ce5faa5bcfc6690ac222fed1", "is_disabled": 0, "is_reserved": 0, "bike_id": "518a7180ce5faa5bcfc6690ac222fed1", "fusion_lon": 0.0, "type": "electric_scooter"}, {"rental_uris": {"ios": "https://dc.lft.to/lastmile_qr_scan", "android": "https://dc.lft.to/lastmile_qr_scan"}, "lat": 38.898406, "lon": -77.04832183333333, "fusion_lat": 0.0, "name": "424d84348296a86cff498a3ba5124d99", "is_disabled": 0, "is_reserved": 0, "bike_id": "424d84348296a86cff498a3ba5124d99", "fusion_lon": 0.0, "type": "electric_scooter"}, {"rental_uris": {"ios": "https://dc.lft.to/lastmile_qr_scan", "android": "https://dc.lft.to/lastmile_qr_scan"}, "lat": 38.87763266666666, "lon": -77.01049833333333, "fusion_lat": 0.0, "name": "8d66e1efeac9af6b334a5a77a77bfeb5", "is_disabled": 0, "is_reserved": 0, "bike_id": "8d66e1efeac9af6b334a5a77a77bfeb5", "fusion_lon": 0.0, "type": "electric_bike"}, {"rental_uris": {"ios": "https://dc.lft.to/lastmile_qr_scan", "android": "https://dc.lft.to/lastmile_qr_scan"}, "lat": 38.92777233333333, "lon": -77.052629, "fusion_lat": 0.0, "name": "b09aef3f096b9b3c1ffc88912bfc6ff3", "is_disabled": 0, "is_reserved": 0, "bike_id": "b09aef3f096b9b3c1ffc88912bfc6ff3", "fusion_lon": 0.0, "type": "electric_scooter"}, {"rental_uris": {"ios": "https://dc.lft.to/lastmile_qr_scan", "android": "https://dc.lft.to/lastmile_qr_scan"}, "lat": 38.90312433333333, "lon": -77.05181466666667, "fusion_lat": 0.0, "name": "13ef374a7b782c5d300d7d37989326f7", "is_disabled": 0, "is_reserved": 0, "bike_id": "13ef374a7b782c5d300d7d37989326f7", "fusion_lon": 0.0, "type": "electric_scooter"}, {"rental_uris": {"ios": "https://dc.lft.to/lastmile_qr_scan", "android": "https://dc.lft.to/lastmile_qr_scan"}, "lat": 38.86213516666667, "lon": -76.99480483333333, "fusion_lat": 0.0, "name": "a77e584425da3df002eca765b096fe7e", "is_disabled": 0, "is_reserved": 0, "bike_id": "a77e584425da3df002eca765b096fe7e", "fusion_lon": 0.0, "type": "electric_scooter"}, {"rental_uris": {"ios": "https://dc.lft.to/lastmile_qr_scan", "android": "https://dc.lft.to/lastmile_qr_scan"}, "lat": 38.918273166666665, "lon": -77.04927483333333, "fusion_lat": 0.0, "name": "549a80de8cb2a2c8593bc6a0a44680b6", "is_disabled": 0, "is_reserved": 0, "bike_id": "549a80de8cb2a2c8593bc6a0a44680b6", "fusion_lon": 0.0, "type": "electric_scooter"}, {"rental_uris": {"ios": "https://dc.lft.to/lastmile_qr_scan", "android": "https://dc.lft.to/lastmile_qr_scan"}, "lat": 38.907496333333334, "lon": -77.03210166666666, "fusion_lat": 0.0, "name": "e9d0dd8b85d35e687fccebade9ea4589", "is_disabled": 0, "is_reserved": 0, "bike_id": "e9d0dd8b85d35e687fccebade9ea4589", "fusion_lon": 0.0, "type": "electric_scooter"}, {"rental_uris": {"ios": "https://dc.lft.to/lastmile_qr_scan", "android": "https://dc.lft.to/lastmile_qr_scan"}, "lat": 38.91059683333334, "lon": -77.05520816666667, "fusion_lat": 0.0, "name": "15d6242a143eb42c97672a9f62b3062f", "is_disabled": 0, "is_reserved": 0, "bike_id": "15d6242a143eb42c97672a9f62b3062f", "fusion_lon": 0.0, "type": "electric_bike"}, {"rental_uris": {"ios": "https://dc.lft.to/lastmile_qr_scan", "android": "https://dc.lft.to/lastmile_qr_scan"}, "lat": 38.92155966666667, "lon": -77.03859883333334, "fusion_lat": 0.0, "name": "b92894f3cc80ad68bcd980d1eaeee112", "is_disabled": 0, "is_reserved": 0, "bike_id": "b92894f3cc80ad68bcd980d1eaeee112", "fusion_lon": 0.0, "type": "electric_scooter"}, {"rental_uris": {"ios": "https://dc.lft.to/lastmile_qr_scan", "android": "https://dc.lft.to/lastmile_qr_scan"}, "lat": 38.92055916666666, "lon": -77.03348066666666, "fusion_lat": 0.0, "name": "a9c0cc0ae3751e6a9d35a886906fc732", "is_disabled": 0, "is_reserved": 0, "bike_id": "a9c0cc0ae3751e6a9d35a886906fc732", "fusion_lon": 0.0, "type": "electric_scooter"}, {"rental_uris": {"ios": "https://dc.lft.to/lastmile_qr_scan", "android": "https://dc.lft.to/lastmile_qr_scan"}, "lat": 38.90046566666667, "lon": -76.9828955, "fusion_lat": 0.0, "name": "41c150d1a3c34c7a6d74a59324cda167", "is_disabled": 0, "is_reserved": 0, "bike_id": "41c150d1a3c34c7a6d74a59324cda167", "fusion_lon": 0.0, "type": "electric_scooter"}, {"rental_uris": {"ios": "https://dc.lft.to/lastmile_qr_scan", "android": "https://dc.lft.to/lastmile_qr_scan"}, "lat": 38.948228, "lon": -77.02486466666667, "fusion_lat": 0.0, "name": "4933132eab7cda424b01cef33d5e832f", "is_disabled": 0, "is_reserved": 0, "bike_id": "4933132eab7cda424b01cef33d5e832f", "fusion_lon": 0.0, "type": "electric_scooter"}, {"rental_uris": {"ios": "https://dc.lft.to/lastmile_qr_scan", "android": "https://dc.lft.to/lastmile_qr_scan"}, "lat": 38.9129245, "lon": -77.0296865, "fusion_lat": 0.0, "name": "8a50986700a0a7ae9aa0e07d99fd8731", "is_disabled": 0, "is_reserved": 0, "bike_id": "8a50986700a0a7ae9aa0e07d99fd8731", "fusion_lon": 0.0, "type": "electric_scooter"}, {"rental_uris": {"ios": "https://dc.lft.to/lastmile_qr_scan", "android": "https://dc.lft.to/lastmile_qr_scan"}, "lat": 38.89983633333333, "lon": -77.02444433333334, "fusion_lat": 0.0, "name": "03c570cb89dc13d01b1f2937f3c8ca4f", "is_disabled": 0, "is_reserved": 0, "bike_id": "03c570cb89dc13d01b1f2937f3c8ca4f", "fusion_lon": 0.0, "type": "electric_scooter"}, {"rental_uris": {"ios": "https://dc.lft.to/lastmile_qr_scan", "android": "https://dc.lft.to/lastmile_qr_scan"}, "lat": 38.91198383333333, "lon": -77.01198783333334, "fusion_lat": 0.0, "name": "b4006dd31954493c8d0f4ede6a4e0462", "is_disabled": 0, "is_reserved": 0, "bike_id": "b4006dd31954493c8d0f4ede6a4e0462", "fusion_lon": 0.0, "type": "electric_scooter"}, {"rental_uris": {"ios": "https://dc.lft.to/lastmile_qr_scan", "android": "https://dc.lft.to/lastmile_qr_scan"}, "lat": 38.9161085, "lon": -77.031255, "fusion_lat": 0.0, "name": "ba349b9593c360b0de9564a1fd395d8c", "is_disabled": 0, "is_reserved": 0, "bike_id": "ba349b9593c360b0de9564a1fd395d8c", "fusion_lon": 0.0, "type": "electric_scooter"}, {"rental_uris": {"ios": "https://dc.lft.to/lastmile_qr_scan", "android": "https://dc.lft.to/lastmile_qr_scan"}, "lat": 38.893652, "lon": -76.94700783333333, "fusion_lat": 0.0, "name": "0d15701c043676d104a3e71e509dcb72", "is_disabled": 0, "is_reserved": 0, "bike_id": "0d15701c043676d104a3e71e509dcb72", "fusion_lon": 0.0, "type": "electric_scooter"}, {"rental_uris": {"ios": "https://dc.lft.to/lastmile_qr_scan", "android": "https://dc.lft.to/lastmile_qr_scan"}, "lat": 38.89703983333333, "lon": -77.048839, "fusion_lat": 0.0, "name": "965b47320f84f7faee0f393a1c45c62f", "is_disabled": 0, "is_reserved": 0, "bike_id": "965b47320f84f7faee0f393a1c45c62f", "fusion_lon": 0.0, "type": "electric_scooter"}, {"rental_uris": {"ios": "https://dc.lft.to/lastmile_qr_scan", "android": "https://dc.lft.to/lastmile_qr_scan"}, "lat": 38.9490125, "lon": -77.02070033333334, "fusion_lat": 0.0, "name": "87ce20a2dfdd68bc9413de042f3fe682", "is_disabled": 0, "is_reserved": 0, "bike_id": "87ce20a2dfdd68bc9413de042f3fe682", "fusion_lon": 0.0, "type": "electric_scooter"}, {"rental_uris": {"ios": "https://dc.lft.to/lastmile_qr_scan", "android": "https://dc.lft.to/lastmile_qr_scan"}, "lat": 38.91699933333334, "lon": -77.04334283333333, "fusion_lat": 0.0, "name": "accafa0140600b10b7f80a0204b718d0", "is_disabled": 0, "is_reserved": 0, "bike_id": "accafa0140600b10b7f80a0204b718d0", "fusion_lon": 0.0, "type": "electric_scooter"}, {"rental_uris": {"ios": "https://dc.lft.to/lastmile_qr_scan", "android": "https://dc.lft.to/lastmile_qr_scan"}, "lat": 38.87577366666667, "lon": -77.23410733333333, "fusion_lat": 0.0, "name": "06df348133b2692f842a80deec511ad1", "is_disabled": 0, "is_reserved": 0, "bike_id": "06df348133b2692f842a80deec511ad1", "fusion_lon": 0.0, "type": "electric_bike"}, {"rental_uris": {"ios": "https://dc.lft.to/lastmile_qr_scan", "android": "https://dc.lft.to/lastmile_qr_scan"}, "lat": 38.913984666666664, "lon": -77.01793766666667, "fusion_lat": 0.0, "name": "486f75be60d9d23e0d7e0e5c46f3d0d1", "is_disabled": 0, "is_reserved": 0, "bike_id": "486f75be60d9d23e0d7e0e5c46f3d0d1", "fusion_lon": 0.0, "type": "electric_scooter"}, {"rental_uris": {"ios": "https://dc.lft.to/lastmile_qr_scan", "android": "https://dc.lft.to/lastmile_qr_scan"}, "lat": 38.900294333333335, "lon": -76.99059283333334, "fusion_lat": 0.0, "name": "c74cd2d268f7b34e4f1652e33ff3076e", "is_disabled": 0, "is_reserved": 0, "bike_id": "c74cd2d268f7b34e4f1652e33ff3076e", "fusion_lon": 0.0, "type": "electric_scooter"}, {"rental_uris": {"ios": "https://dc.lft.to/lastmile_qr_scan", "android": "https://dc.lft.to/lastmile_qr_scan"}, "lat": 38.91192183333333, "lon": -77.03761916666667, "fusion_lat": 0.0, "name": "36fd3d3d57f483491b39eef1b10a16c2", "is_disabled": 0, "is_reserved": 0, "bike_id": "36fd3d3d57f483491b39eef1b10a16c2", "fusion_lon": 0.0, "type": "electric_scooter"}, {"rental_uris": {"ios": "https://dc.lft.to/lastmile_qr_scan", "android": "https://dc.lft.to/lastmile_qr_scan"}, "lat": 38.9077125, "lon": -77.03448816666666, "fusion_lat": 0.0, "name": "2def959a973d03412e8f6ee663b1d9c5", "is_disabled": 0, "is_reserved": 0, "bike_id": "2def959a973d03412e8f6ee663b1d9c5", "fusion_lon": 0.0, "type": "electric_scooter"}, {"rental_uris": {"ios": "https://dc.lft.to/lastmile_qr_scan", "android": "https://dc.lft.to/lastmile_qr_scan"}, "lat": 38.92363483333333, "lon": -77.05129433333333, "fusion_lat": 0.0, "name": "37cd88ebfa055d95658a5e3c4f48910a", "is_disabled": 0, "is_reserved": 0, "bike_id": "37cd88ebfa055d95658a5e3c4f48910a", "fusion_lon": 0.0, "type": "electric_scooter"}, {"rental_uris": {"ios": "https://dc.lft.to/lastmile_qr_scan", "android": "https://dc.lft.to/lastmile_qr_scan"}, "lat": 38.899270333333334, "lon": -77.03288733333333, "fusion_lat": 0.0, "name": "4bb8463b4849419bc0d3654f627f633d", "is_disabled": 0, "is_reserved": 0, "bike_id": "4bb8463b4849419bc0d3654f627f633d", "fusion_lon": 0.0, "type": "electric_scooter"}, {"rental_uris": {"ios": "https://dc.lft.to/lastmile_qr_scan", "android": "https://dc.lft.to/lastmile_qr_scan"}, "lat": 38.885170333333335, "lon": -77.006018, "fusion_lat": 0.0, "name": "634fdbe6270e70a08c2bca42f6decdec", "is_disabled": 0, "is_reserved": 0, "bike_id": "634fdbe6270e70a08c2bca42f6decdec", "fusion_lon": 0.0, "type": "electric_scooter"}, {"rental_uris": {"ios": "https://dc.lft.to/lastmile_qr_scan", "android": "https://dc.lft.to/lastmile_qr_scan"}, "lat": 38.91406666666666, "lon": -77.02008416666666, "fusion_lat": 0.0, "name": "55eac6f7ed948f8ad3a77382e4fe9081", "is_disabled": 0, "is_reserved": 0, "bike_id": "55eac6f7ed948f8ad3a77382e4fe9081", "fusion_lon": 0.0, "type": "electric_scooter"}, {"rental_uris": {"ios": "https://dc.lft.to/lastmile_qr_scan", "android": "https://dc.lft.to/lastmile_qr_scan"}, "lat": 38.91924866666667, "lon": -77.03190183333334, "fusion_lat": 0.0, "name": "a449a29a7ec6ca7b8ec17612bc8db105", "is_disabled": 0, "is_reserved": 0, "bike_id": "a449a29a7ec6ca7b8ec17612bc8db105", "fusion_lon": 0.0, "type": "electric_scooter"}, {"rental_uris": {"ios": "https://dc.lft.to/lastmile_qr_scan", "android": "https://dc.lft.to/lastmile_qr_scan"}, "lat": 38.885266666666666, "lon": -76.99596733333334, "fusion_lat": 0.0, "name": "4a87f9f79b346a4745d3f7d47cbde925", "is_disabled": 0, "is_reserved": 0, "bike_id": "4a87f9f79b346a4745d3f7d47cbde925", "fusion_lon": 0.0, "type": "electric_scooter"}, {"rental_uris": {"ios": "https://dc.lft.to/lastmile_qr_scan", "android": "https://dc.lft.to/lastmile_qr_scan"}, "lat": 38.841455333333336, "lon": -77.11465116666666, "fusion_lat": 0.0, "name": "b9df2747724c1eee5d75df1a46b38e40", "is_disabled": 0, "is_reserved": 0, "bike_id": "b9df2747724c1eee5d75df1a46b38e40", "fusion_lon": 0.0, "type": "electric_bike"}, {"rental_uris": {"ios": "https://dc.lft.to/lastmile_qr_scan", "android": "https://dc.lft.to/lastmile_qr_scan"}, "lat": 38.934020333333336, "lon": -77.02214816666667, "fusion_lat": 0.0, "name": "540876d5af71cd1ae4949d1a0eb694ec", "is_disabled": 0, "is_reserved": 0, "bike_id": "540876d5af71cd1ae4949d1a0eb694ec", "fusion_lon": 0.0, "type": "electric_scooter"}, {"rental_uris": {"ios": "https://dc.lft.to/lastmile_qr_scan", "android": "https://dc.lft.to/lastmile_qr_scan"}, "lat": 38.90524033333333, "lon": -77.0660805, "fusion_lat": 0.0, "name": "a2071c67151d548afaced69a9815f6f1", "is_disabled": 0, "is_reserved": 0, "bike_id": "a2071c67151d548afaced69a9815f6f1", "fusion_lon": 0.0, "type": "electric_scooter"}, {"rental_uris": {"ios": "https://dc.lft.to/lastmile_qr_scan", "android": "https://dc.lft.to/lastmile_qr_scan"}, "lat": 38.9277295, "lon": -77.0273275, "fusion_lat": 0.0, "name": "98373dd16b2acea6dacac02753a97c56", "is_disabled": 0, "is_reserved": 0, "bike_id": "98373dd16b2acea6dacac02753a97c56", "fusion_lon": 0.0, "type": "electric_scooter"}, {"rental_uris": {"ios": "https://dc.lft.to/lastmile_qr_scan", "android": "https://dc.lft.to/lastmile_qr_scan"}, "lat": 38.906953, "lon": -77.02596183333333, "fusion_lat": 0.0, "name": "02f80523c37def27cfa2cbc4dd846e07", "is_disabled": 0, "is_reserved": 0, "bike_id": "02f80523c37def27cfa2cbc4dd846e07", "fusion_lon": 0.0, "type": "electric_scooter"}, {"rental_uris": {"ios": "https://dc.lft.to/lastmile_qr_scan", "android": "https://dc.lft.to/lastmile_qr_scan"}, "lat": 38.905624, "lon": -77.01680616666667, "fusion_lat": 0.0, "name": "079de08d3dd1427819ee827bc98e5bce", "is_disabled": 0, "is_reserved": 0, "bike_id": "079de08d3dd1427819ee827bc98e5bce", "fusion_lon": 0.0, "type": "electric_scooter"}, {"rental_uris": {"ios": "https://dc.lft.to/lastmile_qr_scan", "android": "https://dc.lft.to/lastmile_qr_scan"}, "lat": 38.992239833333336, "lon": -76.94442566666666, "fusion_lat": 0.0, "name": "c2ce99ba63afd49286dd38facec30cce", "is_disabled": 0, "is_reserved": 0, "bike_id": "c2ce99ba63afd49286dd38facec30cce", "fusion_lon": 0.0, "type": "electric_bike"}, {"rental_uris": {"ios": "https://dc.lft.to/lastmile_qr_scan", "android": "https://dc.lft.to/lastmile_qr_scan"}, "lat": 38.855635166666666, "lon": -77.11315266666666, "fusion_lat": 0.0, "name": "f37709c0a04bf17d46d5ef3be6fd855c", "is_disabled": 0, "is_reserved": 0, "bike_id": "f37709c0a04bf17d46d5ef3be6fd855c", "fusion_lon": 0.0, "type": "electric_bike"}, {"rental_uris": {"ios": "https://dc.lft.to/lastmile_qr_scan", "android": "https://dc.lft.to/lastmile_qr_scan"}, "lat": 38.923274, "lon": -77.03615083333334, "fusion_lat": 0.0, "name": "c1ebcf77ac5b46bf76697683e398975f", "is_disabled": 0, "is_reserved": 0, "bike_id": "c1ebcf77ac5b46bf76697683e398975f", "fusion_lon": 0.0, "type": "electric_scooter"}, {"rental_uris": {"ios": "https://dc.lft.to/lastmile_qr_scan", "android": "https://dc.lft.to/lastmile_qr_scan"}, "lat": 38.854885333333335, "lon": -77.11613216666667, "fusion_lat": 0.0, "name": "b722263b8cc19da10ee853299829e4bf", "is_disabled": 0, "is_reserved": 0, "bike_id": "b722263b8cc19da10ee853299829e4bf", "fusion_lon": 0.0, "type": "electric_bike"},