{"data": {"bikes": [{"lon": -77.058804, "bike_id": "4b17491caf8135eda73bfd7d5c171033", "lat": 38.86278566666667, "fusion_lon": 0.0, "fusion_lat": 0.0, "type": "electric_bike", "name": "4b17491caf8135eda73bfd7d5c171033", "is_disabled": 0, "rental_uris": {"ios": "https://dc.lft.to/lastmile_qr_scan", "android": "https://dc.lft.to/lastmile_qr_scan"}, "is_reserved": 0}, {"lon": -77.03422933333333, "bike_id": "044d1746af24634c33f51005ad9a8134", "lat": 38.9263525, "fusion_lon": 0.0, "fusion_lat": 0.0, "type": "electric_scooter", "name": "044d1746af24634c33f51005ad9a8134", "is_disabled": 0, "rental_uris": {"ios": "https://dc.lft.to/lastmile_qr_scan", "android": "https://dc.lft.to/lastmile_qr_scan"}, "is_reserved": 0}, {"lon": -77.0341865, "bike_id": "7f97b74fa85f2a42c3261122dcfca45a", "lat": 38.90266316666667, "fusion_lon": 0.0, "fusion_lat": 0.0, "type": "electric_scooter", "name": "7f97b74fa85f2a42c3261122dcfca45a", "is_disabled": 0, "rental_uris": {"ios": "https://dc.lft.to/lastmile_qr_scan", "android": "https://dc.lft.to/lastmile_qr_scan"}, "is_reserved": 0}, {"lon": -77.05229083333333, "bike_id": "785c4cbdfaf5bfe1da55330babe2de05", "lat": 38.924671833333335, "fusion_lon": 0.0, "fusion_lat": 0.0, "type": "electric_scooter", "name": "785c4cbdfaf5bfe1da55330babe2de05", "is_disabled": 0, "rental_uris": {"ios": "https://dc.lft.to/lastmile_qr_scan", "android": "https://dc.lft.to/lastmile_qr_scan"}, "is_reserved": 0}, {"lon": -76.9952035, "bike_id": "df84ddea295cade2c2ee8a8aba4384cd", "lat": 38.862618833333336, "fusion_lon": 0.0, "fusion_lat": 0.0, "type": "electric_scooter", "name": "df84ddea295cade2c2ee8a8aba4384cd", "is_disabled": 0, "rental_uris": {"ios": "https://dc.lft.to/lastmile_qr_scan", "android": "https://dc.lft.to/lastmile_qr_scan"}, "is_reserved": 0}, {"lon": -77.03648766666667, "bike_id": "de15bb0bde76186d780e9257d5fc4d46", "lat": 38.936241833333334, "fusion_lon": 0.0, "fusion_lat": 0.0, "type": "electric_bike", "name": "de15bb0bde76186d780e9257d5fc4d46", "is_disabled": 0, "rental_uris": {"ios": "https://dc.lft.to/lastmile_qr_scan", "android": "https://dc.lft.to/lastmile_qr_scan"}, "is_reserved": 0}, {"lon": -77.01651966666667, "bike_id": "24d2666a51712b765595f4929dabb765", "lat": 38.903759666666666, "fusion_lon": 0.0, "fusion_lat": 0.0, "type": "electric_scooter", "name": "24d2666a51712b765595f4929dabb765", "is_disabled": 0, "rental_uris": {"ios": "https://dc.lft.to/lastmile_qr_scan", "android": "https://dc.lft.to/lastmile_qr_scan"}, "is_reserved": 0}, {"lon": -77.03510783333333, "bike_id": "be06a756984b82470a00dc44a22f3b7b", "lat": 38.921517333333334, "fusion_lon": 0.0, "fusion_lat": 0.0, "type": "electric_scooter", "name": "be06a756984b82470a00dc44a22f3b7b", "is_disabled": 0, "rental_uris": {"ios": "https://dc.lft.to/lastmile_qr_scan", "android": "https://dc.lft.to/lastmile_qr_scan"}, "is_reserved": 0}, {"lon": -77.02386366666667, "bike_id": "2e0dbf2538c4c1d01412f60a650f2ddb", "lat": 38.91961, "fusion_lon": 0.0, "fusion_lat": 0.0, "type": "electric_scooter", "name": "2e0dbf2538c4c1d01412f60a650f2ddb", "is_disabled": 0, "rental_uris": {"ios": "https://dc.lft.to/lastmile_qr_scan", "android": "https://dc.lft.to/lastmile_qr_scan"}, "is_reserved": 0}, {"lon": -77.01848183333334, "bike_id": "8ff59a7a346619b4cb410b71ae6e3d0f", "lat": 38.914964833333336, "fusion_lon": 0.0, "fusion_lat": 0.0, "type": "electric_scooter", "name": "8ff59a7a346619b4cb410b71ae6e3d0f", "is_disabled": 0, "rental_uris": {"ios": "https://dc.lft.to/lastmile_qr_scan", "android": "https://dc.lft.to/lastmile_qr_scan"}, "is_reserved": 0}, {"lon": -76.98981466666666, "bike_id": "ff0cbd7b66d5c21933b270595546d77b", "lat": 38.93361183333333, "fusion_lon": 0.0, "fusion_lat": 0.0, "type": "electric_scooter", "name": "ff0cbd7b66d5c21933b270595546d77b", "is_disabled": 0, "rental_uris": {"ios": "https://dc.lft.to/lastmile_qr_scan", "android": "https://dc.lft.to/lastmile_qr_scan"}, "is_reserved": 0}, {"lon": -77.06742433333334, "bike_id": "4d82694716188a17a126d185815b28f4", "lat": 38.903609, "fusion_lon": 0.0, "fusion_lat": 0.0, "type": "electric_bike", "name": "4d82694716188a17a126d185815b28f4", "is_disabled": 0, "rental_uris": {"ios": "https://dc.lft.to/lastmile_qr_scan", "android": "https://dc.lft.to/lastmile_qr_scan"}, "is_reserved": 0}, {"lon": -77.02163766666666, "bike_id": "e93c3cf244e3271e182dd30dff5ec1ee", "lat": 38.95076733333333, "fusion_lon": 0.0, "fusion_lat": 0.0, "type": "electric_scooter", "name": "e93c3cf244e3271e182dd30dff5ec1ee", "is_disabled": 0, "rental_uris": {"ios": "https://dc.lft.to/lastmile_qr_scan", "android": "https://dc.lft.to/lastmile_qr_scan"}, "is_reserved": 0}, {"lon": -76.9801105, "bike_id": "c197faa99b1c1de1fcc28c56662c48aa", "lat": 38.853180333333334, "fusion_lon": 0.0, "fusion_lat": 0.0, "type": "electric_bike", "name": "c197faa99b1c1de1fcc28c56662c48aa", "is_disabled": 0, "rental_uris": {"ios": "https://dc.lft.to/lastmile_qr_scan", "android": "https://dc.lft.to/lastmile_qr_scan"}, "is_reserved": 0}, {"lon": -77.02005616666666, "bike_id": "075768fd3962dab1178cf02a02a4cd70", "lat": 38.92424916666667, "fusion_lon": 0.0, "fusion_lat": 0.0, "type": "electric_scooter", "name": "075768fd3962dab1178cf02a02a4cd70", "is_disabled": 0, "rental_uris": {"ios": "https://dc.lft.to/lastmile_qr_scan", "android": "https://dc.lft.to/lastmile_qr_scan"}, "is_reserved": 0}, {"lon": -77.0400865, "bike_id": "4dc464acbec4d5490ffd8ec724602049", "lat": 38.909906166666666, "fusion_lon": 0.0, "fusion_lat": 0.0, "type": "electric_scooter", "name": "4dc464acbec4d5490ffd8ec724602049", "is_disabled": 0, "rental_uris": {"ios": "https://dc.lft.to/lastmile_qr_scan", "android": "https://dc.lft.to/lastmile_qr_scan"}, "is_reserved": 0}, {"lon": -77.03472466666666, "bike_id": "6573b2ff42ac39a564159950f9d28501", "lat": 38.919846666666665, "fusion_lon": 0.0, "fusion_lat": 0.0, "type": "electric_scooter", "name": "6573b2ff42ac39a564159950f9d28501", "is_disabled": 0, "rental_uris": {"ios": "https://dc.lft.to/lastmile_qr_scan", "android": "https://dc.lft.to/lastmile_qr_scan"}, "is_reserved": 0}, {"lon": -77.03622183333333, "bike_id": "a5586d0ec0f850614317a6a757003783", "lat": 38.931646666666666, "fusion_lon": 0.0, "fusion_lat": 0.0, "type": "electric_scooter", "name": "a5586d0ec0f850614317a6a757003783", "is_disabled": 0, "rental_uris": {"ios": "https://dc.lft.to/lastmile_qr_scan", "android": "https://dc.lft.to/lastmile_qr_scan"}, "is_reserved": 0}, {"lon": -77.10842933333333, "bike_id": "7d04989fca3c48bccb6d5a6dd1ef38d3", "lat": 38.81204133333333, "fusion_lon": 0.0, "fusion_lat": 0.0, "type": "electric_bike", "name": "7d04989fca3c48bccb6d5a6dd1ef38d3", "is_disabled": 0, "rental_uris": {"ios": "https://dc.lft.to/lastmile_qr_scan", "android": "https://dc.lft.to/lastmile_qr_scan"}, "is_reserved": 0}, {"lon": -76.97803066666667, "bike_id": "1ecb89b9c1311b57862af74537283b74", "lat": 38.90664483333333, "fusion_lon": 0.0, "fusion_lat": 0.0, "type": "electric_scooter", "name": "1ecb89b9c1311b57862af74537283b74", "is_disabled": 0, "rental_uris": {"ios": "https://dc.lft.to/lastmile_qr_scan", "android": "https://dc.lft.to/lastmile_qr_scan"}, "is_reserved": 0}, {"lon": -77.01462316666667, "bike_id": "d403fc15e9c8562109f0673edaa07426", "lat": 38.91776566666667, "fusion_lon": 0.0, "fusion_lat": 0.0, "type": "electric_scooter", "name": "d403fc15e9c8562109f0673edaa07426", "is_disabled": 0, "rental_uris": {"ios": "https://dc.lft.to/lastmile_qr_scan", "android": "https://dc.lft.to/lastmile_qr_scan"}, "is_reserved": 0}, {"lon": -77.02574016666667, "bike_id": "c565964b930429c305786554b668a60d", "lat": 38.91502633333333, "fusion_lon": 0.0, "fusion_lat": 0.0, "type": "electric_scooter", "name": "c565964b930429c305786554b668a60d", "is_disabled": 0, "rental_uris": {"ios": "https://dc.lft.to/lastmile_qr_scan", "android": "https://dc.lft.to/lastmile_qr_scan"}, "is_reserved": 0}, {"lon": -76.991736, "bike_id": "c235d380a1a02d8be711e5fff95c239a", "lat": 38.90501866666666, "fusion_lon": 0.0, "fusion_lat": 0.0, "type": "electric_scooter", "name": "c235d380a1a02d8be711e5fff95c239a", "is_disabled": 0, "rental_uris": {"ios": "https://dc.lft.to/lastmile_qr_scan", "android": "https://dc.lft.to/lastmile_qr_scan"}, "is_reserved": 0}, {"lon": -77.02967383333333, "bike_id": "baff847d67efcaccc950911d6a2c248b", "lat": 38.90482183333334, "fusion_lon": 0.0, "fusion_lat": 0.0, "type": "electric_scooter", "name": "baff847d67efcaccc950911d6a2c248b", "is_disabled": 0, "rental_uris": {"ios": "https://dc.lft.to/lastmile_qr_scan", "android": "https://dc.lft.to/lastmile_qr_scan"}, "is_reserved": 0}, {"lon": -77.03578283333333, "bike_id": "de068c065a8544abbaddd962a634b2c0", "lat": 38.93472216666667, "fusion_lon": 0.0, "fusion_lat": 0.0, "type": "electric_scooter", "name": "de068c065a8544abbaddd962a634b2c0", "is_disabled": 0, "rental_uris": {"ios": "https://dc.lft.to/lastmile_qr_scan", "android": "https://dc.lft.to/lastmile_qr_scan"}, "is_reserved": 0}, {"lon": -76.89538716666667, "bike_id": "72edfcf02a56328f7c2929fb1a46764f", "lat": 38.94555, "fusion_lon": 0.0, "fusion_lat": 0.0, "type": "electric_bike", "name": "72edfcf02a56328f7c2929fb1a46764f", "is_disabled": 0, "rental_uris": {"ios": "https://dc.lft.to/lastmile_qr_scan", "android": "https://dc.lft.to/lastmile_qr_scan"}, "is_reserved": 0}, {"lon": -77.07109283333334, "bike_id": "c59f1f53e734d23373e45f9487e2d11d", "lat": 38.91973333333333, "fusion_lon": 0.0, "fusion_lat": 0.0, "type": "electric_scooter", "name": "c59f1f53e734d23373e45f9487e2d11d", "is_disabled": 0, "rental_uris": {"ios": "https://dc.lft.to/lastmile_qr_scan", "android": "https://dc.lft.to/lastmile_qr_scan"}, "is_reserved": 0}, {"lon": -77.04189383333333, "bike_id": "79984198062ecf34a5e4ed993e62ecfe", "lat": 38.920655833333335, "fusion_lon": 0.0, "fusion_lat": 0.0, "type": "electric_scooter", "name": "79984198062ecf34a5e4ed993e62ecfe", "is_disabled": 0, "rental_uris": {"ios": "https://dc.lft.to/lastmile_qr_scan", "android": "https://dc.lft.to/lastmile_qr_scan"}, "is_reserved": 0}, {"lon": -77.04415616666667, "bike_id": "70c86f9a6a846fa8d5939f70df212eca", "lat": 38.921028166666666, "fusion_lon": 0.0, "fusion_lat": 0.0, "type": "electric_scooter", "name": "70c86f9a6a846fa8d5939f70df212eca", "is_disabled": 0, "rental_uris": {"ios": "https://dc.lft.to/lastmile_qr_scan", "android": "https://dc.lft.to/lastmile_qr_scan"}, "is_reserved": 0}, {"lon": -77.07665166666666, "bike_id": "2bccdc241b72555b14d3ce3ecb34e125", "lat": 38.862596, "fusion_lon": 0.0, "fusion_lat": 0.0, "type": "electric_bike", "name": "2bccdc241b72555b14d3ce3ecb34e125", "is_disabled": 0, "rental_uris": {"ios": "https://dc.lft.to/lastmile_qr_scan", "android": "https://dc.lft.to/lastmile_qr_scan"}, "is_reserved": 0}, {"lon": -76.99003233333333, "bike_id": "67feefd0a2e1d9f3dd7fb55b179a896e", "lat": 38.946015333333335, "fusion_lon": 0.0, "fusion_lat": 0.0, "type": "electric_scooter", "name": "67feefd0a2e1d9f3dd7fb55b179a896e", "is_disabled": 0, "rental_uris": {"ios": "https://dc.lft.to/lastmile_qr_scan", "android": "https://dc.lft.to/lastmile_qr_scan"}, "is_reserved": 0}, {"lon": -77.02439683333333, "bike_id": "1f80758c325f6735c2331e95e169dac1", "lat": 38.92265483333333, "fusion_lon": 0.0, "fusion_lat": 0.0, "type": "electric_scooter", "name": "1f80758c325f6735c2331e95e169dac1", "is_disabled": 0, "rental_uris": {"ios": "https://dc.lft.to/lastmile_qr_scan", "android": "https://dc.lft.to/lastmile_qr_scan"}, "is_reserved": 0}, {"lon": -77.03867066666666, "bike_id": "bb0927f341da40389b7d49f064983a8f", "lat": 38.92014566666667, "fusion_lon": 0.0, "fusion_lat": 0.0, "type": "electric_scooter", "name": "bb0927f341da40389b7d49f064983a8f", "is_disabled": 0, "rental_uris": {"ios": "https://dc.lft.to/lastmile_qr_scan", "android": "https://dc.lft.to/lastmile_qr_scan"}, "is_reserved": 0}, {"lon": -76.99369516666667, "bike_id": "767a26a6b5ef4c9e075866c188ed4ac6", "lat": 38.940294, "fusion_lon": 0.0, "fusion_lat": 0.0, "type": "electric_scooter", "name": "767a26a6b5ef4c9e075866c188ed4ac6", "is_disabled": 0, "rental_uris": {"ios": "https://dc.lft.to/lastmile_qr_scan", "android": "https://dc.lft.to/lastmile_qr_scan"}, "is_reserved": 0}, {"lon": -76.99488983333333, "bike_id": "2c093ea2dcfef19be549f0dd254b3949", "lat": 38.879537, "fusion_lon": 0.0, "fusion_lat": 0.0, "type": "electric_scooter", "name": "2c093ea2dcfef19be549f0dd254b3949", "is_disabled": 0, "rental_uris": {"ios": "https://dc.lft.to/lastmile_qr_scan", "android": "https://dc.lft.to/lastmile_qr_scan"}, "is_reserved": 0}, {"lon": -76.98984883333333, "bike_id": "4162f4c845b5ad8c0636921d7fbe6345", "lat": 38.8592615, "fusion_lon": 0.0, "fusion_lat": 0.0, "type": "electric_scooter", "name": "4162f4c845b5ad8c0636921d7fbe6345", "is_disabled": 0, "rental_uris": {"ios": "https://dc.lft.to/lastmile_qr_scan", "android": "https://dc.lft.to/lastmile_qr_scan"}, "is_reserved": 0}, {"lon": -76.9985, "bike_id": "191915629e39fcb8a9ed6da92480107c", "lat": 38.90105116666667, "fusion_lon": 0.0, "fusion_lat": 0.0, "type": "electric_scooter", "name": "191915629e39fcb8a9ed6da92480107c", "is_disabled": 0, "rental_uris": {"ios": "https://dc.lft.to/lastmile_qr_scan", "android": "https://dc.lft.to/lastmile_qr_scan"}, "is_reserved": 0}, {"lon": -77.03677666666667, "bike_id": "454ee70ce99b63374975095b11543964", "lat": 38.929911, "fusion_lon": 0.0, "fusion_lat": 0.0, "type": "electric_scooter", "name": "454ee70ce99b63374975095b11543964", "is_disabled": 0, "rental_uris": {"ios": "https://dc.lft.to/lastmile_qr_scan", "android": "https://dc.lft.to/lastmile_qr_scan"}, "is_reserved": 0}, {"lon": -77.03180083333334, "bike_id": "84d25a86d63d48bdf7e2a25126fbb098", "lat": 38.91927716666667, "fusion_lon": 0.0, "fusion_lat": 0.0, "type": "electric_scooter", "name": "84d25a86d63d48bdf7e2a25126fbb098", "is_disabled": 0, "rental_uris": {"ios": "https://dc.lft.to/lastmile_qr_scan", "android": "https://dc.lft.to/lastmile_qr_scan"}, "is_reserved": 0}, {"lon": -77.02588216666666, "bike_id": "a9d9d309fedae2cfad359f41cad65f1e", "lat": 38.90006316666667, "fusion_lon": 0.0, "fusion_lat": 0.0, "type": "electric_scooter", "name": "a9d9d309fedae2cfad359f41cad65f1e", "is_disabled": 0, "rental_uris": {"ios": "https://dc.lft.to/lastmile_qr_scan", "android": "https://dc.lft.to/lastmile_qr_scan"}, "is_reserved": 0}, {"lon": -77.05129433333333, "bike_id": "8c6da62399d6a38d680e4c6de11977e5", "lat": 38.8985955, "fusion_lon": 0.0, "fusion_lat": 0.0, "type": "electric_scooter", "name": "8c6da62399d6a38d680e4c6de11977e5", "is_disabled": 0, "rental_uris": {"ios": "https://dc.lft.to/lastmile_qr_scan", "android": "https://dc.lft.to/lastmile_qr_scan"}, "is_reserved": 0}, {"lon": -77.04981, "bike_id": "37dd694d8b4226b07865d24bf1eb584b", "lat": 39.0629415, "fusion_lon": 0.0, "fusion_lat": 0.0, "type": "electric_bike", "name": "37dd694d8b4226b07865d24bf1eb584b", "is_disabled": 0, "rental_uris": {"ios": "https://dc.lft.to/lastmile_qr_scan", "android": "https://dc.lft.to/lastmile_qr_scan"}, "is_reserved": 0}, {"lon": -77.03418233333333, "bike_id": "b5cfe43bf8eb46e08cf7d7050ec6c8cb", "lat": 38.90265083333333, "fusion_lon": 0.0, "fusion_lat": 0.0, "type": "electric_scooter", "name": "b5cfe43bf8eb46e08cf7d7050ec6c8cb", "is_disabled": 0, "rental_uris": {"ios": "https://dc.lft.to/lastmile_qr_scan", "android": "https://dc.lft.to/lastmile_qr_scan"}, "is_reserved": 0}, {"lon": -76.93533083333334, "bike_id": "d12e64e7895c12a165a059eaad5293bb", "lat": 38.89682916666667, "fusion_lon": 0.0, "fusion_lat": 0.0, "type": "electric_scooter", "name": "d12e64e7895c12a165a059eaad5293bb", "is_disabled": 0, "rental_uris": {"ios": "https://dc.lft.to/lastmile_qr_scan", "android": "https://dc.lft.to/lastmile_qr_scan"}, "is_reserved": 0}, {"lon": -76.98098616666667, "bike_id": "7693801891326de21dccf89d885a09ff", "lat": 38.895583, "fusion_lon": 0.0, "fusion_lat": 0.0, "type": "electric_scooter", "name": "7693801891326de21dccf89d885a09ff", "is_disabled": 0, "rental_uris": {"ios": "https://dc.lft.to/lastmile_qr_scan", "android": "https://dc.lft.to/lastmile_qr_scan"}, "is_reserved": 0}, {"lon": -77.0271305, "bike_id": "5393c97f9e5c0dd8abf142527dcc82ed", "lat": 38.924676833333336, "fusion_lon": 0.0, "fusion_lat": 0.0, "type": "electric_scooter", "name": "5393c97f9e5c0dd8abf142527dcc82ed", "is_disabled": 0, "rental_uris": {"ios": "https://dc.lft.to/lastmile_qr_scan", "android": "https://dc.lft.to/lastmile_qr_scan"}, "is_reserved": 0}, {"lon": -76.96150266666666, "bike_id": "2d735204365a9e602c925c5dc117e53f", "lat": 38.883582, "fusion_lon": 0.0, "fusion_lat": 0.0, "type": "electric_scooter", "name": "2d735204365a9e602c925c5dc117e53f", "is_disabled": 0, "rental_uris": {"ios": "https://dc.lft.to/lastmile_qr_scan", "android": "https://dc.lft.to/lastmile_qr_scan"}, "is_reserved": 0}, {"lon": -77.031911, "bike_id": "d0b3c2112de22b312c65bd05ad941468", "lat": 38.919307833333335, "fusion_lon": 0.0, "fusion_lat": 0.0, "type": "electric_scooter", "name": "d0b3c2112de22b312c65bd05ad941468", "is_disabled": 0, "rental_uris": {"ios": "https://dc.lft.to/lastmile_qr_scan", "android": "https://dc.lft.to/lastmile_qr_scan"}, "is_reserved": 0}, {"lon": -76.99051366666667, "bike_id": "d175475649c37f5d8929c305735aa137", "lat": 38.887623, "fusion_lon": 0.0, "fusion_lat": 0.0, "type": "electric_scooter", "name": "d175475649c37f5d8929c305735aa137", "is_disabled": 0, "rental_uris": {"ios": "https://dc.lft.to/lastmile_qr_scan", "android": "https://dc.lft.to/lastmile_qr_scan"}, "is_reserved": 0}, {"lon": -76.967859, "bike_id": "1bf781daf9f38591efbd508d88639c1d", "lat": 38.868488, "fusion_lon": 0.0, "fusion_lat": 0.0, "type": "electric_scooter", "name": "1bf781daf9f38591efbd508d88639c1d", "is_disabled": 0, "rental_uris": {"ios": "https://dc.lft.to/lastmile_qr_scan", "android": "https://dc.lft.to/lastmile_qr_scan"}, "is_reserved": 0}, {"lon": -77.00817616666667, "bike_id": "8161882261764e2b370b807b7768b8d7", "lat": 38.9055945, "fusion_lon": 0.0, "fusion_lat": 0.0, "type": "electric_scooter", "name": "8161882261764e2b370b807b7768b8d7", "is_disabled": 0, "rental_uris": {"ios": "https://dc.lft.to/lastmile_qr_scan", "android": "https://dc.lft.to/lastmile_qr_scan"}, "is_reserved": 0}, {"lon": -77.03897333333333, "bike_id": "15f093bddf7b0b78c09e35bf1dbe3cac", "lat": 38.9100475, "fusion_lon": 0.0, "fusion_lat": 0.0, "type": "electric_scooter", "name": "15f093bddf7b0b78c09e35bf1dbe3cac", "is_disabled": 0, "rental_uris": {"ios": "https://dc.lft.to/lastmile_qr_scan", "android": "https://dc.lft.to/lastmile_qr_scan"}, "is_reserved": 0}, {"lon": -77.03868283333334, "bike_id": "20bef3d51aa5f38e05cbd3f1f90bb22a", "lat": 38.9450705, "fusion_lon": 0.0, "fusion_lat": 0.0, "type": "electric_scooter", "name": "20bef3d51aa5f38e05cbd3f1f90bb22a", "is_disabled": 0, "rental_uris": {"ios": "https://dc.lft.to/lastmile_qr_scan", "android": "https://dc.lft.to/lastmile_qr_scan"}, "is_reserved": 0}, {"lon": -76.999414, "bike_id": "c6d09b6162bb83ba42e85566dd342f3c", "lat": 38.90626983333333, "fusion_lon": 0.0, "fusion_lat": 0.0, "type": "electric_scooter", "name": "c6d09b6162bb83ba42e85566dd342f3c", "is_disabled": 0, "rental_uris": {"ios": "https://dc.lft.to/lastmile_qr_scan", "android": "https://dc.lft.to/lastmile_qr_scan"}, "is_reserved": 0}, {"lon": -77.01245166666666, "bike_id": "9fd7bf4b461e74c9e1e063e0ac408558", "lat": 38.89301566666666, "fusion_lon": 0.0, "fusion_lat": 0.0, "type": "electric_scooter", "name": "9fd7bf4b461e74c9e1e063e0ac408558", "is_disabled": 0, "rental_uris": {"ios": "https://dc.lft.to/lastmile_qr_scan", "android": "https://dc.lft.to/lastmile_qr_scan"}, "is_reserved": 0}, {"lon": -77.0243425, "bike_id": "84177c168c5c965f721fc2dd02e45b22", "lat": 38.926549666666666, "fusion_lon": 0.0, "fusion_lat": 0.0, "type": "electric_scooter", "name": "84177c168c5c965f721fc2dd02e45b22", "is_disabled": 0, "rental_uris": {"ios": "https://dc.lft.to/lastmile_qr_scan", "android": "https://dc.lft.to/lastmile_qr_scan"}, "is_reserved": 0}, {"lon": -77.0317495, "bike_id": "1e352b1c6e647153abf8d8da8de52a32", "lat": 38.892269666666664, "fusion_lon": 0.0, "fusion_lat": 0.0, "type": "electric_scooter", "name": "1e352b1c6e647153abf8d8da8de52a32", "is_disabled": 0, "rental_uris": {"ios": "https://dc.lft.to/lastmile_qr_scan", "android": "https://dc.lft.to/lastmile_qr_scan"}, "is_reserved": 0}, {"lon": -77.01575916666667, "bike_id": "71bb06ee2e5d6ea0303dfd0340a3d9e5", "lat": 38.9656335, "fusion_lon": 0.0, "fusion_lat": 0.0, "type": "electric_scooter", "name": "71bb06ee2e5d6ea0303dfd0340a3d9e5", "is_disabled": 0, "rental_uris": {"ios": "https://dc.lft.to/lastmile_qr_scan", "android": "https://dc.lft.to/lastmile_qr_scan"}, "is_reserved": 0}, {"lon": -77.01624783333334, "bike_id": "da51d22354207c4cc0315732aa803bb4", "lat": 38.9056985, "fusion_lon": 0.0, "fusion_lat": 0.0, "type": "electric_scooter", "name": "da51d22354207c4cc0315732aa803bb4", "is_disabled": 0, "rental_uris": {"ios": "https://dc.lft.to/lastmile_qr_scan", "android": "https://dc.lft.to/lastmile_qr_scan"}, "is_reserved": 0}, {"lon": -77.03899616666666, "bike_id": "810584222752d18ca79237d85a0e1d1f", "lat": 38.918440333333336, "fusion_lon": 0.0, "fusion_lat": 0.0, "type": "electric_scooter", "name": "810584222752d18ca79237d85a0e1d1f", "is_disabled": 0, "rental_uris": {"ios": "https://dc.lft.to/lastmile_qr_scan", "android": "https://dc.lft.to/lastmile_qr_scan"}, "is_reserved": 0}, {"lon": -77.03584233333333, "bike_id": "431dc17e053e9b488fb5bc63b5e4b5cf", "lat": 38.917653666666666, "fusion_lon": 0.0, "fusion_lat": 0.0, "type": "electric_scooter", "name": "431dc17e053e9b488fb5bc63b5e4b5cf", "is_disabled": 0, "rental_uris": {"ios": "https://dc.lft.to/lastmile_qr_scan", "android": "https://dc.lft.to/lastmile_qr_scan"}, "is_reserved": 0}, {"lon": -76.99169166666667, "bike_id": "530fc18a9f4a6ce5ab3ed3de38d6ae8d", "lat": 38.88981233333333, "fusion_lon": 0.0, "fusion_lat": 0.0, "type": "electric_scooter", "name": "530fc18a9f4a6ce5ab3ed3de38d6ae8d", "is_disabled": 0, "rental_uris": {"ios": "https://dc.lft.to/lastmile_qr_scan", "android": "https://dc.lft.to/lastmile_qr_scan"}, "is_reserved": 0}, {"lon": -77.00347633333334, "bike_id": "47644d2d5365b5441a3f667b1a3ebf13", "lat": 38.91633233333334, "fusion_lon": 0.0, "fusion_lat": 0.0, "type": "electric_scooter", "name": "47644d2d5365b5441a3f667b1a3ebf13", "is_disabled": 0, "rental_uris": {"ios": "https://dc.lft.to/lastmile_qr_scan", "android": "https://dc.lft.to/lastmile_qr_scan"}, "is_reserved": 0}, {"lon": -77.032556, "bike_id": "e505ee2b8238ed4b9efed2acfc2c4e5a", "lat": 38.94148833333333, "fusion_lon": 0.0, "fusion_lat": 0.0, "type": "electric_scooter", "name": "e505ee2b8238ed4b9efed2acfc2c4e5a", "is_disabled": 0, "rental_uris": {"ios": "https://dc.lft.to/lastmile_qr_scan", "android": "https://dc.lft.to/lastmile_qr_scan"}, "is_reserved": 0}, {"lon": -77.02442816666667, "bike_id": "f2deaf034c989b716f49593176baf782", "lat": 38.92347516666667, "fusion_lon": 0.0, "fusion_lat": 0.0, "type": "electric_scooter", "name": "f2deaf034c989b716f49593176baf782", "is_disabled": 0, "rental_uris": {"ios": "https://dc.lft.to/lastmile_qr_scan", "android": "https://dc.lft.to/lastmile_qr_scan"}, "is_reserved": 0}, {"lon": -77.040931, "bike_id": "016e8deb3c568b03f29c29c602083b65", "lat": 38.90947766666667, "fusion_lon": 0.0, "fusion_lat": 0.0, "type": "electric_scooter", "name": "016e8deb3c568b03f29c29c602083b65", "is_disabled": 0, "rental_uris": {"ios": "https://dc.lft.to/lastmile_qr_scan", "android": "https://dc.lft.to/lastmile_qr_scan"}, "is_reserved": 0}, {"lon": -77.050604, "bike_id": "53bd8a87d944038ec84fdc2fa6465d67", "lat": 38.9258475, "fusion_lon": 0.0, "fusion_lat": 0.0, "type": "electric_scooter", "name": "53bd8a87d944038ec84fdc2fa6465d67", "is_disabled": 0, "rental_uris": {"ios": "https://dc.lft.to/lastmile_qr_scan", "android": "https://dc.lft.to/lastmile_qr_scan"}, "is_reserved": 0}, {"lon": -77.036471, "bike_id": "46589625bcd581a4120e34fbee98adc1", "lat": 38.916811, "fusion_lon": 0.0, "fusion_lat": 0.0, "type": "electric_scooter", "name": "46589625bcd581a4120e34fbee98adc1", "is_disabled": 0, "rental_uris": {"ios": "https://dc.lft.to/lastmile_qr_scan", "android": "https://dc.lft.to/lastmile_qr_scan"}, "is_reserved": 0}, {"lon": -77.0376455, "bike_id": "6b686849a2cad75b7eb664118688fa3c", "lat": 38.928814, "fusion_lon": 0.0, "fusion_lat": 0.0, "type": "electric_scooter", "name": "6b686849a2cad75b7eb664118688fa3c", "is_disabled": 0, "rental_uris": {"ios": "https://dc.lft.to/lastmile_qr_scan", "android": "https://dc.lft.to/lastmile_qr_scan"}, "is_reserved": 0}, {"lon": -77.0333635, "bike_id": "6d245799299d250528ce7240b559d469", "lat": 38.9155925, "fusion_lon": 0.0, "fusion_lat": 0.0, "type": "electric_scooter", "name": "6d245799299d250528ce7240b559d469", "is_disabled": 0, "rental_uris": {"ios": "https://dc.lft.to/lastmile_qr_scan", "android": "https://dc.lft.to/lastmile_qr_scan"}, "is_reserved": 0}, {"lon": -76.98464783333333, "bike_id": "49386973f14513e944f731eaa18adbd1", "lat": 38.90560116666666, "fusion_lon": 0.0, "fusion_lat": 0.0, "type": "electric_scooter", "name": "49386973f14513e944f731eaa18adbd1", "is_disabled": 0, "rental_uris": {"ios": "https://dc.lft.to/lastmile_qr_scan", "android": "https://dc.lft.to/lastmile_qr_scan"}, "is_reserved": 0}, {"lon": -77.10328583333333, "bike_id": "5181468cdf9298aa16d19c5ecb017db9", "lat": 38.88551666666667, "fusion_lon": 0.0, "fusion_lat": 0.0, "type": "electric_bike", "name": "5181468cdf9298aa16d19c5ecb017db9", "is_disabled": 0, "rental_uris": {"ios": "https://dc.lft.to/lastmile_qr_scan", "android": "https://dc.lft.to/lastmile_qr_scan"}, "is_reserved": 0}, {"lon": -77.03264966666667, "bike_id": "f06a2da65357397ba76bab5ebd0b8eb9", "lat": 38.93663933333333, "fusion_lon": 0.0, "fusion_lat": 0.0, "type": "electric_scooter", "name": "f06a2da65357397ba76bab5ebd0b8eb9", "is_disabled": 0, "rental_uris": {"ios": "https://dc.lft.to/lastmile_qr_scan", "android": "https://dc.lft.to/lastmile_qr_scan"}, "is_reserved": 0}, {"lon": -77.03983583333333, "bike_id": "f8d0c42470dc89b5b7d6aa48dc6123a9", "lat": 38.9164245, "fusion_lon": 0.0, "fusion_lat": 0.0, "type": "electric_scooter", "name": "f8d0c42470dc89b5b7d6aa48dc6123a9", "is_disabled": 0, "rental_uris": {"ios": "https://dc.lft.to/lastmile_qr_scan", "android": "https://dc.lft.to/lastmile_qr_scan"}, "is_reserved": 0}, {"lon": -77.021749, "bike_id": "6ca5bb905b6a8776af9f7f690356fc6a", "lat": 38.8973355, "fusion_lon": 0.0, "fusion_lat": 0.0, "type": "electric_scooter", "name": "6ca5bb905b6a8776af9f7f690356fc6a", "is_disabled": 0, "rental_uris": {"ios": "https://dc.lft.to/lastmile_qr_scan", "android": "https://dc.lft.to/lastmile_qr_scan"}, "is_reserved": 0}, {"lon": -77.002012, "bike_id": "4cdbe1d86bfa47dce70c91bd8b74f5e5", "lat": 38.90037266666667, "fusion_lon": 0.0, "fusion_lat": 0.0, "type": "electric_scooter", "name": "4cdbe1d86bfa47dce70c91bd8b74f5e5", "is_disabled": 0, "rental_uris": {"ios": "https://dc.lft.to/lastmile_qr_scan", "android": "https://dc.lft.to/lastmile_qr_scan"}, "is_reserved": 0}, {"lon": -77.01599333333333, "bike_id": "887ec582f1883f88e619d4a70c29a61a", "lat": 38.899726, "fusion_lon": 0.0, "fusion_lat": 0.0, "type": "electric_scooter", "name": "887ec582f1883f88e619d4a70c29a61a", "is_disabled": 0, "rental_uris": {"ios": "https://dc.lft.to/lastmile_qr_scan", "android": "https://dc.lft.to/lastmile_qr_scan"}, "is_reserved": 0}, {"lon": -77.010525, "bike_id": "f8c6565d3fb890a6da3642984ed31113", "lat": 38.96352233333333, "fusion_lon": 0.0, "fusion_lat": 0.0, "type": "electric_scooter", "name": "f8c6565d3fb890a6da3642984ed31113", "is_disabled": 0, "rental_uris": {"ios": "https://dc.lft.to/lastmile_qr_scan", "android": "https://dc.lft.to/lastmile_qr_scan"}, "is_reserved": 0}, {"lon": -77.02596933333334, "bike_id": "8245f03f503e8d88920fe2b9f12248af", "lat": 38.904861833333335, "fusion_lon": 0.0, "fusion_lat": 0.0, "type": "electric_scooter", "name": "8245f03f503e8d88920fe2b9f12248af", "is_disabled": 0, "rental_uris": {"ios": "https://dc.lft.to/lastmile_qr_scan", "android": "https://dc.lft.to/lastmile_qr_scan"}, "is_reserved": 0}, {"lon": -77.00991133333333, "bike_id": "4f0413ee24ce7ed5642a33e2435d66de", "lat": 38.903813166666666, "fusion_lon": 0.0, "fusion_lat": 0.0, "type": "electric_scooter", "name": "4f0413ee24ce7ed5642a33e2435d66de", "is_disabled": 0, "rental_uris": {"ios": "https://dc.lft.to/lastmile_qr_scan", "android": "https://dc.lft.to/lastmile_qr_scan"}, "is_reserved": 0}, {"lon": -77.02815133333333, "bike_id": "35368481d300a0f85f543adf4f8e1d3c", "lat": 38.895125666666665, "fusion_lon": 0.0, "fusion_lat": 0.0, "type": "electric_scooter", "name": "35368481d300a0f85f543adf4f8e1d3c", "is_disabled": 0, "rental_uris": {"ios": "https://dc.lft.to/lastmile_qr_scan", "android": "https://dc.lft.to/lastmile_qr_scan"}, "is_reserved": 0}, {"lon": -77.000774, "bike_id": "1c42422e5873c68a1cfa0f3e2ef13a62", "lat": 38.908310666666665, "fusion_lon": 0.0, "fusion_lat": 0.0, "type": "electric_scooter", "name": "1c42422e5873c68a1cfa0f3e2ef13a62", "is_disabled": 0, "rental_uris": {"ios": "https://dc.lft.to/lastmile_qr_scan", "android": "https://dc.lft.to/lastmile_qr_scan"}, "is_reserved": 0}, {"lon": -77.0368, "bike_id": "55db6c57fc8d1283a24cb3a28c925a97", "lat": 38.912651833333335, "fusion_lon": 0.0, "fusion_lat": 0.0, "type": "electric_scooter", "name": "55db6c57fc8d1283a24cb3a28c925a97", "is_disabled": 0, "rental_uris": {"ios": "https://dc.lft.to/lastmile_qr_scan", "android": "https://dc.lft.to/lastmile_qr_scan"}, "is_reserved": 0}, {"lon": -77.00743333333334, "bike_id": "5e361650b3b731935f01ea4cd7c6fd42", "lat": 38.925283, "fusion_lon": 0.0, "fusion_lat": 0.0, "type": "electric_scooter", "name": "5e361650b3b731935f01ea4cd7c6fd42", "is_disabled": 0, "rental_uris": {"ios": "https://dc.lft.to/lastmile_qr_scan", "android": "https://dc.lft.to/lastmile_qr_scan"}, "is_reserved": 0}, {"lon": -77.046056, "bike_id": "73e0ef7b3a149334fea51a5f5e729635", "lat": 38.88381033333334, "fusion_lon": 0.0, "fusion_lat": 0.0, "type": "electric_scooter", "name": "73e0ef7b3a149334fea51a5f5e729635", "is_disabled": 0, "rental_uris": {"ios": "https://dc.lft.to/lastmile_qr_scan", "android": "https://dc.lft.to/lastmile_qr_scan"}, "is_reserved": 0}, {"lon": -77.028022, "bike_id": "290f95f8e4dfacae3264b5d3bc428d14", "lat": 38.95420683333333, "fusion_lon": 0.0, "fusion_lat": 0.0, "type": "electric_scooter", "name": "290f95f8e4dfacae3264b5d3bc428d14", "is_disabled": 0, "rental_uris": {"ios": "https://dc.lft.to/lastmile_qr_scan", "android": "https://dc.lft.to/lastmile_qr_scan"}, "is_reserved": 0}, {"lon": -77.02259116666667, "bike_id": "928dae4b47a4036afd808b97c2d817a4", "lat": 38.928279, "fusion_lon": 0.0, "fusion_lat": 0.0, "type": "electric_scooter", "name": "928dae4b47a4036afd808b97c2d817a4", "is_disabled": 0, "rental_uris": {"ios": "https://dc.lft.to/lastmile_qr_scan", "android": "https://dc.lft.to/lastmile_qr_scan"}, "is_reserved": 0}, {"lon": -76.96378866666667, "bike_id": "5d984c4f07c0399557bef41f80968ff8", "lat": 38.951795833333335, "fusion_lon": 0.0, "fusion_lat": 0.0, "type": "electric_bike", "name": "5d984c4f07c0399557bef41f80968ff8", "is_disabled": 0, "rental_uris": {"ios": "https://dc.lft.to/lastmile_qr_scan", "android": "https://dc.lft.to/lastmile_qr_scan"}, "is_reserved": 0}, {"lon": -77.05743383333333, "bike_id": "3e1465a5c43908462b7a4eb85a8217c7", "lat": 38.924248666666664, "fusion_lon": 0.0, "fusion_lat": 0.0, "type": "electric_scooter", "name": "3e1465a5c43908462b7a4eb85a8217c7", "is_disabled": 0, "rental_uris": {"ios": "https://dc.lft.to/lastmile_qr_scan", "android": "https://dc.lft.to/lastmile_qr_scan"}, "is_reserved": 0}, {"lon": -77.022365, "bike_id": "57aa9af9c60aa748dec6edad91b459a5", "lat": 38.90857066666667, "fusion_lon": 0.0, "fusion_lat": 0.0, "type": "electric_scooter", "name": "57aa9af9c60aa748dec6edad91b459a5", "is_disabled": 0, "rental_uris": {"ios": "https://dc.lft.to/lastmile_qr_scan", "android": "https://dc.lft.to/lastmile_qr_scan"}, "is_reserved": 0}, {"lon": -77.22801516666667, "bike_id": "dd9cba93e84c92c6a6f9414811a2d098", "lat": 38.910189333333335, "fusion_lon": 0.0, "fusion_lat": 0.0, "type": "electric_bike", "name": "dd9cba93e84c92c6a6f9414811a2d098", "is_disabled": 0, "rental_uris": {"ios": "https://dc.lft.to/lastmile_qr_scan", "android": "https://dc.lft.to/lastmile_qr_scan"}, "is_reserved": 0}, {"lon": -77.03123316666667, "bike_id": "785491ea03587d92224fbb256e81ff39", "lat": 38.9882945, "fusion_lon": 0.0, "fusion_lat": 0.0, "type": "electric_scooter", "name": "785491ea03587d92224fbb256e81ff39", "is_disabled": 0, "rental_uris": {"ios": "https://dc.lft.to/lastmile_qr_scan", "android": "https://dc.lft.to/lastmile_qr_scan"}, "is_reserved": 0}, {"lon": -77.03331016666667, "bike_id": "b8a8aff7aa9318de99b1e61997c202db", "lat": 38.960496, "fusion_lon": 0.0, "fusion_lat": 0.0, "type": "electric_scooter", "name": "b8a8aff7aa9318de99b1e61997c202db", "is_disabled": 0, "rental_uris": {"ios": "https://dc.lft.to/lastmile_qr_scan", "android": "https://dc.lft.to/lastmile_qr_scan"}, "is_reserved": 0}, {"lon": -77.01986116666667, "bike_id": "af524867e1d26ea65477b0dd2114a473", "lat": 38.91102133333333, "fusion_lon": 0.0, "fusion_lat": 0.0, "type": "electric_scooter", "name": "af524867e1d26ea65477b0dd2114a473", "is_disabled": 0, "rental_uris": {"ios": "https://dc.lft.to/lastmile_qr_scan", "android": "https://dc.lft.to/lastmile_qr_scan"}, "is_reserved": 0}, {"lon": -77.00710283333333, "bike_id": "8ad9100c164f4b8aa74baa734d071d6a", "lat": 38.90572183333333, "fusion_lon": 0.0, "fusion_lat": 0.0, "type": "electric_scooter", "name": "8ad9100c164f4b8aa74baa734d071d6a", "is_disabled": 0, "rental_uris": {"ios": "https://dc.lft.to/lastmile_qr_scan", "android": "https://dc.lft.to/lastmile_qr_scan"}, "is_reserved": 0}, {"lon": -77.04345666666667, "bike_id": "3ac70f6f5b26f12ec0afbccc6fabc99a", "lat": 38.90722866666667, "fusion_lon": 0.0, "fusion_lat": 0.0, "type": "electric_scooter", "name": "3ac70f6f5b26f12ec0afbccc6fabc99a", "is_disabled": 0, "rental_uris": {"ios": "https://dc.lft.to/lastmile_qr_scan", "android": "https://dc.lft.to/lastmile_qr_scan"}, "is_reserved": 0}, {"lon": -77.0385835, "bike_id": "b53887bace19286a273e5ba7a5a50bfb", "lat": 38.918092666666666, "fusion_lon": 0.0, "fusion_lat": 0.0, "type": "electric_scooter", "name": "b53887bace19286a273e5ba7a5a50bfb", "is_disabled": 0, "rental_uris": {"ios": "https://dc.lft.to/lastmile_qr_scan", "android": "https://dc.lft.to/lastmile_qr_scan"}, "is_reserved": 0}, {"lon": -77.01020083333333, "bike_id": "cd04f2116e88929a5ce0476056fb5d5c", "lat": 38.90857183333333, "fusion_lon": 0.0, "fusion_lat": 0.0, "type": "electric_scooter", "name": "cd04f2116e88929a5ce0476056fb5d5c", "is_disabled": 0, "rental_uris": {"ios": "https://dc.lft.to/lastmile_qr_scan", "android": "https://dc.lft.to/lastmile_qr_scan"}, "is_reserved": 0}, {"lon": -77.02085683333334, "bike_id": "5bec76e45022bcdb63e1ba789eefb68f", "lat": 38.929095, "fusion_lon": 0.0, "fusion_lat": 0.0, "type": "electric_scooter", "name": "5bec76e45022bcdb63e1ba789eefb68f", "is_disabled": 0, "rental_uris": {"ios": "https://dc.lft.to/lastmile_qr_scan", "android": "https://dc.lft.to/lastmile_qr_scan"}, "is_reserved": 0}, {"lon": -77.03216466666667, "bike_id": "534e8b724f7c02b22855970682a168e1", "lat": 38.9193165, "fusion_lon": 0.0, "fusion_lat": 0.0, "type": "electric_scooter", "name": "534e8b724f7c02b22855970682a168e1", "is_disabled": 0, "rental_uris": {"ios": "https://dc.lft.to/lastmile_qr_scan", "android": "https://dc.lft.to/lastmile_qr_scan"}, "is_reserved": 0}, {"lon": -76.9937915, "bike_id": "2ce722943bf000465681467c9e0ee815", "lat": 38.971863666666664, "fusion_lon": 0.0, "fusion_lat": 0.0, "type": "electric_bike", "name": "2ce722943bf000465681467c9e0ee815", "is_disabled": 0, "rental_uris": {"ios": "https://dc.lft.to/lastmile_qr_scan", "android": "https://dc.lft.to/lastmile_qr_scan"}, "is_reserved": 0}, {"lon": -77.04876383333334, "bike_id": "57b193514a72e99673597df6cbbfcc9a", "lat": 38.89235383333333, "fusion_lon": 0.0, "fusion_lat": 0.0, "type": "electric_scooter", "name": "57b193514a72e99673597df6cbbfcc9a", "is_disabled": 0, "rental_uris": {"ios": "https://dc.lft.to/lastmile_qr_scan", "android": "https://dc.lft.to/lastmile_qr_scan"}, "is_reserved": 0}, {"lon": -77.01311033333333, "bike_id": "f18b23fd83e76a8660f7f06615d5e376", "lat": 38.943344833333335, "fusion_lon": 0.0, "fusion_lat": 0.0, "type": "electric_scooter", "name": "f18b23fd83e76a8660f7f06615d5e376", "is_disabled": 0, "rental_uris": {"ios": "https://dc.lft.to/lastmile_qr_scan", "android": "https://dc.lft.to/lastmile_qr_scan"}, "is_reserved": 0}, {"lon": -76.98101483333333, "bike_id": "52f9b3be90edcbd925b80a1f1dcb44b8", "lat": 38.905307666666666, "fusion_lon": 0.0, "fusion_lat": 0.0, "type": "electric_scooter", "name": "52f9b3be90edcbd925b80a1f1dcb44b8", "is_disabled": 0, "rental_uris": {"ios": "https://dc.lft.to/lastmile_qr_scan", "android": "https://dc.lft.to/lastmile_qr_scan"}, "is_reserved": 0}, {"lon": -77.0700405, "bike_id": "f7312b40868693854ad3f5431e752aee", "lat": 38.958521166666664, "fusion_lon": 0.0, "fusion_lat": 0.0, "type": "electric_scooter", "name": "f7312b40868693854ad3f5431e752aee", "is_disabled": 0, "rental_uris": {"ios": "https://dc.lft.to/lastmile_qr_scan", "android": "https://dc.lft.to/lastmile_qr_scan"}, "is_reserved": 0}, {"lon": -77.03668716666667, "bike_id": "211ab31111f5791fca89092e8096e145", "lat": 38.92333283333333, "fusion_lon": 0.0, "fusion_lat": 0.0, "type": "electric_scooter", "name": "211ab31111f5791fca89092e8096e145", "is_disabled": 0, "rental_uris": {"ios": "https://dc.lft.to/lastmile_qr_scan", "android": "https://dc.lft.to/lastmile_qr_scan"}, "is_reserved": 0}, {"lon": -77.039112, "bike_id": "0f64b9ef84be87800ad9f0b047cb9608", "lat": 38.900516, "fusion_lon": 0.0, "fusion_lat": 0.0, "type": "electric_scooter", "name": "0f64b9ef84be87800ad9f0b047cb9608", "is_disabled": 0, "rental_uris": {"ios": "https://dc.lft.to/lastmile_qr_scan", "android": "https://dc.lft.to/lastmile_qr_scan"}, "is_reserved": 0}, {"lon": -76.999487, "bike_id": "faee2a44881d9322d5b521890b7adb59", "lat": 38.898239, "fusion_lon": 0.0, "fusion_lat": 0.0, "type": "electric_scooter", "name": "faee2a44881d9322d5b521890b7adb59", "is_disabled": 0, "rental_uris": {"ios": "https://dc.lft.to/lastmile_qr_scan", "android": "https://dc.lft.to/lastmile_qr_scan"}, "is_reserved": 0}, {"lon": -77.00579016666667, "bike_id": "fe2699e0af82585388443fdbfb2210d4", "lat": 38.835917333333335, "fusion_lon": 0.0, "fusion_lat": 0.0, "type": "electric_scooter", "name": "fe2699e0af82585388443fdbfb2210d4", "is_disabled": 0, "rental_uris": {"ios": "https://dc.lft.to/lastmile_qr_scan", "android": "https://dc.lft.to/lastmile_qr_scan"}, "is_reserved": 0}, {"lon": -77.0119695, "bike_id": "246651f7812fabd5787bcd7b6930a05e", "lat": 38.82409066666666, "fusion_lon": 0.0, "fusion_lat": 0.0, "type": "electric_bike", "name": "246651f7812fabd5787bcd7b6930a05e", "is_disabled": 0, "rental_uris": {"ios": "https://dc.lft.to/lastmile_qr_scan", "android": "https://dc.lft.to/lastmile_qr_scan"}, "is_reserved": 0}, {"lon": -77.045788, "bike_id": "d7d473516e425e362598a3d5462ea650", "lat": 38.913649166666666, "fusion_lon": 0.0, "fusion_lat": 0.0, "type": "electric_scooter", "name": "d7d473516e425e362598a3d5462ea650", "is_disabled": 0, "rental_uris": {"ios": "https://dc.lft.to/lastmile_qr_scan", "android": "https://dc.lft.to/lastmile_qr_scan"}, "is_reserved": 0}, {"lon": -77.0316655, "bike_id": "79d028bc0a1f0e69f2e2762387b78eca", "lat": 38.897723, "fusion_lon": 0.0, "fusion_lat": 0.0, "type": "electric_scooter", "name": "79d028bc0a1f0e69f2e2762387b78eca", "is_disabled": 0, "rental_uris": {"ios": "https://dc.lft.to/lastmile_qr_scan", "android": "https://dc.lft.to/lastmile_qr_scan"}, "is_reserved": 0}, {"lon": -77.02335733333334, "bike_id": "730456501f3247cab09195d9edc11c46", "lat": 38.89497566666667, "fusion_lon": 0.0, "fusion_lat": 0.0, "type": "electric_scooter", "name": "730456501f3247cab09195d9edc11c46", "is_disabled": 0, "rental_uris": {"ios": "https://dc.lft.to/lastmile_qr_scan", "android": "https://dc.lft.to/lastmile_qr_scan"}, "is_reserved": 0}, {"lon": -77.00055383333333, "bike_id": "7b96059d6ff522876814a6d642331a23", "lat": 38.92394266666667, "fusion_lon": 0.0, "fusion_lat": 0.0, "type": "electric_scooter", "name": "7b96059d6ff522876814a6d642331a23", "is_disabled": 0, "rental_uris": {"ios": "https://dc.lft.to/lastmile_qr_scan", "android": "https://dc.lft.to/lastmile_qr_scan"}, "is_reserved": 0}, {"lon": -77.04758433333333, "bike_id": "9078577f8514d6aa8cd5f37c6078a3bb", "lat": 38.917640666666664, "fusion_lon": 0.0, "fusion_lat": 0.0, "type": "electric_scooter", "name": "9078577f8514d6aa8cd5f37c6078a3bb", "is_disabled": 0, "rental_uris": {"ios": "https://dc.lft.to/lastmile_qr_scan", "android": "https://dc.lft.to/lastmile_qr_scan"}, "is_reserved": 0}, {"lon": -77.03634, "bike_id": "c5cac29a0ecdef2a5cc15a4991edbceb", "lat": 38.93297716666667, "fusion_lon": 0.0, "fusion_lat": 0.0, "type": "electric_bike", "name": "c5cac29a0ecdef2a5cc15a4991edbceb", "is_disabled": 0, "rental_uris": {"ios": "https://dc.lft.to/lastmile_qr_scan", "android": "https://dc.lft.to/lastmile_qr_scan"}, "is_reserved": 0}, {"lon": -77.03203383333333, "bike_id": "0322a829c2155fd895fbbce94c34a040", "lat": 38.909726166666665, "fusion_lon": 0.0, "fusion_lat": 0.0, "type": "electric_scooter", "name": "0322a829c2155fd895fbbce94c34a040", "is_disabled": 0, "rental_uris": {"ios": "https://dc.lft.to/lastmile_qr_scan", "android": "https://dc.lft.to/lastmile_qr_scan"}, "is_reserved": 0}, {"lon": -77.03451033333333, "bike_id": "a72766111a7fa85afed25726a4693fdf", "lat": 38.92740666666667, "fusion_lon": 0.0, "fusion_lat": 0.0, "type": "electric_scooter", "name": "a72766111a7fa85afed25726a4693fdf", "is_disabled": 0, "rental_uris": {"ios": "https://dc.lft.to/lastmile_qr_scan", "android": "https://dc.lft.to/lastmile_qr_scan"}, "is_reserved": 0}, {"lon": -76.98529183333333, "bike_id": "a6813571235fb55d2d243ea36b1a754d", "lat": 38.90461033333333, "fusion_lon": 0.0, "fusion_lat": 0.0, "type": "electric_scooter", "name": "a6813571235fb55d2d243ea36b1a754d", "is_disabled": 0, "rental_uris": {"ios": "https://dc.lft.to/lastmile_qr_scan", "android": "https://dc.lft.to/lastmile_qr_scan"}, "is_reserved": 0}, {"lon": -77.11710866666667, "bike_id": "952d3ba3e687f44cbce14c7ca55d8a33", "lat": 38.867469, "fusion_lon": 0.0, "fusion_lat": 0.0, "type": "electric_bike", "name": "952d3ba3e687f44cbce14c7ca55d8a33", "is_disabled": 0, "rental_uris": {"ios": "https://dc.lft.to/lastmile_qr_scan", "android": "https://dc.lft.to/lastmile_qr_scan"}, "is_reserved": 0}, {"lon": -77.03217816666667, "bike_id": "bc18d189c863448b6f9c57d94f58eae1", "lat": 38.9193385, "fusion_lon": 0.0, "fusion_lat": 0.0, "type": "electric_scooter", "name": "bc18d189c863448b6f9c57d94f58eae1", "is_disabled": 0, "rental_uris": {"ios": "https://dc.lft.to/lastmile_qr_scan", "android": "https://dc.lft.to/lastmile_qr_scan"}, "is_reserved": 0}, {"lon": -76.9574735, "bike_id": "3ee7e7f4f1d6be9d0507471402b092d5", "lat": 38.88428783333333, "fusion_lon": 0.0, "fusion_lat": 0.0, "type": "electric_scooter", "name": "3ee7e7f4f1d6be9d0507471402b092d5", "is_disabled": 0, "rental_uris": {"ios": "https://dc.lft.to/lastmile_qr_scan", "android": "https://dc.lft.to/lastmile_qr_scan"}, "is_reserved": 0}, {"lon": -77.00332666666667, "bike_id": "6f1e50c889d3eb8919a206a6d7734abf", "lat": 38.8919015, "fusion_lon": 0.0, "fusion_lat": 0.0, "type": "electric_scooter", "name": "6f1e50c889d3eb8919a206a6d7734abf", "is_disabled": 0, "rental_uris": {"ios": "https://dc.lft.to/lastmile_qr_scan", "android": "https://dc.lft.to/lastmile_qr_scan"}, "is_reserved": 0}, {"lon": -77.00144866666666, "bike_id": "877b7007c91fafbb85ee7ae9e58f30b9", "lat": 38.910762166666665, "fusion_lon": 0.0, "fusion_lat": 0.0, "type": "electric_scooter", "name": "877b7007c91fafbb85ee7ae9e58f30b9", "is_disabled": 0, "rental_uris": {"ios": "https://dc.lft.to/lastmile_qr_scan", "android": "https://dc.lft.to/lastmile_qr_scan"}, "is_reserved": 0}, {"lon": -77.0235985, "bike_id": "87bdb769520816f3fec78c25bc78ca49", "lat": 38.922268833333334, "fusion_lon": 0.0, "fusion_lat": 0.0, "type": "electric_scooter", "name": "87bdb769520816f3fec78c25bc78ca49", "is_disabled": 0, "rental_uris": {"ios": "https://dc.lft.to/lastmile_qr_scan", "android": "https://dc.lft.to/lastmile_qr_scan"}, "is_reserved": 0}, {"lon": -77.04054966666666, "bike_id": "c2a2a254849d04099d615a6aa4cbc66f", "lat": 38.92884883333333, "fusion_lon": 0.0, "fusion_lat": 0.0, "type": "electric_scooter", "name": "c2a2a254849d04099d615a6aa4cbc66f", "is_disabled": 0, "rental_uris": {"ios": "https://dc.lft.to/lastmile_qr_scan", "android": "https://dc.lft.to/lastmile_qr_scan"}, "is_reserved": 0}, {"lon": -77.0264785, "bike_id": "ba878b7db0c034808b235d2a23693189", "lat": 38.881182, "fusion_lon": 0.0, "fusion_lat": 0.0, "type": "electric_scooter", "name": "ba878b7db0c034808b235d2a23693189", "is_disabled": 0, "rental_uris": {"ios": "https://dc.lft.to/lastmile_qr_scan", "android": "https://dc.lft.to/lastmile_qr_scan"}, "is_reserved": 0}, {"lon": -77.03217016666666, "bike_id": "9d30f876f5f95043606aadb03a407780", "lat": 38.907373166666666, "fusion_lon": 0.0, "fusion_lat": 0.0, "type": "electric_scooter", "name": "9d30f876f5f95043606aadb03a407780", "is_disabled": 0, "rental_uris": {"ios": "https://dc.lft.to/lastmile_qr_scan", "android": "https://dc.lft.to/lastmile_qr_scan"}, "is_reserved": 0}, {"lon": -77.0334215, "bike_id": "41899e0ec6da3ea4ee0cb0393014370f", "lat": 38.9205245, "fusion_lon": 0.0, "fusion_lat": 0.0, "type": "electric_scooter", "name": "41899e0ec6da3ea4ee0cb0393014370f", "is_disabled": 0, "rental_uris": {"ios": "https://dc.lft.to/lastmile_qr_scan", "android": "https://dc.lft.to/lastmile_qr_scan"}, "is_reserved": 0}, {"lon": -76.97398833333334, "bike_id": "25cfde17f6c030f0db1c5f45e793387d", "lat": 38.903005, "fusion_lon": 0.0, "fusion_lat": 0.0, "type": "electric_scooter", "name": "25cfde17f6c030f0db1c5f45e793387d", "is_disabled": 0, "rental_uris": {"ios": "https://dc.lft.to/lastmile_qr_scan", "android": "https://dc.lft.to/lastmile_qr_scan"}, "is_reserved": 0}, {"lon": -77.0271715, "bike_id": "79f84e14d8323d42a9cf14593107ff7f", "lat": 38.924643, "fusion_lon": 0.0, "fusion_lat": 0.0, "type": "electric_scooter", "name": "79f84e14d8323d42a9cf14593107ff7f", "is_disabled": 0, "rental_uris": {"ios": "https://dc.lft.to/lastmile_qr_scan", "android": "https://dc.lft.to/lastmile_qr_scan"}, "is_reserved": 0}, {"lon": -77.08807, "bike_id": "b07c1e0fae2c559e9ceecea17fb4708d", "lat": 38.9118435, "fusion_lon": 0.0, "fusion_lat": 0.0, "type": "electric_scooter", "name": "b07c1e0fae2c559e9ceecea17fb4708d", "is_disabled": 0, "rental_uris": {"ios": "https://dc.lft.to/lastmile_qr_scan", "android": "https://dc.lft.to/lastmile_qr_scan"}, "is_reserved": 0}, {"lon": -77.03993583333333, "bike_id": "c5d1727688c8918d18b9bd72b150230e", "lat": 38.93431666666667, "fusion_lon": 0.0, "fusion_lat": 0.0, "type": "electric_scooter", "name": "c5d1727688c8918d18b9bd72b150230e", "is_disabled": 0, "rental_uris": {"ios": "https://dc.lft.to/lastmile_qr_scan", "android": "https://dc.lft.to/lastmile_qr_scan"}, "is_reserved": 0}, {"lon": -76.98913033333334, "bike_id": "cbbe85b8c164eec85e5296af17b42fd4", "lat": 38.86489683333333, "fusion_lon": 0.0, "fusion_lat": 0.0, "type": "electric_scooter", "name": "cbbe85b8c164eec85e5296af17b42fd4", "is_disabled": 0, "rental_uris": {"ios": "https://dc.lft.to/lastmile_qr_scan", "android": "https://dc.lft.to/lastmile_qr_scan"}, "is_reserved": 0}, {"lon": -77.03821833333333, "bike_id": "7b7e23613d67fa3bf3bf4110fa7abdca", "lat": 38.9094875, "fusion_lon": 0.0, "fusion_lat": 0.0, "type": "electric_scooter", "name": "7b7e23613d67fa3bf3bf4110fa7abdca", "is_disabled": 0, "rental_uris": {"ios": "https://dc.lft.to/lastmile_qr_scan", "android": "https://dc.lft.to/lastmile_qr_scan"}, "is_reserved": 0}, {"lon": -76.98062016666667, "bike_id": "f42dd296dadefad64723495133fdd392", "lat": 38.884938, "fusion_lon": 0.0, "fusion_lat": 0.0, "type": "electric_scooter", "name": "f42dd296dadefad64723495133fdd392", "is_disabled": 0, "rental_uris": {"ios": "https://dc.lft.to/lastmile_qr_scan", "android": "https://dc.lft.to/lastmile_qr_scan"}, "is_reserved": 0}, {"lon": -77.04709766666667, "bike_id": "c649f38136d1c99c8b52081c088409c3", "lat": 38.902972, "fusion_lon": 0.0, "fusion_lat": 0.0, "type": "electric_scooter", "name": "c649f38136d1c99c8b52081c088409c3", "is_disabled": 0, "rental_uris": {"ios": "https://dc.lft.to/lastmile_qr_scan", "android": "https://dc.lft.to/lastmile_qr_scan"}, "is_reserved": 0}, {"lon": -77.028428, "bike_id": "a4f3418679b7ebd8b2a155db9ed0ee60", "lat": 38.89514333333333, "fusion_lon": 0.0, "fusion_lat": 0.0, "type": "electric_scooter", "name": "a4f3418679b7ebd8b2a155db9ed0ee60", "is_disabled": 0, "rental_uris": {"ios": "https://dc.lft.to/lastmile_qr_scan", "android": "https://dc.lft.to/lastmile_qr_scan"}, "is_reserved": 0}, {"lon": -77.02715316666666, "bike_id": "8293b90fc3e0ed2094a67eaf45238722", "lat": 38.922849, "fusion_lon": 0.0, "fusion_lat": 0.0, "type": "electric_scooter", "name": "8293b90fc3e0ed2094a67eaf45238722", "is_disabled": 0, "rental_uris": {"ios": "https://dc.lft.to/lastmile_qr_scan", "android": "https://dc.lft.to/lastmile_qr_scan"}, "is_reserved": 0}, {"lon": -77.0747165, "bike_id": "1ea3da402150dd07217263d4239fe1cd", "lat": 38.92063983333333, "fusion_lon": 0.0, "fusion_lat": 0.0, "type": "electric_bike", "name": "1ea3da402150dd07217263d4239fe1cd", "is_disabled": 0, "rental_uris": {"ios": "https://dc.lft.to/lastmile_qr_scan", "android": "https://dc.lft.to/lastmile_qr_scan"}, "is_reserved": 0}, {"lon": -77.0342065, "bike_id": "d6f2cf2409fe79103e45cb5da4045bb6", "lat": 38.919331666666665, "fusion_lon": 0.0, "fusion_lat": 0.0, "type": "electric_scooter", "name": "d6f2cf2409fe79103e45cb5da4045bb6", "is_disabled": 0, "rental_uris": {"ios": "https://dc.lft.to/lastmile_qr_scan", "android": "https://dc.lft.to/lastmile_qr_scan"}, "is_reserved": 0}, {"lon": -77.04471433333333, "bike_id": "6d6c27313e5aae97bf16c9fe8be45bcb", "lat": 38.9243555, "fusion_lon": 0.0, "fusion_lat": 0.0, "type": "electric_scooter", "name": "6d6c27313e5aae97bf16c9fe8be45bcb", "is_disabled": 0, "rental_uris": {"ios": "https://dc.lft.to/lastmile_qr_scan", "android": "https://dc.lft.to/lastmile_qr_scan"}, "is_reserved": 0}, {"lon": -77.02105166666666, "bike_id": "55640d8c9b9609390b39ebb156086593", "lat": 38.949211, "fusion_lon": 0.0, "fusion_lat": 0.0, "type": "electric_scooter", "name": "55640d8c9b9609390b39ebb156086593", "is_disabled": 0, "rental_uris": {"ios": "https://dc.lft.to/lastmile_qr_scan", "android": "https://dc.lft.to/lastmile_qr_scan"}, "is_reserved": 0}, {"lon": -77.0849155, "bike_id": "36ad151ae66246cb854a3942072a6e53", "lat": 38.84854283333333, "fusion_lon": 0.0, "fusion_lat": 0.0, "type": "electric_bike", "name": "36ad151ae66246cb854a3942072a6e53", "is_disabled": 0, "rental_uris": {"ios": "https://dc.lft.to/lastmile_qr_scan", "android": "https://dc.lft.to/lastmile_qr_scan"}, "is_reserved": 0}, {"lon": -77.03663133333333, "bike_id": "bd1ec26cbaab7bac6ddf1851bcf45a4b", "lat": 38.917524, "fusion_lon": 0.0, "fusion_lat": 0.0, "type": "electric_scooter", "name": "bd1ec26cbaab7bac6ddf1851bcf45a4b", "is_disabled": 0, "rental_uris": {"ios": "https://dc.lft.to/lastmile_qr_scan", "android": "https://dc.lft.to/lastmile_qr_scan"}, "is_reserved": 0}, {"lon": -77.01673733333334, "bike_id": "01d5b32cc83912425f0871828a2501f9", "lat": 38.9144245, "fusion_lon": 0.0, "fusion_lat": 0.0, "type": "electric_scooter", "name": "01d5b32cc83912425f0871828a2501f9", "is_disabled": 0, "rental_uris": {"ios": "https://dc.lft.to/lastmile_qr_scan", "android": "https://dc.lft.to/lastmile_qr_scan"}, "is_reserved": 0}, {"lon": -77.07411333333333, "bike_id": "36d663810a3e86766e1c90d896200308", "lat": 38.92883633333334, "fusion_lon": 0.0, "fusion_lat": 0.0, "type": "electric_scooter", "name": "36d663810a3e86766e1c90d896200308", "is_disabled": 0, "rental_uris": {"ios": "https://dc.lft.to/lastmile_qr_scan", "android": "https://dc.lft.to/lastmile_qr_scan"}, "is_reserved": 0}, {"lon": -77.02695516666667, "bike_id": "e45c8bdae2045f029ccc884f74202dd9", "lat": 38.904156666666665, "fusion_lon": 0.0, "fusion_lat": 0.0, "type": "electric_scooter", "name": "e45c8bdae2045f029ccc884f74202dd9", "is_disabled": 0, "rental_uris": {"ios": "https://dc.lft.to/lastmile_qr_scan", "android": "https://dc.lft.to/lastmile_qr_scan"}, "is_reserved": 0}, {"lon": -77.03076883333334, "bike_id": "aec49b1b78ef1b233345d148196e9c59", "lat": 38.93267216666667, "fusion_lon": 0.0, "fusion_lat": 0.0, "type": "electric_bike", "name": "aec49b1b78ef1b233345d148196e9c59", "is_disabled": 0, "rental_uris": {"ios": "https://dc.lft.to/lastmile_qr_scan", "android": "https://dc.lft.to/lastmile_qr_scan"}, "is_reserved": 0}, {"lon": -77.02173916666666, "bike_id": "7dc47923aa6e12494062c6b2386fea91", "lat": 38.897347333333336, "fusion_lon": 0.0, "fusion_lat": 0.0, "type": "electric_scooter", "name": "7dc47923aa6e12494062c6b2386fea91", "is_disabled": 0, "rental_uris": {"ios": "https://dc.lft.to/lastmile_qr_scan", "android": "https://dc.lft.to/lastmile_qr_scan"}, "is_reserved": 0}, {"lon": -76.93191916666666, "bike_id": "25eac8a135a4bab0d9cacf944b646e7f", "lat": 38.898806666666665, "fusion_lon": 0.0, "fusion_lat": 0.0, "type": "electric_scooter", "name": "25eac8a135a4bab0d9cacf944b646e7f", "is_disabled": 0, "rental_uris": {"ios": "https://dc.lft.to/lastmile_qr_scan", "android": "https://dc.lft.to/lastmile_qr_scan"}, "is_reserved": 0}, {"lon": -77.03758383333333, "bike_id": "2c469e3bf0f2f57c27f1c212d6176ad6", "lat": 38.925915333333336, "fusion_lon": 0.0, "fusion_lat": 0.0, "type": "electric_scooter", "name": "2c469e3bf0f2f57c27f1c212d6176ad6", "is_disabled": 0, "rental_uris": {"ios": "https://dc.lft.to/lastmile_qr_scan", "android": "https://dc.lft.to/lastmile_qr_scan"}, "is_reserved": 0}, {"lon": -76.94592533333334, "bike_id": "7b100e8526fc67249b3db2c057d20ae1", "lat": 38.901508, "fusion_lon": 0.0, "fusion_lat": 0.0, "type": "electric_scooter", "name": "7b100e8526fc67249b3db2c057d20ae1", "is_disabled": 0, "rental_uris": {"ios": "https://dc.lft.to/lastmile_qr_scan", "android": "https://dc.lft.to/lastmile_qr_scan"}, "is_reserved": 0}, {"lon": -77.0303805, "bike_id": "6d5f4be28f772a7b30205e96979db631", "lat": 38.937143166666665, "fusion_lon": 0.0, "fusion_lat": 0.0, "type": "electric_scooter", "name": "6d5f4be28f772a7b30205e96979db631", "is_disabled": 0, "rental_uris": {"ios": "https://dc.lft.to/lastmile_qr_scan", "android": "https://dc.lft.to/lastmile_qr_scan"}, "is_reserved": 0}, {"lon": -76.99788183333334, "bike_id": "f22fdab03e5c72dccb3d885fcd50f2c9", "lat": 38.89102916666667, "fusion_lon": 0.0, "fusion_lat": 0.0, "type": "electric_scooter", "name": "f22fdab03e5c72dccb3d885fcd50f2c9", "is_disabled": 0, "rental_uris": {"ios": "https://dc.lft.to/lastmile_qr_scan", "android": "https://dc.lft.to/lastmile_qr_scan"}, "is_reserved": 0}, {"lon": -76.98108816666667, "bike_id": "97f016157050f056aaf4d270091061bb", "lat": 38.87730966666667, "fusion_lon": 0.0, "fusion_lat": 0.0, "type": "electric_bike", "name": "97f016157050f056aaf4d270091061bb", "is_disabled": 0, "rental_uris": {"ios": "https://dc.lft.to/lastmile_qr_scan", "android": "https://dc.lft.to/lastmile_qr_scan"}, "is_reserved": 0}, {"lon": -77.014867, "bike_id": "96679d4edb33910a683a1a172ccb5c79", "lat": 38.9193325, "fusion_lon": 0.0, "fusion_lat": 0.0, "type": "electric_scooter", "name": "96679d4edb33910a683a1a172ccb5c79", "is_disabled": 0, "rental_uris": {"ios": "https://dc.lft.to/lastmile_qr_scan", "android": "https://dc.lft.to/lastmile_qr_scan"}, "is_reserved": 0}, {"lon": -77.02688166666667, "bike_id": "c0e7a1777ee70fe4378f2f609b54e9f0", "lat": 38.904025, "fusion_lon": 0.0, "fusion_lat": 0.0, "type": "electric_scooter", "name": "c0e7a1777ee70fe4378f2f609b54e9f0", "is_disabled": 0, "rental_uris": {"ios": "https://dc.lft.to/lastmile_qr_scan", "android": "https://dc.lft.to/lastmile_qr_scan"}, "is_reserved": 0}, {"lon": -76.9986905, "bike_id": "487020deeba87f9d4ce706b03b96fbc5", "lat": 38.900265166666664, "fusion_lon": 0.0, "fusion_lat": 0.0, "type": "electric_scooter", "name": "487020deeba87f9d4ce706b03b96fbc5", "is_disabled": 0, "rental_uris": {"ios": "https://dc.lft.to/lastmile_qr_scan", "android": "https://dc.lft.to/lastmile_qr_scan"}, "is_reserved": 0}, {"lon": -77.00958333333334, "bike_id": "a9f84d733e392cb0601220ab7460b362", "lat": 38.92140233333333, "fusion_lon": 0.0, "fusion_lat": 0.0, "type": "electric_scooter", "name": "a9f84d733e392cb0601220ab7460b362", "is_disabled": 0, "rental_uris": {"ios": "https://dc.lft.to/lastmile_qr_scan", "android": "https://dc.lft.to/lastmile_qr_scan"}, "is_reserved": 0}, {"lon": -76.99924116666666, "bike_id": "77b931a7ece1b20113c4874916e612c1", "lat": 38.88978766666666, "fusion_lon": 0.0, "fusion_lat": 0.0, "type": "electric_scooter", "name": "77b931a7ece1b20113c4874916e612c1", "is_disabled": 0, "rental_uris": {"ios": "https://dc.lft.to/lastmile_qr_scan", "android": "https://dc.lft.to/lastmile_qr_scan"}, "is_reserved": 0}, {"lon": -77.026892, "bike_id": "27e32eaa526a357c03eb79b275bccff3", "lat": 38.897559666666666, "fusion_lon": 0.0, "fusion_lat": 0.0, "type": "electric_scooter", "name": "27e32eaa526a357c03eb79b275bccff3", "is_disabled": 0, "rental_uris": {"ios": "https://dc.lft.to/lastmile_qr_scan", "android": "https://dc.lft.to/lastmile_qr_scan"}, "is_reserved": 0}, {"lon": -77.03655133333334, "bike_id": "dad97f05bfd562b52215104e7a2404a2", "lat": 38.93328266666666, "fusion_lon": 0.0, "fusion_lat": 0.0, "type": "electric_scooter", "name": "dad97f05bfd562b52215104e7a2404a2", "is_disabled": 0, "rental_uris": {"ios": "https://dc.lft.to/lastmile_qr_scan", "android": "https://dc.lft.to/lastmile_qr_scan"}, "is_reserved": 0}, {"lon": -76.98243, "bike_id": "2f61951702406c1fd9578419c65ca377", "lat": 38.86459216666667, "fusion_lon": 0.0, "fusion_lat": 0.0, "type": "electric_scooter", "name": "2f61951702406c1fd9578419c65ca377", "is_disabled": 0, "rental_uris": {"ios": "https://dc.lft.to/lastmile_qr_scan", "android": "https://dc.lft.to/lastmile_qr_scan"}, "is_reserved": 0}, {"lon": -77.03200366666667, "bike_id": "c67a176ac1a45ef01458a78688c3059a", "lat": 38.90979133333333, "fusion_lon": 0.0, "fusion_lat": 0.0, "type": "electric_scooter", "name": "c67a176ac1a45ef01458a78688c3059a", "is_disabled": 0, "rental_uris": {"ios": "https://dc.lft.to/lastmile_qr_scan", "android": "https://dc.lft.to/lastmile_qr_scan"}, "is_reserved": 0}, {"lon": -77.0334055, "bike_id": "f46981319bee0517c1c6b12b1d580600", "lat": 38.93511483333333, "fusion_lon": 0.0, "fusion_lat": 0.0, "type": "electric_scooter", "name": "f46981319bee0517c1c6b12b1d580600", "is_disabled": 0, "rental_uris": {"ios": "https://dc.lft.to/lastmile_qr_scan", "android": "https://dc.lft.to/lastmile_qr_scan"}, "is_reserved": 0}, {"lon": -77.046947, "bike_id": "c3c10c0c5f48ee752e8632d2c4ad4ecc", "lat": 38.9190045, "fusion_lon": 0.0, "fusion_lat": 0.0, "type": "electric_scooter", "name": "c3c10c0c5f48ee752e8632d2c4ad4ecc", "is_disabled": 0, "rental_uris": {"ios": "https://dc.lft.to/lastmile_qr_scan", "android": "https://dc.lft.to/lastmile_qr_scan"}, "is_reserved": 0}, {"lon": -77.0366555, "bike_id": "5f0c72224008394bb0aae240b41013ee", "lat": 38.93340283333333, "fusion_lon": 0.0, "fusion_lat": 0.0, "type": "electric_scooter", "name": "5f0c72224008394bb0aae240b41013ee", "is_disabled": 0, "rental_uris": {"ios": "https://dc.lft.to/lastmile_qr_scan", "android": "https://dc.lft.to/lastmile_qr_scan"}, "is_reserved": 0}, {"lon": -77.04707983333333, "bike_id": "33449b550dd638e70eeb8e856fe58052", "lat": 38.920631166666666, "fusion_lon": 0.0, "fusion_lat": 0.0, "type": "electric_scooter", "name": "33449b550dd638e70eeb8e856fe58052", "is_disabled": 0, "rental_uris": {"ios": "https://dc.lft.to/lastmile_qr_scan", "android": "https://dc.lft.to/lastmile_qr_scan"}, "is_reserved": 0}, {"lon": -76.9493675, "bike_id": "7688f0376239c1bcee303058b66c0e08", "lat": 38.903695666666664, "fusion_lon": 0.0, "fusion_lat": 0.0, "type": "electric_scooter", "name": "7688f0376239c1bcee303058b66c0e08", "is_disabled": 0, "rental_uris": {"ios": "https://dc.lft.to/lastmile_qr_scan", "android": "https://dc.lft.to/lastmile_qr_scan"}, "is_reserved": 0}, {"lon": -77.03260933333334, "bike_id": "b617df12b342c9872f690ff3bbdbe9ab", "lat": 38.93221666666667, "fusion_lon": 0.0, "fusion_lat": 0.0, "type": "electric_scooter", "name": "b617df12b342c9872f690ff3bbdbe9ab", "is_disabled": 0, "rental_uris": {"ios": "https://dc.lft.to/lastmile_qr_scan", "android": "https://dc.lft.to/lastmile_qr_scan"}, "is_reserved": 0}, {"lon": -77.00193683333333, "bike_id": "1301eadb719250d3de7cb861406ce073", "lat": 38.894763833333336, "fusion_lon": 0.0, "fusion_lat": 0.0, "type": "electric_scooter", "name": "1301eadb719250d3de7cb861406ce073", "is_disabled": 0, "rental_uris": {"ios": "https://dc.lft.to/lastmile_qr_scan", "android": "https://dc.lft.to/lastmile_qr_scan"}, "is_reserved": 0}, {"lon": -77.00212783333333, "bike_id": "ec446bc3576a29b998084b1014266045", "lat": 38.90050333333333, "fusion_lon": 0.0, "fusion_lat": 0.0, "type": "electric_scooter", "name": "ec446bc3576a29b998084b1014266045", "is_disabled": 0, "rental_uris": {"ios": "https://dc.lft.to/lastmile_qr_scan", "android": "https://dc.lft.to/lastmile_qr_scan"}, "is_reserved": 0}, {"lon": -77.0072825, "bike_id": "742e144811c7a62e753606d76cf309de", "lat": 38.9506085, "fusion_lon": 0.0, "fusion_lat": 0.0, "type": "electric_bike", "name": "742e144811c7a62e753606d76cf309de", "is_disabled": 0, "rental_uris": {"ios": "https://dc.lft.to/lastmile_qr_scan", "android": "https://dc.lft.to/lastmile_qr_scan"}, "is_reserved": 0}, {"lon": -77.02398416666666, "bike_id": "2ad2ffec8e11621745f7288931eef8a5", "lat": 38.90976466666667, "fusion_lon": 0.0, "fusion_lat": 0.0, "type": "electric_scooter", "name": "2ad2ffec8e11621745f7288931eef8a5", "is_disabled": 0, "rental_uris": {"ios": "https://dc.lft.to/lastmile_qr_scan", "android": "https://dc.lft.to/lastmile_qr_scan"}, "is_reserved": 0}, {"lon": -76.992733, "bike_id": "d8d6abbda705674633bdad0dd041c5f8", "lat": 38.897710333333336, "fusion_lon": 0.0, "fusion_lat": 0.0, "type": "electric_scooter", "name": "d8d6abbda705674633bdad0dd041c5f8", "is_disabled": 0, "rental_uris": {"ios": "https://dc.lft.to/lastmile_qr_scan", "android": "https://dc.lft.to/lastmile_qr_scan"}, "is_reserved": 0}, {"lon": -77.031719, "bike_id": "ef196da9605bd27df92d994912049727", "lat": 38.91891783333333, "fusion_lon": 0.0, "fusion_lat": 0.0, "type": "electric_scooter", "name": "ef196da9605bd27df92d994912049727", "is_disabled": 0, "rental_uris": {"ios": "https://dc.lft.to/lastmile_qr_scan", "android": "https://dc.lft.to/lastmile_qr_scan"}, "is_reserved": 0}, {"lon": -76.98328133333334, "bike_id": "92fba452d28e0cb6a753ac8dbd6bd1b0", "lat": 38.900954, "fusion_lon": 0.0, "fusion_lat": 0.0, "type": "electric_scooter", "name": "92fba452d28e0cb6a753ac8dbd6bd1b0", "is_disabled": 0, "rental_uris": {"ios": "https://dc.lft.to/lastmile_qr_scan", "android": "https://dc.lft.to/lastmile_qr_scan"}, "is_reserved": 0}, {"lon": -76.94895233333334, "bike_id": "8dba01fd69efd4022b32c5bb2b3b24b7", "lat": 38.89532283333333, "fusion_lon": 0.0, "fusion_lat": 0.0, "type": "electric_scooter", "name": "8dba01fd69efd4022b32c5bb2b3b24b7", "is_disabled": 0, "rental_uris": {"ios": "https://dc.lft.to/lastmile_qr_scan", "android": "https://dc.lft.to/lastmile_qr_scan"}, "is_reserved": 0}, {"lon": -77.01849516666667, "bike_id": "2c5bd42c201d9b95d62c965bfc6077ae", "lat": 38.90126216666667, "fusion_lon": 0.0, "fusion_lat": 0.0, "type": "electric_scooter", "name": "2c5bd42c201d9b95d62c965bfc6077ae", "is_disabled": 0, "rental_uris": {"ios": "https://dc.lft.to/lastmile_qr_scan", "android": "https://dc.lft.to/lastmile_qr_scan"}, "is_reserved": 0}, {"lon": -77.08822183333334, "bike_id": "a51951bf813e03c19720b727cde11e5e", "lat": 38.909810666666665, "fusion_lon": 0.0, "fusion_lat": 0.0, "type": "electric_scooter", "name": "a51951bf813e03c19720b727cde11e5e", "is_disabled": 0, "rental_uris": {"ios": "https://dc.lft.to/lastmile_qr_scan", "android": "https://dc.lft.to/lastmile_qr_scan"}, "is_reserved": 0}, {"lon": -77.02482733333333, "bike_id": "92187cbdbafeeb287f495240509ab95f", "lat": 38.90182433333333, "fusion_lon": 0.0, "fusion_lat": 0.0, "type": "electric_scooter", "name": "92187cbdbafeeb287f495240509ab95f", "is_disabled": 0, "rental_uris": {"ios": "https://dc.lft.to/lastmile_qr_scan", "android": "https://dc.lft.to/lastmile_qr_scan"}, "is_reserved": 0}, {"lon": -77.01085583333334, "bike_id": "ad66379853f33cbfa0a54cc15f0f8344", "lat": 38.917087333333335, "fusion_lon": 0.0, "fusion_lat": 0.0, "type": "electric_scooter", "name": "ad66379853f33cbfa0a54cc15f0f8344", "is_disabled": 0, "rental_uris": {"ios": "https://dc.lft.to/lastmile_qr_scan", "android": "https://dc.lft.to/lastmile_qr_scan"}, "is_reserved": 0}, {"lon": -77.04448716666667, "bike_id": "b4e75e4ebdb2129b6ac309e8340de3e9", "lat": 38.921714333333334, "fusion_lon": 0.0, "fusion_lat": 0.0, "type": "electric_scooter", "name": "b4e75e4ebdb2129b6ac309e8340de3e9", "is_disabled": 0, "rental_uris": {"ios": "https://dc.lft.to/lastmile_qr_scan", "android": "https://dc.lft.to/lastmile_qr_scan"}, "is_reserved": 0}, {"lon": -77.03200666666666, "bike_id": "cd3035c65b4cb4af16eefd241242e67e", "lat": 38.93965083333333, "fusion_lon": 0.0, "fusion_lat": 0.0, "type": "electric_scooter", "name": "cd3035c65b4cb4af16eefd241242e67e", "is_disabled": 0, "rental_uris": {"ios": "https://dc.lft.to/lastmile_qr_scan", "android": "https://dc.lft.to/lastmile_qr_scan"}, "is_reserved": 0}, {"lon": -77.05621, "bike_id": "ffe31c45757dbae08e3b86c7565592d6", "lat": 38.92317583333333, "fusion_lon": 0.0, "fusion_lat": 0.0, "type": "electric_scooter", "name": "ffe31c45757dbae08e3b86c7565592d6", "is_disabled": 0, "rental_uris": {"ios": "https://dc.lft.to/lastmile_qr_scan", "android": "https://dc.lft.to/lastmile_qr_scan"}, "is_reserved": 0}, {"lon": -77.03185316666666, "bike_id": "f674a8838ec464555890c97fa316b09d", "lat": 38.913474, "fusion_lon": 0.0, "fusion_lat": 0.0, "type": "electric_scooter", "name": "f674a8838ec464555890c97fa316b09d", "is_disabled": 0, "rental_uris": {"ios": "https://dc.lft.to/lastmile_qr_scan", "android": "https://dc.lft.to/lastmile_qr_scan"}, "is_reserved": 0}, {"lon": -77.03342433333333, "bike_id": "342a2dcd6628878a8a34c07c3941205c", "lat": 38.8998235, "fusion_lon": 0.0, "fusion_lat": 0.0, "type": "electric_scooter", "name": "342a2dcd6628878a8a34c07c3941205c", "is_disabled": 0, "rental_uris": {"ios": "https://dc.lft.to/lastmile_qr_scan", "android": "https://dc.lft.to/lastmile_qr_scan"}, "is_reserved": 0}, {"lon": -77.0037075, "bike_id": "535239f9e051b534d5d9ed3411473919", "lat": 38.897299833333335, "fusion_lon": 0.0, "fusion_lat": 0.0, "type": "electric_scooter", "name": "535239f9e051b534d5d9ed3411473919", "is_disabled": 0, "rental_uris": {"ios": "https://dc.lft.to/lastmile_qr_scan", "android": "https://dc.lft.to/lastmile_qr_scan"}, "is_reserved": 0}, {"lon": -76.980202, "bike_id": "68d1b24d50004bc9d19c8ae7d826f6ce", "lat": 38.903298666666664, "fusion_lon": 0.0, "fusion_lat": 0.0, "type": "electric_scooter", "name": "68d1b24d50004bc9d19c8ae7d826f6ce", "is_disabled": 0, "rental_uris": {"ios": "https://dc.lft.to/lastmile_qr_scan", "android": "https://dc.lft.to/lastmile_qr_scan"}, "is_reserved": 0}, {"lon": -77.05432116666667, "bike_id": "77d6fb11b84be1967715358b0f68994f", "lat": 38.92833983333333, "fusion_lon": 0.0, "fusion_lat": 0.0, "type": "electric_scooter", "name": "77d6fb11b84be1967715358b0f68994f", "is_disabled": 0, "rental_uris": {"ios": "https://dc.lft.to/lastmile_qr_scan", "android": "https://dc.lft.to/lastmile_qr_scan"}, "is_reserved": 0}, {"lon": -77.01928266666667, "bike_id": "46000ae49b831754a13f20401c105048", "lat": 38.922206333333335, "fusion_lon": 0.0, "fusion_lat": 0.0, "type": "electric_scooter", "name": "46000ae49b831754a13f20401c105048", "is_disabled": 0, "rental_uris": {"ios": "https://dc.lft.to/lastmile_qr_scan", "android": "https://dc.lft.to/lastmile_qr_scan"}, "is_reserved": 0}, {"lon": -77.02068933333334, "bike_id": "990fea6204b2a9b5899721021baf7bf5", "lat": 38.93266583333333, "fusion_lon": 0.0, "fusion_lat": 0.0, "type": "electric_bike", "name": "990fea6204b2a9b5899721021baf7bf5", "is_disabled": 0, "rental_uris": {"ios": "https://dc.lft.to/lastmile_qr_scan", "android": "https://dc.lft.to/lastmile_qr_scan"}, "is_reserved": 0}, {"lon": -77.13100783333333, "bike_id": "2fdc254a75f3628dc96588fececffd26", "lat": 39.02437466666667, "fusion_lon": 0.0, "fusion_lat": 0.0, "type": "electric_bike", "name": "2fdc254a75f3628dc96588fececffd26", "is_disabled": 0, "rental_uris": {"ios": "https://dc.lft.to/lastmile_qr_scan", "android": "https://dc.lft.to/lastmile_qr_scan"}, "is_reserved": 0}, {"lon": -77.03459516666666, "bike_id": "bfe326626a49a7d2aaae74467be4bc2b", "lat": 38.92154216666667, "fusion_lon": 0.0, "fusion_lat": 0.0, "type": "electric_scooter", "name": "bfe326626a49a7d2aaae74467be4bc2b", "is_disabled": 0, "rental_uris": {"ios": "https://dc.lft.to/lastmile_qr_scan", "android": "https://dc.lft.to/lastmile_qr_scan"}, "is_reserved": 0}, {"lon": -77.00348316666667, "bike_id": "8e2cc20cbf4a77c8014b2b0a5953419f", "lat": 38.88716483333333, "fusion_lon": 0.0, "fusion_lat": 0.0, "type": "electric_scooter", "name": "8e2cc20cbf4a77c8014b2b0a5953419f", "is_disabled": 0, "rental_uris": {"ios": "https://dc.lft.to/lastmile_qr_scan", "android": "https://dc.lft.to/lastmile_qr_scan"}, "is_reserved": 0}, {"lon": -77.05098333333333, "bike_id": "d9613a9c64ca6cfb41039b311dee92fb", "lat": 38.900845333333336, "fusion_lon": 0.0, "fusion_lat": 0.0, "type": "electric_scooter", "name": "d9613a9c64ca6cfb41039b311dee92fb", "is_disabled": 0, "rental_uris": {"ios": "https://dc.lft.to/lastmile_qr_scan", "android": "https://dc.lft.to/lastmile_qr_scan"}, "is_reserved": 0}, {"lon": -77.0293435, "bike_id": "4305fd7eeda03a116d5ead6c9cff573f", "lat": 38.90650016666667, "fusion_lon": 0.0, "fusion_lat": 0.0, "type": "electric_scooter", "name": "4305fd7eeda03a116d5ead6c9cff573f", "is_disabled": 0, "rental_uris": {"ios": "https://dc.lft.to/lastmile_qr_scan", "android": "https://dc.lft.to/lastmile_qr_scan"}, "is_reserved": 0}, {"lon": -77.03290616666666, "bike_id": "6513caff41bb9e3e08b48a8ee295b8d9", "lat": 38.9098395, "fusion_lon": 0.0, "fusion_lat": 0.0, "type": "electric_scooter", "name": "6513caff41bb9e3e08b48a8ee295b8d9", "is_disabled": 0, "rental_uris": {"ios": "https://dc.lft.to/lastmile_qr_scan", "android": "https://dc.lft.to/lastmile_qr_scan"}, "is_reserved": 0}, {"lon": -76.98796183333333, "bike_id": "73aa194a8c94a4a2df2b902c2dba8dda", "lat": 38.89241533333333, "fusion_lon": 0.0, "fusion_lat": 0.0, "type": "electric_scooter", "name": "73aa194a8c94a4a2df2b902c2dba8dda", "is_disabled": 0, "rental_uris": {"ios": "https://dc.lft.to/lastmile_qr_scan", "android": "https://dc.lft.to/lastmile_qr_scan"}, "is_reserved": 0}, {"lon": -77.01880566666667, "bike_id": "a9b339d15a792ac5a9adf94c66fe75a2", "lat": 38.90611966666667, "fusion_lon": 0.0, "fusion_lat": 0.0, "type": "electric_scooter", "name": "a9b339d15a792ac5a9adf94c66fe75a2", "is_disabled": 0, "rental_uris": {"ios": "https://dc.lft.to/lastmile_qr_scan", "android": "https://dc.lft.to/lastmile_qr_scan"}, "is_reserved": 0}, {"lon": -77.022951, "bike_id": "9ec0055d2b14235d5f8ebd713675175a", "lat": 38.93300516666667, "fusion_lon": 0.0, "fusion_lat": 0.0, "type": "electric_scooter", "name": "9ec0055d2b14235d5f8ebd713675175a", "is_disabled": 0, "rental_uris": {"ios": "https://dc.lft.to/lastmile_qr_scan", "android": "https://dc.lft.to/lastmile_qr_scan"}, "is_reserved": 0}, {"lon": -77.03224533333334, "bike_id": "c505628d7f7d13f90e23f31b60b0ce39", "lat": 38.907280666666665, "fusion_lon": 0.0, "fusion_lat": 0.0, "type": "electric_scooter", "name": "c505628d7f7d13f90e23f31b60b0ce39", "is_disabled": 0, "rental_uris": {"ios": "https://dc.lft.to/lastmile_qr_scan", "android": "https://dc.lft.to/lastmile_qr_scan"}, "is_reserved": 0}, {"lon": -77.02348683333334, "bike_id": "79d5cbb511a41d1c80cb3e59a25f7c13", "lat": 38.896261, "fusion_lon": 0.0, "fusion_lat": 0.0, "type": "electric_scooter", "name": "79d5cbb511a41d1c80cb3e59a25f7c13", "is_disabled": 0, "rental_uris": {"ios": "https://dc.lft.to/lastmile_qr_scan", "android": "https://dc.lft.to/lastmile_qr_scan"}, "is_reserved": 0}, {"lon": -76.98309683333333, "bike_id": "ef08248f66213646b99e2c2261f36ee3", "lat": 38.89977483333333, "fusion_lon": 0.0, "fusion_lat": 0.0, "type": "electric_scooter", "name": "ef08248f66213646b99e2c2261f36ee3", "is_disabled": 0, "rental_uris": {"ios": "https://dc.lft.to/lastmile_qr_scan", "android": "https://dc.lft.to/lastmile_qr_scan"}, "is_reserved": 0}, {"lon": -77.0556855, "bike_id": "360b699b2cff55dbd5cb930b2c2094a2", "lat": 38.930541, "fusion_lon": 0.0, "fusion_lat": 0.0, "type": "electric_scooter", "name": "360b699b2cff55dbd5cb930b2c2094a2", "is_disabled": 0, "rental_uris": {"ios": "https://dc.lft.to/lastmile_qr_scan", "android": "https://dc.lft.to/lastmile_qr_scan"}, "is_reserved": 0}, {"lon": -76.99267216666667, "bike_id": "f3f8d173169cfce0b60829c2bb4af283", "lat": 38.903896, "fusion_lon": 0.0, "fusion_lat": 0.0, "type": "electric_scooter", "name": "f3f8d173169cfce0b60829c2bb4af283", "is_disabled": 0, "rental_uris": {"ios": "https://dc.lft.to/lastmile_qr_scan", "android": "https://dc.lft.to/lastmile_qr_scan"}, "is_reserved": 0}, {"lon": -76.981403, "bike_id": "3d2bd72bbf8c593d7ba7b07ba115c904", "lat": 38.905658, "fusion_lon": 0.0, "fusion_lat": 0.0, "type": "electric_scooter", "name": "3d2bd72bbf8c593d7ba7b07ba115c904", "is_disabled": 0, "rental_uris": {"ios": "https://dc.lft.to/lastmile_qr_scan", "android": "https://dc.lft.to/lastmile_qr_scan"}, "is_reserved": 0}, {"lon": -77.02706433333333, "bike_id": "b986c9f8127e3e857b16b3bf03a1cf6a", "lat": 38.90665533333333, "fusion_lon": 0.0, "fusion_lat": 0.0, "type": "electric_scooter", "name": "b986c9f8127e3e857b16b3bf03a1cf6a", "is_disabled": 0, "rental_uris": {"ios": "https://dc.lft.to/lastmile_qr_scan", "android": "https://dc.lft.to/lastmile_qr_scan"}, "is_reserved": 0}, {"lon": -77.078167, "bike_id": "095a400ab3324f650a1d6a706d6940f3", "lat": 38.9237215, "fusion_lon": 0.0, "fusion_lat": 0.0, "type": "electric_scooter", "name": "095a400ab3324f650a1d6a706d6940f3", "is_disabled": 0, "rental_uris": {"ios": "https://dc.lft.to/lastmile_qr_scan", "android": "https://dc.lft.to/lastmile_qr_scan"}, "is_reserved": 0}, {"lon": -77.05916233333333, "bike_id": "bc298878700410cd3e55bb3218ee5e0c", "lat": 38.9061995, "fusion_lon": 0.0, "fusion_lat": 0.0, "type": "electric_scooter", "name": "bc298878700410cd3e55bb3218ee5e0c", "is_disabled": 0, "rental_uris": {"ios": "https://dc.lft.to/lastmile_qr_scan", "android": "https://dc.lft.to/lastmile_qr_scan"}, "is_reserved": 0}, {"lon": -77.0337075, "bike_id": "1cab28b39f66271c05975522dc1aa6ff", "lat": 38.90575033333333, "fusion_lon": 0.0, "fusion_lat": 0.0, "type": "electric_scooter", "name": "1cab28b39f66271c05975522dc1aa6ff", "is_disabled": 0, "rental_uris": {"ios": "https://dc.lft.to/lastmile_qr_scan", "android": "https://dc.lft.to/lastmile_qr_scan"}, "is_reserved": 0}, {"lon": -77.03406966666667, "bike_id": "c54d7cc5a25f4ed228996b55e01ed980", "lat": 38.905556, "fusion_lon": 0.0, "fusion_lat": 0.0, "type": "electric_scooter", "name": "c54d7cc5a25f4ed228996b55e01ed980", "is_disabled": 0, "rental_uris": {"ios": "https://dc.lft.to/lastmile_qr_scan", "android": "https://dc.lft.to/lastmile_qr_scan"}, "is_reserved": 0}, {"lon": -77.0411025, "bike_id": "1ceffe680e69cfcbadb7a0d57e5f9f38", "lat": 38.915581, "fusion_lon": 0.0, "fusion_lat": 0.0, "type": "electric_scooter", "name": "1ceffe680e69cfcbadb7a0d57e5f9f38", "is_disabled": 0, "rental_uris": {"ios": "https://dc.lft.to/lastmile_qr_scan", "android": "https://dc.lft.to/lastmile_qr_scan"}, "is_reserved": 0}, {"lon": -77.0365585, "bike_id": "4b20b28d8aeb12e6d194c08863e27dec", "lat": 38.918110666666664, "fusion_lon": 0.0, "fusion_lat": 0.0, "type": "electric_scooter", "name": "4b20b28d8aeb12e6d194c08863e27dec", "is_disabled": 0, "rental_uris": {"ios": "https://dc.lft.to/lastmile_qr_scan", "android": "https://dc.lft.to/lastmile_qr_scan"}, "is_reserved": 0}, {"lon": -77.03232366666667, "bike_id": "10902f381c9f972ceccfd4e0cfb0ecab", "lat": 38.929794666666666, "fusion_lon": 0.0, "fusion_lat": 0.0, "type": "electric_scooter", "name": "10902f381c9f972ceccfd4e0cfb0ecab", "is_disabled": 0, "rental_uris": {"ios": "https://dc.lft.to/lastmile_qr_scan", "android": "https://dc.lft.to/lastmile_qr_scan"}, "is_reserved": 0}, {"lon": -77.00577866666667, "bike_id": "b9c8aebabf31a08f1f71bdf8001440c7", "lat": 38.82997116666667, "fusion_lon": 0.0, "fusion_lat": 0.0, "type": "electric_scooter", "name": "b9c8aebabf31a08f1f71bdf8001440c7", "is_disabled": 0, "rental_uris": {"ios": "https://dc.lft.to/lastmile_qr_scan", "android": "https://dc.lft.to/lastmile_qr_scan"}, "is_reserved": 0}, {"lon": -76.991916, "bike_id": "7ceacf72551907f11f808dfeaadbeb42", "lat": 38.882689666666664, "fusion_lon": 0.0, "fusion_lat": 0.0, "type": "electric_scooter", "name": "7ceacf72551907f11f808dfeaadbeb42", "is_disabled": 0, "rental_uris": {"ios": "https://dc.lft.to/lastmile_qr_scan", "android": "https://dc.lft.to/lastmile_qr_scan"}, "is_reserved": 0}, {"lon": -77.10526566666667, "bike_id": "77ecf9f119ce0d8094aa1b43918d5290", "lat": 38.87379083333333, "fusion_lon": 0.0, "fusion_lat": 0.0, "type": "electric_bike", "name": "77ecf9f119ce0d8094aa1b43918d5290", "is_disabled": 0, "rental_uris": {"ios": "https://dc.lft.to/lastmile_qr_scan", "android": "https://dc.lft.to/lastmile_qr_scan"}, "is_reserved": 0}, {"lon": -77.02800366666666, "bike_id": "80630fc3076bbd0c441b78b92de91a39", "lat": 38.92293766666667, "fusion_lon": 0.0, "fusion_lat": 0.0, "type": "electric_scooter", "name": "80630fc3076bbd0c441b78b92de91a39", "is_disabled": 0, "rental_uris": {"ios": "https://dc.lft.to/lastmile_qr_scan", "android": "https://dc.lft.to/lastmile_qr_scan"}, "is_reserved": 0}, {"lon": -77.025164, "bike_id": "c772c15fa4adabe0a5d839406aa17e91", "lat": 38.9207375, "fusion_lon": 0.0, "fusion_lat": 0.0, "type": "electric_scooter", "name": "c772c15fa4adabe0a5d839406aa17e91", "is_disabled": 0, "rental_uris": {"ios": "https://dc.lft.to/lastmile_qr_scan", "android": "https://dc.lft.to/lastmile_qr_scan"}, "is_reserved": 0}, {"lon": -77.01524516666667, "bike_id": "767394bd46ce53a53b2a122a6b9dbaf4", "lat": 38.9002605, "fusion_lon": 0.0, "fusion_lat": 0.0, "type": "electric_scooter", "name": "767394bd46ce53a53b2a122a6b9dbaf4", "is_disabled": 0, "rental_uris": {"ios": "https://dc.lft.to/lastmile_qr_scan", "android": "https://dc.lft.to/lastmile_qr_scan"}, "is_reserved": 0}, {"lon": -77.02348183333334, "bike_id": "aeddf4f9bfca4e835d6ff2028e52a964", "lat": 38.9224975, "fusion_lon": 0.0, "fusion_lat": 0.0, "type": "electric_scooter", "name": "aeddf4f9bfca4e835d6ff2028e52a964", "is_disabled": 0, "rental_uris": {"ios": "https://dc.lft.to/lastmile_qr_scan", "android": "https://dc.lft.to/lastmile_qr_scan"}, "is_reserved": 0}, {"lon": -76.98684283333333, "bike_id": "3c0792387d2d041388205febb4c91814", "lat": 38.91216, "fusion_lon": 0.0, "fusion_lat": 0.0, "type": "electric_scooter", "name": "3c0792387d2d041388205febb4c91814", "is_disabled": 0, "rental_uris": {"ios": "https://dc.lft.to/lastmile_qr_scan", "android": "https://dc.lft.to/lastmile_qr_scan"}, "is_reserved": 0}, {"lon": -77.0049645, "bike_id": "3abc722909a5e5b997dd06fb771ee052", "lat": 38.90554066666667, "fusion_lon": 0.0, "fusion_lat": 0.0, "type": "electric_scooter", "name": "3abc722909a5e5b997dd06fb771ee052", "is_disabled": 0, "rental_uris": {"ios": "https://dc.lft.to/lastmile_qr_scan", "android": "https://dc.lft.to/lastmile_qr_scan"}, "is_reserved": 0}, {"lon": -77.02793733333333, "bike_id": "edb62efe398fc4ae10b837236b36d9a9", "lat": 38.930799, "fusion_lon": 0.0, "fusion_lat": 0.0, "type": "electric_scooter", "name": "edb62efe398fc4ae10b837236b36d9a9", "is_disabled": 0, "rental_uris": {"ios": "https://dc.lft.to/lastmile_qr_scan", "android": "https://dc.lft.to/lastmile_qr_scan"}, "is_reserved": 0}, {"lon": -77.01638183333333, "bike_id": "39231f9891e275dde4f3147e3586d8fd", "lat": 38.902159833333336, "fusion_lon": 0.0, "fusion_lat": 0.0, "type": "electric_scooter", "name": "39231f9891e275dde4f3147e3586d8fd", "is_disabled": 0, "rental_uris": {"ios": "https://dc.lft.to/lastmile_qr_scan", "android": "https://dc.lft.to/lastmile_qr_scan"}, "is_reserved": 0}, {"lon": -77.04814716666667, "bike_id": "aca8d9105f386b472f846d122e20401b", "lat": 38.90403883333333, "fusion_lon": 0.0, "fusion_lat": 0.0, "type": "electric_scooter", "name": "aca8d9105f386b472f846d122e20401b", "is_disabled": 0, "rental_uris": {"ios": "https://dc.lft.to/lastmile_qr_scan", "android": "https://dc.lft.to/lastmile_qr_scan"}, "is_reserved": 0}, {"lon": -77.03262733333334, "bike_id": "b580cdccd2d05d93d5806c8a287bfb2b", "lat": 38.937772, "fusion_lon": 0.0, "fusion_lat": 0.0, "type": "electric_scooter", "name": "b580cdccd2d05d93d5806c8a287bfb2b", "is_disabled": 0, "rental_uris": {"ios": "https://dc.lft.to/lastmile_qr_scan", "android": "https://dc.lft.to/lastmile_qr_scan"}, "is_reserved": 0}, {"lon": -76.98491916666667, "bike_id": "5658b4d2942d8b7cd1f6ed29f15e59a1", "lat": 38.87835166666667, "fusion_lon": 0.0, "fusion_lat": 0.0, "type": "electric_scooter", "name": "5658b4d2942d8b7cd1f6ed29f15e59a1", "is_disabled": 0, "rental_uris": {"ios": "https://dc.lft.to/lastmile_qr_scan", "android": "https://dc.lft.to/lastmile_qr_scan"}, "is_reserved": 0}, {"lon": -77.03098866666667, "bike_id": "aec35bd942182d2c29b85b789a1881a9", "lat": 38.9346335, "fusion_lon": 0.0, "fusion_lat": 0.0, "type": "electric_scooter", "name": "aec35bd942182d2c29b85b789a1881a9", "is_disabled": 0, "rental_uris": {"ios": "https://dc.lft.to/lastmile_qr_scan", "android": "https://dc.lft.to/lastmile_qr_scan"}, "is_reserved": 0}, {"lon": -77.05214083333334, "bike_id": "93291decd66d61ab276c060abc661dec", "lat": 38.915649333333334, "fusion_lon": 0.0, "fusion_lat": 0.0, "type": "electric_scooter", "name": "93291decd66d61ab276c060abc661dec", "is_disabled": 0, "rental_uris": {"ios": "https://dc.lft.to/lastmile_qr_scan", "android": "https://dc.lft.to/lastmile_qr_scan"}, "is_reserved": 0}, {"lon": -76.96526516666667, "bike_id": "921eb60645755f42d7f193dadf6953a3", "lat": 38.876319, "fusion_lon": 0.0, "fusion_lat": 0.0, "type": "electric_scooter", "name": "921eb60645755f42d7f193dadf6953a3", "is_disabled": 0, "rental_uris": {"ios": "https://dc.lft.to/lastmile_qr_scan", "android": "https://dc.lft.to/lastmile_qr_scan"}, "is_reserved": 0}, {"lon": -77.05702016666666, "bike_id": "525f4f8af6971793da4c8a7905da7f89", "lat": 38.90545566666667, "fusion_lon": 0.0, "fusion_lat": 0.0, "type": "electric_scooter", "name": "525f4f8af6971793da4c8a7905da7f89", "is_disabled": 0, "rental_uris": {"ios": "https://dc.lft.to/lastmile_qr_scan", "android": "https://dc.lft.to/lastmile_qr_scan"}, "is_reserved": 0}, {"lon": -77.03677916666666, "bike_id": "6ec62fd41c1364f70bf11ebe19e14396", "lat": 38.921062, "fusion_lon": 0.0, "fusion_lat": 0.0, "type": "electric_scooter", "name": "6ec62fd41c1364f70bf11ebe19e14396", "is_disabled": 0, "rental_uris": {"ios": "https://dc.lft.to/lastmile_qr_scan", "android": "https://dc.lft.to/lastmile_qr_scan"}, "is_reserved": 0}, {"lon": -77.04729233333333, "bike_id": "b04b8f7cad21c7c632c5e1b1f107705f", "lat": 38.907182666666664, "fusion_lon": 0.0, "fusion_lat": 0.0, "type": "electric_scooter", "name": "b04b8f7cad21c7c632c5e1b1f107705f", "is_disabled": 0, "rental_uris": {"ios": "https://dc.lft.to/lastmile_qr_scan", "android": "https://dc.lft.to/lastmile_qr_scan"}, "is_reserved": 0}, {"lon": -76.94120516666666, "bike_id": "7ce0cbb3f859b368234df58649659ee2", "lat": 38.8864905, "fusion_lon": 0.0, "fusion_lat": 0.0, "type": "electric_scooter", "name": "7ce0cbb3f859b368234df58649659ee2", "is_disabled": 0, "rental_uris": {"ios": "https://dc.lft.to/lastmile_qr_scan", "android": "https://dc.lft.to/lastmile_qr_scan"}, "is_reserved": 0}, {"lon": -77.01625816666666, "bike_id": "3c29e761089dccb97af5d0cb7c72e57f", "lat": 38.908705499999996, "fusion_lon": 0.0, "fusion_lat": 0.0, "type": "electric_scooter", "name": "3c29e761089dccb97af5d0cb7c72e57f", "is_disabled": 0, "rental_uris": {"ios": "https://dc.lft.to/lastmile_qr_scan", "android": "https://dc.lft.to/lastmile_qr_scan"}, "is_reserved": 0}, {"lon": -77.0486145, "bike_id": "dd9a040f18ac5b393b5df66154eaa43d", "lat": 38.90957566666667, "fusion_lon": 0.0, "fusion_lat": 0.0, "type": "electric_scooter", "name": "dd9a040f18ac5b393b5df66154eaa43d", "is_disabled": 0, "rental_uris": {"ios": "https://dc.lft.to/lastmile_qr_scan", "android": "https://dc.lft.to/lastmile_qr_scan"}, "is_reserved": 0}, {"lon": -76.998634, "bike_id": "e1d150de0d6c54d245aa73e0f72d860b", "lat": 38.9002135, "fusion_lon": 0.0, "fusion_lat": 0.0, "type": "electric_scooter", "name": "e1d150de0d6c54d245aa73e0f72d860b", "is_disabled": 0, "rental_uris": {"ios": "https://dc.lft.to/lastmile_qr_scan", "android": "https://dc.lft.to/lastmile_qr_scan"}, "is_reserved": 0}, {"lon": -77.028085, "bike_id": "fea2faeb559e39b08c0c819412dc5779", "lat": 38.9563665, "fusion_lon": 0.0, "fusion_lat": 0.0, "type": "electric_bike", "name": "fea2faeb559e39b08c0c819412dc5779", "is_disabled": 0, "rental_uris": {"ios": "https://dc.lft.to/lastmile_qr_scan", "android": "https://dc.lft.to/lastmile_qr_scan"}, "is_reserved": 0}, {"lon": -77.00194566666667, "bike_id": "ef0b8f410923f6b852c17e62d1c73839", "lat": 38.914590833333335, "fusion_lon": 0.0, "fusion_lat": 0.0, "type": "electric_scooter", "name": "ef0b8f410923f6b852c17e62d1c73839", "is_disabled": 0, "rental_uris": {"ios": "https://dc.lft.to/lastmile_qr_scan", "android": "https://dc.lft.to/lastmile_qr_scan"}, "is_reserved": 0}, {"lon": -77.04505616666667, "bike_id": "9839f9267490e828ca8e07b83eaa8c15", "lat": 38.91360533333334, "fusion_lon": 0.0, "fusion_lat": 0.0, "type": "electric_scooter", "name": "9839f9267490e828ca8e07b83eaa8c15", "is_disabled": 0, "rental_uris": {"ios": "https://dc.lft.to/lastmile_qr_scan", "android": "https://dc.lft.to/lastmile_qr_scan"}, "is_reserved": 0}, {"lon": -77.02623833333334, "bike_id": "9ee432386d293c98d428b61fd13b0a36", "lat": 38.905764166666664, "fusion_lon": 0.0, "fusion_lat": 0.0, "type": "electric_scooter", "name": "9ee432386d293c98d428b61fd13b0a36", "is_disabled": 0, "rental_uris": {"ios": "https://dc.lft.to/lastmile_qr_scan", "android": "https://dc.lft.to/lastmile_qr_scan"}, "is_reserved": 0}, {"lon": -77.04156933333333, "bike_id": "1320533b2dbfd8ca3ecc1c2bf260d8e2", "lat": 38.9313965, "fusion_lon": 0.0, "fusion_lat": 0.0, "type": "electric_scooter", "name": "1320533b2dbfd8ca3ecc1c2bf260d8e2", "is_disabled": 0, "rental_uris": {"ios": "https://dc.lft.to/lastmile_qr_scan", "android": "https://dc.lft.to/lastmile_qr_scan"}, "is_reserved": 0}, {"lon": -77.03494833333333, "bike_id": "65510adbbd370a3a32e5e3a513342797", "lat": 38.93272866666667, "fusion_lon": 0.0, "fusion_lat": 0.0, "type": "electric_scooter", "name": "65510adbbd370a3a32e5e3a513342797", "is_disabled": 0, "rental_uris": {"ios": "https://dc.lft.to/lastmile_qr_scan", "android": "https://dc.lft.to/lastmile_qr_scan"}, "is_reserved": 0}, {"lon": -76.94196516666666, "bike_id": "7e868485cff1c05d20e0829d3e45f215", "lat": 38.893054, "fusion_lon": 0.0, "fusion_lat": 0.0, "type": "electric_bike", "name": "7e868485cff1c05d20e0829d3e45f215", "is_disabled": 0, "rental_uris": {"ios": "https://dc.lft.to/lastmile_qr_scan", "android": "https://dc.lft.to/lastmile_qr_scan"}, "is_reserved": 0}, {"lon": -77.03289816666667, "bike_id": "076f597ad79caf342651445f90252deb", "lat": 38.95651616666667, "fusion_lon": 0.0, "fusion_lat": 0.0, "type": "electric_scooter", "name": "076f597ad79caf342651445f90252deb", "is_disabled": 0, "rental_uris": {"ios": "https://dc.lft.to/lastmile_qr_scan", "android": "https://dc.lft.to/lastmile_qr_scan"}, "is_reserved": 0}, {"lon": -77.02393566666667, "bike_id": "65398d3959e7d42c6e55e9fc0dcf39d4", "lat": 38.8813825, "fusion_lon": 0.0, "fusion_lat": 0.0, "type": "electric_scooter", "name": "65398d3959e7d42c6e55e9fc0dcf39d4", "is_disabled": 0, "rental_uris": {"ios": "https://dc.lft.to/lastmile_qr_scan", "android": "https://dc.lft.to/lastmile_qr_scan"}, "is_reserved": 0}, {"lon": -77.00020966666666, "bike_id": "8f6760698ccf112a70acb08248723452", "lat": 38.87430033333333, "fusion_lon": 0.0, "fusion_lat": 0.0, "type": "electric_scooter", "name": "8f6760698ccf112a70acb08248723452", "is_disabled": 0, "rental_uris": {"ios": "https://dc.lft.to/lastmile_qr_scan", "android": "https://dc.lft.to/lastmile_qr_scan"}, "is_reserved": 0}, {"lon": -77.03030166666667, "bike_id": "dfb90aa8c3075193f112a5901c9a38dd", "lat": 38.931168666666665, "fusion_lon": 0.0, "fusion_lat": 0.0, "type": "electric_scooter", "name": "dfb90aa8c3075193f112a5901c9a38dd", "is_disabled": 0, "rental_uris": {"ios": "https://dc.lft.to/lastmile_qr_scan", "android": "https://dc.lft.to/lastmile_qr_scan"}, "is_reserved": 0}, {"lon": -77.04719766666666, "bike_id": "b2e9c70a317f84e4d43de8989d362bb0", "lat": 38.899682, "fusion_lon": 0.0, "fusion_lat": 0.0, "type": "electric_scooter", "name": "b2e9c70a317f84e4d43de8989d362bb0", "is_disabled": 0, "rental_uris": {"ios": "https://dc.lft.to/lastmile_qr_scan", "android": "https://dc.lft.to/lastmile_qr_scan"}, "is_reserved": 0}, {"lon": -77.03178666666666, "bike_id": "12b037ad3c395f35903514eacbdb2b70", "lat": 38.89224766666667, "fusion_lon": 0.0, "fusion_lat": 0.0, "type": "electric_scooter", "name": "12b037ad3c395f35903514eacbdb2b70", "is_disabled": 0, "rental_uris": {"ios": "https://dc.lft.to/lastmile_qr_scan", "android": "https://dc.lft.to/lastmile_qr_scan"}, "is_reserved": 0}, {"lon": -77.057248, "bike_id": "d6b580a98b75de55779978078049af55", "lat": 38.933653666666665, "fusion_lon": 0.0, "fusion_lat": 0.0, "type": "electric_scooter", "name": "d6b580a98b75de55779978078049af55", "is_disabled": 0, "rental_uris": {"ios": "https://dc.lft.to/lastmile_qr_scan", "android": "https://dc.lft.to/lastmile_qr_scan"}, "is_reserved": 0}, {"lon": -77.04646433333333, "bike_id": "e00e82205664ff8ac8500e570ab72f1f", "lat": 38.91431983333333, "fusion_lon": 0.0, "fusion_lat": 0.0, "type": "electric_scooter", "name": "e00e82205664ff8ac8500e570ab72f1f", "is_disabled": 0, "rental_uris": {"ios": "https://dc.lft.to/lastmile_qr_scan", "android": "https://dc.lft.to/lastmile_qr_scan"}, "is_reserved": 0}, {"lon": -77.04496, "bike_id": "38182af92d6a95eeebcb4de8b67aa708", "lat": 38.91114016666667, "fusion_lon": 0.0, "fusion_lat": 0.0, "type": "electric_scooter", "name": "38182af92d6a95eeebcb4de8b67aa708", "is_disabled": 0, "rental_uris": {"ios": "https://dc.lft.to/lastmile_qr_scan", "android": "https://dc.lft.to/lastmile_qr_scan"}, "is_reserved": 0}, {"lon": -76.973216, "bike_id": "6b08febe87e7c9c2a7b2857a2486585c", "lat": 38.904754, "fusion_lon": 0.0, "fusion_lat": 0.0, "type": "electric_bike", "name": "6b08febe87e7c9c2a7b2857a2486585c", "is_disabled": 0, "rental_uris": {"ios": "https://dc.lft.to/lastmile_qr_scan", "android": "https://dc.lft.to/lastmile_qr_scan"}, "is_reserved": 0}, {"lon": -76.97910983333334, "bike_id": "dac20c1a8bd1810bedfc6d2166f132f4", "lat": 38.92464016666667, "fusion_lon": 0.0, "fusion_lat": 0.0, "type": "electric_bike", "name": "dac20c1a8bd1810bedfc6d2166f132f4", "is_disabled": 0, "rental_uris": {"ios": "https://dc.lft.to/lastmile_qr_scan", "android": "https://dc.lft.to/lastmile_qr_scan"}, "is_reserved": 0}, {"lon": -76.9927055, "bike_id": "b056df8a956c833ae2f4a61b96011d40", "lat": 38.896141666666665, "fusion_lon": 0.0, "fusion_lat": 0.0, "type": "electric_scooter", "name": "b056df8a956c833ae2f4a61b96011d40", "is_disabled": 0, "rental_uris": {"ios": "https://dc.lft.to/lastmile_qr_scan", "android": "https://dc.lft.to/lastmile_qr_scan"}, "is_reserved": 0}, {"lon": -76.99794433333334, "bike_id": "e6d7e12c1599ae494bf89d2ca6682208", "lat": 38.95644766666667, "fusion_lon": 0.0, "fusion_lat": 0.0, "type": "electric_bike", "name": "e6d7e12c1599ae494bf89d2ca6682208", "is_disabled": 0, "rental_uris": {"ios": "https://dc.lft.to/lastmile_qr_scan", "android": "https://dc.lft.to/lastmile_qr_scan"}, "is_reserved": 0}, {"lon": -77.01800483333334, "bike_id": "770745f9b4a6f323829e595715a5b02c", "lat": 38.900744, "fusion_lon": 0.0, "fusion_lat": 0.0, "type": "electric_scooter", "name": "770745f9b4a6f323829e595715a5b02c", "is_disabled": 0, "rental_uris": {"ios": "https://dc.lft.to/lastmile_qr_scan", "android": "https://dc.lft.to/lastmile_qr_scan"}, "is_reserved": 0}, {"lon": -77.00920666666667, "bike_id": "d9ecafb2fadc96f1c0935ed829f5b15c", "lat": 38.827933333333334, "fusion_lon": 0.0, "fusion_lat": 0.0, "type": "electric_bike", "name": "d9ecafb2fadc96f1c0935ed829f5b15c", "is_disabled": 0, "rental_uris": {"ios": "https://dc.lft.to/lastmile_qr_scan", "android": "https://dc.lft.to/lastmile_qr_scan"}, "is_reserved": 0}, {"lon": -77.04718866666667, "bike_id": "16e05ea7b6f9e134eeaa9cdef749899a", "lat": 38.92241666666666, "fusion_lon": 0.0, "fusion_lat": 0.0, "type": "electric_scooter", "name": "16e05ea7b6f9e134eeaa9cdef749899a", "is_disabled": 0, "rental_uris": {"ios": "https://dc.lft.to/lastmile_qr_scan", "android": "https://dc.lft.to/lastmile_qr_scan"}, "is_reserved": 0}, {"lon": -77.021205, "bike_id": "ce2fd25c0a8002ea73f3c4ba2bb14200", "lat": 38.9370725, "fusion_lon": 0.0, "fusion_lat": 0.0, "type": "electric_scooter", "name": "ce2fd25c0a8002ea73f3c4ba2bb14200", "is_disabled": 0, "rental_uris": {"ios": "https://dc.lft.to/lastmile_qr_scan", "android": "https://dc.lft.to/lastmile_qr_scan"}, "is_reserved": 0}, {"lon": -76.97617633333333, "bike_id": "ae644e0e5ff8ef89ed1b3a8405e600f3", "lat": 38.90385416666667, "fusion_lon": 0.0, "fusion_lat": 0.0, "type": "electric_scooter", "name": "ae644e0e5ff8ef89ed1b3a8405e600f3", "is_disabled": 0, "rental_uris": {"ios": "https://dc.lft.to/lastmile_qr_scan", "android": "https://dc.lft.to/lastmile_qr_scan"}, "is_reserved": 0}, {"lon": -77.03191166666667, "bike_id": "349ddf48bb5da2ddbad9187340fde840", "lat": 38.919282333333335, "fusion_lon": 0.0, "fusion_lat": 0.0, "type": "electric_scooter", "name": "349ddf48bb5da2ddbad9187340fde840", "is_disabled": 0, "rental_uris": {"ios": "https://dc.lft.to/lastmile_qr_scan", "android": "https://dc.lft.to/lastmile_qr_scan"}, "is_reserved": 0}, {"lon": -77.0007145, "bike_id": "578bbc3c0f2eb62599e4e65d0bda3a5c", "lat": 38.92441433333333, "fusion_lon": 0.0, "fusion_lat": 0.0, "type": "electric_scooter", "name": "578bbc3c0f2eb62599e4e65d0bda3a5c", "is_disabled": 0, "rental_uris": {"ios": "https://dc.lft.to/lastmile_qr_scan", "android": "https://dc.lft.to/lastmile_qr_scan"}, "is_reserved": 0}, {"lon": -76.99761566666666, "bike_id": "e2adda6cbac02f68a120314cc465aace", "lat": 38.922953666666665, "fusion_lon": 0.0, "fusion_lat": 0.0, "type": "electric_scooter", "name": "e2adda6cbac02f68a120314cc465aace", "is_disabled": 0, "rental_uris": {"ios": "https://dc.lft.to/lastmile_qr_scan", "android": "https://dc.lft.to/lastmile_qr_scan"}, "is_reserved": 0}, {"lon": -76.9636525, "bike_id": "1e0e541732da1a2476e69b8bfa84fe74", "lat": 38.9350225, "fusion_lon": 0.0, "fusion_lat": 0.0, "type": "electric_scooter", "name": "1e0e541732da1a2476e69b8bfa84fe74", "is_disabled": 0, "rental_uris": {"ios": "https://dc.lft.to/lastmile_qr_scan", "android": "https://dc.lft.to/lastmile_qr_scan"}, "is_reserved": 0}, {"lon": -77.03193633333333, "bike_id": "9f0a8574667cbbe0162698d835c93570", "lat": 38.9056375, "fusion_lon": 0.0, "fusion_lat": 0.0, "type": "electric_scooter", "name": "9f0a8574667cbbe0162698d835c93570", "is_disabled": 0, "rental_uris": {"ios": "https://dc.lft.to/lastmile_qr_scan", "android": "https://dc.lft.to/lastmile_qr_scan"}, "is_reserved": 0}, {"lon": -77.073011, "bike_id": "bcd432418bb36307cf4ccbd1af824c23", "lat": 38.93054566666667, "fusion_lon": 0.0, "fusion_lat": 0.0, "type": "electric_scooter", "name": "bcd432418bb36307cf4ccbd1af824c23", "is_disabled": 0, "rental_uris": {"ios": "https://dc.lft.to/lastmile_qr_scan", "android": "https://dc.lft.to/lastmile_qr_scan"}, "is_reserved": 0}, {"lon": -77.00972216666666, "bike_id": "267a14fa5148682e646170b33ca5447d", "lat": 38.9078615, "fusion_lon": 0.0, "fusion_lat": 0.0, "type": "electric_scooter", "name": "267a14fa5148682e646170b33ca5447d", "is_disabled": 0, "rental_uris": {"ios": "https://dc.lft.to/lastmile_qr_scan", "android": "https://dc.lft.to/lastmile_qr_scan"}, "is_reserved": 0}, {"lon": -77.00066516666666, "bike_id": "fcfd1965d7449bf8eceb16a04c7ed309", "lat": 38.87402633333333, "fusion_lon": 0.0, "fusion_lat": 0.0, "type": "electric_scooter", "name": "fcfd1965d7449bf8eceb16a04c7ed309", "is_disabled": 0, "rental_uris": {"ios": "https://dc.lft.to/lastmile_qr_scan", "android": "https://dc.lft.to/lastmile_qr_scan"}, "is_reserved": 0}, {"lon": -76.96537466666666, "bike_id": "1894b21c6335ca82aa5562e3f107aa27", "lat": 38.87478933333333, "fusion_lon": 0.0, "fusion_lat": 0.0, "type": "electric_scooter", "name": "1894b21c6335ca82aa5562e3f107aa27", "is_disabled": 0, "rental_uris": {"ios": "https://dc.lft.to/lastmile_qr_scan", "android": "https://dc.lft.to/lastmile_qr_scan"}, "is_reserved": 0}, {"lon": -77.02562216666666, "bike_id": "57dbe99eb8361a962cce5040ddc4f53b", "lat": 38.93354166666667, "fusion_lon": 0.0, "fusion_lat": 0.0, "type": "electric_scooter", "name": "57dbe99eb8361a962cce5040ddc4f53b", "is_disabled": 0, "rental_uris": {"ios": "https://dc.lft.to/lastmile_qr_scan", "android": "https://dc.lft.to/lastmile_qr_scan"}, "is_reserved": 0}, {"lon": -77.02116033333333, "bike_id": "9619bec2041ba4fc9ac69d28587e532d", "lat": 38.936996, "fusion_lon": 0.0, "fusion_lat": 0.0, "type": "electric_scooter", "name": "9619bec2041ba4fc9ac69d28587e532d", "is_disabled": 0, "rental_uris": {"ios": "https://dc.lft.to/lastmile_qr_scan", "android": "https://dc.lft.to/lastmile_qr_scan"}, "is_reserved": 0}, {"lon": -77.04026533333334, "bike_id": "be36f667786edb36b3225565c4786485", "lat": 38.923790833333335, "fusion_lon": 0.0, "fusion_lat": 0.0, "type": "electric_scooter", "name": "be36f667786edb36b3225565c4786485", "is_disabled": 0, "rental_uris": {"ios": "https://dc.lft.to/lastmile_qr_scan", "android": "https://dc.lft.to/lastmile_qr_scan"}, "is_reserved": 0}, {"lon": -77.02173566666667, "bike_id": "67dc839adb02fa0b8cf86fd054b0bcf8", "lat": 38.9429555, "fusion_lon": 0.0, "fusion_lat": 0.0, "type": "electric_scooter", "name": "67dc839adb02fa0b8cf86fd054b0bcf8", "is_disabled": 0, "rental_uris": {"ios": "https://dc.lft.to/lastmile_qr_scan", "android": "https://dc.lft.to/lastmile_qr_scan"}, "is_reserved": 0}, {"lon": -77.031764, "bike_id": "8edcf1c1934b4195af30d6a760f4ee65", "lat": 38.9191475, "fusion_lon": 0.0, "fusion_lat": 0.0, "type": "electric_scooter", "name": "8edcf1c1934b4195af30d6a760f4ee65", "is_disabled": 0, "rental_uris": {"ios": "https://dc.lft.to/lastmile_qr_scan", "android": "https://dc.lft.to/lastmile_qr_scan"}, "is_reserved": 0}, {"lon": -76.97615833333333, "bike_id": "077ec47108986a11d73c9ba55f727030", "lat": 38.9265525, "fusion_lon": 0.0, "fusion_lat": 0.0, "type": "electric_scooter", "name": "077ec47108986a11d73c9ba55f727030", "is_disabled": 0, "rental_uris": {"ios": "https://dc.lft.to/lastmile_qr_scan", "android": "https://dc.lft.to/lastmile_qr_scan"}, "is_reserved": 0}, {"lon": -77.0223915, "bike_id": "7f86bed81320ddf6e7b984af4a4948ae", "lat": 38.9289905, "fusion_lon": 0.0, "fusion_lat": 0.0, "type": "electric_scooter", "name": "7f86bed81320ddf6e7b984af4a4948ae", "is_disabled": 0, "rental_uris": {"ios": "https://dc.lft.to/lastmile_qr_scan", "android": "https://dc.lft.to/lastmile_qr_scan"}, "is_reserved": 0}, {"lon": -76.99201116666667, "bike_id": "d393f473bd9f7e21c0a14241c87168b3", "lat": 38.8983175, "fusion_lon": 0.0, "fusion_lat": 0.0, "type": "electric_scooter", "name": "d393f473bd9f7e21c0a14241c87168b3", "is_disabled": 0, "rental_uris": {"ios": "https://dc.lft.to/lastmile_qr_scan", "android": "https://dc.lft.to/lastmile_qr_scan"}, "is_reserved": 0},