{"data": {"bikes": [{"is_disabled": 0, "fusion_lat": 0.0, "lat": 38.916070166666664, "type": "electric_scooter", "lon": -77.02129066666667, "is_reserved": 0, "fusion_lon": 0.0, "bike_id": "e730ae95a61465d305150d80dbb219c8", "name": "e730ae95a61465d305150d80dbb219c8", "rental_uris": {"ios": "https://dc.lft.to/lastmile_qr_scan", "android": "https://dc.lft.to/lastmile_qr_scan"}}, {"is_disabled": 0, "fusion_lat": 0.0, "lat": 38.90945383333333, "type": "electric_scooter", "lon": -77.046553, "is_reserved": 0, "fusion_lon": 0.0, "bike_id": "c712a179707cd76c9e6c7f6b857ed17b", "name": "c712a179707cd76c9e6c7f6b857ed17b", "rental_uris": {"ios": "https://dc.lft.to/lastmile_qr_scan", "android": "https://dc.lft.to/lastmile_qr_scan"}}, {"is_disabled": 0, "fusion_lat": 0.0, "lat": 38.92470766666667, "type": "electric_scooter", "lon": -77.03537383333334, "is_reserved": 0, "fusion_lon": 0.0, "bike_id": "7b31bb74dfd11c03f0f6f87e28108dd6", "name": "7b31bb74dfd11c03f0f6f87e28108dd6", "rental_uris": {"ios": "https://dc.lft.to/lastmile_qr_scan", "android": "https://dc.lft.to/lastmile_qr_scan"}}, {"is_disabled": 0, "fusion_lat": 0.0, "lat": 38.889396166666664, "type": "electric_scooter", "lon": -77.0150675, "is_reserved": 0, "fusion_lon": 0.0, "bike_id": "030066cb50435f6ec44e373ec5664dd1", "name": "030066cb50435f6ec44e373ec5664dd1", "rental_uris": {"ios": "https://dc.lft.to/lastmile_qr_scan", "android": "https://dc.lft.to/lastmile_qr_scan"}}, {"is_disabled": 0, "fusion_lat": 0.0, "lat": 38.917081333333336, "type": "electric_scooter", "lon": -77.0095845, "is_reserved": 0, "fusion_lon": 0.0, "bike_id": "f11f0135fa0a79ceaeea1ea5b364c600", "name": "f11f0135fa0a79ceaeea1ea5b364c600", "rental_uris": {"ios": "https://dc.lft.to/lastmile_qr_scan", "android": "https://dc.lft.to/lastmile_qr_scan"}}, {"is_disabled": 0, "fusion_lat": 0.0, "lat": 38.945972833333336, "type": "electric_scooter", "lon": -77.029836, "is_reserved": 0, "fusion_lon": 0.0, "bike_id": "46307d66127e8ab5bb1c25890ae049a5", "name": "46307d66127e8ab5bb1c25890ae049a5", "rental_uris": {"ios": "https://dc.lft.to/lastmile_qr_scan", "android": "https://dc.lft.to/lastmile_qr_scan"}}, {"is_disabled": 0, "fusion_lat": 0.0, "lat": 38.86663016666667, "type": "electric_scooter", "lon": -76.98911516666666, "is_reserved": 0, "fusion_lon": 0.0, "bike_id": "58512dbe8c88dfff528bf1d9f3a6fc77", "name": "58512dbe8c88dfff528bf1d9f3a6fc77", "rental_uris": {"ios": "https://dc.lft.to/lastmile_qr_scan", "android": "https://dc.lft.to/lastmile_qr_scan"}}, {"is_disabled": 0, "fusion_lat": 0.0, "lat": 38.9163295, "type": "electric_scooter", "lon": -77.0137005, "is_reserved": 0, "fusion_lon": 0.0, "bike_id": "4de33f8bcfcd6db4130f81ec1052b002", "name": "4de33f8bcfcd6db4130f81ec1052b002", "rental_uris": {"ios": "https://dc.lft.to/lastmile_qr_scan", "android": "https://dc.lft.to/lastmile_qr_scan"}}, {"is_disabled": 0, "fusion_lat": 0.0, "lat": 38.8746205, "type": "electric_scooter", "lon": -77.0049275, "is_reserved": 0, "fusion_lon": 0.0, "bike_id": "68cebd76935686a4239661b6e6e2c9f3", "name": "68cebd76935686a4239661b6e6e2c9f3", "rental_uris": {"ios": "https://dc.lft.to/lastmile_qr_scan", "android": "https://dc.lft.to/lastmile_qr_scan"}}, {"is_disabled": 0, "fusion_lat": 0.0, "lat": 38.92366283333333, "type": "electric_scooter", "lon": -77.05047833333333, "is_reserved": 0, "fusion_lon": 0.0, "bike_id": "d5db1cea6a1acf5c243c39330f6b25f7", "name": "d5db1cea6a1acf5c243c39330f6b25f7", "rental_uris": {"ios": "https://dc.lft.to/lastmile_qr_scan", "android": "https://dc.lft.to/lastmile_qr_scan"}}, {"is_disabled": 0, "fusion_lat": 0.0, "lat": 38.8843835, "type": "electric_scooter", "lon": -76.957553, "is_reserved": 0, "fusion_lon": 0.0, "bike_id": "8b753a3836f15ccc5d4347a68975ca0d", "name": "8b753a3836f15ccc5d4347a68975ca0d", "rental_uris": {"ios": "https://dc.lft.to/lastmile_qr_scan", "android": "https://dc.lft.to/lastmile_qr_scan"}}, {"is_disabled": 0, "fusion_lat": 0.0, "lat": 38.89835633333333, "type": "electric_scooter", "lon": -76.94637916666667, "is_reserved": 0, "fusion_lon": 0.0, "bike_id": "32899e906aaab8ca88a8eff30c09f11b", "name": "32899e906aaab8ca88a8eff30c09f11b", "rental_uris": {"ios": "https://dc.lft.to/lastmile_qr_scan", "android": "https://dc.lft.to/lastmile_qr_scan"}}, {"is_disabled": 0, "fusion_lat": 0.0, "lat": 38.89632266666667, "type": "electric_scooter", "lon": -77.03952116666666, "is_reserved": 0, "fusion_lon": 0.0, "bike_id": "a1e74fc28e74213e2b6bd10b9257c697", "name": "a1e74fc28e74213e2b6bd10b9257c697", "rental_uris": {"ios": "https://dc.lft.to/lastmile_qr_scan", "android": "https://dc.lft.to/lastmile_qr_scan"}}, {"is_disabled": 0, "fusion_lat": 0.0, "lat": 38.914734833333334, "type": "electric_scooter", "lon": -77.02380416666666, "is_reserved": 0, "fusion_lon": 0.0, "bike_id": "9469169084f81462e67e27f43b8309cb", "name": "9469169084f81462e67e27f43b8309cb", "rental_uris": {"ios": "https://dc.lft.to/lastmile_qr_scan", "android": "https://dc.lft.to/lastmile_qr_scan"}}, {"is_disabled": 0, "fusion_lat": 0.0, "lat": 38.922992, "type": "electric_scooter", "lon": -77.02424483333333, "is_reserved": 0, "fusion_lon": 0.0, "bike_id": "ee01a5813deceb399019fbe805b01a8c", "name": "ee01a5813deceb399019fbe805b01a8c", "rental_uris": {"ios": "https://dc.lft.to/lastmile_qr_scan", "android": "https://dc.lft.to/lastmile_qr_scan"}}, {"is_disabled": 0, "fusion_lat": 0.0, "lat": 38.889743333333335, "type": "electric_scooter", "lon": -76.93737533333334, "is_reserved": 0, "fusion_lon": 0.0, "bike_id": "fa49bd87b1565b9caec7ef5f5eae0b03", "name": "fa49bd87b1565b9caec7ef5f5eae0b03", "rental_uris": {"ios": "https://dc.lft.to/lastmile_qr_scan", "android": "https://dc.lft.to/lastmile_qr_scan"}}, {"is_disabled": 0, "fusion_lat": 0.0, "lat": 38.96498616666667, "type": "electric_bike", "lon": -77.0648955, "is_reserved": 0, "fusion_lon": 0.0, "bike_id": "714b4b46003025131d36904a4f309f13", "name": "714b4b46003025131d36904a4f309f13", "rental_uris": {"ios": "https://dc.lft.to/lastmile_qr_scan", "android": "https://dc.lft.to/lastmile_qr_scan"}}, {"is_disabled": 0, "fusion_lat": 0.0, "lat": 38.94014883333333, "type": "electric_scooter", "lon": -77.07174516666667, "is_reserved": 0, "fusion_lon": 0.0, "bike_id": "c7a1b40ccfc1ab1caa0ceaca5b294ec0", "name": "c7a1b40ccfc1ab1caa0ceaca5b294ec0", "rental_uris": {"ios": "https://dc.lft.to/lastmile_qr_scan", "android": "https://dc.lft.to/lastmile_qr_scan"}}, {"is_disabled": 0, "fusion_lat": 0.0, "lat": 38.90494566666667, "type": "electric_scooter", "lon": -77.06014016666667, "is_reserved": 0, "fusion_lon": 0.0, "bike_id": "e6c5ae850c02697e11d8420fbbe071ac", "name": "e6c5ae850c02697e11d8420fbbe071ac", "rental_uris": {"ios": "https://dc.lft.to/lastmile_qr_scan", "android": "https://dc.lft.to/lastmile_qr_scan"}}, {"is_disabled": 0, "fusion_lat": 0.0, "lat": 38.85487883333333, "type": "electric_bike", "lon": -77.116113, "is_reserved": 0, "fusion_lon": 0.0, "bike_id": "1c2dbd822f71fceea3eea13b4edc49f0", "name": "1c2dbd822f71fceea3eea13b4edc49f0", "rental_uris": {"ios": "https://dc.lft.to/lastmile_qr_scan", "android": "https://dc.lft.to/lastmile_qr_scan"}}, {"is_disabled": 0, "fusion_lat": 0.0, "lat": 38.8901555, "type": "electric_scooter", "lon": -76.93749666666666, "is_reserved": 0, "fusion_lon": 0.0, "bike_id": "c1cb19f007f64f9e0d41576362a1ed50", "name": "c1cb19f007f64f9e0d41576362a1ed50", "rental_uris": {"ios": "https://dc.lft.to/lastmile_qr_scan", "android": "https://dc.lft.to/lastmile_qr_scan"}}, {"is_disabled": 0, "fusion_lat": 0.0, "lat": 38.874976, "type": "electric_scooter", "lon": -76.99795633333333, "is_reserved": 0, "fusion_lon": 0.0, "bike_id": "71cb4e0320c05baab12bee0c85f6dfe2", "name": "71cb4e0320c05baab12bee0c85f6dfe2", "rental_uris": {"ios": "https://dc.lft.to/lastmile_qr_scan", "android": "https://dc.lft.to/lastmile_qr_scan"}}, {"is_disabled": 0, "fusion_lat": 0.0, "lat": 38.89912433333333, "type": "electric_scooter", "lon": -76.9334755, "is_reserved": 0, "fusion_lon": 0.0, "bike_id": "2ebd257fb6096b6f460d167f69fdb9a6", "name": "2ebd257fb6096b6f460d167f69fdb9a6", "rental_uris": {"ios": "https://dc.lft.to/lastmile_qr_scan", "android": "https://dc.lft.to/lastmile_qr_scan"}}, {"is_disabled": 0, "fusion_lat": 0.0, "lat": 38.89198866666667, "type": "electric_scooter", "lon": -77.02380033333333, "is_reserved": 0, "fusion_lon": 0.0, "bike_id": "92d84b3b4a784a6456df626c1c175150", "name": "92d84b3b4a784a6456df626c1c175150", "rental_uris": {"ios": "https://dc.lft.to/lastmile_qr_scan", "android": "https://dc.lft.to/lastmile_qr_scan"}}, {"is_disabled": 0, "fusion_lat": 0.0, "lat": 38.924170333333336, "type": "electric_scooter", "lon": -77.02241383333333, "is_reserved": 0, "fusion_lon": 0.0, "bike_id": "1f392dc6c0e9b32469a4ac07df0da2b8", "name": "1f392dc6c0e9b32469a4ac07df0da2b8", "rental_uris": {"ios": "https://dc.lft.to/lastmile_qr_scan", "android": "https://dc.lft.to/lastmile_qr_scan"}}, {"is_disabled": 0, "fusion_lat": 0.0, "lat": 38.90408083333333, "type": "electric_scooter", "lon": -77.02082066666667, "is_reserved": 0, "fusion_lon": 0.0, "bike_id": "ab726cdfbfe35e63eea911d350f4f36b", "name": "ab726cdfbfe35e63eea911d350f4f36b", "rental_uris": {"ios": "https://dc.lft.to/lastmile_qr_scan", "android": "https://dc.lft.to/lastmile_qr_scan"}}, {"is_disabled": 0, "fusion_lat": 0.0, "lat": 38.8851635, "type": "electric_scooter", "lon": -77.03348183333334, "is_reserved": 0, "fusion_lon": 0.0, "bike_id": "65babe7ca2f2ef6fca15e23554393a83", "name": "65babe7ca2f2ef6fca15e23554393a83", "rental_uris": {"ios": "https://dc.lft.to/lastmile_qr_scan", "android": "https://dc.lft.to/lastmile_qr_scan"}}, {"is_disabled": 0, "fusion_lat": 0.0, "lat": 38.858113, "type": "electric_scooter", "lon": -76.989902, "is_reserved": 0, "fusion_lon": 0.0, "bike_id": "4c7e980229037a08ed78870821ace04b", "name": "4c7e980229037a08ed78870821ace04b", "rental_uris": {"ios": "https://dc.lft.to/lastmile_qr_scan", "android": "https://dc.lft.to/lastmile_qr_scan"}}, {"is_disabled": 0, "fusion_lat": 0.0, "lat": 38.92013516666667, "type": "electric_scooter", "lon": -77.07126433333333, "is_reserved": 0, "fusion_lon": 0.0, "bike_id": "1d9cac23fd64d379fb8febde311f04aa", "name": "1d9cac23fd64d379fb8febde311f04aa", "rental_uris": {"ios": "https://dc.lft.to/lastmile_qr_scan", "android": "https://dc.lft.to/lastmile_qr_scan"}}, {"is_disabled": 0, "fusion_lat": 0.0, "lat": 38.92581416666667, "type": "electric_scooter", "lon": -77.03917533333333, "is_reserved": 0, "fusion_lon": 0.0, "bike_id": "584247aad88520f4da0b78ddfb5a30ca", "name": "584247aad88520f4da0b78ddfb5a30ca", "rental_uris": {"ios": "https://dc.lft.to/lastmile_qr_scan", "android": "https://dc.lft.to/lastmile_qr_scan"}}, {"is_disabled": 0, "fusion_lat": 0.0, "lat": 38.9280475, "type": "electric_scooter", "lon": -77.02716833333334, "is_reserved": 0, "fusion_lon": 0.0, "bike_id": "36f005b1fecacee92e9a592b67cf88f2", "name": "36f005b1fecacee92e9a592b67cf88f2", "rental_uris": {"ios": "https://dc.lft.to/lastmile_qr_scan", "android": "https://dc.lft.to/lastmile_qr_scan"}}, {"is_disabled": 0, "fusion_lat": 0.0, "lat": 38.918787333333334, "type": "electric_scooter", "lon": -77.03588566666667, "is_reserved": 0, "fusion_lon": 0.0, "bike_id": "7683983cdaa3da112c7eb9a4a480c4a0", "name": "7683983cdaa3da112c7eb9a4a480c4a0", "rental_uris": {"ios": "https://dc.lft.to/lastmile_qr_scan", "android": "https://dc.lft.to/lastmile_qr_scan"}}, {"is_disabled": 0, "fusion_lat": 0.0, "lat": 38.92845666666667, "type": "electric_scooter", "lon": -77.055113, "is_reserved": 0, "fusion_lon": 0.0, "bike_id": "a54bea4894260f07bfff45794c4e832e", "name": "a54bea4894260f07bfff45794c4e832e", "rental_uris": {"ios": "https://dc.lft.to/lastmile_qr_scan", "android": "https://dc.lft.to/lastmile_qr_scan"}}, {"is_disabled": 0, "fusion_lat": 0.0, "lat": 38.885754, "type": "electric_scooter", "lon": -77.01544516666667, "is_reserved": 0, "fusion_lon": 0.0, "bike_id": "0c5542c5f2477d1b3201aa2aac74ebdb", "name": "0c5542c5f2477d1b3201aa2aac74ebdb", "rental_uris": {"ios": "https://dc.lft.to/lastmile_qr_scan", "android": "https://dc.lft.to/lastmile_qr_scan"}}, {"is_disabled": 0, "fusion_lat": 0.0, "lat": 38.91693466666667, "type": "electric_scooter", "lon": -77.03105416666666, "is_reserved": 0, "fusion_lon": 0.0, "bike_id": "892213f74260a68afa10502820b7589f", "name": "892213f74260a68afa10502820b7589f", "rental_uris": {"ios": "https://dc.lft.to/lastmile_qr_scan", "android": "https://dc.lft.to/lastmile_qr_scan"}}, {"is_disabled": 0, "fusion_lat": 0.0, "lat": 38.90978466666667, "type": "electric_scooter", "lon": -77.03188716666666, "is_reserved": 0, "fusion_lon": 0.0, "bike_id": "569edbf80f0553034c0c92bc8cf50eb1", "name": "569edbf80f0553034c0c92bc8cf50eb1", "rental_uris": {"ios": "https://dc.lft.to/lastmile_qr_scan", "android": "https://dc.lft.to/lastmile_qr_scan"}}, {"is_disabled": 0, "fusion_lat": 0.0, "lat": 38.89995166666667, "type": "electric_scooter", "lon": -77.03351866666667, "is_reserved": 0, "fusion_lon": 0.0, "bike_id": "dc413e729c9446dc8c9400a34880799f", "name": "dc413e729c9446dc8c9400a34880799f", "rental_uris": {"ios": "https://dc.lft.to/lastmile_qr_scan", "android": "https://dc.lft.to/lastmile_qr_scan"}}, {"is_disabled": 0, "fusion_lat": 0.0, "lat": 38.884419333333334, "type": "electric_scooter", "lon": -77.0257145, "is_reserved": 0, "fusion_lon": 0.0, "bike_id": "4db32e2732084caef8b8ea779ab602fc", "name": "4db32e2732084caef8b8ea779ab602fc", "rental_uris": {"ios": "https://dc.lft.to/lastmile_qr_scan", "android": "https://dc.lft.to/lastmile_qr_scan"}}, {"is_disabled": 0, "fusion_lat": 0.0, "lat": 38.91721, "type": "electric_scooter", "lon": -77.04158816666667, "is_reserved": 0, "fusion_lon": 0.0, "bike_id": "77b74417ddf2d52484cce10da9459577", "name": "77b74417ddf2d52484cce10da9459577", "rental_uris": {"ios": "https://dc.lft.to/lastmile_qr_scan", "android": "https://dc.lft.to/lastmile_qr_scan"}}, {"is_disabled": 0, "fusion_lat": 0.0, "lat": 38.92174716666667, "type": "electric_scooter", "lon": -77.04229166666667, "is_reserved": 0, "fusion_lon": 0.0, "bike_id": "4abd6415c3b7728d69142d17580bc0fa", "name": "4abd6415c3b7728d69142d17580bc0fa", "rental_uris": {"ios": "https://dc.lft.to/lastmile_qr_scan", "android": "https://dc.lft.to/lastmile_qr_scan"}}, {"is_disabled": 0, "fusion_lat": 0.0, "lat": 38.924883666666666, "type": "electric_scooter", "lon": -77.02842483333333, "is_reserved": 0, "fusion_lon": 0.0, "bike_id": "6b8cb83d62808fc8f3ff301f664bdb0b", "name": "6b8cb83d62808fc8f3ff301f664bdb0b", "rental_uris": {"ios": "https://dc.lft.to/lastmile_qr_scan", "android": "https://dc.lft.to/lastmile_qr_scan"}}, {"is_disabled": 0, "fusion_lat": 0.0, "lat": 38.9071035, "type": "electric_scooter", "lon": -77.03318216666666, "is_reserved": 0, "fusion_lon": 0.0, "bike_id": "2a5f73a6600cc5f4ba030a6d7981281a", "name": "2a5f73a6600cc5f4ba030a6d7981281a", "rental_uris": {"ios": "https://dc.lft.to/lastmile_qr_scan", "android": "https://dc.lft.to/lastmile_qr_scan"}}, {"is_disabled": 0, "fusion_lat": 0.0, "lat": 38.892514166666665, "type": "electric_bike", "lon": -76.98543883333333, "is_reserved": 0, "fusion_lon": 0.0, "bike_id": "8fc0007693464aa8101064a449ae96cd", "name": "8fc0007693464aa8101064a449ae96cd", "rental_uris": {"ios": "https://dc.lft.to/lastmile_qr_scan", "android": "https://dc.lft.to/lastmile_qr_scan"}}, {"is_disabled": 0, "fusion_lat": 0.0, "lat": 38.90502033333333, "type": "electric_scooter", "lon": -77.06287966666666, "is_reserved": 0, "fusion_lon": 0.0, "bike_id": "2bad1bfcaee5a961b9351e6925ac36a5", "name": "2bad1bfcaee5a961b9351e6925ac36a5", "rental_uris": {"ios": "https://dc.lft.to/lastmile_qr_scan", "android": "https://dc.lft.to/lastmile_qr_scan"}}, {"is_disabled": 0, "fusion_lat": 0.0, "lat": 38.89776766666667, "type": "electric_scooter", "lon": -76.977246, "is_reserved": 0, "fusion_lon": 0.0, "bike_id": "dfe30586f8f281764e641b93f5db9386", "name": "dfe30586f8f281764e641b93f5db9386", "rental_uris": {"ios": "https://dc.lft.to/lastmile_qr_scan", "android": "https://dc.lft.to/lastmile_qr_scan"}}, {"is_disabled": 0, "fusion_lat": 0.0, "lat": 38.917754, "type": "electric_scooter", "lon": -76.973251, "is_reserved": 0, "fusion_lon": 0.0, "bike_id": "d0c16c7ea62ef89e732183d02fc1af57", "name": "d0c16c7ea62ef89e732183d02fc1af57", "rental_uris": {"ios": "https://dc.lft.to/lastmile_qr_scan", "android": "https://dc.lft.to/lastmile_qr_scan"}}, {"is_disabled": 0, "fusion_lat": 0.0, "lat": 38.887053, "type": "electric_scooter", "lon": -77.00148416666667, "is_reserved": 0, "fusion_lon": 0.0, "bike_id": "a7fccec37abf66fedcba03e535acd10c", "name": "a7fccec37abf66fedcba03e535acd10c", "rental_uris": {"ios": "https://dc.lft.to/lastmile_qr_scan", "android": "https://dc.lft.to/lastmile_qr_scan"}}, {"is_disabled": 0, "fusion_lat": 0.0, "lat": 38.92327816666667, "type": "electric_scooter", "lon": -77.03894133333333, "is_reserved": 0, "fusion_lon": 0.0, "bike_id": "9bccfe985b0b87d13a2b1afddd22d754", "name": "9bccfe985b0b87d13a2b1afddd22d754", "rental_uris": {"ios": "https://dc.lft.to/lastmile_qr_scan", "android": "https://dc.lft.to/lastmile_qr_scan"}}, {"is_disabled": 0, "fusion_lat": 0.0, "lat": 38.921839, "type": "electric_scooter", "lon": -77.0423105, "is_reserved": 0, "fusion_lon": 0.0, "bike_id": "13a0324042fd79924df60a81036fe6c5", "name": "13a0324042fd79924df60a81036fe6c5", "rental_uris": {"ios": "https://dc.lft.to/lastmile_qr_scan", "android": "https://dc.lft.to/lastmile_qr_scan"}}, {"is_disabled": 0, "fusion_lat": 0.0, "lat": 38.89466766666666, "type": "electric_scooter", "lon": -76.99378666666667, "is_reserved": 0, "fusion_lon": 0.0, "bike_id": "d0b3f3adbf15951f445f4769a6350369", "name": "d0b3f3adbf15951f445f4769a6350369", "rental_uris": {"ios": "https://dc.lft.to/lastmile_qr_scan", "android": "https://dc.lft.to/lastmile_qr_scan"}}, {"is_disabled": 0, "fusion_lat": 0.0, "lat": 38.92314666666667, "type": "electric_scooter", "lon": -77.0211555, "is_reserved": 0, "fusion_lon": 0.0, "bike_id": "e32bd2b85094d0d09022247f6e935c66", "name": "e32bd2b85094d0d09022247f6e935c66", "rental_uris": {"ios": "https://dc.lft.to/lastmile_qr_scan", "android": "https://dc.lft.to/lastmile_qr_scan"}}, {"is_disabled": 0, "fusion_lat": 0.0, "lat": 38.915539333333335, "type": "electric_scooter", "lon": -77.03513133333334, "is_reserved": 0, "fusion_lon": 0.0, "bike_id": "7eeb6695ac7b71ffed2fe29082ea9fc0", "name": "7eeb6695ac7b71ffed2fe29082ea9fc0", "rental_uris": {"ios": "https://dc.lft.to/lastmile_qr_scan", "android": "https://dc.lft.to/lastmile_qr_scan"}}, {"is_disabled": 0, "fusion_lat": 0.0, "lat": 38.91726933333333, "type": "electric_scooter", "lon": -77.028912, "is_reserved": 0, "fusion_lon": 0.0, "bike_id": "8eef05ecfe626a01a3fd3735bf6c0d7e", "name": "8eef05ecfe626a01a3fd3735bf6c0d7e", "rental_uris": {"ios": "https://dc.lft.to/lastmile_qr_scan", "android": "https://dc.lft.to/lastmile_qr_scan"}}, {"is_disabled": 0, "fusion_lat": 0.0, "lat": 39.0304895, "type": "electric_bike", "lon": -77.0947535, "is_reserved": 0, "fusion_lon": 0.0, "bike_id": "5bd9a40f862b95af03d3cb0058f58dcb", "name": "5bd9a40f862b95af03d3cb0058f58dcb", "rental_uris": {"ios": "https://dc.lft.to/lastmile_qr_scan", "android": "https://dc.lft.to/lastmile_qr_scan"}}, {"is_disabled": 0, "fusion_lat": 0.0, "lat": 38.91829, "type": "electric_scooter", "lon": -77.03637266666667, "is_reserved": 0, "fusion_lon": 0.0, "bike_id": "dc993fcfddcb7f9eb623e05fa5bb0355", "name": "dc993fcfddcb7f9eb623e05fa5bb0355", "rental_uris": {"ios": "https://dc.lft.to/lastmile_qr_scan", "android": "https://dc.lft.to/lastmile_qr_scan"}}, {"is_disabled": 0, "fusion_lat": 0.0, "lat": 38.96176366666667, "type": "electric_bike", "lon": -76.99590366666666, "is_reserved": 0, "fusion_lon": 0.0, "bike_id": "aa20dc74ea9c8a043263604b8540dd39", "name": "aa20dc74ea9c8a043263604b8540dd39", "rental_uris": {"ios": "https://dc.lft.to/lastmile_qr_scan", "android": "https://dc.lft.to/lastmile_qr_scan"}}, {"is_disabled": 0, "fusion_lat": 0.0, "lat": 38.934349833333336, "type": "electric_scooter", "lon": -77.03448616666667, "is_reserved": 0, "fusion_lon": 0.0, "bike_id": "06ebba45f848ece02cdd9be6ff9bbef8", "name": "06ebba45f848ece02cdd9be6ff9bbef8", "rental_uris": {"ios": "https://dc.lft.to/lastmile_qr_scan", "android": "https://dc.lft.to/lastmile_qr_scan"}}, {"is_disabled": 0, "fusion_lat": 0.0, "lat": 38.90747616666667, "type": "electric_scooter", "lon": -77.02405683333333, "is_reserved": 0, "fusion_lon": 0.0, "bike_id": "1eb89e2d3aa6ba39df046f8d156ddbb6", "name": "1eb89e2d3aa6ba39df046f8d156ddbb6", "rental_uris": {"ios": "https://dc.lft.to/lastmile_qr_scan", "android": "https://dc.lft.to/lastmile_qr_scan"}}, {"is_disabled": 0, "fusion_lat": 0.0, "lat": 38.893761, "type": "electric_scooter", "lon": -76.9499835, "is_reserved": 0, "fusion_lon": 0.0, "bike_id": "eac4fa0191d3a05d42f1841340320b9a", "name": "eac4fa0191d3a05d42f1841340320b9a", "rental_uris": {"ios": "https://dc.lft.to/lastmile_qr_scan", "android": "https://dc.lft.to/lastmile_qr_scan"}}, {"is_disabled": 0, "fusion_lat": 0.0, "lat": 38.893424833333334, "type": "electric_scooter", "lon": -77.0120155, "is_reserved": 0, "fusion_lon": 0.0, "bike_id": "3e0605873f3698d122709c5f420494f0", "name": "3e0605873f3698d122709c5f420494f0", "rental_uris": {"ios": "https://dc.lft.to/lastmile_qr_scan", "android": "https://dc.lft.to/lastmile_qr_scan"}}, {"is_disabled": 0, "fusion_lat": 0.0, "lat": 38.88435116666667, "type": "electric_scooter", "lon": -76.95756083333333, "is_reserved": 0, "fusion_lon": 0.0, "bike_id": "029d400cb92a707f304171bfe11bbe48", "name": "029d400cb92a707f304171bfe11bbe48", "rental_uris": {"ios": "https://dc.lft.to/lastmile_qr_scan", "android": "https://dc.lft.to/lastmile_qr_scan"}}, {"is_disabled": 0, "fusion_lat": 0.0, "lat": 38.9073795, "type": "electric_scooter", "lon": -77.00101666666667, "is_reserved": 0, "fusion_lon": 0.0, "bike_id": "15ab5e74e1ebc66ddb330fac9e236fdd", "name": "15ab5e74e1ebc66ddb330fac9e236fdd", "rental_uris": {"ios": "https://dc.lft.to/lastmile_qr_scan", "android": "https://dc.lft.to/lastmile_qr_scan"}}, {"is_disabled": 0, "fusion_lat": 0.0, "lat": 38.93843733333333, "type": "electric_scooter", "lon": -77.02449833333333, "is_reserved": 0, "fusion_lon": 0.0, "bike_id": "abd8f156b032093f802df92c130449d8", "name": "abd8f156b032093f802df92c130449d8", "rental_uris": {"ios": "https://dc.lft.to/lastmile_qr_scan", "android": "https://dc.lft.to/lastmile_qr_scan"}}, {"is_disabled": 0, "fusion_lat": 0.0, "lat": 38.83935983333333, "type": "electric_bike", "lon": -77.07898533333334, "is_reserved": 0, "fusion_lon": 0.0, "bike_id": "a42c544c227f2498054ac848fe19d6fa", "name": "a42c544c227f2498054ac848fe19d6fa", "rental_uris": {"ios": "https://dc.lft.to/lastmile_qr_scan", "android": "https://dc.lft.to/lastmile_qr_scan"}}, {"is_disabled": 0, "fusion_lat": 0.0, "lat": 38.9155065, "type": "electric_scooter", "lon": -77.0199635, "is_reserved": 0, "fusion_lon": 0.0, "bike_id": "35ba7ab511e166265bed14b3f04c86f4", "name": "35ba7ab511e166265bed14b3f04c86f4", "rental_uris": {"ios": "https://dc.lft.to/lastmile_qr_scan", "android": "https://dc.lft.to/lastmile_qr_scan"}}, {"is_disabled": 0, "fusion_lat": 0.0, "lat": 38.925085, "type": "electric_scooter", "lon": -77.00889333333333, "is_reserved": 0, "fusion_lon": 0.0, "bike_id": "3739d23c210d702d499aec56b1a55936", "name": "3739d23c210d702d499aec56b1a55936", "rental_uris": {"ios": "https://dc.lft.to/lastmile_qr_scan", "android": "https://dc.lft.to/lastmile_qr_scan"}}, {"is_disabled": 0, "fusion_lat": 0.0, "lat": 38.8823315, "type": "electric_scooter", "lon": -76.92658766666666, "is_reserved": 0, "fusion_lon": 0.0, "bike_id": "83920d5795129d549315ef7609a2bcfb", "name": "83920d5795129d549315ef7609a2bcfb", "rental_uris": {"ios": "https://dc.lft.to/lastmile_qr_scan", "android": "https://dc.lft.to/lastmile_qr_scan"}}, {"is_disabled": 0, "fusion_lat": 0.0, "lat": 38.907869833333336, "type": "electric_scooter", "lon": -77.038618, "is_reserved": 0, "fusion_lon": 0.0, "bike_id": "0d60598ca6f1f7b75069e1f2026cc4b2", "name": "0d60598ca6f1f7b75069e1f2026cc4b2", "rental_uris": {"ios": "https://dc.lft.to/lastmile_qr_scan", "android": "https://dc.lft.to/lastmile_qr_scan"}}, {"is_disabled": 0, "fusion_lat": 0.0, "lat": 38.915591666666664, "type": "electric_scooter", "lon": -77.00952216666667, "is_reserved": 0, "fusion_lon": 0.0, "bike_id": "585241788ef241cd1c29bef6a00d46b2", "name": "585241788ef241cd1c29bef6a00d46b2", "rental_uris": {"ios": "https://dc.lft.to/lastmile_qr_scan", "android": "https://dc.lft.to/lastmile_qr_scan"}}, {"is_disabled": 0, "fusion_lat": 0.0, "lat": 38.89607983333333, "type": "electric_scooter", "lon": -77.00923116666667, "is_reserved": 0, "fusion_lon": 0.0, "bike_id": "eb7eeb033405e982dc1ad196d62edcdc", "name": "eb7eeb033405e982dc1ad196d62edcdc", "rental_uris": {"ios": "https://dc.lft.to/lastmile_qr_scan", "android": "https://dc.lft.to/lastmile_qr_scan"}}, {"is_disabled": 0, "fusion_lat": 0.0, "lat": 38.90131183333333, "type": "electric_scooter", "lon": -77.042378, "is_reserved": 0, "fusion_lon": 0.0, "bike_id": "610928b6c1d6e4b94d219a13973c1b16", "name": "610928b6c1d6e4b94d219a13973c1b16", "rental_uris": {"ios": "https://dc.lft.to/lastmile_qr_scan", "android": "https://dc.lft.to/lastmile_qr_scan"}}, {"is_disabled": 0, "fusion_lat": 0.0, "lat": 38.90421833333333, "type": "electric_scooter", "lon": -77.04863416666667, "is_reserved": 0, "fusion_lon": 0.0, "bike_id": "20dd891b6bc21f328fb1c992ec5ce58d", "name": "20dd891b6bc21f328fb1c992ec5ce58d", "rental_uris": {"ios": "https://dc.lft.to/lastmile_qr_scan", "android": "https://dc.lft.to/lastmile_qr_scan"}}, {"is_disabled": 0, "fusion_lat": 0.0, "lat": 38.898352833333334, "type": "electric_scooter", "lon": -76.946346, "is_reserved": 0, "fusion_lon": 0.0, "bike_id": "08f54650036ff8c70b622039ed374277", "name": "08f54650036ff8c70b622039ed374277", "rental_uris": {"ios": "https://dc.lft.to/lastmile_qr_scan", "android": "https://dc.lft.to/lastmile_qr_scan"}}, {"is_disabled": 0, "fusion_lat": 0.0, "lat": 38.93274433333333, "type": "electric_bike", "lon": -77.039912, "is_reserved": 0, "fusion_lon": 0.0, "bike_id": "16754d12462c54ebc7d038bedb6be46a", "name": "16754d12462c54ebc7d038bedb6be46a", "rental_uris": {"ios": "https://dc.lft.to/lastmile_qr_scan", "android": "https://dc.lft.to/lastmile_qr_scan"}}, {"is_disabled": 0, "fusion_lat": 0.0, "lat": 38.915512666666665, "type": "electric_scooter", "lon": -77.04157983333333, "is_reserved": 0, "fusion_lon": 0.0, "bike_id": "c80b964350b69bac5237836ba2451b0c", "name": "c80b964350b69bac5237836ba2451b0c", "rental_uris": {"ios": "https://dc.lft.to/lastmile_qr_scan", "android": "https://dc.lft.to/lastmile_qr_scan"}}, {"is_disabled": 0, "fusion_lat": 0.0, "lat": 39.0520565, "type": "electric_bike", "lon": -77.109146, "is_reserved": 0, "fusion_lon": 0.0, "bike_id": "2b3c48363fae47c697bde0517fe9f743", "name": "2b3c48363fae47c697bde0517fe9f743", "rental_uris": {"ios": "https://dc.lft.to/lastmile_qr_scan", "android": "https://dc.lft.to/lastmile_qr_scan"}}, {"is_disabled": 0, "fusion_lat": 0.0, "lat": 38.9182925, "type": "electric_scooter", "lon": -77.03641216666666, "is_reserved": 0, "fusion_lon": 0.0, "bike_id": "d2b76008535d17fa610107720c90be1c", "name": "d2b76008535d17fa610107720c90be1c", "rental_uris": {"ios": "https://dc.lft.to/lastmile_qr_scan", "android": "https://dc.lft.to/lastmile_qr_scan"}}, {"is_disabled": 0, "fusion_lat": 0.0, "lat": 38.91105833333334, "type": "electric_scooter", "lon": -77.04201283333333, "is_reserved": 0, "fusion_lon": 0.0, "bike_id": "59aa50a4ac7658e7850e758a77cb2d65", "name": "59aa50a4ac7658e7850e758a77cb2d65", "rental_uris": {"ios": "https://dc.lft.to/lastmile_qr_scan", "android": "https://dc.lft.to/lastmile_qr_scan"}}, {"is_disabled": 0, "fusion_lat": 0.0, "lat": 38.92443183333334, "type": "electric_scooter", "lon": -77.0572945, "is_reserved": 0, "fusion_lon": 0.0, "bike_id": "152bd6edca048dbc1acb5f6deabf86aa", "name": "152bd6edca048dbc1acb5f6deabf86aa", "rental_uris": {"ios": "https://dc.lft.to/lastmile_qr_scan", "android": "https://dc.lft.to/lastmile_qr_scan"}}, {"is_disabled": 0, "fusion_lat": 0.0, "lat": 38.909981, "type": "electric_scooter", "lon": -77.04005866666667, "is_reserved": 0, "fusion_lon": 0.0, "bike_id": "aec2121d2de3d2b433a22eb470dff568", "name": "aec2121d2de3d2b433a22eb470dff568", "rental_uris": {"ios": "https://dc.lft.to/lastmile_qr_scan", "android": "https://dc.lft.to/lastmile_qr_scan"}}, {"is_disabled": 0, "fusion_lat": 0.0, "lat": 38.9225745, "type": "electric_scooter", "lon": -77.04245666666667, "is_reserved": 0, "fusion_lon": 0.0, "bike_id": "30467db165c07536210e43bb6f0d8952", "name": "30467db165c07536210e43bb6f0d8952", "rental_uris": {"ios": "https://dc.lft.to/lastmile_qr_scan", "android": "https://dc.lft.to/lastmile_qr_scan"}}, {"is_disabled": 0, "fusion_lat": 0.0, "lat": 38.924611666666664, "type": "electric_scooter", "lon": -77.07865216666667, "is_reserved": 0, "fusion_lon": 0.0, "bike_id": "c039444e075f2421f90adfda1c89b5c4", "name": "c039444e075f2421f90adfda1c89b5c4", "rental_uris": {"ios": "https://dc.lft.to/lastmile_qr_scan", "android": "https://dc.lft.to/lastmile_qr_scan"}}, {"is_disabled": 0, "fusion_lat": 0.0, "lat": 38.906715, "type": "electric_scooter", "lon": -77.02716016666666, "is_reserved": 0, "fusion_lon": 0.0, "bike_id": "55fcf3de6bf7e89419b1cb5b786415cd", "name": "55fcf3de6bf7e89419b1cb5b786415cd", "rental_uris": {"ios": "https://dc.lft.to/lastmile_qr_scan", "android": "https://dc.lft.to/lastmile_qr_scan"}}, {"is_disabled": 0, "fusion_lat": 0.0, "lat": 38.935375, "type": "electric_scooter", "lon": -77.023499, "is_reserved": 0, "fusion_lon": 0.0, "bike_id": "ed6ed4434654f234a7ce846441ec5b9f", "name": "ed6ed4434654f234a7ce846441ec5b9f", "rental_uris": {"ios": "https://dc.lft.to/lastmile_qr_scan", "android": "https://dc.lft.to/lastmile_qr_scan"}}, {"is_disabled": 0, "fusion_lat": 0.0, "lat": 38.919622, "type": "electric_scooter", "lon": -77.032112, "is_reserved": 0, "fusion_lon": 0.0, "bike_id": "65be9359c273cdbe12d3a98887162ba6", "name": "65be9359c273cdbe12d3a98887162ba6", "rental_uris": {"ios": "https://dc.lft.to/lastmile_qr_scan", "android": "https://dc.lft.to/lastmile_qr_scan"}}, {"is_disabled": 0, "fusion_lat": 0.0, "lat": 38.95266433333333, "type": "electric_bike", "lon": -77.0697795, "is_reserved": 0, "fusion_lon": 0.0, "bike_id": "1b52a04a4bd7268de0ce511f37030cad", "name": "1b52a04a4bd7268de0ce511f37030cad", "rental_uris": {"ios": "https://dc.lft.to/lastmile_qr_scan", "android": "https://dc.lft.to/lastmile_qr_scan"}}, {"is_disabled": 0, "fusion_lat": 0.0, "lat": 38.89896016666667, "type": "electric_scooter", "lon": -77.0073705, "is_reserved": 0, "fusion_lon": 0.0, "bike_id": "c8fc572955c2be95e9a5872432b14a66", "name": "c8fc572955c2be95e9a5872432b14a66", "rental_uris": {"ios": "https://dc.lft.to/lastmile_qr_scan", "android": "https://dc.lft.to/lastmile_qr_scan"}}, {"is_disabled": 0, "fusion_lat": 0.0, "lat": 38.90786083333333, "type": "electric_scooter", "lon": -77.044602, "is_reserved": 0, "fusion_lon": 0.0, "bike_id": "045b5c5a0d23df74e2d3d451cb1793e5", "name": "045b5c5a0d23df74e2d3d451cb1793e5", "rental_uris": {"ios": "https://dc.lft.to/lastmile_qr_scan", "android": "https://dc.lft.to/lastmile_qr_scan"}}, {"is_disabled": 0, "fusion_lat": 0.0, "lat": 38.92641883333334, "type": "electric_scooter", "lon": -77.0134475, "is_reserved": 0, "fusion_lon": 0.0, "bike_id": "f1f3c855941cbafaa1f96b5105c3c20a", "name": "f1f3c855941cbafaa1f96b5105c3c20a", "rental_uris": {"ios": "https://dc.lft.to/lastmile_qr_scan", "android": "https://dc.lft.to/lastmile_qr_scan"}}, {"is_disabled": 0, "fusion_lat": 0.0, "lat": 38.8208825, "type": "electric_bike", "lon": -77.053629, "is_reserved": 0, "fusion_lon": 0.0, "bike_id": "4b47a3103c6d65d6d9f1dbcb62812d5c", "name": "4b47a3103c6d65d6d9f1dbcb62812d5c", "rental_uris": {"ios": "https://dc.lft.to/lastmile_qr_scan", "android": "https://dc.lft.to/lastmile_qr_scan"}}, {"is_disabled": 0, "fusion_lat": 0.0, "lat": 38.9261245, "type": "electric_scooter", "lon": -77.05694433333333, "is_reserved": 0, "fusion_lon": 0.0, "bike_id": "0888567ea691991648b4deb5e2a8eabd", "name": "0888567ea691991648b4deb5e2a8eabd", "rental_uris": {"ios": "https://dc.lft.to/lastmile_qr_scan", "android": "https://dc.lft.to/lastmile_qr_scan"}}, {"is_disabled": 0, "fusion_lat": 0.0, "lat": 38.92324416666666, "type": "electric_scooter", "lon": -77.03896933333333, "is_reserved": 0, "fusion_lon": 0.0, "bike_id": "844acbaca9cd2d0fa721781883398c02", "name": "844acbaca9cd2d0fa721781883398c02", "rental_uris": {"ios": "https://dc.lft.to/lastmile_qr_scan", "android": "https://dc.lft.to/lastmile_qr_scan"}}, {"is_disabled": 0, "fusion_lat": 0.0, "lat": 38.9376995, "type": "electric_scooter", "lon": -77.02110683333333, "is_reserved": 0, "fusion_lon": 0.0, "bike_id": "7c9a75bcdd97ea1f2caf11519329c14a", "name": "7c9a75bcdd97ea1f2caf11519329c14a", "rental_uris": {"ios": "https://dc.lft.to/lastmile_qr_scan", "android": "https://dc.lft.to/lastmile_qr_scan"}}, {"is_disabled": 0, "fusion_lat": 0.0, "lat": 38.918220166666664, "type": "electric_scooter", "lon": -77.035315, "is_reserved": 0, "fusion_lon": 0.0, "bike_id": "5dc8c21fbb4383ea349552e4356b1144", "name": "5dc8c21fbb4383ea349552e4356b1144", "rental_uris": {"ios": "https://dc.lft.to/lastmile_qr_scan", "android": "https://dc.lft.to/lastmile_qr_scan"}}, {"is_disabled": 0, "fusion_lat": 0.0, "lat": 38.940857666666666, "type": "electric_scooter", "lon": -77.02715783333333, "is_reserved": 0, "fusion_lon": 0.0, "bike_id": "21946af51ebaf57a052dcdcfd00df2c5", "name": "21946af51ebaf57a052dcdcfd00df2c5", "rental_uris": {"ios": "https://dc.lft.to/lastmile_qr_scan", "android": "https://dc.lft.to/lastmile_qr_scan"}}, {"is_disabled": 0, "fusion_lat": 0.0, "lat": 38.950850333333335, "type": "electric_scooter", "lon": -77.02833266666667, "is_reserved": 0, "fusion_lon": 0.0, "bike_id": "610abc191d274c215ebe7415abcd3c64", "name": "610abc191d274c215ebe7415abcd3c64", "rental_uris": {"ios": "https://dc.lft.to/lastmile_qr_scan", "android": "https://dc.lft.to/lastmile_qr_scan"}}, {"is_disabled": 0, "fusion_lat": 0.0, "lat": 38.9097635, "type": "electric_scooter", "lon": -77.038646, "is_reserved": 0, "fusion_lon": 0.0, "bike_id": "e718287ee31646bb2a486942871d7471", "name": "e718287ee31646bb2a486942871d7471", "rental_uris": {"ios": "https://dc.lft.to/lastmile_qr_scan", "android": "https://dc.lft.to/lastmile_qr_scan"}}, {"is_disabled": 0, "fusion_lat": 0.0, "lat": 38.919588833333336, "type": "electric_scooter", "lon": -77.03192583333333, "is_reserved": 0, "fusion_lon": 0.0, "bike_id": "87f586af5576b5724c984bddaf133cc7", "name": "87f586af5576b5724c984bddaf133cc7", "rental_uris": {"ios": "https://dc.lft.to/lastmile_qr_scan", "android": "https://dc.lft.to/lastmile_qr_scan"}}, {"is_disabled": 0, "fusion_lat": 0.0, "lat": 38.998316333333335, "type": "electric_bike", "lon": -77.028959, "is_reserved": 0, "fusion_lon": 0.0, "bike_id": "131c2f4a9161090f435c094c55e2eb43", "name": "131c2f4a9161090f435c094c55e2eb43", "rental_uris": {"ios": "https://dc.lft.to/lastmile_qr_scan", "android": "https://dc.lft.to/lastmile_qr_scan"}}, {"is_disabled": 0, "fusion_lat": 0.0, "lat": 38.87197416666667, "type": "electric_scooter", "lon": -77.00607333333333, "is_reserved": 0, "fusion_lon": 0.0, "bike_id": "0a49bb18b6c0f44f1f910cd38c423936", "name": "0a49bb18b6c0f44f1f910cd38c423936", "rental_uris": {"ios": "https://dc.lft.to/lastmile_qr_scan", "android": "https://dc.lft.to/lastmile_qr_scan"}}, {"is_disabled": 0, "fusion_lat": 0.0, "lat": 38.91733933333333, "type": "electric_scooter", "lon": -77.03658833333333, "is_reserved": 0, "fusion_lon": 0.0, "bike_id": "fe497039f2e7b3eba826b130b52b8f61", "name": "fe497039f2e7b3eba826b130b52b8f61", "rental_uris": {"ios": "https://dc.lft.to/lastmile_qr_scan", "android": "https://dc.lft.to/lastmile_qr_scan"}}, {"is_disabled": 0, "fusion_lat": 0.0, "lat": 38.895385166666664, "type": "electric_scooter", "lon": -76.9489125, "is_reserved": 0, "fusion_lon": 0.0, "bike_id": "5880d6cc2506cce31aabbc2dd1efcb79", "name": "5880d6cc2506cce31aabbc2dd1efcb79", "rental_uris": {"ios": "https://dc.lft.to/lastmile_qr_scan", "android": "https://dc.lft.to/lastmile_qr_scan"}}, {"is_disabled": 0, "fusion_lat": 0.0, "lat": 38.89819083333333, "type": "electric_scooter", "lon": -77.03315966666666, "is_reserved": 0, "fusion_lon": 0.0, "bike_id": "eb72ab1fac4a56429dac56f302e0846a", "name": "eb72ab1fac4a56429dac56f302e0846a", "rental_uris": {"ios": "https://dc.lft.to/lastmile_qr_scan", "android": "https://dc.lft.to/lastmile_qr_scan"}}, {"is_disabled": 0, "fusion_lat": 0.0, "lat": 38.880096333333334, "type": "electric_bike", "lon": -77.11046183333333, "is_reserved": 0, "fusion_lon": 0.0, "bike_id": "9fa4d225ab993e09e15b845f3cb1758f", "name": "9fa4d225ab993e09e15b845f3cb1758f", "rental_uris": {"ios": "https://dc.lft.to/lastmile_qr_scan", "android": "https://dc.lft.to/lastmile_qr_scan"}}, {"is_disabled": 0, "fusion_lat": 0.0, "lat": 38.93430333333333, "type": "electric_scooter", "lon": -76.9650595, "is_reserved": 0, "fusion_lon": 0.0, "bike_id": "bc30bf7dd4e3d6af3f912c0d3adfcc8b", "name": "bc30bf7dd4e3d6af3f912c0d3adfcc8b", "rental_uris": {"ios": "https://dc.lft.to/lastmile_qr_scan", "android": "https://dc.lft.to/lastmile_qr_scan"}}, {"is_disabled": 0, "fusion_lat": 0.0, "lat": 38.88550733333334, "type": "electric_bike", "lon": -77.117849, "is_reserved": 0, "fusion_lon": 0.0, "bike_id": "df86e2f702ddc2100a8fe3ca3cecd46e", "name": "df86e2f702ddc2100a8fe3ca3cecd46e", "rental_uris": {"ios": "https://dc.lft.to/lastmile_qr_scan", "android": "https://dc.lft.to/lastmile_qr_scan"}}, {"is_disabled": 0, "fusion_lat": 0.0, "lat": 38.9182185, "type": "electric_scooter", "lon": -77.02717983333334, "is_reserved": 0, "fusion_lon": 0.0, "bike_id": "bacadf9828c1f193f6e0bbc0d26266d8", "name": "bacadf9828c1f193f6e0bbc0d26266d8", "rental_uris": {"ios": "https://dc.lft.to/lastmile_qr_scan", "android": "https://dc.lft.to/lastmile_qr_scan"}}, {"is_disabled": 0, "fusion_lat": 0.0, "lat": 38.92048333333334, "type": "electric_scooter", "lon": -77.0220275, "is_reserved": 0, "fusion_lon": 0.0, "bike_id": "48f7ac431a129778c20a5d5aa2dc36c5", "name": "48f7ac431a129778c20a5d5aa2dc36c5", "rental_uris": {"ios": "https://dc.lft.to/lastmile_qr_scan", "android": "https://dc.lft.to/lastmile_qr_scan"}}, {"is_disabled": 0, "fusion_lat": 0.0, "lat": 38.92214233333333, "type": "electric_scooter", "lon": -77.03662633333333, "is_reserved": 0, "fusion_lon": 0.0, "bike_id": "c5fbba943bdabd41011044a767444e91", "name": "c5fbba943bdabd41011044a767444e91", "rental_uris": {"ios": "https://dc.lft.to/lastmile_qr_scan", "android": "https://dc.lft.to/lastmile_qr_scan"}}, {"is_disabled": 0, "fusion_lat": 0.0, "lat": 38.9013515, "type": "electric_scooter", "lon": -77.025447, "is_reserved": 0, "fusion_lon": 0.0, "bike_id": "6d54b7d904889813b22e70b658e3e232", "name": "6d54b7d904889813b22e70b658e3e232", "rental_uris": {"ios": "https://dc.lft.to/lastmile_qr_scan", "android": "https://dc.lft.to/lastmile_qr_scan"}}, {"is_disabled": 0, "fusion_lat": 0.0, "lat": 38.908774, "type": "electric_scooter", "lon": -77.03467716666667, "is_reserved": 0, "fusion_lon": 0.0, "bike_id": "7742769cc28f2550d016c49425d111f3", "name": "7742769cc28f2550d016c49425d111f3", "rental_uris": {"ios": "https://dc.lft.to/lastmile_qr_scan", "android": "https://dc.lft.to/lastmile_qr_scan"}}, {"is_disabled": 0, "fusion_lat": 0.0, "lat": 38.91877516666667, "type": "electric_scooter", "lon": -77.03500733333334, "is_reserved": 0, "fusion_lon": 0.0, "bike_id": "dcdca185b439ba14e945842b7445bf82", "name": "dcdca185b439ba14e945842b7445bf82", "rental_uris": {"ios": "https://dc.lft.to/lastmile_qr_scan", "android": "https://dc.lft.to/lastmile_qr_scan"}}, {"is_disabled": 0, "fusion_lat": 0.0, "lat": 38.9254355, "type": "electric_scooter", "lon": -77.04080783333333, "is_reserved": 0, "fusion_lon": 0.0, "bike_id": "ee07347805a1d24a1480f8d75bddf6e1", "name": "ee07347805a1d24a1480f8d75bddf6e1", "rental_uris": {"ios": "https://dc.lft.to/lastmile_qr_scan", "android": "https://dc.lft.to/lastmile_qr_scan"}}, {"is_disabled": 0, "fusion_lat": 0.0, "lat": 38.90613233333333, "type": "electric_scooter", "lon": -77.06512916666667, "is_reserved": 0, "fusion_lon": 0.0, "bike_id": "a2e35856a12cdf024d8c4b74edf61609", "name": "a2e35856a12cdf024d8c4b74edf61609", "rental_uris": {"ios": "https://dc.lft.to/lastmile_qr_scan", "android": "https://dc.lft.to/lastmile_qr_scan"}}, {"is_disabled": 0, "fusion_lat": 0.0, "lat": 38.88728, "type": "electric_scooter", "lon": -77.032217, "is_reserved": 0, "fusion_lon": 0.0, "bike_id": "29419e3b73e84020838c54c2d7802565", "name": "29419e3b73e84020838c54c2d7802565", "rental_uris": {"ios": "https://dc.lft.to/lastmile_qr_scan", "android": "https://dc.lft.to/lastmile_qr_scan"}}, {"is_disabled": 0, "fusion_lat": 0.0, "lat": 38.930039, "type": "electric_scooter", "lon": -77.04435266666667, "is_reserved": 0, "fusion_lon": 0.0, "bike_id": "a44036b0b2f303690c43a7df24973b7d", "name": "a44036b0b2f303690c43a7df24973b7d", "rental_uris": {"ios": "https://dc.lft.to/lastmile_qr_scan", "android": "https://dc.lft.to/lastmile_qr_scan"}}, {"is_disabled": 0, "fusion_lat": 0.0, "lat": 38.924446, "type": "electric_scooter", "lon": -77.03274266666666, "is_reserved": 0, "fusion_lon": 0.0, "bike_id": "07e459c5c74c68586c724db9e074a4f6", "name": "07e459c5c74c68586c724db9e074a4f6", "rental_uris": {"ios": "https://dc.lft.to/lastmile_qr_scan", "android": "https://dc.lft.to/lastmile_qr_scan"}}, {"is_disabled": 0, "fusion_lat": 0.0, "lat": 38.92854783333333, "type": "electric_bike", "lon": -77.106777, "is_reserved": 0, "fusion_lon": 0.0, "bike_id": "6fae353bec9563e549029fad5f16ff18", "name": "6fae353bec9563e549029fad5f16ff18", "rental_uris": {"ios": "https://dc.lft.to/lastmile_qr_scan", "android": "https://dc.lft.to/lastmile_qr_scan"}}, {"is_disabled": 0, "fusion_lat": 0.0, "lat": 38.94830866666667, "type": "electric_scooter", "lon": -77.02425866666667, "is_reserved": 0, "fusion_lon": 0.0, "bike_id": "5f60abbecf5ebb13a04eb3b319fb2f23", "name": "5f60abbecf5ebb13a04eb3b319fb2f23", "rental_uris": {"ios": "https://dc.lft.to/lastmile_qr_scan", "android": "https://dc.lft.to/lastmile_qr_scan"}}, {"is_disabled": 0, "fusion_lat": 0.0, "lat": 38.910568166666664, "type": "electric_scooter", "lon": -77.04587933333333, "is_reserved": 0, "fusion_lon": 0.0, "bike_id": "99ad3469da2f4f446c487e025ca26b0e", "name": "99ad3469da2f4f446c487e025ca26b0e", "rental_uris": {"ios": "https://dc.lft.to/lastmile_qr_scan", "android": "https://dc.lft.to/lastmile_qr_scan"}}, {"is_disabled": 0, "fusion_lat": 0.0, "lat": 38.919657666666666, "type": "electric_scooter", "lon": -77.041503, "is_reserved": 0, "fusion_lon": 0.0, "bike_id": "fbf8d745626fed1ff0e558597ac13520", "name": "fbf8d745626fed1ff0e558597ac13520", "rental_uris": {"ios": "https://dc.lft.to/lastmile_qr_scan", "android": "https://dc.lft.to/lastmile_qr_scan"}}, {"is_disabled": 0, "fusion_lat": 0.0, "lat": 38.8987925, "type": "electric_scooter", "lon": -76.93161683333334, "is_reserved": 0, "fusion_lon": 0.0, "bike_id": "a14fc7c40cebe54a43d86d7b10138548", "name": "a14fc7c40cebe54a43d86d7b10138548", "rental_uris": {"ios": "https://dc.lft.to/lastmile_qr_scan", "android": "https://dc.lft.to/lastmile_qr_scan"}}, {"is_disabled": 0, "fusion_lat": 0.0, "lat": 38.934216666666664, "type": "electric_scooter", "lon": -77.04404583333333, "is_reserved": 0, "fusion_lon": 0.0, "bike_id": "0a46fa773e842cedecef2b4032fd5702", "name": "0a46fa773e842cedecef2b4032fd5702", "rental_uris": {"ios": "https://dc.lft.to/lastmile_qr_scan", "android": "https://dc.lft.to/lastmile_qr_scan"}}, {"is_disabled": 0, "fusion_lat": 0.0, "lat": 38.93154883333333, "type": "electric_scooter", "lon": -77.030856, "is_reserved": 0, "fusion_lon": 0.0, "bike_id": "64ce70282ff3467fb9cf0348cb59e85d", "name": "64ce70282ff3467fb9cf0348cb59e85d", "rental_uris": {"ios": "https://dc.lft.to/lastmile_qr_scan", "android": "https://dc.lft.to/lastmile_qr_scan"}}, {"is_disabled": 0, "fusion_lat": 0.0, "lat": 38.9170405, "type": "electric_scooter", "lon": -77.03411133333333, "is_reserved": 0, "fusion_lon": 0.0, "bike_id": "23de7a1d67543126a4404c1eeebe0a89", "name": "23de7a1d67543126a4404c1eeebe0a89", "rental_uris": {"ios": "https://dc.lft.to/lastmile_qr_scan", "android": "https://dc.lft.to/lastmile_qr_scan"}}, {"is_disabled": 0, "fusion_lat": 0.0, "lat": 38.807485166666666, "type": "electric_bike", "lon": -77.094294, "is_reserved": 0, "fusion_lon": 0.0, "bike_id": "2da30f878aa6d40f55a3153a19373b75", "name": "2da30f878aa6d40f55a3153a19373b75", "rental_uris": {"ios": "https://dc.lft.to/lastmile_qr_scan", "android": "https://dc.lft.to/lastmile_qr_scan"}}, {"is_disabled": 0, "fusion_lat": 0.0, "lat": 38.93762916666667, "type": "electric_scooter", "lon": -77.03139683333333, "is_reserved": 0, "fusion_lon": 0.0, "bike_id": "34ec632af308369cb903af7c6ddb9dbf", "name": "34ec632af308369cb903af7c6ddb9dbf", "rental_uris": {"ios": "https://dc.lft.to/lastmile_qr_scan", "android": "https://dc.lft.to/lastmile_qr_scan"}}, {"is_disabled": 0, "fusion_lat": 0.0, "lat": 38.92917933333333, "type": "electric_bike", "lon": -77.02386583333333, "is_reserved": 0, "fusion_lon": 0.0, "bike_id": "40eec253f94a1f155da4c01f1e666657", "name": "40eec253f94a1f155da4c01f1e666657", "rental_uris": {"ios": "https://dc.lft.to/lastmile_qr_scan", "android": "https://dc.lft.to/lastmile_qr_scan"}}, {"is_disabled": 0, "fusion_lat": 0.0, "lat": 38.84294666666667, "type": "electric_scooter", "lon": -76.999484, "is_reserved": 0, "fusion_lon": 0.0, "bike_id": "eb6afeef9478dc1c77048d5836efd80a", "name": "eb6afeef9478dc1c77048d5836efd80a", "rental_uris": {"ios": "https://dc.lft.to/lastmile_qr_scan", "android": "https://dc.lft.to/lastmile_qr_scan"}}, {"is_disabled": 0, "fusion_lat": 0.0, "lat": 38.933228166666666, "type": "electric_scooter", "lon": -77.032839, "is_reserved": 0, "fusion_lon": 0.0, "bike_id": "9faeaecb8d7ae6399ad1778c325a37ec", "name": "9faeaecb8d7ae6399ad1778c325a37ec", "rental_uris": {"ios": "https://dc.lft.to/lastmile_qr_scan", "android": "https://dc.lft.to/lastmile_qr_scan"}}, {"is_disabled": 0, "fusion_lat": 0.0, "lat": 38.90259316666667, "type": "electric_scooter", "lon": -77.01753583333333, "is_reserved": 0, "fusion_lon": 0.0, "bike_id": "577c4f01473fc980bdaa700c6a9b74a2", "name": "577c4f01473fc980bdaa700c6a9b74a2", "rental_uris": {"ios": "https://dc.lft.to/lastmile_qr_scan", "android": "https://dc.lft.to/lastmile_qr_scan"}}, {"is_disabled": 0, "fusion_lat": 0.0, "lat": 38.85718266666667, "type": "electric_scooter", "lon": -76.98092183333333, "is_reserved": 0, "fusion_lon": 0.0, "bike_id": "4c8aa6d81fddf78e77c61f4ccfa4fd47", "name": "4c8aa6d81fddf78e77c61f4ccfa4fd47", "rental_uris": {"ios": "https://dc.lft.to/lastmile_qr_scan", "android": "https://dc.lft.to/lastmile_qr_scan"}}, {"is_disabled": 0, "fusion_lat": 0.0, "lat": 38.9180065, "type": "electric_scooter", "lon": -77.03658066666667, "is_reserved": 0, "fusion_lon": 0.0, "bike_id": "dac76b76bd01d3f3fd3665361c45b6f2", "name": "dac76b76bd01d3f3fd3665361c45b6f2", "rental_uris": {"ios": "https://dc.lft.to/lastmile_qr_scan", "android": "https://dc.lft.to/lastmile_qr_scan"}}, {"is_disabled": 0, "fusion_lat": 0.0, "lat": 38.87632716666667, "type": "electric_scooter", "lon": -76.96525633333333, "is_reserved": 0, "fusion_lon": 0.0, "bike_id": "49e1430a63987c6ea7203a9ac3d82e51", "name": "49e1430a63987c6ea7203a9ac3d82e51", "rental_uris": {"ios": "https://dc.lft.to/lastmile_qr_scan", "android": "https://dc.lft.to/lastmile_qr_scan"}}, {"is_disabled": 0, "fusion_lat": 0.0, "lat": 38.94177616666666, "type": "electric_scooter", "lon": -77.0250165, "is_reserved": 0, "fusion_lon": 0.0, "bike_id": "6ec05e9a18467cd8c497d6223a6ed1a9", "name": "6ec05e9a18467cd8c497d6223a6ed1a9", "rental_uris": {"ios": "https://dc.lft.to/lastmile_qr_scan", "android": "https://dc.lft.to/lastmile_qr_scan"}}, {"is_disabled": 0, "fusion_lat": 0.0, "lat": 38.90267883333333, "type": "electric_scooter", "lon": -77.0196645, "is_reserved": 0, "fusion_lon": 0.0, "bike_id": "7440b6561669e1e2f4a293b2c003c110", "name": "7440b6561669e1e2f4a293b2c003c110", "rental_uris": {"ios": "https://dc.lft.to/lastmile_qr_scan", "android": "https://dc.lft.to/lastmile_qr_scan"}}, {"is_disabled": 0, "fusion_lat": 0.0, "lat": 38.902824833333334, "type": "electric_scooter", "lon": -77.03375633333333, "is_reserved": 0, "fusion_lon": 0.0, "bike_id": "7333dbc5095ac9ecab0e6fdd577934fc", "name": "7333dbc5095ac9ecab0e6fdd577934fc", "rental_uris": {"ios": "https://dc.lft.to/lastmile_qr_scan", "android": "https://dc.lft.to/lastmile_qr_scan"}}, {"is_disabled": 0, "fusion_lat": 0.0, "lat": 38.85514216666667, "type": "electric_bike", "lon": -77.120226, "is_reserved": 0, "fusion_lon": 0.0, "bike_id": "9ff06d21e2644c97f924f6f22f7444f2", "name": "9ff06d21e2644c97f924f6f22f7444f2", "rental_uris": {"ios": "https://dc.lft.to/lastmile_qr_scan", "android": "https://dc.lft.to/lastmile_qr_scan"}}, {"is_disabled": 0, "fusion_lat": 0.0, "lat": 38.90956283333333, "type": "electric_scooter", "lon": -77.03968266666666, "is_reserved": 0, "fusion_lon": 0.0, "bike_id": "48f3a448be6aaed8d4322811a75ded73", "name": "48f3a448be6aaed8d4322811a75ded73", "rental_uris": {"ios": "https://dc.lft.to/lastmile_qr_scan", "android": "https://dc.lft.to/lastmile_qr_scan"}}, {"is_disabled": 0, "fusion_lat": 0.0, "lat": 38.902795, "type": "electric_scooter", "lon": -77.04116133333333, "is_reserved": 0, "fusion_lon": 0.0, "bike_id": "124b36d172e80f25dcf69b45cc155d3c", "name": "124b36d172e80f25dcf69b45cc155d3c", "rental_uris": {"ios": "https://dc.lft.to/lastmile_qr_scan", "android": "https://dc.lft.to/lastmile_qr_scan"}}, {"is_disabled": 0, "fusion_lat": 0.0, "lat": 38.999387666666664, "type": "electric_bike", "lon": -77.0176665, "is_reserved": 0, "fusion_lon": 0.0, "bike_id": "b08acf558cbdbd85f0801e4b2e83993e", "name": "b08acf558cbdbd85f0801e4b2e83993e", "rental_uris": {"ios": "https://dc.lft.to/lastmile_qr_scan", "android": "https://dc.lft.to/lastmile_qr_scan"}}, {"is_disabled": 0, "fusion_lat": 0.0, "lat": 38.9163705, "type": "electric_scooter", "lon": -77.0480535, "is_reserved": 0, "fusion_lon": 0.0, "bike_id": "51684efc76a5385727c2723ab715c0c0", "name": "51684efc76a5385727c2723ab715c0c0", "rental_uris": {"ios": "https://dc.lft.to/lastmile_qr_scan", "android": "https://dc.lft.to/lastmile_qr_scan"}}, {"is_disabled": 0, "fusion_lat": 0.0, "lat": 38.9057165, "type": "electric_scooter", "lon": -77.0345325, "is_reserved": 0, "fusion_lon": 0.0, "bike_id": "66abaee7f89d51801801498f11c4ba82", "name": "66abaee7f89d51801801498f11c4ba82", "rental_uris": {"ios": "https://dc.lft.to/lastmile_qr_scan", "android": "https://dc.lft.to/lastmile_qr_scan"}}, {"is_disabled": 0, "fusion_lat": 0.0, "lat": 38.90259566666667, "type": "electric_scooter", "lon": -76.98685966666666, "is_reserved": 0, "fusion_lon": 0.0, "bike_id": "6f9aa9e2c32d2369a570593579b52fcb", "name": "6f9aa9e2c32d2369a570593579b52fcb", "rental_uris": {"ios": "https://dc.lft.to/lastmile_qr_scan", "android": "https://dc.lft.to/lastmile_qr_scan"}}, {"is_disabled": 0, "fusion_lat": 0.0, "lat": 38.93525266666666, "type": "electric_scooter", "lon": -77.03260466666667, "is_reserved": 0, "fusion_lon": 0.0, "bike_id": "9aa1618dfffe1f2af64a54209358216c", "name": "9aa1618dfffe1f2af64a54209358216c", "rental_uris": {"ios": "https://dc.lft.to/lastmile_qr_scan", "android": "https://dc.lft.to/lastmile_qr_scan"}}, {"is_disabled": 0, "fusion_lat": 0.0, "lat": 38.902646, "type": "electric_scooter", "lon": -77.060196, "is_reserved": 0, "fusion_lon": 0.0, "bike_id": "422e34c0b428a9f3ed08bffe8b8e4dd5", "name": "422e34c0b428a9f3ed08bffe8b8e4dd5", "rental_uris": {"ios": "https://dc.lft.to/lastmile_qr_scan", "android": "https://dc.lft.to/lastmile_qr_scan"}}, {"is_disabled": 0, "fusion_lat": 0.0, "lat": 38.8947685, "type": "electric_scooter", "lon": -77.0499475, "is_reserved": 0, "fusion_lon": 0.0, "bike_id": "81ad27bde3e3a819ef178a22e5527eec", "name": "81ad27bde3e3a819ef178a22e5527eec", "rental_uris": {"ios": "https://dc.lft.to/lastmile_qr_scan", "android": "https://dc.lft.to/lastmile_qr_scan"}}, {"is_disabled": 0, "fusion_lat": 0.0, "lat": 38.92491966666667, "type": "electric_scooter", "lon": -77.02138883333333, "is_reserved": 0, "fusion_lon": 0.0, "bike_id": "3677e1055f705d574e849328f29f130e", "name": "3677e1055f705d574e849328f29f130e", "rental_uris": {"ios": "https://dc.lft.to/lastmile_qr_scan", "android": "https://dc.lft.to/lastmile_qr_scan"}}, {"is_disabled": 0, "fusion_lat": 0.0, "lat": 38.90995433333333, "type": "electric_scooter", "lon": -77.03856383333333, "is_reserved": 0, "fusion_lon": 0.0, "bike_id": "b2a684fbdbbad5ef3c050feb4a5d7cf1", "name": "b2a684fbdbbad5ef3c050feb4a5d7cf1", "rental_uris": {"ios": "https://dc.lft.to/lastmile_qr_scan", "android": "https://dc.lft.to/lastmile_qr_scan"}}, {"is_disabled": 0, "fusion_lat": 0.0, "lat": 38.93189866666667, "type": "electric_bike", "lon": -77.03440183333333, "is_reserved": 0, "fusion_lon": 0.0, "bike_id": "434781a5dd9006af389ced15193c2cec", "name": "434781a5dd9006af389ced15193c2cec", "rental_uris": {"ios": "https://dc.lft.to/lastmile_qr_scan", "android": "https://dc.lft.to/lastmile_qr_scan"}}, {"is_disabled": 0, "fusion_lat": 0.0, "lat": 38.859269166666664, "type": "electric_scooter", "lon": -76.98974, "is_reserved": 0, "fusion_lon": 0.0, "bike_id": "f27b4505da0428c983e6955f45d86e0e", "name": "f27b4505da0428c983e6955f45d86e0e", "rental_uris": {"ios": "https://dc.lft.to/lastmile_qr_scan", "android": "https://dc.lft.to/lastmile_qr_scan"}}, {"is_disabled": 0, "fusion_lat": 0.0, "lat": 38.86659866666667, "type": "electric_scooter", "lon": -76.98879716666667, "is_reserved": 0, "fusion_lon": 0.0, "bike_id": "3f7f49464c2b1b36ab27cbbea269f270", "name": "3f7f49464c2b1b36ab27cbbea269f270", "rental_uris": {"ios": "https://dc.lft.to/lastmile_qr_scan", "android": "https://dc.lft.to/lastmile_qr_scan"}}, {"is_disabled": 0, "fusion_lat": 0.0, "lat": 38.939753333333336, "type": "electric_scooter", "lon": -77.03589033333333, "is_reserved": 0, "fusion_lon": 0.0, "bike_id": "b6a4761559cf095777c9121ac9648523", "name": "b6a4761559cf095777c9121ac9648523", "rental_uris": {"ios": "https://dc.lft.to/lastmile_qr_scan", "android": "https://dc.lft.to/lastmile_qr_scan"}}, {"is_disabled": 0, "fusion_lat": 0.0, "lat": 38.90468833333333, "type": "electric_scooter", "lon": -77.04856766666667, "is_reserved": 0, "fusion_lon": 0.0, "bike_id": "d0a0516bb15a37c540d42b96355b6fee", "name": "d0a0516bb15a37c540d42b96355b6fee", "rental_uris": {"ios": "https://dc.lft.to/lastmile_qr_scan", "android": "https://dc.lft.to/lastmile_qr_scan"}}, {"is_disabled": 0, "fusion_lat": 0.0, "lat": 38.9345235, "type": "electric_scooter", "lon": -77.0305505, "is_reserved": 0, "fusion_lon": 0.0, "bike_id": "a3686cc475aceb4b5171e5f204f34c50", "name": "a3686cc475aceb4b5171e5f204f34c50", "rental_uris": {"ios": "https://dc.lft.to/lastmile_qr_scan", "android": "https://dc.lft.to/lastmile_qr_scan"}}, {"is_disabled": 0, "fusion_lat": 0.0, "lat": 38.94206466666667, "type": "electric_bike", "lon": -77.01826, "is_reserved": 0, "fusion_lon": 0.0, "bike_id": "c908534fe886373a0116e211e7435965", "name": "c908534fe886373a0116e211e7435965", "rental_uris": {"ios": "https://dc.lft.to/lastmile_qr_scan", "android": "https://dc.lft.to/lastmile_qr_scan"}}, {"is_disabled": 0, "fusion_lat": 0.0, "lat": 38.884849333333335, "type": "electric_scooter", "lon": -76.9460325, "is_reserved": 0, "fusion_lon": 0.0, "bike_id": "5e50dc112f29c468ba57425aaa4c61df", "name": "5e50dc112f29c468ba57425aaa4c61df", "rental_uris": {"ios": "https://dc.lft.to/lastmile_qr_scan", "android": "https://dc.lft.to/lastmile_qr_scan"}}, {"is_disabled": 0, "fusion_lat": 0.0, "lat": 38.88046216666667, "type": "electric_scooter", "lon": -77.00561566666667, "is_reserved": 0, "fusion_lon": 0.0, "bike_id": "a9142fc6fb5261721d16b301f114b4da", "name": "a9142fc6fb5261721d16b301f114b4da", "rental_uris": {"ios": "https://dc.lft.to/lastmile_qr_scan", "android": "https://dc.lft.to/lastmile_qr_scan"}}, {"is_disabled": 0, "fusion_lat": 0.0, "lat": 38.89028916666667, "type": "electric_scooter", "lon": -76.93726016666666, "is_reserved": 0, "fusion_lon": 0.0, "bike_id": "f9bcfb06f7d070607eba49bca5330f09", "name": "f9bcfb06f7d070607eba49bca5330f09", "rental_uris": {"ios": "https://dc.lft.to/lastmile_qr_scan", "android": "https://dc.lft.to/lastmile_qr_scan"}}, {"is_disabled": 0, "fusion_lat": 0.0, "lat": 38.92456716666667, "type": "electric_scooter", "lon": -77.05758116666667, "is_reserved": 0, "fusion_lon": 0.0, "bike_id": "d5ff9e609d58f2aa3ced52f40d5cf66f", "name": "d5ff9e609d58f2aa3ced52f40d5cf66f", "rental_uris": {"ios": "https://dc.lft.to/lastmile_qr_scan", "android": "https://dc.lft.to/lastmile_qr_scan"}}, {"is_disabled": 0, "fusion_lat": 0.0, "lat": 38.91526, "type": "electric_scooter", "lon": -77.02004916666667, "is_reserved": 0, "fusion_lon": 0.0, "bike_id": "9a22c4dbe79846aa6d4abaaac58605f1", "name": "9a22c4dbe79846aa6d4abaaac58605f1", "rental_uris": {"ios": "https://dc.lft.to/lastmile_qr_scan", "android": "https://dc.lft.to/lastmile_qr_scan"}}, {"is_disabled": 0, "fusion_lat": 0.0, "lat": 38.921251, "type": "electric_scooter", "lon": -77.04119433333334, "is_reserved": 0, "fusion_lon": 0.0, "bike_id": "3c61fdb6d4af1a87cc7f7a540af54832", "name": "3c61fdb6d4af1a87cc7f7a540af54832", "rental_uris": {"ios": "https://dc.lft.to/lastmile_qr_scan", "android": "https://dc.lft.to/lastmile_qr_scan"}}, {"is_disabled": 0, "fusion_lat": 0.0, "lat": 38.9246895, "type": "electric_scooter", "lon": -77.03374916666667, "is_reserved": 0, "fusion_lon": 0.0, "bike_id": "31c62f3e79279a618b36d5f5d3068454", "name": "31c62f3e79279a618b36d5f5d3068454", "rental_uris": {"ios": "https://dc.lft.to/lastmile_qr_scan", "android": "https://dc.lft.to/lastmile_qr_scan"}}, {"is_disabled": 0, "fusion_lat": 0.0, "lat": 38.896028, "type": "electric_scooter", "lon": -76.9552385, "is_reserved": 0, "fusion_lon": 0.0, "bike_id": "6185ac382a80ae4784235098022756ef", "name": "6185ac382a80ae4784235098022756ef", "rental_uris": {"ios": "https://dc.lft.to/lastmile_qr_scan", "android": "https://dc.lft.to/lastmile_qr_scan"}}, {"is_disabled": 0, "fusion_lat": 0.0, "lat": 38.921122, "type": "electric_scooter", "lon": -77.04210416666666, "is_reserved": 0, "fusion_lon": 0.0, "bike_id": "9b0ef6ed03f4b5053f72e2d1a3b30d14", "name": "9b0ef6ed03f4b5053f72e2d1a3b30d14", "rental_uris": {"ios": "https://dc.lft.to/lastmile_qr_scan", "android": "https://dc.lft.to/lastmile_qr_scan"}}, {"is_disabled": 0, "fusion_lat": 0.0, "lat": 38.8888725, "type": "electric_scooter", "lon": -76.9315415, "is_reserved": 0, "fusion_lon": 0.0, "bike_id": "2cc0062ea3b463b6ef773a5c7c69792d", "name": "2cc0062ea3b463b6ef773a5c7c69792d", "rental_uris": {"ios": "https://dc.lft.to/lastmile_qr_scan", "android": "https://dc.lft.to/lastmile_qr_scan"}}, {"is_disabled": 0, "fusion_lat": 0.0, "lat": 38.917005333333336, "type": "electric_scooter", "lon": -77.034764, "is_reserved": 0, "fusion_lon": 0.0, "bike_id": "d876623415613bd2aaf4b65be6bb5f05", "name": "d876623415613bd2aaf4b65be6bb5f05", "rental_uris": {"ios": "https://dc.lft.to/lastmile_qr_scan", "android": "https://dc.lft.to/lastmile_qr_scan"}}, {"is_disabled": 0, "fusion_lat": 0.0, "lat": 38.919267, "type": "electric_scooter", "lon": -77.04618666666667, "is_reserved": 0, "fusion_lon": 0.0, "bike_id": "84eb41603ce97cfcc02a9e9695a10ee6", "name": "84eb41603ce97cfcc02a9e9695a10ee6", "rental_uris": {"ios": "https://dc.lft.to/lastmile_qr_scan", "android": "https://dc.lft.to/lastmile_qr_scan"}}, {"is_disabled": 0, "fusion_lat": 0.0, "lat": 38.908726, "type": "electric_scooter", "lon": -76.99792866666667, "is_reserved": 0, "fusion_lon": 0.0, "bike_id": "5f78e255e8db3b4671ec331af438e193", "name": "5f78e255e8db3b4671ec331af438e193", "rental_uris": {"ios": "https://dc.lft.to/lastmile_qr_scan", "android": "https://dc.lft.to/lastmile_qr_scan"}}, {"is_disabled": 0, "fusion_lat": 0.0, "lat": 38.9236855, "type": "electric_scooter", "lon": -77.01916933333334, "is_reserved": 0, "fusion_lon": 0.0, "bike_id": "7b015958b1f0298691a8a0356e5ac0d0", "name": "7b015958b1f0298691a8a0356e5ac0d0", "rental_uris": {"ios": "https://dc.lft.to/lastmile_qr_scan", "android": "https://dc.lft.to/lastmile_qr_scan"}}, {"is_disabled": 0, "fusion_lat": 0.0, "lat": 38.90015916666667, "type": "electric_scooter", "lon": -77.040437, "is_reserved": 0, "fusion_lon": 0.0, "bike_id": "400845c32601d17e31ca83392b9b5c9d", "name": "400845c32601d17e31ca83392b9b5c9d", "rental_uris": {"ios": "https://dc.lft.to/lastmile_qr_scan", "android": "https://dc.lft.to/lastmile_qr_scan"}}, {"is_disabled": 0, "fusion_lat": 0.0, "lat": 38.897578, "type": "electric_scooter", "lon": -76.941843, "is_reserved": 0, "fusion_lon": 0.0, "bike_id": "61d028f585df84d4c40a3477044f2b03", "name": "61d028f585df84d4c40a3477044f2b03", "rental_uris": {"ios": "https://dc.lft.to/lastmile_qr_scan", "android": "https://dc.lft.to/lastmile_qr_scan"}}, {"is_disabled": 0, "fusion_lat": 0.0, "lat": 38.905178166666666, "type": "electric_scooter", "lon": -77.04780033333333, "is_reserved": 0, "fusion_lon": 0.0, "bike_id": "71f39b28b47b9a437afee205409fb341", "name": "71f39b28b47b9a437afee205409fb341", "rental_uris": {"ios": "https://dc.lft.to/lastmile_qr_scan", "android": "https://dc.lft.to/lastmile_qr_scan"}}, {"is_disabled": 0, "fusion_lat": 0.0, "lat": 38.92300383333333, "type": "electric_scooter", "lon": -77.0414735, "is_reserved": 0, "fusion_lon": 0.0, "bike_id": "4e1e974bf5a29389e029e5a8f3ba9d32", "name": "4e1e974bf5a29389e029e5a8f3ba9d32", "rental_uris": {"ios": "https://dc.lft.to/lastmile_qr_scan", "android": "https://dc.lft.to/lastmile_qr_scan"}}, {"is_disabled": 0, "fusion_lat": 0.0, "lat": 38.9258325, "type": "electric_scooter", "lon": -77.05054716666666, "is_reserved": 0, "fusion_lon": 0.0, "bike_id": "144fba2f31e085e86116436558cdd065", "name": "144fba2f31e085e86116436558cdd065", "rental_uris": {"ios": "https://dc.lft.to/lastmile_qr_scan", "android": "https://dc.lft.to/lastmile_qr_scan"}}, {"is_disabled": 0, "fusion_lat": 0.0, "lat": 38.88433233333333, "type": "electric_scooter", "lon": -76.9575675, "is_reserved": 0, "fusion_lon": 0.0, "bike_id": "da9db6bdd85067498679c3a5dad7cc48", "name": "da9db6bdd85067498679c3a5dad7cc48", "rental_uris": {"ios": "https://dc.lft.to/lastmile_qr_scan", "android": "https://dc.lft.to/lastmile_qr_scan"}}, {"is_disabled": 0, "fusion_lat": 0.0, "lat": 38.85793733333333, "type": "electric_bike", "lon": -77.0995565, "is_reserved": 0, "fusion_lon": 0.0, "bike_id": "5fa402998a7be1fadecd0c765931df8d", "name": "5fa402998a7be1fadecd0c765931df8d", "rental_uris": {"ios": "https://dc.lft.to/lastmile_qr_scan", "android": "https://dc.lft.to/lastmile_qr_scan"}}, {"is_disabled": 0, "fusion_lat": 0.0, "lat": 38.90027833333333, "type": "electric_scooter", "lon": -77.03338116666667, "is_reserved": 0, "fusion_lon": 0.0, "bike_id": "5b0eb3e68447a65eea1f3dbb201aed2d", "name": "5b0eb3e68447a65eea1f3dbb201aed2d", "rental_uris": {"ios": "https://dc.lft.to/lastmile_qr_scan", "android": "https://dc.lft.to/lastmile_qr_scan"}}, {"is_disabled": 0, "fusion_lat": 0.0, "lat": 38.90046383333333, "type": "electric_scooter", "lon": -76.92473566666666, "is_reserved": 0, "fusion_lon": 0.0, "bike_id": "60041ded43a722285c96a56cbe5edb2c", "name": "60041ded43a722285c96a56cbe5edb2c", "rental_uris": {"ios": "https://dc.lft.to/lastmile_qr_scan", "android": "https://dc.lft.to/lastmile_qr_scan"}}, {"is_disabled": 0, "fusion_lat": 0.0, "lat": 38.8793245, "type": "electric_scooter", "lon": -77.02151216666667, "is_reserved": 0, "fusion_lon": 0.0, "bike_id": "eb00a7d0d6c9719304a56bf5725e8f29", "name": "eb00a7d0d6c9719304a56bf5725e8f29", "rental_uris": {"ios": "https://dc.lft.to/lastmile_qr_scan", "android": "https://dc.lft.to/lastmile_qr_scan"}}, {"is_disabled": 0, "fusion_lat": 0.0, "lat": 38.911636, "type": "electric_scooter", "lon": -77.0199695, "is_reserved": 0, "fusion_lon": 0.0, "bike_id": "5bd4e36011a587348dd470fc6de70ec4", "name": "5bd4e36011a587348dd470fc6de70ec4", "rental_uris": {"ios": "https://dc.lft.to/lastmile_qr_scan", "android": "https://dc.lft.to/lastmile_qr_scan"}}, {"is_disabled": 0, "fusion_lat": 0.0, "lat": 38.93119516666667, "type": "electric_scooter", "lon": -77.020875, "is_reserved": 0, "fusion_lon": 0.0, "bike_id": "2727e04f864b6aa5b786ef2bf97400c2", "name": "2727e04f864b6aa5b786ef2bf97400c2", "rental_uris": {"ios": "https://dc.lft.to/lastmile_qr_scan", "android": "https://dc.lft.to/lastmile_qr_scan"}}, {"is_disabled": 0, "fusion_lat": 0.0, "lat": 38.91995816666667, "type": "electric_scooter", "lon": -77.02407483333333, "is_reserved": 0, "fusion_lon": 0.0, "bike_id": "4fdca8208e4a74cf976c303fa0b7cc4e", "name": "4fdca8208e4a74cf976c303fa0b7cc4e", "rental_uris": {"ios": "https://dc.lft.to/lastmile_qr_scan", "android": "https://dc.lft.to/lastmile_qr_scan"}}, {"is_disabled": 0, "fusion_lat": 0.0, "lat": 38.916695833333335, "type": "electric_scooter", "lon": -77.027076, "is_reserved": 0, "fusion_lon": 0.0, "bike_id": "cc0366a0575c078c513adb72ae0d344b", "name": "cc0366a0575c078c513adb72ae0d344b", "rental_uris": {"ios": "https://dc.lft.to/lastmile_qr_scan", "android": "https://dc.lft.to/lastmile_qr_scan"}}, {"is_disabled": 0, "fusion_lat": 0.0, "lat": 38.909761833333334, "type": "electric_scooter", "lon": -77.0386395, "is_reserved": 0, "fusion_lon": 0.0, "bike_id": "13bb24de88a24d69e0294da403ef00bf", "name": "13bb24de88a24d69e0294da403ef00bf", "rental_uris": {"ios": "https://dc.lft.to/lastmile_qr_scan", "android": "https://dc.lft.to/lastmile_qr_scan"}}, {"is_disabled": 0, "fusion_lat": 0.0, "lat": 38.8462865, "type": "electric_bike", "lon": -77.06937366666666, "is_reserved": 0, "fusion_lon": 0.0, "bike_id": "d29754ca329b87730846a87f69496e69", "name": "d29754ca329b87730846a87f69496e69", "rental_uris": {"ios": "https://dc.lft.to/lastmile_qr_scan", "android": "https://dc.lft.to/lastmile_qr_scan"}}, {"is_disabled": 0, "fusion_lat": 0.0, "lat": 38.90269516666667, "type": "electric_scooter", "lon": -77.06018216666666, "is_reserved": 0, "fusion_lon": 0.0, "bike_id": "9cf8abe291cc8a44ebfa7d7dfa472e12", "name": "9cf8abe291cc8a44ebfa7d7dfa472e12", "rental_uris": {"ios": "https://dc.lft.to/lastmile_qr_scan", "android": "https://dc.lft.to/lastmile_qr_scan"}}, {"is_disabled": 0, "fusion_lat": 0.0, "lat": 38.968215666666666, "type": "electric_scooter", "lon": -77.01784916666666, "is_reserved": 0, "fusion_lon": 0.0, "bike_id": "8dc930ea2e32592afe5f3d4bed6adc5b", "name": "8dc930ea2e32592afe5f3d4bed6adc5b", "rental_uris": {"ios": "https://dc.lft.to/lastmile_qr_scan", "android": "https://dc.lft.to/lastmile_qr_scan"}}, {"is_disabled": 0, "fusion_lat": 0.0, "lat": 38.9198645, "type": "electric_scooter", "lon": -77.0239575, "is_reserved": 0, "fusion_lon": 0.0, "bike_id": "f03d49921ef44d155758a721ee93c46d", "name": "f03d49921ef44d155758a721ee93c46d", "rental_uris": {"ios": "https://dc.lft.to/lastmile_qr_scan", "android": "https://dc.lft.to/lastmile_qr_scan"}}, {"is_disabled": 0, "fusion_lat": 0.0, "lat": 38.905350166666665, "type": "electric_scooter", "lon": -77.05035716666667, "is_reserved": 0, "fusion_lon": 0.0, "bike_id": "071455b23bb6d08b04d76a8240263fe8", "name": "071455b23bb6d08b04d76a8240263fe8", "rental_uris": {"ios": "https://dc.lft.to/lastmile_qr_scan", "android": "https://dc.lft.to/lastmile_qr_scan"}}, {"is_disabled": 0, "fusion_lat": 0.0, "lat": 38.92172683333333, "type": "electric_scooter", "lon": -77.04015283333334, "is_reserved": 0, "fusion_lon": 0.0, "bike_id": "018cb839575d65c7b33058966718919b", "name": "018cb839575d65c7b33058966718919b", "rental_uris": {"ios": "https://dc.lft.to/lastmile_qr_scan", "android": "https://dc.lft.to/lastmile_qr_scan"}}, {"is_disabled": 0, "fusion_lat": 0.0, "lat": 38.874548, "type": "electric_scooter", "lon": -77.00303733333334, "is_reserved": 0, "fusion_lon": 0.0, "bike_id": "099ea988235bbe90dd9ed54262cd7aa8", "name": "099ea988235bbe90dd9ed54262cd7aa8", "rental_uris": {"ios": "https://dc.lft.to/lastmile_qr_scan", "android": "https://dc.lft.to/lastmile_qr_scan"}}, {"is_disabled": 0, "fusion_lat": 0.0, "lat": 38.934764666666666, "type": "electric_scooter", "lon": -77.01924, "is_reserved": 0, "fusion_lon": 0.0, "bike_id": "34938a2ec760d7f32ae010578c4f17c2", "name": "34938a2ec760d7f32ae010578c4f17c2", "rental_uris": {"ios": "https://dc.lft.to/lastmile_qr_scan", "android": "https://dc.lft.to/lastmile_qr_scan"}}, {"is_disabled": 0, "fusion_lat": 0.0, "lat": 38.902806, "type": "electric_scooter", "lon": -77.03846, "is_reserved": 0, "fusion_lon": 0.0, "bike_id": "be935366b7883740b1cfcadaff9e1b90", "name": "be935366b7883740b1cfcadaff9e1b90", "rental_uris": {"ios": "https://dc.lft.to/lastmile_qr_scan", "android": "https://dc.lft.to/lastmile_qr_scan"}}, {"is_disabled": 0, "fusion_lat": 0.0, "lat": 38.96564333333333, "type": "electric_bike", "lon": -77.0230115, "is_reserved": 0, "fusion_lon": 0.0, "bike_id": "13c5a5b2a32ae3f8687ad3707bfcaa34", "name": "13c5a5b2a32ae3f8687ad3707bfcaa34", "rental_uris": {"ios": "https://dc.lft.to/lastmile_qr_scan", "android": "https://dc.lft.to/lastmile_qr_scan"}}, {"is_disabled": 0, "fusion_lat": 0.0, "lat": 38.873736666666666, "type": "electric_bike", "lon": -77.118004, "is_reserved": 0, "fusion_lon": 0.0, "bike_id": "67639d36e1f85b95083291cc241e8378", "name": "67639d36e1f85b95083291cc241e8378", "rental_uris": {"ios": "https://dc.lft.to/lastmile_qr_scan", "android": "https://dc.lft.to/lastmile_qr_scan"}}, {"is_disabled": 0, "fusion_lat": 0.0, "lat": 38.8850335, "type": "electric_scooter", "lon": -77.00564416666667, "is_reserved": 0, "fusion_lon": 0.0, "bike_id": "0fc130213e6a7bcddf542314dd37c149", "name": "0fc130213e6a7bcddf542314dd37c149", "rental_uris": {"ios": "https://dc.lft.to/lastmile_qr_scan", "android": "https://dc.lft.to/lastmile_qr_scan"}}, {"is_disabled": 0, "fusion_lat": 0.0, "lat": 38.908436333333334, "type": "electric_scooter", "lon": -77.00235166666667, "is_reserved": 0, "fusion_lon": 0.0, "bike_id": "485b41df4b2e924530624a9935163020", "name": "485b41df4b2e924530624a9935163020", "rental_uris": {"ios": "https://dc.lft.to/lastmile_qr_scan", "android": "https://dc.lft.to/lastmile_qr_scan"}}, {"is_disabled": 0, "fusion_lat": 0.0, "lat": 38.881237666666664, "type": "electric_scooter", "lon": -77.00100066666667, "is_reserved": 0, "fusion_lon": 0.0, "bike_id": "ffe3db14603bbdec0b03ae5963a1bf5c", "name": "ffe3db14603bbdec0b03ae5963a1bf5c", "rental_uris": {"ios": "https://dc.lft.to/lastmile_qr_scan", "android": "https://dc.lft.to/lastmile_qr_scan"}}, {"is_disabled": 0, "fusion_lat": 0.0, "lat": 38.8935005, "type": "electric_scooter", "lon": -76.9493735, "is_reserved": 0, "fusion_lon": 0.0, "bike_id": "b94db096e714952a524289de5eae08fc", "name": "b94db096e714952a524289de5eae08fc", "rental_uris": {"ios": "https://dc.lft.to/lastmile_qr_scan", "android": "https://dc.lft.to/lastmile_qr_scan"}}, {"is_disabled": 0, "fusion_lat": 0.0, "lat": 38.9173875, "type": "electric_scooter", "lon": -77.00795716666667, "is_reserved": 0, "fusion_lon": 0.0, "bike_id": "3cb2afa11f1c1ba7e0c6df0ad6974aa9", "name": "3cb2afa11f1c1ba7e0c6df0ad6974aa9", "rental_uris": {"ios": "https://dc.lft.to/lastmile_qr_scan", "android": "https://dc.lft.to/lastmile_qr_scan"}}, {"is_disabled": 0, "fusion_lat": 0.0, "lat": 38.944363333333335, "type": "electric_scooter", "lon": -76.99202683333333, "is_reserved": 0, "fusion_lon": 0.0, "bike_id": "d72998e55e9a41cda2b8517ea0bea6a9", "name": "d72998e55e9a41cda2b8517ea0bea6a9", "rental_uris": {"ios": "https://dc.lft.to/lastmile_qr_scan", "android": "https://dc.lft.to/lastmile_qr_scan"}}, {"is_disabled": 0, "fusion_lat": 0.0, "lat": 38.9194785, "type": "electric_scooter", "lon": -77.0415055, "is_reserved": 0, "fusion_lon": 0.0, "bike_id": "7cc3c47e2a69d539b784bab782b65285", "name": "7cc3c47e2a69d539b784bab782b65285", "rental_uris": {"ios": "https://dc.lft.to/lastmile_qr_scan", "android": "https://dc.lft.to/lastmile_qr_scan"}}, {"is_disabled": 0, "fusion_lat": 0.0, "lat": 38.9272505, "type": "electric_scooter", "lon": -77.039746, "is_reserved": 0, "fusion_lon": 0.0, "bike_id": "99ce3bde6d937b4c0e71efa9caeb4325", "name": "99ce3bde6d937b4c0e71efa9caeb4325", "rental_uris": {"ios": "https://dc.lft.to/lastmile_qr_scan", "android": "https://dc.lft.to/lastmile_qr_scan"}}, {"is_disabled": 0, "fusion_lat": 0.0, "lat": 38.90598633333333, "type": "electric_scooter", "lon": -77.04123733333333, "is_reserved": 0, "fusion_lon": 0.0, "bike_id": "a58cd78f79bc81e6e4ab2fad8a6feecd", "name": "a58cd78f79bc81e6e4ab2fad8a6feecd", "rental_uris": {"ios": "https://dc.lft.to/lastmile_qr_scan", "android": "https://dc.lft.to/lastmile_qr_scan"}}, {"is_disabled": 0, "fusion_lat": 0.0, "lat": 38.8786655, "type": "electric_scooter", "lon": -76.98990366666666, "is_reserved": 0, "fusion_lon": 0.0, "bike_id": "565fd6e933abf350736b7e28ca232f2e", "name": "565fd6e933abf350736b7e28ca232f2e", "rental_uris": {"ios": "https://dc.lft.to/lastmile_qr_scan", "android": "https://dc.lft.to/lastmile_qr_scan"}}, {"is_disabled": 0, "fusion_lat": 0.0, "lat": 38.9210975, "type": "electric_scooter", "lon": -77.043785, "is_reserved": 0, "fusion_lon": 0.0, "bike_id": "612f7ff9cb72ff4359087af410940abd", "name": "612f7ff9cb72ff4359087af410940abd", "rental_uris": {"ios": "https://dc.lft.to/lastmile_qr_scan", "android": "https://dc.lft.to/lastmile_qr_scan"}}, {"is_disabled": 0, "fusion_lat": 0.0, "lat": 38.928125666666666, "type": "electric_scooter", "lon": -77.03704066666667, "is_reserved": 0, "fusion_lon": 0.0, "bike_id": "1dd392230dd0e692a05f984033f8710a", "name": "1dd392230dd0e692a05f984033f8710a", "rental_uris": {"ios": "https://dc.lft.to/lastmile_qr_scan", "android": "https://dc.lft.to/lastmile_qr_scan"}}, {"is_disabled": 0, "fusion_lat": 0.0, "lat": 38.913013166666666, "type": "electric_bike", "lon": -77.082897, "is_reserved": 0, "fusion_lon": 0.0, "bike_id": "4d57f5c41e5e92b7e0e0c9e7bbf375c3", "name": "4d57f5c41e5e92b7e0e0c9e7bbf375c3", "rental_uris": {"ios": "https://dc.lft.to/lastmile_qr_scan", "android": "https://dc.lft.to/lastmile_qr_scan"}}, {"is_disabled": 0, "fusion_lat": 0.0, "lat": 38.898097666666665, "type": "electric_scooter", "lon": -77.019012, "is_reserved": 0, "fusion_lon": 0.0, "bike_id": "6554eaeef52593b4345a5e01f07e74a9", "name": "6554eaeef52593b4345a5e01f07e74a9", "rental_uris": {"ios": "https://dc.lft.to/lastmile_qr_scan", "android": "https://dc.lft.to/lastmile_qr_scan"}}, {"is_disabled": 0, "fusion_lat": 0.0, "lat": 38.879269, "type": "electric_scooter", "lon": -76.99249483333334, "is_reserved": 0, "fusion_lon": 0.0, "bike_id": "c1e4f3d508e678de68061d3ef9437ca8", "name": "c1e4f3d508e678de68061d3ef9437ca8", "rental_uris": {"ios": "https://dc.lft.to/lastmile_qr_scan", "android": "https://dc.lft.to/lastmile_qr_scan"}}, {"is_disabled": 0, "fusion_lat": 0.0, "lat": 38.9229095, "type": "electric_scooter", "lon": -77.041426, "is_reserved": 0, "fusion_lon": 0.0, "bike_id": "0ffbe946e75d17993c19a62652a20b50", "name": "0ffbe946e75d17993c19a62652a20b50", "rental_uris": {"ios": "https://dc.lft.to/lastmile_qr_scan", "android": "https://dc.lft.to/lastmile_qr_scan"}}, {"is_disabled": 0, "fusion_lat": 0.0, "lat": 38.93800683333333, "type": "electric_scooter", "lon": -77.06001516666667, "is_reserved": 0, "fusion_lon": 0.0, "bike_id": "c79ada3adce5d0609b3ea133328f1e4f", "name": "c79ada3adce5d0609b3ea133328f1e4f", "rental_uris": {"ios": "https://dc.lft.to/lastmile_qr_scan", "android": "https://dc.lft.to/lastmile_qr_scan"}}, {"is_disabled": 0, "fusion_lat": 0.0, "lat": 38.912578, "type": "electric_scooter", "lon": -77.02223866666667, "is_reserved": 0, "fusion_lon": 0.0, "bike_id": "3afcf06b89d49e61c13b93556e9d9456", "name": "3afcf06b89d49e61c13b93556e9d9456", "rental_uris": {"ios": "https://dc.lft.to/lastmile_qr_scan", "android": "https://dc.lft.to/lastmile_qr_scan"}}, {"is_disabled": 0, "fusion_lat": 0.0, "lat": 38.91700433333333, "type": "electric_scooter", "lon": -77.01234333333333, "is_reserved": 0, "fusion_lon": 0.0, "bike_id": "86c18427a93c9b4fb8e25bb146d32bb2", "name": "86c18427a93c9b4fb8e25bb146d32bb2", "rental_uris": {"ios": "https://dc.lft.to/lastmile_qr_scan", "android": "https://dc.lft.to/lastmile_qr_scan"}}, {"is_disabled": 0, "fusion_lat": 0.0, "lat": 38.93367116666667, "type": "electric_scooter", "lon": -77.03445, "is_reserved": 0, "fusion_lon": 0.0, "bike_id": "3730f7b88cca77838452c68aafff035d", "name": "3730f7b88cca77838452c68aafff035d", "rental_uris": {"ios": "https://dc.lft.to/lastmile_qr_scan", "android": "https://dc.lft.to/lastmile_qr_scan"}}, {"is_disabled": 0, "fusion_lat": 0.0, "lat": 38.91335133333333, "type": "electric_scooter", "lon": -77.04816983333333, "is_reserved": 0, "fusion_lon": 0.0, "bike_id": "eead9b7b87e9b6f6f8f2bfc5c21dd912", "name": "eead9b7b87e9b6f6f8f2bfc5c21dd912", "rental_uris": {"ios": "https://dc.lft.to/lastmile_qr_scan", "android": "https://dc.lft.to/lastmile_qr_scan"}}, {"is_disabled": 0, "fusion_lat": 0.0, "lat": 38.896058, "type": "electric_scooter", "lon": -77.0423535, "is_reserved": 0, "fusion_lon": 0.0, "bike_id": "36e15afa1a1e5c65f3842be757c6d99e", "name": "36e15afa1a1e5c65f3842be757c6d99e", "rental_uris": {"ios": "https://dc.lft.to/lastmile_qr_scan", "android": "https://dc.lft.to/lastmile_qr_scan"}}, {"is_disabled": 0, "fusion_lat": 0.0, "lat": 38.89893433333334, "type": "electric_scooter", "lon": -77.0036, "is_reserved": 0, "fusion_lon": 0.0, "bike_id": "7c861c1653252d1230b25fea87db2f7a", "name": "7c861c1653252d1230b25fea87db2f7a", "rental_uris": {"ios": "https://dc.lft.to/lastmile_qr_scan", "android": "https://dc.lft.to/lastmile_qr_scan"}}, {"is_disabled": 0, "fusion_lat": 0.0, "lat": 38.905792, "type": "electric_scooter", "lon": -77.02206933333333, "is_reserved": 0, "fusion_lon": 0.0, "bike_id": "47665ef9525f16c973229abb5891a089", "name": "47665ef9525f16c973229abb5891a089", "rental_uris": {"ios": "https://dc.lft.to/lastmile_qr_scan", "android": "https://dc.lft.to/lastmile_qr_scan"}}, {"is_disabled": 0, "fusion_lat": 0.0, "lat": 38.919077, "type": "electric_scooter", "lon": -77.0411095, "is_reserved": 0, "fusion_lon": 0.0, "bike_id": "9b47c36ce24addfd771aa1019a442013", "name": "9b47c36ce24addfd771aa1019a442013", "rental_uris": {"ios": "https://dc.lft.to/lastmile_qr_scan", "android": "https://dc.lft.to/lastmile_qr_scan"}}, {"is_disabled": 0, "fusion_lat": 0.0, "lat": 38.934051833333335, "type": "electric_scooter", "lon": -77.02061333333333, "is_reserved": 0, "fusion_lon": 0.0, "bike_id": "9c756c84d9b5150b517de90fe3f40c14", "name": "9c756c84d9b5150b517de90fe3f40c14", "rental_uris": {"ios": "https://dc.lft.to/lastmile_qr_scan", "android": "https://dc.lft.to/lastmile_qr_scan"}}, {"is_disabled": 0, "fusion_lat": 0.0, "lat": 38.93320283333333, "type": "electric_scooter", "lon": -77.032802, "is_reserved": 0, "fusion_lon": 0.0, "bike_id": "9cf646b9a9fa271e1766595bcb50c63f", "name": "9cf646b9a9fa271e1766595bcb50c63f", "rental_uris": {"ios": "https://dc.lft.to/lastmile_qr_scan", "android": "https://dc.lft.to/lastmile_qr_scan"}}, {"is_disabled": 0, "fusion_lat": 0.0, "lat": 38.96152983333333, "type": "electric_scooter", "lon": -76.997716, "is_reserved": 0, "fusion_lon": 0.0, "bike_id": "59fdf3cd36d7c3e4a02e80247015cb27", "name": "59fdf3cd36d7c3e4a02e80247015cb27", "rental_uris": {"ios": "https://dc.lft.to/lastmile_qr_scan", "android": "https://dc.lft.to/lastmile_qr_scan"}}, {"is_disabled": 0, "fusion_lat": 0.0, "lat": 38.940489666666664, "type": "electric_scooter", "lon": -77.02985066666666, "is_reserved": 0, "fusion_lon": 0.0, "bike_id": "5adde7b6ed601487d3430daa85e3c272", "name": "5adde7b6ed601487d3430daa85e3c272", "rental_uris": {"ios": "https://dc.lft.to/lastmile_qr_scan", "android": "https://dc.lft.to/lastmile_qr_scan"}}, {"is_disabled": 0, "fusion_lat": 0.0, "lat": 38.85326466666667, "type": "electric_scooter", "lon": -76.9800075, "is_reserved": 0, "fusion_lon": 0.0, "bike_id": "e2c66dd407e2f42fa851e82aac56648a", "name": "e2c66dd407e2f42fa851e82aac56648a", "rental_uris": {"ios": "https://dc.lft.to/lastmile_qr_scan", "android": "https://dc.lft.to/lastmile_qr_scan"}}, {"is_disabled": 0, "fusion_lat": 0.0, "lat": 38.922580833333335, "type": "electric_scooter", "lon": -77.04132366666667, "is_reserved": 0, "fusion_lon": 0.0, "bike_id": "707abad7c7cda8d2a72e4b75dc7cfc24", "name": "707abad7c7cda8d2a72e4b75dc7cfc24", "rental_uris": {"ios": "https://dc.lft.to/lastmile_qr_scan", "android": "https://dc.lft.to/lastmile_qr_scan"}}, {"is_disabled": 0, "fusion_lat": 0.0, "lat": 38.898855, "type": "electric_scooter", "lon": -76.93175966666666, "is_reserved": 0, "fusion_lon": 0.0, "bike_id": "0f53505a45644b2a09ed3bb31d519c85", "name": "0f53505a45644b2a09ed3bb31d519c85", "rental_uris": {"ios": "https://dc.lft.to/lastmile_qr_scan", "android": "https://dc.lft.to/lastmile_qr_scan"}}, {"is_disabled": 0, "fusion_lat": 0.0, "lat": 38.938678, "type": "electric_scooter", "lon": -77.0249075, "is_reserved": 0, "fusion_lon": 0.0, "bike_id": "fadcfee97e97d86182218fb60c903c9a", "name": "fadcfee97e97d86182218fb60c903c9a", "rental_uris": {"ios": "https://dc.lft.to/lastmile_qr_scan", "android": "https://dc.lft.to/lastmile_qr_scan"}}, {"is_disabled": 0, "fusion_lat": 0.0, "lat": 38.914862, "type": "electric_scooter", "lon": -77.00951216666667, "is_reserved": 0, "fusion_lon": 0.0, "bike_id": "fba2ba115d24ec65411c14d6e720004e", "name": "fba2ba115d24ec65411c14d6e720004e", "rental_uris": {"ios": "https://dc.lft.to/lastmile_qr_scan", "android": "https://dc.lft.to/lastmile_qr_scan"}}, {"is_disabled": 0, "fusion_lat": 0.0, "lat": 38.908397666666666, "type": "electric_scooter", "lon": -77.0445875, "is_reserved": 0, "fusion_lon": 0.0, "bike_id": "5689c23f8b5020055a539545d00b6d51", "name": "5689c23f8b5020055a539545d00b6d51", "rental_uris": {"ios": "https://dc.lft.to/lastmile_qr_scan", "android": "https://dc.lft.to/lastmile_qr_scan"}}, {"is_disabled": 0, "fusion_lat": 0.0, "lat": 38.903265, "type": "electric_scooter", "lon": -76.97298283333333, "is_reserved": 0, "fusion_lon": 0.0, "bike_id": "1b7b0d7ec14eb3c9e2426980285b8afe", "name": "1b7b0d7ec14eb3c9e2426980285b8afe", "rental_uris": {"ios": "https://dc.lft.to/lastmile_qr_scan", "android": "https://dc.lft.to/lastmile_qr_scan"}}, {"is_disabled": 0, "fusion_lat": 0.0, "lat": 38.8723485, "type": "electric_scooter", "lon": -77.01209883333334, "is_reserved": 0, "fusion_lon": 0.0, "bike_id": "34a123051b9f504a6f55e001ecefa36d", "name": "34a123051b9f504a6f55e001ecefa36d", "rental_uris": {"ios": "https://dc.lft.to/lastmile_qr_scan", "android": "https://dc.lft.to/lastmile_qr_scan"}}, {"is_disabled": 0, "fusion_lat": 0.0, "lat": 38.931030166666666, "type": "electric_scooter", "lon": -77.0239225, "is_reserved": 0, "fusion_lon": 0.0, "bike_id": "6e1f844e5e2e7c7e7b17c57b5b1dd909", "name": "6e1f844e5e2e7c7e7b17c57b5b1dd909", "rental_uris": {"ios": "https://dc.lft.to/lastmile_qr_scan", "android": "https://dc.lft.to/lastmile_qr_scan"}}, {"is_disabled": 0, "fusion_lat": 0.0, "lat": 38.96573883333333, "type": "electric_bike", "lon": -77.01625716666666, "is_reserved": 0, "fusion_lon": 0.0, "bike_id": "03b553b21b488bbcedea0b1add74f03b", "name": "03b553b21b488bbcedea0b1add74f03b", "rental_uris": {"ios": "https://dc.lft.to/lastmile_qr_scan", "android": "https://dc.lft.to/lastmile_qr_scan"}}, {"is_disabled": 0, "fusion_lat": 0.0, "lat": 38.876799, "type": "electric_scooter", "lon": -77.004302, "is_reserved": 0, "fusion_lon": 0.0, "bike_id": "9f705ab1df730bba66dde006fbe0db66", "name": "9f705ab1df730bba66dde006fbe0db66", "rental_uris": {"ios": "https://dc.lft.to/lastmile_qr_scan", "android": "https://dc.lft.to/lastmile_qr_scan"}}, {"is_disabled": 0, "fusion_lat": 0.0, "lat": 38.90416366666667, "type": "electric_scooter", "lon": -77.02071433333333, "is_reserved": 0, "fusion_lon": 0.0, "bike_id": "e11430a2cf95a7dc233fc0b3240fac8e", "name": "e11430a2cf95a7dc233fc0b3240fac8e", "rental_uris": {"ios": "https://dc.lft.to/lastmile_qr_scan", "android": "https://dc.lft.to/lastmile_qr_scan"}}, {"is_disabled": 0, "fusion_lat": 0.0, "lat": 38.9102245, "type": "electric_scooter", "lon": -77.03858133333334, "is_reserved": 0, "fusion_lon": 0.0, "bike_id": "a77de313f04ad7d548b31171f486a317", "name": "a77de313f04ad7d548b31171f486a317", "rental_uris": {"ios": "https://dc.lft.to/lastmile_qr_scan", "android": "https://dc.lft.to/lastmile_qr_scan"}}, {"is_disabled": 0, "fusion_lat": 0.0, "lat": 38.96027383333333, "type": "electric_scooter", "lon": -77.02825266666666, "is_reserved": 0, "fusion_lon": 0.0, "bike_id": "ea9a3cd672f93d9608a4134c02ceadc1", "name": "ea9a3cd672f93d9608a4134c02ceadc1", "rental_uris": {"ios": "https://dc.lft.to/lastmile_qr_scan", "android": "https://dc.lft.to/lastmile_qr_scan"}}, {"is_disabled": 0, "fusion_lat": 0.0, "lat": 38.91272416666666, "type": "electric_scooter", "lon": -77.01688116666666, "is_reserved": 0, "fusion_lon": 0.0, "bike_id": "6bdeb83da1d2c8a3638d521c4b536a14", "name": "6bdeb83da1d2c8a3638d521c4b536a14", "rental_uris": {"ios": "https://dc.lft.to/lastmile_qr_scan", "android": "https://dc.lft.to/lastmile_qr_scan"}}, {"is_disabled": 0, "fusion_lat": 0.0, "lat": 38.897372, "type": "electric_scooter", "lon": -77.0449445, "is_reserved": 0, "fusion_lon": 0.0, "bike_id": "27537826a8860efe5efb971cb5166cf5", "name": "27537826a8860efe5efb971cb5166cf5", "rental_uris": {"ios": "https://dc.lft.to/lastmile_qr_scan", "android": "https://dc.lft.to/lastmile_qr_scan"}}, {"is_disabled": 0, "fusion_lat": 0.0, "lat": 38.91194683333333, "type": "electric_scooter", "lon": -77.00370333333333, "is_reserved": 0, "fusion_lon": 0.0, "bike_id": "0fc4de6ef06a988c44de0c80cddbec2e", "name": "0fc4de6ef06a988c44de0c80cddbec2e", "rental_uris": {"ios": "https://dc.lft.to/lastmile_qr_scan", "android": "https://dc.lft.to/lastmile_qr_scan"}}, {"is_disabled": 0, "fusion_lat": 0.0, "lat": 38.904119333333334, "type": "electric_scooter", "lon": -77.03243633333334, "is_reserved": 0, "fusion_lon": 0.0, "bike_id": "993f68fda4824c8c4c98962f429e2518", "name": "993f68fda4824c8c4c98962f429e2518", "rental_uris": {"ios": "https://dc.lft.to/lastmile_qr_scan", "android": "https://dc.lft.to/lastmile_qr_scan"}}, {"is_disabled": 0, "fusion_lat": 0.0, "lat": 38.90669116666667, "type": "electric_scooter", "lon": -77.00053616666666, "is_reserved": 0, "fusion_lon": 0.0, "bike_id": "8306bb4738e634415a059e831133c2e0", "name": "8306bb4738e634415a059e831133c2e0", "rental_uris": {"ios": "https://dc.lft.to/lastmile_qr_scan", "android": "https://dc.lft.to/lastmile_qr_scan"}}, {"is_disabled": 0, "fusion_lat": 0.0, "lat": 38.893556333333336, "type": "electric_scooter", "lon": -77.015998, "is_reserved": 0, "fusion_lon": 0.0, "bike_id": "0f77bdafe47abc3ed92493f8daec8bc4", "name": "0f77bdafe47abc3ed92493f8daec8bc4", "rental_uris": {"ios": "https://dc.lft.to/lastmile_qr_scan", "android": "https://dc.lft.to/lastmile_qr_scan"}}, {"is_disabled": 0, "fusion_lat": 0.0, "lat": 38.931759, "type": "electric_scooter", "lon": -77.02841016666666, "is_reserved": 0, "fusion_lon": 0.0, "bike_id": "f8ee61d5cc0ae17eed9bcf24fa6f60f5", "name": "f8ee61d5cc0ae17eed9bcf24fa6f60f5", "rental_uris": {"ios": "https://dc.lft.to/lastmile_qr_scan", "android": "https://dc.lft.to/lastmile_qr_scan"}}, {"is_disabled": 0, "fusion_lat": 0.0, "lat": 38.91198083333333, "type": "electric_scooter", "lon": -77.010574, "is_reserved": 0, "fusion_lon": 0.0, "bike_id": "7af89b3d218848b615ee1d0faccef7ae", "name": "7af89b3d218848b615ee1d0faccef7ae", "rental_uris": {"ios": "https://dc.lft.to/lastmile_qr_scan", "android": "https://dc.lft.to/lastmile_qr_scan"}}, {"is_disabled": 0, "fusion_lat": 0.0, "lat": 38.902456, "type": "electric_scooter", "lon": -77.001976, "is_reserved": 0, "fusion_lon": 0.0, "bike_id": "79ea265ab8fbead81e5e7d0ae608eba6", "name": "79ea265ab8fbead81e5e7d0ae608eba6", "rental_uris": {"ios": "https://dc.lft.to/lastmile_qr_scan", "android": "https://dc.lft.to/lastmile_qr_scan"}}, {"is_disabled": 0, "fusion_lat": 0.0, "lat": 38.90505516666666, "type": "electric_scooter", "lon": -76.9901585, "is_reserved": 0, "fusion_lon": 0.0, "bike_id": "7c3308c9466a2653fc1725679bdfa056", "name": "7c3308c9466a2653fc1725679bdfa056", "rental_uris": {"ios": "https://dc.lft.to/lastmile_qr_scan", "android": "https://dc.lft.to/lastmile_qr_scan"}}, {"is_disabled": 0, "fusion_lat": 0.0, "lat": 38.9268755, "type": "electric_scooter", "lon": -77.06647683333334, "is_reserved": 0, "fusion_lon": 0.0, "bike_id": "bcad7f39317472c341eb6d85c0992974", "name": "bcad7f39317472c341eb6d85c0992974", "rental_uris": {"ios": "https://dc.lft.to/lastmile_qr_scan", "android": "https://dc.lft.to/lastmile_qr_scan"}}, {"is_disabled": 0, "fusion_lat": 0.0, "lat": 38.90201316666667, "type": "electric_scooter", "lon": -77.02373066666667, "is_reserved": 0, "fusion_lon": 0.0, "bike_id": "80da6358fe2b5563e16fdfa8da969366", "name": "80da6358fe2b5563e16fdfa8da969366", "rental_uris": {"ios": "https://dc.lft.to/lastmile_qr_scan", "android": "https://dc.lft.to/lastmile_qr_scan"}}, {"is_disabled": 0, "fusion_lat": 0.0, "lat": 38.92380883333333, "type": "electric_scooter", "lon": -77.03129566666667, "is_reserved": 0, "fusion_lon": 0.0, "bike_id": "86ed512d45367e0493cb5ba0b04f1207", "name": "86ed512d45367e0493cb5ba0b04f1207", "rental_uris": {"ios": "https://dc.lft.to/lastmile_qr_scan", "android": "https://dc.lft.to/lastmile_qr_scan"}}, {"is_disabled": 0, "fusion_lat": 0.0, "lat": 38.906199666666666, "type": "electric_bike", "lon": -76.98610916666667, "is_reserved": 0, "fusion_lon": 0.0, "bike_id": "fa1530f21e758c295546b4e84a86006e", "name": "fa1530f21e758c295546b4e84a86006e", "rental_uris": {"ios": "https://dc.lft.to/lastmile_qr_scan", "android": "https://dc.lft.to/lastmile_qr_scan"}}, {"is_disabled": 0, "fusion_lat": 0.0, "lat": 38.902431666666665, "type": "electric_scooter", "lon": -77.01563083333333, "is_reserved": 0, "fusion_lon": 0.0, "bike_id": "fe4f4e42324edaf285b5a143d7b1bae9", "name": "fe4f4e42324edaf285b5a143d7b1bae9", "rental_uris": {"ios": "https://dc.lft.to/lastmile_qr_scan", "android": "https://dc.lft.to/lastmile_qr_scan"}}, {"is_disabled": 0, "fusion_lat": 0.0, "lat": 38.90492783333333, "type": "electric_scooter", "lon": -77.02957666666667, "is_reserved": 0, "fusion_lon": 0.0, "bike_id": "c0d31605f4c8c37554888410111589cf", "name": "c0d31605f4c8c37554888410111589cf", "rental_uris": {"ios": "https://dc.lft.to/lastmile_qr_scan", "android": "https://dc.lft.to/lastmile_qr_scan"}}, {"is_disabled": 0, "fusion_lat": 0.0, "lat": 38.92532383333333, "type": "electric_scooter", "lon": -77.04427166666666, "is_reserved": 0, "fusion_lon": 0.0, "bike_id": "27d5d4bbb08db352d5e2c6af90fe6d81", "name": "27d5d4bbb08db352d5e2c6af90fe6d81", "rental_uris": {"ios": "https://dc.lft.to/lastmile_qr_scan", "android": "https://dc.lft.to/lastmile_qr_scan"}}, {"is_disabled": 0, "fusion_lat": 0.0, "lat": 38.919856333333335, "type": "electric_scooter", "lon": -76.9730745, "is_reserved": 0, "fusion_lon": 0.0, "bike_id": "6aace9a00914b7bcaa03b46117505074", "name": "6aace9a00914b7bcaa03b46117505074", "rental_uris": {"ios": "https://dc.lft.to/lastmile_qr_scan", "android": "https://dc.lft.to/lastmile_qr_scan"}}, {"is_disabled": 0, "fusion_lat": 0.0, "lat": 39.029360833333335, "type": "electric_bike", "lon": -77.04928116666666, "is_reserved": 0, "fusion_lon": 0.0, "bike_id": "c07206e86408a999f5b59a397bce2b32", "name": "c07206e86408a999f5b59a397bce2b32", "rental_uris": {"ios": "https://dc.lft.to/lastmile_qr_scan", "android": "https://dc.lft.to/lastmile_qr_scan"}}, {"is_disabled": 0, "fusion_lat": 0.0, "lat": 38.936032, "type": "electric_scooter", "lon": -77.0375725, "is_reserved": 0, "fusion_lon": 0.0, "bike_id": "d4975062b002084ca330cfa56c2dee8d", "name": "d4975062b002084ca330cfa56c2dee8d", "rental_uris": {"ios": "https://dc.lft.to/lastmile_qr_scan", "android": "https://dc.lft.to/lastmile_qr_scan"}}, {"is_disabled": 0, "fusion_lat": 0.0, "lat": 38.9086425, "type": "electric_bike", "lon": -77.080796, "is_reserved": 0, "fusion_lon": 0.0, "bike_id": "8fb2a92f6bb6f371fac2c61b0fbb8a24", "name": "8fb2a92f6bb6f371fac2c61b0fbb8a24", "rental_uris": {"ios": "https://dc.lft.to/lastmile_qr_scan", "android": "https://dc.lft.to/lastmile_qr_scan"}}, {"is_disabled": 0, "fusion_lat": 0.0, "lat": 38.935307333333334, "type": "electric_scooter", "lon": -77.0237775, "is_reserved": 0, "fusion_lon": 0.0, "bike_id": "c7e14192416ec2e8c97de33cfcff3a74", "name": "c7e14192416ec2e8c97de33cfcff3a74", "rental_uris": {"ios": "https://dc.lft.to/lastmile_qr_scan", "android": "https://dc.lft.to/lastmile_qr_scan"}}, {"is_disabled": 0, "fusion_lat": 0.0, "lat": 38.9110475, "type": "electric_scooter", "lon": -77.04206266666667, "is_reserved": 0, "fusion_lon": 0.0, "bike_id": "8a91f0ff097d3663ad7f33c057dbce86", "name": "8a91f0ff097d3663ad7f33c057dbce86", "rental_uris": {"ios": "https://dc.lft.to/lastmile_qr_scan", "android": "https://dc.lft.to/lastmile_qr_scan"}}, {"is_disabled": 0, "fusion_lat": 0.0, "lat": 38.882349833333336, "type": "electric_scooter", "lon": -76.99090416666667, "is_reserved": 0, "fusion_lon": 0.0, "bike_id": "c9221e85e7f9a0c49742ea1dd689e8a3", "name": "c9221e85e7f9a0c49742ea1dd689e8a3", "rental_uris": {"ios": "https://dc.lft.to/lastmile_qr_scan", "android": "https://dc.lft.to/lastmile_qr_scan"}}, {"is_disabled": 0, "fusion_lat": 0.0, "lat": 38.956451333333334, "type": "electric_scooter", "lon": -76.99795466666667, "is_reserved": 0, "fusion_lon": 0.0, "bike_id": "ddb230a82ea43365911cc4ed35db3309", "name": "ddb230a82ea43365911cc4ed35db3309", "rental_uris": {"ios": "https://dc.lft.to/lastmile_qr_scan", "android": "https://dc.lft.to/lastmile_qr_scan"}}, {"is_disabled": 0, "fusion_lat": 0.0, "lat": 38.8862595, "type": "electric_scooter", "lon": -77.01945266666667, "is_reserved": 0, "fusion_lon": 0.0, "bike_id": "16abd7e47607c17f65a01b95116838e0", "name": "16abd7e47607c17f65a01b95116838e0", "rental_uris": {"ios": "https://dc.lft.to/lastmile_qr_scan", "android": "https://dc.lft.to/lastmile_qr_scan"}}, {"is_disabled": 0, "fusion_lat": 0.0, "lat": 38.88787033333333, "type": "electric_scooter", "lon": -77.02010066666666, "is_reserved": 0, "fusion_lon": 0.0, "bike_id": "bdbd9e49eada3105628cf0a785b773cc", "name": "bdbd9e49eada3105628cf0a785b773cc", "rental_uris": {"ios": "https://dc.lft.to/lastmile_qr_scan", "android": "https://dc.lft.to/lastmile_qr_scan"}}, {"is_disabled": 0, "fusion_lat": 0.0, "lat": 38.8796845, "type": "electric_scooter", "lon": -76.98545633333333, "is_reserved": 0, "fusion_lon": 0.0, "bike_id": "523d0ed836b7b2a08c717f5841885514", "name": "523d0ed836b7b2a08c717f5841885514", "rental_uris": {"ios": "https://dc.lft.to/lastmile_qr_scan", "android": "https://dc.lft.to/lastmile_qr_scan"}}, {"is_disabled": 0, "fusion_lat": 0.0, "lat": 38.9915585, "type": "electric_scooter", "lon": -77.0474035, "is_reserved": 0, "fusion_lon": 0.0, "bike_id": "c274d0080077bc4c79de92ad10c6ae3e", "name": "c274d0080077bc4c79de92ad10c6ae3e", "rental_uris": {"ios": "https://dc.lft.to/lastmile_qr_scan", "android": "https://dc.lft.to/lastmile_qr_scan"}}, {"is_disabled": 0, "fusion_lat": 0.0, "lat": 38.960184166666664, "type": "electric_bike", "lon": -77.0172855, "is_reserved": 0, "fusion_lon": 0.0, "bike_id": "05ce86ef2a50963dae258efe921d10ce", "name": "05ce86ef2a50963dae258efe921d10ce", "rental_uris": {"ios": "https://dc.lft.to/lastmile_qr_scan", "android": "https://dc.lft.to/lastmile_qr_scan"}}, {"is_disabled": 0, "fusion_lat": 0.0, "lat": 38.904236, "type": "electric_scooter", "lon": -77.05326183333334, "is_reserved": 0, "fusion_lon": 0.0, "bike_id": "56cd0a1b176f091d626537f2b89ffa15", "name": "56cd0a1b176f091d626537f2b89ffa15", "rental_uris": {"ios": "https://dc.lft.to/lastmile_qr_scan", "android": "https://dc.lft.to/lastmile_qr_scan"}}, {"is_disabled": 0, "fusion_lat": 0.0, "lat": 38.91391083333333, "type": "electric_scooter", "lon": -76.98418066666666, "is_reserved": 0, "fusion_lon": 0.0, "bike_id": "6e99e7bdfd5c671b6fcb7ecbd4ecf373", "name": "6e99e7bdfd5c671b6fcb7ecbd4ecf373", "rental_uris": {"ios": "https://dc.lft.to/lastmile_qr_scan", "android": "https://dc.lft.to/lastmile_qr_scan"}}, {"is_disabled": 0, "fusion_lat": 0.0, "lat": 38.9141555, "type": "electric_scooter", "lon": -77.019634, "is_reserved": 0, "fusion_lon": 0.0, "bike_id": "ef54f49b5a3332b1a4d3eda008618a01", "name": "ef54f49b5a3332b1a4d3eda008618a01", "rental_uris": {"ios": "https://dc.lft.to/lastmile_qr_scan", "android": "https://dc.lft.to/lastmile_qr_scan"}}, {"is_disabled": 0, "fusion_lat": 0.0, "lat": 38.95268566666667, "type": "electric_bike", "lon": -77.069842, "is_reserved": 0, "fusion_lon": 0.0, "bike_id": "4968bc2b5f7a72f59eddeaef7cc9d797", "name": "4968bc2b5f7a72f59eddeaef7cc9d797", "rental_uris": {"ios": "https://dc.lft.to/lastmile_qr_scan", "android": "https://dc.lft.to/lastmile_qr_scan"}}, {"is_disabled": 0, "fusion_lat": 0.0, "lat": 38.857921833333336, "type": "electric_bike", "lon": -77.0996115, "is_reserved": 0, "fusion_lon": 0.0, "bike_id": "a0c5e4c0e31373202067062c16cc7d9a", "name": "a0c5e4c0e31373202067062c16cc7d9a", "rental_uris": {"ios": "https://dc.lft.to/lastmile_qr_scan", "android": "https://dc.lft.to/lastmile_qr_scan"}}, {"is_disabled": 0, "fusion_lat": 0.0, "lat": 38.87652716666667, "type": "electric_scooter", "lon": -77.00429466666667, "is_reserved": 0, "fusion_lon": 0.0, "bike_id": "c5655153dd35717d7c390334591d3c6c", "name": "c5655153dd35717d7c390334591d3c6c", "rental_uris": {"ios": "https://dc.lft.to/lastmile_qr_scan", "android": "https://dc.lft.to/lastmile_qr_scan"}}, {"is_disabled": 0, "fusion_lat": 0.0, "lat": 38.900311333333335, "type": "electric_scooter", "lon": -76.99835983333334, "is_reserved": 0, "fusion_lon": 0.0, "bike_id": "8f303a4588cfeb6545ee6d89b26df50a", "name": "8f303a4588cfeb6545ee6d89b26df50a", "rental_uris": {"ios": "https://dc.lft.to/lastmile_qr_scan", "android": "https://dc.lft.to/lastmile_qr_scan"}}, {"is_disabled": 0, "fusion_lat": 0.0, "lat": 38.919107, "type": "electric_scooter", "lon": -77.04629616666666, "is_reserved": 0, "fusion_lon": 0.0, "bike_id": "78ab30bfff34f68fcb3046b7f75f36b4", "name": "78ab30bfff34f68fcb3046b7f75f36b4", "rental_uris": {"ios": "https://dc.lft.to/lastmile_qr_scan", "android": "https://dc.lft.to/lastmile_qr_scan"}}, {"is_disabled": 0, "fusion_lat": 0.0, "lat": 38.917166, "type": "electric_scooter", "lon": -77.00889633333334, "is_reserved": 0, "fusion_lon": 0.0, "bike_id": "56b4ceb6116e86ce09318c4e5a6b57e6", "name": "56b4ceb6116e86ce09318c4e5a6b57e6", "rental_uris": {"ios": "https://dc.lft.to/lastmile_qr_scan", "android": "https://dc.lft.to/lastmile_qr_scan"}}, {"is_disabled": 0, "fusion_lat": 0.0, "lat": 38.9359295, "type": "electric_scooter", "lon": -77.03510016666667, "is_reserved": 0, "fusion_lon": 0.0, "bike_id": "d4b0191baa24083a177bd267702dfd4d", "name": "d4b0191baa24083a177bd267702dfd4d", "rental_uris": {"ios": "https://dc.lft.to/lastmile_qr_scan", "android": "https://dc.lft.to/lastmile_qr_scan"}}, {"is_disabled": 0, "fusion_lat": 0.0, "lat": 38.90206933333333, "type": "electric_scooter", "lon": -77.02371483333333, "is_reserved": 0, "fusion_lon": 0.0, "bike_id": "99a9b09f686c2aa14c2c75930624f5a4", "name": "99a9b09f686c2aa14c2c75930624f5a4", "rental_uris": {"ios": "https://dc.lft.to/lastmile_qr_scan", "android": "https://dc.lft.to/lastmile_qr_scan"}}, {"is_disabled": 0, "fusion_lat": 0.0, "lat": 38.939093166666666, "type": "electric_scooter", "lon": -77.06038233333334, "is_reserved": 0, "fusion_lon": 0.0, "bike_id": "523cf47f4a163c2c34a1d0326aeb5710", "name": "523cf47f4a163c2c34a1d0326aeb5710", "rental_uris": {"ios": "https://dc.lft.to/lastmile_qr_scan", "android": "https://dc.lft.to/lastmile_qr_scan"}}, {"is_disabled": 0, "fusion_lat": 0.0, "lat": 38.91211933333334, "type": "electric_scooter", "lon": -77.038442, "is_reserved": 0, "fusion_lon": 0.0, "bike_id": "272b975cf25f720a9398465c8c6e81ca", "name": "272b975cf25f720a9398465c8c6e81ca", "rental_uris": {"ios": "https://dc.lft.to/lastmile_qr_scan", "android": "https://dc.lft.to/lastmile_qr_scan"}}, {"is_disabled": 0, "fusion_lat": 0.0, "lat": 38.863763666666664, "type": "electric_scooter", "lon": -76.9905615, "is_reserved": 0, "fusion_lon": 0.0, "bike_id": "e864923232c2cb8970b336f146a9bba9", "name": "e864923232c2cb8970b336f146a9bba9", "rental_uris": {"ios": "https://dc.lft.to/lastmile_qr_scan", "android": "https://dc.lft.to/lastmile_qr_scan"}},