{"data": {"bikes": [{"lat": 38.899333166666665, "fusion_lat": 0.0, "type": "electric_scooter", "bike_id": "c1f277adf7d72af505b45ac2f0e90fa5", "rental_uris": {"ios": "https://dc.lft.to/lastmile_qr_scan", "android": "https://dc.lft.to/lastmile_qr_scan"}, "fusion_lon": 0.0, "lon": -77.02945466666667, "name": "c1f277adf7d72af505b45ac2f0e90fa5", "is_reserved": 0, "is_disabled": 0}, {"lat": 38.90473033333333, "fusion_lat": 0.0, "type": "electric_scooter", "bike_id": "1e3c0c7068570517ce6666566ac1e927", "rental_uris": {"ios": "https://dc.lft.to/lastmile_qr_scan", "android": "https://dc.lft.to/lastmile_qr_scan"}, "fusion_lon": 0.0, "lon": -76.99498716666666, "name": "1e3c0c7068570517ce6666566ac1e927", "is_reserved": 0, "is_disabled": 0}, {"lat": 38.91858966666667, "fusion_lat": 0.0, "type": "electric_scooter", "bike_id": "c6f77382e852d504f91de7535bb86ad9", "rental_uris": {"ios": "https://dc.lft.to/lastmile_qr_scan", "android": "https://dc.lft.to/lastmile_qr_scan"}, "fusion_lon": 0.0, "lon": -77.03207316666666, "name": "c6f77382e852d504f91de7535bb86ad9", "is_reserved": 0, "is_disabled": 0}, {"lat": 38.881164, "fusion_lat": 0.0, "type": "electric_scooter", "bike_id": "ac39c2ffd3ad9e1b4caf24e3de4d701b", "rental_uris": {"ios": "https://dc.lft.to/lastmile_qr_scan", "android": "https://dc.lft.to/lastmile_qr_scan"}, "fusion_lon": 0.0, "lon": -77.0164885, "name": "ac39c2ffd3ad9e1b4caf24e3de4d701b", "is_reserved": 0, "is_disabled": 0}, {"lat": 38.9287685, "fusion_lat": 0.0, "type": "electric_scooter", "bike_id": "2e6f2cfd87d52d061c7854a85b4bd371", "rental_uris": {"ios": "https://dc.lft.to/lastmile_qr_scan", "android": "https://dc.lft.to/lastmile_qr_scan"}, "fusion_lon": 0.0, "lon": -77.04049066666667, "name": "2e6f2cfd87d52d061c7854a85b4bd371", "is_reserved": 0, "is_disabled": 0}, {"lat": 38.916974, "fusion_lat": 0.0, "type": "electric_scooter", "bike_id": "aff61625c768c6e0b5165d6c9315ca94", "rental_uris": {"ios": "https://dc.lft.to/lastmile_qr_scan", "android": "https://dc.lft.to/lastmile_qr_scan"}, "fusion_lon": 0.0, "lon": -77.03318516666667, "name": "aff61625c768c6e0b5165d6c9315ca94", "is_reserved": 0, "is_disabled": 0}, {"lat": 38.923000333333334, "fusion_lat": 0.0, "type": "electric_scooter", "bike_id": "da4c5a7f621c1a617e124c473fb2bd47", "rental_uris": {"ios": "https://dc.lft.to/lastmile_qr_scan", "android": "https://dc.lft.to/lastmile_qr_scan"}, "fusion_lon": 0.0, "lon": -77.0232505, "name": "da4c5a7f621c1a617e124c473fb2bd47", "is_reserved": 0, "is_disabled": 0}, {"lat": 38.942926166666666, "fusion_lat": 0.0, "type": "electric_scooter", "bike_id": "1f42f7734f5c0785e735ac535ab294b4", "rental_uris": {"ios": "https://dc.lft.to/lastmile_qr_scan", "android": "https://dc.lft.to/lastmile_qr_scan"}, "fusion_lon": 0.0, "lon": -77.02165583333333, "name": "1f42f7734f5c0785e735ac535ab294b4", "is_reserved": 0, "is_disabled": 0}, {"lat": 38.89222633333333, "fusion_lat": 0.0, "type": "electric_scooter", "bike_id": "844d4d0b91e6d07d4abf2936450bd20e", "rental_uris": {"ios": "https://dc.lft.to/lastmile_qr_scan", "android": "https://dc.lft.to/lastmile_qr_scan"}, "fusion_lon": 0.0, "lon": -77.023539, "name": "844d4d0b91e6d07d4abf2936450bd20e", "is_reserved": 0, "is_disabled": 0}, {"lat": 38.90252816666667, "fusion_lat": 0.0, "type": "electric_scooter", "bike_id": "9839985cdc88d53ceed6c8a9c4d128fb", "rental_uris": {"ios": "https://dc.lft.to/lastmile_qr_scan", "android": "https://dc.lft.to/lastmile_qr_scan"}, "fusion_lon": 0.0, "lon": -77.06289716666667, "name": "9839985cdc88d53ceed6c8a9c4d128fb", "is_reserved": 0, "is_disabled": 0}, {"lat": 38.9034085, "fusion_lat": 0.0, "type": "electric_scooter", "bike_id": "c090f591a65bf638c6450db7dceb76e6", "rental_uris": {"ios": "https://dc.lft.to/lastmile_qr_scan", "android": "https://dc.lft.to/lastmile_qr_scan"}, "fusion_lon": 0.0, "lon": -77.01879466666666, "name": "c090f591a65bf638c6450db7dceb76e6", "is_reserved": 0, "is_disabled": 0}, {"lat": 38.8795775, "fusion_lat": 0.0, "type": "electric_scooter", "bike_id": "25bdadadf29e082326ed996ca3406cfb", "rental_uris": {"ios": "https://dc.lft.to/lastmile_qr_scan", "android": "https://dc.lft.to/lastmile_qr_scan"}, "fusion_lon": 0.0, "lon": -76.99506483333333, "name": "25bdadadf29e082326ed996ca3406cfb", "is_reserved": 0, "is_disabled": 0}, {"lat": 38.906293166666664, "fusion_lat": 0.0, "type": "electric_scooter", "bike_id": "e95163e801639910eda1a373238dac55", "rental_uris": {"ios": "https://dc.lft.to/lastmile_qr_scan", "android": "https://dc.lft.to/lastmile_qr_scan"}, "fusion_lon": 0.0, "lon": -77.02603933333333, "name": "e95163e801639910eda1a373238dac55", "is_reserved": 0, "is_disabled": 0}, {"lat": 38.91262183333333, "fusion_lat": 0.0, "type": "electric_scooter", "bike_id": "79485dda3486712699dbc268bb4571dd", "rental_uris": {"ios": "https://dc.lft.to/lastmile_qr_scan", "android": "https://dc.lft.to/lastmile_qr_scan"}, "fusion_lon": 0.0, "lon": -77.03276233333334, "name": "79485dda3486712699dbc268bb4571dd", "is_reserved": 0, "is_disabled": 0}, {"lat": 38.8990675, "fusion_lat": 0.0, "type": "electric_scooter", "bike_id": "14eeda7490da66dde169a5625dcde8fd", "rental_uris": {"ios": "https://dc.lft.to/lastmile_qr_scan", "android": "https://dc.lft.to/lastmile_qr_scan"}, "fusion_lon": 0.0, "lon": -76.94544366666666, "name": "14eeda7490da66dde169a5625dcde8fd", "is_reserved": 0, "is_disabled": 0}, {"lat": 38.90609233333333, "fusion_lat": 0.0, "type": "electric_scooter", "bike_id": "2db6701e7f2c3db22eee031b7b2e6994", "rental_uris": {"ios": "https://dc.lft.to/lastmile_qr_scan", "android": "https://dc.lft.to/lastmile_qr_scan"}, "fusion_lon": 0.0, "lon": -77.04356416666667, "name": "2db6701e7f2c3db22eee031b7b2e6994", "is_reserved": 0, "is_disabled": 0}, {"lat": 38.957419, "fusion_lat": 0.0, "type": "electric_scooter", "bike_id": "e7f39e5befa714830bb1c920eb11b9e2", "rental_uris": {"ios": "https://dc.lft.to/lastmile_qr_scan", "android": "https://dc.lft.to/lastmile_qr_scan"}, "fusion_lon": 0.0, "lon": -77.00218783333334, "name": "e7f39e5befa714830bb1c920eb11b9e2", "is_reserved": 0, "is_disabled": 0}, {"lat": 38.88400733333334, "fusion_lat": 0.0, "type": "electric_scooter", "bike_id": "eba0a0c235e119a0cf50534415b82486", "rental_uris": {"ios": "https://dc.lft.to/lastmile_qr_scan", "android": "https://dc.lft.to/lastmile_qr_scan"}, "fusion_lon": 0.0, "lon": -77.02617933333333, "name": "eba0a0c235e119a0cf50534415b82486", "is_reserved": 0, "is_disabled": 0}, {"lat": 38.9186635, "fusion_lat": 0.0, "type": "electric_scooter", "bike_id": "cf94c9e701f24f0bf2cd1f27721e79c9", "rental_uris": {"ios": "https://dc.lft.to/lastmile_qr_scan", "android": "https://dc.lft.to/lastmile_qr_scan"}, "fusion_lon": 0.0, "lon": -77.03200616666666, "name": "cf94c9e701f24f0bf2cd1f27721e79c9", "is_reserved": 0, "is_disabled": 0}, {"lat": 38.9224035, "fusion_lat": 0.0, "type": "electric_scooter", "bike_id": "e15a15ed4356c5d339eb1fa56a6a6e6e", "rental_uris": {"ios": "https://dc.lft.to/lastmile_qr_scan", "android": "https://dc.lft.to/lastmile_qr_scan"}, "fusion_lon": 0.0, "lon": -77.03516266666666, "name": "e15a15ed4356c5d339eb1fa56a6a6e6e", "is_reserved": 0, "is_disabled": 0}, {"lat": 38.908074, "fusion_lat": 0.0, "type": "electric_scooter", "bike_id": "448515f8885f7d7025d604189c48e1bb", "rental_uris": {"ios": "https://dc.lft.to/lastmile_qr_scan", "android": "https://dc.lft.to/lastmile_qr_scan"}, "fusion_lon": 0.0, "lon": -77.03439383333334, "name": "448515f8885f7d7025d604189c48e1bb", "is_reserved": 0, "is_disabled": 0}, {"lat": 38.832487, "fusion_lat": 0.0, "type": "electric_bike", "bike_id": "3d66eb7b08f53cf2ae876e7d9285bdf3", "rental_uris": {"ios": "https://dc.lft.to/lastmile_qr_scan", "android": "https://dc.lft.to/lastmile_qr_scan"}, "fusion_lon": 0.0, "lon": -77.00722766666667, "name": "3d66eb7b08f53cf2ae876e7d9285bdf3", "is_reserved": 0, "is_disabled": 0}, {"lat": 38.922823666666666, "fusion_lat": 0.0, "type": "electric_scooter", "bike_id": "8c960e376a393b0517f3bf6ee1f56d45", "rental_uris": {"ios": "https://dc.lft.to/lastmile_qr_scan", "android": "https://dc.lft.to/lastmile_qr_scan"}, "fusion_lon": 0.0, "lon": -77.03664416666666, "name": "8c960e376a393b0517f3bf6ee1f56d45", "is_reserved": 0, "is_disabled": 0}, {"lat": 38.913458, "fusion_lat": 0.0, "type": "electric_scooter", "bike_id": "c361515b40ff62da749e88e07b7e26b5", "rental_uris": {"ios": "https://dc.lft.to/lastmile_qr_scan", "android": "https://dc.lft.to/lastmile_qr_scan"}, "fusion_lon": 0.0, "lon": -77.02392383333333, "name": "c361515b40ff62da749e88e07b7e26b5", "is_reserved": 0, "is_disabled": 0}, {"lat": 38.94736566666667, "fusion_lat": 0.0, "type": "electric_scooter", "bike_id": "67923be8891a3d1edbaf9cd9ad98e9a8", "rental_uris": {"ios": "https://dc.lft.to/lastmile_qr_scan", "android": "https://dc.lft.to/lastmile_qr_scan"}, "fusion_lon": 0.0, "lon": -77.01618683333334, "name": "67923be8891a3d1edbaf9cd9ad98e9a8", "is_reserved": 0, "is_disabled": 0}, {"lat": 38.906782, "fusion_lat": 0.0, "type": "electric_scooter", "bike_id": "f02de3604700522810620f26a40c7f65", "rental_uris": {"ios": "https://dc.lft.to/lastmile_qr_scan", "android": "https://dc.lft.to/lastmile_qr_scan"}, "fusion_lon": 0.0, "lon": -77.03810566666667, "name": "f02de3604700522810620f26a40c7f65", "is_reserved": 0, "is_disabled": 0}, {"lat": 38.9173575, "fusion_lat": 0.0, "type": "electric_scooter", "bike_id": "21448c0ebcce33c4dcce83f443f02010", "rental_uris": {"ios": "https://dc.lft.to/lastmile_qr_scan", "android": "https://dc.lft.to/lastmile_qr_scan"}, "fusion_lon": 0.0, "lon": -77.03617333333334, "name": "21448c0ebcce33c4dcce83f443f02010", "is_reserved": 0, "is_disabled": 0}, {"lat": 38.911520333333335, "fusion_lat": 0.0, "type": "electric_scooter", "bike_id": "0ef991c5f0d20d7f0ea0dc878e45263c", "rental_uris": {"ios": "https://dc.lft.to/lastmile_qr_scan", "android": "https://dc.lft.to/lastmile_qr_scan"}, "fusion_lon": 0.0, "lon": -77.0345375, "name": "0ef991c5f0d20d7f0ea0dc878e45263c", "is_reserved": 0, "is_disabled": 0}, {"lat": 38.9163945, "fusion_lat": 0.0, "type": "electric_scooter", "bike_id": "e09df861b5374896983321aa6d26db73", "rental_uris": {"ios": "https://dc.lft.to/lastmile_qr_scan", "android": "https://dc.lft.to/lastmile_qr_scan"}, "fusion_lon": 0.0, "lon": -77.04806066666667, "name": "e09df861b5374896983321aa6d26db73", "is_reserved": 0, "is_disabled": 0}, {"lat": 38.90257233333333, "fusion_lat": 0.0, "type": "electric_scooter", "bike_id": "c4764ecc90582526d758427b26a7e2e9", "rental_uris": {"ios": "https://dc.lft.to/lastmile_qr_scan", "android": "https://dc.lft.to/lastmile_qr_scan"}, "fusion_lon": 0.0, "lon": -77.026659, "name": "c4764ecc90582526d758427b26a7e2e9", "is_reserved": 0, "is_disabled": 0}, {"lat": 38.91512483333333, "fusion_lat": 0.0, "type": "electric_scooter", "bike_id": "c3e040906a342f869493604b63df737e", "rental_uris": {"ios": "https://dc.lft.to/lastmile_qr_scan", "android": "https://dc.lft.to/lastmile_qr_scan"}, "fusion_lon": 0.0, "lon": -77.015534, "name": "c3e040906a342f869493604b63df737e", "is_reserved": 0, "is_disabled": 0}, {"lat": 38.902400166666666, "fusion_lat": 0.0, "type": "electric_scooter", "bike_id": "7b24cd67bcddc5a5b8bad64f6716d5f3", "rental_uris": {"ios": "https://dc.lft.to/lastmile_qr_scan", "android": "https://dc.lft.to/lastmile_qr_scan"}, "fusion_lon": 0.0, "lon": -77.03633366666666, "name": "7b24cd67bcddc5a5b8bad64f6716d5f3", "is_reserved": 0, "is_disabled": 0}, {"lat": 38.90636383333333, "fusion_lat": 0.0, "type": "electric_scooter", "bike_id": "450ff5a74805c2269e275405d444864d", "rental_uris": {"ios": "https://dc.lft.to/lastmile_qr_scan", "android": "https://dc.lft.to/lastmile_qr_scan"}, "fusion_lon": 0.0, "lon": -77.02497966666667, "name": "450ff5a74805c2269e275405d444864d", "is_reserved": 0, "is_disabled": 0}, {"lat": 38.92472216666667, "fusion_lat": 0.0, "type": "electric_scooter", "bike_id": "0cb36ecf57678b252bdaf518173c99b0", "rental_uris": {"ios": "https://dc.lft.to/lastmile_qr_scan", "android": "https://dc.lft.to/lastmile_qr_scan"}, "fusion_lon": 0.0, "lon": -77.0523325, "name": "0cb36ecf57678b252bdaf518173c99b0", "is_reserved": 0, "is_disabled": 0}, {"lat": 38.92594733333333, "fusion_lat": 0.0, "type": "electric_bike", "bike_id": "f9270a63f758a4b174249726bf851b70", "rental_uris": {"ios": "https://dc.lft.to/lastmile_qr_scan", "android": "https://dc.lft.to/lastmile_qr_scan"}, "fusion_lon": 0.0, "lon": -77.21002616666667, "name": "f9270a63f758a4b174249726bf851b70", "is_reserved": 0, "is_disabled": 0}, {"lat": 38.90813883333333, "fusion_lat": 0.0, "type": "electric_scooter", "bike_id": "91bd46e83924e8850f486b17d46e0f09", "rental_uris": {"ios": "https://dc.lft.to/lastmile_qr_scan", "android": "https://dc.lft.to/lastmile_qr_scan"}, "fusion_lon": 0.0, "lon": -77.03947883333333, "name": "91bd46e83924e8850f486b17d46e0f09", "is_reserved": 0, "is_disabled": 0}, {"lat": 38.887666333333335, "fusion_lat": 0.0, "type": "electric_scooter", "bike_id": "6d5005dfc308aec80ba16e0e8eb2b178", "rental_uris": {"ios": "https://dc.lft.to/lastmile_qr_scan", "android": "https://dc.lft.to/lastmile_qr_scan"}, "fusion_lon": 0.0, "lon": -77.01302716666666, "name": "6d5005dfc308aec80ba16e0e8eb2b178", "is_reserved": 0, "is_disabled": 0}, {"lat": 38.915879833333335, "fusion_lat": 0.0, "type": "electric_scooter", "bike_id": "1d0061e5fadcf99667382b9bd68e1dc0", "rental_uris": {"ios": "https://dc.lft.to/lastmile_qr_scan", "android": "https://dc.lft.to/lastmile_qr_scan"}, "fusion_lon": 0.0, "lon": -77.0172135, "name": "1d0061e5fadcf99667382b9bd68e1dc0", "is_reserved": 0, "is_disabled": 0}, {"lat": 38.8431185, "fusion_lat": 0.0, "type": "electric_scooter", "bike_id": "1f91d799f03d055bb07a1869429ca01e", "rental_uris": {"ios": "https://dc.lft.to/lastmile_qr_scan", "android": "https://dc.lft.to/lastmile_qr_scan"}, "fusion_lon": 0.0, "lon": -76.99531716666667, "name": "1f91d799f03d055bb07a1869429ca01e", "is_reserved": 0, "is_disabled": 0}, {"lat": 38.904246666666666, "fusion_lat": 0.0, "type": "electric_scooter", "bike_id": "8a021f167679101f3c2c92d975a7d9c3", "rental_uris": {"ios": "https://dc.lft.to/lastmile_qr_scan", "android": "https://dc.lft.to/lastmile_qr_scan"}, "fusion_lon": 0.0, "lon": -76.999417, "name": "8a021f167679101f3c2c92d975a7d9c3", "is_reserved": 0, "is_disabled": 0}, {"lat": 38.82788583333333, "fusion_lat": 0.0, "type": "electric_bike", "bike_id": "d98687b36ebd69c6ace10b1ab011df7a", "rental_uris": {"ios": "https://dc.lft.to/lastmile_qr_scan", "android": "https://dc.lft.to/lastmile_qr_scan"}, "fusion_lon": 0.0, "lon": -77.1248705, "name": "d98687b36ebd69c6ace10b1ab011df7a", "is_reserved": 0, "is_disabled": 0}, {"lat": 38.8921985, "fusion_lat": 0.0, "type": "electric_scooter", "bike_id": "587ccdeb5b00127def01fe4836bad44b", "rental_uris": {"ios": "https://dc.lft.to/lastmile_qr_scan", "android": "https://dc.lft.to/lastmile_qr_scan"}, "fusion_lon": 0.0, "lon": -77.0265575, "name": "587ccdeb5b00127def01fe4836bad44b", "is_reserved": 0, "is_disabled": 0}, {"lat": 38.892382, "fusion_lat": 0.0, "type": "electric_scooter", "bike_id": "aae855376464c6c153b511f3f4466ccb", "rental_uris": {"ios": "https://dc.lft.to/lastmile_qr_scan", "android": "https://dc.lft.to/lastmile_qr_scan"}, "fusion_lon": 0.0, "lon": -77.021755, "name": "aae855376464c6c153b511f3f4466ccb", "is_reserved": 0, "is_disabled": 0}, {"lat": 38.926812, "fusion_lat": 0.0, "type": "electric_scooter", "bike_id": "c8925969d7cdc23c2042b68add34520d", "rental_uris": {"ios": "https://dc.lft.to/lastmile_qr_scan", "android": "https://dc.lft.to/lastmile_qr_scan"}, "fusion_lon": 0.0, "lon": -77.027937, "name": "c8925969d7cdc23c2042b68add34520d", "is_reserved": 0, "is_disabled": 0}, {"lat": 38.9244495, "fusion_lat": 0.0, "type": "electric_scooter", "bike_id": "2728e6e70d2c5e98ea3ce66067b8dbcc", "rental_uris": {"ios": "https://dc.lft.to/lastmile_qr_scan", "android": "https://dc.lft.to/lastmile_qr_scan"}, "fusion_lon": 0.0, "lon": -77.02029183333333, "name": "2728e6e70d2c5e98ea3ce66067b8dbcc", "is_reserved": 0, "is_disabled": 0}, {"lat": 38.911250833333334, "fusion_lat": 0.0, "type": "electric_scooter", "bike_id": "452ea20708cf6ce4b4538f0f18725e3b", "rental_uris": {"ios": "https://dc.lft.to/lastmile_qr_scan", "android": "https://dc.lft.to/lastmile_qr_scan"}, "fusion_lon": 0.0, "lon": -77.04531383333334, "name": "452ea20708cf6ce4b4538f0f18725e3b", "is_reserved": 0, "is_disabled": 0}, {"lat": 38.89222183333333, "fusion_lat": 0.0, "type": "electric_scooter", "bike_id": "ffaa44f7d340b46f6fa92b2452eaa97d", "rental_uris": {"ios": "https://dc.lft.to/lastmile_qr_scan", "android": "https://dc.lft.to/lastmile_qr_scan"}, "fusion_lon": 0.0, "lon": -77.04189233333334, "name": "ffaa44f7d340b46f6fa92b2452eaa97d", "is_reserved": 0, "is_disabled": 0}, {"lat": 38.92335716666667, "fusion_lat": 0.0, "type": "electric_scooter", "bike_id": "76d621d4d29ef27e8d7bcad2fed3f714", "rental_uris": {"ios": "https://dc.lft.to/lastmile_qr_scan", "android": "https://dc.lft.to/lastmile_qr_scan"}, "fusion_lon": 0.0, "lon": -77.05678216666666, "name": "76d621d4d29ef27e8d7bcad2fed3f714", "is_reserved": 0, "is_disabled": 0}, {"lat": 38.9060945, "fusion_lat": 0.0, "type": "electric_scooter", "bike_id": "4fd1ebe89d4de2d596d05f13ac6e6378", "rental_uris": {"ios": "https://dc.lft.to/lastmile_qr_scan", "android": "https://dc.lft.to/lastmile_qr_scan"}, "fusion_lon": 0.0, "lon": -77.06373333333333, "name": "4fd1ebe89d4de2d596d05f13ac6e6378", "is_reserved": 0, "is_disabled": 0}, {"lat": 38.874653333333335, "fusion_lat": 0.0, "type": "electric_scooter", "bike_id": "fd554cfb04b4e7eff966c3573d5ea4b2", "rental_uris": {"ios": "https://dc.lft.to/lastmile_qr_scan", "android": "https://dc.lft.to/lastmile_qr_scan"}, "fusion_lon": 0.0, "lon": -77.014558, "name": "fd554cfb04b4e7eff966c3573d5ea4b2", "is_reserved": 0, "is_disabled": 0}, {"lat": 38.926656, "fusion_lat": 0.0, "type": "electric_scooter", "bike_id": "cf4e7281d742d210be8d2d1542895a11", "rental_uris": {"ios": "https://dc.lft.to/lastmile_qr_scan", "android": "https://dc.lft.to/lastmile_qr_scan"}, "fusion_lon": 0.0, "lon": -77.0372455, "name": "cf4e7281d742d210be8d2d1542895a11", "is_reserved": 0, "is_disabled": 0}, {"lat": 38.9231475, "fusion_lat": 0.0, "type": "electric_scooter", "bike_id": "ee2ccfe5418929cdb9d5c88cd8ea3468", "rental_uris": {"ios": "https://dc.lft.to/lastmile_qr_scan", "android": "https://dc.lft.to/lastmile_qr_scan"}, "fusion_lon": 0.0, "lon": -77.04103883333333, "name": "ee2ccfe5418929cdb9d5c88cd8ea3468", "is_reserved": 0, "is_disabled": 0}, {"lat": 38.876201333333334, "fusion_lat": 0.0, "type": "electric_scooter", "bike_id": "88333c30093f38209be0a4b88c3f27c4", "rental_uris": {"ios": "https://dc.lft.to/lastmile_qr_scan", "android": "https://dc.lft.to/lastmile_qr_scan"}, "fusion_lon": 0.0, "lon": -76.96544816666666, "name": "88333c30093f38209be0a4b88c3f27c4", "is_reserved": 0, "is_disabled": 0}, {"lat": 38.873985166666664, "fusion_lat": 0.0, "type": "electric_scooter", "bike_id": "ae83ee1213fd1622d8e89d7d1c1a5151", "rental_uris": {"ios": "https://dc.lft.to/lastmile_qr_scan", "android": "https://dc.lft.to/lastmile_qr_scan"}, "fusion_lon": 0.0, "lon": -77.00028133333333, "name": "ae83ee1213fd1622d8e89d7d1c1a5151", "is_reserved": 0, "is_disabled": 0}, {"lat": 38.90305983333333, "fusion_lat": 0.0, "type": "electric_scooter", "bike_id": "0c817869670e81e0b17029518ed0d635", "rental_uris": {"ios": "https://dc.lft.to/lastmile_qr_scan", "android": "https://dc.lft.to/lastmile_qr_scan"}, "fusion_lon": 0.0, "lon": -77.0611555, "name": "0c817869670e81e0b17029518ed0d635", "is_reserved": 0, "is_disabled": 0}, {"lat": 38.89808816666667, "fusion_lat": 0.0, "type": "electric_bike", "bike_id": "69c4efae7dc17ece0a593b5f082d661a", "rental_uris": {"ios": "https://dc.lft.to/lastmile_qr_scan", "android": "https://dc.lft.to/lastmile_qr_scan"}, "fusion_lon": 0.0, "lon": -77.00602083333334, "name": "69c4efae7dc17ece0a593b5f082d661a", "is_reserved": 0, "is_disabled": 0}, {"lat": 38.877961, "fusion_lat": 0.0, "type": "electric_scooter", "bike_id": "29bd948f6ab931c7b9d83d5aae92dc05", "rental_uris": {"ios": "https://dc.lft.to/lastmile_qr_scan", "android": "https://dc.lft.to/lastmile_qr_scan"}, "fusion_lon": 0.0, "lon": -77.0034275, "name": "29bd948f6ab931c7b9d83d5aae92dc05", "is_reserved": 0, "is_disabled": 0}, {"lat": 38.92493733333333, "fusion_lat": 0.0, "type": "electric_scooter", "bike_id": "8fee3c8d1ab5ef7bb09c0b677a7e2959", "rental_uris": {"ios": "https://dc.lft.to/lastmile_qr_scan", "android": "https://dc.lft.to/lastmile_qr_scan"}, "fusion_lon": 0.0, "lon": -77.024464, "name": "8fee3c8d1ab5ef7bb09c0b677a7e2959", "is_reserved": 0, "is_disabled": 0}, {"lat": 38.87657333333333, "fusion_lat": 0.0, "type": "electric_scooter", "bike_id": "ded6c226229ba2483a48c5bf78e35020", "rental_uris": {"ios": "https://dc.lft.to/lastmile_qr_scan", "android": "https://dc.lft.to/lastmile_qr_scan"}, "fusion_lon": 0.0, "lon": -77.00069983333333, "name": "ded6c226229ba2483a48c5bf78e35020", "is_reserved": 0, "is_disabled": 0}, {"lat": 38.919858, "fusion_lat": 0.0, "type": "electric_scooter", "bike_id": "8191a3f683294519169b15c5a59cbe0f", "rental_uris": {"ios": "https://dc.lft.to/lastmile_qr_scan", "android": "https://dc.lft.to/lastmile_qr_scan"}, "fusion_lon": 0.0, "lon": -77.041669, "name": "8191a3f683294519169b15c5a59cbe0f", "is_reserved": 0, "is_disabled": 0}, {"lat": 38.9094495, "fusion_lat": 0.0, "type": "electric_scooter", "bike_id": "29d66cc2e46b2fc859f0ddb81841e1a4", "rental_uris": {"ios": "https://dc.lft.to/lastmile_qr_scan", "android": "https://dc.lft.to/lastmile_qr_scan"}, "fusion_lon": 0.0, "lon": -77.03195666666667, "name": "29d66cc2e46b2fc859f0ddb81841e1a4", "is_reserved": 0, "is_disabled": 0}, {"lat": 38.957721666666664, "fusion_lat": 0.0, "type": "electric_scooter", "bike_id": "618b53ae91c6446fe24a8224e069f072", "rental_uris": {"ios": "https://dc.lft.to/lastmile_qr_scan", "android": "https://dc.lft.to/lastmile_qr_scan"}, "fusion_lon": 0.0, "lon": -77.01494133333334, "name": "618b53ae91c6446fe24a8224e069f072", "is_reserved": 0, "is_disabled": 0}, {"lat": 38.917737333333335, "fusion_lat": 0.0, "type": "electric_scooter", "bike_id": "352723f4f18ac75ee4480e3ed81edfa8", "rental_uris": {"ios": "https://dc.lft.to/lastmile_qr_scan", "android": "https://dc.lft.to/lastmile_qr_scan"}, "fusion_lon": 0.0, "lon": -77.0319545, "name": "352723f4f18ac75ee4480e3ed81edfa8", "is_reserved": 0, "is_disabled": 0}, {"lat": 38.917455833333335, "fusion_lat": 0.0, "type": "electric_scooter", "bike_id": "47fac3c6a26ac4be1df006ae4dc6cb34", "rental_uris": {"ios": "https://dc.lft.to/lastmile_qr_scan", "android": "https://dc.lft.to/lastmile_qr_scan"}, "fusion_lon": 0.0, "lon": -77.06938183333334, "name": "47fac3c6a26ac4be1df006ae4dc6cb34", "is_reserved": 0, "is_disabled": 0}, {"lat": 38.915767, "fusion_lat": 0.0, "type": "electric_scooter", "bike_id": "9c6ed01f0aad0f22656018f42a14285b", "rental_uris": {"ios": "https://dc.lft.to/lastmile_qr_scan", "android": "https://dc.lft.to/lastmile_qr_scan"}, "fusion_lon": 0.0, "lon": -77.02181766666666, "name": "9c6ed01f0aad0f22656018f42a14285b", "is_reserved": 0, "is_disabled": 0}, {"lat": 38.923434666666665, "fusion_lat": 0.0, "type": "electric_scooter", "bike_id": "3b8843662483ffd366769aa3218990b6", "rental_uris": {"ios": "https://dc.lft.to/lastmile_qr_scan", "android": "https://dc.lft.to/lastmile_qr_scan"}, "fusion_lon": 0.0, "lon": -77.00912083333333, "name": "3b8843662483ffd366769aa3218990b6", "is_reserved": 0, "is_disabled": 0}, {"lat": 38.90641733333333, "fusion_lat": 0.0, "type": "electric_scooter", "bike_id": "a3dc60563a8fddd12db47a09e3480797", "rental_uris": {"ios": "https://dc.lft.to/lastmile_qr_scan", "android": "https://dc.lft.to/lastmile_qr_scan"}, "fusion_lon": 0.0, "lon": -77.05136233333333, "name": "a3dc60563a8fddd12db47a09e3480797", "is_reserved": 0, "is_disabled": 0}, {"lat": 38.90168, "fusion_lat": 0.0, "type": "electric_scooter", "bike_id": "fb33eaabfe3b1e677dc69146fb1f77d3", "rental_uris": {"ios": "https://dc.lft.to/lastmile_qr_scan", "android": "https://dc.lft.to/lastmile_qr_scan"}, "fusion_lon": 0.0, "lon": -77.04662, "name": "fb33eaabfe3b1e677dc69146fb1f77d3", "is_reserved": 0, "is_disabled": 0}, {"lat": 38.90722516666666, "fusion_lat": 0.0, "type": "electric_scooter", "bike_id": "e86db8cb98b9a719ee1551fbc712fc20", "rental_uris": {"ios": "https://dc.lft.to/lastmile_qr_scan", "android": "https://dc.lft.to/lastmile_qr_scan"}, "fusion_lon": 0.0, "lon": -77.04332133333334, "name": "e86db8cb98b9a719ee1551fbc712fc20", "is_reserved": 0, "is_disabled": 0}, {"lat": 38.915759666666666, "fusion_lat": 0.0, "type": "electric_scooter", "bike_id": "286fff655d43c6388a89c4184d5080cd", "rental_uris": {"ios": "https://dc.lft.to/lastmile_qr_scan", "android": "https://dc.lft.to/lastmile_qr_scan"}, "fusion_lon": 0.0, "lon": -77.02179866666667, "name": "286fff655d43c6388a89c4184d5080cd", "is_reserved": 0, "is_disabled": 0}, {"lat": 38.900262166666664, "fusion_lat": 0.0, "type": "electric_scooter", "bike_id": "4511580bee22cec8d050f42c6cc02a62", "rental_uris": {"ios": "https://dc.lft.to/lastmile_qr_scan", "android": "https://dc.lft.to/lastmile_qr_scan"}, "fusion_lon": 0.0, "lon": -76.99192383333333, "name": "4511580bee22cec8d050f42c6cc02a62", "is_reserved": 0, "is_disabled": 0}, {"lat": 38.909445833333336, "fusion_lat": 0.0, "type": "electric_scooter", "bike_id": "a8c2ed6dc79ceae49ff2a539f9660db1", "rental_uris": {"ios": "https://dc.lft.to/lastmile_qr_scan", "android": "https://dc.lft.to/lastmile_qr_scan"}, "fusion_lon": 0.0, "lon": -77.0344395, "name": "a8c2ed6dc79ceae49ff2a539f9660db1", "is_reserved": 0, "is_disabled": 0}, {"lat": 38.87493116666667, "fusion_lat": 0.0, "type": "electric_scooter", "bike_id": "7216480297703d3d645fd492ffdbc698", "rental_uris": {"ios": "https://dc.lft.to/lastmile_qr_scan", "android": "https://dc.lft.to/lastmile_qr_scan"}, "fusion_lon": 0.0, "lon": -77.00172033333334, "name": "7216480297703d3d645fd492ffdbc698", "is_reserved": 0, "is_disabled": 0}, {"lat": 38.85520966666667, "fusion_lat": 0.0, "type": "electric_bike", "bike_id": "e2a537e39a731e846adfccd61cd56478", "rental_uris": {"ios": "https://dc.lft.to/lastmile_qr_scan", "android": "https://dc.lft.to/lastmile_qr_scan"}, "fusion_lon": 0.0, "lon": -76.98423116666666, "name": "e2a537e39a731e846adfccd61cd56478", "is_reserved": 0, "is_disabled": 0}, {"lat": 38.88043116666667, "fusion_lat": 0.0, "type": "electric_scooter", "bike_id": "1171e2a0b0fa5e0626908c4266305106", "rental_uris": {"ios": "https://dc.lft.to/lastmile_qr_scan", "android": "https://dc.lft.to/lastmile_qr_scan"}, "fusion_lon": 0.0, "lon": -77.00591883333334, "name": "1171e2a0b0fa5e0626908c4266305106", "is_reserved": 0, "is_disabled": 0}, {"lat": 38.912668833333335, "fusion_lat": 0.0, "type": "electric_scooter", "bike_id": "0db78bef37764185761d3e509c84aba8", "rental_uris": {"ios": "https://dc.lft.to/lastmile_qr_scan", "android": "https://dc.lft.to/lastmile_qr_scan"}, "fusion_lon": 0.0, "lon": -77.0380385, "name": "0db78bef37764185761d3e509c84aba8", "is_reserved": 0, "is_disabled": 0}, {"lat": 38.92875383333333, "fusion_lat": 0.0, "type": "electric_scooter", "bike_id": "048b0aae47f3a2a9d71957753adab5c1", "rental_uris": {"ios": "https://dc.lft.to/lastmile_qr_scan", "android": "https://dc.lft.to/lastmile_qr_scan"}, "fusion_lon": 0.0, "lon": -77.032327, "name": "048b0aae47f3a2a9d71957753adab5c1", "is_reserved": 0, "is_disabled": 0}, {"lat": 38.897443833333334, "fusion_lat": 0.0, "type": "electric_scooter", "bike_id": "96f9795cb95dbc5f9030a01f55caa50b", "rental_uris": {"ios": "https://dc.lft.to/lastmile_qr_scan", "android": "https://dc.lft.to/lastmile_qr_scan"}, "fusion_lon": 0.0, "lon": -77.00143433333334, "name": "96f9795cb95dbc5f9030a01f55caa50b", "is_reserved": 0, "is_disabled": 0}, {"lat": 38.905078, "fusion_lat": 0.0, "type": "electric_scooter", "bike_id": "8ecd6e7d645dc4aedc89fc9fc0cb5964", "rental_uris": {"ios": "https://dc.lft.to/lastmile_qr_scan", "android": "https://dc.lft.to/lastmile_qr_scan"}, "fusion_lon": 0.0, "lon": -77.01786116666666, "name": "8ecd6e7d645dc4aedc89fc9fc0cb5964", "is_reserved": 0, "is_disabled": 0}, {"lat": 38.921695, "fusion_lat": 0.0, "type": "electric_scooter", "bike_id": "e9284d6c119861cd41b854534fc917bc", "rental_uris": {"ios": "https://dc.lft.to/lastmile_qr_scan", "android": "https://dc.lft.to/lastmile_qr_scan"}, "fusion_lon": 0.0, "lon": -77.04020783333333, "name": "e9284d6c119861cd41b854534fc917bc", "is_reserved": 0, "is_disabled": 0}, {"lat": 38.90013783333333, "fusion_lat": 0.0, "type": "electric_scooter", "bike_id": "35b721ee86c6cd2c5183c2fc9aed01ae", "rental_uris": {"ios": "https://dc.lft.to/lastmile_qr_scan", "android": "https://dc.lft.to/lastmile_qr_scan"}, "fusion_lon": 0.0, "lon": -76.99866166666666, "name": "35b721ee86c6cd2c5183c2fc9aed01ae", "is_reserved": 0, "is_disabled": 0}, {"lat": 38.92898816666667, "fusion_lat": 0.0, "type": "electric_scooter", "bike_id": "b4bbc08d2a4c313e799a9f63f18ebd67", "rental_uris": {"ios": "https://dc.lft.to/lastmile_qr_scan", "android": "https://dc.lft.to/lastmile_qr_scan"}, "fusion_lon": 0.0, "lon": -77.0580755, "name": "b4bbc08d2a4c313e799a9f63f18ebd67", "is_reserved": 0, "is_disabled": 0}, {"lat": 38.831047166666664, "fusion_lat": 0.0, "type": "electric_bike", "bike_id": "bd7391d9fd1e0c83d7d50e3663010ba6", "rental_uris": {"ios": "https://dc.lft.to/lastmile_qr_scan", "android": "https://dc.lft.to/lastmile_qr_scan"}, "fusion_lon": 0.0, "lon": -77.11278433333334, "name": "bd7391d9fd1e0c83d7d50e3663010ba6", "is_reserved": 0, "is_disabled": 0}, {"lat": 38.91072616666666, "fusion_lat": 0.0, "type": "electric_scooter", "bike_id": "5a73197259506845edd98f1dc12d69c4", "rental_uris": {"ios": "https://dc.lft.to/lastmile_qr_scan", "android": "https://dc.lft.to/lastmile_qr_scan"}, "fusion_lon": 0.0, "lon": -77.027121, "name": "5a73197259506845edd98f1dc12d69c4", "is_reserved": 0, "is_disabled": 0}, {"lat": 38.9181685, "fusion_lat": 0.0, "type": "electric_scooter", "bike_id": "074510fc6a5b1500d50eb22131d23d02", "rental_uris": {"ios": "https://dc.lft.to/lastmile_qr_scan", "android": "https://dc.lft.to/lastmile_qr_scan"}, "fusion_lon": 0.0, "lon": -77.04162883333333, "name": "074510fc6a5b1500d50eb22131d23d02", "is_reserved": 0, "is_disabled": 0}, {"lat": 38.89698516666667, "fusion_lat": 0.0, "type": "electric_scooter", "bike_id": "755d3e1c8e96320fe750d38afc7a1053", "rental_uris": {"ios": "https://dc.lft.to/lastmile_qr_scan", "android": "https://dc.lft.to/lastmile_qr_scan"}, "fusion_lon": 0.0, "lon": -77.02667833333334, "name": "755d3e1c8e96320fe750d38afc7a1053", "is_reserved": 0, "is_disabled": 0}, {"lat": 38.89916683333333, "fusion_lat": 0.0, "type": "electric_scooter", "bike_id": "cf3be2b8c436c5815574082f8070a344", "rental_uris": {"ios": "https://dc.lft.to/lastmile_qr_scan", "android": "https://dc.lft.to/lastmile_qr_scan"}, "fusion_lon": 0.0, "lon": -77.04481, "name": "cf3be2b8c436c5815574082f8070a344", "is_reserved": 0, "is_disabled": 0}, {"lat": 38.910249, "fusion_lat": 0.0, "type": "electric_scooter", "bike_id": "98581bb41209dc7e4a4baefa9cdfbe21", "rental_uris": {"ios": "https://dc.lft.to/lastmile_qr_scan", "android": "https://dc.lft.to/lastmile_qr_scan"}, "fusion_lon": 0.0, "lon": -77.02933266666666, "name": "98581bb41209dc7e4a4baefa9cdfbe21", "is_reserved": 0, "is_disabled": 0}, {"lat": 38.903732833333336, "fusion_lat": 0.0, "type": "electric_bike", "bike_id": "6f003466035e6b276a631ad569505537", "rental_uris": {"ios": "https://dc.lft.to/lastmile_qr_scan", "android": "https://dc.lft.to/lastmile_qr_scan"}, "fusion_lon": 0.0, "lon": -77.03971366666667, "name": "6f003466035e6b276a631ad569505537", "is_reserved": 0, "is_disabled": 0}, {"lat": 38.907226666666666, "fusion_lat": 0.0, "type": "electric_scooter", "bike_id": "e7922c077d4184678d15ea2188143f1f", "rental_uris": {"ios": "https://dc.lft.to/lastmile_qr_scan", "android": "https://dc.lft.to/lastmile_qr_scan"}, "fusion_lon": 0.0, "lon": -77.00566066666667, "name": "e7922c077d4184678d15ea2188143f1f", "is_reserved": 0, "is_disabled": 0}, {"lat": 38.90107716666667, "fusion_lat": 0.0, "type": "electric_scooter", "bike_id": "1bbd9ca14af5cfedb19e9dbd3812a73a", "rental_uris": {"ios": "https://dc.lft.to/lastmile_qr_scan", "android": "https://dc.lft.to/lastmile_qr_scan"}, "fusion_lon": 0.0, "lon": -77.03180716666667, "name": "1bbd9ca14af5cfedb19e9dbd3812a73a", "is_reserved": 0, "is_disabled": 0}, {"lat": 38.94089966666667, "fusion_lat": 0.0, "type": "electric_scooter", "bike_id": "c8d9792b737b6fe23637a818a1a08057", "rental_uris": {"ios": "https://dc.lft.to/lastmile_qr_scan", "android": "https://dc.lft.to/lastmile_qr_scan"}, "fusion_lon": 0.0, "lon": -77.0271915, "name": "c8d9792b737b6fe23637a818a1a08057", "is_reserved": 0, "is_disabled": 0}, {"lat": 38.916347, "fusion_lat": 0.0, "type": "electric_scooter", "bike_id": "2238c7c3cfc19260b05ffc22c12461e2", "rental_uris": {"ios": "https://dc.lft.to/lastmile_qr_scan", "android": "https://dc.lft.to/lastmile_qr_scan"}, "fusion_lon": 0.0, "lon": -77.050718, "name": "2238c7c3cfc19260b05ffc22c12461e2", "is_reserved": 0, "is_disabled": 0}, {"lat": 38.8874565, "fusion_lat": 0.0, "type": "electric_scooter", "bike_id": "b349ccf78c2b3491831218fb603e851a", "rental_uris": {"ios": "https://dc.lft.to/lastmile_qr_scan", "android": "https://dc.lft.to/lastmile_qr_scan"}, "fusion_lon": 0.0, "lon": -77.027697, "name": "b349ccf78c2b3491831218fb603e851a", "is_reserved": 0, "is_disabled": 0}, {"lat": 38.93099816666667, "fusion_lat": 0.0, "type": "electric_scooter", "bike_id": "cbf30f5ad9597357ad5fd786830f5283", "rental_uris": {"ios": "https://dc.lft.to/lastmile_qr_scan", "android": "https://dc.lft.to/lastmile_qr_scan"}, "fusion_lon": 0.0, "lon": -77.0122765, "name": "cbf30f5ad9597357ad5fd786830f5283", "is_reserved": 0, "is_disabled": 0}, {"lat": 38.9055005, "fusion_lat": 0.0, "type": "electric_scooter", "bike_id": "2c97eea657f58d9f3b684930b808c422", "rental_uris": {"ios": "https://dc.lft.to/lastmile_qr_scan", "android": "https://dc.lft.to/lastmile_qr_scan"}, "fusion_lon": 0.0, "lon": -77.05035766666667, "name": "2c97eea657f58d9f3b684930b808c422", "is_reserved": 0, "is_disabled": 0}, {"lat": 38.9288455, "fusion_lat": 0.0, "type": "electric_scooter", "bike_id": "b446eb7a2245f69ccb4150af8bced81f", "rental_uris": {"ios": "https://dc.lft.to/lastmile_qr_scan", "android": "https://dc.lft.to/lastmile_qr_scan"}, "fusion_lon": 0.0, "lon": -77.0324745, "name": "b446eb7a2245f69ccb4150af8bced81f", "is_reserved": 0, "is_disabled": 0}, {"lat": 38.884268, "fusion_lat": 0.0, "type": "electric_scooter", "bike_id": "4eab424a6a2a8e8f15cf5393bf044885", "rental_uris": {"ios": "https://dc.lft.to/lastmile_qr_scan", "android": "https://dc.lft.to/lastmile_qr_scan"}, "fusion_lon": 0.0, "lon": -76.95747216666666, "name": "4eab424a6a2a8e8f15cf5393bf044885", "is_reserved": 0, "is_disabled": 0}, {"lat": 38.900108833333334, "fusion_lat": 0.0, "type": "electric_scooter", "bike_id": "38352d76c14eec9c6fe937447086fcc5", "rental_uris": {"ios": "https://dc.lft.to/lastmile_qr_scan", "android": "https://dc.lft.to/lastmile_qr_scan"}, "fusion_lon": 0.0, "lon": -77.00144583333334, "name": "38352d76c14eec9c6fe937447086fcc5", "is_reserved": 0, "is_disabled": 0}, {"lat": 38.899640833333336, "fusion_lat": 0.0, "type": "electric_scooter", "bike_id": "81cfef99d91a99ee65f1c6bc0ba6f87c", "rental_uris": {"ios": "https://dc.lft.to/lastmile_qr_scan", "android": "https://dc.lft.to/lastmile_qr_scan"}, "fusion_lon": 0.0, "lon": -77.024558, "name": "81cfef99d91a99ee65f1c6bc0ba6f87c", "is_reserved": 0, "is_disabled": 0}, {"lat": 38.8576955, "fusion_lat": 0.0, "type": "electric_bike", "bike_id": "a9e8d3ccd8588992c4f64f3cabc40680", "rental_uris": {"ios": "https://dc.lft.to/lastmile_qr_scan", "android": "https://dc.lft.to/lastmile_qr_scan"}, "fusion_lon": 0.0, "lon": -76.98762616666667, "name": "a9e8d3ccd8588992c4f64f3cabc40680", "is_reserved": 0, "is_disabled": 0}, {"lat": 38.89977366666667, "fusion_lat": 0.0, "type": "electric_scooter", "bike_id": "c6f4f19a023b74b736450a62b825300d", "rental_uris": {"ios": "https://dc.lft.to/lastmile_qr_scan", "android": "https://dc.lft.to/lastmile_qr_scan"}, "fusion_lon": 0.0, "lon": -76.98545983333334, "name": "c6f4f19a023b74b736450a62b825300d", "is_reserved": 0, "is_disabled": 0}, {"lat": 38.90780816666667, "fusion_lat": 0.0, "type": "electric_scooter", "bike_id": "db7956e059d2b77a39d3fde42bb2bd03", "rental_uris": {"ios": "https://dc.lft.to/lastmile_qr_scan", "android": "https://dc.lft.to/lastmile_qr_scan"}, "fusion_lon": 0.0, "lon": -77.07170133333334, "name": "db7956e059d2b77a39d3fde42bb2bd03", "is_reserved": 0, "is_disabled": 0}, {"lat": 38.91572933333333, "fusion_lat": 0.0, "type": "electric_scooter", "bike_id": "777ab715c2fb66614c07a1004a85dc53", "rental_uris": {"ios": "https://dc.lft.to/lastmile_qr_scan", "android": "https://dc.lft.to/lastmile_qr_scan"}, "fusion_lon": 0.0, "lon": -77.01905816666667, "name": "777ab715c2fb66614c07a1004a85dc53", "is_reserved": 0, "is_disabled": 0}, {"lat": 38.92227833333333, "fusion_lat": 0.0, "type": "electric_scooter", "bike_id": "0608daef39873a36c6f226e2c1617902", "rental_uris": {"ios": "https://dc.lft.to/lastmile_qr_scan", "android": "https://dc.lft.to/lastmile_qr_scan"}, "fusion_lon": 0.0, "lon": -77.0211, "name": "0608daef39873a36c6f226e2c1617902", "is_reserved": 0, "is_disabled": 0}, {"lat": 38.868924666666665, "fusion_lat": 0.0, "type": "electric_bike", "bike_id": "bdb7bb7a9465895b135d66214c722efc", "rental_uris": {"ios": "https://dc.lft.to/lastmile_qr_scan", "android": "https://dc.lft.to/lastmile_qr_scan"}, "fusion_lon": 0.0, "lon": -76.98515333333333, "name": "bdb7bb7a9465895b135d66214c722efc", "is_reserved": 0, "is_disabled": 0}, {"lat": 38.9234555, "fusion_lat": 0.0, "type": "electric_scooter", "bike_id": "e9ab41b38f7ef8d3727eddfc21e2176f", "rental_uris": {"ios": "https://dc.lft.to/lastmile_qr_scan", "android": "https://dc.lft.to/lastmile_qr_scan"}, "fusion_lon": 0.0, "lon": -77.05177016666667, "name": "e9ab41b38f7ef8d3727eddfc21e2176f", "is_reserved": 0, "is_disabled": 0}, {"lat": 38.90433683333333, "fusion_lat": 0.0, "type": "electric_scooter", "bike_id": "97e43bfc0e0f4f38bbf5fa22e11e5844", "rental_uris": {"ios": "https://dc.lft.to/lastmile_qr_scan", "android": "https://dc.lft.to/lastmile_qr_scan"}, "fusion_lon": 0.0, "lon": -76.998257, "name": "97e43bfc0e0f4f38bbf5fa22e11e5844", "is_reserved": 0, "is_disabled": 0}, {"lat": 38.9023985, "fusion_lat": 0.0, "type": "electric_scooter", "bike_id": "00ba41fffd71abcc5a86da0b6524c199", "rental_uris": {"ios": "https://dc.lft.to/lastmile_qr_scan", "android": "https://dc.lft.to/lastmile_qr_scan"}, "fusion_lon": 0.0, "lon": -77.03762233333333, "name": "00ba41fffd71abcc5a86da0b6524c199", "is_reserved": 0, "is_disabled": 0}, {"lat": 38.89384483333333, "fusion_lat": 0.0, "type": "electric_scooter", "bike_id": "c2a5392b0b8a4f669f9b5321cd34bcac", "rental_uris": {"ios": "https://dc.lft.to/lastmile_qr_scan", "android": "https://dc.lft.to/lastmile_qr_scan"}, "fusion_lon": 0.0, "lon": -76.923042, "name": "c2a5392b0b8a4f669f9b5321cd34bcac", "is_reserved": 0, "is_disabled": 0}, {"lat": 38.892489833333336, "fusion_lat": 0.0, "type": "electric_scooter", "bike_id": "0fef48da770c2e918be448719aa48642", "rental_uris": {"ios": "https://dc.lft.to/lastmile_qr_scan", "android": "https://dc.lft.to/lastmile_qr_scan"}, "fusion_lon": 0.0, "lon": -77.04652766666666, "name": "0fef48da770c2e918be448719aa48642", "is_reserved": 0, "is_disabled": 0}, {"lat": 38.89639316666667, "fusion_lat": 0.0, "type": "electric_scooter", "bike_id": "34a2b6db0735b049d8feacf7aa110c40", "rental_uris": {"ios": "https://dc.lft.to/lastmile_qr_scan", "android": "https://dc.lft.to/lastmile_qr_scan"}, "fusion_lon": 0.0, "lon": -77.02398533333333, "name": "34a2b6db0735b049d8feacf7aa110c40", "is_reserved": 0, "is_disabled": 0}, {"lat": 38.950061166666664, "fusion_lat": 0.0, "type": "electric_scooter", "bike_id": "6e353c9e81226bac99fdc0ae52ae5596", "rental_uris": {"ios": "https://dc.lft.to/lastmile_qr_scan", "android": "https://dc.lft.to/lastmile_qr_scan"}, "fusion_lon": 0.0, "lon": -77.080533, "name": "6e353c9e81226bac99fdc0ae52ae5596", "is_reserved": 0, "is_disabled": 0}, {"lat": 38.847549666666666, "fusion_lat": 0.0, "type": "electric_scooter", "bike_id": "f893d6010d26d65434a4ff201b766331", "rental_uris": {"ios": "https://dc.lft.to/lastmile_qr_scan", "android": "https://dc.lft.to/lastmile_qr_scan"}, "fusion_lon": 0.0, "lon": -76.99498666666666, "name": "f893d6010d26d65434a4ff201b766331", "is_reserved": 0, "is_disabled": 0}, {"lat": 38.87900883333333, "fusion_lat": 0.0, "type": "electric_scooter", "bike_id": "3a3d4471a2dabe7fd7df2c0e8173bb38", "rental_uris": {"ios": "https://dc.lft.to/lastmile_qr_scan", "android": "https://dc.lft.to/lastmile_qr_scan"}, "fusion_lon": 0.0, "lon": -77.02300766666667, "name": "3a3d4471a2dabe7fd7df2c0e8173bb38", "is_reserved": 0, "is_disabled": 0}, {"lat": 38.905055833333336, "fusion_lat": 0.0, "type": "electric_scooter", "bike_id": "faeca70c7235dc478e3faeef045b5756", "rental_uris": {"ios": "https://dc.lft.to/lastmile_qr_scan", "android": "https://dc.lft.to/lastmile_qr_scan"}, "fusion_lon": 0.0, "lon": -77.0481305, "name": "faeca70c7235dc478e3faeef045b5756", "is_reserved": 0, "is_disabled": 0}, {"lat": 39.05253233333333, "fusion_lat": 0.0, "type": "electric_bike", "bike_id": "9654ec888b3fff101ac7e5a76fb387a5", "rental_uris": {"ios": "https://dc.lft.to/lastmile_qr_scan", "android": "https://dc.lft.to/lastmile_qr_scan"}, "fusion_lon": 0.0, "lon": -77.08063433333334, "name": "9654ec888b3fff101ac7e5a76fb387a5", "is_reserved": 0, "is_disabled": 0}, {"lat": 38.901293333333335, "fusion_lat": 0.0, "type": "electric_scooter", "bike_id": "8dc530914b5b0206c6b35e4a3cda8957", "rental_uris": {"ios": "https://dc.lft.to/lastmile_qr_scan", "android": "https://dc.lft.to/lastmile_qr_scan"}, "fusion_lon": 0.0, "lon": -77.04998133333333, "name": "8dc530914b5b0206c6b35e4a3cda8957", "is_reserved": 0, "is_disabled": 0}, {"lat": 38.926522, "fusion_lat": 0.0, "type": "electric_scooter", "bike_id": "88d24072b68555fcb1f4d21e136705f7", "rental_uris": {"ios": "https://dc.lft.to/lastmile_qr_scan", "android": "https://dc.lft.to/lastmile_qr_scan"}, "fusion_lon": 0.0, "lon": -77.041339, "name": "88d24072b68555fcb1f4d21e136705f7", "is_reserved": 0, "is_disabled": 0}, {"lat": 38.90362233333333, "fusion_lat": 0.0, "type": "electric_scooter", "bike_id": "2a69ce6ab2d145fc82f79fa8a4e6c875", "rental_uris": {"ios": "https://dc.lft.to/lastmile_qr_scan", "android": "https://dc.lft.to/lastmile_qr_scan"}, "fusion_lon": 0.0, "lon": -77.022027, "name": "2a69ce6ab2d145fc82f79fa8a4e6c875", "is_reserved": 0, "is_disabled": 0}, {"lat": 38.90625716666667, "fusion_lat": 0.0, "type": "electric_scooter", "bike_id": "9ad0d80c6fed3f6debca34a910c26e54", "rental_uris": {"ios": "https://dc.lft.to/lastmile_qr_scan", "android": "https://dc.lft.to/lastmile_qr_scan"}, "fusion_lon": 0.0, "lon": -77.0296895, "name": "9ad0d80c6fed3f6debca34a910c26e54", "is_reserved": 0, "is_disabled": 0}, {"lat": 38.90553083333333, "fusion_lat": 0.0, "type": "electric_scooter", "bike_id": "837d7dcfa4141d3ab1b64933a27cc890", "rental_uris": {"ios": "https://dc.lft.to/lastmile_qr_scan", "android": "https://dc.lft.to/lastmile_qr_scan"}, "fusion_lon": 0.0, "lon": -77.0466005, "name": "837d7dcfa4141d3ab1b64933a27cc890", "is_reserved": 0, "is_disabled": 0}, {"lat": 38.907763, "fusion_lat": 0.0, "type": "electric_scooter", "bike_id": "71ace67c074dc2998ca4c60dca3aa5d2", "rental_uris": {"ios": "https://dc.lft.to/lastmile_qr_scan", "android": "https://dc.lft.to/lastmile_qr_scan"}, "fusion_lon": 0.0, "lon": -76.99714666666667, "name": "71ace67c074dc2998ca4c60dca3aa5d2", "is_reserved": 0, "is_disabled": 0}, {"lat": 38.9051655, "fusion_lat": 0.0, "type": "electric_scooter", "bike_id": "a96cf7e6e81fdc778f352f9688b52888", "rental_uris": {"ios": "https://dc.lft.to/lastmile_qr_scan", "android": "https://dc.lft.to/lastmile_qr_scan"}, "fusion_lon": 0.0, "lon": -77.06545783333334, "name": "a96cf7e6e81fdc778f352f9688b52888", "is_reserved": 0, "is_disabled": 0}, {"lat": 38.9170815, "fusion_lat": 0.0, "type": "electric_scooter", "bike_id": "bc1a4f72061cce926231a3229dbef795", "rental_uris": {"ios": "https://dc.lft.to/lastmile_qr_scan", "android": "https://dc.lft.to/lastmile_qr_scan"}, "fusion_lon": 0.0, "lon": -77.024321, "name": "bc1a4f72061cce926231a3229dbef795", "is_reserved": 0, "is_disabled": 0}, {"lat": 38.919969333333334, "fusion_lat": 0.0, "type": "electric_scooter", "bike_id": "ac045935a4d0937380dd115824a3540e", "rental_uris": {"ios": "https://dc.lft.to/lastmile_qr_scan", "android": "https://dc.lft.to/lastmile_qr_scan"}, "fusion_lon": 0.0, "lon": -77.04756466666667, "name": "ac045935a4d0937380dd115824a3540e", "is_reserved": 0, "is_disabled": 0}, {"lat": 38.863830166666666, "fusion_lat": 0.0, "type": "electric_scooter", "bike_id": "f2600a449ed4fb98019856489bf5e95a", "rental_uris": {"ios": "https://dc.lft.to/lastmile_qr_scan", "android": "https://dc.lft.to/lastmile_qr_scan"}, "fusion_lon": 0.0, "lon": -76.991201, "name": "f2600a449ed4fb98019856489bf5e95a", "is_reserved": 0, "is_disabled": 0}, {"lat": 38.890441833333334, "fusion_lat": 0.0, "type": "electric_scooter", "bike_id": "d69a231642ad9eff9a267619fc1a87cc", "rental_uris": {"ios": "https://dc.lft.to/lastmile_qr_scan", "android": "https://dc.lft.to/lastmile_qr_scan"}, "fusion_lon": 0.0, "lon": -76.937512, "name": "d69a231642ad9eff9a267619fc1a87cc", "is_reserved": 0, "is_disabled": 0}, {"lat": 38.941122, "fusion_lat": 0.0, "type": "electric_scooter", "bike_id": "380b4c413714696dbe230fe2aae28b75", "rental_uris": {"ios": "https://dc.lft.to/lastmile_qr_scan", "android": "https://dc.lft.to/lastmile_qr_scan"}, "fusion_lon": 0.0, "lon": -77.000456, "name": "380b4c413714696dbe230fe2aae28b75", "is_reserved": 0, "is_disabled": 0}, {"lat": 38.874921, "fusion_lat": 0.0, "type": "electric_scooter", "bike_id": "89cd953f5e089c03d003e23bad94117b", "rental_uris": {"ios": "https://dc.lft.to/lastmile_qr_scan", "android": "https://dc.lft.to/lastmile_qr_scan"}, "fusion_lon": 0.0, "lon": -77.00048866666667, "name": "89cd953f5e089c03d003e23bad94117b", "is_reserved": 0, "is_disabled": 0}, {"lat": 38.89690316666667, "fusion_lat": 0.0, "type": "electric_scooter", "bike_id": "c8c77d3947b32f8ca4e82c2391971817", "rental_uris": {"ios": "https://dc.lft.to/lastmile_qr_scan", "android": "https://dc.lft.to/lastmile_qr_scan"}, "fusion_lon": 0.0, "lon": -77.02181366666667, "name": "c8c77d3947b32f8ca4e82c2391971817", "is_reserved": 0, "is_disabled": 0}, {"lat": 38.902836666666666, "fusion_lat": 0.0, "type": "electric_scooter", "bike_id": "ca07564a7d0159ae010563660e4fecac", "rental_uris": {"ios": "https://dc.lft.to/lastmile_qr_scan", "android": "https://dc.lft.to/lastmile_qr_scan"}, "fusion_lon": 0.0, "lon": -77.04065083333333, "name": "ca07564a7d0159ae010563660e4fecac", "is_reserved": 0, "is_disabled": 0}, {"lat": 38.910272666666664, "fusion_lat": 0.0, "type": "electric_scooter", "bike_id": "6fe5bea8da84c81a189cd71185f82490", "rental_uris": {"ios": "https://dc.lft.to/lastmile_qr_scan", "android": "https://dc.lft.to/lastmile_qr_scan"}, "fusion_lon": 0.0, "lon": -77.0293025, "name": "6fe5bea8da84c81a189cd71185f82490", "is_reserved": 0, "is_disabled": 0}, {"lat": 38.96180116666667, "fusion_lat": 0.0, "type": "electric_scooter", "bike_id": "c789f4d9f5456b6b98b28eaccb4d64b9", "rental_uris": {"ios": "https://dc.lft.to/lastmile_qr_scan", "android": "https://dc.lft.to/lastmile_qr_scan"}, "fusion_lon": 0.0, "lon": -77.01433033333333, "name": "c789f4d9f5456b6b98b28eaccb4d64b9", "is_reserved": 0, "is_disabled": 0}, {"lat": 38.89267983333333, "fusion_lat": 0.0, "type": "electric_scooter", "bike_id": "2a95b3c30e3e7b944ddd3dd8bce9e2cc", "rental_uris": {"ios": "https://dc.lft.to/lastmile_qr_scan", "android": "https://dc.lft.to/lastmile_qr_scan"}, "fusion_lon": 0.0, "lon": -77.00367583333333, "name": "2a95b3c30e3e7b944ddd3dd8bce9e2cc", "is_reserved": 0, "is_disabled": 0}, {"lat": 38.913872833333336, "fusion_lat": 0.0, "type": "electric_scooter", "bike_id": "068da441986ad7118f626091f2b4cb27", "rental_uris": {"ios": "https://dc.lft.to/lastmile_qr_scan", "android": "https://dc.lft.to/lastmile_qr_scan"}, "fusion_lon": 0.0, "lon": -77.02189583333333, "name": "068da441986ad7118f626091f2b4cb27", "is_reserved": 0, "is_disabled": 0}, {"lat": 38.80980983333333, "fusion_lat": 0.0, "type": "electric_bike", "bike_id": "8294570a07f68cb31ee47db9ff937631", "rental_uris": {"ios": "https://dc.lft.to/lastmile_qr_scan", "android": "https://dc.lft.to/lastmile_qr_scan"}, "fusion_lon": 0.0, "lon": -77.07657266666666, "name": "8294570a07f68cb31ee47db9ff937631", "is_reserved": 0, "is_disabled": 0}, {"lat": 38.8918835, "fusion_lat": 0.0, "type": "electric_scooter", "bike_id": "784b068a500e0ca6a8a1bbca5a0044ba", "rental_uris": {"ios": "https://dc.lft.to/lastmile_qr_scan", "android": "https://dc.lft.to/lastmile_qr_scan"}, "fusion_lon": 0.0, "lon": -77.0033825, "name": "784b068a500e0ca6a8a1bbca5a0044ba", "is_reserved": 0, "is_disabled": 0}, {"lat": 38.91659666666666, "fusion_lat": 0.0, "type": "electric_scooter", "bike_id": "037df9dc16350e68dfeff72a0948bd0c", "rental_uris": {"ios": "https://dc.lft.to/lastmile_qr_scan", "android": "https://dc.lft.to/lastmile_qr_scan"}, "fusion_lon": 0.0, "lon": -77.02472766666666, "name": "037df9dc16350e68dfeff72a0948bd0c", "is_reserved": 0, "is_disabled": 0}, {"lat": 38.92414, "fusion_lat": 0.0, "type": "electric_scooter", "bike_id": "7801765a494dad083e4913c24c50847c", "rental_uris": {"ios": "https://dc.lft.to/lastmile_qr_scan", "android": "https://dc.lft.to/lastmile_qr_scan"}, "fusion_lon": 0.0, "lon": -77.02004966666667, "name": "7801765a494dad083e4913c24c50847c", "is_reserved": 0, "is_disabled": 0}, {"lat": 38.921482, "fusion_lat": 0.0, "type": "electric_scooter", "bike_id": "77e826c03dd05e0a87248c06fd1c9d3a", "rental_uris": {"ios": "https://dc.lft.to/lastmile_qr_scan", "android": "https://dc.lft.to/lastmile_qr_scan"}, "fusion_lon": 0.0, "lon": -77.03402716666666, "name": "77e826c03dd05e0a87248c06fd1c9d3a", "is_reserved": 0, "is_disabled": 0}, {"lat": 38.89231366666667, "fusion_lat": 0.0, "type": "electric_scooter", "bike_id": "a433aa98133a61a3683ad70812b5d5bd", "rental_uris": {"ios": "https://dc.lft.to/lastmile_qr_scan", "android": "https://dc.lft.to/lastmile_qr_scan"}, "fusion_lon": 0.0, "lon": -77.02205283333333, "name": "a433aa98133a61a3683ad70812b5d5bd", "is_reserved": 0, "is_disabled": 0}, {"lat": 38.949691333333334, "fusion_lat": 0.0, "type": "electric_scooter", "bike_id": "d1b6ee844e213a6912af166526a3caf9", "rental_uris": {"ios": "https://dc.lft.to/lastmile_qr_scan", "android": "https://dc.lft.to/lastmile_qr_scan"}, "fusion_lon": 0.0, "lon": -77.066595, "name": "d1b6ee844e213a6912af166526a3caf9", "is_reserved": 0, "is_disabled": 0}, {"lat": 38.92666633333333, "fusion_lat": 0.0, "type": "electric_scooter", "bike_id": "6bdfcc29aa9d6ad1740ef6e7b1a5193a", "rental_uris": {"ios": "https://dc.lft.to/lastmile_qr_scan", "android": "https://dc.lft.to/lastmile_qr_scan"}, "fusion_lon": 0.0, "lon": -77.03723266666667, "name": "6bdfcc29aa9d6ad1740ef6e7b1a5193a", "is_reserved": 0, "is_disabled": 0}, {"lat": 38.89584166666667, "fusion_lat": 0.0, "type": "electric_scooter", "bike_id": "9560dc103e9ae397c5e79505c61066af", "rental_uris": {"ios": "https://dc.lft.to/lastmile_qr_scan", "android": "https://dc.lft.to/lastmile_qr_scan"}, "fusion_lon": 0.0, "lon": -76.983161, "name": "9560dc103e9ae397c5e79505c61066af", "is_reserved": 0, "is_disabled": 0}, {"lat": 38.9067385, "fusion_lat": 0.0, "type": "electric_scooter", "bike_id": "5f7178e7957ac90f04c85e4fe8e3ec5c", "rental_uris": {"ios": "https://dc.lft.to/lastmile_qr_scan", "android": "https://dc.lft.to/lastmile_qr_scan"}, "fusion_lon": 0.0, "lon": -77.02707233333334, "name": "5f7178e7957ac90f04c85e4fe8e3ec5c", "is_reserved": 0, "is_disabled": 0}, {"lat": 38.86015116666667, "fusion_lat": 0.0, "type": "electric_scooter", "bike_id": "dfda726bd05e7d09310cbcd2a86e10a8", "rental_uris": {"ios": "https://dc.lft.to/lastmile_qr_scan", "android": "https://dc.lft.to/lastmile_qr_scan"}, "fusion_lon": 0.0, "lon": -76.96706733333333, "name": "dfda726bd05e7d09310cbcd2a86e10a8", "is_reserved": 0, "is_disabled": 0}, {"lat": 38.918235, "fusion_lat": 0.0, "type": "electric_scooter", "bike_id": "778e2e1d4ba50cd70070cd3f97b6809d", "rental_uris": {"ios": "https://dc.lft.to/lastmile_qr_scan", "android": "https://dc.lft.to/lastmile_qr_scan"}, "fusion_lon": 0.0, "lon": -77.02417333333334, "name": "778e2e1d4ba50cd70070cd3f97b6809d", "is_reserved": 0, "is_disabled": 0}, {"lat": 38.91840966666667, "fusion_lat": 0.0, "type": "electric_scooter", "bike_id": "e2baeda0921015690e9de494382ac1dd", "rental_uris": {"ios": "https://dc.lft.to/lastmile_qr_scan", "android": "https://dc.lft.to/lastmile_qr_scan"}, "fusion_lon": 0.0, "lon": -77.02301766666666, "name": "e2baeda0921015690e9de494382ac1dd", "is_reserved": 0, "is_disabled": 0}, {"lat": 38.911263, "fusion_lat": 0.0, "type": "electric_scooter", "bike_id": "af10986e9075d40c1a4278d18828a58f", "rental_uris": {"ios": "https://dc.lft.to/lastmile_qr_scan", "android": "https://dc.lft.to/lastmile_qr_scan"}, "fusion_lon": 0.0, "lon": -77.03185716666667, "name": "af10986e9075d40c1a4278d18828a58f", "is_reserved": 0, "is_disabled": 0}, {"lat": 38.905848166666665, "fusion_lat": 0.0, "type": "electric_scooter", "bike_id": "356b0ae0011865811a6c79ac58940bd3", "rental_uris": {"ios": "https://dc.lft.to/lastmile_qr_scan", "android": "https://dc.lft.to/lastmile_qr_scan"}, "fusion_lon": 0.0, "lon": -77.069975, "name": "356b0ae0011865811a6c79ac58940bd3", "is_reserved": 0, "is_disabled": 0}, {"lat": 38.91056066666667, "fusion_lat": 0.0, "type": "electric_scooter", "bike_id": "aeb0224401be71e4d502142c92b742fd", "rental_uris": {"ios": "https://dc.lft.to/lastmile_qr_scan", "android": "https://dc.lft.to/lastmile_qr_scan"}, "fusion_lon": 0.0, "lon": -77.02213983333333, "name": "aeb0224401be71e4d502142c92b742fd", "is_reserved": 0, "is_disabled": 0}, {"lat": 38.936289, "fusion_lat": 0.0, "type": "electric_scooter", "bike_id": "059ef4d7e9412d6afab5087dab97a536", "rental_uris": {"ios": "https://dc.lft.to/lastmile_qr_scan", "android": "https://dc.lft.to/lastmile_qr_scan"}, "fusion_lon": 0.0, "lon": -77.05876683333334, "name": "059ef4d7e9412d6afab5087dab97a536", "is_reserved": 0, "is_disabled": 0}, {"lat": 38.909425166666665, "fusion_lat": 0.0, "type": "electric_scooter", "bike_id": "51468365487d0ccad08470eed13edd2c", "rental_uris": {"ios": "https://dc.lft.to/lastmile_qr_scan", "android": "https://dc.lft.to/lastmile_qr_scan"}, "fusion_lon": 0.0, "lon": -77.03051616666667, "name": "51468365487d0ccad08470eed13edd2c", "is_reserved": 0, "is_disabled": 0}, {"lat": 38.90070266666667, "fusion_lat": 0.0, "type": "electric_scooter", "bike_id": "a9d0e1d3b5c2c0be74f72515ddf77ad0", "rental_uris": {"ios": "https://dc.lft.to/lastmile_qr_scan", "android": "https://dc.lft.to/lastmile_qr_scan"}, "fusion_lon": 0.0, "lon": -77.0167425, "name": "a9d0e1d3b5c2c0be74f72515ddf77ad0", "is_reserved": 0, "is_disabled": 0}, {"lat": 38.903779666666665, "fusion_lat": 0.0, "type": "electric_scooter", "bike_id": "9a869c883180fff8c548dce5720c2632", "rental_uris": {"ios": "https://dc.lft.to/lastmile_qr_scan", "android": "https://dc.lft.to/lastmile_qr_scan"}, "fusion_lon": 0.0, "lon": -77.03844516666666, "name": "9a869c883180fff8c548dce5720c2632", "is_reserved": 0, "is_disabled": 0}, {"lat": 38.89498583333334, "fusion_lat": 0.0, "type": "electric_scooter", "bike_id": "21ffa91baf7c82921e53cd82e00671a2", "rental_uris": {"ios": "https://dc.lft.to/lastmile_qr_scan", "android": "https://dc.lft.to/lastmile_qr_scan"}, "fusion_lon": 0.0, "lon": -77.01115766666666, "name": "21ffa91baf7c82921e53cd82e00671a2", "is_reserved": 0, "is_disabled": 0}, {"lat": 38.90776866666667, "fusion_lat": 0.0, "type": "electric_scooter", "bike_id": "ff4d01dbac2f46268816c61e05ca45db", "rental_uris": {"ios": "https://dc.lft.to/lastmile_qr_scan", "android": "https://dc.lft.to/lastmile_qr_scan"}, "fusion_lon": 0.0, "lon": -77.0376085, "name": "ff4d01dbac2f46268816c61e05ca45db", "is_reserved": 0, "is_disabled": 0}, {"lat": 38.897858166666666, "fusion_lat": 0.0, "type": "electric_scooter", "bike_id": "2ffb2de5dce979937ca46cb9445b012f", "rental_uris": {"ios": "https://dc.lft.to/lastmile_qr_scan", "android": "https://dc.lft.to/lastmile_qr_scan"}, "fusion_lon": 0.0, "lon": -77.03951433333333, "name": "2ffb2de5dce979937ca46cb9445b012f", "is_reserved": 0, "is_disabled": 0}, {"lat": 38.9160145, "fusion_lat": 0.0, "type": "electric_scooter", "bike_id": "3cb1e9ebc58d1144105b267774332fd7", "rental_uris": {"ios": "https://dc.lft.to/lastmile_qr_scan", "android": "https://dc.lft.to/lastmile_qr_scan"}, "fusion_lon": 0.0, "lon": -77.049043, "name": "3cb1e9ebc58d1144105b267774332fd7", "is_reserved": 0, "is_disabled": 0}, {"lat": 38.876963333333336, "fusion_lat": 0.0, "type": "electric_scooter", "bike_id": "c0f769a435601eb0fa5b7e9d424f151d", "rental_uris": {"ios": "https://dc.lft.to/lastmile_qr_scan", "android": "https://dc.lft.to/lastmile_qr_scan"}, "fusion_lon": 0.0, "lon": -77.01784, "name": "c0f769a435601eb0fa5b7e9d424f151d", "is_reserved": 0, "is_disabled": 0}, {"lat": 38.92232533333333, "fusion_lat": 0.0, "type": "electric_scooter", "bike_id": "3281e7e80aa18a2219cfacf8ff2833f8", "rental_uris": {"ios": "https://dc.lft.to/lastmile_qr_scan", "android": "https://dc.lft.to/lastmile_qr_scan"}, "fusion_lon": 0.0, "lon": -77.01816616666666, "name": "3281e7e80aa18a2219cfacf8ff2833f8", "is_reserved": 0, "is_disabled": 0}, {"lat": 38.93452666666666, "fusion_lat": 0.0, "type": "electric_scooter", "bike_id": "a3047bcabbf4ec6b84323e846cd77fbb", "rental_uris": {"ios": "https://dc.lft.to/lastmile_qr_scan", "android": "https://dc.lft.to/lastmile_qr_scan"}, "fusion_lon": 0.0, "lon": -77.03873133333333, "name": "a3047bcabbf4ec6b84323e846cd77fbb", "is_reserved": 0, "is_disabled": 0}, {"lat": 38.89740066666667, "fusion_lat": 0.0, "type": "electric_scooter", "bike_id": "63db4f508e916edf0a444ac08f910258", "rental_uris": {"ios": "https://dc.lft.to/lastmile_qr_scan", "android": "https://dc.lft.to/lastmile_qr_scan"}, "fusion_lon": 0.0, "lon": -77.007805, "name": "63db4f508e916edf0a444ac08f910258", "is_reserved": 0, "is_disabled": 0}, {"lat": 38.921732666666664, "fusion_lat": 0.0, "type": "electric_scooter", "bike_id": "5f9770ad04beb3e89c439fa61f4ca93b", "rental_uris": {"ios": "https://dc.lft.to/lastmile_qr_scan", "android": "https://dc.lft.to/lastmile_qr_scan"}, "fusion_lon": 0.0, "lon": -77.03823916666667, "name": "5f9770ad04beb3e89c439fa61f4ca93b", "is_reserved": 0, "is_disabled": 0}, {"lat": 38.9241355, "fusion_lat": 0.0, "type": "electric_scooter", "bike_id": "0fc52a4446f82b1aeaf9a9a415a1d515", "rental_uris": {"ios": "https://dc.lft.to/lastmile_qr_scan", "android": "https://dc.lft.to/lastmile_qr_scan"}, "fusion_lon": 0.0, "lon": -77.05063683333333, "name": "0fc52a4446f82b1aeaf9a9a415a1d515", "is_reserved": 0, "is_disabled": 0}, {"lat": 38.939894, "fusion_lat": 0.0, "type": "electric_scooter", "bike_id": "bb64dd1955d6b6e17ec0f22e30f4b5e8", "rental_uris": {"ios": "https://dc.lft.to/lastmile_qr_scan", "android": "https://dc.lft.to/lastmile_qr_scan"}, "fusion_lon": 0.0, "lon": -77.02542816666667, "name": "bb64dd1955d6b6e17ec0f22e30f4b5e8", "is_reserved": 0, "is_disabled": 0}, {"lat": 38.87869366666666, "fusion_lat": 0.0, "type": "electric_scooter", "bike_id": "7e59e541efab6889961389228a4328d2", "rental_uris": {"ios": "https://dc.lft.to/lastmile_qr_scan", "android": "https://dc.lft.to/lastmile_qr_scan"}, "fusion_lon": 0.0, "lon": -76.996799, "name": "7e59e541efab6889961389228a4328d2", "is_reserved": 0, "is_disabled": 0}, {"lat": 38.9029195, "fusion_lat": 0.0, "type": "electric_scooter", "bike_id": "f8fa81f4229563c4a294e61f44f62b84", "rental_uris": {"ios": "https://dc.lft.to/lastmile_qr_scan", "android": "https://dc.lft.to/lastmile_qr_scan"}, "fusion_lon": 0.0, "lon": -77.0280275, "name": "f8fa81f4229563c4a294e61f44f62b84", "is_reserved": 0, "is_disabled": 0}, {"lat": 38.90504466666667, "fusion_lat": 0.0, "type": "electric_scooter", "bike_id": "029e5c70885f7f199b1a74f0c92a0bc0", "rental_uris": {"ios": "https://dc.lft.to/lastmile_qr_scan", "android": "https://dc.lft.to/lastmile_qr_scan"}, "fusion_lon": 0.0, "lon": -77.0448795, "name": "029e5c70885f7f199b1a74f0c92a0bc0", "is_reserved": 0, "is_disabled": 0}, {"lat": 38.920326, "fusion_lat": 0.0, "type": "electric_scooter", "bike_id": "c8c7bb90b417145ffb748ec441612c9e", "rental_uris": {"ios": "https://dc.lft.to/lastmile_qr_scan", "android": "https://dc.lft.to/lastmile_qr_scan"}, "fusion_lon": 0.0, "lon": -77.0305575, "name": "c8c7bb90b417145ffb748ec441612c9e", "is_reserved": 0, "is_disabled": 0}, {"lat": 38.893565, "fusion_lat": 0.0, "type": "electric_scooter", "bike_id": "2658aa5bf8aa132c8ffd75fc8184a36c", "rental_uris": {"ios": "https://dc.lft.to/lastmile_qr_scan", "android": "https://dc.lft.to/lastmile_qr_scan"}, "fusion_lon": 0.0, "lon": -77.00333816666667, "name": "2658aa5bf8aa132c8ffd75fc8184a36c", "is_reserved": 0, "is_disabled": 0}, {"lat": 38.966711333333336, "fusion_lat": 0.0, "type": "electric_bike", "bike_id": "5eb039c21554ccb92cfa88c00c5774db", "rental_uris": {"ios": "https://dc.lft.to/lastmile_qr_scan", "android": "https://dc.lft.to/lastmile_qr_scan"}, "fusion_lon": 0.0, "lon": -76.9744775, "name": "5eb039c21554ccb92cfa88c00c5774db", "is_reserved": 0, "is_disabled": 0}, {"lat": 38.896103333333336, "fusion_lat": 0.0, "type": "electric_scooter", "bike_id": "bf74c32003eedef67fc5e8bfc35f9ff1", "rental_uris": {"ios": "https://dc.lft.to/lastmile_qr_scan", "android": "https://dc.lft.to/lastmile_qr_scan"}, "fusion_lon": 0.0, "lon": -77.042728, "name": "bf74c32003eedef67fc5e8bfc35f9ff1", "is_reserved": 0, "is_disabled": 0}, {"lat": 38.9025315, "fusion_lat": 0.0, "type": "electric_scooter", "bike_id": "97fcd8403f6f180160ed46c1485aa0ee", "rental_uris": {"ios": "https://dc.lft.to/lastmile_qr_scan", "android": "https://dc.lft.to/lastmile_qr_scan"}, "fusion_lon": 0.0, "lon": -77.015351, "name": "97fcd8403f6f180160ed46c1485aa0ee", "is_reserved": 0, "is_disabled": 0}, {"lat": 38.89042466666667, "fusion_lat": 0.0, "type": "electric_scooter", "bike_id": "ef82d9b5a35b283d32a3a5816c9aa87f", "rental_uris": {"ios": "https://dc.lft.to/lastmile_qr_scan", "android": "https://dc.lft.to/lastmile_qr_scan"}, "fusion_lon": 0.0, "lon": -76.937559, "name": "ef82d9b5a35b283d32a3a5816c9aa87f", "is_reserved": 0, "is_disabled": 0}, {"lat": 38.905690666666665, "fusion_lat": 0.0, "type": "electric_scooter", "bike_id": "d0be2cfae6025cd4816bee3188f37389", "rental_uris": {"ios": "https://dc.lft.to/lastmile_qr_scan", "android": "https://dc.lft.to/lastmile_qr_scan"}, "fusion_lon": 0.0, "lon": -77.00283616666667, "name": "d0be2cfae6025cd4816bee3188f37389", "is_reserved": 0, "is_disabled": 0}, {"lat": 38.862683833333335, "fusion_lat": 0.0, "type": "electric_scooter", "bike_id": "43327682c0c5a9a47ea4477098aba3b3", "rental_uris": {"ios": "https://dc.lft.to/lastmile_qr_scan", "android": "https://dc.lft.to/lastmile_qr_scan"}, "fusion_lon": 0.0, "lon": -76.99531066666667, "name": "43327682c0c5a9a47ea4477098aba3b3", "is_reserved": 0, "is_disabled": 0}, {"lat": 38.92275016666667, "fusion_lat": 0.0, "type": "electric_bike", "bike_id": "9a80b37961e9ed517f7531ad69f1a6c7", "rental_uris": {"ios": "https://dc.lft.to/lastmile_qr_scan", "android": "https://dc.lft.to/lastmile_qr_scan"}, "fusion_lon": 0.0, "lon": -76.99756116666667, "name": "9a80b37961e9ed517f7531ad69f1a6c7", "is_reserved": 0, "is_disabled": 0}, {"lat": 38.871566333333334, "fusion_lat": 0.0, "type": "electric_scooter", "bike_id": "5d40a202ff4648786ab0ae9b51d248df", "rental_uris": {"ios": "https://dc.lft.to/lastmile_qr_scan", "android": "https://dc.lft.to/lastmile_qr_scan"}, "fusion_lon": 0.0, "lon": -77.00707983333334, "name": "5d40a202ff4648786ab0ae9b51d248df", "is_reserved": 0, "is_disabled": 0}, {"lat": 38.8874345, "fusion_lat": 0.0, "type": "electric_scooter", "bike_id": "d12a5f1be5bd7f41a6977c98ad18fb17", "rental_uris": {"ios": "https://dc.lft.to/lastmile_qr_scan", "android": "https://dc.lft.to/lastmile_qr_scan"}, "fusion_lon": 0.0, "lon": -77.02125116666667, "name": "d12a5f1be5bd7f41a6977c98ad18fb17", "is_reserved": 0, "is_disabled": 0}, {"lat": 38.892238, "fusion_lat": 0.0, "type": "electric_scooter", "bike_id": "26fea749d7869bd5708e207b201f01c9", "rental_uris": {"ios": "https://dc.lft.to/lastmile_qr_scan", "android": "https://dc.lft.to/lastmile_qr_scan"}, "fusion_lon": 0.0, "lon": -77.045055, "name": "26fea749d7869bd5708e207b201f01c9", "is_reserved": 0, "is_disabled": 0}, {"lat": 38.89848, "fusion_lat": 0.0, "type": "electric_scooter", "bike_id": "dc338060154cb0e8a97834243876ce98", "rental_uris": {"ios": "https://dc.lft.to/lastmile_qr_scan", "android": "https://dc.lft.to/lastmile_qr_scan"}, "fusion_lon": 0.0, "lon": -77.04363866666667, "name": "dc338060154cb0e8a97834243876ce98", "is_reserved": 0, "is_disabled": 0}, {"lat": 38.9169355, "fusion_lat": 0.0, "type": "electric_scooter", "bike_id": "a4101f4bab63efca7577a55971237d53", "rental_uris": {"ios": "https://dc.lft.to/lastmile_qr_scan", "android": "https://dc.lft.to/lastmile_qr_scan"}, "fusion_lon": 0.0, "lon": -77.027429, "name": "a4101f4bab63efca7577a55971237d53", "is_reserved": 0, "is_disabled": 0}, {"lat": 38.8927445, "fusion_lat": 0.0, "type": "electric_scooter", "bike_id": "2c93b0024e564efd0e349dda51538abe", "rental_uris": {"ios": "https://dc.lft.to/lastmile_qr_scan", "android": "https://dc.lft.to/lastmile_qr_scan"}, "fusion_lon": 0.0, "lon": -77.04670883333333, "name": "2c93b0024e564efd0e349dda51538abe", "is_reserved": 0, "is_disabled": 0}, {"lat": 38.88747333333333, "fusion_lat": 0.0, "type": "electric_scooter", "bike_id": "79607a3eb6e02cc30ea4d2e6da4ac43b", "rental_uris": {"ios": "https://dc.lft.to/lastmile_qr_scan", "android": "https://dc.lft.to/lastmile_qr_scan"}, "fusion_lon": 0.0, "lon": -77.01402033333333, "name": "79607a3eb6e02cc30ea4d2e6da4ac43b", "is_reserved": 0, "is_disabled": 0}, {"lat": 38.907628, "fusion_lat": 0.0, "type": "electric_scooter", "bike_id": "9807269519531c4d9c1bc2a9ef15ba9d", "rental_uris": {"ios": "https://dc.lft.to/lastmile_qr_scan", "android": "https://dc.lft.to/lastmile_qr_scan"}, "fusion_lon": 0.0, "lon": -77.0373865, "name": "9807269519531c4d9c1bc2a9ef15ba9d", "is_reserved": 0, "is_disabled": 0}, {"lat": 38.96148083333333, "fusion_lat": 0.0, "type": "electric_scooter", "bike_id": "b14c0bb6211966885833a324235a4b04", "rental_uris": {"ios": "https://dc.lft.to/lastmile_qr_scan", "android": "https://dc.lft.to/lastmile_qr_scan"}, "fusion_lon": 0.0, "lon": -77.02777883333333, "name": "b14c0bb6211966885833a324235a4b04", "is_reserved": 0, "is_disabled": 0}, {"lat": 38.917819333333334, "fusion_lat": 0.0, "type": "electric_scooter", "bike_id": "25fdfa6530e41874094471a2081347a5", "rental_uris": {"ios": "https://dc.lft.to/lastmile_qr_scan", "android": "https://dc.lft.to/lastmile_qr_scan"}, "fusion_lon": 0.0, "lon": -77.04071166666667, "name": "25fdfa6530e41874094471a2081347a5", "is_reserved": 0, "is_disabled": 0}, {"lat": 38.87149733333333, "fusion_lat": 0.0, "type": "electric_scooter", "bike_id": "23504dee7639d38564a974b60fcffafc", "rental_uris": {"ios": "https://dc.lft.to/lastmile_qr_scan", "android": "https://dc.lft.to/lastmile_qr_scan"}, "fusion_lon": 0.0, "lon": -77.00681616666667, "name": "23504dee7639d38564a974b60fcffafc", "is_reserved": 0, "is_disabled": 0}, {"lat": 38.907708666666664, "fusion_lat": 0.0, "type": "electric_scooter", "bike_id": "0b20837c80b31768fd7aa29521fe38da", "rental_uris": {"ios": "https://dc.lft.to/lastmile_qr_scan", "android": "https://dc.lft.to/lastmile_qr_scan"}, "fusion_lon": 0.0, "lon": -77.00384333333334, "name": "0b20837c80b31768fd7aa29521fe38da", "is_reserved": 0, "is_disabled": 0}, {"lat": 38.81255133333333, "fusion_lat": 0.0, "type": "electric_bike", "bike_id": "82be72d4fe899c814fadf2e77d47c649", "rental_uris": {"ios": "https://dc.lft.to/lastmile_qr_scan", "android": "https://dc.lft.to/lastmile_qr_scan"}, "fusion_lon": 0.0, "lon": -77.11761516666667, "name": "82be72d4fe899c814fadf2e77d47c649", "is_reserved": 0, "is_disabled": 0}, {"lat": 38.91949783333333, "fusion_lat": 0.0, "type": "electric_scooter", "bike_id": "71d65858e8f49183629553a9e33ae49f", "rental_uris": {"ios": "https://dc.lft.to/lastmile_qr_scan", "android": "https://dc.lft.to/lastmile_qr_scan"}, "fusion_lon": 0.0, "lon": -77.01898633333333, "name": "71d65858e8f49183629553a9e33ae49f", "is_reserved": 0, "is_disabled": 0}, {"lat": 38.90419983333334, "fusion_lat": 0.0, "type": "electric_scooter", "bike_id": "e75e4e7daecd1a2621ab25b2246c8c0e", "rental_uris": {"ios": "https://dc.lft.to/lastmile_qr_scan", "android": "https://dc.lft.to/lastmile_qr_scan"}, "fusion_lon": 0.0, "lon": -77.04656716666666, "name": "e75e4e7daecd1a2621ab25b2246c8c0e", "is_reserved": 0, "is_disabled": 0}, {"lat": 38.90121283333333, "fusion_lat": 0.0, "type": "electric_scooter", "bike_id": "d974f1d9e0fe92dbe6ac38209e4f7a37", "rental_uris": {"ios": "https://dc.lft.to/lastmile_qr_scan", "android": "https://dc.lft.to/lastmile_qr_scan"}, "fusion_lon": 0.0, "lon": -77.027319, "name": "d974f1d9e0fe92dbe6ac38209e4f7a37", "is_reserved": 0, "is_disabled": 0}, {"lat": 38.918155, "fusion_lat": 0.0, "type": "electric_scooter", "bike_id": "387460b98b199f2dadf942abb9ff4f91", "rental_uris": {"ios": "https://dc.lft.to/lastmile_qr_scan", "android": "https://dc.lft.to/lastmile_qr_scan"}, "fusion_lon": 0.0, "lon": -77.03461016666667, "name": "387460b98b199f2dadf942abb9ff4f91", "is_reserved": 0, "is_disabled": 0}, {"lat": 38.90199066666667, "fusion_lat": 0.0, "type": "electric_scooter", "bike_id": "dd000251c2fdf62d7b4153755b60bbf6", "rental_uris": {"ios": "https://dc.lft.to/lastmile_qr_scan", "android": "https://dc.lft.to/lastmile_qr_scan"}, "fusion_lon": 0.0, "lon": -77.02372983333333, "name": "dd000251c2fdf62d7b4153755b60bbf6", "is_reserved": 0, "is_disabled": 0}, {"lat": 38.917811666666665, "fusion_lat": 0.0, "type": "electric_scooter", "bike_id": "4f9d5bfe97d30c68023436181f5212a1", "rental_uris": {"ios": "https://dc.lft.to/lastmile_qr_scan", "android": "https://dc.lft.to/lastmile_qr_scan"}, "fusion_lon": 0.0, "lon": -77.03189433333333, "name": "4f9d5bfe97d30c68023436181f5212a1", "is_reserved": 0, "is_disabled": 0}, {"lat": 38.9074095, "fusion_lat": 0.0, "type": "electric_scooter", "bike_id": "a838b3bf88960b792d7d00bbde41405e", "rental_uris": {"ios": "https://dc.lft.to/lastmile_qr_scan", "android": "https://dc.lft.to/lastmile_qr_scan"}, "fusion_lon": 0.0, "lon": -77.00310683333333, "name": "a838b3bf88960b792d7d00bbde41405e", "is_reserved": 0, "is_disabled": 0}, {"lat": 38.9203885, "fusion_lat": 0.0, "type": "electric_bike", "bike_id": "17a30ef1df6f565bbd2f011b149aa300", "rental_uris": {"ios": "https://dc.lft.to/lastmile_qr_scan", "android": "https://dc.lft.to/lastmile_qr_scan"}, "fusion_lon": 0.0, "lon": -76.97956033333334, "name": "17a30ef1df6f565bbd2f011b149aa300", "is_reserved": 0, "is_disabled": 0}, {"lat": 38.92462483333333, "fusion_lat": 0.0, "type": "electric_scooter", "bike_id": "b5a0089afa725f9b1aef0a50e56161dd", "rental_uris": {"ios": "https://dc.lft.to/lastmile_qr_scan", "android": "https://dc.lft.to/lastmile_qr_scan"}, "fusion_lon": 0.0, "lon": -77.02152883333333, "name": "b5a0089afa725f9b1aef0a50e56161dd", "is_reserved": 0, "is_disabled": 0}, {"lat": 38.90743766666667, "fusion_lat": 0.0, "type": "electric_scooter", "bike_id": "d4fb6ddfc1669f1f684961bc5e7fd4c3", "rental_uris": {"ios": "https://dc.lft.to/lastmile_qr_scan", "android": "https://dc.lft.to/lastmile_qr_scan"}, "fusion_lon": 0.0, "lon": -77.04294633333333, "name": "d4fb6ddfc1669f1f684961bc5e7fd4c3", "is_reserved": 0, "is_disabled": 0}, {"lat": 38.9735345, "fusion_lat": 0.0, "type": "electric_scooter", "bike_id": "8be0d9f595dfbb4d9a379fcde3c776c0", "rental_uris": {"ios": "https://dc.lft.to/lastmile_qr_scan", "android": "https://dc.lft.to/lastmile_qr_scan"}, "fusion_lon": 0.0, "lon": -77.0278325, "name": "8be0d9f595dfbb4d9a379fcde3c776c0", "is_reserved": 0, "is_disabled": 0}, {"lat": 38.90837883333333, "fusion_lat": 0.0, "type": "electric_scooter", "bike_id": "f8288cae85c98bd4db375ddd6a9edbee", "rental_uris": {"ios": "https://dc.lft.to/lastmile_qr_scan", "android": "https://dc.lft.to/lastmile_qr_scan"}, "fusion_lon": 0.0, "lon": -77.06379716666666, "name": "f8288cae85c98bd4db375ddd6a9edbee", "is_reserved": 0, "is_disabled": 0}, {"lat": 38.944306166666664, "fusion_lat": 0.0, "type": "electric_scooter", "bike_id": "9d0dc3ac49097803d06a44348df6cab9", "rental_uris": {"ios": "https://dc.lft.to/lastmile_qr_scan", "android": "https://dc.lft.to/lastmile_qr_scan"}, "fusion_lon": 0.0, "lon": -77.0632005, "name": "9d0dc3ac49097803d06a44348df6cab9", "is_reserved": 0, "is_disabled": 0}, {"lat": 38.8870825, "fusion_lat": 0.0, "type": "electric_scooter", "bike_id": "670ae8934449ea98723d6e55a80228bf", "rental_uris": {"ios": "https://dc.lft.to/lastmile_qr_scan", "android": "https://dc.lft.to/lastmile_qr_scan"}, "fusion_lon": 0.0, "lon": -77.0136215, "name": "670ae8934449ea98723d6e55a80228bf", "is_reserved": 0, "is_disabled": 0}, {"lat": 38.945047833333334, "fusion_lat": 0.0, "type": "electric_scooter", "bike_id": "b3309e24ae0ae5727956d6924629f8c3", "rental_uris": {"ios": "https://dc.lft.to/lastmile_qr_scan", "android": "https://dc.lft.to/lastmile_qr_scan"}, "fusion_lon": 0.0, "lon": -77.03830833333333, "name": "b3309e24ae0ae5727956d6924629f8c3", "is_reserved": 0, "is_disabled": 0}, {"lat": 38.9288815, "fusion_lat": 0.0, "type": "electric_scooter", "bike_id": "95cf65a7b5597b0a5093e04354c5fd98", "rental_uris": {"ios": "https://dc.lft.to/lastmile_qr_scan", "android": "https://dc.lft.to/lastmile_qr_scan"}, "fusion_lon": 0.0, "lon": -77.03259483333333, "name": "95cf65a7b5597b0a5093e04354c5fd98", "is_reserved": 0, "is_disabled": 0}, {"lat": 38.90266966666667, "fusion_lat": 0.0, "type": "electric_scooter", "bike_id": "fd1e0f857fc3ac4bdbebe28e3d65c487", "rental_uris": {"ios": "https://dc.lft.to/lastmile_qr_scan", "android": "https://dc.lft.to/lastmile_qr_scan"}, "fusion_lon": 0.0, "lon": -77.04341566666666, "name": "fd1e0f857fc3ac4bdbebe28e3d65c487", "is_reserved": 0, "is_disabled": 0}, {"lat": 38.920868166666665, "fusion_lat": 0.0, "type": "electric_scooter", "bike_id": "b797b04e92cb96177f1594d148ca17c4", "rental_uris": {"ios": "https://dc.lft.to/lastmile_qr_scan", "android": "https://dc.lft.to/lastmile_qr_scan"}, "fusion_lon": 0.0, "lon": -77.022952, "name": "b797b04e92cb96177f1594d148ca17c4", "is_reserved": 0, "is_disabled": 0}, {"lat": 38.906894, "fusion_lat": 0.0, "type": "electric_scooter", "bike_id": "d272d4441c31778a4c7099fa6e1b43f9", "rental_uris": {"ios": "https://dc.lft.to/lastmile_qr_scan", "android": "https://dc.lft.to/lastmile_qr_scan"}, "fusion_lon": 0.0, "lon": -77.0351715, "name": "d272d4441c31778a4c7099fa6e1b43f9", "is_reserved": 0, "is_disabled": 0}, {"lat": 38.9227165, "fusion_lat": 0.0, "type": "electric_scooter", "bike_id": "74d2a705a91b99ef1ce35e083e3923a5", "rental_uris": {"ios": "https://dc.lft.to/lastmile_qr_scan", "android": "https://dc.lft.to/lastmile_qr_scan"}, "fusion_lon": 0.0, "lon": -76.99750616666667, "name": "74d2a705a91b99ef1ce35e083e3923a5", "is_reserved": 0, "is_disabled": 0}, {"lat": 38.903199, "fusion_lat": 0.0, "type": "electric_scooter", "bike_id": "25af5dc90cfd566fcf6bf87de0f2d117", "rental_uris": {"ios": "https://dc.lft.to/lastmile_qr_scan", "android": "https://dc.lft.to/lastmile_qr_scan"}, "fusion_lon": 0.0, "lon": -77.04333483333333, "name": "25af5dc90cfd566fcf6bf87de0f2d117", "is_reserved": 0, "is_disabled": 0}, {"lat": 38.88112666666667, "fusion_lat": 0.0, "type": "electric_scooter", "bike_id": "f99906ed5108f385370ecdd7ca7af1cf", "rental_uris": {"ios": "https://dc.lft.to/lastmile_qr_scan", "android": "https://dc.lft.to/lastmile_qr_scan"}, "fusion_lon": 0.0, "lon": -77.016569, "name": "f99906ed5108f385370ecdd7ca7af1cf", "is_reserved": 0, "is_disabled": 0}, {"lat": 38.898471666666666, "fusion_lat": 0.0, "type": "electric_scooter", "bike_id": "d7d132bed431d91013d5eadaabde378e", "rental_uris": {"ios": "https://dc.lft.to/lastmile_qr_scan", "android": "https://dc.lft.to/lastmile_qr_scan"}, "fusion_lon": 0.0, "lon": -76.9425085, "name": "d7d132bed431d91013d5eadaabde378e", "is_reserved": 0, "is_disabled": 0}, {"lat": 38.93900566666667, "fusion_lat": 0.0, "type": "electric_scooter", "bike_id": "765d1bc6c99617bc40efa23beec8ded9", "rental_uris": {"ios": "https://dc.lft.to/lastmile_qr_scan", "android": "https://dc.lft.to/lastmile_qr_scan"}, "fusion_lon": 0.0, "lon": -76.98604216666666, "name": "765d1bc6c99617bc40efa23beec8ded9", "is_reserved": 0, "is_disabled": 0}, {"lat": 38.91693883333333, "fusion_lat": 0.0, "type": "electric_scooter", "bike_id": "d052eb9d3115874f9a40947c9ae4db6a", "rental_uris": {"ios": "https://dc.lft.to/lastmile_qr_scan", "android": "https://dc.lft.to/lastmile_qr_scan"}, "fusion_lon": 0.0, "lon": -77.02904433333333, "name": "d052eb9d3115874f9a40947c9ae4db6a", "is_reserved": 0, "is_disabled": 0}, {"lat": 38.91819916666667, "fusion_lat": 0.0, "type": "electric_scooter", "bike_id": "e182a7ae58879019b5f1ac5c0df62566", "rental_uris": {"ios": "https://dc.lft.to/lastmile_qr_scan", "android": "https://dc.lft.to/lastmile_qr_scan"}, "fusion_lon": 0.0, "lon": -77.012064, "name": "e182a7ae58879019b5f1ac5c0df62566", "is_reserved": 0, "is_disabled": 0}, {"lat": 38.897332666666664, "fusion_lat": 0.0, "type": "electric_scooter", "bike_id": "8ac4720573206bf6adbe467357991af6", "rental_uris": {"ios": "https://dc.lft.to/lastmile_qr_scan", "android": "https://dc.lft.to/lastmile_qr_scan"}, "fusion_lon": 0.0, "lon": -77.04960433333333, "name": "8ac4720573206bf6adbe467357991af6", "is_reserved": 0, "is_disabled": 0}, {"lat": 38.89990983333333, "fusion_lat": 0.0, "type": "electric_scooter", "bike_id": "96b0e954100a68a22a9cd85cfa75bb6e", "rental_uris": {"ios": "https://dc.lft.to/lastmile_qr_scan", "android": "https://dc.lft.to/lastmile_qr_scan"}, "fusion_lon": 0.0, "lon": -77.0013975, "name": "96b0e954100a68a22a9cd85cfa75bb6e", "is_reserved": 0, "is_disabled": 0}, {"lat": 38.924993666666666, "fusion_lat": 0.0, "type": "electric_scooter", "bike_id": "531cbbfbda25805adf89edca07e1a215", "rental_uris": {"ios": "https://dc.lft.to/lastmile_qr_scan", "android": "https://dc.lft.to/lastmile_qr_scan"}, "fusion_lon": 0.0, "lon": -77.03921516666666, "name": "531cbbfbda25805adf89edca07e1a215", "is_reserved": 0, "is_disabled": 0}, {"lat": 38.87456066666667, "fusion_lat": 0.0, "type": "electric_scooter", "bike_id": "0c6bc0b530c248d65d9445ad6c839508", "rental_uris": {"ios": "https://dc.lft.to/lastmile_qr_scan", "android": "https://dc.lft.to/lastmile_qr_scan"}, "fusion_lon": 0.0, "lon": -77.0054065, "name": "0c6bc0b530c248d65d9445ad6c839508", "is_reserved": 0, "is_disabled": 0}, {"lat": 38.91628933333333, "fusion_lat": 0.0, "type": "electric_scooter", "bike_id": "7811c1fb1bdd041b3212e020dedc01b9", "rental_uris": {"ios": "https://dc.lft.to/lastmile_qr_scan", "android": "https://dc.lft.to/lastmile_qr_scan"}, "fusion_lon": 0.0, "lon": -77.0268945, "name": "7811c1fb1bdd041b3212e020dedc01b9", "is_reserved": 0, "is_disabled": 0}, {"lat": 38.911123833333335, "fusion_lat": 0.0, "type": "electric_scooter", "bike_id": "5a568eea6bf9ee0f14e75313fe920fc6", "rental_uris": {"ios": "https://dc.lft.to/lastmile_qr_scan", "android": "https://dc.lft.to/lastmile_qr_scan"}, "fusion_lon": 0.0, "lon": -77.04472266666667, "name": "5a568eea6bf9ee0f14e75313fe920fc6", "is_reserved": 0, "is_disabled": 0}, {"lat": 38.920267333333335, "fusion_lat": 0.0, "type": "electric_scooter", "bike_id": "bf53bfac5bdb5eef37f8cc6f4577913e", "rental_uris": {"ios": "https://dc.lft.to/lastmile_qr_scan", "android": "https://dc.lft.to/lastmile_qr_scan"}, "fusion_lon": 0.0, "lon": -77.03850616666666, "name": "bf53bfac5bdb5eef37f8cc6f4577913e", "is_reserved": 0, "is_disabled": 0}, {"lat": 38.924975833333335, "fusion_lat": 0.0, "type": "electric_scooter", "bike_id": "4d340e7a21a9c8a9bbff02f3ee0923fa", "rental_uris": {"ios": "https://dc.lft.to/lastmile_qr_scan", "android": "https://dc.lft.to/lastmile_qr_scan"}, "fusion_lon": 0.0, "lon": -77.02449316666667, "name": "4d340e7a21a9c8a9bbff02f3ee0923fa", "is_reserved": 0, "is_disabled": 0}, {"lat": 38.903667, "fusion_lat": 0.0, "type": "electric_scooter", "bike_id": "2114ccda88bf7bda02dc97313f36d20d", "rental_uris": {"ios": "https://dc.lft.to/lastmile_qr_scan", "android": "https://dc.lft.to/lastmile_qr_scan"}, "fusion_lon": 0.0, "lon": -77.034197, "name": "2114ccda88bf7bda02dc97313f36d20d", "is_reserved": 0, "is_disabled": 0}, {"lat": 38.90648183333333, "fusion_lat": 0.0, "type": "electric_scooter", "bike_id": "101c52cfb4fd4782eba35024b1f0ae47", "rental_uris": {"ios": "https://dc.lft.to/lastmile_qr_scan", "android": "https://dc.lft.to/lastmile_qr_scan"}, "fusion_lon": 0.0, "lon": -77.038938, "name": "101c52cfb4fd4782eba35024b1f0ae47", "is_reserved": 0, "is_disabled": 0}, {"lat": 38.924522333333336, "fusion_lat": 0.0, "type": "electric_scooter", "bike_id": "43f8f97d5fbd5041de3e1aa085af6ed8", "rental_uris": {"ios": "https://dc.lft.to/lastmile_qr_scan", "android": "https://dc.lft.to/lastmile_qr_scan"}, "fusion_lon": 0.0, "lon": -77.0201805, "name": "43f8f97d5fbd5041de3e1aa085af6ed8", "is_reserved": 0, "is_disabled": 0}, {"lat": 38.90062416666667, "fusion_lat": 0.0, "type": "electric_scooter", "bike_id": "a253c08fbe2c41c622c706cf7fcdfe70", "rental_uris": {"ios": "https://dc.lft.to/lastmile_qr_scan", "android": "https://dc.lft.to/lastmile_qr_scan"}, "fusion_lon": 0.0, "lon": -77.05429, "name": "a253c08fbe2c41c622c706cf7fcdfe70", "is_reserved": 0, "is_disabled": 0}, {"lat": 38.905531, "fusion_lat": 0.0, "type": "electric_scooter", "bike_id": "b250aa85c28bc980647712eed90f35f1", "rental_uris": {"ios": "https://dc.lft.to/lastmile_qr_scan", "android": "https://dc.lft.to/lastmile_qr_scan"}, "fusion_lon": 0.0, "lon": -76.99458766666666, "name": "b250aa85c28bc980647712eed90f35f1", "is_reserved": 0, "is_disabled": 0}, {"lat": 38.914942833333335, "fusion_lat": 0.0, "type": "electric_scooter", "bike_id": "a721d8eb44bc9fd60b39a8c24b136f8b", "rental_uris": {"ios": "https://dc.lft.to/lastmile_qr_scan", "android": "https://dc.lft.to/lastmile_qr_scan"}, "fusion_lon": 0.0, "lon": -77.01857666666666, "name": "a721d8eb44bc9fd60b39a8c24b136f8b", "is_reserved": 0, "is_disabled": 0}, {"lat": 38.914771333333334, "fusion_lat": 0.0, "type": "electric_scooter", "bike_id": "0d0385f59741024217c38a7730989ed0", "rental_uris": {"ios": "https://dc.lft.to/lastmile_qr_scan", "android": "https://dc.lft.to/lastmile_qr_scan"}, "fusion_lon": 0.0, "lon": -77.02450566666667, "name": "0d0385f59741024217c38a7730989ed0", "is_reserved": 0, "is_disabled": 0}, {"lat": 38.892228333333335, "fusion_lat": 0.0, "type": "electric_scooter", "bike_id": "9aaacf302821b81ad01fea363b00a358", "rental_uris": {"ios": "https://dc.lft.to/lastmile_qr_scan", "android": "https://dc.lft.to/lastmile_qr_scan"}, "fusion_lon": 0.0, "lon": -77.02652183333333, "name": "9aaacf302821b81ad01fea363b00a358", "is_reserved": 0, "is_disabled": 0}, {"lat": 38.879352833333336, "fusion_lat": 0.0, "type": "electric_scooter", "bike_id": "69916a50bebfa0b62105f772296da060", "rental_uris": {"ios": "https://dc.lft.to/lastmile_qr_scan", "android": "https://dc.lft.to/lastmile_qr_scan"}, "fusion_lon": 0.0, "lon": -77.004052, "name": "69916a50bebfa0b62105f772296da060", "is_reserved": 0, "is_disabled": 0}, {"lat": 38.883855, "fusion_lat": 0.0, "type": "electric_scooter", "bike_id": "82bc757f2e0b429904408d70a5e859d8", "rental_uris": {"ios": "https://dc.lft.to/lastmile_qr_scan", "android": "https://dc.lft.to/lastmile_qr_scan"}, "fusion_lon": 0.0, "lon": -76.99554933333333, "name": "82bc757f2e0b429904408d70a5e859d8", "is_reserved": 0, "is_disabled": 0}, {"lat": 38.9209165, "fusion_lat": 0.0, "type": "electric_scooter", "bike_id": "814edab443cfa8cdab2f3973c75669e9", "rental_uris": {"ios": "https://dc.lft.to/lastmile_qr_scan", "android": "https://dc.lft.to/lastmile_qr_scan"}, "fusion_lon": 0.0, "lon": -77.07551233333334, "name": "814edab443cfa8cdab2f3973c75669e9", "is_reserved": 0, "is_disabled": 0}, {"lat": 38.9022685, "fusion_lat": 0.0, "type": "electric_scooter", "bike_id": "6994e70fffbb1f43d4d82a873a4a276a", "rental_uris": {"ios": "https://dc.lft.to/lastmile_qr_scan", "android": "https://dc.lft.to/lastmile_qr_scan"}, "fusion_lon": 0.0, "lon": -76.94193383333334, "name": "6994e70fffbb1f43d4d82a873a4a276a", "is_reserved": 0, "is_disabled": 0}, {"lat": 38.9191665, "fusion_lat": 0.0, "type": "electric_scooter", "bike_id": "da8a8a457d51bb69da96ffd410ad37b8", "rental_uris": {"ios": "https://dc.lft.to/lastmile_qr_scan", "android": "https://dc.lft.to/lastmile_qr_scan"}, "fusion_lon": 0.0, "lon": -77.01198233333334, "name": "da8a8a457d51bb69da96ffd410ad37b8", "is_reserved": 0, "is_disabled": 0}, {"lat": 38.91489166666667, "fusion_lat": 0.0, "type": "electric_scooter", "bike_id": "fc267d43e505d797b6468a62036e1eb2", "rental_uris": {"ios": "https://dc.lft.to/lastmile_qr_scan", "android": "https://dc.lft.to/lastmile_qr_scan"}, "fusion_lon": 0.0, "lon": -77.0459795, "name": "fc267d43e505d797b6468a62036e1eb2", "is_reserved": 0, "is_disabled": 0}, {"lat": 38.90884483333333, "fusion_lat": 0.0, "type": "electric_scooter", "bike_id": "36fe5cbbd850321f153edaad639111b2", "rental_uris": {"ios": "https://dc.lft.to/lastmile_qr_scan", "android": "https://dc.lft.to/lastmile_qr_scan"}, "fusion_lon": 0.0, "lon": -77.04328783333334, "name": "36fe5cbbd850321f153edaad639111b2", "is_reserved": 0, "is_disabled": 0}, {"lat": 38.896482666666664, "fusion_lat": 0.0, "type": "electric_scooter", "bike_id": "b9f24eed2d46e7480e82b63c19e979ab", "rental_uris": {"ios": "https://dc.lft.to/lastmile_qr_scan", "android": "https://dc.lft.to/lastmile_qr_scan"}, "fusion_lon": 0.0, "lon": -77.009127, "name": "b9f24eed2d46e7480e82b63c19e979ab", "is_reserved": 0, "is_disabled": 0}, {"lat": 38.901443666666665, "fusion_lat": 0.0, "type": "electric_scooter", "bike_id": "640eb87a77b6fe73584dc7ae97841104", "rental_uris": {"ios": "https://dc.lft.to/lastmile_qr_scan", "android": "https://dc.lft.to/lastmile_qr_scan"}, "fusion_lon": 0.0, "lon": -77.01657416666667, "name": "640eb87a77b6fe73584dc7ae97841104", "is_reserved": 0, "is_disabled": 0}, {"lat": 38.9009735, "fusion_lat": 0.0, "type": "electric_scooter", "bike_id": "2c06baa8d14aec292509a30e110823c4", "rental_uris": {"ios": "https://dc.lft.to/lastmile_qr_scan", "android": "https://dc.lft.to/lastmile_qr_scan"}, "fusion_lon": 0.0, "lon": -77.04369533333333, "name": "2c06baa8d14aec292509a30e110823c4", "is_reserved": 0, "is_disabled": 0}, {"lat": 38.9195385, "fusion_lat": 0.0, "type": "electric_scooter", "bike_id": "554f1a721ee952f73b46a583f9d97bf4", "rental_uris": {"ios": "https://dc.lft.to/lastmile_qr_scan", "android": "https://dc.lft.to/lastmile_qr_scan"}, "fusion_lon": 0.0, "lon": -77.018931, "name": "554f1a721ee952f73b46a583f9d97bf4", "is_reserved": 0, "is_disabled": 0}, {"lat": 38.894623, "fusion_lat": 0.0, "type": "electric_scooter", "bike_id": "8b4aa3207e41233231414cd5aa1b286a", "rental_uris": {"ios": "https://dc.lft.to/lastmile_qr_scan", "android": "https://dc.lft.to/lastmile_qr_scan"}, "fusion_lon": 0.0, "lon": -77.0225395, "name": "8b4aa3207e41233231414cd5aa1b286a", "is_reserved": 0, "is_disabled": 0}, {"lat": 38.8972935, "fusion_lat": 0.0, "type": "electric_scooter", "bike_id": "aedb79a231f37ada0f2ad4765c5d6a98", "rental_uris": {"ios": "https://dc.lft.to/lastmile_qr_scan", "android": "https://dc.lft.to/lastmile_qr_scan"}, "fusion_lon": 0.0, "lon": -77.05522283333333, "name": "aedb79a231f37ada0f2ad4765c5d6a98", "is_reserved": 0, "is_disabled": 0}, {"lat": 38.916130333333335, "fusion_lat": 0.0, "type": "electric_scooter", "bike_id": "e69d7e3ffbc54d1192a95fd289ccf3d9", "rental_uris": {"ios": "https://dc.lft.to/lastmile_qr_scan", "android": "https://dc.lft.to/lastmile_qr_scan"}, "fusion_lon": 0.0, "lon": -77.02293683333333, "name": "e69d7e3ffbc54d1192a95fd289ccf3d9", "is_reserved": 0, "is_disabled": 0}, {"lat": 38.907432666666665, "fusion_lat": 0.0, "type": "electric_scooter", "bike_id": "4fedac608c3117c9aa7c3535fa6f7438", "rental_uris": {"ios": "https://dc.lft.to/lastmile_qr_scan", "android": "https://dc.lft.to/lastmile_qr_scan"}, "fusion_lon": 0.0, "lon": -77.003635, "name": "4fedac608c3117c9aa7c3535fa6f7438", "is_reserved": 0, "is_disabled": 0}, {"lat": 38.9391155, "fusion_lat": 0.0, "type": "electric_scooter", "bike_id": "8fbd434cd578e0796ddf721f0b81206f", "rental_uris": {"ios": "https://dc.lft.to/lastmile_qr_scan", "android": "https://dc.lft.to/lastmile_qr_scan"}, "fusion_lon": 0.0, "lon": -77.02475083333333, "name": "8fbd434cd578e0796ddf721f0b81206f", "is_reserved": 0, "is_disabled": 0}, {"lat": 38.9234425, "fusion_lat": 0.0, "type": "electric_scooter", "bike_id": "a1fe683c8f2301bbf7bab23696b245cc", "rental_uris": {"ios": "https://dc.lft.to/lastmile_qr_scan", "android": "https://dc.lft.to/lastmile_qr_scan"}, "fusion_lon": 0.0, "lon": -77.05171683333333, "name": "a1fe683c8f2301bbf7bab23696b245cc", "is_reserved": 0, "is_disabled": 0}, {"lat": 38.892187166666666, "fusion_lat": 0.0, "type": "electric_scooter", "bike_id": "59368e9943c142a1243e388a2578f48d", "rental_uris": {"ios": "https://dc.lft.to/lastmile_qr_scan", "android": "https://dc.lft.to/lastmile_qr_scan"}, "fusion_lon": 0.0, "lon": -77.02759866666666, "name": "59368e9943c142a1243e388a2578f48d", "is_reserved": 0, "is_disabled": 0}, {"lat": 38.90140383333333, "fusion_lat": 0.0, "type": "electric_scooter", "bike_id": "c786b7f5950d2e0336f712e27c480f74", "rental_uris": {"ios": "https://dc.lft.to/lastmile_qr_scan", "android": "https://dc.lft.to/lastmile_qr_scan"}, "fusion_lon": 0.0, "lon": -77.04437666666666, "name": "c786b7f5950d2e0336f712e27c480f74", "is_reserved": 0, "is_disabled": 0}, {"lat": 38.90777683333334, "fusion_lat": 0.0, "type": "electric_scooter", "bike_id": "2f07a04f25cd4f03fa7d678362bab39e", "rental_uris": {"ios": "https://dc.lft.to/lastmile_qr_scan", "android": "https://dc.lft.to/lastmile_qr_scan"}, "fusion_lon": 0.0, "lon": -77.07169033333334, "name": "2f07a04f25cd4f03fa7d678362bab39e", "is_reserved": 0, "is_disabled": 0}, {"lat": 38.93540483333334, "fusion_lat": 0.0, "type": "electric_scooter", "bike_id": "234504ac77468ee2dd2d3cdc6d550f91", "rental_uris": {"ios": "https://dc.lft.to/lastmile_qr_scan", "android": "https://dc.lft.to/lastmile_qr_scan"}, "fusion_lon": 0.0, "lon": -77.05742183333334, "name": "234504ac77468ee2dd2d3cdc6d550f91", "is_reserved": 0, "is_disabled": 0}, {"lat": 38.938504333333334, "fusion_lat": 0.0, "type": "electric_scooter", "bike_id": "72c22b048b0ce1cef19d55a0ddc945b3", "rental_uris": {"ios": "https://dc.lft.to/lastmile_qr_scan", "android": "https://dc.lft.to/lastmile_qr_scan"}, "fusion_lon": 0.0, "lon": -77.07230166666666, "name": "72c22b048b0ce1cef19d55a0ddc945b3", "is_reserved": 0, "is_disabled": 0}, {"lat": 38.918132166666666, "fusion_lat": 0.0, "type": "electric_scooter", "bike_id": "9297cd8bbd2f634eb5dc4956e7d32702", "rental_uris": {"ios": "https://dc.lft.to/lastmile_qr_scan", "android": "https://dc.lft.to/lastmile_qr_scan"}, "fusion_lon": 0.0, "lon": -77.03563066666666, "name": "9297cd8bbd2f634eb5dc4956e7d32702", "is_reserved": 0, "is_disabled": 0}, {"lat": 38.919981666666665, "fusion_lat": 0.0, "type": "electric_scooter", "bike_id": "9c1266a9e215b714609bd069bf6f9454", "rental_uris": {"ios": "https://dc.lft.to/lastmile_qr_scan", "android": "https://dc.lft.to/lastmile_qr_scan"}, "fusion_lon": 0.0, "lon": -77.02371616666667, "name": "9c1266a9e215b714609bd069bf6f9454", "is_reserved": 0, "is_disabled": 0}, {"lat": 38.855124833333335, "fusion_lat": 0.0, "type": "electric_scooter", "bike_id": "d5d9937c45fcf3f2839dee63e24b98f1", "rental_uris": {"ios": "https://dc.lft.to/lastmile_qr_scan", "android": "https://dc.lft.to/lastmile_qr_scan"}, "fusion_lon": 0.0, "lon": -76.98933266666667, "name": "d5d9937c45fcf3f2839dee63e24b98f1", "is_reserved": 0, "is_disabled": 0}, {"lat": 38.89300016666667, "fusion_lat": 0.0, "type": "electric_scooter", "bike_id": "4a3197c2b8497c4b6bd7991cf8224b5c", "rental_uris": {"ios": "https://dc.lft.to/lastmile_qr_scan", "android": "https://dc.lft.to/lastmile_qr_scan"}, "fusion_lon": 0.0, "lon": -77.01227333333334, "name": "4a3197c2b8497c4b6bd7991cf8224b5c", "is_reserved": 0, "is_disabled": 0}, {"lat": 38.973757166666665, "fusion_lat": 0.0, "type": "electric_scooter", "bike_id": "abcb039a98dbe31c6a6b45006bde3c81", "rental_uris": {"ios": "https://dc.lft.to/lastmile_qr_scan", "android": "https://dc.lft.to/lastmile_qr_scan"}, "fusion_lon": 0.0, "lon": -77.01267716666666, "name": "abcb039a98dbe31c6a6b45006bde3c81", "is_reserved": 0, "is_disabled": 0}, {"lat": 38.966106833333335, "fusion_lat": 0.0, "type": "electric_scooter", "bike_id": "381c83f15d1a60be3e3ed9f699d744b9", "rental_uris": {"ios": "https://dc.lft.to/lastmile_qr_scan", "android": "https://dc.lft.to/lastmile_qr_scan"}, "fusion_lon": 0.0, "lon": -77.02744733333333, "name": "381c83f15d1a60be3e3ed9f699d744b9", "is_reserved": 0, "is_disabled": 0}, {"lat": 38.90670266666667, "fusion_lat": 0.0, "type": "electric_scooter", "bike_id": "7ecb4f7240b41fdd28a6102d3f6c3aa6", "rental_uris": {"ios": "https://dc.lft.to/lastmile_qr_scan", "android": "https://dc.lft.to/lastmile_qr_scan"}, "fusion_lon": 0.0, "lon": -76.98942216666667, "name": "7ecb4f7240b41fdd28a6102d3f6c3aa6", "is_reserved": 0, "is_disabled": 0}, {"lat": 38.9921325, "fusion_lat": 0.0, "type": "electric_bike", "bike_id": "715403be4a69eb4214af862dbae36b29", "rental_uris": {"ios": "https://dc.lft.to/lastmile_qr_scan", "android": "https://dc.lft.to/lastmile_qr_scan"}, "fusion_lon": 0.0, "lon": -77.03207266666666, "name": "715403be4a69eb4214af862dbae36b29", "is_reserved": 0, "is_disabled": 0}, {"lat": 38.91709266666667, "fusion_lat": 0.0, "type": "electric_scooter", "bike_id": "b0d893d21ee19e51fc6f84b833eaa395", "rental_uris": {"ios": "https://dc.lft.to/lastmile_qr_scan", "android": "https://dc.lft.to/lastmile_qr_scan"}, "fusion_lon": 0.0, "lon": -77.03247333333333, "name": "b0d893d21ee19e51fc6f84b833eaa395", "is_reserved": 0, "is_disabled": 0}, {"lat": 38.900096166666664, "fusion_lat": 0.0, "type": "electric_scooter", "bike_id": "884896295597460583b5c314704cb2ad", "rental_uris": {"ios": "https://dc.lft.to/lastmile_qr_scan", "android": "https://dc.lft.to/lastmile_qr_scan"}, "fusion_lon": 0.0, "lon": -77.00671683333333, "name": "884896295597460583b5c314704cb2ad", "is_reserved": 0, "is_disabled": 0}, {"lat": 39.07065633333333, "fusion_lat": 0.0, "type": "electric_bike", "bike_id": "85056ba7dd343563e01ab702c337e4e7", "rental_uris": {"ios": "https://dc.lft.to/lastmile_qr_scan", "android": "https://dc.lft.to/lastmile_qr_scan"}, "fusion_lon": 0.0, "lon": -77.11517633333334, "name": "85056ba7dd343563e01ab702c337e4e7", "is_reserved": 0, "is_disabled": 0}, {"lat": 38.90197216666667, "fusion_lat": 0.0, "type": "electric_scooter", "bike_id": "4e84b26ab76226ecf7fa288f1408ceb7", "rental_uris": {"ios": "https://dc.lft.to/lastmile_qr_scan", "android": "https://dc.lft.to/lastmile_qr_scan"}, "fusion_lon": 0.0, "lon": -77.02248666666667, "name": "4e84b26ab76226ecf7fa288f1408ceb7", "is_reserved": 0, "is_disabled": 0}, {"lat": 38.898885666666665, "fusion_lat": 0.0, "type": "electric_scooter", "bike_id": "b735569ea8a8dc80941bba1c5c17052b", "rental_uris": {"ios": "https://dc.lft.to/lastmile_qr_scan", "android": "https://dc.lft.to/lastmile_qr_scan"}, "fusion_lon": 0.0, "lon": -77.04865416666667, "name": "b735569ea8a8dc80941bba1c5c17052b", "is_reserved": 0, "is_disabled": 0}, {"lat": 38.897447166666666, "fusion_lat": 0.0, "type": "electric_scooter", "bike_id": "0a69d35e37779ceb5be38eeba585bf5e", "rental_uris": {"ios": "https://dc.lft.to/lastmile_qr_scan", "android": "https://dc.lft.to/lastmile_qr_scan"}, "fusion_lon": 0.0, "lon": -77.02937666666666, "name": "0a69d35e37779ceb5be38eeba585bf5e", "is_reserved": 0, "is_disabled": 0}, {"lat": 38.898952666666666, "fusion_lat": 0.0, "type": "electric_scooter", "bike_id": "4b165b0c14834f80b28ae81f1d216a94", "rental_uris": {"ios": "https://dc.lft.to/lastmile_qr_scan", "android": "https://dc.lft.to/lastmile_qr_scan"}, "fusion_lon": 0.0, "lon": -76.9808075, "name": "4b165b0c14834f80b28ae81f1d216a94", "is_reserved": 0, "is_disabled": 0}, {"lat": 38.9112755, "fusion_lat": 0.0, "type": "electric_scooter", "bike_id": "19808022cdbb8577b9e1689d317a6bd3", "rental_uris": {"ios": "https://dc.lft.to/lastmile_qr_scan", "android": "https://dc.lft.to/lastmile_qr_scan"}, "fusion_lon": 0.0, "lon": -77.02198683333333, "name": "19808022cdbb8577b9e1689d317a6bd3", "is_reserved": 0, "is_disabled": 0}, {"lat": 38.91482233333333, "fusion_lat": 0.0, "type": "electric_scooter", "bike_id": "59cc62ef60648cf9d6a80017fe2bd673", "rental_uris": {"ios": "https://dc.lft.to/lastmile_qr_scan", "android": "https://dc.lft.to/lastmile_qr_scan"}, "fusion_lon": 0.0, "lon": -77.04237883333333, "name": "59cc62ef60648cf9d6a80017fe2bd673", "is_reserved": 0, "is_disabled": 0}, {"lat": 38.899871, "fusion_lat": 0.0, "type": "electric_scooter", "bike_id": "c3d42b8f016907b4d297fcb0b9abbe03", "rental_uris": {"ios": "https://dc.lft.to/lastmile_qr_scan", "android": "https://dc.lft.to/lastmile_qr_scan"}, "fusion_lon": 0.0, "lon": -77.0394875, "name": "c3d42b8f016907b4d297fcb0b9abbe03", "is_reserved": 0, "is_disabled": 0}, {"lat": 38.94432166666667, "fusion_lat": 0.0, "type": "electric_scooter", "bike_id": "fa0b8a97e22942331cc0315c610f53ce", "rental_uris": {"ios": "https://dc.lft.to/lastmile_qr_scan", "android": "https://dc.lft.to/lastmile_qr_scan"}, "fusion_lon": 0.0, "lon": -77.06320983333333, "name": "fa0b8a97e22942331cc0315c610f53ce", "is_reserved": 0, "is_disabled": 0}, {"lat": 38.91231333333333, "fusion_lat": 0.0, "type": "electric_scooter", "bike_id": "a4833eddfd4f4be0caf9397adb3c000a", "rental_uris": {"ios": "https://dc.lft.to/lastmile_qr_scan", "android": "https://dc.lft.to/lastmile_qr_scan"}, "fusion_lon": 0.0, "lon": -77.04876066666667, "name": "a4833eddfd4f4be0caf9397adb3c000a", "is_reserved": 0, "is_disabled": 0}, {"lat": 38.915820333333336, "fusion_lat": 0.0, "type": "electric_scooter", "bike_id": "0b57ce183d656cfb9e3ef48f7919165a", "rental_uris": {"ios": "https://dc.lft.to/lastmile_qr_scan", "android": "https://dc.lft.to/lastmile_qr_scan"}, "fusion_lon": 0.0, "lon": -77.01232966666667, "name": "0b57ce183d656cfb9e3ef48f7919165a", "is_reserved": 0, "is_disabled": 0}, {"lat": 38.93894316666667, "fusion_lat": 0.0, "type": "electric_scooter", "bike_id": "a6a616bf0a166143312ca1ab3f8770e8", "rental_uris": {"ios": "https://dc.lft.to/lastmile_qr_scan", "android": "https://dc.lft.to/lastmile_qr_scan"}, "fusion_lon": 0.0, "lon": -77.0176085, "name": "a6a616bf0a166143312ca1ab3f8770e8", "is_reserved": 0, "is_disabled": 0}, {"lat": 38.862344666666665, "fusion_lat": 0.0, "type": "electric_scooter", "bike_id": "ea2d3894507894a57c97aa28fa6ee9dc", "rental_uris": {"ios": "https://dc.lft.to/lastmile_qr_scan", "android": "https://dc.lft.to/lastmile_qr_scan"}, "fusion_lon": 0.0, "lon": -76.99549683333333, "name": "ea2d3894507894a57c97aa28fa6ee9dc", "is_reserved": 0, "is_disabled": 0}, {"lat": 38.91803683333333, "fusion_lat": 0.0, "type": "electric_scooter", "bike_id": "620d39bde4cb8b739cd74bbd21dfa9eb", "rental_uris": {"ios": "https://dc.lft.to/lastmile_qr_scan", "android": "https://dc.lft.to/lastmile_qr_scan"}, "fusion_lon": 0.0, "lon": -77.04013916666666, "name": "620d39bde4cb8b739cd74bbd21dfa9eb", "is_reserved": 0, "is_disabled": 0}, {"lat": 39.00483116666667, "fusion_lat": 0.0, "type": "electric_bike", "bike_id": "46cdfaafe76359c07d65736ee390e78b", "rental_uris": {"ios": "https://dc.lft.to/lastmile_qr_scan", "android": "https://dc.lft.to/lastmile_qr_scan"}, "fusion_lon": 0.0, "lon": -77.02183866666667, "name": "46cdfaafe76359c07d65736ee390e78b", "is_reserved": 0, "is_disabled": 0}, {"lat": 38.8953395, "fusion_lat": 0.0, "type": "electric_scooter", "bike_id": "098454c8a8726838eb87a3254c5feb1b", "rental_uris": {"ios": "https://dc.lft.to/lastmile_qr_scan", "android": "https://dc.lft.to/lastmile_qr_scan"}, "fusion_lon": 0.0, "lon": -77.04644766666667, "name": "098454c8a8726838eb87a3254c5feb1b", "is_reserved": 0, "is_disabled": 0},