{"data": {"bikes": [{"lon": -77.00877633333333, "bike_id": "a40391ae355b9762129593701b6e57c5", "lat": 38.825489166666664, "fusion_lon": 0.0, "fusion_lat": 0.0, "type": "electric_scooter", "name": "a40391ae355b9762129593701b6e57c5", "is_disabled": 0, "rental_uris": {"ios": "https://dc.lft.to/lastmile_qr_scan", "android": "https://dc.lft.to/lastmile_qr_scan"}, "is_reserved": 0}, {"lon": -77.0449495, "bike_id": "6a8ba53b63d5a9c5e43ed7196c29a723", "lat": 38.913358, "fusion_lon": 0.0, "fusion_lat": 0.0, "type": "electric_scooter", "name": "6a8ba53b63d5a9c5e43ed7196c29a723", "is_disabled": 0, "rental_uris": {"ios": "https://dc.lft.to/lastmile_qr_scan", "android": "https://dc.lft.to/lastmile_qr_scan"}, "is_reserved": 0}, {"lon": -76.988417, "bike_id": "e66c9db32f7c0295db5324b9a99e0936", "lat": 38.896695333333334, "fusion_lon": 0.0, "fusion_lat": 0.0, "type": "electric_scooter", "name": "e66c9db32f7c0295db5324b9a99e0936", "is_disabled": 0, "rental_uris": {"ios": "https://dc.lft.to/lastmile_qr_scan", "android": "https://dc.lft.to/lastmile_qr_scan"}, "is_reserved": 0}, {"lon": -77.0776125, "bike_id": "97a1466f297043d67e7462a89b18d567", "lat": 38.957792833333336, "fusion_lon": 0.0, "fusion_lat": 0.0, "type": "electric_scooter", "name": "97a1466f297043d67e7462a89b18d567", "is_disabled": 0, "rental_uris": {"ios": "https://dc.lft.to/lastmile_qr_scan", "android": "https://dc.lft.to/lastmile_qr_scan"}, "is_reserved": 0}, {"lon": -77.13934733333333, "bike_id": "c3c09858dfd9046e7240898a81f97256", "lat": 38.873047166666666, "fusion_lon": 0.0, "fusion_lat": 0.0, "type": "electric_bike", "name": "c3c09858dfd9046e7240898a81f97256", "is_disabled": 0, "rental_uris": {"ios": "https://dc.lft.to/lastmile_qr_scan", "android": "https://dc.lft.to/lastmile_qr_scan"}, "is_reserved": 0}, {"lon": -77.02213883333333, "bike_id": "def7175c2b6928de8bbf84c1ece39639", "lat": 38.893558, "fusion_lon": 0.0, "fusion_lat": 0.0, "type": "electric_scooter", "name": "def7175c2b6928de8bbf84c1ece39639", "is_disabled": 0, "rental_uris": {"ios": "https://dc.lft.to/lastmile_qr_scan", "android": "https://dc.lft.to/lastmile_qr_scan"}, "is_reserved": 0}, {"lon": -77.05576933333333, "bike_id": "6ed4dc23d5bbd554eed443c519634051", "lat": 38.930592833333336, "fusion_lon": 0.0, "fusion_lat": 0.0, "type": "electric_scooter", "name": "6ed4dc23d5bbd554eed443c519634051", "is_disabled": 0, "rental_uris": {"ios": "https://dc.lft.to/lastmile_qr_scan", "android": "https://dc.lft.to/lastmile_qr_scan"}, "is_reserved": 0}, {"lon": -77.0381485, "bike_id": "aa4523fbec461446b2dcb7cc8d092cc0", "lat": 38.93103933333333, "fusion_lon": 0.0, "fusion_lat": 0.0, "type": "electric_scooter", "name": "aa4523fbec461446b2dcb7cc8d092cc0", "is_disabled": 0, "rental_uris": {"ios": "https://dc.lft.to/lastmile_qr_scan", "android": "https://dc.lft.to/lastmile_qr_scan"}, "is_reserved": 0}, {"lon": -77.12430583333334, "bike_id": "0d061b0b9173cc2c788fdc78b3fd84c4", "lat": 38.853785, "fusion_lon": 0.0, "fusion_lat": 0.0, "type": "electric_bike", "name": "0d061b0b9173cc2c788fdc78b3fd84c4", "is_disabled": 0, "rental_uris": {"ios": "https://dc.lft.to/lastmile_qr_scan", "android": "https://dc.lft.to/lastmile_qr_scan"}, "is_reserved": 0}, {"lon": -77.041809, "bike_id": "d8b6420c297d66386940f94d101107cb", "lat": 38.915556, "fusion_lon": 0.0, "fusion_lat": 0.0, "type": "electric_scooter", "name": "d8b6420c297d66386940f94d101107cb", "is_disabled": 0, "rental_uris": {"ios": "https://dc.lft.to/lastmile_qr_scan", "android": "https://dc.lft.to/lastmile_qr_scan"}, "is_reserved": 0}, {"lon": -77.02948266666667, "bike_id": "4a8aff620e65e1f7edaf37eb342cceec", "lat": 38.905064, "fusion_lon": 0.0, "fusion_lat": 0.0, "type": "electric_scooter", "name": "4a8aff620e65e1f7edaf37eb342cceec", "is_disabled": 0, "rental_uris": {"ios": "https://dc.lft.to/lastmile_qr_scan", "android": "https://dc.lft.to/lastmile_qr_scan"}, "is_reserved": 0}, {"lon": -77.027009, "bike_id": "17dc385ae1817decd7948f255bc348ba", "lat": 38.9499305, "fusion_lon": 0.0, "fusion_lat": 0.0, "type": "electric_scooter", "name": "17dc385ae1817decd7948f255bc348ba", "is_disabled": 0, "rental_uris": {"ios": "https://dc.lft.to/lastmile_qr_scan", "android": "https://dc.lft.to/lastmile_qr_scan"}, "is_reserved": 0}, {"lon": -76.97205983333333, "bike_id": "0ebf52f995a08161c8dc8fbe070fed46", "lat": 38.892923, "fusion_lon": 0.0, "fusion_lat": 0.0, "type": "electric_bike", "name": "0ebf52f995a08161c8dc8fbe070fed46", "is_disabled": 0, "rental_uris": {"ios": "https://dc.lft.to/lastmile_qr_scan", "android": "https://dc.lft.to/lastmile_qr_scan"}, "is_reserved": 0}, {"lon": -76.992848, "bike_id": "7fde45d0104529c65bbc70a14bd4958f", "lat": 38.860309, "fusion_lon": 0.0, "fusion_lat": 0.0, "type": "electric_scooter", "name": "7fde45d0104529c65bbc70a14bd4958f", "is_disabled": 0, "rental_uris": {"ios": "https://dc.lft.to/lastmile_qr_scan", "android": "https://dc.lft.to/lastmile_qr_scan"}, "is_reserved": 0}, {"lon": -77.06221216666667, "bike_id": "d06b3082c5d37a0951045259aeaffeea", "lat": 38.8630605, "fusion_lon": 0.0, "fusion_lat": 0.0, "type": "electric_bike", "name": "d06b3082c5d37a0951045259aeaffeea", "is_disabled": 0, "rental_uris": {"ios": "https://dc.lft.to/lastmile_qr_scan", "android": "https://dc.lft.to/lastmile_qr_scan"}, "is_reserved": 0}, {"lon": -77.01962716666667, "bike_id": "a555d48c952647b5ecce3b2c6eb44ef5", "lat": 38.922031833333335, "fusion_lon": 0.0, "fusion_lat": 0.0, "type": "electric_scooter", "name": "a555d48c952647b5ecce3b2c6eb44ef5", "is_disabled": 0, "rental_uris": {"ios": "https://dc.lft.to/lastmile_qr_scan", "android": "https://dc.lft.to/lastmile_qr_scan"}, "is_reserved": 0}, {"lon": -76.949763, "bike_id": "db1f1e9dc7ddcd2bccd178e5fc4546c0", "lat": 38.893736, "fusion_lon": 0.0, "fusion_lat": 0.0, "type": "electric_scooter", "name": "db1f1e9dc7ddcd2bccd178e5fc4546c0", "is_disabled": 0, "rental_uris": {"ios": "https://dc.lft.to/lastmile_qr_scan", "android": "https://dc.lft.to/lastmile_qr_scan"}, "is_reserved": 0}, {"lon": -77.03654783333333, "bike_id": "0411bba6d374843479c597e149b8d8bf", "lat": 38.9212965, "fusion_lon": 0.0, "fusion_lat": 0.0, "type": "electric_scooter", "name": "0411bba6d374843479c597e149b8d8bf", "is_disabled": 0, "rental_uris": {"ios": "https://dc.lft.to/lastmile_qr_scan", "android": "https://dc.lft.to/lastmile_qr_scan"}, "is_reserved": 0}, {"lon": -77.03287966666667, "bike_id": "b30b1892b38719a00620601c81c5b385", "lat": 38.928552333333336, "fusion_lon": 0.0, "fusion_lat": 0.0, "type": "electric_scooter", "name": "b30b1892b38719a00620601c81c5b385", "is_disabled": 0, "rental_uris": {"ios": "https://dc.lft.to/lastmile_qr_scan", "android": "https://dc.lft.to/lastmile_qr_scan"}, "is_reserved": 0}, {"lon": -76.9871485, "bike_id": "918d07343d482b5e8f1bffa903d39f4a", "lat": 38.866311333333336, "fusion_lon": 0.0, "fusion_lat": 0.0, "type": "electric_scooter", "name": "918d07343d482b5e8f1bffa903d39f4a", "is_disabled": 0, "rental_uris": {"ios": "https://dc.lft.to/lastmile_qr_scan", "android": "https://dc.lft.to/lastmile_qr_scan"}, "is_reserved": 0}, {"lon": -77.0045755, "bike_id": "08daca2f6987b9fa0f8c025d5c09b644", "lat": 38.9144145, "fusion_lon": 0.0, "fusion_lat": 0.0, "type": "electric_scooter", "name": "08daca2f6987b9fa0f8c025d5c09b644", "is_disabled": 0, "rental_uris": {"ios": "https://dc.lft.to/lastmile_qr_scan", "android": "https://dc.lft.to/lastmile_qr_scan"}, "is_reserved": 0}, {"lon": -77.0262355, "bike_id": "60504833e389c0def53d76abdb354959", "lat": 38.89224, "fusion_lon": 0.0, "fusion_lat": 0.0, "type": "electric_scooter", "name": "60504833e389c0def53d76abdb354959", "is_disabled": 0, "rental_uris": {"ios": "https://dc.lft.to/lastmile_qr_scan", "android": "https://dc.lft.to/lastmile_qr_scan"}, "is_reserved": 0}, {"lon": -77.02696066666667, "bike_id": "49122f5f6e9db4c2bb512b791d4555f7", "lat": 38.911722166666664, "fusion_lon": 0.0, "fusion_lat": 0.0, "type": "electric_scooter", "name": "49122f5f6e9db4c2bb512b791d4555f7", "is_disabled": 0, "rental_uris": {"ios": "https://dc.lft.to/lastmile_qr_scan", "android": "https://dc.lft.to/lastmile_qr_scan"}, "is_reserved": 0}, {"lon": -77.03845966666667, "bike_id": "2916ded7196ff834581cb317a573959a", "lat": 38.911664, "fusion_lon": 0.0, "fusion_lat": 0.0, "type": "electric_scooter", "name": "2916ded7196ff834581cb317a573959a", "is_disabled": 0, "rental_uris": {"ios": "https://dc.lft.to/lastmile_qr_scan", "android": "https://dc.lft.to/lastmile_qr_scan"}, "is_reserved": 0}, {"lon": -76.98263083333333, "bike_id": "5ff6e08cf11b5fb62139110b8c917612", "lat": 38.908632833333336, "fusion_lon": 0.0, "fusion_lat": 0.0, "type": "electric_scooter", "name": "5ff6e08cf11b5fb62139110b8c917612", "is_disabled": 0, "rental_uris": {"ios": "https://dc.lft.to/lastmile_qr_scan", "android": "https://dc.lft.to/lastmile_qr_scan"}, "is_reserved": 0}, {"lon": -77.02831216666667, "bike_id": "c1c3b4c6ec22389f34cdd1ca2c1153f6", "lat": 38.9314685, "fusion_lon": 0.0, "fusion_lat": 0.0, "type": "electric_scooter", "name": "c1c3b4c6ec22389f34cdd1ca2c1153f6", "is_disabled": 0, "rental_uris": {"ios": "https://dc.lft.to/lastmile_qr_scan", "android": "https://dc.lft.to/lastmile_qr_scan"}, "is_reserved": 0}, {"lon": -76.98198, "bike_id": "640c1479990fa3f0297b6cec22ec35b2", "lat": 38.899489, "fusion_lon": 0.0, "fusion_lat": 0.0, "type": "electric_scooter", "name": "640c1479990fa3f0297b6cec22ec35b2", "is_disabled": 0, "rental_uris": {"ios": "https://dc.lft.to/lastmile_qr_scan", "android": "https://dc.lft.to/lastmile_qr_scan"}, "is_reserved": 0}, {"lon": -77.024222, "bike_id": "74fa62751d8f0b592e28ae88eddb5a3a", "lat": 38.879627, "fusion_lon": 0.0, "fusion_lat": 0.0, "type": "electric_scooter", "name": "74fa62751d8f0b592e28ae88eddb5a3a", "is_disabled": 0, "rental_uris": {"ios": "https://dc.lft.to/lastmile_qr_scan", "android": "https://dc.lft.to/lastmile_qr_scan"}, "is_reserved": 0}, {"lon": -77.03125783333333, "bike_id": "f555f819cc4f5a81160af85945301381", "lat": 38.988361833333336, "fusion_lon": 0.0, "fusion_lat": 0.0, "type": "electric_scooter", "name": "f555f819cc4f5a81160af85945301381", "is_disabled": 0, "rental_uris": {"ios": "https://dc.lft.to/lastmile_qr_scan", "android": "https://dc.lft.to/lastmile_qr_scan"}, "is_reserved": 0}, {"lon": -77.05315866666666, "bike_id": "11baef0f6a5100a923a1859088fe57d0", "lat": 38.94107566666667, "fusion_lon": 0.0, "fusion_lat": 0.0, "type": "electric_bike", "name": "11baef0f6a5100a923a1859088fe57d0", "is_disabled": 0, "rental_uris": {"ios": "https://dc.lft.to/lastmile_qr_scan", "android": "https://dc.lft.to/lastmile_qr_scan"}, "is_reserved": 0}, {"lon": -77.02100716666666, "bike_id": "ec0d144e92e5be7f8a3d95d6d35502d2", "lat": 38.929169333333334, "fusion_lon": 0.0, "fusion_lat": 0.0, "type": "electric_scooter", "name": "ec0d144e92e5be7f8a3d95d6d35502d2", "is_disabled": 0, "rental_uris": {"ios": "https://dc.lft.to/lastmile_qr_scan", "android": "https://dc.lft.to/lastmile_qr_scan"}, "is_reserved": 0}, {"lon": -77.00741, "bike_id": "2bf2b06d6b8951cfa86735e5b28367f3", "lat": 38.925381, "fusion_lon": 0.0, "fusion_lat": 0.0, "type": "electric_scooter", "name": "2bf2b06d6b8951cfa86735e5b28367f3", "is_disabled": 0, "rental_uris": {"ios": "https://dc.lft.to/lastmile_qr_scan", "android": "https://dc.lft.to/lastmile_qr_scan"}, "is_reserved": 0}, {"lon": -77.0279905, "bike_id": "304e6a7c2324c19910d4655403bf8aad", "lat": 38.912301, "fusion_lon": 0.0, "fusion_lat": 0.0, "type": "electric_scooter", "name": "304e6a7c2324c19910d4655403bf8aad", "is_disabled": 0, "rental_uris": {"ios": "https://dc.lft.to/lastmile_qr_scan", "android": "https://dc.lft.to/lastmile_qr_scan"}, "is_reserved": 0}, {"lon": -76.96386866666667, "bike_id": "216581afb128a0279a89d2afe612da70", "lat": 38.951784, "fusion_lon": 0.0, "fusion_lat": 0.0, "type": "electric_bike", "name": "216581afb128a0279a89d2afe612da70", "is_disabled": 0, "rental_uris": {"ios": "https://dc.lft.to/lastmile_qr_scan", "android": "https://dc.lft.to/lastmile_qr_scan"}, "is_reserved": 0}, {"lon": -77.03160783333334, "bike_id": "92d5c0cb8776f98a13c05718217db2b3", "lat": 38.9237735, "fusion_lon": 0.0, "fusion_lat": 0.0, "type": "electric_scooter", "name": "92d5c0cb8776f98a13c05718217db2b3", "is_disabled": 0, "rental_uris": {"ios": "https://dc.lft.to/lastmile_qr_scan", "android": "https://dc.lft.to/lastmile_qr_scan"}, "is_reserved": 0}, {"lon": -77.0587735, "bike_id": "30984324e432b32acaf3e3e2eb474185", "lat": 38.9356405, "fusion_lon": 0.0, "fusion_lat": 0.0, "type": "electric_scooter", "name": "30984324e432b32acaf3e3e2eb474185", "is_disabled": 0, "rental_uris": {"ios": "https://dc.lft.to/lastmile_qr_scan", "android": "https://dc.lft.to/lastmile_qr_scan"}, "is_reserved": 0}, {"lon": -77.004463, "bike_id": "ff9a7434f019806a12c1dd794c2ff706", "lat": 38.912015333333336, "fusion_lon": 0.0, "fusion_lat": 0.0, "type": "electric_scooter", "name": "ff9a7434f019806a12c1dd794c2ff706", "is_disabled": 0, "rental_uris": {"ios": "https://dc.lft.to/lastmile_qr_scan", "android": "https://dc.lft.to/lastmile_qr_scan"}, "is_reserved": 0}, {"lon": -77.0238635, "bike_id": "ed598e935d45afd2a8900cabeba868ec", "lat": 38.91623416666667, "fusion_lon": 0.0, "fusion_lat": 0.0, "type": "electric_scooter", "name": "ed598e935d45afd2a8900cabeba868ec", "is_disabled": 0, "rental_uris": {"ios": "https://dc.lft.to/lastmile_qr_scan", "android": "https://dc.lft.to/lastmile_qr_scan"}, "is_reserved": 0}, {"lon": -77.027948, "bike_id": "10550f328a3a0c65ae1177d81a76dde5", "lat": 38.95404766666667, "fusion_lon": 0.0, "fusion_lat": 0.0, "type": "electric_scooter", "name": "10550f328a3a0c65ae1177d81a76dde5", "is_disabled": 0, "rental_uris": {"ios": "https://dc.lft.to/lastmile_qr_scan", "android": "https://dc.lft.to/lastmile_qr_scan"}, "is_reserved": 0}, {"lon": -77.2280105, "bike_id": "7174929fec2014870d61b06c61275ef8", "lat": 38.91019383333333, "fusion_lon": 0.0, "fusion_lat": 0.0, "type": "electric_bike", "name": "7174929fec2014870d61b06c61275ef8", "is_disabled": 0, "rental_uris": {"ios": "https://dc.lft.to/lastmile_qr_scan", "android": "https://dc.lft.to/lastmile_qr_scan"}, "is_reserved": 0}, {"lon": -77.02079133333334, "bike_id": "2bd5e515169bd6935344fc59295442f8", "lat": 38.927246833333335, "fusion_lon": 0.0, "fusion_lat": 0.0, "type": "electric_scooter", "name": "2bd5e515169bd6935344fc59295442f8", "is_disabled": 0, "rental_uris": {"ios": "https://dc.lft.to/lastmile_qr_scan", "android": "https://dc.lft.to/lastmile_qr_scan"}, "is_reserved": 0}, {"lon": -76.99090416666667, "bike_id": "58b75e31492e3c5f16c75f4c133afd2c", "lat": 38.86242933333333, "fusion_lon": 0.0, "fusion_lat": 0.0, "type": "electric_bike", "name": "58b75e31492e3c5f16c75f4c133afd2c", "is_disabled": 0, "rental_uris": {"ios": "https://dc.lft.to/lastmile_qr_scan", "android": "https://dc.lft.to/lastmile_qr_scan"}, "is_reserved": 0}, {"lon": -77.08069333333333, "bike_id": "433cfeb38cb3fb92c1675c4f8008335c", "lat": 39.05289783333333, "fusion_lon": 0.0, "fusion_lat": 0.0, "type": "electric_bike", "name": "433cfeb38cb3fb92c1675c4f8008335c", "is_disabled": 0, "rental_uris": {"ios": "https://dc.lft.to/lastmile_qr_scan", "android": "https://dc.lft.to/lastmile_qr_scan"}, "is_reserved": 0}, {"lon": -77.01935433333334, "bike_id": "d951f69965408aa5328e76dfa64d8d68", "lat": 38.9352935, "fusion_lon": 0.0, "fusion_lat": 0.0, "type": "electric_scooter", "name": "d951f69965408aa5328e76dfa64d8d68", "is_disabled": 0, "rental_uris": {"ios": "https://dc.lft.to/lastmile_qr_scan", "android": "https://dc.lft.to/lastmile_qr_scan"}, "is_reserved": 0}, {"lon": -77.0222685, "bike_id": "9811a54a50020b55d1a2a3c3433a94fe", "lat": 38.956922166666665, "fusion_lon": 0.0, "fusion_lat": 0.0, "type": "electric_bike", "name": "9811a54a50020b55d1a2a3c3433a94fe", "is_disabled": 0, "rental_uris": {"ios": "https://dc.lft.to/lastmile_qr_scan", "android": "https://dc.lft.to/lastmile_qr_scan"}, "is_reserved": 0}, {"lon": -77.03430033333333, "bike_id": "b98bb012e30e7ba5aefd052c548b783c", "lat": 38.90986216666667, "fusion_lon": 0.0, "fusion_lat": 0.0, "type": "electric_scooter", "name": "b98bb012e30e7ba5aefd052c548b783c", "is_disabled": 0, "rental_uris": {"ios": "https://dc.lft.to/lastmile_qr_scan", "android": "https://dc.lft.to/lastmile_qr_scan"}, "is_reserved": 0}, {"lon": -76.995334, "bike_id": "223ea19b9c5f4ef516eeb1ee65f579ea", "lat": 38.88377583333333, "fusion_lon": 0.0, "fusion_lat": 0.0, "type": "electric_scooter", "name": "223ea19b9c5f4ef516eeb1ee65f579ea", "is_disabled": 0, "rental_uris": {"ios": "https://dc.lft.to/lastmile_qr_scan", "android": "https://dc.lft.to/lastmile_qr_scan"}, "is_reserved": 0}, {"lon": -77.02522583333334, "bike_id": "dfcc6a6185ef58822bb0acf900f92e09", "lat": 38.9204595, "fusion_lon": 0.0, "fusion_lat": 0.0, "type": "electric_scooter", "name": "dfcc6a6185ef58822bb0acf900f92e09", "is_disabled": 0, "rental_uris": {"ios": "https://dc.lft.to/lastmile_qr_scan", "android": "https://dc.lft.to/lastmile_qr_scan"}, "is_reserved": 0}, {"lon": -76.998362, "bike_id": "5da2e1cc8f4872b3d77fac9cc0200d12", "lat": 38.90495216666667, "fusion_lon": 0.0, "fusion_lat": 0.0, "type": "electric_scooter", "name": "5da2e1cc8f4872b3d77fac9cc0200d12", "is_disabled": 0, "rental_uris": {"ios": "https://dc.lft.to/lastmile_qr_scan", "android": "https://dc.lft.to/lastmile_qr_scan"}, "is_reserved": 0}, {"lon": -77.016813, "bike_id": "740a3d32d5f1516484cd5b2c81241e4f", "lat": 38.903764333333335, "fusion_lon": 0.0, "fusion_lat": 0.0, "type": "electric_scooter", "name": "740a3d32d5f1516484cd5b2c81241e4f", "is_disabled": 0, "rental_uris": {"ios": "https://dc.lft.to/lastmile_qr_scan", "android": "https://dc.lft.to/lastmile_qr_scan"}, "is_reserved": 0}, {"lon": -77.00645416666667, "bike_id": "79e83f8de138ccc289541e27f3b18a7f", "lat": 38.92615716666667, "fusion_lon": 0.0, "fusion_lat": 0.0, "type": "electric_scooter", "name": "79e83f8de138ccc289541e27f3b18a7f", "is_disabled": 0, "rental_uris": {"ios": "https://dc.lft.to/lastmile_qr_scan", "android": "https://dc.lft.to/lastmile_qr_scan"}, "is_reserved": 0}, {"lon": -76.97356233333333, "bike_id": "68ee2612208220263cb2f606a59843de", "lat": 38.873371666666664, "fusion_lon": 0.0, "fusion_lat": 0.0, "type": "electric_scooter", "name": "68ee2612208220263cb2f606a59843de", "is_disabled": 0, "rental_uris": {"ios": "https://dc.lft.to/lastmile_qr_scan", "android": "https://dc.lft.to/lastmile_qr_scan"}, "is_reserved": 0}, {"lon": -77.01762466666666, "bike_id": "bd6106892b94ad144a95ef1219208a82", "lat": 38.8873315, "fusion_lon": 0.0, "fusion_lat": 0.0, "type": "electric_scooter", "name": "bd6106892b94ad144a95ef1219208a82", "is_disabled": 0, "rental_uris": {"ios": "https://dc.lft.to/lastmile_qr_scan", "android": "https://dc.lft.to/lastmile_qr_scan"}, "is_reserved": 0}, {"lon": -77.05852883333333, "bike_id": "b0aaadcacfdc9efa04732192957f85bd", "lat": 38.9360985, "fusion_lon": 0.0, "fusion_lat": 0.0, "type": "electric_bike", "name": "b0aaadcacfdc9efa04732192957f85bd", "is_disabled": 0, "rental_uris": {"ios": "https://dc.lft.to/lastmile_qr_scan", "android": "https://dc.lft.to/lastmile_qr_scan"}, "is_reserved": 0}, {"lon": -77.03444866666666, "bike_id": "2eb083bc7ed4caa13d2a99d193f9a4b6", "lat": 38.907355333333335, "fusion_lon": 0.0, "fusion_lat": 0.0, "type": "electric_scooter", "name": "2eb083bc7ed4caa13d2a99d193f9a4b6", "is_disabled": 0, "rental_uris": {"ios": "https://dc.lft.to/lastmile_qr_scan", "android": "https://dc.lft.to/lastmile_qr_scan"}, "is_reserved": 0}, {"lon": -76.974808, "bike_id": "fc7b007943799e3ad9087b9bbbcba2f5", "lat": 38.90355516666666, "fusion_lon": 0.0, "fusion_lat": 0.0, "type": "electric_scooter", "name": "fc7b007943799e3ad9087b9bbbcba2f5", "is_disabled": 0, "rental_uris": {"ios": "https://dc.lft.to/lastmile_qr_scan", "android": "https://dc.lft.to/lastmile_qr_scan"}, "is_reserved": 0}, {"lon": -77.06518866666667, "bike_id": "74241ad17ef28cb75ea41ef25762c0e6", "lat": 38.90395733333333, "fusion_lon": 0.0, "fusion_lat": 0.0, "type": "electric_scooter", "name": "74241ad17ef28cb75ea41ef25762c0e6", "is_disabled": 0, "rental_uris": {"ios": "https://dc.lft.to/lastmile_qr_scan", "android": "https://dc.lft.to/lastmile_qr_scan"}, "is_reserved": 0}, {"lon": -77.04239783333334, "bike_id": "cd3cd82a483ec39a43b02d648df6282a", "lat": 38.91336616666667, "fusion_lon": 0.0, "fusion_lat": 0.0, "type": "electric_scooter", "name": "cd3cd82a483ec39a43b02d648df6282a", "is_disabled": 0, "rental_uris": {"ios": "https://dc.lft.to/lastmile_qr_scan", "android": "https://dc.lft.to/lastmile_qr_scan"}, "is_reserved": 0}, {"lon": -77.031758, "bike_id": "a0b9266bc3912b053974f888ba4165ea", "lat": 38.915623833333335, "fusion_lon": 0.0, "fusion_lat": 0.0, "type": "electric_scooter", "name": "a0b9266bc3912b053974f888ba4165ea", "is_disabled": 0, "rental_uris": {"ios": "https://dc.lft.to/lastmile_qr_scan", "android": "https://dc.lft.to/lastmile_qr_scan"}, "is_reserved": 0}, {"lon": -77.03862183333334, "bike_id": "c370bef113ad0df767a1e0657190f468", "lat": 38.9171855, "fusion_lon": 0.0, "fusion_lat": 0.0, "type": "electric_scooter", "name": "c370bef113ad0df767a1e0657190f468", "is_disabled": 0, "rental_uris": {"ios": "https://dc.lft.to/lastmile_qr_scan", "android": "https://dc.lft.to/lastmile_qr_scan"}, "is_reserved": 0}, {"lon": -76.99140783333333, "bike_id": "7e63501c196fae6efe89cef77ad85fda", "lat": 38.8897965, "fusion_lon": 0.0, "fusion_lat": 0.0, "type": "electric_scooter", "name": "7e63501c196fae6efe89cef77ad85fda", "is_disabled": 0, "rental_uris": {"ios": "https://dc.lft.to/lastmile_qr_scan", "android": "https://dc.lft.to/lastmile_qr_scan"}, "is_reserved": 0}, {"lon": -77.027465, "bike_id": "fa33eaa027ed1d8a2a76c24bea526030", "lat": 38.895067833333336, "fusion_lon": 0.0, "fusion_lat": 0.0, "type": "electric_scooter", "name": "fa33eaa027ed1d8a2a76c24bea526030", "is_disabled": 0, "rental_uris": {"ios": "https://dc.lft.to/lastmile_qr_scan", "android": "https://dc.lft.to/lastmile_qr_scan"}, "is_reserved": 0}, {"lon": -76.999443, "bike_id": "0b3dcf66dee914800f452d38fd779206", "lat": 38.906258666666666, "fusion_lon": 0.0, "fusion_lat": 0.0, "type": "electric_scooter", "name": "0b3dcf66dee914800f452d38fd779206", "is_disabled": 0, "rental_uris": {"ios": "https://dc.lft.to/lastmile_qr_scan", "android": "https://dc.lft.to/lastmile_qr_scan"}, "is_reserved": 0}, {"lon": -77.04508416666667, "bike_id": "a7b3a4f5dedbea25c5964e7c699e496d", "lat": 38.91422283333333, "fusion_lon": 0.0, "fusion_lat": 0.0, "type": "electric_bike", "name": "a7b3a4f5dedbea25c5964e7c699e496d", "is_disabled": 0, "rental_uris": {"ios": "https://dc.lft.to/lastmile_qr_scan", "android": "https://dc.lft.to/lastmile_qr_scan"}, "is_reserved": 0}, {"lon": -77.03112133333333, "bike_id": "54e895d5873f7ce3c20a0474bd81f457", "lat": 38.88751466666667, "fusion_lon": 0.0, "fusion_lat": 0.0, "type": "electric_scooter", "name": "54e895d5873f7ce3c20a0474bd81f457", "is_disabled": 0, "rental_uris": {"ios": "https://dc.lft.to/lastmile_qr_scan", "android": "https://dc.lft.to/lastmile_qr_scan"}, "is_reserved": 0}, {"lon": -76.9487845, "bike_id": "6b1b86f37406f0473bcca25906aa97a1", "lat": 38.895059833333335, "fusion_lon": 0.0, "fusion_lat": 0.0, "type": "electric_scooter", "name": "6b1b86f37406f0473bcca25906aa97a1", "is_disabled": 0, "rental_uris": {"ios": "https://dc.lft.to/lastmile_qr_scan", "android": "https://dc.lft.to/lastmile_qr_scan"}, "is_reserved": 0}, {"lon": -77.0121975, "bike_id": "71222318d4499013ca97a651a2fd54aa", "lat": 38.892935, "fusion_lon": 0.0, "fusion_lat": 0.0, "type": "electric_scooter", "name": "71222318d4499013ca97a651a2fd54aa", "is_disabled": 0, "rental_uris": {"ios": "https://dc.lft.to/lastmile_qr_scan", "android": "https://dc.lft.to/lastmile_qr_scan"}, "is_reserved": 0}, {"lon": -77.03429933333334, "bike_id": "2f890344df2a4b786f272e34e5d183af", "lat": 38.965369, "fusion_lon": 0.0, "fusion_lat": 0.0, "type": "electric_bike", "name": "2f890344df2a4b786f272e34e5d183af", "is_disabled": 0, "rental_uris": {"ios": "https://dc.lft.to/lastmile_qr_scan", "android": "https://dc.lft.to/lastmile_qr_scan"}, "is_reserved": 0}, {"lon": -77.01318783333333, "bike_id": "cbbafa833379ad86e83d9e7c98707ad3", "lat": 38.90040116666667, "fusion_lon": 0.0, "fusion_lat": 0.0, "type": "electric_scooter", "name": "cbbafa833379ad86e83d9e7c98707ad3", "is_disabled": 0, "rental_uris": {"ios": "https://dc.lft.to/lastmile_qr_scan", "android": "https://dc.lft.to/lastmile_qr_scan"}, "is_reserved": 0}, {"lon": -77.046616, "bike_id": "c0f19717770f078349ca00c476d1097d", "lat": 38.89784083333333, "fusion_lon": 0.0, "fusion_lat": 0.0, "type": "electric_scooter", "name": "c0f19717770f078349ca00c476d1097d", "is_disabled": 0, "rental_uris": {"ios": "https://dc.lft.to/lastmile_qr_scan", "android": "https://dc.lft.to/lastmile_qr_scan"}, "is_reserved": 0}, {"lon": -77.03974616666666, "bike_id": "84a3f4788673017a034e9469575b2922", "lat": 38.906282166666664, "fusion_lon": 0.0, "fusion_lat": 0.0, "type": "electric_scooter", "name": "84a3f4788673017a034e9469575b2922", "is_disabled": 0, "rental_uris": {"ios": "https://dc.lft.to/lastmile_qr_scan", "android": "https://dc.lft.to/lastmile_qr_scan"}, "is_reserved": 0}, {"lon": -77.04212016666666, "bike_id": "068bb8bbff3cd1303e78ba68cf6308c5", "lat": 38.921309666666666, "fusion_lon": 0.0, "fusion_lat": 0.0, "type": "electric_scooter", "name": "068bb8bbff3cd1303e78ba68cf6308c5", "is_disabled": 0, "rental_uris": {"ios": "https://dc.lft.to/lastmile_qr_scan", "android": "https://dc.lft.to/lastmile_qr_scan"}, "is_reserved": 0}, {"lon": -77.0449905, "bike_id": "23b965a8917314f86ee3ded6143c911d", "lat": 38.89785783333333, "fusion_lon": 0.0, "fusion_lat": 0.0, "type": "electric_scooter", "name": "23b965a8917314f86ee3ded6143c911d", "is_disabled": 0, "rental_uris": {"ios": "https://dc.lft.to/lastmile_qr_scan", "android": "https://dc.lft.to/lastmile_qr_scan"}, "is_reserved": 0}, {"lon": -77.020548, "bike_id": "96b645b3b86311f173dbe1ae19a414d9", "lat": 38.957629833333336, "fusion_lon": 0.0, "fusion_lat": 0.0, "type": "electric_bike", "name": "96b645b3b86311f173dbe1ae19a414d9", "is_disabled": 0, "rental_uris": {"ios": "https://dc.lft.to/lastmile_qr_scan", "android": "https://dc.lft.to/lastmile_qr_scan"}, "is_reserved": 0}, {"lon": -77.0237235, "bike_id": "5b18fc19f31255644ce695113e37cb6d", "lat": 38.920083166666664, "fusion_lon": 0.0, "fusion_lat": 0.0, "type": "electric_scooter", "name": "5b18fc19f31255644ce695113e37cb6d", "is_disabled": 0, "rental_uris": {"ios": "https://dc.lft.to/lastmile_qr_scan", "android": "https://dc.lft.to/lastmile_qr_scan"}, "is_reserved": 0}, {"lon": -77.03871666666667, "bike_id": "4b3ef69ac91ee0d924f9dea46a4aa28b", "lat": 38.902959333333335, "fusion_lon": 0.0, "fusion_lat": 0.0, "type": "electric_scooter", "name": "4b3ef69ac91ee0d924f9dea46a4aa28b", "is_disabled": 0, "rental_uris": {"ios": "https://dc.lft.to/lastmile_qr_scan", "android": "https://dc.lft.to/lastmile_qr_scan"}, "is_reserved": 0}, {"lon": -76.93727183333333, "bike_id": "3e3fb222e898d502172d1ede62886271", "lat": 38.89018166666666, "fusion_lon": 0.0, "fusion_lat": 0.0, "type": "electric_scooter", "name": "3e3fb222e898d502172d1ede62886271", "is_disabled": 0, "rental_uris": {"ios": "https://dc.lft.to/lastmile_qr_scan", "android": "https://dc.lft.to/lastmile_qr_scan"}, "is_reserved": 0}, {"lon": -77.02318116666666, "bike_id": "d182eff0e2299a324b4ab684e5e92d85", "lat": 38.916882333333334, "fusion_lon": 0.0, "fusion_lat": 0.0, "type": "electric_scooter", "name": "d182eff0e2299a324b4ab684e5e92d85", "is_disabled": 0, "rental_uris": {"ios": "https://dc.lft.to/lastmile_qr_scan", "android": "https://dc.lft.to/lastmile_qr_scan"}, "is_reserved": 0}, {"lon": -77.02977316666667, "bike_id": "0ea3c09a621e8d30dc13126f38437917", "lat": 38.928769833333334, "fusion_lon": 0.0, "fusion_lat": 0.0, "type": "electric_scooter", "name": "0ea3c09a621e8d30dc13126f38437917", "is_disabled": 0, "rental_uris": {"ios": "https://dc.lft.to/lastmile_qr_scan", "android": "https://dc.lft.to/lastmile_qr_scan"}, "is_reserved": 0}, {"lon": -77.045061, "bike_id": "193797fbd934b8f88320b41e8e7dca48", "lat": 38.903815333333334, "fusion_lon": 0.0, "fusion_lat": 0.0, "type": "electric_scooter", "name": "193797fbd934b8f88320b41e8e7dca48", "is_disabled": 0, "rental_uris": {"ios": "https://dc.lft.to/lastmile_qr_scan", "android": "https://dc.lft.to/lastmile_qr_scan"}, "is_reserved": 0}, {"lon": -77.03279266666667, "bike_id": "22ccd0fdca398fafece9b331e5f66f39", "lat": 38.91999783333333, "fusion_lon": 0.0, "fusion_lat": 0.0, "type": "electric_scooter", "name": "22ccd0fdca398fafece9b331e5f66f39", "is_disabled": 0, "rental_uris": {"ios": "https://dc.lft.to/lastmile_qr_scan", "android": "https://dc.lft.to/lastmile_qr_scan"}, "is_reserved": 0}, {"lon": -76.987109, "bike_id": "74b8922f0e9f23e6b451f19d66b28812", "lat": 38.867031, "fusion_lon": 0.0, "fusion_lat": 0.0, "type": "electric_scooter", "name": "74b8922f0e9f23e6b451f19d66b28812", "is_disabled": 0, "rental_uris": {"ios": "https://dc.lft.to/lastmile_qr_scan", "android": "https://dc.lft.to/lastmile_qr_scan"}, "is_reserved": 0}, {"lon": -77.02711683333334, "bike_id": "1158587f4d6859dd2d761c841d64dd10", "lat": 38.90455383333333, "fusion_lon": 0.0, "fusion_lat": 0.0, "type": "electric_scooter", "name": "1158587f4d6859dd2d761c841d64dd10", "is_disabled": 0, "rental_uris": {"ios": "https://dc.lft.to/lastmile_qr_scan", "android": "https://dc.lft.to/lastmile_qr_scan"}, "is_reserved": 0}, {"lon": -76.98229416666666, "bike_id": "7c08e62946c6d1c12aa71f363be41de9", "lat": 38.8689725, "fusion_lon": 0.0, "fusion_lat": 0.0, "type": "electric_scooter", "name": "7c08e62946c6d1c12aa71f363be41de9", "is_disabled": 0, "rental_uris": {"ios": "https://dc.lft.to/lastmile_qr_scan", "android": "https://dc.lft.to/lastmile_qr_scan"}, "is_reserved": 0}, {"lon": -76.99192883333333, "bike_id": "ab60bef1093c0a1d1b73dc0c8921270f", "lat": 38.86289433333334, "fusion_lon": 0.0, "fusion_lat": 0.0, "type": "electric_scooter", "name": "ab60bef1093c0a1d1b73dc0c8921270f", "is_disabled": 0, "rental_uris": {"ios": "https://dc.lft.to/lastmile_qr_scan", "android": "https://dc.lft.to/lastmile_qr_scan"}, "is_reserved": 0}, {"lon": -77.0344555, "bike_id": "d9cfbbb570d99ad3a25c5594f95c2e76", "lat": 38.91021083333333, "fusion_lon": 0.0, "fusion_lat": 0.0, "type": "electric_scooter", "name": "d9cfbbb570d99ad3a25c5594f95c2e76", "is_disabled": 0, "rental_uris": {"ios": "https://dc.lft.to/lastmile_qr_scan", "android": "https://dc.lft.to/lastmile_qr_scan"}, "is_reserved": 0}, {"lon": -77.0433535, "bike_id": "d4e8f23ef057943489565cc2c408a7d8", "lat": 38.902504666666665, "fusion_lon": 0.0, "fusion_lat": 0.0, "type": "electric_scooter", "name": "d4e8f23ef057943489565cc2c408a7d8", "is_disabled": 0, "rental_uris": {"ios": "https://dc.lft.to/lastmile_qr_scan", "android": "https://dc.lft.to/lastmile_qr_scan"}, "is_reserved": 0}, {"lon": -77.02537916666667, "bike_id": "fffedb9aa712192a17af112c6bd0c6df", "lat": 38.93872833333333, "fusion_lon": 0.0, "fusion_lat": 0.0, "type": "electric_scooter", "name": "fffedb9aa712192a17af112c6bd0c6df", "is_disabled": 0, "rental_uris": {"ios": "https://dc.lft.to/lastmile_qr_scan", "android": "https://dc.lft.to/lastmile_qr_scan"}, "is_reserved": 0}, {"lon": -76.97517916666666, "bike_id": "21b84e8683dae8a5eec3238e6f2da868", "lat": 38.96701183333333, "fusion_lon": 0.0, "fusion_lat": 0.0, "type": "electric_bike", "name": "21b84e8683dae8a5eec3238e6f2da868", "is_disabled": 0, "rental_uris": {"ios": "https://dc.lft.to/lastmile_qr_scan", "android": "https://dc.lft.to/lastmile_qr_scan"}, "is_reserved": 0}, {"lon": -76.9967805, "bike_id": "e9ac44e43632a3b0d6a8d44a9766416b", "lat": 38.86022583333333, "fusion_lon": 0.0, "fusion_lat": 0.0, "type": "electric_scooter", "name": "e9ac44e43632a3b0d6a8d44a9766416b", "is_disabled": 0, "rental_uris": {"ios": "https://dc.lft.to/lastmile_qr_scan", "android": "https://dc.lft.to/lastmile_qr_scan"}, "is_reserved": 0}, {"lon": -77.08290316666667, "bike_id": "86f3e4ac4e4c3559ded43b31fdd1843e", "lat": 38.93590716666667, "fusion_lon": 0.0, "fusion_lat": 0.0, "type": "electric_scooter", "name": "86f3e4ac4e4c3559ded43b31fdd1843e", "is_disabled": 0, "rental_uris": {"ios": "https://dc.lft.to/lastmile_qr_scan", "android": "https://dc.lft.to/lastmile_qr_scan"}, "is_reserved": 0}, {"lon": -77.04071716666667, "bike_id": "0760bba2b83e1fc7eb28a664ad8b029a", "lat": 38.90706466666666, "fusion_lon": 0.0, "fusion_lat": 0.0, "type": "electric_scooter", "name": "0760bba2b83e1fc7eb28a664ad8b029a", "is_disabled": 0, "rental_uris": {"ios": "https://dc.lft.to/lastmile_qr_scan", "android": "https://dc.lft.to/lastmile_qr_scan"}, "is_reserved": 0}, {"lon": -77.05033016666667, "bike_id": "d429996501fa0a155469016751df018d", "lat": 38.900557666666664, "fusion_lon": 0.0, "fusion_lat": 0.0, "type": "electric_scooter", "name": "d429996501fa0a155469016751df018d", "is_disabled": 0, "rental_uris": {"ios": "https://dc.lft.to/lastmile_qr_scan", "android": "https://dc.lft.to/lastmile_qr_scan"}, "is_reserved": 0}, {"lon": -77.02375966666666, "bike_id": "6949888b38901296765fc1e30de6f03d", "lat": 38.89226433333333, "fusion_lon": 0.0, "fusion_lat": 0.0, "type": "electric_scooter", "name": "6949888b38901296765fc1e30de6f03d", "is_disabled": 0, "rental_uris": {"ios": "https://dc.lft.to/lastmile_qr_scan", "android": "https://dc.lft.to/lastmile_qr_scan"}, "is_reserved": 0}, {"lon": -77.02090966666667, "bike_id": "f7d38ade96353d8023ad812945bdada6", "lat": 38.957536, "fusion_lon": 0.0, "fusion_lat": 0.0, "type": "electric_scooter", "name": "f7d38ade96353d8023ad812945bdada6", "is_disabled": 0, "rental_uris": {"ios": "https://dc.lft.to/lastmile_qr_scan", "android": "https://dc.lft.to/lastmile_qr_scan"}, "is_reserved": 0}, {"lon": -76.996433, "bike_id": "2907c77e17517e697f9c148aab5f932d", "lat": 38.9882775, "fusion_lon": 0.0, "fusion_lat": 0.0, "type": "electric_bike", "name": "2907c77e17517e697f9c148aab5f932d", "is_disabled": 0, "rental_uris": {"ios": "https://dc.lft.to/lastmile_qr_scan", "android": "https://dc.lft.to/lastmile_qr_scan"}, "is_reserved": 0}, {"lon": -77.01836233333333, "bike_id": "5f59fc3eaa629acba62ecda864390f76", "lat": 38.90255233333333, "fusion_lon": 0.0, "fusion_lat": 0.0, "type": "electric_scooter", "name": "5f59fc3eaa629acba62ecda864390f76", "is_disabled": 0, "rental_uris": {"ios": "https://dc.lft.to/lastmile_qr_scan", "android": "https://dc.lft.to/lastmile_qr_scan"}, "is_reserved": 0}, {"lon": -77.038597, "bike_id": "b124989a8ee1e16a929ff47261f2993e", "lat": 38.911762, "fusion_lon": 0.0, "fusion_lat": 0.0, "type": "electric_scooter", "name": "b124989a8ee1e16a929ff47261f2993e", "is_disabled": 0, "rental_uris": {"ios": "https://dc.lft.to/lastmile_qr_scan", "android": "https://dc.lft.to/lastmile_qr_scan"}, "is_reserved": 0}, {"lon": -77.0036895, "bike_id": "c30972eb663be86f59bfbce5b4ee7d88", "lat": 38.8972945, "fusion_lon": 0.0, "fusion_lat": 0.0, "type": "electric_scooter", "name": "c30972eb663be86f59bfbce5b4ee7d88", "is_disabled": 0, "rental_uris": {"ios": "https://dc.lft.to/lastmile_qr_scan", "android": "https://dc.lft.to/lastmile_qr_scan"}, "is_reserved": 0}, {"lon": -77.131022, "bike_id": "6a93890134d42b9a899fc22f5f66f5fb", "lat": 39.02437233333333, "fusion_lon": 0.0, "fusion_lat": 0.0, "type": "electric_bike", "name": "6a93890134d42b9a899fc22f5f66f5fb", "is_disabled": 0, "rental_uris": {"ios": "https://dc.lft.to/lastmile_qr_scan", "android": "https://dc.lft.to/lastmile_qr_scan"}, "is_reserved": 0}, {"lon": -77.0677995, "bike_id": "d867ab4687f35b7bdd17ef7958fce19f", "lat": 38.90458816666667, "fusion_lon": 0.0, "fusion_lat": 0.0, "type": "electric_scooter", "name": "d867ab4687f35b7bdd17ef7958fce19f", "is_disabled": 0, "rental_uris": {"ios": "https://dc.lft.to/lastmile_qr_scan", "android": "https://dc.lft.to/lastmile_qr_scan"}, "is_reserved": 0}, {"lon": -77.018428, "bike_id": "d75f0958939d5cbee13b5430d170cf02", "lat": 38.903914666666665, "fusion_lon": 0.0, "fusion_lat": 0.0, "type": "electric_scooter", "name": "d75f0958939d5cbee13b5430d170cf02", "is_disabled": 0, "rental_uris": {"ios": "https://dc.lft.to/lastmile_qr_scan", "android": "https://dc.lft.to/lastmile_qr_scan"}, "is_reserved": 0}, {"lon": -77.0385345, "bike_id": "621a693296200b98253268cbbb056692", "lat": 38.915532, "fusion_lon": 0.0, "fusion_lat": 0.0, "type": "electric_scooter", "name": "621a693296200b98253268cbbb056692", "is_disabled": 0, "rental_uris": {"ios": "https://dc.lft.to/lastmile_qr_scan", "android": "https://dc.lft.to/lastmile_qr_scan"}, "is_reserved": 0}, {"lon": -77.032579, "bike_id": "18a236c791e7879e93c5cfaec10b715c", "lat": 38.925514166666666, "fusion_lon": 0.0, "fusion_lat": 0.0, "type": "electric_scooter", "name": "18a236c791e7879e93c5cfaec10b715c", "is_disabled": 0, "rental_uris": {"ios": "https://dc.lft.to/lastmile_qr_scan", "android": "https://dc.lft.to/lastmile_qr_scan"}, "is_reserved": 0}, {"lon": -77.024198, "bike_id": "a4c88f5c7e13d91ef9d6bd1647619678", "lat": 38.9207575, "fusion_lon": 0.0, "fusion_lat": 0.0, "type": "electric_scooter", "name": "a4c88f5c7e13d91ef9d6bd1647619678", "is_disabled": 0, "rental_uris": {"ios": "https://dc.lft.to/lastmile_qr_scan", "android": "https://dc.lft.to/lastmile_qr_scan"}, "is_reserved": 0}, {"lon": -77.02522316666666, "bike_id": "3fa7e9373469dafbb1bb7c8cd029e2e4", "lat": 38.91934633333334, "fusion_lon": 0.0, "fusion_lat": 0.0, "type": "electric_scooter", "name": "3fa7e9373469dafbb1bb7c8cd029e2e4", "is_disabled": 0, "rental_uris": {"ios": "https://dc.lft.to/lastmile_qr_scan", "android": "https://dc.lft.to/lastmile_qr_scan"}, "is_reserved": 0}, {"lon": -77.04653766666667, "bike_id": "b3b0c08539927c74248be9d7726a1224", "lat": 38.905512333333334, "fusion_lon": 0.0, "fusion_lat": 0.0, "type": "electric_scooter", "name": "b3b0c08539927c74248be9d7726a1224", "is_disabled": 0, "rental_uris": {"ios": "https://dc.lft.to/lastmile_qr_scan", "android": "https://dc.lft.to/lastmile_qr_scan"}, "is_reserved": 0}, {"lon": -77.04172633333333, "bike_id": "33b0ea03a60ce345ee640e640aef91d7", "lat": 38.917935666666665, "fusion_lon": 0.0, "fusion_lat": 0.0, "type": "electric_scooter", "name": "33b0ea03a60ce345ee640e640aef91d7", "is_disabled": 0, "rental_uris": {"ios": "https://dc.lft.to/lastmile_qr_scan", "android": "https://dc.lft.to/lastmile_qr_scan"}, "is_reserved": 0}, {"lon": -77.09073066666667, "bike_id": "ca9fada1ab4fad550014b2d68923a360", "lat": 38.97857316666666, "fusion_lon": 0.0, "fusion_lat": 0.0, "type": "electric_bike", "name": "ca9fada1ab4fad550014b2d68923a360", "is_disabled": 0, "rental_uris": {"ios": "https://dc.lft.to/lastmile_qr_scan", "android": "https://dc.lft.to/lastmile_qr_scan"}, "is_reserved": 0}, {"lon": -77.0153425, "bike_id": "73225994dbf3ff525de7fc4777e90f4c", "lat": 38.9025375, "fusion_lon": 0.0, "fusion_lat": 0.0, "type": "electric_scooter", "name": "73225994dbf3ff525de7fc4777e90f4c", "is_disabled": 0, "rental_uris": {"ios": "https://dc.lft.to/lastmile_qr_scan", "android": "https://dc.lft.to/lastmile_qr_scan"}, "is_reserved": 0}, {"lon": -77.01930233333333, "bike_id": "2d017e93e844f9d53c229f098f915a28", "lat": 38.92225533333333, "fusion_lon": 0.0, "fusion_lat": 0.0, "type": "electric_scooter", "name": "2d017e93e844f9d53c229f098f915a28", "is_disabled": 0, "rental_uris": {"ios": "https://dc.lft.to/lastmile_qr_scan", "android": "https://dc.lft.to/lastmile_qr_scan"}, "is_reserved": 0}, {"lon": -77.0271765, "bike_id": "42db550b84fd9b199c33d17cb89b3812", "lat": 38.916852, "fusion_lon": 0.0, "fusion_lat": 0.0, "type": "electric_scooter", "name": "42db550b84fd9b199c33d17cb89b3812", "is_disabled": 0, "rental_uris": {"ios": "https://dc.lft.to/lastmile_qr_scan", "android": "https://dc.lft.to/lastmile_qr_scan"}, "is_reserved": 0}, {"lon": -77.0447635, "bike_id": "2a0cde90b749c73a3e1e01c2aed82147", "lat": 38.9053505, "fusion_lon": 0.0, "fusion_lat": 0.0, "type": "electric_scooter", "name": "2a0cde90b749c73a3e1e01c2aed82147", "is_disabled": 0, "rental_uris": {"ios": "https://dc.lft.to/lastmile_qr_scan", "android": "https://dc.lft.to/lastmile_qr_scan"}, "is_reserved": 0}, {"lon": -77.03846533333333, "bike_id": "852cf00fb74cc662229300253cf4144f", "lat": 38.932594, "fusion_lon": 0.0, "fusion_lat": 0.0, "type": "electric_scooter", "name": "852cf00fb74cc662229300253cf4144f", "is_disabled": 0, "rental_uris": {"ios": "https://dc.lft.to/lastmile_qr_scan", "android": "https://dc.lft.to/lastmile_qr_scan"}, "is_reserved": 0}, {"lon": -76.99599983333333, "bike_id": "d4737a68559ac2b5a7045417c9be2749", "lat": 38.95077, "fusion_lon": 0.0, "fusion_lat": 0.0, "type": "electric_bike", "name": "d4737a68559ac2b5a7045417c9be2749", "is_disabled": 0, "rental_uris": {"ios": "https://dc.lft.to/lastmile_qr_scan", "android": "https://dc.lft.to/lastmile_qr_scan"}, "is_reserved": 0}, {"lon": -77.05044966666667, "bike_id": "4c3152ca8b22da21d9b38dad6b24417a", "lat": 38.92368583333333, "fusion_lon": 0.0, "fusion_lat": 0.0, "type": "electric_scooter", "name": "4c3152ca8b22da21d9b38dad6b24417a", "is_disabled": 0, "rental_uris": {"ios": "https://dc.lft.to/lastmile_qr_scan", "android": "https://dc.lft.to/lastmile_qr_scan"}, "is_reserved": 0}, {"lon": -77.01566983333333, "bike_id": "7e974687625d24e294a2914a4834fb68", "lat": 38.88315016666667, "fusion_lon": 0.0, "fusion_lat": 0.0, "type": "electric_scooter", "name": "7e974687625d24e294a2914a4834fb68", "is_disabled": 0, "rental_uris": {"ios": "https://dc.lft.to/lastmile_qr_scan", "android": "https://dc.lft.to/lastmile_qr_scan"}, "is_reserved": 0}, {"lon": -76.9785625, "bike_id": "cae5c805c3c255e12fe328f7ded53b73", "lat": 38.90722433333333, "fusion_lon": 0.0, "fusion_lat": 0.0, "type": "electric_scooter", "name": "cae5c805c3c255e12fe328f7ded53b73", "is_disabled": 0, "rental_uris": {"ios": "https://dc.lft.to/lastmile_qr_scan", "android": "https://dc.lft.to/lastmile_qr_scan"}, "is_reserved": 0}, {"lon": -77.03555233333333, "bike_id": "b5b5b7bf143eff305e8264131f096ad1", "lat": 38.93382583333333, "fusion_lon": 0.0, "fusion_lat": 0.0, "type": "electric_scooter", "name": "b5b5b7bf143eff305e8264131f096ad1", "is_disabled": 0, "rental_uris": {"ios": "https://dc.lft.to/lastmile_qr_scan", "android": "https://dc.lft.to/lastmile_qr_scan"}, "is_reserved": 0}, {"lon": -77.0209595, "bike_id": "9aa14b9ca64f949468f3d352122254c5", "lat": 38.929153, "fusion_lon": 0.0, "fusion_lat": 0.0, "type": "electric_scooter", "name": "9aa14b9ca64f949468f3d352122254c5", "is_disabled": 0, "rental_uris": {"ios": "https://dc.lft.to/lastmile_qr_scan", "android": "https://dc.lft.to/lastmile_qr_scan"}, "is_reserved": 0}, {"lon": -76.9499315, "bike_id": "98b86d4a9192dc497098dced05022c32", "lat": 38.8938345, "fusion_lon": 0.0, "fusion_lat": 0.0, "type": "electric_scooter", "name": "98b86d4a9192dc497098dced05022c32", "is_disabled": 0, "rental_uris": {"ios": "https://dc.lft.to/lastmile_qr_scan", "android": "https://dc.lft.to/lastmile_qr_scan"}, "is_reserved": 0}, {"lon": -77.05003366666666, "bike_id": "2caa912fab8eaed2197a8f9bafae7927", "lat": 38.89197033333333, "fusion_lon": 0.0, "fusion_lat": 0.0, "type": "electric_scooter", "name": "2caa912fab8eaed2197a8f9bafae7927", "is_disabled": 0, "rental_uris": {"ios": "https://dc.lft.to/lastmile_qr_scan", "android": "https://dc.lft.to/lastmile_qr_scan"}, "is_reserved": 0}, {"lon": -77.032924, "bike_id": "266d1ead7caa98d7067c191dac92a5be", "lat": 38.910458, "fusion_lon": 0.0, "fusion_lat": 0.0, "type": "electric_scooter", "name": "266d1ead7caa98d7067c191dac92a5be", "is_disabled": 0, "rental_uris": {"ios": "https://dc.lft.to/lastmile_qr_scan", "android": "https://dc.lft.to/lastmile_qr_scan"}, "is_reserved": 0}, {"lon": -77.03262883333333, "bike_id": "e11f659bf8b331b4ace21370535ffcf4", "lat": 38.9378055, "fusion_lon": 0.0, "fusion_lat": 0.0, "type": "electric_scooter", "name": "e11f659bf8b331b4ace21370535ffcf4", "is_disabled": 0, "rental_uris": {"ios": "https://dc.lft.to/lastmile_qr_scan", "android": "https://dc.lft.to/lastmile_qr_scan"}, "is_reserved": 0}, {"lon": -77.046713, "bike_id": "ae19d97afc083d9614d3a53253b2ec98", "lat": 38.892365, "fusion_lon": 0.0, "fusion_lat": 0.0, "type": "electric_scooter", "name": "ae19d97afc083d9614d3a53253b2ec98", "is_disabled": 0, "rental_uris": {"ios": "https://dc.lft.to/lastmile_qr_scan", "android": "https://dc.lft.to/lastmile_qr_scan"}, "is_reserved": 0}, {"lon": -77.03263416666667, "bike_id": "aaabbd0b63cfa7576333d26b8c67ab09", "lat": 38.929925833333336, "fusion_lon": 0.0, "fusion_lat": 0.0, "type": "electric_scooter", "name": "aaabbd0b63cfa7576333d26b8c67ab09", "is_disabled": 0, "rental_uris": {"ios": "https://dc.lft.to/lastmile_qr_scan", "android": "https://dc.lft.to/lastmile_qr_scan"}, "is_reserved": 0}, {"lon": -76.97561516666667, "bike_id": "e1b3d06353e5ff0ae52d1da16ab13cd5", "lat": 38.92461216666667, "fusion_lon": 0.0, "fusion_lat": 0.0, "type": "electric_bike", "name": "e1b3d06353e5ff0ae52d1da16ab13cd5", "is_disabled": 0, "rental_uris": {"ios": "https://dc.lft.to/lastmile_qr_scan", "android": "https://dc.lft.to/lastmile_qr_scan"}, "is_reserved": 0}, {"lon": -77.02569283333334, "bike_id": "4ad32209f5915d3044d7cb047e85fe71", "lat": 38.914904, "fusion_lon": 0.0, "fusion_lat": 0.0, "type": "electric_scooter", "name": "4ad32209f5915d3044d7cb047e85fe71", "is_disabled": 0, "rental_uris": {"ios": "https://dc.lft.to/lastmile_qr_scan", "android": "https://dc.lft.to/lastmile_qr_scan"}, "is_reserved": 0}, {"lon": -77.00681366666667, "bike_id": "f329efece622d8a40e3d17eeeb9a4125", "lat": 38.945018, "fusion_lon": 0.0, "fusion_lat": 0.0, "type": "electric_bike", "name": "f329efece622d8a40e3d17eeeb9a4125", "is_disabled": 0, "rental_uris": {"ios": "https://dc.lft.to/lastmile_qr_scan", "android": "https://dc.lft.to/lastmile_qr_scan"}, "is_reserved": 0}, {"lon": -77.03131583333334, "bike_id": "ae7302317b2b2afa4c65ec11b2f0dba8", "lat": 38.9237965, "fusion_lon": 0.0, "fusion_lat": 0.0, "type": "electric_scooter", "name": "ae7302317b2b2afa4c65ec11b2f0dba8", "is_disabled": 0, "rental_uris": {"ios": "https://dc.lft.to/lastmile_qr_scan", "android": "https://dc.lft.to/lastmile_qr_scan"}, "is_reserved": 0}, {"lon": -77.040134, "bike_id": "3a394346ea09c21ad5dca652e4322a87", "lat": 38.910036833333336, "fusion_lon": 0.0, "fusion_lat": 0.0, "type": "electric_scooter", "name": "3a394346ea09c21ad5dca652e4322a87", "is_disabled": 0, "rental_uris": {"ios": "https://dc.lft.to/lastmile_qr_scan", "android": "https://dc.lft.to/lastmile_qr_scan"}, "is_reserved": 0}, {"lon": -77.0255895, "bike_id": "bc381ca338a10a23debcb030da70d450", "lat": 38.9417665, "fusion_lon": 0.0, "fusion_lat": 0.0, "type": "electric_scooter", "name": "bc381ca338a10a23debcb030da70d450", "is_disabled": 0, "rental_uris": {"ios": "https://dc.lft.to/lastmile_qr_scan", "android": "https://dc.lft.to/lastmile_qr_scan"}, "is_reserved": 0}, {"lon": -77.03808233333334, "bike_id": "a2e5673e33228353a005ab6110bb57d8", "lat": 38.93025166666666, "fusion_lon": 0.0, "fusion_lat": 0.0, "type": "electric_scooter", "name": "a2e5673e33228353a005ab6110bb57d8", "is_disabled": 0, "rental_uris": {"ios": "https://dc.lft.to/lastmile_qr_scan", "android": "https://dc.lft.to/lastmile_qr_scan"}, "is_reserved": 0}, {"lon": -76.99884083333333, "bike_id": "82299b3e5a4da696682a968c7d515946", "lat": 38.90727, "fusion_lon": 0.0, "fusion_lat": 0.0, "type": "electric_scooter", "name": "82299b3e5a4da696682a968c7d515946", "is_disabled": 0, "rental_uris": {"ios": "https://dc.lft.to/lastmile_qr_scan", "android": "https://dc.lft.to/lastmile_qr_scan"}, "is_reserved": 0}, {"lon": -77.00595516666667, "bike_id": "c30421e0ddfed24ffd91e1bc63260827", "lat": 38.87188483333333, "fusion_lon": 0.0, "fusion_lat": 0.0, "type": "electric_scooter", "name": "c30421e0ddfed24ffd91e1bc63260827", "is_disabled": 0, "rental_uris": {"ios": "https://dc.lft.to/lastmile_qr_scan", "android": "https://dc.lft.to/lastmile_qr_scan"}, "is_reserved": 0}, {"lon": -77.02161433333333, "bike_id": "d88b3fd4629a0d734e65ff6720e7808f", "lat": 38.930762, "fusion_lon": 0.0, "fusion_lat": 0.0, "type": "electric_scooter", "name": "d88b3fd4629a0d734e65ff6720e7808f", "is_disabled": 0, "rental_uris": {"ios": "https://dc.lft.to/lastmile_qr_scan", "android": "https://dc.lft.to/lastmile_qr_scan"}, "is_reserved": 0}, {"lon": -77.02513766666667, "bike_id": "a90309ccbd3c6271e7831b84649ebd44", "lat": 38.92653266666667, "fusion_lon": 0.0, "fusion_lat": 0.0, "type": "electric_scooter", "name": "a90309ccbd3c6271e7831b84649ebd44", "is_disabled": 0, "rental_uris": {"ios": "https://dc.lft.to/lastmile_qr_scan", "android": "https://dc.lft.to/lastmile_qr_scan"}, "is_reserved": 0}, {"lon": -77.0327925, "bike_id": "1374d40875c4eb8cc7cd0faf0e2cec26", "lat": 38.90135083333333, "fusion_lon": 0.0, "fusion_lat": 0.0, "type": "electric_scooter", "name": "1374d40875c4eb8cc7cd0faf0e2cec26", "is_disabled": 0, "rental_uris": {"ios": "https://dc.lft.to/lastmile_qr_scan", "android": "https://dc.lft.to/lastmile_qr_scan"}, "is_reserved": 0}, {"lon": -77.07110566666667, "bike_id": "597b375d10cdef7ec6d43d42a51aadc9", "lat": 38.9198175, "fusion_lon": 0.0, "fusion_lat": 0.0, "type": "electric_scooter", "name": "597b375d10cdef7ec6d43d42a51aadc9", "is_disabled": 0, "rental_uris": {"ios": "https://dc.lft.to/lastmile_qr_scan", "android": "https://dc.lft.to/lastmile_qr_scan"}, "is_reserved": 0}, {"lon": -76.97811883333334, "bike_id": "b8e8198e1dd749e4b7a36ab8074b5caf", "lat": 38.90675266666667, "fusion_lon": 0.0, "fusion_lat": 0.0, "type": "electric_scooter", "name": "b8e8198e1dd749e4b7a36ab8074b5caf", "is_disabled": 0, "rental_uris": {"ios": "https://dc.lft.to/lastmile_qr_scan", "android": "https://dc.lft.to/lastmile_qr_scan"}, "is_reserved": 0}, {"lon": -77.04263933333333, "bike_id": "5295011e68c00ca059414f3c4e25d97b", "lat": 38.922970666666664, "fusion_lon": 0.0, "fusion_lat": 0.0, "type": "electric_scooter", "name": "5295011e68c00ca059414f3c4e25d97b", "is_disabled": 0, "rental_uris": {"ios": "https://dc.lft.to/lastmile_qr_scan", "android": "https://dc.lft.to/lastmile_qr_scan"}, "is_reserved": 0}, {"lon": -76.895411, "bike_id": "40550ae77de763ca30c0c2eabaac0f90", "lat": 38.9455625, "fusion_lon": 0.0, "fusion_lat": 0.0, "type": "electric_bike", "name": "40550ae77de763ca30c0c2eabaac0f90", "is_disabled": 0, "rental_uris": {"ios": "https://dc.lft.to/lastmile_qr_scan", "android": "https://dc.lft.to/lastmile_qr_scan"}, "is_reserved": 0}, {"lon": -77.0316475, "bike_id": "49695b32c59fa927048e6a330827b5bf", "lat": 38.90112833333333, "fusion_lon": 0.0, "fusion_lat": 0.0, "type": "electric_scooter", "name": "49695b32c59fa927048e6a330827b5bf", "is_disabled": 0, "rental_uris": {"ios": "https://dc.lft.to/lastmile_qr_scan", "android": "https://dc.lft.to/lastmile_qr_scan"}, "is_reserved": 0}, {"lon": -77.03987433333333, "bike_id": "8fa41cc96a9ce41ce6507a9839dc8da8", "lat": 38.905701666666666, "fusion_lon": 0.0, "fusion_lat": 0.0, "type": "electric_scooter", "name": "8fa41cc96a9ce41ce6507a9839dc8da8", "is_disabled": 0, "rental_uris": {"ios": "https://dc.lft.to/lastmile_qr_scan", "android": "https://dc.lft.to/lastmile_qr_scan"}, "is_reserved": 0}, {"lon": -77.04391133333333, "bike_id": "4caae2bca4fdd0bb36527078352ca33f", "lat": 38.921196, "fusion_lon": 0.0, "fusion_lat": 0.0, "type": "electric_scooter", "name": "4caae2bca4fdd0bb36527078352ca33f", "is_disabled": 0, "rental_uris": {"ios": "https://dc.lft.to/lastmile_qr_scan", "android": "https://dc.lft.to/lastmile_qr_scan"}, "is_reserved": 0}, {"lon": -77.046733, "bike_id": "e92d4789b07e203b5d66d5e42666634b", "lat": 38.892363, "fusion_lon": 0.0, "fusion_lat": 0.0, "type": "electric_scooter", "name": "e92d4789b07e203b5d66d5e42666634b", "is_disabled": 0, "rental_uris": {"ios": "https://dc.lft.to/lastmile_qr_scan", "android": "https://dc.lft.to/lastmile_qr_scan"}, "is_reserved": 0}, {"lon": -77.04215383333333, "bike_id": "aea61a41f83b07b7887955862b7eed53", "lat": 38.92318316666667, "fusion_lon": 0.0, "fusion_lat": 0.0, "type": "electric_scooter", "name": "aea61a41f83b07b7887955862b7eed53", "is_disabled": 0, "rental_uris": {"ios": "https://dc.lft.to/lastmile_qr_scan", "android": "https://dc.lft.to/lastmile_qr_scan"}, "is_reserved": 0}, {"lon": -77.0211225, "bike_id": "7e3603015d49ca063b2fd28a339801a5", "lat": 38.915904166666664, "fusion_lon": 0.0, "fusion_lat": 0.0, "type": "electric_scooter", "name": "7e3603015d49ca063b2fd28a339801a5", "is_disabled": 0, "rental_uris": {"ios": "https://dc.lft.to/lastmile_qr_scan", "android": "https://dc.lft.to/lastmile_qr_scan"}, "is_reserved": 0}, {"lon": -77.0385705, "bike_id": "1621bd530f369df9013ce9dd96925e8a", "lat": 38.91787, "fusion_lon": 0.0, "fusion_lat": 0.0, "type": "electric_scooter", "name": "1621bd530f369df9013ce9dd96925e8a", "is_disabled": 0, "rental_uris": {"ios": "https://dc.lft.to/lastmile_qr_scan", "android": "https://dc.lft.to/lastmile_qr_scan"}, "is_reserved": 0}, {"lon": -77.0382645, "bike_id": "55d9724a9837949803c3189681eba4f1", "lat": 38.910472666666664, "fusion_lon": 0.0, "fusion_lat": 0.0, "type": "electric_scooter", "name": "55d9724a9837949803c3189681eba4f1", "is_disabled": 0, "rental_uris": {"ios": "https://dc.lft.to/lastmile_qr_scan", "android": "https://dc.lft.to/lastmile_qr_scan"}, "is_reserved": 0}, {"lon": -76.99489566666666, "bike_id": "54c202c41d345e366c1eaf7c8e793e44", "lat": 38.86250483333333, "fusion_lon": 0.0, "fusion_lat": 0.0, "type": "electric_scooter", "name": "54c202c41d345e366c1eaf7c8e793e44", "is_disabled": 0, "rental_uris": {"ios": "https://dc.lft.to/lastmile_qr_scan", "android": "https://dc.lft.to/lastmile_qr_scan"}, "is_reserved": 0}, {"lon": -76.9762445, "bike_id": "bc34bbe6e65386421ca6d8b75d675487", "lat": 38.90578133333333, "fusion_lon": 0.0, "fusion_lat": 0.0, "type": "electric_scooter", "name": "bc34bbe6e65386421ca6d8b75d675487", "is_disabled": 0, "rental_uris": {"ios": "https://dc.lft.to/lastmile_qr_scan", "android": "https://dc.lft.to/lastmile_qr_scan"}, "is_reserved": 0}, {"lon": -77.01944283333333, "bike_id": "a60379b6c9c26aafe3519de6b41ee3f0", "lat": 38.9369175, "fusion_lon": 0.0, "fusion_lat": 0.0, "type": "electric_scooter", "name": "a60379b6c9c26aafe3519de6b41ee3f0", "is_disabled": 0, "rental_uris": {"ios": "https://dc.lft.to/lastmile_qr_scan", "android": "https://dc.lft.to/lastmile_qr_scan"}, "is_reserved": 0}, {"lon": -76.98542633333334, "bike_id": "61ef926a97790fe8f1124448e688d6ed", "lat": 38.89658933333333, "fusion_lon": 0.0, "fusion_lat": 0.0, "type": "electric_scooter", "name": "61ef926a97790fe8f1124448e688d6ed", "is_disabled": 0, "rental_uris": {"ios": "https://dc.lft.to/lastmile_qr_scan", "android": "https://dc.lft.to/lastmile_qr_scan"}, "is_reserved": 0}, {"lon": -77.04160316666666, "bike_id": "13c2397e79ff054077f6e2ed317c6f99", "lat": 38.912558, "fusion_lon": 0.0, "fusion_lat": 0.0, "type": "electric_scooter", "name": "13c2397e79ff054077f6e2ed317c6f99", "is_disabled": 0, "rental_uris": {"ios": "https://dc.lft.to/lastmile_qr_scan", "android": "https://dc.lft.to/lastmile_qr_scan"}, "is_reserved": 0}, {"lon": -77.03310116666667, "bike_id": "4196b1f7d95ffacff6dfddd1bf3c7eec", "lat": 38.9256035, "fusion_lon": 0.0, "fusion_lat": 0.0, "type": "electric_scooter", "name": "4196b1f7d95ffacff6dfddd1bf3c7eec", "is_disabled": 0, "rental_uris": {"ios": "https://dc.lft.to/lastmile_qr_scan", "android": "https://dc.lft.to/lastmile_qr_scan"}, "is_reserved": 0}, {"lon": -77.04766016666666, "bike_id": "d5aeff93ff92ce4bdbfe414474e0cde9", "lat": 38.92143933333333, "fusion_lon": 0.0, "fusion_lat": 0.0, "type": "electric_scooter", "name": "d5aeff93ff92ce4bdbfe414474e0cde9", "is_disabled": 0, "rental_uris": {"ios": "https://dc.lft.to/lastmile_qr_scan", "android": "https://dc.lft.to/lastmile_qr_scan"}, "is_reserved": 0}, {"lon": -76.93064483333333, "bike_id": "23ee0960a20a3228287e942f16117d8a", "lat": 38.901586333333334, "fusion_lon": 0.0, "fusion_lat": 0.0, "type": "electric_scooter", "name": "23ee0960a20a3228287e942f16117d8a", "is_disabled": 0, "rental_uris": {"ios": "https://dc.lft.to/lastmile_qr_scan", "android": "https://dc.lft.to/lastmile_qr_scan"}, "is_reserved": 0}, {"lon": -77.02404133333333, "bike_id": "76a3fe64003f33781cd5d102007d66fe", "lat": 38.915675, "fusion_lon": 0.0, "fusion_lat": 0.0, "type": "electric_scooter", "name": "76a3fe64003f33781cd5d102007d66fe", "is_disabled": 0, "rental_uris": {"ios": "https://dc.lft.to/lastmile_qr_scan", "android": "https://dc.lft.to/lastmile_qr_scan"}, "is_reserved": 0}, {"lon": -77.03871, "bike_id": "71d15f7bac27c4c70d68873aea63b957", "lat": 38.912708, "fusion_lon": 0.0, "fusion_lat": 0.0, "type": "electric_scooter", "name": "71d15f7bac27c4c70d68873aea63b957", "is_disabled": 0, "rental_uris": {"ios": "https://dc.lft.to/lastmile_qr_scan", "android": "https://dc.lft.to/lastmile_qr_scan"}, "is_reserved": 0}, {"lon": -77.01845133333333, "bike_id": "470f2adb18ca6f4e6158f4bced326bee", "lat": 38.90270533333333, "fusion_lon": 0.0, "fusion_lat": 0.0, "type": "electric_scooter", "name": "470f2adb18ca6f4e6158f4bced326bee", "is_disabled": 0, "rental_uris": {"ios": "https://dc.lft.to/lastmile_qr_scan", "android": "https://dc.lft.to/lastmile_qr_scan"}, "is_reserved": 0}, {"lon": -76.948754, "bike_id": "53fe85d42e192ae5200095f7630d54d0", "lat": 38.89506933333333, "fusion_lon": 0.0, "fusion_lat": 0.0, "type": "electric_scooter", "name": "53fe85d42e192ae5200095f7630d54d0", "is_disabled": 0, "rental_uris": {"ios": "https://dc.lft.to/lastmile_qr_scan", "android": "https://dc.lft.to/lastmile_qr_scan"}, "is_reserved": 0}, {"lon": -77.04361216666666, "bike_id": "e468d038221e7998625a5f4d8581ba54", "lat": 39.015413833333334, "fusion_lon": 0.0, "fusion_lat": 0.0, "type": "electric_bike", "name": "e468d038221e7998625a5f4d8581ba54", "is_disabled": 0, "rental_uris": {"ios": "https://dc.lft.to/lastmile_qr_scan", "android": "https://dc.lft.to/lastmile_qr_scan"}, "is_reserved": 0}, {"lon": -77.0389715, "bike_id": "21feb7102299ce0301ab7c47a34daf24", "lat": 38.923439, "fusion_lon": 0.0, "fusion_lat": 0.0, "type": "electric_scooter", "name": "21feb7102299ce0301ab7c47a34daf24", "is_disabled": 0, "rental_uris": {"ios": "https://dc.lft.to/lastmile_qr_scan", "android": "https://dc.lft.to/lastmile_qr_scan"}, "is_reserved": 0}, {"lon": -76.97843333333333, "bike_id": "31bc1a0a2a3f0ac58ace339c1c6e8884", "lat": 38.8656835, "fusion_lon": 0.0, "fusion_lat": 0.0, "type": "electric_scooter", "name": "31bc1a0a2a3f0ac58ace339c1c6e8884", "is_disabled": 0, "rental_uris": {"ios": "https://dc.lft.to/lastmile_qr_scan", "android": "https://dc.lft.to/lastmile_qr_scan"}, "is_reserved": 0}, {"lon": -77.0487695, "bike_id": "5d8b3b43754bc393b75ca82e5594ba81", "lat": 38.8923645, "fusion_lon": 0.0, "fusion_lat": 0.0, "type": "electric_scooter", "name": "5d8b3b43754bc393b75ca82e5594ba81", "is_disabled": 0, "rental_uris": {"ios": "https://dc.lft.to/lastmile_qr_scan", "android": "https://dc.lft.to/lastmile_qr_scan"}, "is_reserved": 0}, {"lon": -77.02600466666667, "bike_id": "b39e535323b5ccc9ded913033a731067", "lat": 38.9184545, "fusion_lon": 0.0, "fusion_lat": 0.0, "type": "electric_scooter", "name": "b39e535323b5ccc9ded913033a731067", "is_disabled": 0, "rental_uris": {"ios": "https://dc.lft.to/lastmile_qr_scan", "android": "https://dc.lft.to/lastmile_qr_scan"}, "is_reserved": 0}, {"lon": -77.03453766666667, "bike_id": "d00fdc23853f0e5f989a4e41c33a8e6e", "lat": 38.9175795, "fusion_lon": 0.0, "fusion_lat": 0.0, "type": "electric_scooter", "name": "d00fdc23853f0e5f989a4e41c33a8e6e", "is_disabled": 0, "rental_uris": {"ios": "https://dc.lft.to/lastmile_qr_scan", "android": "https://dc.lft.to/lastmile_qr_scan"}, "is_reserved": 0}, {"lon": -77.038179, "bike_id": "cd08584f604ba84ae20f488b8280b81a", "lat": 38.9096955, "fusion_lon": 0.0, "fusion_lat": 0.0, "type": "electric_scooter", "name": "cd08584f604ba84ae20f488b8280b81a", "is_disabled": 0, "rental_uris": {"ios": "https://dc.lft.to/lastmile_qr_scan", "android": "https://dc.lft.to/lastmile_qr_scan"}, "is_reserved": 0}, {"lon": -77.0627045, "bike_id": "a76b24c7e04e6303b1467b86a6b74feb", "lat": 38.86541316666667, "fusion_lon": 0.0, "fusion_lat": 0.0, "type": "electric_bike", "name": "a76b24c7e04e6303b1467b86a6b74feb", "is_disabled": 0, "rental_uris": {"ios": "https://dc.lft.to/lastmile_qr_scan", "android": "https://dc.lft.to/lastmile_qr_scan"}, "is_reserved": 0}, {"lon": -76.99367883333333, "bike_id": "55089f2968090dd6bccb657e35285b52", "lat": 38.94028516666667, "fusion_lon": 0.0, "fusion_lat": 0.0, "type": "electric_scooter", "name": "55089f2968090dd6bccb657e35285b52", "is_disabled": 0, "rental_uris": {"ios": "https://dc.lft.to/lastmile_qr_scan", "android": "https://dc.lft.to/lastmile_qr_scan"}, "is_reserved": 0}, {"lon": -76.985858, "bike_id": "1b7a3d0cad0ec3c385e7beb790419de5", "lat": 38.884058333333336, "fusion_lon": 0.0, "fusion_lat": 0.0, "type": "electric_scooter", "name": "1b7a3d0cad0ec3c385e7beb790419de5", "is_disabled": 0, "rental_uris": {"ios": "https://dc.lft.to/lastmile_qr_scan", "android": "https://dc.lft.to/lastmile_qr_scan"}, "is_reserved": 0}, {"lon": -77.00155366666667, "bike_id": "7f30e4c8c826b83e0e3d4f42e7aede6e", "lat": 38.916291, "fusion_lon": 0.0, "fusion_lat": 0.0, "type": "electric_scooter", "name": "7f30e4c8c826b83e0e3d4f42e7aede6e", "is_disabled": 0, "rental_uris": {"ios": "https://dc.lft.to/lastmile_qr_scan", "android": "https://dc.lft.to/lastmile_qr_scan"}, "is_reserved": 0}, {"lon": -76.97862683333334, "bike_id": "e589770d4e8fe6e5a5d0184d28a80764", "lat": 38.8830995, "fusion_lon": 0.0, "fusion_lat": 0.0, "type": "electric_scooter", "name": "e589770d4e8fe6e5a5d0184d28a80764", "is_disabled": 0, "rental_uris": {"ios": "https://dc.lft.to/lastmile_qr_scan", "android": "https://dc.lft.to/lastmile_qr_scan"}, "is_reserved": 0}, {"lon": -77.02555716666667, "bike_id": "b236ca6b06deeb6d469188ee2107aded", "lat": 38.94176983333333, "fusion_lon": 0.0, "fusion_lat": 0.0, "type": "electric_scooter", "name": "b236ca6b06deeb6d469188ee2107aded", "is_disabled": 0, "rental_uris": {"ios": "https://dc.lft.to/lastmile_qr_scan", "android": "https://dc.lft.to/lastmile_qr_scan"}, "is_reserved": 0}, {"lon": -77.05151216666667, "bike_id": "6a1b68c41c8fe25d6d5d36d9cbde63a1", "lat": 38.8986015, "fusion_lon": 0.0, "fusion_lat": 0.0, "type": "electric_scooter", "name": "6a1b68c41c8fe25d6d5d36d9cbde63a1", "is_disabled": 0, "rental_uris": {"ios": "https://dc.lft.to/lastmile_qr_scan", "android": "https://dc.lft.to/lastmile_qr_scan"}, "is_reserved": 0}, {"lon": -77.02959766666666, "bike_id": "baf27c9fe05fa54ab813312073b84d5b", "lat": 38.912768, "fusion_lon": 0.0, "fusion_lat": 0.0, "type": "electric_scooter", "name": "baf27c9fe05fa54ab813312073b84d5b", "is_disabled": 0, "rental_uris": {"ios": "https://dc.lft.to/lastmile_qr_scan", "android": "https://dc.lft.to/lastmile_qr_scan"}, "is_reserved": 0}, {"lon": -77.03867083333333, "bike_id": "fe631fd62ccb8fb3ad4765f7843ee0ba", "lat": 38.92015466666667, "fusion_lon": 0.0, "fusion_lat": 0.0, "type": "electric_scooter", "name": "fe631fd62ccb8fb3ad4765f7843ee0ba", "is_disabled": 0, "rental_uris": {"ios": "https://dc.lft.to/lastmile_qr_scan", "android": "https://dc.lft.to/lastmile_qr_scan"}, "is_reserved": 0}, {"lon": -77.017659, "bike_id": "02ca3fda9da6978d00cb2bc68cb7b5b2", "lat": 38.88734133333333, "fusion_lon": 0.0, "fusion_lat": 0.0, "type": "electric_scooter", "name": "02ca3fda9da6978d00cb2bc68cb7b5b2", "is_disabled": 0, "rental_uris": {"ios": "https://dc.lft.to/lastmile_qr_scan", "android": "https://dc.lft.to/lastmile_qr_scan"}, "is_reserved": 0}, {"lon": -77.04977666666667, "bike_id": "cf7462aaba3784a2dbfd89d05a086e4f", "lat": 39.062962, "fusion_lon": 0.0, "fusion_lat": 0.0, "type": "electric_bike", "name": "cf7462aaba3784a2dbfd89d05a086e4f", "is_disabled": 0, "rental_uris": {"ios": "https://dc.lft.to/lastmile_qr_scan", "android": "https://dc.lft.to/lastmile_qr_scan"}, "is_reserved": 0}, {"lon": -77.03828833333333, "bike_id": "32ec13410b1b04b87f55d6418db2155a", "lat": 38.91122583333333, "fusion_lon": 0.0, "fusion_lat": 0.0, "type": "electric_scooter", "name": "32ec13410b1b04b87f55d6418db2155a", "is_disabled": 0, "rental_uris": {"ios": "https://dc.lft.to/lastmile_qr_scan", "android": "https://dc.lft.to/lastmile_qr_scan"}, "is_reserved": 0}, {"lon": -76.99106366666666, "bike_id": "8117a661125a0fc4f3545efafac478d4", "lat": 38.90324716666667, "fusion_lon": 0.0, "fusion_lat": 0.0, "type": "electric_scooter", "name": "8117a661125a0fc4f3545efafac478d4", "is_disabled": 0, "rental_uris": {"ios": "https://dc.lft.to/lastmile_qr_scan", "android": "https://dc.lft.to/lastmile_qr_scan"}, "is_reserved": 0}, {"lon": -77.12676033333334, "bike_id": "0414c6043fc0093259a75e3c6992a2e4", "lat": 38.81520666666667, "fusion_lon": 0.0, "fusion_lat": 0.0, "type": "electric_bike", "name": "0414c6043fc0093259a75e3c6992a2e4", "is_disabled": 0, "rental_uris": {"ios": "https://dc.lft.to/lastmile_qr_scan", "android": "https://dc.lft.to/lastmile_qr_scan"}, "is_reserved": 0}, {"lon": -77.03841783333333, "bike_id": "91546f695ac80cfcdbf8a8d2230966f9", "lat": 38.9148355, "fusion_lon": 0.0, "fusion_lat": 0.0, "type": "electric_scooter", "name": "91546f695ac80cfcdbf8a8d2230966f9", "is_disabled": 0, "rental_uris": {"ios": "https://dc.lft.to/lastmile_qr_scan", "android": "https://dc.lft.to/lastmile_qr_scan"}, "is_reserved": 0}, {"lon": -77.07107883333333, "bike_id": "4f96adce74c634e9238348063eb457dd", "lat": 38.91231066666667, "fusion_lon": 0.0, "fusion_lat": 0.0, "type": "electric_scooter", "name": "4f96adce74c634e9238348063eb457dd", "is_disabled": 0, "rental_uris": {"ios": "https://dc.lft.to/lastmile_qr_scan", "android": "https://dc.lft.to/lastmile_qr_scan"}, "is_reserved": 0}, {"lon": -77.0268, "bike_id": "e7ef0e4f03aef94122f2e2669d7fa866", "lat": 38.943289166666666, "fusion_lon": 0.0, "fusion_lat": 0.0, "type": "electric_scooter", "name": "e7ef0e4f03aef94122f2e2669d7fa866", "is_disabled": 0, "rental_uris": {"ios": "https://dc.lft.to/lastmile_qr_scan", "android": "https://dc.lft.to/lastmile_qr_scan"}, "is_reserved": 0}, {"lon": -76.93378483333333, "bike_id": "f89f639ec9515ae6f588892a5bd94aef", "lat": 38.910312166666664, "fusion_lon": 0.0, "fusion_lat": 0.0, "type": "electric_scooter", "name": "f89f639ec9515ae6f588892a5bd94aef", "is_disabled": 0, "rental_uris": {"ios": "https://dc.lft.to/lastmile_qr_scan", "android": "https://dc.lft.to/lastmile_qr_scan"}, "is_reserved": 0}, {"lon": -76.98565633333334, "bike_id": "a2a99b93c6d17d8c87f34d00a426a89b", "lat": 38.899612, "fusion_lon": 0.0, "fusion_lat": 0.0, "type": "electric_scooter", "name": "a2a99b93c6d17d8c87f34d00a426a89b", "is_disabled": 0, "rental_uris": {"ios": "https://dc.lft.to/lastmile_qr_scan", "android": "https://dc.lft.to/lastmile_qr_scan"}, "is_reserved": 0}, {"lon": -76.981949, "bike_id": "732d3ff78b3b8ce69f3e3a7332a60ead", "lat": 38.9260715, "fusion_lon": 0.0, "fusion_lat": 0.0, "type": "electric_scooter", "name": "732d3ff78b3b8ce69f3e3a7332a60ead", "is_disabled": 0, "rental_uris": {"ios": "https://dc.lft.to/lastmile_qr_scan", "android": "https://dc.lft.to/lastmile_qr_scan"}, "is_reserved": 0}, {"lon": -76.93351333333334, "bike_id": "0002b851c6226aae99283f8fd7b1afa1", "lat": 38.8991205, "fusion_lon": 0.0, "fusion_lat": 0.0, "type": "electric_scooter", "name": "0002b851c6226aae99283f8fd7b1afa1", "is_disabled": 0, "rental_uris": {"ios": "https://dc.lft.to/lastmile_qr_scan", "android": "https://dc.lft.to/lastmile_qr_scan"}, "is_reserved": 0}, {"lon": -77.04282233333333, "bike_id": "3ccc362166a085da2528f41d110ce7bf", "lat": 38.900283333333334, "fusion_lon": 0.0, "fusion_lat": 0.0, "type": "electric_scooter", "name": "3ccc362166a085da2528f41d110ce7bf", "is_disabled": 0, "rental_uris": {"ios": "https://dc.lft.to/lastmile_qr_scan", "android": "https://dc.lft.to/lastmile_qr_scan"}, "is_reserved": 0}, {"lon": -77.02979483333333, "bike_id": "09497e25676fbc1860544da13a4ec0b2", "lat": 38.907302333333334, "fusion_lon": 0.0, "fusion_lat": 0.0, "type": "electric_scooter", "name": "09497e25676fbc1860544da13a4ec0b2", "is_disabled": 0, "rental_uris": {"ios": "https://dc.lft.to/lastmile_qr_scan", "android": "https://dc.lft.to/lastmile_qr_scan"}, "is_reserved": 0}, {"lon": -77.03386883333333, "bike_id": "b5e102beaf54d1c84f5d44d8ea75de69", "lat": 38.9027295, "fusion_lon": 0.0, "fusion_lat": 0.0, "type": "electric_scooter", "name": "b5e102beaf54d1c84f5d44d8ea75de69", "is_disabled": 0, "rental_uris": {"ios": "https://dc.lft.to/lastmile_qr_scan", "android": "https://dc.lft.to/lastmile_qr_scan"}, "is_reserved": 0}, {"lon": -77.012113, "bike_id": "80e468080902e81098d3660c991199b1", "lat": 38.870895166666664, "fusion_lon": 0.0, "fusion_lat": 0.0, "type": "electric_bike", "name": "80e468080902e81098d3660c991199b1", "is_disabled": 0, "rental_uris": {"ios": "https://dc.lft.to/lastmile_qr_scan", "android": "https://dc.lft.to/lastmile_qr_scan"}, "is_reserved": 0}, {"lon": -77.0112505, "bike_id": "6b867b58a2f45f9e84fbcf1adfbe0bd0", "lat": 38.911736166666664, "fusion_lon": 0.0, "fusion_lat": 0.0, "type": "electric_bike", "name": "6b867b58a2f45f9e84fbcf1adfbe0bd0", "is_disabled": 0, "rental_uris": {"ios": "https://dc.lft.to/lastmile_qr_scan", "android": "https://dc.lft.to/lastmile_qr_scan"}, "is_reserved": 0}, {"lon": -77.026421, "bike_id": "63ea17238e5f9f2bad58c8f8e66d3c9b", "lat": 38.90262716666667, "fusion_lon": 0.0, "fusion_lat": 0.0, "type": "electric_scooter", "name": "63ea17238e5f9f2bad58c8f8e66d3c9b", "is_disabled": 0, "rental_uris": {"ios": "https://dc.lft.to/lastmile_qr_scan", "android": "https://dc.lft.to/lastmile_qr_scan"}, "is_reserved": 0}, {"lon": -77.0317895, "bike_id": "5b2a405798e2f250eb51fa362099f71a", "lat": 38.89203916666666, "fusion_lon": 0.0, "fusion_lat": 0.0, "type": "electric_scooter", "name": "5b2a405798e2f250eb51fa362099f71a", "is_disabled": 0, "rental_uris": {"ios": "https://dc.lft.to/lastmile_qr_scan", "android": "https://dc.lft.to/lastmile_qr_scan"}, "is_reserved": 0}, {"lon": -77.04698466666666, "bike_id": "bb11b0455ef58fb933af220aaa88f4f4", "lat": 38.921407, "fusion_lon": 0.0, "fusion_lat": 0.0, "type": "electric_scooter", "name": "bb11b0455ef58fb933af220aaa88f4f4", "is_disabled": 0, "rental_uris": {"ios": "https://dc.lft.to/lastmile_qr_scan", "android": "https://dc.lft.to/lastmile_qr_scan"}, "is_reserved": 0}, {"lon": -77.03372616666667, "bike_id": "c554eb4059526b42715e88d647b77fff", "lat": 38.899822666666665, "fusion_lon": 0.0, "fusion_lat": 0.0, "type": "electric_scooter", "name": "c554eb4059526b42715e88d647b77fff", "is_disabled": 0, "rental_uris": {"ios": "https://dc.lft.to/lastmile_qr_scan", "android": "https://dc.lft.to/lastmile_qr_scan"}, "is_reserved": 0}, {"lon": -77.00201116666666, "bike_id": "7173ce633082f149620ab33fd4798f62", "lat": 38.902414666666665, "fusion_lon": 0.0, "fusion_lat": 0.0, "type": "electric_scooter", "name": "7173ce633082f149620ab33fd4798f62", "is_disabled": 0, "rental_uris": {"ios": "https://dc.lft.to/lastmile_qr_scan", "android": "https://dc.lft.to/lastmile_qr_scan"}, "is_reserved": 0}, {"lon": -77.02448116666666, "bike_id": "4a01931d37b3cbba18ef90e3f57105da", "lat": 38.920549, "fusion_lon": 0.0, "fusion_lat": 0.0, "type": "electric_scooter", "name": "4a01931d37b3cbba18ef90e3f57105da", "is_disabled": 0, "rental_uris": {"ios": "https://dc.lft.to/lastmile_qr_scan", "android": "https://dc.lft.to/lastmile_qr_scan"}, "is_reserved": 0}, {"lon": -77.044785, "bike_id": "808241af69f37bd603c2da23c54dd744", "lat": 38.924264666666666, "fusion_lon": 0.0, "fusion_lat": 0.0, "type": "electric_scooter", "name": "808241af69f37bd603c2da23c54dd744", "is_disabled": 0, "rental_uris": {"ios": "https://dc.lft.to/lastmile_qr_scan", "android": "https://dc.lft.to/lastmile_qr_scan"}, "is_reserved": 0}, {"lon": -77.051475, "bike_id": "1a7160219d1c0719bae22a879987264b", "lat": 38.923740333333335, "fusion_lon": 0.0, "fusion_lat": 0.0, "type": "electric_scooter", "name": "1a7160219d1c0719bae22a879987264b", "is_disabled": 0, "rental_uris": {"ios": "https://dc.lft.to/lastmile_qr_scan", "android": "https://dc.lft.to/lastmile_qr_scan"}, "is_reserved": 0}, {"lon": -76.96775066666666, "bike_id": "ef8b344d6c424c938c94c90b0077ff8f", "lat": 38.86858516666667, "fusion_lon": 0.0, "fusion_lat": 0.0, "type": "electric_scooter", "name": "ef8b344d6c424c938c94c90b0077ff8f", "is_disabled": 0, "rental_uris": {"ios": "https://dc.lft.to/lastmile_qr_scan", "android": "https://dc.lft.to/lastmile_qr_scan"}, "is_reserved": 0}, {"lon": -77.0393735, "bike_id": "166c59ed12482061ae5bdc43ef965765", "lat": 38.917097, "fusion_lon": 0.0, "fusion_lat": 0.0, "type": "electric_scooter", "name": "166c59ed12482061ae5bdc43ef965765", "is_disabled": 0, "rental_uris": {"ios": "https://dc.lft.to/lastmile_qr_scan", "android": "https://dc.lft.to/lastmile_qr_scan"}, "is_reserved": 0}, {"lon": -77.03339366666667, "bike_id": "fd0ea653f32e56b54100126147b13301", "lat": 38.901523166666664, "fusion_lon": 0.0, "fusion_lat": 0.0, "type": "electric_scooter", "name": "fd0ea653f32e56b54100126147b13301", "is_disabled": 0, "rental_uris": {"ios": "https://dc.lft.to/lastmile_qr_scan", "android": "https://dc.lft.to/lastmile_qr_scan"}, "is_reserved": 0}, {"lon": -76.993883, "bike_id": "47ae92ecbed7ffd71573c3a77601c06c", "lat": 38.8834915, "fusion_lon": 0.0, "fusion_lat": 0.0, "type": "electric_scooter", "name": "47ae92ecbed7ffd71573c3a77601c06c", "is_disabled": 0, "rental_uris": {"ios": "https://dc.lft.to/lastmile_qr_scan", "android": "https://dc.lft.to/lastmile_qr_scan"}, "is_reserved": 0}, {"lon": -77.06763866666667, "bike_id": "d8c52c003265749862e0a412fcb82149", "lat": 38.903757, "fusion_lon": 0.0, "fusion_lat": 0.0, "type": "electric_scooter", "name": "d8c52c003265749862e0a412fcb82149", "is_disabled": 0, "rental_uris": {"ios": "https://dc.lft.to/lastmile_qr_scan", "android": "https://dc.lft.to/lastmile_qr_scan"}, "is_reserved": 0}, {"lon": -76.983378, "bike_id": "e7aa0908686ac9db1bf46134a126e1d6", "lat": 38.89546283333333, "fusion_lon": 0.0, "fusion_lat": 0.0, "type": "electric_scooter", "name": "e7aa0908686ac9db1bf46134a126e1d6", "is_disabled": 0, "rental_uris": {"ios": "https://dc.lft.to/lastmile_qr_scan", "android": "https://dc.lft.to/lastmile_qr_scan"}, "is_reserved": 0}, {"lon": -76.96151833333333, "bike_id": "be1f51d5d13e536e6defadc568337841", "lat": 38.883591, "fusion_lon": 0.0, "fusion_lat": 0.0, "type": "electric_scooter", "name": "be1f51d5d13e536e6defadc568337841", "is_disabled": 0, "rental_uris": {"ios": "https://dc.lft.to/lastmile_qr_scan", "android": "https://dc.lft.to/lastmile_qr_scan"}, "is_reserved": 0}, {"lon": -77.046536, "bike_id": "c448076ca4aa17d387a39f0e0b2014c6", "lat": 38.896733833333336, "fusion_lon": 0.0, "fusion_lat": 0.0, "type": "electric_scooter", "name": "c448076ca4aa17d387a39f0e0b2014c6", "is_disabled": 0, "rental_uris": {"ios": "https://dc.lft.to/lastmile_qr_scan", "android": "https://dc.lft.to/lastmile_qr_scan"}, "is_reserved": 0}, {"lon": -77.0459555, "bike_id": "aaaa4236db7f605267fdc4eabfafaf45", "lat": 38.91589416666667, "fusion_lon": 0.0, "fusion_lat": 0.0, "type": "electric_scooter", "name": "aaaa4236db7f605267fdc4eabfafaf45", "is_disabled": 0, "rental_uris": {"ios": "https://dc.lft.to/lastmile_qr_scan", "android": "https://dc.lft.to/lastmile_qr_scan"}, "is_reserved": 0}, {"lon": -77.03270666666667, "bike_id": "cab4f5fd5e74fb36f2eeb147448e2d9c", "lat": 38.932211833333334, "fusion_lon": 0.0, "fusion_lat": 0.0, "type": "electric_scooter", "name": "cab4f5fd5e74fb36f2eeb147448e2d9c", "is_disabled": 0, "rental_uris": {"ios": "https://dc.lft.to/lastmile_qr_scan", "android": "https://dc.lft.to/lastmile_qr_scan"}, "is_reserved": 0}, {"lon": -76.99178066666667, "bike_id": "9676cb176349b94c35cab124fdcec127", "lat": 38.889988, "fusion_lon": 0.0, "fusion_lat": 0.0, "type": "electric_scooter", "name": "9676cb176349b94c35cab124fdcec127", "is_disabled": 0, "rental_uris": {"ios": "https://dc.lft.to/lastmile_qr_scan", "android": "https://dc.lft.to/lastmile_qr_scan"}, "is_reserved": 0}, {"lon": -77.0184325, "bike_id": "41046bf6f684de9a46f161344faccd3d", "lat": 38.90960966666667, "fusion_lon": 0.0, "fusion_lat": 0.0, "type": "electric_scooter", "name": "41046bf6f684de9a46f161344faccd3d", "is_disabled": 0, "rental_uris": {"ios": "https://dc.lft.to/lastmile_qr_scan", "android": "https://dc.lft.to/lastmile_qr_scan"}, "is_reserved": 0}, {"lon": -77.016912, "bike_id": "f2603e7bf06b8ae463d7fe306a1e95de", "lat": 38.904562, "fusion_lon": 0.0, "fusion_lat": 0.0, "type": "electric_scooter", "name": "f2603e7bf06b8ae463d7fe306a1e95de", "is_disabled": 0, "rental_uris": {"ios": "https://dc.lft.to/lastmile_qr_scan", "android": "https://dc.lft.to/lastmile_qr_scan"}, "is_reserved": 0}, {"lon": -77.01839133333333, "bike_id": "28bbf013a8af2cc2241f383d83c2fcb6", "lat": 38.909346, "fusion_lon": 0.0, "fusion_lat": 0.0, "type": "electric_scooter", "name": "28bbf013a8af2cc2241f383d83c2fcb6", "is_disabled": 0, "rental_uris": {"ios": "https://dc.lft.to/lastmile_qr_scan", "android": "https://dc.lft.to/lastmile_qr_scan"}, "is_reserved": 0}, {"lon": -77.0342685, "bike_id": "892d468adc58b2abf8bae8a056235c34", "lat": 38.927460333333336, "fusion_lon": 0.0, "fusion_lat": 0.0, "type": "electric_scooter", "name": "892d468adc58b2abf8bae8a056235c34", "is_disabled": 0, "rental_uris": {"ios": "https://dc.lft.to/lastmile_qr_scan", "android": "https://dc.lft.to/lastmile_qr_scan"}, "is_reserved": 0}, {"lon": -77.00673566666667, "bike_id": "d266aa5e063362426cfe1dbd626ecd34", "lat": 38.90029283333333, "fusion_lon": 0.0, "fusion_lat": 0.0, "type": "electric_scooter", "name": "d266aa5e063362426cfe1dbd626ecd34", "is_disabled": 0, "rental_uris": {"ios": "https://dc.lft.to/lastmile_qr_scan", "android": "https://dc.lft.to/lastmile_qr_scan"}, "is_reserved": 0}, {"lon": -77.03273533333333, "bike_id": "a1bcff491271935af95dc0fd9d8ccdd4", "lat": 38.93110566666667, "fusion_lon": 0.0, "fusion_lat": 0.0, "type": "electric_scooter", "name": "a1bcff491271935af95dc0fd9d8ccdd4", "is_disabled": 0, "rental_uris": {"ios": "https://dc.lft.to/lastmile_qr_scan", "android": "https://dc.lft.to/lastmile_qr_scan"}, "is_reserved": 0}, {"lon": -76.99074, "bike_id": "0f28bcee9b8845b304f783b929e9fceb", "lat": 38.898286, "fusion_lon": 0.0, "fusion_lat": 0.0, "type": "electric_bike", "name": "0f28bcee9b8845b304f783b929e9fceb", "is_disabled": 0, "rental_uris": {"ios": "https://dc.lft.to/lastmile_qr_scan", "android": "https://dc.lft.to/lastmile_qr_scan"}, "is_reserved": 0}, {"lon": -77.04106916666667, "bike_id": "9ffb436cbaa7db55203c371516d17380", "lat": 38.917017333333334, "fusion_lon": 0.0, "fusion_lat": 0.0, "type": "electric_scooter", "name": "9ffb436cbaa7db55203c371516d17380", "is_disabled": 0, "rental_uris": {"ios": "https://dc.lft.to/lastmile_qr_scan", "android": "https://dc.lft.to/lastmile_qr_scan"}, "is_reserved": 0}, {"lon": -77.03839933333333, "bike_id": "3f294791bc2205cb23a247ef6aa85b4e", "lat": 38.91723983333333, "fusion_lon": 0.0, "fusion_lat": 0.0, "type": "electric_scooter", "name": "3f294791bc2205cb23a247ef6aa85b4e", "is_disabled": 0, "rental_uris": {"ios": "https://dc.lft.to/lastmile_qr_scan", "android": "https://dc.lft.to/lastmile_qr_scan"}, "is_reserved": 0}, {"lon": -77.03695116666667, "bike_id": "e074ae8c974b7ecc7c1970bf64a63643", "lat": 38.93657366666667, "fusion_lon": 0.0, "fusion_lat": 0.0, "type": "electric_scooter", "name": "e074ae8c974b7ecc7c1970bf64a63643", "is_disabled": 0, "rental_uris": {"ios": "https://dc.lft.to/lastmile_qr_scan", "android": "https://dc.lft.to/lastmile_qr_scan"}, "is_reserved": 0}, {"lon": -77.0367125, "bike_id": "e499358c2ca9cc6510f6aac2011ef206", "lat": 38.9321135, "fusion_lon": 0.0, "fusion_lat": 0.0, "type": "electric_scooter", "name": "e499358c2ca9cc6510f6aac2011ef206", "is_disabled": 0, "rental_uris": {"ios": "https://dc.lft.to/lastmile_qr_scan", "android": "https://dc.lft.to/lastmile_qr_scan"}, "is_reserved": 0}, {"lon": -77.041046, "bike_id": "79a6d7fbaac9688a92ec5088bc4f548c", "lat": 38.90876433333333, "fusion_lon": 0.0, "fusion_lat": 0.0, "type": "electric_scooter", "name": "79a6d7fbaac9688a92ec5088bc4f548c", "is_disabled": 0, "rental_uris": {"ios": "https://dc.lft.to/lastmile_qr_scan", "android": "https://dc.lft.to/lastmile_qr_scan"}, "is_reserved": 0}, {"lon": -77.0230115, "bike_id": "3eb5ef1c6a7d405c115eb3d7a52c6363", "lat": 38.91761566666667, "fusion_lon": 0.0, "fusion_lat": 0.0, "type": "electric_scooter", "name": "3eb5ef1c6a7d405c115eb3d7a52c6363", "is_disabled": 0, "rental_uris": {"ios": "https://dc.lft.to/lastmile_qr_scan", "android": "https://dc.lft.to/lastmile_qr_scan"}, "is_reserved": 0}, {"lon": -77.07217233333333, "bike_id": "2fee00ee8fdc511055905c35e320a8ce", "lat": 38.92481033333333, "fusion_lon": 0.0, "fusion_lat": 0.0, "type": "electric_scooter", "name": "2fee00ee8fdc511055905c35e320a8ce", "is_disabled": 0, "rental_uris": {"ios": "https://dc.lft.to/lastmile_qr_scan", "android": "https://dc.lft.to/lastmile_qr_scan"}, "is_reserved": 0}, {"lon": -76.994743, "bike_id": "78c34bc64f61c4039664e114989de9cc", "lat": 38.8623435, "fusion_lon": 0.0, "fusion_lat": 0.0, "type": "electric_scooter", "name": "78c34bc64f61c4039664e114989de9cc", "is_disabled": 0, "rental_uris": {"ios": "https://dc.lft.to/lastmile_qr_scan", "android": "https://dc.lft.to/lastmile_qr_scan"}, "is_reserved": 0}, {"lon": -77.04484466666666, "bike_id": "217541eed122dc219032e4879595f284", "lat": 38.89245966666667, "fusion_lon": 0.0, "fusion_lat": 0.0, "type": "electric_scooter", "name": "217541eed122dc219032e4879595f284", "is_disabled": 0, "rental_uris": {"ios": "https://dc.lft.to/lastmile_qr_scan", "android": "https://dc.lft.to/lastmile_qr_scan"}, "is_reserved": 0}, {"lon": -77.01499716666666, "bike_id": "4333cdf7ae30e9cd1788e6fb1eb26195", "lat": 38.90027583333333, "fusion_lon": 0.0, "fusion_lat": 0.0, "type": "electric_scooter", "name": "4333cdf7ae30e9cd1788e6fb1eb26195", "is_disabled": 0, "rental_uris": {"ios": "https://dc.lft.to/lastmile_qr_scan", "android": "https://dc.lft.to/lastmile_qr_scan"}, "is_reserved": 0}, {"lon": -77.03324983333333, "bike_id": "f609f5c5c069d8bef588eb01b7c4abd8", "lat": 38.947182, "fusion_lon": 0.0, "fusion_lat": 0.0, "type": "electric_scooter", "name": "f609f5c5c069d8bef588eb01b7c4abd8", "is_disabled": 0, "rental_uris": {"ios": "https://dc.lft.to/lastmile_qr_scan", "android": "https://dc.lft.to/lastmile_qr_scan"}, "is_reserved": 0}, {"lon": -76.97830733333333, "bike_id": "61b0e8227189de05555e73773ad25a09", "lat": 38.899224, "fusion_lon": 0.0, "fusion_lat": 0.0, "type": "electric_scooter", "name": "61b0e8227189de05555e73773ad25a09", "is_disabled": 0, "rental_uris": {"ios": "https://dc.lft.to/lastmile_qr_scan", "android": "https://dc.lft.to/lastmile_qr_scan"}, "is_reserved": 0}, {"lon": -76.99872033333334, "bike_id": "af3710e26d9eef968bfab6829d471ccf", "lat": 38.90039183333333, "fusion_lon": 0.0, "fusion_lat": 0.0, "type": "electric_scooter", "name": "af3710e26d9eef968bfab6829d471ccf", "is_disabled": 0, "rental_uris": {"ios": "https://dc.lft.to/lastmile_qr_scan", "android": "https://dc.lft.to/lastmile_qr_scan"}, "is_reserved": 0}, {"lon": -77.032458, "bike_id": "74e8271754fab1aafa2b0672395e5491", "lat": 38.92861416666667, "fusion_lon": 0.0, "fusion_lat": 0.0, "type": "electric_scooter", "name": "74e8271754fab1aafa2b0672395e5491", "is_disabled": 0, "rental_uris": {"ios": "https://dc.lft.to/lastmile_qr_scan", "android": "https://dc.lft.to/lastmile_qr_scan"}, "is_reserved": 0}, {"lon": -77.03800516666666, "bike_id": "1d67f982769e2c84b4fd3483a4517f71", "lat": 38.910388833333336, "fusion_lon": 0.0, "fusion_lat": 0.0, "type": "electric_scooter", "name": "1d67f982769e2c84b4fd3483a4517f71", "is_disabled": 0, "rental_uris": {"ios": "https://dc.lft.to/lastmile_qr_scan", "android": "https://dc.lft.to/lastmile_qr_scan"}, "is_reserved": 0}, {"lon": -77.0543415, "bike_id": "2117e756a6a9896698d118e54a932201", "lat": 38.836873833333335, "fusion_lon": 0.0, "fusion_lat": 0.0, "type": "electric_bike", "name": "2117e756a6a9896698d118e54a932201", "is_disabled": 0, "rental_uris": {"ios": "https://dc.lft.to/lastmile_qr_scan", "android": "https://dc.lft.to/lastmile_qr_scan"}, "is_reserved": 0}, {"lon": -77.00202383333334, "bike_id": "d5bcb0790aaa5c6b6214cea0227339a5", "lat": 38.90246466666667, "fusion_lon": 0.0, "fusion_lat": 0.0, "type": "electric_scooter", "name": "d5bcb0790aaa5c6b6214cea0227339a5", "is_disabled": 0, "rental_uris": {"ios": "https://dc.lft.to/lastmile_qr_scan", "android": "https://dc.lft.to/lastmile_qr_scan"}, "is_reserved": 0}, {"lon": -77.05027916666667, "bike_id": "c2537b52cf0e15ae8eb1c16da40a9561", "lat": 38.9006075, "fusion_lon": 0.0, "fusion_lat": 0.0, "type": "electric_scooter", "name": "c2537b52cf0e15ae8eb1c16da40a9561", "is_disabled": 0, "rental_uris": {"ios": "https://dc.lft.to/lastmile_qr_scan", "android": "https://dc.lft.to/lastmile_qr_scan"}, "is_reserved": 0}, {"lon": -77.03879016666667, "bike_id": "519838637e2500599628ac40496ac42e", "lat": 38.929663166666664, "fusion_lon": 0.0, "fusion_lat": 0.0, "type": "electric_scooter", "name": "519838637e2500599628ac40496ac42e", "is_disabled": 0, "rental_uris": {"ios": "https://dc.lft.to/lastmile_qr_scan", "android": "https://dc.lft.to/lastmile_qr_scan"}, "is_reserved": 0}, {"lon": -77.0265765, "bike_id": "cb921860e8784c745cc4fd22c147b735", "lat": 38.927811166666665, "fusion_lon": 0.0, "fusion_lat": 0.0, "type": "electric_scooter", "name": "cb921860e8784c745cc4fd22c147b735", "is_disabled": 0, "rental_uris": {"ios": "https://dc.lft.to/lastmile_qr_scan", "android": "https://dc.lft.to/lastmile_qr_scan"}, "is_reserved": 0}, {"lon": -77.0316065, "bike_id": "4217a0ad163cfe953d42e5bc869b0a8e", "lat": 38.915605166666666, "fusion_lon": 0.0, "fusion_lat": 0.0, "type": "electric_scooter", "name": "4217a0ad163cfe953d42e5bc869b0a8e", "is_disabled": 0, "rental_uris": {"ios": "https://dc.lft.to/lastmile_qr_scan", "android": "https://dc.lft.to/lastmile_qr_scan"}, "is_reserved": 0}, {"lon": -77.03202583333334, "bike_id": "7ec30703bd082abcfe4e92f02b823a77", "lat": 38.9441595, "fusion_lon": 0.0, "fusion_lat": 0.0, "type": "electric_scooter", "name": "7ec30703bd082abcfe4e92f02b823a77", "is_disabled": 0, "rental_uris": {"ios": "https://dc.lft.to/lastmile_qr_scan", "android": "https://dc.lft.to/lastmile_qr_scan"}, "is_reserved": 0}, {"lon": -77.04558133333333, "bike_id": "54beb81d30922bfb65f644606988bcf0", "lat": 38.89612833333333, "fusion_lon": 0.0, "fusion_lat": 0.0, "type": "electric_scooter", "name": "54beb81d30922bfb65f644606988bcf0", "is_disabled": 0, "rental_uris": {"ios": "https://dc.lft.to/lastmile_qr_scan", "android": "https://dc.lft.to/lastmile_qr_scan"}, "is_reserved": 0}, {"lon": -77.037644, "bike_id": "67d8e01e047a108522f85487ea96601e", "lat": 38.92946633333333, "fusion_lon": 0.0, "fusion_lat": 0.0, "type": "electric_scooter", "name": "67d8e01e047a108522f85487ea96601e", "is_disabled": 0, "rental_uris": {"ios": "https://dc.lft.to/lastmile_qr_scan", "android": "https://dc.lft.to/lastmile_qr_scan"}, "is_reserved": 0}, {"lon": -77.03324066666667, "bike_id": "f318c27a884527501b785fec16c00aaf", "lat": 38.901450833333335, "fusion_lon": 0.0, "fusion_lat": 0.0, "type": "electric_scooter", "name": "f318c27a884527501b785fec16c00aaf", "is_disabled": 0, "rental_uris": {"ios": "https://dc.lft.to/lastmile_qr_scan", "android": "https://dc.lft.to/lastmile_qr_scan"}, "is_reserved": 0}, {"lon": -77.000419, "bike_id": "b79b10c77b13717074e9514882bd0c6f", "lat": 38.96808016666667, "fusion_lon": 0.0, "fusion_lat": 0.0, "type": "electric_bike", "name": "b79b10c77b13717074e9514882bd0c6f", "is_disabled": 0, "rental_uris": {"ios": "https://dc.lft.to/lastmile_qr_scan", "android": "https://dc.lft.to/lastmile_qr_scan"}, "is_reserved": 0}, {"lon": -77.027736, "bike_id": "284fe2432510b5bcf59d7b2d70d5d8d7", "lat": 38.930183, "fusion_lon": 0.0, "fusion_lat": 0.0, "type": "electric_scooter", "name": "284fe2432510b5bcf59d7b2d70d5d8d7", "is_disabled": 0, "rental_uris": {"ios": "https://dc.lft.to/lastmile_qr_scan", "android": "https://dc.lft.to/lastmile_qr_scan"}, "is_reserved": 0}, {"lon": -77.03932183333333, "bike_id": "a9b513620754e24193a6c480f082200b", "lat": 38.8990815, "fusion_lon": 0.0, "fusion_lat": 0.0, "type": "electric_scooter", "name": "a9b513620754e24193a6c480f082200b", "is_disabled": 0, "rental_uris": {"ios": "https://dc.lft.to/lastmile_qr_scan", "android": "https://dc.lft.to/lastmile_qr_scan"}, "is_reserved": 0}, {"lon": -76.9890815, "bike_id": "5907fe030abc8850ec013bde06c2a694", "lat": 38.866703, "fusion_lon": 0.0, "fusion_lat": 0.0, "type": "electric_scooter", "name": "5907fe030abc8850ec013bde06c2a694", "is_disabled": 0, "rental_uris": {"ios": "https://dc.lft.to/lastmile_qr_scan", "android": "https://dc.lft.to/lastmile_qr_scan"}, "is_reserved": 0}, {"lon": -77.10839516666667, "bike_id": "8f64e3b02500598a650081fad863276f", "lat": 38.81207716666667, "fusion_lon": 0.0, "fusion_lat": 0.0, "type": "electric_bike", "name": "8f64e3b02500598a650081fad863276f", "is_disabled": 0, "rental_uris": {"ios": "https://dc.lft.to/lastmile_qr_scan", "android": "https://dc.lft.to/lastmile_qr_scan"}, "is_reserved": 0}, {"lon": -77.02658033333333, "bike_id": "ceae2f8157dc594bd90f720ef07acac6", "lat": 38.930970333333335, "fusion_lon": 0.0, "fusion_lat": 0.0, "type": "electric_scooter", "name": "ceae2f8157dc594bd90f720ef07acac6", "is_disabled": 0, "rental_uris": {"ios": "https://dc.lft.to/lastmile_qr_scan", "android": "https://dc.lft.to/lastmile_qr_scan"}, "is_reserved": 0}, {"lon": -77.04349316666666, "bike_id": "63e4b3d92fdb655b734af91e705853c1", "lat": 38.91111716666666, "fusion_lon": 0.0, "fusion_lat": 0.0, "type": "electric_scooter", "name": "63e4b3d92fdb655b734af91e705853c1", "is_disabled": 0, "rental_uris": {"ios": "https://dc.lft.to/lastmile_qr_scan", "android": "https://dc.lft.to/lastmile_qr_scan"}, "is_reserved": 0}, {"lon": -77.00523133333333, "bike_id": "eb8d54afffb25221101ac3a66155fb89", "lat": 38.875512, "fusion_lon": 0.0, "fusion_lat": 0.0, "type": "electric_scooter", "name": "eb8d54afffb25221101ac3a66155fb89", "is_disabled": 0, "rental_uris": {"ios": "https://dc.lft.to/lastmile_qr_scan", "android": "https://dc.lft.to/lastmile_qr_scan"}, "is_reserved": 0}, {"lon": -76.980799, "bike_id": "e12a23616a5ffdbc828c9d28161e2d39", "lat": 38.907105333333334, "fusion_lon": 0.0, "fusion_lat": 0.0, "type": "electric_scooter", "name": "e12a23616a5ffdbc828c9d28161e2d39", "is_disabled": 0, "rental_uris": {"ios": "https://dc.lft.to/lastmile_qr_scan", "android": "https://dc.lft.to/lastmile_qr_scan"}, "is_reserved": 0}, {"lon": -77.03581466666667, "bike_id": "06c56ee925347a60e982acba0ad78500", "lat": 38.9177695, "fusion_lon": 0.0, "fusion_lat": 0.0, "type": "electric_scooter", "name": "06c56ee925347a60e982acba0ad78500", "is_disabled": 0, "rental_uris": {"ios": "https://dc.lft.to/lastmile_qr_scan", "android": "https://dc.lft.to/lastmile_qr_scan"}, "is_reserved": 0}, {"lon": -77.02813166666667, "bike_id": "2d8f2d828268338b7b8a6404f4899fab", "lat": 38.893802666666666, "fusion_lon": 0.0, "fusion_lat": 0.0, "type": "electric_scooter", "name": "2d8f2d828268338b7b8a6404f4899fab", "is_disabled": 0, "rental_uris": {"ios": "https://dc.lft.to/lastmile_qr_scan", "android": "https://dc.lft.to/lastmile_qr_scan"}, "is_reserved": 0}, {"lon": -76.9900385, "bike_id": "2b0258543d08ea69d828097a7254b9f9", "lat": 38.865103833333336, "fusion_lon": 0.0, "fusion_lat": 0.0, "type": "electric_scooter", "name": "2b0258543d08ea69d828097a7254b9f9", "is_disabled": 0, "rental_uris": {"ios": "https://dc.lft.to/lastmile_qr_scan", "android": "https://dc.lft.to/lastmile_qr_scan"}, "is_reserved": 0}, {"lon": -77.0759325, "bike_id": "ab965f169e55ee4b1f0bfa6287071a55", "lat": 38.9122285, "fusion_lon": 0.0, "fusion_lat": 0.0, "type": "electric_scooter", "name": "ab965f169e55ee4b1f0bfa6287071a55", "is_disabled": 0, "rental_uris": {"ios": "https://dc.lft.to/lastmile_qr_scan", "android": "https://dc.lft.to/lastmile_qr_scan"}, "is_reserved": 0}, {"lon": -76.97238916666667, "bike_id": "df0f50ee36cef9021cddb2e55b1c2309", "lat": 38.90349583333333, "fusion_lon": 0.0, "fusion_lat": 0.0, "type": "electric_scooter", "name": "df0f50ee36cef9021cddb2e55b1c2309", "is_disabled": 0, "rental_uris": {"ios": "https://dc.lft.to/lastmile_qr_scan", "android": "https://dc.lft.to/lastmile_qr_scan"}, "is_reserved": 0}, {"lon": -77.03320416666666, "bike_id": "edf5c230fd03a9514055fa72b45cc3cf", "lat": 38.92549783333333, "fusion_lon": 0.0, "fusion_lat": 0.0, "type": "electric_scooter", "name": "edf5c230fd03a9514055fa72b45cc3cf", "is_disabled": 0, "rental_uris": {"ios": "https://dc.lft.to/lastmile_qr_scan", "android": "https://dc.lft.to/lastmile_qr_scan"}, "is_reserved": 0}, {"lon": -76.98840833333334, "bike_id": "294f9358dfcf365b9c97cd3603438e69", "lat": 38.842854833333334, "fusion_lon": 0.0, "fusion_lat": 0.0, "type": "electric_bike", "name": "294f9358dfcf365b9c97cd3603438e69", "is_disabled": 0, "rental_uris": {"ios": "https://dc.lft.to/lastmile_qr_scan", "android": "https://dc.lft.to/lastmile_qr_scan"}, "is_reserved": 0}, {"lon": -77.02808666666667, "bike_id": "95f559a1252786aeafb37a5c34806bc5", "lat": 38.91427066666667, "fusion_lon": 0.0, "fusion_lat": 0.0, "type": "electric_scooter", "name": "95f559a1252786aeafb37a5c34806bc5", "is_disabled": 0, "rental_uris": {"ios": "https://dc.lft.to/lastmile_qr_scan", "android": "https://dc.lft.to/lastmile_qr_scan"}, "is_reserved": 0}, {"lon": -76.994574, "bike_id": "0bf8983e196a980bf1a89e398b59fead", "lat": 38.90368316666667, "fusion_lon": 0.0, "fusion_lat": 0.0, "type": "electric_scooter", "name": "0bf8983e196a980bf1a89e398b59fead", "is_disabled": 0, "rental_uris": {"ios": "https://dc.lft.to/lastmile_qr_scan", "android": "https://dc.lft.to/lastmile_qr_scan"}, "is_reserved": 0}, {"lon": -77.07231016666667, "bike_id": "119ada29d3c8a4494e6d988cc0ca7ead", "lat": 38.898965833333335, "fusion_lon": 0.0, "fusion_lat": 0.0, "type": "electric_scooter", "name": "119ada29d3c8a4494e6d988cc0ca7ead", "is_disabled": 0, "rental_uris": {"ios": "https://dc.lft.to/lastmile_qr_scan", "android": "https://dc.lft.to/lastmile_qr_scan"}, "is_reserved": 0}, {"lon": -77.0491555, "bike_id": "b989f7da6abf6e6ba1e420898bae9e64", "lat": 38.90857583333333, "fusion_lon": 0.0, "fusion_lat": 0.0, "type": "electric_scooter", "name": "b989f7da6abf6e6ba1e420898bae9e64", "is_disabled": 0, "rental_uris": {"ios": "https://dc.lft.to/lastmile_qr_scan", "android": "https://dc.lft.to/lastmile_qr_scan"}, "is_reserved": 0}, {"lon": -76.9852595, "bike_id": "8b8cfc827c2aa7ec6474c59ac3f7fe6b", "lat": 38.866875666666665, "fusion_lon": 0.0, "fusion_lat": 0.0, "type": "electric_scooter", "name": "8b8cfc827c2aa7ec6474c59ac3f7fe6b", "is_disabled": 0, "rental_uris": {"ios": "https://dc.lft.to/lastmile_qr_scan", "android": "https://dc.lft.to/lastmile_qr_scan"}, "is_reserved": 0}, {"lon": -77.038718, "bike_id": "6ee6f2b402dcfff10a6f61b3433a353d", "lat": 38.912634, "fusion_lon": 0.0, "fusion_lat": 0.0, "type": "electric_scooter", "name": "6ee6f2b402dcfff10a6f61b3433a353d", "is_disabled": 0, "rental_uris": {"ios": "https://dc.lft.to/lastmile_qr_scan", "android": "https://dc.lft.to/lastmile_qr_scan"}, "is_reserved": 0}, {"lon": -77.01457416666666, "bike_id": "b18096307dbf701c7aa3ca89a04d540b", "lat": 38.919265833333334, "fusion_lon": 0.0, "fusion_lat": 0.0, "type": "electric_scooter", "name": "b18096307dbf701c7aa3ca89a04d540b", "is_disabled": 0, "rental_uris": {"ios": "https://dc.lft.to/lastmile_qr_scan", "android": "https://dc.lft.to/lastmile_qr_scan"}, "is_reserved": 0}, {"lon": -77.039906, "bike_id": "b629fb35f470bc99d89041a079195de9", "lat": 38.89230466666667, "fusion_lon": 0.0, "fusion_lat": 0.0, "type": "electric_scooter", "name": "b629fb35f470bc99d89041a079195de9", "is_disabled": 0, "rental_uris": {"ios": "https://dc.lft.to/lastmile_qr_scan", "android": "https://dc.lft.to/lastmile_qr_scan"}, "is_reserved": 0}, {"lon": -77.03218066666666, "bike_id": "19f53b66e4085614df4f4d3b8b3c5b72", "lat": 38.892205833333335, "fusion_lon": 0.0, "fusion_lat": 0.0, "type": "electric_scooter", "name": "19f53b66e4085614df4f4d3b8b3c5b72", "is_disabled": 0, "rental_uris": {"ios": "https://dc.lft.to/lastmile_qr_scan", "android": "https://dc.lft.to/lastmile_qr_scan"}, "is_reserved": 0}, {"lon": -77.05470433333333, "bike_id": "359082ca74e6f65c79d08343d26fef6c", "lat": 38.90435633333333, "fusion_lon": 0.0, "fusion_lat": 0.0, "type": "electric_scooter", "name": "359082ca74e6f65c79d08343d26fef6c", "is_disabled": 0, "rental_uris": {"ios": "https://dc.lft.to/lastmile_qr_scan", "android": "https://dc.lft.to/lastmile_qr_scan"}, "is_reserved": 0}, {"lon": -77.03285216666667, "bike_id": "c7c60aa84c305b566693e0119a97fa8b", "lat": 38.937654333333334, "fusion_lon": 0.0, "fusion_lat": 0.0, "type": "electric_scooter", "name": "c7c60aa84c305b566693e0119a97fa8b", "is_disabled": 0, "rental_uris": {"ios": "https://dc.lft.to/lastmile_qr_scan", "android": "https://dc.lft.to/lastmile_qr_scan"}, "is_reserved": 0}, {"lon": -76.9739655, "bike_id": "fe3b72432ee129b82c154157a43359c4", "lat": 38.903019, "fusion_lon": 0.0, "fusion_lat": 0.0, "type": "electric_scooter", "name": "fe3b72432ee129b82c154157a43359c4", "is_disabled": 0, "rental_uris": {"ios": "https://dc.lft.to/lastmile_qr_scan", "android": "https://dc.lft.to/lastmile_qr_scan"}, "is_reserved": 0}, {"lon": -76.9330515, "bike_id": "1c434cb6473d46f011e0741713d266fa", "lat": 38.900985166666665, "fusion_lon": 0.0, "fusion_lat": 0.0, "type": "electric_scooter", "name": "1c434cb6473d46f011e0741713d266fa", "is_disabled": 0, "rental_uris": {"ios": "https://dc.lft.to/lastmile_qr_scan", "android": "https://dc.lft.to/lastmile_qr_scan"}, "is_reserved": 0}, {"lon": -77.02591883333334, "bike_id": "4746ea71c0f6610b6bc0e251d9d33d5f", "lat": 38.942083333333336, "fusion_lon": 0.0, "fusion_lat": 0.0, "type": "electric_scooter", "name": "4746ea71c0f6610b6bc0e251d9d33d5f", "is_disabled": 0, "rental_uris": {"ios": "https://dc.lft.to/lastmile_qr_scan", "android": "https://dc.lft.to/lastmile_qr_scan"}, "is_reserved": 0}, {"lon": -77.03217583333333, "bike_id": "3a10288d8ba34bebf96c5003c3455931", "lat": 38.914920333333335, "fusion_lon": 0.0, "fusion_lat": 0.0, "type": "electric_scooter", "name": "3a10288d8ba34bebf96c5003c3455931", "is_disabled": 0, "rental_uris": {"ios": "https://dc.lft.to/lastmile_qr_scan", "android": "https://dc.lft.to/lastmile_qr_scan"}, "is_reserved": 0}, {"lon": -76.99036383333333, "bike_id": "6030ad78a8758f9fff6b4bfbcd7f63ac", "lat": 38.88874833333333, "fusion_lon": 0.0, "fusion_lat": 0.0, "type": "electric_scooter", "name": "6030ad78a8758f9fff6b4bfbcd7f63ac", "is_disabled": 0, "rental_uris": {"ios": "https://dc.lft.to/lastmile_qr_scan", "android": "https://dc.lft.to/lastmile_qr_scan"}, "is_reserved": 0}, {"lon": -77.02829516666667, "bike_id": "670d7cf98f190fcb73f77c75d4cf1c1a", "lat": 38.88733766666667, "fusion_lon": 0.0, "fusion_lat": 0.0, "type": "electric_scooter", "name": "670d7cf98f190fcb73f77c75d4cf1c1a", "is_disabled": 0, "rental_uris": {"ios": "https://dc.lft.to/lastmile_qr_scan", "android": "https://dc.lft.to/lastmile_qr_scan"}, "is_reserved": 0}, {"lon": -76.98912733333333, "bike_id": "e90293cbe705fcc9e99700e0be8043f7", "lat": 38.864952333333335, "fusion_lon": 0.0, "fusion_lat": 0.0, "type": "electric_scooter", "name": "e90293cbe705fcc9e99700e0be8043f7", "is_disabled": 0, "rental_uris": {"ios": "https://dc.lft.to/lastmile_qr_scan", "android": "https://dc.lft.to/lastmile_qr_scan"}, "is_reserved": 0}, {"lon": -77.01071866666666, "bike_id": "08b2b8cd74bfc5f003f787013f1afda0", "lat": 38.90722816666667, "fusion_lon": 0.0, "fusion_lat": 0.0, "type": "electric_bike", "name": "08b2b8cd74bfc5f003f787013f1afda0", "is_disabled": 0, "rental_uris": {"ios": "https://dc.lft.to/lastmile_qr_scan", "android": "https://dc.lft.to/lastmile_qr_scan"}, "is_reserved": 0}, {"lon": -77.01610816666667, "bike_id": "aa38c53398dd7e820b393010712ed229", "lat": 38.87688033333333, "fusion_lon": 0.0, "fusion_lat": 0.0, "type": "electric_scooter", "name": "aa38c53398dd7e820b393010712ed229", "is_disabled": 0, "rental_uris": {"ios": "https://dc.lft.to/lastmile_qr_scan", "android": "https://dc.lft.to/lastmile_qr_scan"}, "is_reserved": 0}, {"lon": -77.032764, "bike_id": "9dd960200ad2d6311a3fbe159415f598", "lat": 38.9013195, "fusion_lon": 0.0, "fusion_lat": 0.0, "type": "electric_scooter", "name": "9dd960200ad2d6311a3fbe159415f598", "is_disabled": 0, "rental_uris": {"ios": "https://dc.lft.to/lastmile_qr_scan", "android": "https://dc.lft.to/lastmile_qr_scan"}, "is_reserved": 0},