{"data": {"bikes": [{"fusion_lat": 0.0, "bike_id": "79ebc13d8ef42c880c4972b745555ca0", "fusion_lon": 0.0, "lon": -77.0043395, "lat": 38.9209045, "is_reserved": 0, "is_disabled": 0, "rental_uris": {"android": "https://dc.lft.to/lastmile_qr_scan", "ios": "https://dc.lft.to/lastmile_qr_scan"}, "name": "79ebc13d8ef42c880c4972b745555ca0", "type": "electric_scooter"}, {"fusion_lat": 0.0, "bike_id": "e55ca71f1e9cac461a843a0c62051856", "fusion_lon": 0.0, "lon": -77.04655216666667, "lat": 38.90505866666667, "is_reserved": 0, "is_disabled": 0, "rental_uris": {"android": "https://dc.lft.to/lastmile_qr_scan", "ios": "https://dc.lft.to/lastmile_qr_scan"}, "name": "e55ca71f1e9cac461a843a0c62051856", "type": "electric_scooter"}, {"fusion_lat": 0.0, "bike_id": "5e0f61c2876b341669536ab465779dff", "fusion_lon": 0.0, "lon": -77.02181783333333, "lat": 38.9109195, "is_reserved": 0, "is_disabled": 0, "rental_uris": {"android": "https://dc.lft.to/lastmile_qr_scan", "ios": "https://dc.lft.to/lastmile_qr_scan"}, "name": "5e0f61c2876b341669536ab465779dff", "type": "electric_scooter"}, {"fusion_lat": 0.0, "bike_id": "f5c19cd1d8a45f21f1b6ff2bcd9fef86", "fusion_lon": 0.0, "lon": -77.019692, "lat": 38.921896333333336, "is_reserved": 0, "is_disabled": 0, "rental_uris": {"android": "https://dc.lft.to/lastmile_qr_scan", "ios": "https://dc.lft.to/lastmile_qr_scan"}, "name": "f5c19cd1d8a45f21f1b6ff2bcd9fef86", "type": "electric_scooter"}, {"fusion_lat": 0.0, "bike_id": "29fd09c05b478eb89cd308e6e19c4360", "fusion_lon": 0.0, "lon": -77.02828183333334, "lat": 38.9314565, "is_reserved": 0, "is_disabled": 0, "rental_uris": {"android": "https://dc.lft.to/lastmile_qr_scan", "ios": "https://dc.lft.to/lastmile_qr_scan"}, "name": "29fd09c05b478eb89cd308e6e19c4360", "type": "electric_scooter"}, {"fusion_lat": 0.0, "bike_id": "6a84769dc6c6b188f5d38c6a18272c27", "fusion_lon": 0.0, "lon": -77.08578233333333, "lat": 38.844347, "is_reserved": 0, "is_disabled": 0, "rental_uris": {"android": "https://dc.lft.to/lastmile_qr_scan", "ios": "https://dc.lft.to/lastmile_qr_scan"}, "name": "6a84769dc6c6b188f5d38c6a18272c27", "type": "electric_bike"}, {"fusion_lat": 0.0, "bike_id": "3825edc31d3648d8c3a18e7422cd5824", "fusion_lon": 0.0, "lon": -77.02625966666666, "lat": 38.892266, "is_reserved": 0, "is_disabled": 0, "rental_uris": {"android": "https://dc.lft.to/lastmile_qr_scan", "ios": "https://dc.lft.to/lastmile_qr_scan"}, "name": "3825edc31d3648d8c3a18e7422cd5824", "type": "electric_scooter"}, {"fusion_lat": 0.0, "bike_id": "95fd7982ce3180cedb777f963fda00c0", "fusion_lon": 0.0, "lon": -76.98195883333334, "lat": 38.899491166666664, "is_reserved": 0, "is_disabled": 0, "rental_uris": {"android": "https://dc.lft.to/lastmile_qr_scan", "ios": "https://dc.lft.to/lastmile_qr_scan"}, "name": "95fd7982ce3180cedb777f963fda00c0", "type": "electric_scooter"}, {"fusion_lat": 0.0, "bike_id": "fc3cee62c1145330765b68de10e8f184", "fusion_lon": 0.0, "lon": -77.0045795, "lat": 38.91440683333333, "is_reserved": 0, "is_disabled": 0, "rental_uris": {"android": "https://dc.lft.to/lastmile_qr_scan", "ios": "https://dc.lft.to/lastmile_qr_scan"}, "name": "fc3cee62c1145330765b68de10e8f184", "type": "electric_scooter"}, {"fusion_lat": 0.0, "bike_id": "4bbf4d723fa23785d5aadf9d365e9e80", "fusion_lon": 0.0, "lon": -77.02700633333333, "lat": 38.911684666666666, "is_reserved": 0, "is_disabled": 0, "rental_uris": {"android": "https://dc.lft.to/lastmile_qr_scan", "ios": "https://dc.lft.to/lastmile_qr_scan"}, "name": "4bbf4d723fa23785d5aadf9d365e9e80", "type": "electric_scooter"}, {"fusion_lat": 0.0, "bike_id": "1c1be166b1588219dcf67012eeefe687", "fusion_lon": 0.0, "lon": -77.0327315, "lat": 38.92844483333333, "is_reserved": 0, "is_disabled": 0, "rental_uris": {"android": "https://dc.lft.to/lastmile_qr_scan", "ios": "https://dc.lft.to/lastmile_qr_scan"}, "name": "1c1be166b1588219dcf67012eeefe687", "type": "electric_scooter"}, {"fusion_lat": 0.0, "bike_id": "75452bd7531539fbfe346b374169187f", "fusion_lon": 0.0, "lon": -76.94992316666666, "lat": 38.89363, "is_reserved": 0, "is_disabled": 0, "rental_uris": {"android": "https://dc.lft.to/lastmile_qr_scan", "ios": "https://dc.lft.to/lastmile_qr_scan"}, "name": "75452bd7531539fbfe346b374169187f", "type": "electric_scooter"}, {"fusion_lat": 0.0, "bike_id": "c418fdbf6c7d1bbbd4d50a7c873aac17", "fusion_lon": 0.0, "lon": -76.99220416666667, "lat": 38.897479, "is_reserved": 0, "is_disabled": 0, "rental_uris": {"android": "https://dc.lft.to/lastmile_qr_scan", "ios": "https://dc.lft.to/lastmile_qr_scan"}, "name": "c418fdbf6c7d1bbbd4d50a7c873aac17", "type": "electric_bike"}, {"fusion_lat": 0.0, "bike_id": "32445d6e1311613f1b17b1dc6454a50a", "fusion_lon": 0.0, "lon": -77.01534483333333, "lat": 38.887449, "is_reserved": 0, "is_disabled": 0, "rental_uris": {"android": "https://dc.lft.to/lastmile_qr_scan", "ios": "https://dc.lft.to/lastmile_qr_scan"}, "name": "32445d6e1311613f1b17b1dc6454a50a", "type": "electric_scooter"}, {"fusion_lat": 0.0, "bike_id": "84deacb1f03d5b47a83f69f6663d8f31", "fusion_lon": 0.0, "lon": -77.04755016666667, "lat": 38.905524166666666, "is_reserved": 0, "is_disabled": 0, "rental_uris": {"android": "https://dc.lft.to/lastmile_qr_scan", "ios": "https://dc.lft.to/lastmile_qr_scan"}, "name": "84deacb1f03d5b47a83f69f6663d8f31", "type": "electric_scooter"}, {"fusion_lat": 0.0, "bike_id": "82e015053bbab0300f7d993c2e3cd5c8", "fusion_lon": 0.0, "lon": -76.97863100000001, "lat": 38.871982, "is_reserved": 0, "is_disabled": 0, "rental_uris": {"android": "https://dc.lft.to/lastmile_qr_scan", "ios": "https://dc.lft.to/lastmile_qr_scan"}, "name": "82e015053bbab0300f7d993c2e3cd5c8", "type": "electric_scooter"}, {"fusion_lat": 0.0, "bike_id": "a0c30934815da0f6987701c9ebb20ac0", "fusion_lon": 0.0, "lon": -77.036557, "lat": 38.90371066666667, "is_reserved": 0, "is_disabled": 0, "rental_uris": {"android": "https://dc.lft.to/lastmile_qr_scan", "ios": "https://dc.lft.to/lastmile_qr_scan"}, "name": "a0c30934815da0f6987701c9ebb20ac0", "type": "electric_scooter"}, {"fusion_lat": 0.0, "bike_id": "489986d1c5127bfa5755de7a22e49fd9", "fusion_lon": 0.0, "lon": -77.0444595, "lat": 38.92169633333334, "is_reserved": 0, "is_disabled": 0, "rental_uris": {"android": "https://dc.lft.to/lastmile_qr_scan", "ios": "https://dc.lft.to/lastmile_qr_scan"}, "name": "489986d1c5127bfa5755de7a22e49fd9", "type": "electric_scooter"}, {"fusion_lat": 0.0, "bike_id": "728cacd1e4587ece98a071a97297508f", "fusion_lon": 0.0, "lon": -77.05142733333334, "lat": 38.905131833333336, "is_reserved": 0, "is_disabled": 0, "rental_uris": {"android": "https://dc.lft.to/lastmile_qr_scan", "ios": "https://dc.lft.to/lastmile_qr_scan"}, "name": "728cacd1e4587ece98a071a97297508f", "type": "electric_scooter"}, {"fusion_lat": 0.0, "bike_id": "c62786728adde14f14f77c40ca5f2ba7", "fusion_lon": 0.0, "lon": -77.0568945, "lat": 38.86491683333333, "is_reserved": 0, "is_disabled": 0, "rental_uris": {"android": "https://dc.lft.to/lastmile_qr_scan", "ios": "https://dc.lft.to/lastmile_qr_scan"}, "name": "c62786728adde14f14f77c40ca5f2ba7", "type": "electric_bike"}, {"fusion_lat": 0.0, "bike_id": "f16f8ee112b34f1b3c59d70fc9ada31d", "fusion_lon": 0.0, "lon": -77.02386583333333, "lat": 38.89239833333333, "is_reserved": 0, "is_disabled": 0, "rental_uris": {"android": "https://dc.lft.to/lastmile_qr_scan", "ios": "https://dc.lft.to/lastmile_qr_scan"}, "name": "f16f8ee112b34f1b3c59d70fc9ada31d", "type": "electric_scooter"}, {"fusion_lat": 0.0, "bike_id": "6bc419e78f7977b014351fdd3548426f", "fusion_lon": 0.0, "lon": -77.033024, "lat": 38.901248, "is_reserved": 0, "is_disabled": 0, "rental_uris": {"android": "https://dc.lft.to/lastmile_qr_scan", "ios": "https://dc.lft.to/lastmile_qr_scan"}, "name": "6bc419e78f7977b014351fdd3548426f", "type": "electric_scooter"}, {"fusion_lat": 0.0, "bike_id": "cd5bef4bb020c2cd86742137eeac408f", "fusion_lon": 0.0, "lon": -77.002032, "lat": 38.90242816666667, "is_reserved": 0, "is_disabled": 0, "rental_uris": {"android": "https://dc.lft.to/lastmile_qr_scan", "ios": "https://dc.lft.to/lastmile_qr_scan"}, "name": "cd5bef4bb020c2cd86742137eeac408f", "type": "electric_scooter"}, {"fusion_lat": 0.0, "bike_id": "c7076265dc6ac55756afa281dff98342", "fusion_lon": 0.0, "lon": -77.03672783333333, "lat": 38.92143, "is_reserved": 0, "is_disabled": 0, "rental_uris": {"android": "https://dc.lft.to/lastmile_qr_scan", "ios": "https://dc.lft.to/lastmile_qr_scan"}, "name": "c7076265dc6ac55756afa281dff98342", "type": "electric_scooter"}, {"fusion_lat": 0.0, "bike_id": "2a9808217f7551b5c9de6c81fb04d45c", "fusion_lon": 0.0, "lon": -77.05046283333333, "lat": 38.92365483333333, "is_reserved": 0, "is_disabled": 0, "rental_uris": {"android": "https://dc.lft.to/lastmile_qr_scan", "ios": "https://dc.lft.to/lastmile_qr_scan"}, "name": "2a9808217f7551b5c9de6c81fb04d45c", "type": "electric_scooter"}, {"fusion_lat": 0.0, "bike_id": "14201645964388cb5ca1af0a2affdd01", "fusion_lon": 0.0, "lon": -77.0265925, "lat": 38.92778033333333, "is_reserved": 0, "is_disabled": 0, "rental_uris": {"android": "https://dc.lft.to/lastmile_qr_scan", "ios": "https://dc.lft.to/lastmile_qr_scan"}, "name": "14201645964388cb5ca1af0a2affdd01", "type": "electric_scooter"}, {"fusion_lat": 0.0, "bike_id": "600869c40c8e73bc58ceed7148e0046c", "fusion_lon": 0.0, "lon": -77.030028, "lat": 38.8960605, "is_reserved": 0, "is_disabled": 0, "rental_uris": {"android": "https://dc.lft.to/lastmile_qr_scan", "ios": "https://dc.lft.to/lastmile_qr_scan"}, "name": "600869c40c8e73bc58ceed7148e0046c", "type": "electric_scooter"}, {"fusion_lat": 0.0, "bike_id": "434135155b9f4a0038334b209bd060f3", "fusion_lon": 0.0, "lon": -77.03882733333333, "lat": 38.929656333333334, "is_reserved": 0, "is_disabled": 0, "rental_uris": {"android": "https://dc.lft.to/lastmile_qr_scan", "ios": "https://dc.lft.to/lastmile_qr_scan"}, "name": "434135155b9f4a0038334b209bd060f3", "type": "electric_scooter"}, {"fusion_lat": 0.0, "bike_id": "c581cb174111a8db87e986883d9c4811", "fusion_lon": 0.0, "lon": -77.00042016666667, "lat": 38.967650166666665, "is_reserved": 0, "is_disabled": 0, "rental_uris": {"android": "https://dc.lft.to/lastmile_qr_scan", "ios": "https://dc.lft.to/lastmile_qr_scan"}, "name": "c581cb174111a8db87e986883d9c4811", "type": "electric_bike"}, {"fusion_lat": 0.0, "bike_id": "c11097eb7cdec2d2c3e05ee034d1a0d3", "fusion_lon": 0.0, "lon": -77.04329666666666, "lat": 38.90688433333333, "is_reserved": 0, "is_disabled": 0, "rental_uris": {"android": "https://dc.lft.to/lastmile_qr_scan", "ios": "https://dc.lft.to/lastmile_qr_scan"}, "name": "c11097eb7cdec2d2c3e05ee034d1a0d3", "type": "electric_scooter"}, {"fusion_lat": 0.0, "bike_id": "d6a324505096962dc98ccd86d8126eae", "fusion_lon": 0.0, "lon": -77.03723216666667, "lat": 38.926508, "is_reserved": 0, "is_disabled": 0, "rental_uris": {"android": "https://dc.lft.to/lastmile_qr_scan", "ios": "https://dc.lft.to/lastmile_qr_scan"}, "name": "d6a324505096962dc98ccd86d8126eae", "type": "electric_scooter"}, {"fusion_lat": 0.0, "bike_id": "f045daaeb0900ba395960d159fcc6694", "fusion_lon": 0.0, "lon": -77.11579716666667, "lat": 38.993489333333336, "is_reserved": 0, "is_disabled": 0, "rental_uris": {"android": "https://dc.lft.to/lastmile_qr_scan", "ios": "https://dc.lft.to/lastmile_qr_scan"}, "name": "f045daaeb0900ba395960d159fcc6694", "type": "electric_bike"}, {"fusion_lat": 0.0, "bike_id": "cccbf83b78646c70907b4c55c01fc1c7", "fusion_lon": 0.0, "lon": -77.024035, "lat": 38.89196866666666, "is_reserved": 0, "is_disabled": 0, "rental_uris": {"android": "https://dc.lft.to/lastmile_qr_scan", "ios": "https://dc.lft.to/lastmile_qr_scan"}, "name": "cccbf83b78646c70907b4c55c01fc1c7", "type": "electric_scooter"}, {"fusion_lat": 0.0, "bike_id": "38a4aafc5c79d29ce25ad440b0edabf6", "fusion_lon": 0.0, "lon": -77.02798033333333, "lat": 38.94181533333333, "is_reserved": 0, "is_disabled": 0, "rental_uris": {"android": "https://dc.lft.to/lastmile_qr_scan", "ios": "https://dc.lft.to/lastmile_qr_scan"}, "name": "38a4aafc5c79d29ce25ad440b0edabf6", "type": "electric_scooter"}, {"fusion_lat": 0.0, "bike_id": "58994cbfb2bb36ca8f38310c35b9261c", "fusion_lon": 0.0, "lon": -77.02556466666667, "lat": 38.90967116666667, "is_reserved": 0, "is_disabled": 0, "rental_uris": {"android": "https://dc.lft.to/lastmile_qr_scan", "ios": "https://dc.lft.to/lastmile_qr_scan"}, "name": "58994cbfb2bb36ca8f38310c35b9261c", "type": "electric_scooter"}, {"fusion_lat": 0.0, "bike_id": "978c89a42ce5b41a51c1e9f46a3c4a33", "fusion_lon": 0.0, "lon": -77.0297725, "lat": 38.92316016666667, "is_reserved": 0, "is_disabled": 0, "rental_uris": {"android": "https://dc.lft.to/lastmile_qr_scan", "ios": "https://dc.lft.to/lastmile_qr_scan"}, "name": "978c89a42ce5b41a51c1e9f46a3c4a33", "type": "electric_scooter"}, {"fusion_lat": 0.0, "bike_id": "5fabfb440b4796f029d297e2ca79606b", "fusion_lon": 0.0, "lon": -76.97742616666666, "lat": 38.86479583333333, "is_reserved": 0, "is_disabled": 0, "rental_uris": {"android": "https://dc.lft.to/lastmile_qr_scan", "ios": "https://dc.lft.to/lastmile_qr_scan"}, "name": "5fabfb440b4796f029d297e2ca79606b", "type": "electric_scooter"}, {"fusion_lat": 0.0, "bike_id": "62f1d9520cbec5cbf5c8ff475b94179b", "fusion_lon": 0.0, "lon": -77.07392783333333, "lat": 38.962192333333334, "is_reserved": 0, "is_disabled": 0, "rental_uris": {"android": "https://dc.lft.to/lastmile_qr_scan", "ios": "https://dc.lft.to/lastmile_qr_scan"}, "name": "62f1d9520cbec5cbf5c8ff475b94179b", "type": "electric_scooter"}, {"fusion_lat": 0.0, "bike_id": "b77406a5e4287e4911735f4eb6f25192", "fusion_lon": 0.0, "lon": -76.98532733333333, "lat": 38.86689116666667, "is_reserved": 0, "is_disabled": 0, "rental_uris": {"android": "https://dc.lft.to/lastmile_qr_scan", "ios": "https://dc.lft.to/lastmile_qr_scan"}, "name": "b77406a5e4287e4911735f4eb6f25192", "type": "electric_scooter"}, {"fusion_lat": 0.0, "bike_id": "e20f9bec9223dc837342716d885a7c38", "fusion_lon": 0.0, "lon": -77.0096115, "lat": 38.953412, "is_reserved": 0, "is_disabled": 0, "rental_uris": {"android": "https://dc.lft.to/lastmile_qr_scan", "ios": "https://dc.lft.to/lastmile_qr_scan"}, "name": "e20f9bec9223dc837342716d885a7c38", "type": "electric_bike"}, {"fusion_lat": 0.0, "bike_id": "6325cbcc6c718c7ac678278b6897f29a", "fusion_lon": 0.0, "lon": -77.03388733333334, "lat": 38.92168516666667, "is_reserved": 0, "is_disabled": 0, "rental_uris": {"android": "https://dc.lft.to/lastmile_qr_scan", "ios": "https://dc.lft.to/lastmile_qr_scan"}, "name": "6325cbcc6c718c7ac678278b6897f29a", "type": "electric_scooter"}, {"fusion_lat": 0.0, "bike_id": "b17876adcaa145a8d0d159e1e0f1f3ed", "fusion_lon": 0.0, "lon": -77.04335666666667, "lat": 38.9068715, "is_reserved": 0, "is_disabled": 0, "rental_uris": {"android": "https://dc.lft.to/lastmile_qr_scan", "ios": "https://dc.lft.to/lastmile_qr_scan"}, "name": "b17876adcaa145a8d0d159e1e0f1f3ed", "type": "electric_scooter"}, {"fusion_lat": 0.0, "bike_id": "fb8c660e6cd8c45796f7606acdf83d0e", "fusion_lon": 0.0, "lon": -77.02635166666667, "lat": 38.91694066666667, "is_reserved": 0, "is_disabled": 0, "rental_uris": {"android": "https://dc.lft.to/lastmile_qr_scan", "ios": "https://dc.lft.to/lastmile_qr_scan"}, "name": "fb8c660e6cd8c45796f7606acdf83d0e", "type": "electric_scooter"}, {"fusion_lat": 0.0, "bike_id": "f23d6958f99a854daa752f45bc008835", "fusion_lon": 0.0, "lon": -77.02731533333333, "lat": 38.932166333333335, "is_reserved": 0, "is_disabled": 0, "rental_uris": {"android": "https://dc.lft.to/lastmile_qr_scan", "ios": "https://dc.lft.to/lastmile_qr_scan"}, "name": "f23d6958f99a854daa752f45bc008835", "type": "electric_scooter"}, {"fusion_lat": 0.0, "bike_id": "edc2eb116c080430b518fe5f84ff9722", "fusion_lon": 0.0, "lon": -77.0282875, "lat": 38.9141735, "is_reserved": 0, "is_disabled": 0, "rental_uris": {"android": "https://dc.lft.to/lastmile_qr_scan", "ios": "https://dc.lft.to/lastmile_qr_scan"}, "name": "edc2eb116c080430b518fe5f84ff9722", "type": "electric_scooter"}, {"fusion_lat": 0.0, "bike_id": "dab75b4741b2a2bc53d6216559a7931d", "fusion_lon": 0.0, "lon": -77.03185816666667, "lat": 38.89224883333333, "is_reserved": 0, "is_disabled": 0, "rental_uris": {"android": "https://dc.lft.to/lastmile_qr_scan", "ios": "https://dc.lft.to/lastmile_qr_scan"}, "name": "dab75b4741b2a2bc53d6216559a7931d", "type": "electric_scooter"}, {"fusion_lat": 0.0, "bike_id": "1a44e5592b2959400b4478dffb8a5e61", "fusion_lon": 0.0, "lon": -77.03330233333334, "lat": 38.90972466666667, "is_reserved": 0, "is_disabled": 0, "rental_uris": {"android": "https://dc.lft.to/lastmile_qr_scan", "ios": "https://dc.lft.to/lastmile_qr_scan"}, "name": "1a44e5592b2959400b4478dffb8a5e61", "type": "electric_scooter"}, {"fusion_lat": 0.0, "bike_id": "ecda6bc88e7908d2e60e04a77ac29c05", "fusion_lon": 0.0, "lon": -77.02160433333333, "lat": 38.9268925, "is_reserved": 0, "is_disabled": 0, "rental_uris": {"android": "https://dc.lft.to/lastmile_qr_scan", "ios": "https://dc.lft.to/lastmile_qr_scan"}, "name": "ecda6bc88e7908d2e60e04a77ac29c05", "type": "electric_scooter"}, {"fusion_lat": 0.0, "bike_id": "a9de63812db0b514e6fb28f472ef3307", "fusion_lon": 0.0, "lon": -77.025849, "lat": 38.920373, "is_reserved": 0, "is_disabled": 0, "rental_uris": {"android": "https://dc.lft.to/lastmile_qr_scan", "ios": "https://dc.lft.to/lastmile_qr_scan"}, "name": "a9de63812db0b514e6fb28f472ef3307", "type": "electric_scooter"}, {"fusion_lat": 0.0, "bike_id": "2a6abfae4c2e0c8ce620e4a8593db824", "fusion_lon": 0.0, "lon": -77.0258155, "lat": 38.931947, "is_reserved": 0, "is_disabled": 0, "rental_uris": {"android": "https://dc.lft.to/lastmile_qr_scan", "ios": "https://dc.lft.to/lastmile_qr_scan"}, "name": "2a6abfae4c2e0c8ce620e4a8593db824", "type": "electric_scooter"}, {"fusion_lat": 0.0, "bike_id": "672bdb9b71e181d522b8a592c86543cd", "fusion_lon": 0.0, "lon": -77.03730283333333, "lat": 38.935756166666664, "is_reserved": 0, "is_disabled": 0, "rental_uris": {"android": "https://dc.lft.to/lastmile_qr_scan", "ios": "https://dc.lft.to/lastmile_qr_scan"}, "name": "672bdb9b71e181d522b8a592c86543cd", "type": "electric_scooter"}, {"fusion_lat": 0.0, "bike_id": "a6773c97ae8dcea5d7d05cd52d1652f2", "fusion_lon": 0.0, "lon": -77.02790366666666, "lat": 38.89936766666667, "is_reserved": 0, "is_disabled": 0, "rental_uris": {"android": "https://dc.lft.to/lastmile_qr_scan", "ios": "https://dc.lft.to/lastmile_qr_scan"}, "name": "a6773c97ae8dcea5d7d05cd52d1652f2", "type": "electric_scooter"}, {"fusion_lat": 0.0, "bike_id": "c05600d06cb8875ca834e199e3acfbbf", "fusion_lon": 0.0, "lon": -77.03278416666667, "lat": 38.92846383333333, "is_reserved": 0, "is_disabled": 0, "rental_uris": {"android": "https://dc.lft.to/lastmile_qr_scan", "ios": "https://dc.lft.to/lastmile_qr_scan"}, "name": "c05600d06cb8875ca834e199e3acfbbf", "type": "electric_scooter"}, {"fusion_lat": 0.0, "bike_id": "834c826b08fd112c1199852f27fd2522", "fusion_lon": 0.0, "lon": -77.01970833333333, "lat": 38.883805, "is_reserved": 0, "is_disabled": 0, "rental_uris": {"android": "https://dc.lft.to/lastmile_qr_scan", "ios": "https://dc.lft.to/lastmile_qr_scan"}, "name": "834c826b08fd112c1199852f27fd2522", "type": "electric_scooter"}, {"fusion_lat": 0.0, "bike_id": "4827f94193cb437a7fa1d0a296e537e6", "fusion_lon": 0.0, "lon": -77.05767166666666, "lat": 38.933882833333335, "is_reserved": 0, "is_disabled": 0, "rental_uris": {"android": "https://dc.lft.to/lastmile_qr_scan", "ios": "https://dc.lft.to/lastmile_qr_scan"}, "name": "4827f94193cb437a7fa1d0a296e537e6", "type": "electric_scooter"}, {"fusion_lat": 0.0, "bike_id": "6e2761111f53037eb6c8cd46fbfbdea6", "fusion_lon": 0.0, "lon": -76.98936266666666, "lat": 38.8655905, "is_reserved": 0, "is_disabled": 0, "rental_uris": {"android": "https://dc.lft.to/lastmile_qr_scan", "ios": "https://dc.lft.to/lastmile_qr_scan"}, "name": "6e2761111f53037eb6c8cd46fbfbdea6", "type": "electric_scooter"}, {"fusion_lat": 0.0, "bike_id": "ef7f30ccd53dd3416dd1a4763ffdce04", "fusion_lon": 0.0, "lon": -77.011323, "lat": 38.9003045, "is_reserved": 0, "is_disabled": 0, "rental_uris": {"android": "https://dc.lft.to/lastmile_qr_scan", "ios": "https://dc.lft.to/lastmile_qr_scan"}, "name": "ef7f30ccd53dd3416dd1a4763ffdce04", "type": "electric_scooter"}, {"fusion_lat": 0.0, "bike_id": "71bd4d8a82ae3dc05705a4812cd956bf", "fusion_lon": 0.0, "lon": -77.03258383333333, "lat": 38.9426815, "is_reserved": 0, "is_disabled": 0, "rental_uris": {"android": "https://dc.lft.to/lastmile_qr_scan", "ios": "https://dc.lft.to/lastmile_qr_scan"}, "name": "71bd4d8a82ae3dc05705a4812cd956bf", "type": "electric_scooter"}, {"fusion_lat": 0.0, "bike_id": "4b99a4f770e3e3335ab7ff08ed1ed205", "fusion_lon": 0.0, "lon": -77.04352666666666, "lat": 38.93332083333333, "is_reserved": 0, "is_disabled": 0, "rental_uris": {"android": "https://dc.lft.to/lastmile_qr_scan", "ios": "https://dc.lft.to/lastmile_qr_scan"}, "name": "4b99a4f770e3e3335ab7ff08ed1ed205", "type": "electric_scooter"}, {"fusion_lat": 0.0, "bike_id": "9c862dd2e7d0f8f60fe992ecab0b8be5", "fusion_lon": 0.0, "lon": -77.0517635, "lat": 38.90111233333333, "is_reserved": 0, "is_disabled": 0, "rental_uris": {"android": "https://dc.lft.to/lastmile_qr_scan", "ios": "https://dc.lft.to/lastmile_qr_scan"}, "name": "9c862dd2e7d0f8f60fe992ecab0b8be5", "type": "electric_scooter"}, {"fusion_lat": 0.0, "bike_id": "27e448c6b8559467ef7733a146339203", "fusion_lon": 0.0, "lon": -77.10750483333334, "lat": 38.96498833333333, "is_reserved": 0, "is_disabled": 0, "rental_uris": {"android": "https://dc.lft.to/lastmile_qr_scan", "ios": "https://dc.lft.to/lastmile_qr_scan"}, "name": "27e448c6b8559467ef7733a146339203", "type": "electric_bike"}, {"fusion_lat": 0.0, "bike_id": "6bbaeb04b0bc1a2064155bfbf9e38540", "fusion_lon": 0.0, "lon": -77.0307935, "lat": 38.88035883333333, "is_reserved": 0, "is_disabled": 0, "rental_uris": {"android": "https://dc.lft.to/lastmile_qr_scan", "ios": "https://dc.lft.to/lastmile_qr_scan"}, "name": "6bbaeb04b0bc1a2064155bfbf9e38540", "type": "electric_scooter"}, {"fusion_lat": 0.0, "bike_id": "415be8719639f5ca275415684efc1a8d", "fusion_lon": 0.0, "lon": -77.04986483333333, "lat": 39.035584666666665, "is_reserved": 0, "is_disabled": 0, "rental_uris": {"android": "https://dc.lft.to/lastmile_qr_scan", "ios": "https://dc.lft.to/lastmile_qr_scan"}, "name": "415be8719639f5ca275415684efc1a8d", "type": "electric_bike"}, {"fusion_lat": 0.0, "bike_id": "4fa90de1dfe32f5766bf7ce072d4a412", "fusion_lon": 0.0, "lon": -77.03275216666667, "lat": 38.92000766666666, "is_reserved": 0, "is_disabled": 0, "rental_uris": {"android": "https://dc.lft.to/lastmile_qr_scan", "ios": "https://dc.lft.to/lastmile_qr_scan"}, "name": "4fa90de1dfe32f5766bf7ce072d4a412", "type": "electric_scooter"}, {"fusion_lat": 0.0, "bike_id": "2c235af8737d08f6514f59f9f1497a40", "fusion_lon": 0.0, "lon": -77.0273265, "lat": 38.9438395, "is_reserved": 0, "is_disabled": 0, "rental_uris": {"android": "https://dc.lft.to/lastmile_qr_scan", "ios": "https://dc.lft.to/lastmile_qr_scan"}, "name": "2c235af8737d08f6514f59f9f1497a40", "type": "electric_scooter"}, {"fusion_lat": 0.0, "bike_id": "a7987ce79b237b1713d349e655df3a79", "fusion_lon": 0.0, "lon": -77.044715, "lat": 38.908691, "is_reserved": 0, "is_disabled": 0, "rental_uris": {"android": "https://dc.lft.to/lastmile_qr_scan", "ios": "https://dc.lft.to/lastmile_qr_scan"}, "name": "a7987ce79b237b1713d349e655df3a79", "type": "electric_scooter"}, {"fusion_lat": 0.0, "bike_id": "f3a0c0b8066914a9d4d8aefe9e909c20", "fusion_lon": 0.0, "lon": -77.02287533333333, "lat": 38.918464666666665, "is_reserved": 0, "is_disabled": 0, "rental_uris": {"android": "https://dc.lft.to/lastmile_qr_scan", "ios": "https://dc.lft.to/lastmile_qr_scan"}, "name": "f3a0c0b8066914a9d4d8aefe9e909c20", "type": "electric_scooter"}, {"fusion_lat": 0.0, "bike_id": "6e6331264d5116cb7d8691bfbd65d369", "fusion_lon": 0.0, "lon": -77.00023166666666, "lat": 38.908223166666666, "is_reserved": 0, "is_disabled": 0, "rental_uris": {"android": "https://dc.lft.to/lastmile_qr_scan", "ios": "https://dc.lft.to/lastmile_qr_scan"}, "name": "6e6331264d5116cb7d8691bfbd65d369", "type": "electric_scooter"}, {"fusion_lat": 0.0, "bike_id": "89e7904a9ba31f0566fc038045284d7f", "fusion_lon": 0.0, "lon": -77.04114533333333, "lat": 38.89916766666666, "is_reserved": 0, "is_disabled": 0, "rental_uris": {"android": "https://dc.lft.to/lastmile_qr_scan", "ios": "https://dc.lft.to/lastmile_qr_scan"}, "name": "89e7904a9ba31f0566fc038045284d7f", "type": "electric_scooter"}, {"fusion_lat": 0.0, "bike_id": "d5e8cc8e9f41db9ccf11af6661480311", "fusion_lon": 0.0, "lon": -77.030917, "lat": 38.91926516666667, "is_reserved": 0, "is_disabled": 0, "rental_uris": {"android": "https://dc.lft.to/lastmile_qr_scan", "ios": "https://dc.lft.to/lastmile_qr_scan"}, "name": "d5e8cc8e9f41db9ccf11af6661480311", "type": "electric_scooter"}, {"fusion_lat": 0.0, "bike_id": "d42744a0d2f33a5d004338b470a08fca", "fusion_lon": 0.0, "lon": -77.01786733333333, "lat": 38.9204105, "is_reserved": 0, "is_disabled": 0, "rental_uris": {"android": "https://dc.lft.to/lastmile_qr_scan", "ios": "https://dc.lft.to/lastmile_qr_scan"}, "name": "d42744a0d2f33a5d004338b470a08fca", "type": "electric_scooter"}, {"fusion_lat": 0.0, "bike_id": "db8968b2590cfa223a4b3d60c09d36fb", "fusion_lon": 0.0, "lon": -77.0384025, "lat": 38.90883866666667, "is_reserved": 0, "is_disabled": 0, "rental_uris": {"android": "https://dc.lft.to/lastmile_qr_scan", "ios": "https://dc.lft.to/lastmile_qr_scan"}, "name": "db8968b2590cfa223a4b3d60c09d36fb", "type": "electric_scooter"}, {"fusion_lat": 0.0, "bike_id": "341209c519a1355a8a62de52bbe4dac7", "fusion_lon": 0.0, "lon": -77.03265316666666, "lat": 38.901463666666665, "is_reserved": 0, "is_disabled": 0, "rental_uris": {"android": "https://dc.lft.to/lastmile_qr_scan", "ios": "https://dc.lft.to/lastmile_qr_scan"}, "name": "341209c519a1355a8a62de52bbe4dac7", "type": "electric_scooter"}, {"fusion_lat": 0.0, "bike_id": "394c562a18ebf1442a429acccee796c5", "fusion_lon": 0.0, "lon": -77.03116166666666, "lat": 38.88755466666667, "is_reserved": 0, "is_disabled": 0, "rental_uris": {"android": "https://dc.lft.to/lastmile_qr_scan", "ios": "https://dc.lft.to/lastmile_qr_scan"}, "name": "394c562a18ebf1442a429acccee796c5", "type": "electric_scooter"}, {"fusion_lat": 0.0, "bike_id": "1d04ad4bf7f5cf9d14b4f79dc5086c40", "fusion_lon": 0.0, "lon": -76.97529283333333, "lat": 38.922270833333336, "is_reserved": 0, "is_disabled": 0, "rental_uris": {"android": "https://dc.lft.to/lastmile_qr_scan", "ios": "https://dc.lft.to/lastmile_qr_scan"}, "name": "1d04ad4bf7f5cf9d14b4f79dc5086c40", "type": "electric_scooter"}, {"fusion_lat": 0.0, "bike_id": "e411f35fc758bf3cd7e8b90286885655", "fusion_lon": 0.0, "lon": -77.0121015, "lat": 38.88553733333333, "is_reserved": 0, "is_disabled": 0, "rental_uris": {"android": "https://dc.lft.to/lastmile_qr_scan", "ios": "https://dc.lft.to/lastmile_qr_scan"}, "name": "e411f35fc758bf3cd7e8b90286885655", "type": "electric_scooter"}, {"fusion_lat": 0.0, "bike_id": "145c6cb09103ea4b39cb77ce511fb676", "fusion_lon": 0.0, "lon": -77.01579183333334, "lat": 38.876503, "is_reserved": 0, "is_disabled": 0, "rental_uris": {"android": "https://dc.lft.to/lastmile_qr_scan", "ios": "https://dc.lft.to/lastmile_qr_scan"}, "name": "145c6cb09103ea4b39cb77ce511fb676", "type": "electric_scooter"}, {"fusion_lat": 0.0, "bike_id": "880769fff13f100b1fec8fa02918c2ce", "fusion_lon": 0.0, "lon": -77.02363133333333, "lat": 38.91686816666667, "is_reserved": 0, "is_disabled": 0, "rental_uris": {"android": "https://dc.lft.to/lastmile_qr_scan", "ios": "https://dc.lft.to/lastmile_qr_scan"}, "name": "880769fff13f100b1fec8fa02918c2ce", "type": "electric_scooter"}, {"fusion_lat": 0.0, "bike_id": "a3cc3fad847662b8a1ea65b632584548", "fusion_lon": 0.0, "lon": -77.03417066666667, "lat": 38.923211, "is_reserved": 0, "is_disabled": 0, "rental_uris": {"android": "https://dc.lft.to/lastmile_qr_scan", "ios": "https://dc.lft.to/lastmile_qr_scan"}, "name": "a3cc3fad847662b8a1ea65b632584548", "type": "electric_scooter"}, {"fusion_lat": 0.0, "bike_id": "87b63a4816b97188770b86c1a24c5661", "fusion_lon": 0.0, "lon": -77.031957, "lat": 38.9211095, "is_reserved": 0, "is_disabled": 0, "rental_uris": {"android": "https://dc.lft.to/lastmile_qr_scan", "ios": "https://dc.lft.to/lastmile_qr_scan"}, "name": "87b63a4816b97188770b86c1a24c5661", "type": "electric_scooter"}, {"fusion_lat": 0.0, "bike_id": "1fb40ab3d96a420f57ba884f7e855ee5", "fusion_lon": 0.0, "lon": -77.0276045, "lat": 38.94405833333333, "is_reserved": 0, "is_disabled": 0, "rental_uris": {"android": "https://dc.lft.to/lastmile_qr_scan", "ios": "https://dc.lft.to/lastmile_qr_scan"}, "name": "1fb40ab3d96a420f57ba884f7e855ee5", "type": "electric_scooter"}, {"fusion_lat": 0.0, "bike_id": "00ba5ba11387007d912577ca19b01d91", "fusion_lon": 0.0, "lon": -77.02471966666667, "lat": 38.90090516666667, "is_reserved": 0, "is_disabled": 0, "rental_uris": {"android": "https://dc.lft.to/lastmile_qr_scan", "ios": "https://dc.lft.to/lastmile_qr_scan"}, "name": "00ba5ba11387007d912577ca19b01d91", "type": "electric_scooter"}, {"fusion_lat": 0.0, "bike_id": "21f8fdfa1591d8f12dd70d7ef834bc29", "fusion_lon": 0.0, "lon": -77.058622, "lat": 38.93613933333334, "is_reserved": 0, "is_disabled": 0, "rental_uris": {"android": "https://dc.lft.to/lastmile_qr_scan", "ios": "https://dc.lft.to/lastmile_qr_scan"}, "name": "21f8fdfa1591d8f12dd70d7ef834bc29", "type": "electric_scooter"}, {"fusion_lat": 0.0, "bike_id": "1b366abd9cc6003ca80bb3919bfa639e", "fusion_lon": 0.0, "lon": -77.03436783333333, "lat": 38.909876, "is_reserved": 0, "is_disabled": 0, "rental_uris": {"android": "https://dc.lft.to/lastmile_qr_scan", "ios": "https://dc.lft.to/lastmile_qr_scan"}, "name": "1b366abd9cc6003ca80bb3919bfa639e", "type": "electric_scooter"}, {"fusion_lat": 0.0, "bike_id": "44fb92564d5a079a895dfe4a7a6ca187", "fusion_lon": 0.0, "lon": -77.0050585, "lat": 38.91265383333333, "is_reserved": 0, "is_disabled": 0, "rental_uris": {"android": "https://dc.lft.to/lastmile_qr_scan", "ios": "https://dc.lft.to/lastmile_qr_scan"}, "name": "44fb92564d5a079a895dfe4a7a6ca187", "type": "electric_scooter"}, {"fusion_lat": 0.0, "bike_id": "846c7a450e9f324346293b55579cc7df", "fusion_lon": 0.0, "lon": -77.026354, "lat": 38.91699583333333, "is_reserved": 0, "is_disabled": 0, "rental_uris": {"android": "https://dc.lft.to/lastmile_qr_scan", "ios": "https://dc.lft.to/lastmile_qr_scan"}, "name": "846c7a450e9f324346293b55579cc7df", "type": "electric_scooter"}, {"fusion_lat": 0.0, "bike_id": "7c06a097e7a8179965fb433d82f5df3c", "fusion_lon": 0.0, "lon": -77.04650416666667, "lat": 38.91598366666667, "is_reserved": 0, "is_disabled": 0, "rental_uris": {"android": "https://dc.lft.to/lastmile_qr_scan", "ios": "https://dc.lft.to/lastmile_qr_scan"}, "name": "7c06a097e7a8179965fb433d82f5df3c", "type": "electric_scooter"}, {"fusion_lat": 0.0, "bike_id": "07028cd834b03f90fcdba865c4785d6e", "fusion_lon": 0.0, "lon": -77.03833116666667, "lat": 38.90678033333333, "is_reserved": 0, "is_disabled": 0, "rental_uris": {"android": "https://dc.lft.to/lastmile_qr_scan", "ios": "https://dc.lft.to/lastmile_qr_scan"}, "name": "07028cd834b03f90fcdba865c4785d6e", "type": "electric_scooter"}, {"fusion_lat": 0.0, "bike_id": "645848b0997a696df430e19424fcb28f", "fusion_lon": 0.0, "lon": -77.02361733333333, "lat": 38.89219216666667, "is_reserved": 0, "is_disabled": 0, "rental_uris": {"android": "https://dc.lft.to/lastmile_qr_scan", "ios": "https://dc.lft.to/lastmile_qr_scan"}, "name": "645848b0997a696df430e19424fcb28f", "type": "electric_scooter"}, {"fusion_lat": 0.0, "bike_id": "9ea0d76c5d383c7161ff496474332e29", "fusion_lon": 0.0, "lon": -77.02061666666667, "lat": 38.9097305, "is_reserved": 0, "is_disabled": 0, "rental_uris": {"android": "https://dc.lft.to/lastmile_qr_scan", "ios": "https://dc.lft.to/lastmile_qr_scan"}, "name": "9ea0d76c5d383c7161ff496474332e29", "type": "electric_scooter"}, {"fusion_lat": 0.0, "bike_id": "d401fcfcac433bef95c78d200f457443", "fusion_lon": 0.0, "lon": -77.02166066666666, "lat": 38.92501083333333, "is_reserved": 0, "is_disabled": 0, "rental_uris": {"android": "https://dc.lft.to/lastmile_qr_scan", "ios": "https://dc.lft.to/lastmile_qr_scan"}, "name": "d401fcfcac433bef95c78d200f457443", "type": "electric_scooter"}, {"fusion_lat": 0.0, "bike_id": "c4b0c130447c7566a9a3e75c14f1e02d", "fusion_lon": 0.0, "lon": -77.03066433333333, "lat": 38.8805085, "is_reserved": 0, "is_disabled": 0, "rental_uris": {"android": "https://dc.lft.to/lastmile_qr_scan", "ios": "https://dc.lft.to/lastmile_qr_scan"}, "name": "c4b0c130447c7566a9a3e75c14f1e02d", "type": "electric_scooter"}, {"fusion_lat": 0.0, "bike_id": "4110c6ad657af05658291600ce5ba152", "fusion_lon": 0.0, "lon": -76.98881733333333, "lat": 38.8666085, "is_reserved": 0, "is_disabled": 0, "rental_uris": {"android": "https://dc.lft.to/lastmile_qr_scan", "ios": "https://dc.lft.to/lastmile_qr_scan"}, "name": "4110c6ad657af05658291600ce5ba152", "type": "electric_scooter"}, {"fusion_lat": 0.0, "bike_id": "913e1419b9ab0f1fa75e83363bb5d752", "fusion_lon": 0.0, "lon": -77.04468116666666, "lat": 38.892247, "is_reserved": 0, "is_disabled": 0, "rental_uris": {"android": "https://dc.lft.to/lastmile_qr_scan", "ios": "https://dc.lft.to/lastmile_qr_scan"}, "name": "913e1419b9ab0f1fa75e83363bb5d752", "type": "electric_scooter"}, {"fusion_lat": 0.0, "bike_id": "338aecddd83bc8157f6aaa74b4efb934", "fusion_lon": 0.0, "lon": -77.03208583333333, "lat": 38.899662166666666, "is_reserved": 0, "is_disabled": 0, "rental_uris": {"android": "https://dc.lft.to/lastmile_qr_scan", "ios": "https://dc.lft.to/lastmile_qr_scan"}, "name": "338aecddd83bc8157f6aaa74b4efb934", "type": "electric_scooter"}, {"fusion_lat": 0.0, "bike_id": "1214dadfd6f18e6d26f3bbe202ebc1f7", "fusion_lon": 0.0, "lon": -77.0135435, "lat": 38.900437333333336, "is_reserved": 0, "is_disabled": 0, "rental_uris": {"android": "https://dc.lft.to/lastmile_qr_scan", "ios": "https://dc.lft.to/lastmile_qr_scan"}, "name": "1214dadfd6f18e6d26f3bbe202ebc1f7", "type": "electric_scooter"}, {"fusion_lat": 0.0, "bike_id": "a108aa6af89e2f2c91157699cfff0bfd", "fusion_lon": 0.0, "lon": -77.03977933333333, "lat": 38.928015, "is_reserved": 0, "is_disabled": 0, "rental_uris": {"android": "https://dc.lft.to/lastmile_qr_scan", "ios": "https://dc.lft.to/lastmile_qr_scan"}, "name": "a108aa6af89e2f2c91157699cfff0bfd", "type": "electric_scooter"}, {"fusion_lat": 0.0, "bike_id": "57ad6b6e7ac9af505aa699e9688dd2a4", "fusion_lon": 0.0, "lon": -77.23333766666667, "lat": 38.8727175, "is_reserved": 0, "is_disabled": 0, "rental_uris": {"android": "https://dc.lft.to/lastmile_qr_scan", "ios": "https://dc.lft.to/lastmile_qr_scan"}, "name": "57ad6b6e7ac9af505aa699e9688dd2a4", "type": "electric_bike"}, {"fusion_lat": 0.0, "bike_id": "c8df0db35093b58e3c50e1617cb2c6bc", "fusion_lon": 0.0, "lon": -77.05001716666666, "lat": 38.892291, "is_reserved": 0, "is_disabled": 0, "rental_uris": {"android": "https://dc.lft.to/lastmile_qr_scan", "ios": "https://dc.lft.to/lastmile_qr_scan"}, "name": "c8df0db35093b58e3c50e1617cb2c6bc", "type": "electric_scooter"}, {"fusion_lat": 0.0, "bike_id": "76ef0ba01ec872892f9dcae7f03bfffc", "fusion_lon": 0.0, "lon": -76.94104183333333, "lat": 38.884623166666664, "is_reserved": 0, "is_disabled": 0, "rental_uris": {"android": "https://dc.lft.to/lastmile_qr_scan", "ios": "https://dc.lft.to/lastmile_qr_scan"}, "name": "76ef0ba01ec872892f9dcae7f03bfffc", "type": "electric_scooter"}, {"fusion_lat": 0.0, "bike_id": "4975da4ef0a6be14b73b60d6e6434ea2", "fusion_lon": 0.0, "lon": -77.06776733333334, "lat": 38.905093, "is_reserved": 0, "is_disabled": 0, "rental_uris": {"android": "https://dc.lft.to/lastmile_qr_scan", "ios": "https://dc.lft.to/lastmile_qr_scan"}, "name": "4975da4ef0a6be14b73b60d6e6434ea2", "type": "electric_scooter"}, {"fusion_lat": 0.0, "bike_id": "1df002ee70c55aa1b98366fb90abd435", "fusion_lon": 0.0, "lon": -77.04673033333333, "lat": 38.905996, "is_reserved": 0, "is_disabled": 0, "rental_uris": {"android": "https://dc.lft.to/lastmile_qr_scan", "ios": "https://dc.lft.to/lastmile_qr_scan"}, "name": "1df002ee70c55aa1b98366fb90abd435", "type": "electric_scooter"}, {"fusion_lat": 0.0, "bike_id": "38eca0ded84da6f7d5251e2c3a311e23", "fusion_lon": 0.0, "lon": -77.00294483333333, "lat": 38.901245, "is_reserved": 0, "is_disabled": 0, "rental_uris": {"android": "https://dc.lft.to/lastmile_qr_scan", "ios": "https://dc.lft.to/lastmile_qr_scan"}, "name": "38eca0ded84da6f7d5251e2c3a311e23", "type": "electric_scooter"}, {"fusion_lat": 0.0, "bike_id": "24cc8beb6921535406df6b3cbaa617d9", "fusion_lon": 0.0, "lon": -77.03418816666667, "lat": 38.904281833333336, "is_reserved": 0, "is_disabled": 0, "rental_uris": {"android": "https://dc.lft.to/lastmile_qr_scan", "ios": "https://dc.lft.to/lastmile_qr_scan"}, "name": "24cc8beb6921535406df6b3cbaa617d9", "type": "electric_scooter"}, {"fusion_lat": 0.0, "bike_id": "133960c388f340a02145bc768e5666b3", "fusion_lon": 0.0, "lon": -77.0328205, "lat": 38.91213233333333, "is_reserved": 0, "is_disabled": 0, "rental_uris": {"android": "https://dc.lft.to/lastmile_qr_scan", "ios": "https://dc.lft.to/lastmile_qr_scan"}, "name": "133960c388f340a02145bc768e5666b3", "type": "electric_scooter"}, {"fusion_lat": 0.0, "bike_id": "66c2a33ec1d139da1e4122a06a67cce9", "fusion_lon": 0.0, "lon": -76.98526283333334, "lat": 38.866876500000004, "is_reserved": 0, "is_disabled": 0, "rental_uris": {"android": "https://dc.lft.to/lastmile_qr_scan", "ios": "https://dc.lft.to/lastmile_qr_scan"}, "name": "66c2a33ec1d139da1e4122a06a67cce9", "type": "electric_scooter"}, {"fusion_lat": 0.0, "bike_id": "3243f28c40cfc1782d51d2c0d179af62", "fusion_lon": 0.0, "lon": -77.225817, "lat": 38.929611666666666, "is_reserved": 0, "is_disabled": 0, "rental_uris": {"android": "https://dc.lft.to/lastmile_qr_scan", "ios": "https://dc.lft.to/lastmile_qr_scan"}, "name": "3243f28c40cfc1782d51d2c0d179af62", "type": "electric_bike"}, {"fusion_lat": 0.0, "bike_id": "ef8443414912ca6ba986ec3bec9ee795", "fusion_lon": 0.0, "lon": -77.020693, "lat": 38.92706066666667, "is_reserved": 0, "is_disabled": 0, "rental_uris": {"android": "https://dc.lft.to/lastmile_qr_scan", "ios": "https://dc.lft.to/lastmile_qr_scan"}, "name": "ef8443414912ca6ba986ec3bec9ee795", "type": "electric_scooter"}, {"fusion_lat": 0.0, "bike_id": "ace0dd0491e6521bebe94607dcce642b", "fusion_lon": 0.0, "lon": -77.0258745, "lat": 38.8874425, "is_reserved": 0, "is_disabled": 0, "rental_uris": {"android": "https://dc.lft.to/lastmile_qr_scan", "ios": "https://dc.lft.to/lastmile_qr_scan"}, "name": "ace0dd0491e6521bebe94607dcce642b", "type": "electric_scooter"}, {"fusion_lat": 0.0, "bike_id": "02b08964c0ec81c9d207f05b88f9931c", "fusion_lon": 0.0, "lon": -76.994839, "lat": 38.8861095, "is_reserved": 0, "is_disabled": 0, "rental_uris": {"android": "https://dc.lft.to/lastmile_qr_scan", "ios": "https://dc.lft.to/lastmile_qr_scan"}, "name": "02b08964c0ec81c9d207f05b88f9931c", "type": "electric_scooter"}, {"fusion_lat": 0.0, "bike_id": "055f9565bbf6a9486457d486a1c9a536", "fusion_lon": 0.0, "lon": -77.0609715, "lat": 38.90530783333333, "is_reserved": 0, "is_disabled": 0, "rental_uris": {"android": "https://dc.lft.to/lastmile_qr_scan", "ios": "https://dc.lft.to/lastmile_qr_scan"}, "name": "055f9565bbf6a9486457d486a1c9a536", "type": "electric_scooter"}, {"fusion_lat": 0.0, "bike_id": "fbe3beb5b75160d3e49bbdd19a1eefbc", "fusion_lon": 0.0, "lon": -77.01758283333334, "lat": 38.88399866666666, "is_reserved": 0, "is_disabled": 0, "rental_uris": {"android": "https://dc.lft.to/lastmile_qr_scan", "ios": "https://dc.lft.to/lastmile_qr_scan"}, "name": "fbe3beb5b75160d3e49bbdd19a1eefbc", "type": "electric_scooter"}, {"fusion_lat": 0.0, "bike_id": "34ec98ae7a7e74fd605515dbb65d05c7", "fusion_lon": 0.0, "lon": -77.041566, "lat": 38.923352, "is_reserved": 0, "is_disabled": 0, "rental_uris": {"android": "https://dc.lft.to/lastmile_qr_scan", "ios": "https://dc.lft.to/lastmile_qr_scan"}, "name": "34ec98ae7a7e74fd605515dbb65d05c7", "type": "electric_scooter"}, {"fusion_lat": 0.0, "bike_id": "96827b4ad6c82682f772caf848837dad", "fusion_lon": 0.0, "lon": -77.02171716666666, "lat": 38.8872655, "is_reserved": 0, "is_disabled": 0, "rental_uris": {"android": "https://dc.lft.to/lastmile_qr_scan", "ios": "https://dc.lft.to/lastmile_qr_scan"}, "name": "96827b4ad6c82682f772caf848837dad", "type": "electric_scooter"}, {"fusion_lat": 0.0, "bike_id": "0ccf885e30c594a88c7bed24ffaf8451", "fusion_lon": 0.0, "lon": -77.04878516666666, "lat": 38.892323, "is_reserved": 0, "is_disabled": 0, "rental_uris": {"android": "https://dc.lft.to/lastmile_qr_scan", "ios": "https://dc.lft.to/lastmile_qr_scan"}, "name": "0ccf885e30c594a88c7bed24ffaf8451", "type": "electric_scooter"}, {"fusion_lat": 0.0, "bike_id": "7e33fc25c0460e84c291f56324abc951", "fusion_lon": 0.0, "lon": -77.03229383333333, "lat": 38.91411733333333, "is_reserved": 0, "is_disabled": 0, "rental_uris": {"android": "https://dc.lft.to/lastmile_qr_scan", "ios": "https://dc.lft.to/lastmile_qr_scan"}, "name": "7e33fc25c0460e84c291f56324abc951", "type": "electric_scooter"}, {"fusion_lat": 0.0, "bike_id": "1569bb794f5f68d79293ed3d041c18b3", "fusion_lon": 0.0, "lon": -77.05664633333333, "lat": 38.895483666666664, "is_reserved": 0, "is_disabled": 0, "rental_uris": {"android": "https://dc.lft.to/lastmile_qr_scan", "ios": "https://dc.lft.to/lastmile_qr_scan"}, "name": "1569bb794f5f68d79293ed3d041c18b3", "type": "electric_scooter"}, {"fusion_lat": 0.0, "bike_id": "34fdd756b98e23a6302492ebe89334a4", "fusion_lon": 0.0, "lon": -77.0449935, "lat": 38.90375016666667, "is_reserved": 0, "is_disabled": 0, "rental_uris": {"android": "https://dc.lft.to/lastmile_qr_scan", "ios": "https://dc.lft.to/lastmile_qr_scan"}, "name": "34fdd756b98e23a6302492ebe89334a4", "type": "electric_scooter"}, {"fusion_lat": 0.0, "bike_id": "1b65ed026bc60cc868b6517c71f1faa7", "fusion_lon": 0.0, "lon": -77.01059983333333, "lat": 38.8974835, "is_reserved": 0, "is_disabled": 0, "rental_uris": {"android": "https://dc.lft.to/lastmile_qr_scan", "ios": "https://dc.lft.to/lastmile_qr_scan"}, "name": "1b65ed026bc60cc868b6517c71f1faa7", "type": "electric_scooter"}, {"fusion_lat": 0.0, "bike_id": "f2b1f3e8b4d60bc7b1f351330b2077de", "fusion_lon": 0.0, "lon": -76.98232366666667, "lat": 38.868947166666665, "is_reserved": 0, "is_disabled": 0, "rental_uris": {"android": "https://dc.lft.to/lastmile_qr_scan", "ios": "https://dc.lft.to/lastmile_qr_scan"}, "name": "f2b1f3e8b4d60bc7b1f351330b2077de", "type": "electric_scooter"}, {"fusion_lat": 0.0, "bike_id": "1aeecf80d0e2b5a97a58a6b567cb36cd", "fusion_lon": 0.0, "lon": -77.02205283333333, "lat": 38.90566316666666, "is_reserved": 0, "is_disabled": 0, "rental_uris": {"android": "https://dc.lft.to/lastmile_qr_scan", "ios": "https://dc.lft.to/lastmile_qr_scan"}, "name": "1aeecf80d0e2b5a97a58a6b567cb36cd", "type": "electric_scooter"}, {"fusion_lat": 0.0, "bike_id": "8248f7ef3342546dfa33900f39358da5", "fusion_lon": 0.0, "lon": -77.03435483333334, "lat": 38.902679, "is_reserved": 0, "is_disabled": 0, "rental_uris": {"android": "https://dc.lft.to/lastmile_qr_scan", "ios": "https://dc.lft.to/lastmile_qr_scan"}, "name": "8248f7ef3342546dfa33900f39358da5", "type": "electric_scooter"}, {"fusion_lat": 0.0, "bike_id": "1dc5543ac4cc265ef7a48e269d916c1d", "fusion_lon": 0.0, "lon": -77.03874166666667, "lat": 38.9026745, "is_reserved": 0, "is_disabled": 0, "rental_uris": {"android": "https://dc.lft.to/lastmile_qr_scan", "ios": "https://dc.lft.to/lastmile_qr_scan"}, "name": "1dc5543ac4cc265ef7a48e269d916c1d", "type": "electric_scooter"}, {"fusion_lat": 0.0, "bike_id": "4cc17f20c29b7007b5d0efab8129f491", "fusion_lon": 0.0, "lon": -76.99210816666667, "lat": 38.86296633333333, "is_reserved": 0, "is_disabled": 0, "rental_uris": {"android": "https://dc.lft.to/lastmile_qr_scan", "ios": "https://dc.lft.to/lastmile_qr_scan"}, "name": "4cc17f20c29b7007b5d0efab8129f491", "type": "electric_scooter"}, {"fusion_lat": 0.0, "bike_id": "dcc5911e21add68a4ba6046eefc99e7a", "fusion_lon": 0.0, "lon": -77.0540065, "lat": 38.927719, "is_reserved": 0, "is_disabled": 0, "rental_uris": {"android": "https://dc.lft.to/lastmile_qr_scan", "ios": "https://dc.lft.to/lastmile_qr_scan"}, "name": "dcc5911e21add68a4ba6046eefc99e7a", "type": "electric_scooter"}, {"fusion_lat": 0.0, "bike_id": "5351214b51aeb109ad8d541c8e3c0f28", "fusion_lon": 0.0, "lon": -77.03226283333333, "lat": 38.892183, "is_reserved": 0, "is_disabled": 0, "rental_uris": {"android": "https://dc.lft.to/lastmile_qr_scan", "ios": "https://dc.lft.to/lastmile_qr_scan"}, "name": "5351214b51aeb109ad8d541c8e3c0f28", "type": "electric_scooter"}, {"fusion_lat": 0.0, "bike_id": "e5e1ae986efc9f8c7d1ad84ee867829f", "fusion_lon": 0.0, "lon": -77.11455866666667, "lat": 38.882296333333336, "is_reserved": 0, "is_disabled": 0, "rental_uris": {"android": "https://dc.lft.to/lastmile_qr_scan", "ios": "https://dc.lft.to/lastmile_qr_scan"}, "name": "e5e1ae986efc9f8c7d1ad84ee867829f", "type": "electric_bike"}, {"fusion_lat": 0.0, "bike_id": "eac2b214df496e77c5feccc11bd946ad", "fusion_lon": 0.0, "lon": -77.020563, "lat": 38.957573333333336, "is_reserved": 0, "is_disabled": 0, "rental_uris": {"android": "https://dc.lft.to/lastmile_qr_scan", "ios": "https://dc.lft.to/lastmile_qr_scan"}, "name": "eac2b214df496e77c5feccc11bd946ad", "type": "electric_bike"}, {"fusion_lat": 0.0, "bike_id": "3af7a5e93d5541c936c2e7f8ddcb6952", "fusion_lon": 0.0, "lon": -77.04160983333334, "lat": 38.89584466666667, "is_reserved": 0, "is_disabled": 0, "rental_uris": {"android": "https://dc.lft.to/lastmile_qr_scan", "ios": "https://dc.lft.to/lastmile_qr_scan"}, "name": "3af7a5e93d5541c936c2e7f8ddcb6952", "type": "electric_bike"}, {"fusion_lat": 0.0, "bike_id": "b932281aa89913f46092812758b961a3", "fusion_lon": 0.0, "lon": -77.04502716666667, "lat": 38.914348333333336, "is_reserved": 0, "is_disabled": 0, "rental_uris": {"android": "https://dc.lft.to/lastmile_qr_scan", "ios": "https://dc.lft.to/lastmile_qr_scan"}, "name": "b932281aa89913f46092812758b961a3", "type": "electric_scooter"}, {"fusion_lat": 0.0, "bike_id": "48f07ca2112c8522c5bd1ae6c8b56742", "fusion_lon": 0.0, "lon": -77.02100933333334, "lat": 38.921487666666664, "is_reserved": 0, "is_disabled": 0, "rental_uris": {"android": "https://dc.lft.to/lastmile_qr_scan", "ios": "https://dc.lft.to/lastmile_qr_scan"}, "name": "48f07ca2112c8522c5bd1ae6c8b56742", "type": "electric_scooter"}, {"fusion_lat": 0.0, "bike_id": "ad64fd68d6945da8e67856c30756dd47", "fusion_lon": 0.0, "lon": -77.0259655, "lat": 38.963935166666666, "is_reserved": 0, "is_disabled": 0, "rental_uris": {"android": "https://dc.lft.to/lastmile_qr_scan", "ios": "https://dc.lft.to/lastmile_qr_scan"}, "name": "ad64fd68d6945da8e67856c30756dd47", "type": "electric_scooter"}, {"fusion_lat": 0.0, "bike_id": "87acaa8f0d53e9da7867cf015f047f9f", "fusion_lon": 0.0, "lon": -76.9870925, "lat": 38.867038666666666, "is_reserved": 0, "is_disabled": 0, "rental_uris": {"android": "https://dc.lft.to/lastmile_qr_scan", "ios": "https://dc.lft.to/lastmile_qr_scan"}, "name": "87acaa8f0d53e9da7867cf015f047f9f", "type": "electric_scooter"}, {"fusion_lat": 0.0, "bike_id": "a1d31ed7ad4bf2bffd248b2316035b89", "fusion_lon": 0.0, "lon": -77.03279266666667, "lat": 38.920014333333334, "is_reserved": 0, "is_disabled": 0, "rental_uris": {"android": "https://dc.lft.to/lastmile_qr_scan", "ios": "https://dc.lft.to/lastmile_qr_scan"}, "name": "a1d31ed7ad4bf2bffd248b2316035b89", "type": "electric_scooter"}, {"fusion_lat": 0.0, "bike_id": "93416c210f8293c165959ec70c2bfc43", "fusion_lon": 0.0, "lon": -77.04323766666667, "lat": 38.902306333333335, "is_reserved": 0, "is_disabled": 0, "rental_uris": {"android": "https://dc.lft.to/lastmile_qr_scan", "ios": "https://dc.lft.to/lastmile_qr_scan"}, "name": "93416c210f8293c165959ec70c2bfc43", "type": "electric_scooter"}, {"fusion_lat": 0.0, "bike_id": "3f238fb67fdfd24f898ea8eacc8e956a", "fusion_lon": 0.0, "lon": -76.93729666666667, "lat": 38.89023383333333, "is_reserved": 0, "is_disabled": 0, "rental_uris": {"android": "https://dc.lft.to/lastmile_qr_scan", "ios": "https://dc.lft.to/lastmile_qr_scan"}, "name": "3f238fb67fdfd24f898ea8eacc8e956a", "type": "electric_scooter"}, {"fusion_lat": 0.0, "bike_id": "89743e4281d80df288354d7796c103a8", "fusion_lon": 0.0, "lon": -77.017617, "lat": 38.8767395, "is_reserved": 0, "is_disabled": 0, "rental_uris": {"android": "https://dc.lft.to/lastmile_qr_scan", "ios": "https://dc.lft.to/lastmile_qr_scan"}, "name": "89743e4281d80df288354d7796c103a8", "type": "electric_scooter"}, {"fusion_lat": 0.0, "bike_id": "bccb91bd7d6d62fb2446767113d5d1a7", "fusion_lon": 0.0, "lon": -77.0006805, "lat": 38.901483666666664, "is_reserved": 0, "is_disabled": 0, "rental_uris": {"android": "https://dc.lft.to/lastmile_qr_scan", "ios": "https://dc.lft.to/lastmile_qr_scan"}, "name": "bccb91bd7d6d62fb2446767113d5d1a7", "type": "electric_bike"}, {"fusion_lat": 0.0, "bike_id": "6facdafefa54ba04b3388da48a8e0aa4", "fusion_lon": 0.0, "lon": -76.99540033333334, "lat": 38.9267215, "is_reserved": 0, "is_disabled": 0, "rental_uris": {"android": "https://dc.lft.to/lastmile_qr_scan", "ios": "https://dc.lft.to/lastmile_qr_scan"}, "name": "6facdafefa54ba04b3388da48a8e0aa4", "type": "electric_scooter"}, {"fusion_lat": 0.0, "bike_id": "4d499f98f8313e3df065cf8770b16833", "fusion_lon": 0.0, "lon": -77.04692283333333, "lat": 38.892237, "is_reserved": 0, "is_disabled": 0, "rental_uris": {"android": "https://dc.lft.to/lastmile_qr_scan", "ios": "https://dc.lft.to/lastmile_qr_scan"}, "name": "4d499f98f8313e3df065cf8770b16833", "type": "electric_scooter"}, {"fusion_lat": 0.0, "bike_id": "77f8617ef6c3a05619426f330ad62380", "fusion_lon": 0.0, "lon": -77.0298465, "lat": 38.916377, "is_reserved": 0, "is_disabled": 0, "rental_uris": {"android": "https://dc.lft.to/lastmile_qr_scan", "ios": "https://dc.lft.to/lastmile_qr_scan"}, "name": "77f8617ef6c3a05619426f330ad62380", "type": "electric_scooter"}, {"fusion_lat": 0.0, "bike_id": "86c3af7d5c8a82784a531ce8f2dc823e", "fusion_lon": 0.0, "lon": -77.0271995, "lat": 38.920421, "is_reserved": 0, "is_disabled": 0, "rental_uris": {"android": "https://dc.lft.to/lastmile_qr_scan", "ios": "https://dc.lft.to/lastmile_qr_scan"}, "name": "86c3af7d5c8a82784a531ce8f2dc823e", "type": "electric_scooter"}, {"fusion_lat": 0.0, "bike_id": "3a398301bb22cbd7bb749dde0ef7c5fc", "fusion_lon": 0.0, "lon": -77.02592366666667, "lat": 38.903586833333335, "is_reserved": 0, "is_disabled": 0, "rental_uris": {"android": "https://dc.lft.to/lastmile_qr_scan", "ios": "https://dc.lft.to/lastmile_qr_scan"}, "name": "3a398301bb22cbd7bb749dde0ef7c5fc", "type": "electric_scooter"}, {"fusion_lat": 0.0, "bike_id": "97c63220c77240179d1b755694963173", "fusion_lon": 0.0, "lon": -77.03213683333334, "lat": 38.892463, "is_reserved": 0, "is_disabled": 0, "rental_uris": {"android": "https://dc.lft.to/lastmile_qr_scan", "ios": "https://dc.lft.to/lastmile_qr_scan"}, "name": "97c63220c77240179d1b755694963173", "type": "electric_scooter"}, {"fusion_lat": 0.0, "bike_id": "60046a98ba731d3b2ac379c1bd4a427c", "fusion_lon": 0.0, "lon": -77.04185, "lat": 38.90534666666667, "is_reserved": 0, "is_disabled": 0, "rental_uris": {"android": "https://dc.lft.to/lastmile_qr_scan", "ios": "https://dc.lft.to/lastmile_qr_scan"}, "name": "60046a98ba731d3b2ac379c1bd4a427c", "type": "electric_scooter"}, {"fusion_lat": 0.0, "bike_id": "fc156e0833137f384d4d20338e8fb51e", "fusion_lon": 0.0, "lon": -76.96911983333334, "lat": 38.846137, "is_reserved": 0, "is_disabled": 0, "rental_uris": {"android": "https://dc.lft.to/lastmile_qr_scan", "ios": "https://dc.lft.to/lastmile_qr_scan"}, "name": "fc156e0833137f384d4d20338e8fb51e", "type": "electric_bike"}, {"fusion_lat": 0.0, "bike_id": "8e0ba0a854852d095da7423cad6d6952", "fusion_lon": 0.0, "lon": -76.99030933333333, "lat": 38.86404016666667, "is_reserved": 0, "is_disabled": 0, "rental_uris": {"android": "https://dc.lft.to/lastmile_qr_scan", "ios": "https://dc.lft.to/lastmile_qr_scan"}, "name": "8e0ba0a854852d095da7423cad6d6952", "type": "electric_scooter"}, {"fusion_lat": 0.0, "bike_id": "b232287c44976575e0c437f114bfae84", "fusion_lon": 0.0, "lon": -77.0312205, "lat": 38.912656, "is_reserved": 0, "is_disabled": 0, "rental_uris": {"android": "https://dc.lft.to/lastmile_qr_scan", "ios": "https://dc.lft.to/lastmile_qr_scan"}, "name": "b232287c44976575e0c437f114bfae84", "type": "electric_scooter"}, {"fusion_lat": 0.0, "bike_id": "68a8685e3b1f69802468d7634492c631", "fusion_lon": 0.0, "lon": -77.11590816666667, "lat": 39.07496366666667, "is_reserved": 0, "is_disabled": 0, "rental_uris": {"android": "https://dc.lft.to/lastmile_qr_scan", "ios": "https://dc.lft.to/lastmile_qr_scan"}, "name": "68a8685e3b1f69802468d7634492c631", "type": "electric_bike"}, {"fusion_lat": 0.0, "bike_id": "2fe17408d0a443d39f99a0af1c7812e4", "fusion_lon": 0.0, "lon": -77.06113416666666, "lat": 38.905328833333336, "is_reserved": 0, "is_disabled": 0, "rental_uris": {"android": "https://dc.lft.to/lastmile_qr_scan", "ios": "https://dc.lft.to/lastmile_qr_scan"}, "name": "2fe17408d0a443d39f99a0af1c7812e4", "type": "electric_scooter"}, {"fusion_lat": 0.0, "bike_id": "12543d0d14c8850ce6c56ea66d9dcd7c", "fusion_lon": 0.0, "lon": -77.01685716666667, "lat": 38.87714166666667, "is_reserved": 0, "is_disabled": 0, "rental_uris": {"android": "https://dc.lft.to/lastmile_qr_scan", "ios": "https://dc.lft.to/lastmile_qr_scan"}, "name": "12543d0d14c8850ce6c56ea66d9dcd7c", "type": "electric_scooter"}, {"fusion_lat": 0.0, "bike_id": "0f728b222ec989b4e3eb0829e235c496", "fusion_lon": 0.0, "lon": -76.94628566666667, "lat": 38.832407833333335, "is_reserved": 0, "is_disabled": 0, "rental_uris": {"android": "https://dc.lft.to/lastmile_qr_scan", "ios": "https://dc.lft.to/lastmile_qr_scan"}, "name": "0f728b222ec989b4e3eb0829e235c496", "type": "electric_bike"}, {"fusion_lat": 0.0, "bike_id": "b1c1007fa86cea8b1fa81c62d52ea1cc", "fusion_lon": 0.0, "lon": -77.03197333333334, "lat": 38.915859, "is_reserved": 0, "is_disabled": 0, "rental_uris": {"android": "https://dc.lft.to/lastmile_qr_scan", "ios": "https://dc.lft.to/lastmile_qr_scan"}, "name": "b1c1007fa86cea8b1fa81c62d52ea1cc", "type": "electric_scooter"}, {"fusion_lat": 0.0, "bike_id": "46f358deb8ff89de0c2421f477ad5d0f", "fusion_lon": 0.0, "lon": -77.003759, "lat": 38.907470333333336, "is_reserved": 0, "is_disabled": 0, "rental_uris": {"android": "https://dc.lft.to/lastmile_qr_scan", "ios": "https://dc.lft.to/lastmile_qr_scan"}, "name": "46f358deb8ff89de0c2421f477ad5d0f", "type": "electric_scooter"}, {"fusion_lat": 0.0, "bike_id": "a565fee2f2c70112b68df50c0829462b", "fusion_lon": 0.0, "lon": -77.02940366666667, "lat": 38.896535666666665, "is_reserved": 0, "is_disabled": 0, "rental_uris": {"android": "https://dc.lft.to/lastmile_qr_scan", "ios": "https://dc.lft.to/lastmile_qr_scan"}, "name": "a565fee2f2c70112b68df50c0829462b", "type": "electric_scooter"}, {"fusion_lat": 0.0, "bike_id": "7713ffba95095f118be9f9fca217af50", "fusion_lon": 0.0, "lon": -77.03630583333333, "lat": 38.9155445, "is_reserved": 0, "is_disabled": 0, "rental_uris": {"android": "https://dc.lft.to/lastmile_qr_scan", "ios": "https://dc.lft.to/lastmile_qr_scan"}, "name": "7713ffba95095f118be9f9fca217af50", "type": "electric_scooter"}, {"fusion_lat": 0.0, "bike_id": "26f12f277d7c8808e545cb2abc5315ff", "fusion_lon": 0.0, "lon": -77.0344315, "lat": 38.90737433333334, "is_reserved": 0, "is_disabled": 0, "rental_uris": {"android": "https://dc.lft.to/lastmile_qr_scan", "ios": "https://dc.lft.to/lastmile_qr_scan"}, "name": "26f12f277d7c8808e545cb2abc5315ff", "type": "electric_scooter"}, {"fusion_lat": 0.0, "bike_id": "ecef9a8187a88f20b739471f1b0e5495", "fusion_lon": 0.0, "lon": -76.93274266666667, "lat": 38.9542805, "is_reserved": 0, "is_disabled": 0, "rental_uris": {"android": "https://dc.lft.to/lastmile_qr_scan", "ios": "https://dc.lft.to/lastmile_qr_scan"}, "name": "ecef9a8187a88f20b739471f1b0e5495", "type": "electric_bike"}, {"fusion_lat": 0.0, "bike_id": "863a2de091397e762a98e9c72dc9d7e0", "fusion_lon": 0.0, "lon": -77.0350335, "lat": 38.911839666666665, "is_reserved": 0, "is_disabled": 0, "rental_uris": {"android": "https://dc.lft.to/lastmile_qr_scan", "ios": "https://dc.lft.to/lastmile_qr_scan"}, "name": "863a2de091397e762a98e9c72dc9d7e0", "type": "electric_scooter"}, {"fusion_lat": 0.0, "bike_id": "66bdc633cecd918ab1526ad347bf7cd9", "fusion_lon": 0.0, "lon": -77.06190916666667, "lat": 38.9443635, "is_reserved": 0, "is_disabled": 0, "rental_uris": {"android": "https://dc.lft.to/lastmile_qr_scan", "ios": "https://dc.lft.to/lastmile_qr_scan"}, "name": "66bdc633cecd918ab1526ad347bf7cd9", "type": "electric_scooter"}, {"fusion_lat": 0.0, "bike_id": "9ce9554eefed7de23012dbceee6b6732", "fusion_lon": 0.0, "lon": -77.02831733333333, "lat": 38.922411333333336, "is_reserved": 0, "is_disabled": 0, "rental_uris": {"android": "https://dc.lft.to/lastmile_qr_scan", "ios": "https://dc.lft.to/lastmile_qr_scan"}, "name": "9ce9554eefed7de23012dbceee6b6732", "type": "electric_scooter"}, {"fusion_lat": 0.0, "bike_id": "36e8fa158ed1e5e0ce1ddfdacefd9031", "fusion_lon": 0.0, "lon": -77.02003166666667, "lat": 38.91160333333333, "is_reserved": 0, "is_disabled": 0, "rental_uris": {"android": "https://dc.lft.to/lastmile_qr_scan", "ios": "https://dc.lft.to/lastmile_qr_scan"}, "name": "36e8fa158ed1e5e0ce1ddfdacefd9031", "type": "electric_scooter"}, {"fusion_lat": 0.0, "bike_id": "9aea897ba321f51edfb534d49c53e9db", "fusion_lon": 0.0, "lon": -77.03180983333333, "lat": 38.89230766666667, "is_reserved": 0, "is_disabled": 0, "rental_uris": {"android": "https://dc.lft.to/lastmile_qr_scan", "ios": "https://dc.lft.to/lastmile_qr_scan"}, "name": "9aea897ba321f51edfb534d49c53e9db", "type": "electric_scooter"}, {"fusion_lat": 0.0, "bike_id": "d770b2523074c9b83929c11d379e5cdf", "fusion_lon": 0.0, "lon": -77.00131333333333, "lat": 38.878224, "is_reserved": 0, "is_disabled": 0, "rental_uris": {"android": "https://dc.lft.to/lastmile_qr_scan", "ios": "https://dc.lft.to/lastmile_qr_scan"}, "name": "d770b2523074c9b83929c11d379e5cdf", "type": "electric_scooter"}, {"fusion_lat": 0.0, "bike_id": "396229e265a42f1a470e935648cf8efc", "fusion_lon": 0.0, "lon": -77.04805083333333, "lat": 38.905015166666665, "is_reserved": 0, "is_disabled": 0, "rental_uris": {"android": "https://dc.lft.to/lastmile_qr_scan", "ios": "https://dc.lft.to/lastmile_qr_scan"}, "name": "396229e265a42f1a470e935648cf8efc", "type": "electric_scooter"}, {"fusion_lat": 0.0, "bike_id": "4eaa56372088235be4449955a22186b9", "fusion_lon": 0.0, "lon": -77.04481083333333, "lat": 38.89227283333334, "is_reserved": 0, "is_disabled": 0, "rental_uris": {"android": "https://dc.lft.to/lastmile_qr_scan", "ios": "https://dc.lft.to/lastmile_qr_scan"}, "name": "4eaa56372088235be4449955a22186b9", "type": "electric_scooter"}, {"fusion_lat": 0.0, "bike_id": "6ef03a0f1c4f65524f5c33f4b68d7df4", "fusion_lon": 0.0, "lon": -77.01221183333334, "lat": 38.914400666666666, "is_reserved": 0, "is_disabled": 0, "rental_uris": {"android": "https://dc.lft.to/lastmile_qr_scan", "ios": "https://dc.lft.to/lastmile_qr_scan"}, "name": "6ef03a0f1c4f65524f5c33f4b68d7df4", "type": "electric_scooter"}, {"fusion_lat": 0.0, "bike_id": "69f59959596c9949a6104a28b25f674f", "fusion_lon": 0.0, "lon": -77.03329866666667, "lat": 38.94718683333333, "is_reserved": 0, "is_disabled": 0, "rental_uris": {"android": "https://dc.lft.to/lastmile_qr_scan", "ios": "https://dc.lft.to/lastmile_qr_scan"}, "name": "69f59959596c9949a6104a28b25f674f", "type": "electric_scooter"}, {"fusion_lat": 0.0, "bike_id": "a9423eaef43b8e54cb7e9aa8fb04f18c", "fusion_lon": 0.0, "lon": -77.03442683333333, "lat": 38.90952583333333, "is_reserved": 0, "is_disabled": 0, "rental_uris": {"android": "https://dc.lft.to/lastmile_qr_scan", "ios": "https://dc.lft.to/lastmile_qr_scan"}, "name": "a9423eaef43b8e54cb7e9aa8fb04f18c", "type": "electric_scooter"}, {"fusion_lat": 0.0, "bike_id": "c24c5a3b06a6ebbf356b2ef16ed6b424", "fusion_lon": 0.0, "lon": -77.04289316666667, "lat": 38.911251, "is_reserved": 0, "is_disabled": 0, "rental_uris": {"android": "https://dc.lft.to/lastmile_qr_scan", "ios": "https://dc.lft.to/lastmile_qr_scan"}, "name": "c24c5a3b06a6ebbf356b2ef16ed6b424", "type": "electric_scooter"}, {"fusion_lat": 0.0, "bike_id": "82ee090713a491cf544d9fceae4fb7a7", "fusion_lon": 0.0, "lon": -77.00654183333333, "lat": 38.900974, "is_reserved": 0, "is_disabled": 0, "rental_uris": {"android": "https://dc.lft.to/lastmile_qr_scan", "ios": "https://dc.lft.to/lastmile_qr_scan"}, "name": "82ee090713a491cf544d9fceae4fb7a7", "type": "electric_scooter"}, {"fusion_lat": 0.0, "bike_id": "425eca1a86380b42805881134f955020", "fusion_lon": 0.0, "lon": -76.9958075, "lat": 38.851796666666665, "is_reserved": 0, "is_disabled": 0, "rental_uris": {"android": "https://dc.lft.to/lastmile_qr_scan", "ios": "https://dc.lft.to/lastmile_qr_scan"}, "name": "425eca1a86380b42805881134f955020", "type": "electric_scooter"}, {"fusion_lat": 0.0, "bike_id": "8fbb3f9b1b0fc2bf40bebe1530392886", "fusion_lon": 0.0, "lon": -77.0392225, "lat": 38.902781833333336, "is_reserved": 0, "is_disabled": 0, "rental_uris": {"android": "https://dc.lft.to/lastmile_qr_scan", "ios": "https://dc.lft.to/lastmile_qr_scan"}, "name": "8fbb3f9b1b0fc2bf40bebe1530392886", "type": "electric_scooter"}, {"fusion_lat": 0.0, "bike_id": "1196ad10fdbac5214d3f267b35daff47", "fusion_lon": 0.0, "lon": -76.9986815, "lat": 38.90022966666667, "is_reserved": 0, "is_disabled": 0, "rental_uris": {"android": "https://dc.lft.to/lastmile_qr_scan", "ios": "https://dc.lft.to/lastmile_qr_scan"}, "name": "1196ad10fdbac5214d3f267b35daff47", "type": "electric_scooter"}, {"fusion_lat": 0.0, "bike_id": "d25049cce423afaa016f0a8e3b4f4047", "fusion_lon": 0.0, "lon": -77.026529, "lat": 38.93870066666667, "is_reserved": 0, "is_disabled": 0, "rental_uris": {"android": "https://dc.lft.to/lastmile_qr_scan", "ios": "https://dc.lft.to/lastmile_qr_scan"}, "name": "d25049cce423afaa016f0a8e3b4f4047", "type": "electric_scooter"}, {"fusion_lat": 0.0, "bike_id": "9415550ef72529bc7c6c7fb4280dfc24", "fusion_lon": 0.0, "lon": -76.97836266666667, "lat": 38.899179333333336, "is_reserved": 0, "is_disabled": 0, "rental_uris": {"android": "https://dc.lft.to/lastmile_qr_scan", "ios": "https://dc.lft.to/lastmile_qr_scan"}, "name": "9415550ef72529bc7c6c7fb4280dfc24", "type": "electric_scooter"}, {"fusion_lat": 0.0, "bike_id": "aab90307f951c18074a2a6ed1f09be08", "fusion_lon": 0.0, "lon": -77.03855966666667, "lat": 38.910189833333334, "is_reserved": 0, "is_disabled": 0, "rental_uris": {"android": "https://dc.lft.to/lastmile_qr_scan", "ios": "https://dc.lft.to/lastmile_qr_scan"}, "name": "aab90307f951c18074a2a6ed1f09be08", "type": "electric_scooter"}, {"fusion_lat": 0.0, "bike_id": "f987cb80e03429e0f7e56aeb58eaeebe", "fusion_lon": 0.0, "lon": -76.98506766666667, "lat": 38.86670616666667, "is_reserved": 0, "is_disabled": 0, "rental_uris": {"android": "https://dc.lft.to/lastmile_qr_scan", "ios": "https://dc.lft.to/lastmile_qr_scan"}, "name": "f987cb80e03429e0f7e56aeb58eaeebe", "type": "electric_scooter"}, {"fusion_lat": 0.0, "bike_id": "75dfa9e19a9f1400574b303ffd008a02", "fusion_lon": 0.0, "lon": -76.9856705, "lat": 38.90916166666667, "is_reserved": 0, "is_disabled": 0, "rental_uris": {"android": "https://dc.lft.to/lastmile_qr_scan", "ios": "https://dc.lft.to/lastmile_qr_scan"}, "name": "75dfa9e19a9f1400574b303ffd008a02", "type": "electric_scooter"}, {"fusion_lat": 0.0, "bike_id": "581a6bbbab370060af2e48ace5b8b710", "fusion_lon": 0.0, "lon": -77.02894833333333, "lat": 38.9171645, "is_reserved": 0, "is_disabled": 0, "rental_uris": {"android": "https://dc.lft.to/lastmile_qr_scan", "ios": "https://dc.lft.to/lastmile_qr_scan"}, "name": "581a6bbbab370060af2e48ace5b8b710", "type": "electric_scooter"}, {"fusion_lat": 0.0, "bike_id": "55bdf921472dcba1cb5892ae1d7bc3a4", "fusion_lon": 0.0, "lon": -77.04232883333333, "lat": 38.922044666666665, "is_reserved": 0, "is_disabled": 0, "rental_uris": {"android": "https://dc.lft.to/lastmile_qr_scan", "ios": "https://dc.lft.to/lastmile_qr_scan"}, "name": "55bdf921472dcba1cb5892ae1d7bc3a4", "type": "electric_scooter"}, {"fusion_lat": 0.0, "bike_id": "97d27aa50a4b26c2bf986c8920672b9c", "fusion_lon": 0.0, "lon": -77.03282116666666, "lat": 38.932581166666665, "is_reserved": 0, "is_disabled": 0, "rental_uris": {"android": "https://dc.lft.to/lastmile_qr_scan", "ios": "https://dc.lft.to/lastmile_qr_scan"}, "name": "97d27aa50a4b26c2bf986c8920672b9c", "type": "electric_scooter"}, {"fusion_lat": 0.0, "bike_id": "b2fd17de4291986e482afd758e48bec3", "fusion_lon": 0.0, "lon": -76.97332316666666, "lat": 38.8651985, "is_reserved": 0, "is_disabled": 0, "rental_uris": {"android": "https://dc.lft.to/lastmile_qr_scan", "ios": "https://dc.lft.to/lastmile_qr_scan"}, "name": "b2fd17de4291986e482afd758e48bec3", "type": "electric_bike"}, {"fusion_lat": 0.0, "bike_id": "266cfab3eaea1d68f08d3ec7f14cdfd4", "fusion_lon": 0.0, "lon": -77.03073416666666, "lat": 38.91708716666667, "is_reserved": 0, "is_disabled": 0, "rental_uris": {"android": "https://dc.lft.to/lastmile_qr_scan", "ios": "https://dc.lft.to/lastmile_qr_scan"}, "name": "266cfab3eaea1d68f08d3ec7f14cdfd4", "type": "electric_scooter"}, {"fusion_lat": 0.0, "bike_id": "6e13fbc3973b0feba7065a208286a4b7", "fusion_lon": 0.0, "lon": -76.99604016666666, "lat": 38.884300833333334, "is_reserved": 0, "is_disabled": 0, "rental_uris": {"android": "https://dc.lft.to/lastmile_qr_scan", "ios": "https://dc.lft.to/lastmile_qr_scan"}, "name": "6e13fbc3973b0feba7065a208286a4b7", "type": "electric_scooter"}, {"fusion_lat": 0.0, "bike_id": "5d9647b0ace9e3501886777dda3a69a4", "fusion_lon": 0.0, "lon": -77.0121655, "lat": 38.9001825, "is_reserved": 0, "is_disabled": 0, "rental_uris": {"android": "https://dc.lft.to/lastmile_qr_scan", "ios": "https://dc.lft.to/lastmile_qr_scan"}, "name": "5d9647b0ace9e3501886777dda3a69a4", "type": "electric_scooter"}, {"fusion_lat": 0.0, "bike_id": "035fc8c47fa16951e33b6020f38b8d12", "fusion_lon": 0.0, "lon": -77.02796533333333, "lat": 38.901684, "is_reserved": 0, "is_disabled": 0, "rental_uris": {"android": "https://dc.lft.to/lastmile_qr_scan", "ios": "https://dc.lft.to/lastmile_qr_scan"}, "name": "035fc8c47fa16951e33b6020f38b8d12", "type": "electric_scooter"}, {"fusion_lat": 0.0, "bike_id": "224bd403e6d9aae05ab053a1c4a4dcaf", "fusion_lon": 0.0, "lon": -77.03346183333333, "lat": 38.899019833333334, "is_reserved": 0, "is_disabled": 0, "rental_uris": {"android": "https://dc.lft.to/lastmile_qr_scan", "ios": "https://dc.lft.to/lastmile_qr_scan"}, "name": "224bd403e6d9aae05ab053a1c4a4dcaf", "type": "electric_scooter"}, {"fusion_lat": 0.0, "bike_id": "aa863c05793e4d297cd135909cff7613", "fusion_lon": 0.0, "lon": -76.98093816666666, "lat": 38.906826, "is_reserved": 0, "is_disabled": 0, "rental_uris": {"android": "https://dc.lft.to/lastmile_qr_scan", "ios": "https://dc.lft.to/lastmile_qr_scan"}, "name": "aa863c05793e4d297cd135909cff7613", "type": "electric_scooter"}, {"fusion_lat": 0.0, "bike_id": "fee7413923ae96147afd9605df578e5f", "fusion_lon": 0.0, "lon": -77.04502466666666, "lat": 38.911138333333334, "is_reserved": 0, "is_disabled": 0, "rental_uris": {"android": "https://dc.lft.to/lastmile_qr_scan", "ios": "https://dc.lft.to/lastmile_qr_scan"}, "name": "fee7413923ae96147afd9605df578e5f", "type": "electric_scooter"}, {"fusion_lat": 0.0, "bike_id": "c6a4f117983ae98d5d3322c6ad46abfa", "fusion_lon": 0.0, "lon": -77.047225, "lat": 38.89734966666666, "is_reserved": 0, "is_disabled": 0, "rental_uris": {"android": "https://dc.lft.to/lastmile_qr_scan", "ios": "https://dc.lft.to/lastmile_qr_scan"}, "name": "c6a4f117983ae98d5d3322c6ad46abfa", "type": "electric_scooter"}, {"fusion_lat": 0.0, "bike_id": "98664eb935418dd06708c14d6a0b8cfb", "fusion_lon": 0.0, "lon": -76.97739583333333, "lat": 38.86483416666667, "is_reserved": 0, "is_disabled": 0, "rental_uris": {"android": "https://dc.lft.to/lastmile_qr_scan", "ios": "https://dc.lft.to/lastmile_qr_scan"}, "name": "98664eb935418dd06708c14d6a0b8cfb", "type": "electric_scooter"}, {"fusion_lat": 0.0, "bike_id": "518bf4c3d0ce079a762d89353d0672ac", "fusion_lon": 0.0, "lon": -77.0020835, "lat": 38.9003565, "is_reserved": 0, "is_disabled": 0, "rental_uris": {"android": "https://dc.lft.to/lastmile_qr_scan", "ios": "https://dc.lft.to/lastmile_qr_scan"}, "name": "518bf4c3d0ce079a762d89353d0672ac", "type": "electric_scooter"}, {"fusion_lat": 0.0, "bike_id": "8b54cb1ddc587e965e632e48d2bf4f2b", "fusion_lon": 0.0, "lon": -77.027229, "lat": 38.9248435, "is_reserved": 0, "is_disabled": 0, "rental_uris": {"android": "https://dc.lft.to/lastmile_qr_scan", "ios": "https://dc.lft.to/lastmile_qr_scan"}, "name": "8b54cb1ddc587e965e632e48d2bf4f2b", "type": "electric_scooter"}, {"fusion_lat": 0.0, "bike_id": "2f61896e1c360705d30aa7efd23e696f", "fusion_lon": 0.0, "lon": -77.02511566666666, "lat": 38.92053833333333, "is_reserved": 0, "is_disabled": 0, "rental_uris": {"android": "https://dc.lft.to/lastmile_qr_scan", "ios": "https://dc.lft.to/lastmile_qr_scan"}, "name": "2f61896e1c360705d30aa7efd23e696f", "type": "electric_scooter"}, {"fusion_lat": 0.0, "bike_id": "15c759d23d12e5fe241c5121d894920e", "fusion_lon": 0.0, "lon": -77.0760675, "lat": 38.9206235, "is_reserved": 0, "is_disabled": 0, "rental_uris": {"android": "https://dc.lft.to/lastmile_qr_scan", "ios": "https://dc.lft.to/lastmile_qr_scan"}, "name": "15c759d23d12e5fe241c5121d894920e", "type": "electric_scooter"}, {"fusion_lat": 0.0, "bike_id": "cc7de0265b17f57c006030772265dac6", "fusion_lon": 0.0, "lon": -77.02182716666667, "lat": 38.909874, "is_reserved": 0, "is_disabled": 0, "rental_uris": {"android": "https://dc.lft.to/lastmile_qr_scan", "ios": "https://dc.lft.to/lastmile_qr_scan"}, "name": "cc7de0265b17f57c006030772265dac6", "type": "electric_scooter"}, {"fusion_lat": 0.0, "bike_id": "29652d5a30982569998e2298fc04d030", "fusion_lon": 0.0, "lon": -77.04182633333333, "lat": 38.89250333333333, "is_reserved": 0, "is_disabled": 0, "rental_uris": {"android": "https://dc.lft.to/lastmile_qr_scan", "ios": "https://dc.lft.to/lastmile_qr_scan"}, "name": "29652d5a30982569998e2298fc04d030", "type": "electric_scooter"}, {"fusion_lat": 0.0, "bike_id": "f9967315d4fd81d5b3bf350c3383b4e8", "fusion_lon": 0.0, "lon": -77.01772966666667, "lat": 38.8861895, "is_reserved": 0, "is_disabled": 0, "rental_uris": {"android": "https://dc.lft.to/lastmile_qr_scan", "ios": "https://dc.lft.to/lastmile_qr_scan"}, "name": "f9967315d4fd81d5b3bf350c3383b4e8", "type": "electric_scooter"}, {"fusion_lat": 0.0, "bike_id": "ad581102443d5b43494f9a73323d3a01", "fusion_lon": 0.0, "lon": -77.1197505, "lat": 38.848956666666666, "is_reserved": 0, "is_disabled": 0, "rental_uris": {"android": "https://dc.lft.to/lastmile_qr_scan", "ios": "https://dc.lft.to/lastmile_qr_scan"}, "name": "ad581102443d5b43494f9a73323d3a01", "type": "electric_bike"}, {"fusion_lat": 0.0, "bike_id": "1f0f754827473ba5fa2e382735f4cbb0", "fusion_lon": 0.0, "lon": -77.02842683333333, "lat": 38.887493666666664, "is_reserved": 0, "is_disabled": 0, "rental_uris": {"android": "https://dc.lft.to/lastmile_qr_scan", "ios": "https://dc.lft.to/lastmile_qr_scan"}, "name": "1f0f754827473ba5fa2e382735f4cbb0", "type": "electric_scooter"}, {"fusion_lat": 0.0, "bike_id": "375836a16aa270afa33bcf8192ca2696", "fusion_lon": 0.0, "lon": -76.9995935, "lat": 38.904071, "is_reserved": 0, "is_disabled": 0, "rental_uris": {"android": "https://dc.lft.to/lastmile_qr_scan", "ios": "https://dc.lft.to/lastmile_qr_scan"}, "name": "375836a16aa270afa33bcf8192ca2696", "type": "electric_scooter"}, {"fusion_lat": 0.0, "bike_id": "dfa264fbcfe93780a9583562af7340a4", "fusion_lon": 0.0, "lon": -77.02201516666666, "lat": 38.8950445, "is_reserved": 0, "is_disabled": 0, "rental_uris": {"android": "https://dc.lft.to/lastmile_qr_scan", "ios": "https://dc.lft.to/lastmile_qr_scan"}, "name": "dfa264fbcfe93780a9583562af7340a4", "type": "electric_scooter"}, {"fusion_lat": 0.0, "bike_id": "256d1a0d83f2285fc070c4354c6bc2b7", "fusion_lon": 0.0, "lon": -77.06156883333334, "lat": 38.9130565, "is_reserved": 0, "is_disabled": 0, "rental_uris": {"android": "https://dc.lft.to/lastmile_qr_scan", "ios": "https://dc.lft.to/lastmile_qr_scan"}, "name": "256d1a0d83f2285fc070c4354c6bc2b7", "type": "electric_scooter"}, {"fusion_lat": 0.0, "bike_id": "8ed58197efb2b53f17a76e40655bcfe7", "fusion_lon": 0.0, "lon": -77.03851233333333, "lat": 38.91208566666667, "is_reserved": 0, "is_disabled": 0, "rental_uris": {"android": "https://dc.lft.to/lastmile_qr_scan", "ios": "https://dc.lft.to/lastmile_qr_scan"}, "name": "8ed58197efb2b53f17a76e40655bcfe7", "type": "electric_scooter"}, {"fusion_lat": 0.0, "bike_id": "9df5e0da502657420015923d192c8369", "fusion_lon": 0.0, "lon": -77.04880833333333, "lat": 38.8924045, "is_reserved": 0, "is_disabled": 0, "rental_uris": {"android": "https://dc.lft.to/lastmile_qr_scan", "ios": "https://dc.lft.to/lastmile_qr_scan"}, "name": "9df5e0da502657420015923d192c8369", "type": "electric_scooter"}, {"fusion_lat": 0.0, "bike_id": "c1efceef04a723aaf9b4756fc8d268f6", "fusion_lon": 0.0, "lon": -76.94887666666666, "lat": 38.89513183333333, "is_reserved": 0, "is_disabled": 0, "rental_uris": {"android": "https://dc.lft.to/lastmile_qr_scan", "ios": "https://dc.lft.to/lastmile_qr_scan"}, "name": "c1efceef04a723aaf9b4756fc8d268f6", "type": "electric_scooter"}, {"fusion_lat": 0.0, "bike_id": "c77c17347a3c754d958eac74e1e559ff", "fusion_lon": 0.0, "lon": -77.1114735, "lat": 38.855127333333336, "is_reserved": 0, "is_disabled": 0, "rental_uris": {"android": "https://dc.lft.to/lastmile_qr_scan", "ios": "https://dc.lft.to/lastmile_qr_scan"}, "name": "c77c17347a3c754d958eac74e1e559ff", "type": "electric_bike"}, {"fusion_lat": 0.0, "bike_id": "5df9f1888a07ec8bd2fa3a58d93d139d", "fusion_lon": 0.0, "lon": -77.03128866666667, "lat": 38.91558466666667, "is_reserved": 0, "is_disabled": 0, "rental_uris": {"android": "https://dc.lft.to/lastmile_qr_scan", "ios": "https://dc.lft.to/lastmile_qr_scan"}, "name": "5df9f1888a07ec8bd2fa3a58d93d139d", "type": "electric_scooter"}, {"fusion_lat": 0.0, "bike_id": "e4ff99f372405aab7daf2249611eb25e", "fusion_lon": 0.0, "lon": -77.03470366666667, "lat": 38.91702866666667, "is_reserved": 0, "is_disabled": 0, "rental_uris": {"android": "https://dc.lft.to/lastmile_qr_scan", "ios": "https://dc.lft.to/lastmile_qr_scan"}, "name": "e4ff99f372405aab7daf2249611eb25e", "type": "electric_scooter"}, {"fusion_lat": 0.0, "bike_id": "8dafaacbf64c0f8b290102b2fa8b5925", "fusion_lon": 0.0, "lon": -77.00115016666666, "lat": 38.912533833333335, "is_reserved": 0, "is_disabled": 0, "rental_uris": {"android": "https://dc.lft.to/lastmile_qr_scan", "ios": "https://dc.lft.to/lastmile_qr_scan"}, "name": "8dafaacbf64c0f8b290102b2fa8b5925", "type": "electric_scooter"}, {"fusion_lat": 0.0, "bike_id": "9fb3bc01332e70aedba3ca852d59b137", "fusion_lon": 0.0, "lon": -77.04236233333333, "lat": 38.921830166666666, "is_reserved": 0, "is_disabled": 0, "rental_uris": {"android": "https://dc.lft.to/lastmile_qr_scan", "ios": "https://dc.lft.to/lastmile_qr_scan"}, "name": "9fb3bc01332e70aedba3ca852d59b137", "type": "electric_scooter"}, {"fusion_lat": 0.0, "bike_id": "8956426d10326b3f5275956113437366", "fusion_lon": 0.0, "lon": -77.05893166666667, "lat": 38.936126, "is_reserved": 0, "is_disabled": 0, "rental_uris": {"android": "https://dc.lft.to/lastmile_qr_scan", "ios": "https://dc.lft.to/lastmile_qr_scan"}, "name": "8956426d10326b3f5275956113437366", "type": "electric_scooter"}, {"fusion_lat": 0.0, "bike_id": "514f802922dc5bf9e5ec5a60ad52d7e3", "fusion_lon": 0.0, "lon": -77.04361416666667, "lat": 39.015403, "is_reserved": 0, "is_disabled": 0, "rental_uris": {"android": "https://dc.lft.to/lastmile_qr_scan", "ios": "https://dc.lft.to/lastmile_qr_scan"}, "name": "514f802922dc5bf9e5ec5a60ad52d7e3", "type": "electric_bike"}, {"fusion_lat": 0.0, "bike_id": "4d8cc33d2c15a34a61b0c223f8988f4c", "fusion_lon": 0.0, "lon": -77.03194983333333, "lat": 38.91644466666666, "is_reserved": 0, "is_disabled": 0, "rental_uris": {"android": "https://dc.lft.to/lastmile_qr_scan", "ios": "https://dc.lft.to/lastmile_qr_scan"}, "name": "4d8cc33d2c15a34a61b0c223f8988f4c", "type": "electric_scooter"}, {"fusion_lat": 0.0, "bike_id": "df23fb66c60db5e06ce9ae510c6e6d60", "fusion_lon": 0.0, "lon": -77.05149266666666, "lat": 38.923723, "is_reserved": 0, "is_disabled": 0, "rental_uris": {"android": "https://dc.lft.to/lastmile_qr_scan", "ios": "https://dc.lft.to/lastmile_qr_scan"}, "name": "df23fb66c60db5e06ce9ae510c6e6d60", "type": "electric_scooter"}, {"fusion_lat": 0.0, "bike_id": "0b173c333763e05b118f48ab50a07288", "fusion_lon": 0.0, "lon": -77.0331735, "lat": 38.90013016666666, "is_reserved": 0, "is_disabled": 0, "rental_uris": {"android": "https://dc.lft.to/lastmile_qr_scan", "ios": "https://dc.lft.to/lastmile_qr_scan"}, "name": "0b173c333763e05b118f48ab50a07288", "type": "electric_scooter"}, {"fusion_lat": 0.0, "bike_id": "f3d2328aaf4a4a4dc12709e6caac946f", "fusion_lon": 0.0, "lon": -77.03194066666667, "lat": 38.92099966666667, "is_reserved": 0, "is_disabled": 0, "rental_uris": {"android": "https://dc.lft.to/lastmile_qr_scan", "ios": "https://dc.lft.to/lastmile_qr_scan"}, "name": "f3d2328aaf4a4a4dc12709e6caac946f", "type": "electric_scooter"}, {"fusion_lat": 0.0, "bike_id": "cd45851cd27cb56d4a61e286c1f038e4", "fusion_lon": 0.0, "lon": -77.0424835, "lat": 38.89979066666667, "is_reserved": 0, "is_disabled": 0, "rental_uris": {"android": "https://dc.lft.to/lastmile_qr_scan", "ios": "https://dc.lft.to/lastmile_qr_scan"}, "name": "cd45851cd27cb56d4a61e286c1f038e4", "type": "electric_scooter"}, {"fusion_lat": 0.0, "bike_id": "b92c80e5036b5c5e4c0fca17a5cde8b7", "fusion_lon": 0.0, "lon": -77.0249755, "lat": 38.93095433333333, "is_reserved": 0, "is_disabled": 0, "rental_uris": {"android": "https://dc.lft.to/lastmile_qr_scan", "ios": "https://dc.lft.to/lastmile_qr_scan"}, "name": "b92c80e5036b5c5e4c0fca17a5cde8b7", "type": "electric_scooter"}, {"fusion_lat": 0.0, "bike_id": "2831017f5e50e3423d2c73a8c98b17f0", "fusion_lon": 0.0, "lon": -77.033841, "lat": 38.902652833333335, "is_reserved": 0, "is_disabled": 0, "rental_uris": {"android": "https://dc.lft.to/lastmile_qr_scan", "ios": "https://dc.lft.to/lastmile_qr_scan"}, "name": "2831017f5e50e3423d2c73a8c98b17f0", "type": "electric_scooter"}, {"fusion_lat": 0.0, "bike_id": "93f3e319356f955fcbbef96f4ed90938", "fusion_lon": 0.0, "lon": -77.04910666666666, "lat": 38.88843033333333, "is_reserved": 0, "is_disabled": 0, "rental_uris": {"android": "https://dc.lft.to/lastmile_qr_scan", "ios": "https://dc.lft.to/lastmile_qr_scan"}, "name": "93f3e319356f955fcbbef96f4ed90938", "type": "electric_scooter"}, {"fusion_lat": 0.0, "bike_id": "89052e0b9453a90e38ade09468882fc9", "fusion_lon": 0.0, "lon": -77.002002, "lat": 38.90037016666667, "is_reserved": 0, "is_disabled": 0, "rental_uris": {"android": "https://dc.lft.to/lastmile_qr_scan", "ios": "https://dc.lft.to/lastmile_qr_scan"}, "name": "89052e0b9453a90e38ade09468882fc9", "type": "electric_scooter"}, {"fusion_lat": 0.0, "bike_id": "afcd542d5e203812ba439bd524325f00", "fusion_lon": 0.0, "lon": -77.031757, "lat": 38.8919995, "is_reserved": 0, "is_disabled": 0, "rental_uris": {"android": "https://dc.lft.to/lastmile_qr_scan", "ios": "https://dc.lft.to/lastmile_qr_scan"}, "name": "afcd542d5e203812ba439bd524325f00", "type": "electric_scooter"}, {"fusion_lat": 0.0, "bike_id": "0fa3837ce71338aabbdd235a485d7a0d", "fusion_lon": 0.0, "lon": -77.04658233333333, "lat": 38.904280166666666, "is_reserved": 0, "is_disabled": 0, "rental_uris": {"android": "https://dc.lft.to/lastmile_qr_scan", "ios": "https://dc.lft.to/lastmile_qr_scan"}, "name": "0fa3837ce71338aabbdd235a485d7a0d", "type": "electric_scooter"}, {"fusion_lat": 0.0, "bike_id": "5b4fcbd6c8448cdb7a66b26be6eb3810", "fusion_lon": 0.0, "lon": -77.04698266666666, "lat": 38.921394, "is_reserved": 0, "is_disabled": 0, "rental_uris": {"android": "https://dc.lft.to/lastmile_qr_scan", "ios": "https://dc.lft.to/lastmile_qr_scan"}, "name": "5b4fcbd6c8448cdb7a66b26be6eb3810", "type": "electric_scooter"}, {"fusion_lat": 0.0, "bike_id": "4c6429df58df8369b856b94530aef7d9", "fusion_lon": 0.0, "lon": -77.0249115, "lat": 38.885047, "is_reserved": 0, "is_disabled": 0, "rental_uris": {"android": "https://dc.lft.to/lastmile_qr_scan", "ios": "https://dc.lft.to/lastmile_qr_scan"}, "name": "4c6429df58df8369b856b94530aef7d9", "type": "electric_scooter"}, {"fusion_lat": 0.0, "bike_id": "b8ec30634136a1d7b38d09b2142c6e24", "fusion_lon": 0.0, "lon": -77.0419345, "lat": 38.8998555, "is_reserved": 0, "is_disabled": 0, "rental_uris": {"android": "https://dc.lft.to/lastmile_qr_scan", "ios": "https://dc.lft.to/lastmile_qr_scan"}, "name": "b8ec30634136a1d7b38d09b2142c6e24", "type": "electric_scooter"}, {"fusion_lat": 0.0, "bike_id": "e75615ab87de49051341b0ec13a46e63", "fusion_lon": 0.0, "lon": -77.031745, "lat": 38.919283666666665, "is_reserved": 0, "is_disabled": 0, "rental_uris": {"android": "https://dc.lft.to/lastmile_qr_scan", "ios": "https://dc.lft.to/lastmile_qr_scan"}, "name": "e75615ab87de49051341b0ec13a46e63", "type": "electric_scooter"}, {"fusion_lat": 0.0, "bike_id": "cc4670c646e3ab26eefacabbbd646f03", "fusion_lon": 0.0, "lon": -76.997959, "lat": 38.82903616666667, "is_reserved": 0, "is_disabled": 0, "rental_uris": {"android": "https://dc.lft.to/lastmile_qr_scan", "ios": "https://dc.lft.to/lastmile_qr_scan"}, "name": "cc4670c646e3ab26eefacabbbd646f03", "type": "electric_bike"}, {"fusion_lat": 0.0, "bike_id": "881b9791e6c3b802a8a70d6bf7b6daed", "fusion_lon": 0.0, "lon": -77.03608866666667, "lat": 38.9368655, "is_reserved": 0, "is_disabled": 0, "rental_uris": {"android": "https://dc.lft.to/lastmile_qr_scan", "ios": "https://dc.lft.to/lastmile_qr_scan"}, "name": "881b9791e6c3b802a8a70d6bf7b6daed", "type": "electric_scooter"}, {"fusion_lat": 0.0, "bike_id": "f838c175e08a724273819b1eb54e2025", "fusion_lon": 0.0, "lon": -77.11712366666667, "lat": 38.86747716666667, "is_reserved": 0, "is_disabled": 0, "rental_uris": {"android": "https://dc.lft.to/lastmile_qr_scan", "ios": "https://dc.lft.to/lastmile_qr_scan"}, "name": "f838c175e08a724273819b1eb54e2025", "type": "electric_bike"}, {"fusion_lat": 0.0, "bike_id": "484b2ae70c2f7f4d5efc48cd8eeb3d74", "fusion_lon": 0.0, "lon": -77.04494116666666, "lat": 38.91521916666667, "is_reserved": 0, "is_disabled": 0, "rental_uris": {"android": "https://dc.lft.to/lastmile_qr_scan", "ios": "https://dc.lft.to/lastmile_qr_scan"}, "name": "484b2ae70c2f7f4d5efc48cd8eeb3d74", "type": "electric_scooter"}, {"fusion_lat": 0.0, "bike_id": "423498be7a2f946a898b854e12fd680e", "fusion_lon": 0.0, "lon": -77.0342945, "lat": 38.9653665, "is_reserved": 0, "is_disabled": 0, "rental_uris": {"android": "https://dc.lft.to/lastmile_qr_scan", "ios": "https://dc.lft.to/lastmile_qr_scan"}, "name": "423498be7a2f946a898b854e12fd680e", "type": "electric_bike"}, {"fusion_lat": 0.0, "bike_id": "d245f4a6bf2d62f2f61fe8461839c9c5", "fusion_lon": 0.0, "lon": -77.023106, "lat": 38.8948435, "is_reserved": 0, "is_disabled": 0, "rental_uris": {"android": "https://dc.lft.to/lastmile_qr_scan", "ios": "https://dc.lft.to/lastmile_qr_scan"}, "name": "d245f4a6bf2d62f2f61fe8461839c9c5", "type": "electric_scooter"}, {"fusion_lat": 0.0, "bike_id": "8bc1f512743c4af543409f2a3f54d132", "fusion_lon": 0.0, "lon": -77.03185766666667, "lat": 38.9070775, "is_reserved": 0, "is_disabled": 0, "rental_uris": {"android": "https://dc.lft.to/lastmile_qr_scan", "ios": "https://dc.lft.to/lastmile_qr_scan"}, "name": "8bc1f512743c4af543409f2a3f54d132", "type": "electric_scooter"}, {"fusion_lat": 0.0, "bike_id": "07d89335ee87edf70c989b615e10d717", "fusion_lon": 0.0, "lon": -77.07623033333333, "lat": 38.965841, "is_reserved": 0, "is_disabled": 0, "rental_uris": {"android": "https://dc.lft.to/lastmile_qr_scan", "ios": "https://dc.lft.to/lastmile_qr_scan"}, "name": "07d89335ee87edf70c989b615e10d717", "type": "electric_bike"}, {"fusion_lat": 0.0, "bike_id": "d9fa22b161114f1f8c13fc9d736ceacd", "fusion_lon": 0.0, "lon": -77.02583516666667, "lat": 38.918182333333334, "is_reserved": 0, "is_disabled": 0, "rental_uris": {"android": "https://dc.lft.to/lastmile_qr_scan", "ios": "https://dc.lft.to/lastmile_qr_scan"}, "name": "d9fa22b161114f1f8c13fc9d736ceacd", "type": "electric_scooter"}, {"fusion_lat": 0.0, "bike_id": "35be940d44cd00b4c98f24cd6013a6a7", "fusion_lon": 0.0, "lon": -77.03087383333333, "lat": 38.9106905, "is_reserved": 0, "is_disabled": 0, "rental_uris": {"android": "https://dc.lft.to/lastmile_qr_scan", "ios": "https://dc.lft.to/lastmile_qr_scan"}, "name": "35be940d44cd00b4c98f24cd6013a6a7", "type": "electric_scooter"}, {"fusion_lat": 0.0, "bike_id": "9cac65616dd98c5c688b3bcdf1b7e80b", "fusion_lon": 0.0, "lon": -77.0266475, "lat": 38.896603, "is_reserved": 0, "is_disabled": 0, "rental_uris": {"android": "https://dc.lft.to/lastmile_qr_scan", "ios": "https://dc.lft.to/lastmile_qr_scan"}, "name": "9cac65616dd98c5c688b3bcdf1b7e80b", "type": "electric_scooter"}, {"fusion_lat": 0.0, "bike_id": "a317bb6ffbbfbc5171ad5b0f010237be", "fusion_lon": 0.0, "lon": -76.95747666666666, "lat": 38.88432816666667, "is_reserved": 0, "is_disabled": 0, "rental_uris": {"android": "https://dc.lft.to/lastmile_qr_scan", "ios": "https://dc.lft.to/lastmile_qr_scan"}, "name": "a317bb6ffbbfbc5171ad5b0f010237be", "type": "electric_scooter"}, {"fusion_lat": 0.0, "bike_id": "acb81a330a86ef18c06878df2d832186", "fusion_lon": 0.0, "lon": -77.0192335, "lat": 38.923676, "is_reserved": 0, "is_disabled": 0, "rental_uris": {"android": "https://dc.lft.to/lastmile_qr_scan", "ios": "https://dc.lft.to/lastmile_qr_scan"}, "name": "acb81a330a86ef18c06878df2d832186", "type": "electric_scooter"}, {"fusion_lat": 0.0, "bike_id": "0efc9cd453e86f4ab056f568e504c301", "fusion_lon": 0.0, "lon": -77.048266, "lat": 38.909681, "is_reserved": 0, "is_disabled": 0, "rental_uris": {"android": "https://dc.lft.to/lastmile_qr_scan", "ios": "https://dc.lft.to/lastmile_qr_scan"}, "name": "0efc9cd453e86f4ab056f568e504c301", "type": "electric_scooter"}, {"fusion_lat": 0.0, "bike_id": "37dc1e1f11e38a28d84be40c98c741cb", "fusion_lon": 0.0, "lon": -77.03206883333333, "lat": 38.90389583333334, "is_reserved": 0, "is_disabled": 0, "rental_uris": {"android": "https://dc.lft.to/lastmile_qr_scan", "ios": "https://dc.lft.to/lastmile_qr_scan"}, "name": "37dc1e1f11e38a28d84be40c98c741cb", "type": "electric_scooter"}, {"fusion_lat": 0.0, "bike_id": "deb1c9e49d1631519425e2b1527d1293", "fusion_lon": 0.0, "lon": -77.0434945, "lat": 38.92142833333333, "is_reserved": 0, "is_disabled": 0, "rental_uris": {"android": "https://dc.lft.to/lastmile_qr_scan", "ios": "https://dc.lft.to/lastmile_qr_scan"}, "name": "deb1c9e49d1631519425e2b1527d1293", "type": "electric_scooter"}, {"fusion_lat": 0.0, "bike_id": "e0ae0efafbbbcad62328ab30e3c1e934", "fusion_lon": 0.0, "lon": -76.99854033333334, "lat": 38.841597666666665, "is_reserved": 0, "is_disabled": 0, "rental_uris": {"android": "https://dc.lft.to/lastmile_qr_scan", "ios": "https://dc.lft.to/lastmile_qr_scan"}, "name": "e0ae0efafbbbcad62328ab30e3c1e934", "type": "electric_scooter"}, {"fusion_lat": 0.0, "bike_id": "d7b5ace913f1e1135817623d0d6ced0d", "fusion_lon": 0.0, "lon": -77.12497833333333, "lat": 38.8279395, "is_reserved": 0, "is_disabled": 0, "rental_uris": {"android": "https://dc.lft.to/lastmile_qr_scan", "ios": "https://dc.lft.to/lastmile_qr_scan"}, "name": "d7b5ace913f1e1135817623d0d6ced0d", "type": "electric_bike"}, {"fusion_lat": 0.0, "bike_id": "1fcfd8376630bd85dfdbe86ef3eb9434", "fusion_lon": 0.0, "lon": -77.03301566666667, "lat": 38.89819466666667, "is_reserved": 0, "is_disabled": 0, "rental_uris": {"android": "https://dc.lft.to/lastmile_qr_scan", "ios": "https://dc.lft.to/lastmile_qr_scan"}, "name": "1fcfd8376630bd85dfdbe86ef3eb9434", "type": "electric_scooter"}, {"fusion_lat": 0.0, "bike_id": "8ab8198c83d28593f683d02817ad6751", "fusion_lon": 0.0, "lon": -77.02715183333333, "lat": 38.93475083333333, "is_reserved": 0, "is_disabled": 0, "rental_uris": {"android": "https://dc.lft.to/lastmile_qr_scan", "ios": "https://dc.lft.to/lastmile_qr_scan"}, "name": "8ab8198c83d28593f683d02817ad6751", "type": "electric_scooter"}, {"fusion_lat": 0.0, "bike_id": "ba198617044c5b92aacd7dd9430d7041", "fusion_lon": 0.0, "lon": -77.04657, "lat": 38.900105333333336, "is_reserved": 0, "is_disabled": 0, "rental_uris": {"android": "https://dc.lft.to/lastmile_qr_scan", "ios": "https://dc.lft.to/lastmile_qr_scan"}, "name": "ba198617044c5b92aacd7dd9430d7041", "type": "electric_scooter"}, {"fusion_lat": 0.0, "bike_id": "d483472591496856fd8d031f45a235e4", "fusion_lon": 0.0, "lon": -76.98560283333333, "lat": 38.89958383333333, "is_reserved": 0, "is_disabled": 0, "rental_uris": {"android": "https://dc.lft.to/lastmile_qr_scan", "ios": "https://dc.lft.to/lastmile_qr_scan"}, "name": "d483472591496856fd8d031f45a235e4", "type": "electric_scooter"}, {"fusion_lat": 0.0, "bike_id": "5477d7ed425b5f1eeeea83921bfa3afa", "fusion_lon": 0.0, "lon": -77.0028345, "lat": 38.95714266666667, "is_reserved": 0, "is_disabled": 0, "rental_uris": {"android": "https://dc.lft.to/lastmile_qr_scan", "ios": "https://dc.lft.to/lastmile_qr_scan"}, "name": "5477d7ed425b5f1eeeea83921bfa3afa", "type": "electric_bike"}, {"fusion_lat": 0.0, "bike_id": "a5bdc6412368c782c4c5d82bed3c05bb", "fusion_lon": 0.0, "lon": -77.07594133333333, "lat": 38.912183666666664, "is_reserved": 0, "is_disabled": 0, "rental_uris": {"android": "https://dc.lft.to/lastmile_qr_scan", "ios": "https://dc.lft.to/lastmile_qr_scan"}, "name": "a5bdc6412368c782c4c5d82bed3c05bb", "type": "electric_scooter"}, {"fusion_lat": 0.0, "bike_id": "f74fa7e15a9a257cf8321aef4b6a69ac", "fusion_lon": 0.0, "lon": -77.0058325, "lat": 38.9019825, "is_reserved": 0, "is_disabled": 0, "rental_uris": {"android": "https://dc.lft.to/lastmile_qr_scan", "ios": "https://dc.lft.to/lastmile_qr_scan"}, "name": "f74fa7e15a9a257cf8321aef4b6a69ac", "type": "electric_scooter"}, {"fusion_lat": 0.0, "bike_id": "be383269c819fa846f943fc27c5644db", "fusion_lon": 0.0, "lon": -77.1064885, "lat": 38.93613833333333, "is_reserved": 0, "is_disabled": 0, "rental_uris": {"android": "https://dc.lft.to/lastmile_qr_scan", "ios": "https://dc.lft.to/lastmile_qr_scan"}, "name": "be383269c819fa846f943fc27c5644db", "type": "electric_bike"}, {"fusion_lat": 0.0, "bike_id": "65dbafc0ee024233eed6c77abfc61e74", "fusion_lon": 0.0, "lon": -77.02989533333333, "lat": 38.930699, "is_reserved": 0, "is_disabled": 0, "rental_uris": {"android": "https://dc.lft.to/lastmile_qr_scan", "ios": "https://dc.lft.to/lastmile_qr_scan"}, "name": "65dbafc0ee024233eed6c77abfc61e74", "type": "electric_scooter"}, {"fusion_lat": 0.0, "bike_id": "788ef6ab69a9de97826673718c8b2a75", "fusion_lon": 0.0, "lon": -77.0416415, "lat": 38.912552, "is_reserved": 0, "is_disabled": 0, "rental_uris": {"android": "https://dc.lft.to/lastmile_qr_scan", "ios": "https://dc.lft.to/lastmile_qr_scan"}, "name": "788ef6ab69a9de97826673718c8b2a75", "type": "electric_scooter"}, {"fusion_lat": 0.0, "bike_id": "5720ad644f3e3c71624879a6b43da8b2", "fusion_lon": 0.0, "lon": -77.01640133333333, "lat": 38.929028833333334, "is_reserved": 0, "is_disabled": 0, "rental_uris": {"android": "https://dc.lft.to/lastmile_qr_scan", "ios": "https://dc.lft.to/lastmile_qr_scan"}, "name": "5720ad644f3e3c71624879a6b43da8b2", "type": "electric_scooter"}, {"fusion_lat": 0.0, "bike_id": "f9ac8cad9559e8f7d098c92723b14114", "fusion_lon": 0.0, "lon": -77.0443455, "lat": 38.9213, "is_reserved": 0, "is_disabled": 0, "rental_uris": {"android": "https://dc.lft.to/lastmile_qr_scan", "ios": "https://dc.lft.to/lastmile_qr_scan"}, "name": "f9ac8cad9559e8f7d098c92723b14114", "type": "electric_scooter"}, {"fusion_lat": 0.0, "bike_id": "ea080eb38de8c33e7570a191ccbbc138", "fusion_lon": 0.0, "lon": -77.02177383333333, "lat": 38.9085505, "is_reserved": 0, "is_disabled": 0, "rental_uris": {"android": "https://dc.lft.to/lastmile_qr_scan", "ios": "https://dc.lft.to/lastmile_qr_scan"}, "name": "ea080eb38de8c33e7570a191ccbbc138", "type": "electric_scooter"}, {"fusion_lat": 0.0, "bike_id": "8c00a099747100e64ec30638bb2723c4", "fusion_lon": 0.0, "lon": -77.03224866666666, "lat": 38.92768016666667, "is_reserved": 0, "is_disabled": 0, "rental_uris": {"android": "https://dc.lft.to/lastmile_qr_scan", "ios": "https://dc.lft.to/lastmile_qr_scan"}, "name": "8c00a099747100e64ec30638bb2723c4", "type": "electric_scooter"}, {"fusion_lat": 0.0, "bike_id": "82efb75fe504565f190240b65c572500", "fusion_lon": 0.0, "lon": -77.02295633333334, "lat": 38.917017333333334, "is_reserved": 0, "is_disabled": 0, "rental_uris": {"android": "https://dc.lft.to/lastmile_qr_scan", "ios": "https://dc.lft.to/lastmile_qr_scan"}, "name": "82efb75fe504565f190240b65c572500", "type": "electric_scooter"}, {"fusion_lat": 0.0, "bike_id": "1497fe3c0695e84ce3b5bc712d0658cc", "fusion_lon": 0.0, "lon": -77.023638, "lat": 38.89217983333333, "is_reserved": 0, "is_disabled": 0, "rental_uris": {"android": "https://dc.lft.to/lastmile_qr_scan", "ios": "https://dc.lft.to/lastmile_qr_scan"}, "name": "1497fe3c0695e84ce3b5bc712d0658cc", "type": "electric_scooter"}, {"fusion_lat": 0.0, "bike_id": "fdd816fbc147611424e77bdedbc5ca6f", "fusion_lon": 0.0, "lon": -77.033759, "lat": 38.928200833333335, "is_reserved": 0, "is_disabled": 0, "rental_uris": {"android": "https://dc.lft.to/lastmile_qr_scan", "ios": "https://dc.lft.to/lastmile_qr_scan"}, "name": "fdd816fbc147611424e77bdedbc5ca6f", "type": "electric_scooter"}, {"fusion_lat": 0.0, "bike_id": "2763492c65c9b0cb248a2ce99f212126", "fusion_lon": 0.0, "lon": -77.0318, "lat": 38.9122235, "is_reserved": 0, "is_disabled": 0, "rental_uris": {"android": "https://dc.lft.to/lastmile_qr_scan", "ios": "https://dc.lft.to/lastmile_qr_scan"}, "name": "2763492c65c9b0cb248a2ce99f212126", "type": "electric_scooter"}, {"fusion_lat": 0.0, "bike_id": "9caafbb145a668017ab9a41f497ca4a4", "fusion_lon": 0.0, "lon": -77.048756, "lat": 38.892356, "is_reserved": 0, "is_disabled": 0, "rental_uris": {"android": "https://dc.lft.to/lastmile_qr_scan", "ios": "https://dc.lft.to/lastmile_qr_scan"}, "name": "9caafbb145a668017ab9a41f497ca4a4", "type": "electric_scooter"}, {"fusion_lat": 0.0, "bike_id": "98c43cd586989fd81ffe6bb81ddbd149", "fusion_lon": 0.0, "lon": -77.02591883333334, "lat": 38.943025666666664, "is_reserved": 0, "is_disabled": 0, "rental_uris": {"android": "https://dc.lft.to/lastmile_qr_scan", "ios": "https://dc.lft.to/lastmile_qr_scan"}, "name": "98c43cd586989fd81ffe6bb81ddbd149", "type": "electric_scooter"}, {"fusion_lat": 0.0, "bike_id": "988f6fad972a0eb722284e7cd22e123c", "fusion_lon": 0.0, "lon": -77.0250045, "lat": 38.919317666666664, "is_reserved": 0, "is_disabled": 0, "rental_uris": {"android": "https://dc.lft.to/lastmile_qr_scan", "ios": "https://dc.lft.to/lastmile_qr_scan"}, "name": "988f6fad972a0eb722284e7cd22e123c", "type": "electric_scooter"}, {"fusion_lat": 0.0, "bike_id": "29a6709880f7af7a3e16034503b16b0e", "fusion_lon": 0.0, "lon": -76.93135316666667, "lat": 38.87851766666667, "is_reserved": 0, "is_disabled": 0, "rental_uris": {"android": "https://dc.lft.to/lastmile_qr_scan", "ios": "https://dc.lft.to/lastmile_qr_scan"}, "name": "29a6709880f7af7a3e16034503b16b0e", "type": "electric_scooter"}, {"fusion_lat": 0.0, "bike_id": "276f3698f5834b758fc205a0f73b868e", "fusion_lon": 0.0, "lon": -77.07275183333333, "lat": 38.930921, "is_reserved": 0, "is_disabled": 0, "rental_uris": {"android": "https://dc.lft.to/lastmile_qr_scan", "ios": "https://dc.lft.to/lastmile_qr_scan"}, "name": "276f3698f5834b758fc205a0f73b868e", "type": "electric_scooter"}, {"fusion_lat": 0.0, "bike_id": "8a1595ebd1ead4a038c3d86a19abe140", "fusion_lon": 0.0, "lon": -77.03640816666666, "lat": 38.9231075, "is_reserved": 0, "is_disabled": 0, "rental_uris": {"android": "https://dc.lft.to/lastmile_qr_scan", "ios": "https://dc.lft.to/lastmile_qr_scan"}, "name": "8a1595ebd1ead4a038c3d86a19abe140", "type": "electric_scooter"}, {"fusion_lat": 0.0, "bike_id": "e76edee55bd50bd7581dac144080614b", "fusion_lon": 0.0, "lon": -77.02584383333334, "lat": 38.90363816666667, "is_reserved": 0, "is_disabled": 0, "rental_uris": {"android": "https://dc.lft.to/lastmile_qr_scan", "ios": "https://dc.lft.to/lastmile_qr_scan"}, "name": "e76edee55bd50bd7581dac144080614b", "type": "electric_scooter"}, {"fusion_lat": 0.0, "bike_id": "d47049e2a815ee314f78aa086f268b02", "fusion_lon": 0.0, "lon": -76.900836, "lat": 38.8876425, "is_reserved": 0, "is_disabled": 0, "rental_uris": {"android": "https://dc.lft.to/lastmile_qr_scan", "ios": "https://dc.lft.to/lastmile_qr_scan"}, "name": "d47049e2a815ee314f78aa086f268b02", "type": "electric_bike"}, {"fusion_lat": 0.0, "bike_id": "68a1df8b01e0ed65d7cfb9c1eb18e684", "fusion_lon": 0.0, "lon": -77.02104583333333, "lat": 38.9217705, "is_reserved": 0, "is_disabled": 0, "rental_uris": {"android": "https://dc.lft.to/lastmile_qr_scan", "ios": "https://dc.lft.to/lastmile_qr_scan"}, "name": "68a1df8b01e0ed65d7cfb9c1eb18e684", "type": "electric_scooter"}, {"fusion_lat": 0.0, "bike_id": "47cdb1d60dcf1e3e1a9d118a468afd2b", "fusion_lon": 0.0, "lon": -77.03511, "lat": 38.921531333333334, "is_reserved": 0, "is_disabled": 0, "rental_uris": {"android": "https://dc.lft.to/lastmile_qr_scan", "ios": "https://dc.lft.to/lastmile_qr_scan"}, "name": "47cdb1d60dcf1e3e1a9d118a468afd2b", "type": "electric_scooter"}, {"fusion_lat": 0.0, "bike_id": "8db835c22a8ad5ba1f26502a8ba32728", "fusion_lon": 0.0, "lon": -77.02781166666666, "lat": 38.89220066666667, "is_reserved": 0, "is_disabled": 0, "rental_uris": {"android": "https://dc.lft.to/lastmile_qr_scan", "ios": "https://dc.lft.to/lastmile_qr_scan"}, "name": "8db835c22a8ad5ba1f26502a8ba32728", "type": "electric_scooter"}, {"fusion_lat": 0.0, "bike_id": "912c4af34ed27d8e5841df12a4951da4", "fusion_lon": 0.0, "lon": -77.04609016666667, "lat": 38.90275, "is_reserved": 0, "is_disabled": 0, "rental_uris": {"android": "https://dc.lft.to/lastmile_qr_scan", "ios": "https://dc.lft.to/lastmile_qr_scan"}, "name": "912c4af34ed27d8e5841df12a4951da4", "type": "electric_scooter"}, {"fusion_lat": 0.0, "bike_id": "4dfcd3c3f74013044d1bc81099164815", "fusion_lon": 0.0, "lon": -77.0441515, "lat": 38.91134066666667, "is_reserved": 0, "is_disabled": 0, "rental_uris": {"android": "https://dc.lft.to/lastmile_qr_scan", "ios": "https://dc.lft.to/lastmile_qr_scan"}, "name": "4dfcd3c3f74013044d1bc81099164815", "type": "electric_scooter"}, {"fusion_lat": 0.0, "bike_id": "62a1533fc4abd8f811bb809a7c676451", "fusion_lon": 0.0, "lon": -77.08186566666667, "lat": 38.93516116666667, "is_reserved": 0, "is_disabled": 0, "rental_uris": {"android": "https://dc.lft.to/lastmile_qr_scan", "ios": "https://dc.lft.to/lastmile_qr_scan"}, "name": "62a1533fc4abd8f811bb809a7c676451", "type": "electric_scooter"}, {"fusion_lat": 0.0, "bike_id": "c230c209bdd36f3469323fe944ccc69e", "fusion_lon": 0.0, "lon": -77.0446975, "lat": 38.90545133333333, "is_reserved": 0, "is_disabled": 0, "rental_uris": {"android": "https://dc.lft.to/lastmile_qr_scan", "ios": "https://dc.lft.to/lastmile_qr_scan"}, "name": "c230c209bdd36f3469323fe944ccc69e", "type": "electric_scooter"}, {"fusion_lat": 0.0, "bike_id": "8daacefc41c6ade9feee012e33061f0b", "fusion_lon": 0.0, "lon": -77.0281965, "lat": 38.93172766666667, "is_reserved": 0, "is_disabled": 0, "rental_uris": {"android": "https://dc.lft.to/lastmile_qr_scan", "ios": "https://dc.lft.to/lastmile_qr_scan"}, "name": "8daacefc41c6ade9feee012e33061f0b", "type": "electric_scooter"}, {"fusion_lat": 0.0, "bike_id": "34f642261affbd1d76f7db20315e3a1b", "fusion_lon": 0.0, "lon": -77.02221083333333, "lat": 38.893233333333335, "is_reserved": 0, "is_disabled": 0, "rental_uris": {"android": "https://dc.lft.to/lastmile_qr_scan", "ios": "https://dc.lft.to/lastmile_qr_scan"}, "name": "34f642261affbd1d76f7db20315e3a1b", "type": "electric_scooter"}, {"fusion_lat": 0.0, "bike_id": "1d9af411bb0148da96fd86c071d7eff0", "fusion_lon": 0.0, "lon": -77.01498766666667, "lat": 38.8922235, "is_reserved": 0, "is_disabled": 0, "rental_uris": {"android": "https://dc.lft.to/lastmile_qr_scan", "ios": "https://dc.lft.to/lastmile_qr_scan"},