{"data": {"bikes": [{"name": "aff6647372a8f29af0830dd3a0a8fcd6", "fusion_lon": 0.0, "lat": 38.90752466666667, "is_reserved": 0, "type": "electric_scooter", "bike_id": "aff6647372a8f29af0830dd3a0a8fcd6", "is_disabled": 0, "rental_uris": {"android": "https://dc.lft.to/lastmile_qr_scan", "ios": "https://dc.lft.to/lastmile_qr_scan"}, "lon": -77.001418, "fusion_lat": 0.0}, {"name": "53d34e3a288b085622db4463cf42fb3f", "fusion_lon": 0.0, "lat": 38.918178166666664, "is_reserved": 0, "type": "electric_scooter", "bike_id": "53d34e3a288b085622db4463cf42fb3f", "is_disabled": 0, "rental_uris": {"android": "https://dc.lft.to/lastmile_qr_scan", "ios": "https://dc.lft.to/lastmile_qr_scan"}, "lon": -77.02708066666666, "fusion_lat": 0.0}, {"name": "a144e717bf0d55a6c3699c1799210d91", "fusion_lon": 0.0, "lat": 38.9157965, "is_reserved": 0, "type": "electric_scooter", "bike_id": "a144e717bf0d55a6c3699c1799210d91", "is_disabled": 0, "rental_uris": {"android": "https://dc.lft.to/lastmile_qr_scan", "ios": "https://dc.lft.to/lastmile_qr_scan"}, "lon": -77.03186633333334, "fusion_lat": 0.0}, {"name": "2d76137499759a2afb0b06e3a136da0a", "fusion_lon": 0.0, "lat": 38.945244333333335, "is_reserved": 0, "type": "electric_scooter", "bike_id": "2d76137499759a2afb0b06e3a136da0a", "is_disabled": 0, "rental_uris": {"android": "https://dc.lft.to/lastmile_qr_scan", "ios": "https://dc.lft.to/lastmile_qr_scan"}, "lon": -77.02089616666666, "fusion_lat": 0.0}, {"name": "c6841ccf206b8001c741955351f5c13c", "fusion_lon": 0.0, "lat": 38.889897833333336, "is_reserved": 0, "type": "electric_scooter", "bike_id": "c6841ccf206b8001c741955351f5c13c", "is_disabled": 0, "rental_uris": {"android": "https://dc.lft.to/lastmile_qr_scan", "ios": "https://dc.lft.to/lastmile_qr_scan"}, "lon": -76.9310965, "fusion_lat": 0.0}, {"name": "2e1e2507d8d758289d9bda6a89159c4b", "fusion_lon": 0.0, "lat": 38.949006, "is_reserved": 0, "type": "electric_scooter", "bike_id": "2e1e2507d8d758289d9bda6a89159c4b", "is_disabled": 0, "rental_uris": {"android": "https://dc.lft.to/lastmile_qr_scan", "ios": "https://dc.lft.to/lastmile_qr_scan"}, "lon": -77.00650683333333, "fusion_lat": 0.0}, {"name": "320f551be9de9e704561b93f9d489a3b", "fusion_lon": 0.0, "lat": 38.939052833333335, "is_reserved": 0, "type": "electric_scooter", "bike_id": "320f551be9de9e704561b93f9d489a3b", "is_disabled": 0, "rental_uris": {"android": "https://dc.lft.to/lastmile_qr_scan", "ios": "https://dc.lft.to/lastmile_qr_scan"}, "lon": -77.06044533333333, "fusion_lat": 0.0}, {"name": "52370756657e5dfdeb897eb0d69ba8ab", "fusion_lon": 0.0, "lat": 38.89727966666667, "is_reserved": 0, "type": "electric_scooter", "bike_id": "52370756657e5dfdeb897eb0d69ba8ab", "is_disabled": 0, "rental_uris": {"android": "https://dc.lft.to/lastmile_qr_scan", "ios": "https://dc.lft.to/lastmile_qr_scan"}, "lon": -77.0552465, "fusion_lat": 0.0}, {"name": "69ecbcc1f04a389370fd5b351cb4460b", "fusion_lon": 0.0, "lat": 38.925644166666665, "is_reserved": 0, "type": "electric_scooter", "bike_id": "69ecbcc1f04a389370fd5b351cb4460b", "is_disabled": 0, "rental_uris": {"android": "https://dc.lft.to/lastmile_qr_scan", "ios": "https://dc.lft.to/lastmile_qr_scan"}, "lon": -77.03824133333333, "fusion_lat": 0.0}, {"name": "854811eca3c29c83b2a626db7385282f", "fusion_lon": 0.0, "lat": 38.918395333333336, "is_reserved": 0, "type": "electric_scooter", "bike_id": "854811eca3c29c83b2a626db7385282f", "is_disabled": 0, "rental_uris": {"android": "https://dc.lft.to/lastmile_qr_scan", "ios": "https://dc.lft.to/lastmile_qr_scan"}, "lon": -77.0415715, "fusion_lat": 0.0}, {"name": "65ee254c869174a84a08a2d3c3acf8f4", "fusion_lon": 0.0, "lat": 38.91243983333333, "is_reserved": 0, "type": "electric_scooter", "bike_id": "65ee254c869174a84a08a2d3c3acf8f4", "is_disabled": 0, "rental_uris": {"android": "https://dc.lft.to/lastmile_qr_scan", "ios": "https://dc.lft.to/lastmile_qr_scan"}, "lon": -77.03205533333333, "fusion_lat": 0.0}, {"name": "4fb72a6dbb4e8e6d755d43aad74c583f", "fusion_lon": 0.0, "lat": 38.9170915, "is_reserved": 0, "type": "electric_scooter", "bike_id": "4fb72a6dbb4e8e6d755d43aad74c583f", "is_disabled": 0, "rental_uris": {"android": "https://dc.lft.to/lastmile_qr_scan", "ios": "https://dc.lft.to/lastmile_qr_scan"}, "lon": -77.0278285, "fusion_lat": 0.0}, {"name": "0a75a1d4d8f1113d52857c3a6d9da44b", "fusion_lon": 0.0, "lat": 38.88737416666667, "is_reserved": 0, "type": "electric_scooter", "bike_id": "0a75a1d4d8f1113d52857c3a6d9da44b", "is_disabled": 0, "rental_uris": {"android": "https://dc.lft.to/lastmile_qr_scan", "ios": "https://dc.lft.to/lastmile_qr_scan"}, "lon": -77.01527833333333, "fusion_lat": 0.0}, {"name": "77d43c35f35df3bcfcd719bbaf65087f", "fusion_lon": 0.0, "lat": 38.888582166666666, "is_reserved": 0, "type": "electric_scooter", "bike_id": "77d43c35f35df3bcfcd719bbaf65087f", "is_disabled": 0, "rental_uris": {"android": "https://dc.lft.to/lastmile_qr_scan", "ios": "https://dc.lft.to/lastmile_qr_scan"}, "lon": -77.00003666666667, "fusion_lat": 0.0}, {"name": "896ab9c74a42b7f13bfe92bb588618ef", "fusion_lon": 0.0, "lat": 38.92132983333333, "is_reserved": 0, "type": "electric_scooter", "bike_id": "896ab9c74a42b7f13bfe92bb588618ef", "is_disabled": 0, "rental_uris": {"android": "https://dc.lft.to/lastmile_qr_scan", "ios": "https://dc.lft.to/lastmile_qr_scan"}, "lon": -77.04134733333333, "fusion_lat": 0.0}, {"name": "099da7e25f2b681601343b6432615eb3", "fusion_lon": 0.0, "lat": 38.919838, "is_reserved": 0, "type": "electric_scooter", "bike_id": "099da7e25f2b681601343b6432615eb3", "is_disabled": 0, "rental_uris": {"android": "https://dc.lft.to/lastmile_qr_scan", "ios": "https://dc.lft.to/lastmile_qr_scan"}, "lon": -77.04184966666666, "fusion_lat": 0.0}, {"name": "cb7f422e8b02f08682af4a5516b7af53", "fusion_lon": 0.0, "lat": 38.92011133333333, "is_reserved": 0, "type": "electric_scooter", "bike_id": "cb7f422e8b02f08682af4a5516b7af53", "is_disabled": 0, "rental_uris": {"android": "https://dc.lft.to/lastmile_qr_scan", "ios": "https://dc.lft.to/lastmile_qr_scan"}, "lon": -77.02410866666666, "fusion_lat": 0.0}, {"name": "67c83e862b6a75a974add2a8d50984c0", "fusion_lon": 0.0, "lat": 38.8961425, "is_reserved": 0, "type": "electric_scooter", "bike_id": "67c83e862b6a75a974add2a8d50984c0", "is_disabled": 0, "rental_uris": {"android": "https://dc.lft.to/lastmile_qr_scan", "ios": "https://dc.lft.to/lastmile_qr_scan"}, "lon": -77.0447125, "fusion_lat": 0.0}, {"name": "bb9fe4b2bf60a9aa93db7e68e6323a18", "fusion_lon": 0.0, "lat": 38.902671, "is_reserved": 0, "type": "electric_scooter", "bike_id": "bb9fe4b2bf60a9aa93db7e68e6323a18", "is_disabled": 0, "rental_uris": {"android": "https://dc.lft.to/lastmile_qr_scan", "ios": "https://dc.lft.to/lastmile_qr_scan"}, "lon": -77.05794116666667, "fusion_lat": 0.0}, {"name": "0969f12a098b34ed4885a3b3ab818893", "fusion_lon": 0.0, "lat": 38.92967016666667, "is_reserved": 0, "type": "electric_bike", "bike_id": "0969f12a098b34ed4885a3b3ab818893", "is_disabled": 0, "rental_uris": {"android": "https://dc.lft.to/lastmile_qr_scan", "ios": "https://dc.lft.to/lastmile_qr_scan"}, "lon": -77.18562083333333, "fusion_lat": 0.0}, {"name": "bf948714eda854f16a0dbfd90fc55fa7", "fusion_lon": 0.0, "lat": 38.93313283333333, "is_reserved": 0, "type": "electric_scooter", "bike_id": "bf948714eda854f16a0dbfd90fc55fa7", "is_disabled": 0, "rental_uris": {"android": "https://dc.lft.to/lastmile_qr_scan", "ios": "https://dc.lft.to/lastmile_qr_scan"}, "lon": -77.03440133333334, "fusion_lat": 0.0}, {"name": "915239d1829577a4fb6f3d0270dda3a9", "fusion_lon": 0.0, "lat": 39.05495966666667, "is_reserved": 0, "type": "electric_bike", "bike_id": "915239d1829577a4fb6f3d0270dda3a9", "is_disabled": 0, "rental_uris": {"android": "https://dc.lft.to/lastmile_qr_scan", "ios": "https://dc.lft.to/lastmile_qr_scan"}, "lon": -77.0464675, "fusion_lat": 0.0}, {"name": "f6b8bcfa8a9413ea9a34fb067c4f1920", "fusion_lon": 0.0, "lat": 38.92218883333334, "is_reserved": 0, "type": "electric_scooter", "bike_id": "f6b8bcfa8a9413ea9a34fb067c4f1920", "is_disabled": 0, "rental_uris": {"android": "https://dc.lft.to/lastmile_qr_scan", "ios": "https://dc.lft.to/lastmile_qr_scan"}, "lon": -77.04241533333334, "fusion_lat": 0.0}, {"name": "76b248083bd1f8f7f2bda93630ade7aa", "fusion_lon": 0.0, "lat": 38.914088, "is_reserved": 0, "type": "electric_scooter", "bike_id": "76b248083bd1f8f7f2bda93630ade7aa", "is_disabled": 0, "rental_uris": {"android": "https://dc.lft.to/lastmile_qr_scan", "ios": "https://dc.lft.to/lastmile_qr_scan"}, "lon": -77.0369775, "fusion_lat": 0.0}, {"name": "0a9b91cfc53e1d8ea153ee6695aba8d0", "fusion_lon": 0.0, "lat": 38.942189166666665, "is_reserved": 0, "type": "electric_bike", "bike_id": "0a9b91cfc53e1d8ea153ee6695aba8d0", "is_disabled": 0, "rental_uris": {"android": "https://dc.lft.to/lastmile_qr_scan", "ios": "https://dc.lft.to/lastmile_qr_scan"}, "lon": -76.96615216666666, "fusion_lat": 0.0}, {"name": "c13c6fc0c538a60207f9e437badad391", "fusion_lon": 0.0, "lat": 38.9240795, "is_reserved": 0, "type": "electric_bike", "bike_id": "c13c6fc0c538a60207f9e437badad391", "is_disabled": 0, "rental_uris": {"android": "https://dc.lft.to/lastmile_qr_scan", "ios": "https://dc.lft.to/lastmile_qr_scan"}, "lon": -77.0504575, "fusion_lat": 0.0}, {"name": "7ba3038f112de5497b73791f2d538f89", "fusion_lon": 0.0, "lat": 38.91322683333333, "is_reserved": 0, "type": "electric_scooter", "bike_id": "7ba3038f112de5497b73791f2d538f89", "is_disabled": 0, "rental_uris": {"android": "https://dc.lft.to/lastmile_qr_scan", "ios": "https://dc.lft.to/lastmile_qr_scan"}, "lon": -77.0318415, "fusion_lat": 0.0}, {"name": "9f0d3b7a444d709447681837e57f067e", "fusion_lon": 0.0, "lat": 38.90692116666666, "is_reserved": 0, "type": "electric_scooter", "bike_id": "9f0d3b7a444d709447681837e57f067e", "is_disabled": 0, "rental_uris": {"android": "https://dc.lft.to/lastmile_qr_scan", "ios": "https://dc.lft.to/lastmile_qr_scan"}, "lon": -77.0418555, "fusion_lat": 0.0}, {"name": "bed1f5dacffd56de38782e11e312cff9", "fusion_lon": 0.0, "lat": 38.886096333333334, "is_reserved": 0, "type": "electric_scooter", "bike_id": "bed1f5dacffd56de38782e11e312cff9", "is_disabled": 0, "rental_uris": {"android": "https://dc.lft.to/lastmile_qr_scan", "ios": "https://dc.lft.to/lastmile_qr_scan"}, "lon": -76.9950945, "fusion_lat": 0.0}, {"name": "bd1f609d9a57a8f5605bf040b0abf8c6", "fusion_lon": 0.0, "lat": 38.9339215, "is_reserved": 0, "type": "electric_scooter", "bike_id": "bd1f609d9a57a8f5605bf040b0abf8c6", "is_disabled": 0, "rental_uris": {"android": "https://dc.lft.to/lastmile_qr_scan", "ios": "https://dc.lft.to/lastmile_qr_scan"}, "lon": -77.03994083333333, "fusion_lat": 0.0}, {"name": "9b4127756dc33cda10d7e328620c814d", "fusion_lon": 0.0, "lat": 38.87087483333333, "is_reserved": 0, "type": "electric_scooter", "bike_id": "9b4127756dc33cda10d7e328620c814d", "is_disabled": 0, "rental_uris": {"android": "https://dc.lft.to/lastmile_qr_scan", "ios": "https://dc.lft.to/lastmile_qr_scan"}, "lon": -77.0137475, "fusion_lat": 0.0}, {"name": "2e036b55dafd3d75826868c1a73fdfc1", "fusion_lon": 0.0, "lat": 38.915994, "is_reserved": 0, "type": "electric_scooter", "bike_id": "2e036b55dafd3d75826868c1a73fdfc1", "is_disabled": 0, "rental_uris": {"android": "https://dc.lft.to/lastmile_qr_scan", "ios": "https://dc.lft.to/lastmile_qr_scan"}, "lon": -77.03202266666666, "fusion_lat": 0.0}, {"name": "c09a5e8a0760fa1d58d50cf768e7003b", "fusion_lon": 0.0, "lat": 38.902149666666666, "is_reserved": 0, "type": "electric_scooter", "bike_id": "c09a5e8a0760fa1d58d50cf768e7003b", "is_disabled": 0, "rental_uris": {"android": "https://dc.lft.to/lastmile_qr_scan", "ios": "https://dc.lft.to/lastmile_qr_scan"}, "lon": -77.02159966666666, "fusion_lat": 0.0}, {"name": "b3bcd756a53b10a0f7916e890578cd5e", "fusion_lon": 0.0, "lat": 38.899978833333336, "is_reserved": 0, "type": "electric_scooter", "bike_id": "b3bcd756a53b10a0f7916e890578cd5e", "is_disabled": 0, "rental_uris": {"android": "https://dc.lft.to/lastmile_qr_scan", "ios": "https://dc.lft.to/lastmile_qr_scan"}, "lon": -77.00706733333334, "fusion_lat": 0.0}, {"name": "32b398ce600a37986a057b1bcd52aa0a", "fusion_lon": 0.0, "lat": 38.92451366666667, "is_reserved": 0, "type": "electric_scooter", "bike_id": "32b398ce600a37986a057b1bcd52aa0a", "is_disabled": 0, "rental_uris": {"android": "https://dc.lft.to/lastmile_qr_scan", "ios": "https://dc.lft.to/lastmile_qr_scan"}, "lon": -77.04109316666667, "fusion_lat": 0.0}, {"name": "9d8233e7e8219b40231446ba2def2af1", "fusion_lon": 0.0, "lat": 38.910509, "is_reserved": 0, "type": "electric_scooter", "bike_id": "9d8233e7e8219b40231446ba2def2af1", "is_disabled": 0, "rental_uris": {"android": "https://dc.lft.to/lastmile_qr_scan", "ios": "https://dc.lft.to/lastmile_qr_scan"}, "lon": -77.02186716666667, "fusion_lat": 0.0}, {"name": "d9b05486b26338b0b991296b33263ab4", "fusion_lon": 0.0, "lat": 38.9205275, "is_reserved": 0, "type": "electric_scooter", "bike_id": "d9b05486b26338b0b991296b33263ab4", "is_disabled": 0, "rental_uris": {"android": "https://dc.lft.to/lastmile_qr_scan", "ios": "https://dc.lft.to/lastmile_qr_scan"}, "lon": -77.02976933333333, "fusion_lat": 0.0}, {"name": "b54be4c4f994ff4f6381afba5ab77d15", "fusion_lon": 0.0, "lat": 38.919635666666665, "is_reserved": 0, "type": "electric_scooter", "bike_id": "b54be4c4f994ff4f6381afba5ab77d15", "is_disabled": 0, "rental_uris": {"android": "https://dc.lft.to/lastmile_qr_scan", "ios": "https://dc.lft.to/lastmile_qr_scan"}, "lon": -77.03475133333333, "fusion_lat": 0.0}, {"name": "1da0b16444831f6daed54e44022e6de1", "fusion_lon": 0.0, "lat": 38.9199535, "is_reserved": 0, "type": "electric_scooter", "bike_id": "1da0b16444831f6daed54e44022e6de1", "is_disabled": 0, "rental_uris": {"android": "https://dc.lft.to/lastmile_qr_scan", "ios": "https://dc.lft.to/lastmile_qr_scan"}, "lon": -77.03221933333333, "fusion_lat": 0.0}, {"name": "ffa7c1bfd14b17246855450ccdd921e4", "fusion_lon": 0.0, "lat": 38.91415666666666, "is_reserved": 0, "type": "electric_scooter", "bike_id": "ffa7c1bfd14b17246855450ccdd921e4", "is_disabled": 0, "rental_uris": {"android": "https://dc.lft.to/lastmile_qr_scan", "ios": "https://dc.lft.to/lastmile_qr_scan"}, "lon": -77.031477, "fusion_lat": 0.0}, {"name": "23f4461eb092bd2c790b7120eda3405d", "fusion_lon": 0.0, "lat": 38.91570683333333, "is_reserved": 0, "type": "electric_scooter", "bike_id": "23f4461eb092bd2c790b7120eda3405d", "is_disabled": 0, "rental_uris": {"android": "https://dc.lft.to/lastmile_qr_scan", "ios": "https://dc.lft.to/lastmile_qr_scan"}, "lon": -77.0318955, "fusion_lat": 0.0}, {"name": "034be2a7bd6891bee3b9dacdf76f68db", "fusion_lon": 0.0, "lat": 38.921705833333334, "is_reserved": 0, "type": "electric_scooter", "bike_id": "034be2a7bd6891bee3b9dacdf76f68db", "is_disabled": 0, "rental_uris": {"android": "https://dc.lft.to/lastmile_qr_scan", "ios": "https://dc.lft.to/lastmile_qr_scan"}, "lon": -77.04248683333333, "fusion_lat": 0.0}, {"name": "a5b386876310a1ced28d6ed8e4f1fc66", "fusion_lon": 0.0, "lat": 38.94180983333333, "is_reserved": 0, "type": "electric_scooter", "bike_id": "a5b386876310a1ced28d6ed8e4f1fc66", "is_disabled": 0, "rental_uris": {"android": "https://dc.lft.to/lastmile_qr_scan", "ios": "https://dc.lft.to/lastmile_qr_scan"}, "lon": -77.02481783333333, "fusion_lat": 0.0}, {"name": "eb79a4d6e3a872ebcf73845be31a850f", "fusion_lon": 0.0, "lat": 38.8075845, "is_reserved": 0, "type": "electric_bike", "bike_id": "eb79a4d6e3a872ebcf73845be31a850f", "is_disabled": 0, "rental_uris": {"android": "https://dc.lft.to/lastmile_qr_scan", "ios": "https://dc.lft.to/lastmile_qr_scan"}, "lon": -77.094658, "fusion_lat": 0.0}, {"name": "5007ed19d21673ee8b631977433e1655", "fusion_lon": 0.0, "lat": 38.9461775, "is_reserved": 0, "type": "electric_scooter", "bike_id": "5007ed19d21673ee8b631977433e1655", "is_disabled": 0, "rental_uris": {"android": "https://dc.lft.to/lastmile_qr_scan", "ios": "https://dc.lft.to/lastmile_qr_scan"}, "lon": -77.0217025, "fusion_lat": 0.0}, {"name": "ca246072c0dddb77e00cbb7330feaecc", "fusion_lon": 0.0, "lat": 38.9934035, "is_reserved": 0, "type": "electric_bike", "bike_id": "ca246072c0dddb77e00cbb7330feaecc", "is_disabled": 0, "rental_uris": {"android": "https://dc.lft.to/lastmile_qr_scan", "ios": "https://dc.lft.to/lastmile_qr_scan"}, "lon": -77.11577516666667, "fusion_lat": 0.0}, {"name": "c984ea6067be7a42d03f998c775bf198", "fusion_lon": 0.0, "lat": 38.884115666666666, "is_reserved": 0, "type": "electric_bike", "bike_id": "c984ea6067be7a42d03f998c775bf198", "is_disabled": 0, "rental_uris": {"android": "https://dc.lft.to/lastmile_qr_scan", "ios": "https://dc.lft.to/lastmile_qr_scan"}, "lon": -76.96056866666666, "fusion_lat": 0.0}, {"name": "4b560fb1b3836dfbfe21e600ece6d762", "fusion_lon": 0.0, "lat": 38.91683783333333, "is_reserved": 0, "type": "electric_scooter", "bike_id": "4b560fb1b3836dfbfe21e600ece6d762", "is_disabled": 0, "rental_uris": {"android": "https://dc.lft.to/lastmile_qr_scan", "ios": "https://dc.lft.to/lastmile_qr_scan"}, "lon": -77.026956, "fusion_lat": 0.0}, {"name": "be0e5cae853e12fdf6982a6bca9ba523", "fusion_lon": 0.0, "lat": 38.9218015, "is_reserved": 0, "type": "electric_scooter", "bike_id": "be0e5cae853e12fdf6982a6bca9ba523", "is_disabled": 0, "rental_uris": {"android": "https://dc.lft.to/lastmile_qr_scan", "ios": "https://dc.lft.to/lastmile_qr_scan"}, "lon": -77.0266135, "fusion_lat": 0.0}, {"name": "ff64fc7040c2db71e7a24aab1caefd82", "fusion_lon": 0.0, "lat": 38.9231585, "is_reserved": 0, "type": "electric_scooter", "bike_id": "ff64fc7040c2db71e7a24aab1caefd82", "is_disabled": 0, "rental_uris": {"android": "https://dc.lft.to/lastmile_qr_scan", "ios": "https://dc.lft.to/lastmile_qr_scan"}, "lon": -77.04107733333333, "fusion_lat": 0.0}, {"name": "daeb25a19144da900fb0d7d35a1a93e3", "fusion_lon": 0.0, "lat": 38.931688333333334, "is_reserved": 0, "type": "electric_bike", "bike_id": "daeb25a19144da900fb0d7d35a1a93e3", "is_disabled": 0, "rental_uris": {"android": "https://dc.lft.to/lastmile_qr_scan", "ios": "https://dc.lft.to/lastmile_qr_scan"}, "lon": -76.97631566666666, "fusion_lat": 0.0}, {"name": "22d7cdb9e9c46cfa951b37ed2fc69d86", "fusion_lon": 0.0, "lat": 38.930888333333336, "is_reserved": 0, "type": "electric_scooter", "bike_id": "22d7cdb9e9c46cfa951b37ed2fc69d86", "is_disabled": 0, "rental_uris": {"android": "https://dc.lft.to/lastmile_qr_scan", "ios": "https://dc.lft.to/lastmile_qr_scan"}, "lon": -76.99608216666667, "fusion_lat": 0.0}, {"name": "2758f3d15f0994a952866c002463fdf3", "fusion_lon": 0.0, "lat": 38.89359183333333, "is_reserved": 0, "type": "electric_scooter", "bike_id": "2758f3d15f0994a952866c002463fdf3", "is_disabled": 0, "rental_uris": {"android": "https://dc.lft.to/lastmile_qr_scan", "ios": "https://dc.lft.to/lastmile_qr_scan"}, "lon": -76.94935633333333, "fusion_lat": 0.0}, {"name": "43f059835974b440c73ab0a42818af48", "fusion_lon": 0.0, "lat": 38.91565166666667, "is_reserved": 0, "type": "electric_scooter", "bike_id": "43f059835974b440c73ab0a42818af48", "is_disabled": 0, "rental_uris": {"android": "https://dc.lft.to/lastmile_qr_scan", "ios": "https://dc.lft.to/lastmile_qr_scan"}, "lon": -77.0228315, "fusion_lat": 0.0}, {"name": "82ecdc42a0c0228c42bddc7d7fa1149e", "fusion_lon": 0.0, "lat": 38.911831, "is_reserved": 0, "type": "electric_scooter", "bike_id": "82ecdc42a0c0228c42bddc7d7fa1149e", "is_disabled": 0, "rental_uris": {"android": "https://dc.lft.to/lastmile_qr_scan", "ios": "https://dc.lft.to/lastmile_qr_scan"}, "lon": -77.01011066666666, "fusion_lat": 0.0}, {"name": "7f05cb4650769c4fd9bd6731bb179299", "fusion_lon": 0.0, "lat": 38.9157145, "is_reserved": 0, "type": "electric_scooter", "bike_id": "7f05cb4650769c4fd9bd6731bb179299", "is_disabled": 0, "rental_uris": {"android": "https://dc.lft.to/lastmile_qr_scan", "ios": "https://dc.lft.to/lastmile_qr_scan"}, "lon": -77.02405133333333, "fusion_lat": 0.0}, {"name": "d601ee94db8437627e4b374fecdb7404", "fusion_lon": 0.0, "lat": 38.91054966666667, "is_reserved": 0, "type": "electric_scooter", "bike_id": "d601ee94db8437627e4b374fecdb7404", "is_disabled": 0, "rental_uris": {"android": "https://dc.lft.to/lastmile_qr_scan", "ios": "https://dc.lft.to/lastmile_qr_scan"}, "lon": -77.02214583333334, "fusion_lat": 0.0}, {"name": "9e8f6ba5a5492f48d6212264a22c0dd6", "fusion_lon": 0.0, "lat": 38.88011783333334, "is_reserved": 0, "type": "electric_scooter", "bike_id": "9e8f6ba5a5492f48d6212264a22c0dd6", "is_disabled": 0, "rental_uris": {"android": "https://dc.lft.to/lastmile_qr_scan", "ios": "https://dc.lft.to/lastmile_qr_scan"}, "lon": -77.02474733333334, "fusion_lat": 0.0}, {"name": "55d501c2c28ee5883eaac49d1da49bf0", "fusion_lon": 0.0, "lat": 38.92469283333333, "is_reserved": 0, "type": "electric_scooter", "bike_id": "55d501c2c28ee5883eaac49d1da49bf0", "is_disabled": 0, "rental_uris": {"android": "https://dc.lft.to/lastmile_qr_scan", "ios": "https://dc.lft.to/lastmile_qr_scan"}, "lon": -77.02246466666666, "fusion_lat": 0.0}, {"name": "ece81d26850e1675d930e93a28ad8da9", "fusion_lon": 0.0, "lat": 38.96958083333333, "is_reserved": 0, "type": "electric_bike", "bike_id": "ece81d26850e1675d930e93a28ad8da9", "is_disabled": 0, "rental_uris": {"android": "https://dc.lft.to/lastmile_qr_scan", "ios": "https://dc.lft.to/lastmile_qr_scan"}, "lon": -76.95748466666667, "fusion_lat": 0.0}, {"name": "33d21b6d40b48f3372af2478fc8c4b3b", "fusion_lon": 0.0, "lat": 38.89524933333333, "is_reserved": 0, "type": "electric_scooter", "bike_id": "33d21b6d40b48f3372af2478fc8c4b3b", "is_disabled": 0, "rental_uris": {"android": "https://dc.lft.to/lastmile_qr_scan", "ios": "https://dc.lft.to/lastmile_qr_scan"}, "lon": -77.02802133333333, "fusion_lat": 0.0}, {"name": "cc616bfd1510c397f1870fe3417162bb", "fusion_lon": 0.0, "lat": 38.896016333333336, "is_reserved": 0, "type": "electric_scooter", "bike_id": "cc616bfd1510c397f1870fe3417162bb", "is_disabled": 0, "rental_uris": {"android": "https://dc.lft.to/lastmile_qr_scan", "ios": "https://dc.lft.to/lastmile_qr_scan"}, "lon": -77.05436116666667, "fusion_lat": 0.0}, {"name": "27e189cc0ca9590f76dae553426badde", "fusion_lon": 0.0, "lat": 38.911351833333335, "is_reserved": 0, "type": "electric_scooter", "bike_id": "27e189cc0ca9590f76dae553426badde", "is_disabled": 0, "rental_uris": {"android": "https://dc.lft.to/lastmile_qr_scan", "ios": "https://dc.lft.to/lastmile_qr_scan"}, "lon": -77.03208333333333, "fusion_lat": 0.0}, {"name": "65b6f2c11da1a14d55bc34dfab924e54", "fusion_lon": 0.0, "lat": 38.897311, "is_reserved": 0, "type": "electric_scooter", "bike_id": "65b6f2c11da1a14d55bc34dfab924e54", "is_disabled": 0, "rental_uris": {"android": "https://dc.lft.to/lastmile_qr_scan", "ios": "https://dc.lft.to/lastmile_qr_scan"}, "lon": -77.0200775, "fusion_lat": 0.0}, {"name": "a259042523daa4e2df31ad95caa88913", "fusion_lon": 0.0, "lat": 38.913201666666666, "is_reserved": 0, "type": "electric_scooter", "bike_id": "a259042523daa4e2df31ad95caa88913", "is_disabled": 0, "rental_uris": {"android": "https://dc.lft.to/lastmile_qr_scan", "ios": "https://dc.lft.to/lastmile_qr_scan"}, "lon": -77.06246, "fusion_lat": 0.0}, {"name": "7bb93da39f5b331effea8b09dbe4ff83", "fusion_lon": 0.0, "lat": 38.915336333333336, "is_reserved": 0, "type": "electric_scooter", "bike_id": "7bb93da39f5b331effea8b09dbe4ff83", "is_disabled": 0, "rental_uris": {"android": "https://dc.lft.to/lastmile_qr_scan", "ios": "https://dc.lft.to/lastmile_qr_scan"}, "lon": -77.03209533333333, "fusion_lat": 0.0}, {"name": "8e15e151a856a76609d40e612a8fb4b4", "fusion_lon": 0.0, "lat": 38.9587665, "is_reserved": 0, "type": "electric_bike", "bike_id": "8e15e151a856a76609d40e612a8fb4b4", "is_disabled": 0, "rental_uris": {"android": "https://dc.lft.to/lastmile_qr_scan", "ios": "https://dc.lft.to/lastmile_qr_scan"}, "lon": -77.0014975, "fusion_lat": 0.0}, {"name": "d9b20b55923cb18226f811aecc3c67a7", "fusion_lon": 0.0, "lat": 38.919541833333334, "is_reserved": 0, "type": "electric_scooter", "bike_id": "d9b20b55923cb18226f811aecc3c67a7", "is_disabled": 0, "rental_uris": {"android": "https://dc.lft.to/lastmile_qr_scan", "ios": "https://dc.lft.to/lastmile_qr_scan"}, "lon": -77.04170066666667, "fusion_lat": 0.0}, {"name": "7a3226a8fc2a4be00d6de31ac3dd2baa", "fusion_lon": 0.0, "lat": 38.916880666666664, "is_reserved": 0, "type": "electric_scooter", "bike_id": "7a3226a8fc2a4be00d6de31ac3dd2baa", "is_disabled": 0, "rental_uris": {"android": "https://dc.lft.to/lastmile_qr_scan", "ios": "https://dc.lft.to/lastmile_qr_scan"}, "lon": -77.02690916666667, "fusion_lat": 0.0}, {"name": "c17b0712778357dd15f11e2d1e10ad84", "fusion_lon": 0.0, "lat": 38.876366166666664, "is_reserved": 0, "type": "electric_scooter", "bike_id": "c17b0712778357dd15f11e2d1e10ad84", "is_disabled": 0, "rental_uris": {"android": "https://dc.lft.to/lastmile_qr_scan", "ios": "https://dc.lft.to/lastmile_qr_scan"}, "lon": -77.00453866666666, "fusion_lat": 0.0}, {"name": "ecbe461cac566f365e4b02bd0c8f039d", "fusion_lon": 0.0, "lat": 38.9322635, "is_reserved": 0, "type": "electric_bike", "bike_id": "ecbe461cac566f365e4b02bd0c8f039d", "is_disabled": 0, "rental_uris": {"android": "https://dc.lft.to/lastmile_qr_scan", "ios": "https://dc.lft.to/lastmile_qr_scan"}, "lon": -77.181243, "fusion_lat": 0.0}, {"name": "bd0712a902518d53b539e08b66ffbb4d", "fusion_lon": 0.0, "lat": 38.917683, "is_reserved": 0, "type": "electric_scooter", "bike_id": "bd0712a902518d53b539e08b66ffbb4d", "is_disabled": 0, "rental_uris": {"android": "https://dc.lft.to/lastmile_qr_scan", "ios": "https://dc.lft.to/lastmile_qr_scan"}, "lon": -77.040564, "fusion_lat": 0.0}, {"name": "b26f8f1601240dcbcbecec3e00efb71c", "fusion_lon": 0.0, "lat": 38.874443, "is_reserved": 0, "type": "electric_scooter", "bike_id": "b26f8f1601240dcbcbecec3e00efb71c", "is_disabled": 0, "rental_uris": {"android": "https://dc.lft.to/lastmile_qr_scan", "ios": "https://dc.lft.to/lastmile_qr_scan"}, "lon": -77.00568933333334, "fusion_lat": 0.0}, {"name": "b31880a1c60f84e93eeaf1d9e370bf6c", "fusion_lon": 0.0, "lat": 38.88046966666667, "is_reserved": 0, "type": "electric_bike", "bike_id": "b31880a1c60f84e93eeaf1d9e370bf6c", "is_disabled": 0, "rental_uris": {"android": "https://dc.lft.to/lastmile_qr_scan", "ios": "https://dc.lft.to/lastmile_qr_scan"}, "lon": -77.0112765, "fusion_lat": 0.0}, {"name": "c0c9c722c6e752a6b09291f3d810b0b1", "fusion_lon": 0.0, "lat": 38.921782, "is_reserved": 0, "type": "electric_scooter", "bike_id": "c0c9c722c6e752a6b09291f3d810b0b1", "is_disabled": 0, "rental_uris": {"android": "https://dc.lft.to/lastmile_qr_scan", "ios": "https://dc.lft.to/lastmile_qr_scan"}, "lon": -77.038477, "fusion_lat": 0.0}, {"name": "59c6382cc7c0300fdb60a19847538538", "fusion_lon": 0.0, "lat": 38.902704, "is_reserved": 0, "type": "electric_scooter", "bike_id": "59c6382cc7c0300fdb60a19847538538", "is_disabled": 0, "rental_uris": {"android": "https://dc.lft.to/lastmile_qr_scan", "ios": "https://dc.lft.to/lastmile_qr_scan"}, "lon": -77.03269883333333, "fusion_lat": 0.0}, {"name": "284a46f080ff6e7280dd6317ccb36bdf", "fusion_lon": 0.0, "lat": 38.921203, "is_reserved": 0, "type": "electric_bike", "bike_id": "284a46f080ff6e7280dd6317ccb36bdf", "is_disabled": 0, "rental_uris": {"android": "https://dc.lft.to/lastmile_qr_scan", "ios": "https://dc.lft.to/lastmile_qr_scan"}, "lon": -77.01211283333333, "fusion_lat": 0.0}, {"name": "bf2240e9fa329f14f0ea2a9c373fc23c", "fusion_lon": 0.0, "lat": 38.897205166666666, "is_reserved": 0, "type": "electric_scooter", "bike_id": "bf2240e9fa329f14f0ea2a9c373fc23c", "is_disabled": 0, "rental_uris": {"android": "https://dc.lft.to/lastmile_qr_scan", "ios": "https://dc.lft.to/lastmile_qr_scan"}, "lon": -77.00803333333333, "fusion_lat": 0.0}, {"name": "26c43817f7cd2431fc95353189f9b341", "fusion_lon": 0.0, "lat": 38.9000725, "is_reserved": 0, "type": "electric_scooter", "bike_id": "26c43817f7cd2431fc95353189f9b341", "is_disabled": 0, "rental_uris": {"android": "https://dc.lft.to/lastmile_qr_scan", "ios": "https://dc.lft.to/lastmile_qr_scan"}, "lon": -76.99622366666667, "fusion_lat": 0.0}, {"name": "5412673186bc490b3ac488b6921d9e85", "fusion_lon": 0.0, "lat": 38.909426333333336, "is_reserved": 0, "type": "electric_scooter", "bike_id": "5412673186bc490b3ac488b6921d9e85", "is_disabled": 0, "rental_uris": {"android": "https://dc.lft.to/lastmile_qr_scan", "ios": "https://dc.lft.to/lastmile_qr_scan"}, "lon": -77.0345335, "fusion_lat": 0.0}, {"name": "954f6e6096f32fe09d179ce526975988", "fusion_lon": 0.0, "lat": 38.91929733333333, "is_reserved": 0, "type": "electric_scooter", "bike_id": "954f6e6096f32fe09d179ce526975988", "is_disabled": 0, "rental_uris": {"android": "https://dc.lft.to/lastmile_qr_scan", "ios": "https://dc.lft.to/lastmile_qr_scan"}, "lon": -77.0342345, "fusion_lat": 0.0}, {"name": "67c268fe8bcf7618501010b0cd2e9c17", "fusion_lon": 0.0, "lat": 38.912861, "is_reserved": 0, "type": "electric_scooter", "bike_id": "67c268fe8bcf7618501010b0cd2e9c17", "is_disabled": 0, "rental_uris": {"android": "https://dc.lft.to/lastmile_qr_scan", "ios": "https://dc.lft.to/lastmile_qr_scan"}, "lon": -77.02386033333333, "fusion_lat": 0.0}, {"name": "48d46c6d9f4a71887da530f54093aca1", "fusion_lon": 0.0, "lat": 38.934434333333336, "is_reserved": 0, "type": "electric_scooter", "bike_id": "48d46c6d9f4a71887da530f54093aca1", "is_disabled": 0, "rental_uris": {"android": "https://dc.lft.to/lastmile_qr_scan", "ios": "https://dc.lft.to/lastmile_qr_scan"}, "lon": -77.032812, "fusion_lat": 0.0}, {"name": "7a703b3949800e665310b2205694fc53", "fusion_lon": 0.0, "lat": 38.910159, "is_reserved": 0, "type": "electric_scooter", "bike_id": "7a703b3949800e665310b2205694fc53", "is_disabled": 0, "rental_uris": {"android": "https://dc.lft.to/lastmile_qr_scan", "ios": "https://dc.lft.to/lastmile_qr_scan"}, "lon": -77.05292616666667, "fusion_lat": 0.0}, {"name": "a2843b7569b3e30f699544cc2ff0f01f", "fusion_lon": 0.0, "lat": 38.89989716666667, "is_reserved": 0, "type": "electric_scooter", "bike_id": "a2843b7569b3e30f699544cc2ff0f01f", "is_disabled": 0, "rental_uris": {"android": "https://dc.lft.to/lastmile_qr_scan", "ios": "https://dc.lft.to/lastmile_qr_scan"}, "lon": -77.02391, "fusion_lat": 0.0}, {"name": "f44aeace3992476bfb87c3922c7d9b49", "fusion_lon": 0.0, "lat": 38.92290333333333, "is_reserved": 0, "type": "electric_scooter", "bike_id": "f44aeace3992476bfb87c3922c7d9b49", "is_disabled": 0, "rental_uris": {"android": "https://dc.lft.to/lastmile_qr_scan", "ios": "https://dc.lft.to/lastmile_qr_scan"}, "lon": -77.04266416666667, "fusion_lat": 0.0}, {"name": "28137ab0989205d5930316d749964103", "fusion_lon": 0.0, "lat": 38.854199, "is_reserved": 0, "type": "electric_bike", "bike_id": "28137ab0989205d5930316d749964103", "is_disabled": 0, "rental_uris": {"android": "https://dc.lft.to/lastmile_qr_scan", "ios": "https://dc.lft.to/lastmile_qr_scan"}, "lon": -77.12074516666667, "fusion_lat": 0.0}, {"name": "d7d0bb4ea62dd850a1a3aafd56020f0e", "fusion_lon": 0.0, "lat": 38.907905166666666, "is_reserved": 0, "type": "electric_scooter", "bike_id": "d7d0bb4ea62dd850a1a3aafd56020f0e", "is_disabled": 0, "rental_uris": {"android": "https://dc.lft.to/lastmile_qr_scan", "ios": "https://dc.lft.to/lastmile_qr_scan"}, "lon": -77.03202583333334, "fusion_lat": 0.0}, {"name": "ebe602828ea03b613814b0181ce6ca92", "fusion_lon": 0.0, "lat": 38.89223283333333, "is_reserved": 0, "type": "electric_scooter", "bike_id": "ebe602828ea03b613814b0181ce6ca92", "is_disabled": 0, "rental_uris": {"android": "https://dc.lft.to/lastmile_qr_scan", "ios": "https://dc.lft.to/lastmile_qr_scan"}, "lon": -77.012817, "fusion_lat": 0.0}, {"name": "4a035826236f59034767664c6d927bb2", "fusion_lon": 0.0, "lat": 38.899318, "is_reserved": 0, "type": "electric_scooter", "bike_id": "4a035826236f59034767664c6d927bb2", "is_disabled": 0, "rental_uris": {"android": "https://dc.lft.to/lastmile_qr_scan", "ios": "https://dc.lft.to/lastmile_qr_scan"}, "lon": -76.94579583333334, "fusion_lat": 0.0}, {"name": "443d2a904cc85e504bed6cd82cd666a5", "fusion_lon": 0.0, "lat": 38.89914316666667, "is_reserved": 0, "type": "electric_scooter", "bike_id": "443d2a904cc85e504bed6cd82cd666a5", "is_disabled": 0, "rental_uris": {"android": "https://dc.lft.to/lastmile_qr_scan", "ios": "https://dc.lft.to/lastmile_qr_scan"}, "lon": -76.93381733333334, "fusion_lat": 0.0}, {"name": "de98f4fbc92318b21928885024bc44c4", "fusion_lon": 0.0, "lat": 38.900595833333334, "is_reserved": 0, "type": "electric_scooter", "bike_id": "de98f4fbc92318b21928885024bc44c4", "is_disabled": 0, "rental_uris": {"android": "https://dc.lft.to/lastmile_qr_scan", "ios": "https://dc.lft.to/lastmile_qr_scan"}, "lon": -77.04630066666667, "fusion_lat": 0.0}, {"name": "7a03851b1ef0d4da8ac70d6be3fb683f", "fusion_lon": 0.0, "lat": 38.93133183333333, "is_reserved": 0, "type": "electric_scooter", "bike_id": "7a03851b1ef0d4da8ac70d6be3fb683f", "is_disabled": 0, "rental_uris": {"android": "https://dc.lft.to/lastmile_qr_scan", "ios": "https://dc.lft.to/lastmile_qr_scan"}, "lon": -77.03306716666667, "fusion_lat": 0.0}, {"name": "b8b1abcbfda27dded21302b4d72fb7c6", "fusion_lon": 0.0, "lat": 38.907753666666665, "is_reserved": 0, "type": "electric_scooter", "bike_id": "b8b1abcbfda27dded21302b4d72fb7c6", "is_disabled": 0, "rental_uris": {"android": "https://dc.lft.to/lastmile_qr_scan", "ios": "https://dc.lft.to/lastmile_qr_scan"}, "lon": -77.02976933333333, "fusion_lat": 0.0}, {"name": "1fc1953c99b838b0733228101bf71122", "fusion_lon": 0.0, "lat": 38.882834, "is_reserved": 0, "type": "electric_bike", "bike_id": "1fc1953c99b838b0733228101bf71122", "is_disabled": 0, "rental_uris": {"android": "https://dc.lft.to/lastmile_qr_scan", "ios": "https://dc.lft.to/lastmile_qr_scan"}, "lon": -77.17188, "fusion_lat": 0.0}, {"name": "116c8764666f839158c42d0679b30d9d", "fusion_lon": 0.0, "lat": 38.91567916666666, "is_reserved": 0, "type": "electric_scooter", "bike_id": "116c8764666f839158c42d0679b30d9d", "is_disabled": 0, "rental_uris": {"android": "https://dc.lft.to/lastmile_qr_scan", "ios": "https://dc.lft.to/lastmile_qr_scan"}, "lon": -77.03183483333333, "fusion_lat": 0.0}, {"name": "70a10d4b2095e17d2edfc9b332f2dd23", "fusion_lon": 0.0, "lat": 38.9318065, "is_reserved": 0, "type": "electric_scooter", "bike_id": "70a10d4b2095e17d2edfc9b332f2dd23", "is_disabled": 0, "rental_uris": {"android": "https://dc.lft.to/lastmile_qr_scan", "ios": "https://dc.lft.to/lastmile_qr_scan"}, "lon": -77.023505, "fusion_lat": 0.0}, {"name": "3e7dfa5bdd84990d5bf37618ee1a0b7b", "fusion_lon": 0.0, "lat": 38.948211, "is_reserved": 0, "type": "electric_bike", "bike_id": "3e7dfa5bdd84990d5bf37618ee1a0b7b", "is_disabled": 0, "rental_uris": {"android": "https://dc.lft.to/lastmile_qr_scan", "ios": "https://dc.lft.to/lastmile_qr_scan"}, "lon": -77.02366533333333, "fusion_lat": 0.0}, {"name": "0d81e5f7c77d3e2f785a2705403bd48c", "fusion_lon": 0.0, "lat": 38.90335733333333, "is_reserved": 0, "type": "electric_scooter", "bike_id": "0d81e5f7c77d3e2f785a2705403bd48c", "is_disabled": 0, "rental_uris": {"android": "https://dc.lft.to/lastmile_qr_scan", "ios": "https://dc.lft.to/lastmile_qr_scan"}, "lon": -76.97584416666666, "fusion_lat": 0.0}, {"name": "c3e321c33a6f8fbbaa02affe31be94b2", "fusion_lon": 0.0, "lat": 38.923317833333336, "is_reserved": 0, "type": "electric_scooter", "bike_id": "c3e321c33a6f8fbbaa02affe31be94b2", "is_disabled": 0, "rental_uris": {"android": "https://dc.lft.to/lastmile_qr_scan", "ios": "https://dc.lft.to/lastmile_qr_scan"}, "lon": -77.0454155, "fusion_lat": 0.0}, {"name": "1d367173f4f7323ba2d0ef4c02040235", "fusion_lon": 0.0, "lat": 38.84727733333333, "is_reserved": 0, "type": "electric_bike", "bike_id": "1d367173f4f7323ba2d0ef4c02040235", "is_disabled": 0, "rental_uris": {"android": "https://dc.lft.to/lastmile_qr_scan", "ios": "https://dc.lft.to/lastmile_qr_scan"}, "lon": -77.1198565, "fusion_lat": 0.0}, {"name": "63c4031aecb898b625cc8e14f3cb99cb", "fusion_lon": 0.0, "lat": 38.945955166666664, "is_reserved": 0, "type": "electric_bike", "bike_id": "63c4031aecb898b625cc8e14f3cb99cb", "is_disabled": 0, "rental_uris": {"android": "https://dc.lft.to/lastmile_qr_scan", "ios": "https://dc.lft.to/lastmile_qr_scan"}, "lon": -77.00715883333334, "fusion_lat": 0.0}, {"name": "2da7bd5f6bc8dd842344b72055d76ec9", "fusion_lon": 0.0, "lat": 38.91885966666667, "is_reserved": 0, "type": "electric_scooter", "bike_id": "2da7bd5f6bc8dd842344b72055d76ec9", "is_disabled": 0, "rental_uris": {"android": "https://dc.lft.to/lastmile_qr_scan", "ios": "https://dc.lft.to/lastmile_qr_scan"}, "lon": -77.048252, "fusion_lat": 0.0}, {"name": "f05434b8de30c38919346492cb92a7fd", "fusion_lon": 0.0, "lat": 38.894039666666664, "is_reserved": 0, "type": "electric_scooter", "bike_id": "f05434b8de30c38919346492cb92a7fd", "is_disabled": 0, "rental_uris": {"android": "https://dc.lft.to/lastmile_qr_scan", "ios": "https://dc.lft.to/lastmile_qr_scan"}, "lon": -77.019564, "fusion_lat": 0.0}, {"name": "a6bbfea4a659903242b6c12407b64288", "fusion_lon": 0.0, "lat": 38.9289285, "is_reserved": 0, "type": "electric_bike", "bike_id": "a6bbfea4a659903242b6c12407b64288", "is_disabled": 0, "rental_uris": {"android": "https://dc.lft.to/lastmile_qr_scan", "ios": "https://dc.lft.to/lastmile_qr_scan"}, "lon": -77.08397833333333, "fusion_lat": 0.0}, {"name": "adf3c1698f9461d6232da87627d20343", "fusion_lon": 0.0, "lat": 38.9524955, "is_reserved": 0, "type": "electric_bike", "bike_id": "adf3c1698f9461d6232da87627d20343", "is_disabled": 0, "rental_uris": {"android": "https://dc.lft.to/lastmile_qr_scan", "ios": "https://dc.lft.to/lastmile_qr_scan"}, "lon": -76.97675566666666, "fusion_lat": 0.0}, {"name": "27ceac130fbd4746ed5bb5caaf0d7c71", "fusion_lon": 0.0, "lat": 38.90624, "is_reserved": 0, "type": "electric_scooter", "bike_id": "27ceac130fbd4746ed5bb5caaf0d7c71", "is_disabled": 0, "rental_uris": {"android": "https://dc.lft.to/lastmile_qr_scan", "ios": "https://dc.lft.to/lastmile_qr_scan"}, "lon": -77.01013083333333, "fusion_lat": 0.0}, {"name": "b28dbe539d719c02c5a2691fd1a4f31f", "fusion_lon": 0.0, "lat": 38.92266633333333, "is_reserved": 0, "type": "electric_scooter", "bike_id": "b28dbe539d719c02c5a2691fd1a4f31f", "is_disabled": 0, "rental_uris": {"android": "https://dc.lft.to/lastmile_qr_scan", "ios": "https://dc.lft.to/lastmile_qr_scan"}, "lon": -77.022353, "fusion_lat": 0.0}, {"name": "f0ae0e09f39497682fa6048606bf2cb0", "fusion_lon": 0.0, "lat": 38.89241416666667, "is_reserved": 0, "type": "electric_scooter", "bike_id": "f0ae0e09f39497682fa6048606bf2cb0", "is_disabled": 0, "rental_uris": {"android": "https://dc.lft.to/lastmile_qr_scan", "ios": "https://dc.lft.to/lastmile_qr_scan"}, "lon": -77.039621, "fusion_lat": 0.0}, {"name": "d3b048b8f328e53ca2fa6362be4a366a", "fusion_lon": 0.0, "lat": 38.931790666666664, "is_reserved": 0, "type": "electric_scooter", "bike_id": "d3b048b8f328e53ca2fa6362be4a366a", "is_disabled": 0, "rental_uris": {"android": "https://dc.lft.to/lastmile_qr_scan", "ios": "https://dc.lft.to/lastmile_qr_scan"}, "lon": -77.02346783333333, "fusion_lat": 0.0}, {"name": "127e8860b1ea51b92a4a73258123d659", "fusion_lon": 0.0, "lat": 38.9059265, "is_reserved": 0, "type": "electric_scooter", "bike_id": "127e8860b1ea51b92a4a73258123d659", "is_disabled": 0, "rental_uris": {"android": "https://dc.lft.to/lastmile_qr_scan", "ios": "https://dc.lft.to/lastmile_qr_scan"}, "lon": -77.022246, "fusion_lat": 0.0}, {"name": "5b0dd7518dd07f80aabc865e92d73663", "fusion_lon": 0.0, "lat": 38.9088845, "is_reserved": 0, "type": "electric_scooter", "bike_id": "5b0dd7518dd07f80aabc865e92d73663", "is_disabled": 0, "rental_uris": {"android": "https://dc.lft.to/lastmile_qr_scan", "ios": "https://dc.lft.to/lastmile_qr_scan"}, "lon": -76.99861033333333, "fusion_lat": 0.0}, {"name": "45c68d370c3f745faf8470f8bf79e2f1", "fusion_lon": 0.0, "lat": 38.9027085, "is_reserved": 0, "type": "electric_scooter", "bike_id": "45c68d370c3f745faf8470f8bf79e2f1", "is_disabled": 0, "rental_uris": {"android": "https://dc.lft.to/lastmile_qr_scan", "ios": "https://dc.lft.to/lastmile_qr_scan"}, "lon": -77.017573, "fusion_lat": 0.0}, {"name": "3bfe1e7b154fc789bf305326f892f62c", "fusion_lon": 0.0, "lat": 38.90185366666667, "is_reserved": 0, "type": "electric_scooter", "bike_id": "3bfe1e7b154fc789bf305326f892f62c", "is_disabled": 0, "rental_uris": {"android": "https://dc.lft.to/lastmile_qr_scan", "ios": "https://dc.lft.to/lastmile_qr_scan"}, "lon": -76.933675, "fusion_lat": 0.0}, {"name": "ba944ab19c4f0c0af5b4790367373f3b", "fusion_lon": 0.0, "lat": 38.917938666666664, "is_reserved": 0, "type": "electric_scooter", "bike_id": "ba944ab19c4f0c0af5b4790367373f3b", "is_disabled": 0, "rental_uris": {"android": "https://dc.lft.to/lastmile_qr_scan", "ios": "https://dc.lft.to/lastmile_qr_scan"}, "lon": -77.03437033333333, "fusion_lat": 0.0}, {"name": "13c8dd495772d5f725d1924dee093976", "fusion_lon": 0.0, "lat": 38.9205065, "is_reserved": 0, "type": "electric_scooter", "bike_id": "13c8dd495772d5f725d1924dee093976", "is_disabled": 0, "rental_uris": {"android": "https://dc.lft.to/lastmile_qr_scan", "ios": "https://dc.lft.to/lastmile_qr_scan"}, "lon": -77.02973366666667, "fusion_lat": 0.0}, {"name": "966017859f3f3fc2d309b01969c4763d", "fusion_lon": 0.0, "lat": 38.903393, "is_reserved": 0, "type": "electric_scooter", "bike_id": "966017859f3f3fc2d309b01969c4763d", "is_disabled": 0, "rental_uris": {"android": "https://dc.lft.to/lastmile_qr_scan", "ios": "https://dc.lft.to/lastmile_qr_scan"}, "lon": -77.01625816666666, "fusion_lat": 0.0}, {"name": "69cc437269f935908ed8225c3e42e436", "fusion_lon": 0.0, "lat": 38.80011366666667, "is_reserved": 0, "type": "electric_bike", "bike_id": "69cc437269f935908ed8225c3e42e436", "is_disabled": 0, "rental_uris": {"android": "https://dc.lft.to/lastmile_qr_scan", "ios": "https://dc.lft.to/lastmile_qr_scan"}, "lon": -77.054833, "fusion_lat": 0.0}, {"name": "ceb72b08ddadcb5617067a5f5d89ea3c", "fusion_lon": 0.0, "lat": 38.877307, "is_reserved": 0, "type": "electric_bike", "bike_id": "ceb72b08ddadcb5617067a5f5d89ea3c", "is_disabled": 0, "rental_uris": {"android": "https://dc.lft.to/lastmile_qr_scan", "ios": "https://dc.lft.to/lastmile_qr_scan"}, "lon": -77.1185035, "fusion_lat": 0.0}, {"name": "81c3abbaf10afb1446830741c47e6b02", "fusion_lon": 0.0, "lat": 38.9165695, "is_reserved": 0, "type": "electric_scooter", "bike_id": "81c3abbaf10afb1446830741c47e6b02", "is_disabled": 0, "rental_uris": {"android": "https://dc.lft.to/lastmile_qr_scan", "ios": "https://dc.lft.to/lastmile_qr_scan"}, "lon": -77.02971333333333, "fusion_lat": 0.0}, {"name": "86dddc48a79ad20bb0765debbdf2275a", "fusion_lon": 0.0, "lat": 38.956840666666665, "is_reserved": 0, "type": "electric_scooter", "bike_id": "86dddc48a79ad20bb0765debbdf2275a", "is_disabled": 0, "rental_uris": {"android": "https://dc.lft.to/lastmile_qr_scan", "ios": "https://dc.lft.to/lastmile_qr_scan"}, "lon": -77.02235833333333, "fusion_lat": 0.0}, {"name": "ade8e6a66a6ff1e18a960bac04c9b8f8", "fusion_lon": 0.0, "lat": 38.920047333333336, "is_reserved": 0, "type": "electric_scooter", "bike_id": "ade8e6a66a6ff1e18a960bac04c9b8f8", "is_disabled": 0, "rental_uris": {"android": "https://dc.lft.to/lastmile_qr_scan", "ios": "https://dc.lft.to/lastmile_qr_scan"}, "lon": -77.03882333333334, "fusion_lat": 0.0}, {"name": "9c29f176e7ab610b780e2517db333a65", "fusion_lon": 0.0, "lat": 38.9234735, "is_reserved": 0, "type": "electric_scooter", "bike_id": "9c29f176e7ab610b780e2517db333a65", "is_disabled": 0, "rental_uris": {"android": "https://dc.lft.to/lastmile_qr_scan", "ios": "https://dc.lft.to/lastmile_qr_scan"}, "lon": -77.04243033333333, "fusion_lat": 0.0}, {"name": "6fd609e790bc398a68dfd5778a935670", "fusion_lon": 0.0, "lat": 38.9021865, "is_reserved": 0, "type": "electric_scooter", "bike_id": "6fd609e790bc398a68dfd5778a935670", "is_disabled": 0, "rental_uris": {"android": "https://dc.lft.to/lastmile_qr_scan", "ios": "https://dc.lft.to/lastmile_qr_scan"}, "lon": -77.0469345, "fusion_lat": 0.0}, {"name": "4e361cf270e6af7f722a63905960e65b", "fusion_lon": 0.0, "lat": 38.914047833333335, "is_reserved": 0, "type": "electric_scooter", "bike_id": "4e361cf270e6af7f722a63905960e65b", "is_disabled": 0, "rental_uris": {"android": "https://dc.lft.to/lastmile_qr_scan", "ios": "https://dc.lft.to/lastmile_qr_scan"}, "lon": -77.03216133333333, "fusion_lat": 0.0}, {"name": "a1b099e96d5c146a784445d6d988f868", "fusion_lon": 0.0, "lat": 38.93672816666667, "is_reserved": 0, "type": "electric_scooter", "bike_id": "a1b099e96d5c146a784445d6d988f868", "is_disabled": 0, "rental_uris": {"android": "https://dc.lft.to/lastmile_qr_scan", "ios": "https://dc.lft.to/lastmile_qr_scan"}, "lon": -77.03585983333333, "fusion_lat": 0.0}, {"name": "d26329500ea1c3156c6d6e2f97a5b193", "fusion_lon": 0.0, "lat": 38.87659266666667, "is_reserved": 0, "type": "electric_scooter", "bike_id": "d26329500ea1c3156c6d6e2f97a5b193", "is_disabled": 0, "rental_uris": {"android": "https://dc.lft.to/lastmile_qr_scan", "ios": "https://dc.lft.to/lastmile_qr_scan"}, "lon": -77.01822233333333, "fusion_lat": 0.0}, {"name": "fbfb04453ec3c5641672da5e553de487", "fusion_lon": 0.0, "lat": 38.92261333333333, "is_reserved": 0, "type": "electric_scooter", "bike_id": "fbfb04453ec3c5641672da5e553de487", "is_disabled": 0, "rental_uris": {"android": "https://dc.lft.to/lastmile_qr_scan", "ios": "https://dc.lft.to/lastmile_qr_scan"}, "lon": -77.04292416666667, "fusion_lat": 0.0}, {"name": "b416619f8cfebe7471590711e113100f", "fusion_lon": 0.0, "lat": 38.91890466666667, "is_reserved": 0, "type": "electric_scooter", "bike_id": "b416619f8cfebe7471590711e113100f", "is_disabled": 0, "rental_uris": {"android": "https://dc.lft.to/lastmile_qr_scan", "ios": "https://dc.lft.to/lastmile_qr_scan"}, "lon": -77.02972433333333, "fusion_lat": 0.0}, {"name": "525068ad42876f904d80fee85bb5674c", "fusion_lon": 0.0, "lat": 38.93246966666667, "is_reserved": 0, "type": "electric_scooter", "bike_id": "525068ad42876f904d80fee85bb5674c", "is_disabled": 0, "rental_uris": {"android": "https://dc.lft.to/lastmile_qr_scan", "ios": "https://dc.lft.to/lastmile_qr_scan"}, "lon": -76.99743183333334, "fusion_lat": 0.0}, {"name": "3a497bc2e09df535b2ec1b5a9f0ba5d8", "fusion_lon": 0.0, "lat": 38.90963516666667, "is_reserved": 0, "type": "electric_scooter", "bike_id": "3a497bc2e09df535b2ec1b5a9f0ba5d8", "is_disabled": 0, "rental_uris": {"android": "https://dc.lft.to/lastmile_qr_scan", "ios": "https://dc.lft.to/lastmile_qr_scan"}, "lon": -77.00934716666667, "fusion_lat": 0.0}, {"name": "3c1e4562676888a415d0757145ba874e", "fusion_lon": 0.0, "lat": 38.9276605, "is_reserved": 0, "type": "electric_scooter", "bike_id": "3c1e4562676888a415d0757145ba874e", "is_disabled": 0, "rental_uris": {"android": "https://dc.lft.to/lastmile_qr_scan", "ios": "https://dc.lft.to/lastmile_qr_scan"}, "lon": -77.02706016666667, "fusion_lat": 0.0}, {"name": "64280a6a3510716c022745a182fcbdcb", "fusion_lon": 0.0, "lat": 39.056358333333336, "is_reserved": 0, "type": "electric_bike", "bike_id": "64280a6a3510716c022745a182fcbdcb", "is_disabled": 0, "rental_uris": {"android": "https://dc.lft.to/lastmile_qr_scan", "ios": "https://dc.lft.to/lastmile_qr_scan"}, "lon": -77.12527066666667, "fusion_lat": 0.0}, {"name": "e503fb351bd4e92cc0b7ade10ca3f596", "fusion_lon": 0.0, "lat": 38.911799, "is_reserved": 0, "type": "electric_scooter", "bike_id": "e503fb351bd4e92cc0b7ade10ca3f596", "is_disabled": 0, "rental_uris": {"android": "https://dc.lft.to/lastmile_qr_scan", "ios": "https://dc.lft.to/lastmile_qr_scan"}, "lon": -77.03505933333334, "fusion_lat": 0.0}, {"name": "c8614182bdf65ab3ca0f354b57be03d6", "fusion_lon": 0.0, "lat": 38.905705833333336, "is_reserved": 0, "type": "electric_scooter", "bike_id": "c8614182bdf65ab3ca0f354b57be03d6", "is_disabled": 0, "rental_uris": {"android": "https://dc.lft.to/lastmile_qr_scan", "ios": "https://dc.lft.to/lastmile_qr_scan"}, "lon": -77.0436395, "fusion_lat": 0.0}, {"name": "f084cc30c21a33fab5331bb2ceca2c06", "fusion_lon": 0.0, "lat": 38.854413, "is_reserved": 0, "type": "electric_scooter", "bike_id": "f084cc30c21a33fab5331bb2ceca2c06", "is_disabled": 0, "rental_uris": {"android": "https://dc.lft.to/lastmile_qr_scan", "ios": "https://dc.lft.to/lastmile_qr_scan"}, "lon": -76.9860055, "fusion_lat": 0.0}, {"name": "07d14dbffc579e8df493f4dbd79ea616", "fusion_lon": 0.0, "lat": 38.90839233333333, "is_reserved": 0, "type": "electric_scooter", "bike_id": "07d14dbffc579e8df493f4dbd79ea616", "is_disabled": 0, "rental_uris": {"android": "https://dc.lft.to/lastmile_qr_scan", "ios": "https://dc.lft.to/lastmile_qr_scan"}, "lon": -76.999732, "fusion_lat": 0.0}, {"name": "bca1a603f1fbf0d0954b5fb65e92e7c5", "fusion_lon": 0.0, "lat": 38.93134116666667, "is_reserved": 0, "type": "electric_scooter", "bike_id": "bca1a603f1fbf0d0954b5fb65e92e7c5", "is_disabled": 0, "rental_uris": {"android": "https://dc.lft.to/lastmile_qr_scan", "ios": "https://dc.lft.to/lastmile_qr_scan"}, "lon": -77.02986783333333, "fusion_lat": 0.0}, {"name": "391e07bc9e787104001160ccb1a63dd7", "fusion_lon": 0.0, "lat": 38.924502333333336, "is_reserved": 0, "type": "electric_scooter", "bike_id": "391e07bc9e787104001160ccb1a63dd7", "is_disabled": 0, "rental_uris": {"android": "https://dc.lft.to/lastmile_qr_scan", "ios": "https://dc.lft.to/lastmile_qr_scan"}, "lon": -77.0412215, "fusion_lat": 0.0}, {"name": "b054d21afae59110e12860880d419a72", "fusion_lon": 0.0, "lat": 38.8979155, "is_reserved": 0, "type": "electric_scooter", "bike_id": "b054d21afae59110e12860880d419a72", "is_disabled": 0, "rental_uris": {"android": "https://dc.lft.to/lastmile_qr_scan", "ios": "https://dc.lft.to/lastmile_qr_scan"}, "lon": -77.00919316666666, "fusion_lat": 0.0}, {"name": "36ff60d46963d16a3adb050b0332a389", "fusion_lon": 0.0, "lat": 38.92505083333333, "is_reserved": 0, "type": "electric_scooter", "bike_id": "36ff60d46963d16a3adb050b0332a389", "is_disabled": 0, "rental_uris": {"android": "https://dc.lft.to/lastmile_qr_scan", "ios": "https://dc.lft.to/lastmile_qr_scan"}, "lon": -77.02357133333334, "fusion_lat": 0.0}, {"name": "8fd32509646e25ebc63043d0534d23ae", "fusion_lon": 0.0, "lat": 38.92048966666667, "is_reserved": 0, "type": "electric_scooter", "bike_id": "8fd32509646e25ebc63043d0534d23ae", "is_disabled": 0, "rental_uris": {"android": "https://dc.lft.to/lastmile_qr_scan", "ios": "https://dc.lft.to/lastmile_qr_scan"}, "lon": -77.04186233333333, "fusion_lat": 0.0}, {"name": "741d89921dd666c2fbcf9dc127ff6c68", "fusion_lon": 0.0, "lat": 38.9528895, "is_reserved": 0, "type": "electric_bike", "bike_id": "741d89921dd666c2fbcf9dc127ff6c68", "is_disabled": 0, "rental_uris": {"android": "https://dc.lft.to/lastmile_qr_scan", "ios": "https://dc.lft.to/lastmile_qr_scan"}, "lon": -77.02389533333333, "fusion_lat": 0.0}, {"name": "e61623104e102e1ce1b955618746de53", "fusion_lon": 0.0, "lat": 38.903190333333335, "is_reserved": 0, "type": "electric_scooter", "bike_id": "e61623104e102e1ce1b955618746de53", "is_disabled": 0, "rental_uris": {"android": "https://dc.lft.to/lastmile_qr_scan", "ios": "https://dc.lft.to/lastmile_qr_scan"}, "lon": -76.98151066666667, "fusion_lat": 0.0}, {"name": "5c6e4c71cc1996680ad359f02d210a23", "fusion_lon": 0.0, "lat": 38.903424, "is_reserved": 0, "type": "electric_scooter", "bike_id": "5c6e4c71cc1996680ad359f02d210a23", "is_disabled": 0, "rental_uris": {"android": "https://dc.lft.to/lastmile_qr_scan", "ios": "https://dc.lft.to/lastmile_qr_scan"}, "lon": -77.05020333333333, "fusion_lat": 0.0}, {"name": "25f48249cf38e80b78b260bf9d7e50b2", "fusion_lon": 0.0, "lat": 38.917683833333335, "is_reserved": 0, "type": "electric_scooter", "bike_id": "25f48249cf38e80b78b260bf9d7e50b2", "is_disabled": 0, "rental_uris": {"android": "https://dc.lft.to/lastmile_qr_scan", "ios": "https://dc.lft.to/lastmile_qr_scan"}, "lon": -77.04053383333333, "fusion_lat": 0.0}, {"name": "599d4eee98ca2a221e6f55837e21e0c0", "fusion_lon": 0.0, "lat": 38.88363666666667, "is_reserved": 0, "type": "electric_scooter", "bike_id": "599d4eee98ca2a221e6f55837e21e0c0", "is_disabled": 0, "rental_uris": {"android": "https://dc.lft.to/lastmile_qr_scan", "ios": "https://dc.lft.to/lastmile_qr_scan"}, "lon": -76.94153566666667, "fusion_lat": 0.0}, {"name": "a228247ce89ef0accb1156ae04cc34a6", "fusion_lon": 0.0, "lat": 38.878808666666664, "is_reserved": 0, "type": "electric_bike", "bike_id": "a228247ce89ef0accb1156ae04cc34a6", "is_disabled": 0, "rental_uris": {"android": "https://dc.lft.to/lastmile_qr_scan", "ios": "https://dc.lft.to/lastmile_qr_scan"}, "lon": -77.09604983333334, "fusion_lat": 0.0}, {"name": "9a442870e1b06399b116951a8ae12aee", "fusion_lon": 0.0, "lat": 38.900317666666666, "is_reserved": 0, "type": "electric_scooter", "bike_id": "9a442870e1b06399b116951a8ae12aee", "is_disabled": 0, "rental_uris": {"android": "https://dc.lft.to/lastmile_qr_scan", "ios": "https://dc.lft.to/lastmile_qr_scan"}, "lon": -77.03295566666667, "fusion_lat": 0.0}, {"name": "846a84199222f158f6eaa8d10d2946fd", "fusion_lon": 0.0, "lat": 38.906462166666664, "is_reserved": 0, "type": "electric_scooter", "bike_id": "846a84199222f158f6eaa8d10d2946fd", "is_disabled": 0, "rental_uris": {"android": "https://dc.lft.to/lastmile_qr_scan", "ios": "https://dc.lft.to/lastmile_qr_scan"}, "lon": -77.02963516666667, "fusion_lat": 0.0}, {"name": "55a443e0c52907171955c4e5b4642445", "fusion_lon": 0.0, "lat": 38.90429833333334, "is_reserved": 0, "type": "electric_scooter", "bike_id": "55a443e0c52907171955c4e5b4642445", "is_disabled": 0, "rental_uris": {"android": "https://dc.lft.to/lastmile_qr_scan", "ios": "https://dc.lft.to/lastmile_qr_scan"}, "lon": -77.03117983333334, "fusion_lat": 0.0}, {"name": "049888fb8b54618f4a6d4a46d6dcad30", "fusion_lon": 0.0, "lat": 38.91923116666667, "is_reserved": 0, "type": "electric_scooter", "bike_id": "049888fb8b54618f4a6d4a46d6dcad30", "is_disabled": 0, "rental_uris": {"android": "https://dc.lft.to/lastmile_qr_scan", "ios": "https://dc.lft.to/lastmile_qr_scan"}, "lon": -77.07890383333333, "fusion_lat": 0.0}, {"name": "c2662978cd3f46c0f9886fddf452f55c", "fusion_lon": 0.0, "lat": 38.92224083333333, "is_reserved": 0, "type": "electric_scooter", "bike_id": "c2662978cd3f46c0f9886fddf452f55c", "is_disabled": 0, "rental_uris": {"android": "https://dc.lft.to/lastmile_qr_scan", "ios": "https://dc.lft.to/lastmile_qr_scan"}, "lon": -77.04494133333333, "fusion_lat": 0.0}, {"name": "d2bbfe2c9532aa2e08f255ed2836947e", "fusion_lon": 0.0, "lat": 38.901114, "is_reserved": 0, "type": "electric_scooter", "bike_id": "d2bbfe2c9532aa2e08f255ed2836947e", "is_disabled": 0, "rental_uris": {"android": "https://dc.lft.to/lastmile_qr_scan", "ios": "https://dc.lft.to/lastmile_qr_scan"}, "lon": -77.043587, "fusion_lat": 0.0}, {"name": "94328673f4976fa6ae521580dfa0a71e", "fusion_lon": 0.0, "lat": 38.87161283333333, "is_reserved": 0, "type": "electric_scooter", "bike_id": "94328673f4976fa6ae521580dfa0a71e", "is_disabled": 0, "rental_uris": {"android": "https://dc.lft.to/lastmile_qr_scan", "ios": "https://dc.lft.to/lastmile_qr_scan"}, "lon": -76.9774155, "fusion_lat": 0.0}, {"name": "73daf4c117edb11001f368052c67058f", "fusion_lon": 0.0, "lat": 38.91269483333333, "is_reserved": 0, "type": "electric_scooter", "bike_id": "73daf4c117edb11001f368052c67058f", "is_disabled": 0, "rental_uris": {"android": "https://dc.lft.to/lastmile_qr_scan", "ios": "https://dc.lft.to/lastmile_qr_scan"}, "lon": -77.03639616666666, "fusion_lat": 0.0}, {"name": "c196b46344edbda980e36388f843dcd9", "fusion_lon": 0.0, "lat": 38.916172333333336, "is_reserved": 0, "type": "electric_scooter", "bike_id": "c196b46344edbda980e36388f843dcd9", "is_disabled": 0, "rental_uris": {"android": "https://dc.lft.to/lastmile_qr_scan", "ios": "https://dc.lft.to/lastmile_qr_scan"}, "lon": -77.02148583333333, "fusion_lat": 0.0}, {"name": "52f7e11daf9a43a83a18bc8f698838a9", "fusion_lon": 0.0, "lat": 38.92335533333333, "is_reserved": 0, "type": "electric_scooter", "bike_id": "52f7e11daf9a43a83a18bc8f698838a9", "is_disabled": 0, "rental_uris": {"android": "https://dc.lft.to/lastmile_qr_scan", "ios": "https://dc.lft.to/lastmile_qr_scan"}, "lon": -77.05245816666667, "fusion_lat": 0.0}, {"name": "dfbe42eed572b524f3f7d53662be1666", "fusion_lon": 0.0, "lat": 38.913581666666666, "is_reserved": 0, "type": "electric_scooter", "bike_id": "dfbe42eed572b524f3f7d53662be1666", "is_disabled": 0, "rental_uris": {"android": "https://dc.lft.to/lastmile_qr_scan", "ios": "https://dc.lft.to/lastmile_qr_scan"}, "lon": -77.03962216666666, "fusion_lat": 0.0}, {"name": "ef8f7dae01b697363fd77fddcbfe51a4", "fusion_lon": 0.0, "lat": 38.922723166666664, "is_reserved": 0, "type": "electric_scooter", "bike_id": "ef8f7dae01b697363fd77fddcbfe51a4", "is_disabled": 0, "rental_uris": {"android": "https://dc.lft.to/lastmile_qr_scan", "ios": "https://dc.lft.to/lastmile_qr_scan"}, "lon": -77.02952283333333, "fusion_lat": 0.0}, {"name": "e766639f72109e91d2697060f0b308db", "fusion_lon": 0.0, "lat": 38.926881333333334, "is_reserved": 0, "type": "electric_scooter", "bike_id": "e766639f72109e91d2697060f0b308db", "is_disabled": 0, "rental_uris": {"android": "https://dc.lft.to/lastmile_qr_scan", "ios": "https://dc.lft.to/lastmile_qr_scan"}, "lon": -77.00784916666667, "fusion_lat": 0.0}, {"name": "55eb6e3f1ae2c611603884b117f86d91", "fusion_lon": 0.0, "lat": 38.89178966666667, "is_reserved": 0, "type": "electric_scooter", "bike_id": "55eb6e3f1ae2c611603884b117f86d91", "is_disabled": 0, "rental_uris": {"android": "https://dc.lft.to/lastmile_qr_scan", "ios": "https://dc.lft.to/lastmile_qr_scan"}, "lon": -76.91196866666667, "fusion_lat": 0.0}, {"name": "b639cf596e8d7a9f84ce6597b079f122", "fusion_lon": 0.0, "lat": 39.0527785, "is_reserved": 0, "type": "electric_bike", "bike_id": "b639cf596e8d7a9f84ce6597b079f122", "is_disabled": 0, "rental_uris": {"android": "https://dc.lft.to/lastmile_qr_scan", "ios": "https://dc.lft.to/lastmile_qr_scan"}, "lon": -77.080656, "fusion_lat": 0.0}, {"name": "3225815023e882d2bc9eca3b01c7e220", "fusion_lon": 0.0, "lat": 38.86699316666667, "is_reserved": 0, "type": "electric_scooter", "bike_id": "3225815023e882d2bc9eca3b01c7e220", "is_disabled": 0, "rental_uris": {"android": "https://dc.lft.to/lastmile_qr_scan", "ios": "https://dc.lft.to/lastmile_qr_scan"}, "lon": -76.9871375, "fusion_lat": 0.0}, {"name": "bc24622225e9fea8c83c0bb252f8be22", "fusion_lon": 0.0, "lat": 38.931521000000004, "is_reserved": 0, "type": "electric_scooter", "bike_id": "bc24622225e9fea8c83c0bb252f8be22", "is_disabled": 0, "rental_uris": {"android": "https://dc.lft.to/lastmile_qr_scan", "ios": "https://dc.lft.to/lastmile_qr_scan"}, "lon": -77.04370433333334, "fusion_lat": 0.0}, {"name": "59cd2294225f1c33a8be63003b44a23f", "fusion_lon": 0.0, "lat": 38.914675833333334, "is_reserved": 0, "type": "electric_scooter", "bike_id": "59cd2294225f1c33a8be63003b44a23f", "is_disabled": 0, "rental_uris": {"android": "https://dc.lft.to/lastmile_qr_scan", "ios": "https://dc.lft.to/lastmile_qr_scan"}, "lon": -76.98412166666667, "fusion_lat": 0.0}, {"name": "40958cb6663dd6c51951701e0af36a8d", "fusion_lon": 0.0, "lat": 38.94781733333333, "is_reserved": 0, "type": "electric_scooter", "bike_id": "40958cb6663dd6c51951701e0af36a8d", "is_disabled": 0, "rental_uris": {"android": "https://dc.lft.to/lastmile_qr_scan", "ios": "https://dc.lft.to/lastmile_qr_scan"}, "lon": -77.08011366666666, "fusion_lat": 0.0}, {"name": "dc2e856707b330b645f6d95132167007", "fusion_lon": 0.0, "lat": 38.92963666666667, "is_reserved": 0, "type": "electric_scooter", "bike_id": "dc2e856707b330b645f6d95132167007", "is_disabled": 0, "rental_uris": {"android": "https://dc.lft.to/lastmile_qr_scan", "ios": "https://dc.lft.to/lastmile_qr_scan"}, "lon": -77.0274845, "fusion_lat": 0.0}, {"name": "ba6de3af31cd6c1efc01937bc00fa0d0", "fusion_lon": 0.0, "lat": 38.86990483333334, "is_reserved": 0, "type": "electric_scooter", "bike_id": "ba6de3af31cd6c1efc01937bc00fa0d0", "is_disabled": 0, "rental_uris": {"android": "https://dc.lft.to/lastmile_qr_scan", "ios": "https://dc.lft.to/lastmile_qr_scan"}, "lon": -76.97594633333334, "fusion_lat": 0.0}, {"name": "566abf03fc56fcaf1f239e26c5d8a703", "fusion_lon": 0.0, "lat": 38.91593533333333, "is_reserved": 0, "type": "electric_scooter", "bike_id": "566abf03fc56fcaf1f239e26c5d8a703", "is_disabled": 0, "rental_uris": {"android": "https://dc.lft.to/lastmile_qr_scan", "ios": "https://dc.lft.to/lastmile_qr_scan"}, "lon": -77.026969, "fusion_lat": 0.0}, {"name": "fe64058b2adfcffa8cb3860328593295", "fusion_lon": 0.0, "lat": 38.86660716666667, "is_reserved": 0, "type": "electric_scooter", "bike_id": "fe64058b2adfcffa8cb3860328593295", "is_disabled": 0, "rental_uris": {"android": "https://dc.lft.to/lastmile_qr_scan", "ios": "https://dc.lft.to/lastmile_qr_scan"}, "lon": -76.9888775, "fusion_lat": 0.0}, {"name": "ad9149a182d3626f8c88aa90c053edb6", "fusion_lon": 0.0, "lat": 38.9149345, "is_reserved": 0, "type": "electric_scooter", "bike_id": "ad9149a182d3626f8c88aa90c053edb6", "is_disabled": 0, "rental_uris": {"android": "https://dc.lft.to/lastmile_qr_scan", "ios": "https://dc.lft.to/lastmile_qr_scan"}, "lon": -77.0146575, "fusion_lat": 0.0}, {"name": "3b27bae307cab7d02d2c15cb91fd727c", "fusion_lon": 0.0, "lat": 38.91565216666667, "is_reserved": 0, "type": "electric_scooter", "bike_id": "3b27bae307cab7d02d2c15cb91fd727c", "is_disabled": 0, "rental_uris": {"android": "https://dc.lft.to/lastmile_qr_scan", "ios": "https://dc.lft.to/lastmile_qr_scan"}, "lon": -77.0320345, "fusion_lat": 0.0}, {"name": "c15609909e7db8836d077574eba18fde", "fusion_lon": 0.0, "lat": 38.8845335, "is_reserved": 0, "type": "electric_scooter", "bike_id": "c15609909e7db8836d077574eba18fde", "is_disabled": 0, "rental_uris": {"android": "https://dc.lft.to/lastmile_qr_scan", "ios": "https://dc.lft.to/lastmile_qr_scan"}, "lon": -76.95743266666666, "fusion_lat": 0.0}, {"name": "6a6b9c00c5b739717c43cafc26aa80de", "fusion_lon": 0.0, "lat": 38.88132816666667, "is_reserved": 0, "type": "electric_scooter", "bike_id": "6a6b9c00c5b739717c43cafc26aa80de", "is_disabled": 0, "rental_uris": {"android": "https://dc.lft.to/lastmile_qr_scan", "ios": "https://dc.lft.to/lastmile_qr_scan"}, "lon": -76.99571183333333, "fusion_lat": 0.0}, {"name": "f506eb98407f73080ff61e23990aaf5e", "fusion_lon": 0.0, "lat": 38.92657033333333, "is_reserved": 0, "type": "electric_scooter", "bike_id": "f506eb98407f73080ff61e23990aaf5e", "is_disabled": 0, "rental_uris": {"android": "https://dc.lft.to/lastmile_qr_scan", "ios": "https://dc.lft.to/lastmile_qr_scan"}, "lon": -77.00864416666667, "fusion_lat": 0.0}, {"name": "0948838890401210715fa7d4f35acb7d", "fusion_lon": 0.0, "lat": 38.900006166666664, "is_reserved": 0, "type": "electric_scooter", "bike_id": "0948838890401210715fa7d4f35acb7d", "is_disabled": 0, "rental_uris": {"android": "https://dc.lft.to/lastmile_qr_scan", "ios": "https://dc.lft.to/lastmile_qr_scan"}, "lon": -76.99347616666667, "fusion_lat": 0.0}, {"name": "b06d1454c50a8ca217621daf79bb3c14", "fusion_lon": 0.0, "lat": 39.034203833333336, "is_reserved": 0, "type": "electric_bike", "bike_id": "b06d1454c50a8ca217621daf79bb3c14", "is_disabled": 0, "rental_uris": {"android": "https://dc.lft.to/lastmile_qr_scan", "ios": "https://dc.lft.to/lastmile_qr_scan"}, "lon": -77.04282966666666, "fusion_lat": 0.0}, {"name": "f3afce28f9317ffde7646de29ba02a54", "fusion_lon": 0.0, "lat": 38.909895, "is_reserved": 0, "type": "electric_scooter", "bike_id": "f3afce28f9317ffde7646de29ba02a54", "is_disabled": 0, "rental_uris": {"android": "https://dc.lft.to/lastmile_qr_scan", "ios": "https://dc.lft.to/lastmile_qr_scan"}, "lon": -77.04009283333333, "fusion_lat": 0.0}, {"name": "42ed760827b4a4265d2ef4daca0edce0", "fusion_lon": 0.0, "lat": 38.91646983333333, "is_reserved": 0, "type": "electric_scooter", "bike_id": "42ed760827b4a4265d2ef4daca0edce0", "is_disabled": 0, "rental_uris": {"android": "https://dc.lft.to/lastmile_qr_scan", "ios": "https://dc.lft.to/lastmile_qr_scan"}, "lon": -77.021815, "fusion_lat": 0.0}, {"name": "1548ec8544863f7954dafef672f03431", "fusion_lon": 0.0, "lat": 39.05495116666667, "is_reserved": 0, "type": "electric_bike", "bike_id": "1548ec8544863f7954dafef672f03431", "is_disabled": 0, "rental_uris": {"android": "https://dc.lft.to/lastmile_qr_scan", "ios": "https://dc.lft.to/lastmile_qr_scan"}, "lon": -77.11790033333334, "fusion_lat": 0.0}, {"name": "74870f88105a65b798fb708719aa7b86", "fusion_lon": 0.0, "lat": 38.918301, "is_reserved": 0, "type": "electric_scooter", "bike_id": "74870f88105a65b798fb708719aa7b86", "is_disabled": 0, "rental_uris": {"android": "https://dc.lft.to/lastmile_qr_scan", "ios": "https://dc.lft.to/lastmile_qr_scan"}, "lon": -77.04036933333333, "fusion_lat": 0.0}, {"name": "6ee98b951ea8a02c0577b0d4a25f418a", "fusion_lon": 0.0, "lat": 38.899630333333334, "is_reserved": 0, "type": "electric_scooter", "bike_id": "6ee98b951ea8a02c0577b0d4a25f418a", "is_disabled": 0, "rental_uris": {"android": "https://dc.lft.to/lastmile_qr_scan", "ios": "https://dc.lft.to/lastmile_qr_scan"}, "lon": -77.02111366666666, "fusion_lat": 0.0}, {"name": "4628bef2947bacae73d68c4e2f80424a", "fusion_lon": 0.0, "lat": 38.860926, "is_reserved": 0, "type": "electric_scooter", "bike_id": "4628bef2947bacae73d68c4e2f80424a", "is_disabled": 0, "rental_uris": {"android": "https://dc.lft.to/lastmile_qr_scan", "ios": "https://dc.lft.to/lastmile_qr_scan"}, "lon": -76.9690545, "fusion_lat": 0.0}, {"name": "dd328172da3ad06368ccc87f0252500f", "fusion_lon": 0.0, "lat": 38.914176166666664, "is_reserved": 0, "type": "electric_scooter", "bike_id": "dd328172da3ad06368ccc87f0252500f", "is_disabled": 0, "rental_uris": {"android": "https://dc.lft.to/lastmile_qr_scan", "ios": "https://dc.lft.to/lastmile_qr_scan"}, "lon": -77.0450245, "fusion_lat": 0.0}, {"name": "4ca73b73001ef98f68793d84747592a4", "fusion_lon": 0.0, "lat": 38.943050666666664, "is_reserved": 0, "type": "electric_scooter", "bike_id": "4ca73b73001ef98f68793d84747592a4", "is_disabled": 0, "rental_uris": {"android": "https://dc.lft.to/lastmile_qr_scan", "ios": "https://dc.lft.to/lastmile_qr_scan"}, "lon": -77.02746783333333, "fusion_lat": 0.0}, {"name": "30b55ce4aa04d2aec467c56c6bb4e2aa", "fusion_lon": 0.0, "lat": 38.87373816666667, "is_reserved": 0, "type": "electric_scooter", "bike_id": "30b55ce4aa04d2aec467c56c6bb4e2aa", "is_disabled": 0, "rental_uris": {"android": "https://dc.lft.to/lastmile_qr_scan", "ios": "https://dc.lft.to/lastmile_qr_scan"}, "lon": -77.00199033333334, "fusion_lat": 0.0}, {"name": "ddc36df82639f5e64e93fe719b54f14e", "fusion_lon": 0.0, "lat": 38.93232116666667, "is_reserved": 0, "type": "electric_scooter", "bike_id": "ddc36df82639f5e64e93fe719b54f14e", "is_disabled": 0, "rental_uris": {"android": "https://dc.lft.to/lastmile_qr_scan", "ios": "https://dc.lft.to/lastmile_qr_scan"}, "lon": -77.02829, "fusion_lat": 0.0}, {"name": "4a69be6b6a5599bb378de5b93a01280e", "fusion_lon": 0.0, "lat": 38.90860266666667, "is_reserved": 0, "type": "electric_scooter", "bike_id": "4a69be6b6a5599bb378de5b93a01280e", "is_disabled": 0, "rental_uris": {"android": "https://dc.lft.to/lastmile_qr_scan", "ios": "https://dc.lft.to/lastmile_qr_scan"}, "lon": -77.011227, "fusion_lat": 0.0}, {"name": "96e70ca8d2e3df0624163996a121b6a5", "fusion_lon": 0.0, "lat": 38.880417333333334, "is_reserved": 0, "type": "electric_scooter", "bike_id": "96e70ca8d2e3df0624163996a121b6a5", "is_disabled": 0, "rental_uris": {"android": "https://dc.lft.to/lastmile_qr_scan", "ios": "https://dc.lft.to/lastmile_qr_scan"}, "lon": -77.02527033333334, "fusion_lat": 0.0}, {"name": "b0d8d4d26e01e0d9eebb019ff28b414a", "fusion_lon": 0.0, "lat": 38.9294435, "is_reserved": 0, "type": "electric_scooter", "bike_id": "b0d8d4d26e01e0d9eebb019ff28b414a", "is_disabled": 0, "rental_uris": {"android": "https://dc.lft.to/lastmile_qr_scan", "ios": "https://dc.lft.to/lastmile_qr_scan"}, "lon": -77.02278683333333, "fusion_lat": 0.0}, {"name": "3d57233f3a0c8f872a16b66d311fc2af", "fusion_lon": 0.0, "lat": 38.90057433333333, "is_reserved": 0, "type": "electric_scooter", "bike_id": "3d57233f3a0c8f872a16b66d311fc2af", "is_disabled": 0, "rental_uris": {"android": "https://dc.lft.to/lastmile_qr_scan", "ios": "https://dc.lft.to/lastmile_qr_scan"}, "lon": -77.02181116666667, "fusion_lat": 0.0}, {"name": "3eb3ecfaea01c31726e96dd68df76bf3", "fusion_lon": 0.0, "lat": 38.83574316666667, "is_reserved": 0, "type": "electric_scooter", "bike_id": "3eb3ecfaea01c31726e96dd68df76bf3", "is_disabled": 0, "rental_uris": {"android": "https://dc.lft.to/lastmile_qr_scan", "ios": "https://dc.lft.to/lastmile_qr_scan"}, "lon": -76.9948605, "fusion_lat": 0.0}, {"name": "76470f2ff4cbf8c4eef65f015625c97c", "fusion_lon": 0.0, "lat": 38.91247833333333, "is_reserved": 0, "type": "electric_scooter", "bike_id": "76470f2ff4cbf8c4eef65f015625c97c", "is_disabled": 0, "rental_uris": {"android": "https://dc.lft.to/lastmile_qr_scan", "ios": "https://dc.lft.to/lastmile_qr_scan"}, "lon": -77.03407466666667, "fusion_lat": 0.0}, {"name": "ba68aef59d20bcba8daa6d4fd435ba8a", "fusion_lon": 0.0, "lat": 38.91551166666667, "is_reserved": 0, "type": "electric_scooter", "bike_id": "ba68aef59d20bcba8daa6d4fd435ba8a", "is_disabled": 0, "rental_uris": {"android": "https://dc.lft.to/lastmile_qr_scan", "ios": "https://dc.lft.to/lastmile_qr_scan"}, "lon": -77.025507, "fusion_lat": 0.0}, {"name": "304bc62fdd042f19f95a3c5cb123a1bf", "fusion_lon": 0.0, "lat": 38.90624666666667, "is_reserved": 0, "type": "electric_scooter", "bike_id": "304bc62fdd042f19f95a3c5cb123a1bf", "is_disabled": 0, "rental_uris": {"android": "https://dc.lft.to/lastmile_qr_scan", "ios": "https://dc.lft.to/lastmile_qr_scan"}, "lon": -77.03136, "fusion_lat": 0.0}, {"name": "c167079bbb7635e2dce1a616b362dd38", "fusion_lon": 0.0, "lat": 38.920675, "is_reserved": 0, "type": "electric_scooter", "bike_id": "c167079bbb7635e2dce1a616b362dd38", "is_disabled": 0, "rental_uris": {"android": "https://dc.lft.to/lastmile_qr_scan", "ios": "https://dc.lft.to/lastmile_qr_scan"}, "lon": -77.0319035, "fusion_lat": 0.0}, {"name": "b9abaef7b4d8dfd97a8088770a242e3e", "fusion_lon": 0.0, "lat": 38.90498133333333, "is_reserved": 0, "type": "electric_scooter", "bike_id": "b9abaef7b4d8dfd97a8088770a242e3e", "is_disabled": 0, "rental_uris": {"android": "https://dc.lft.to/lastmile_qr_scan", "ios": "https://dc.lft.to/lastmile_qr_scan"}, "lon": -77.03871266666667, "fusion_lat": 0.0}, {"name": "18f05335167fc29966d8e8adeb2b2fbb", "fusion_lon": 0.0, "lat": 38.896245, "is_reserved": 0, "type": "electric_scooter", "bike_id": "18f05335167fc29966d8e8adeb2b2fbb", "is_disabled": 0, "rental_uris": {"android": "https://dc.lft.to/lastmile_qr_scan", "ios": "https://dc.lft.to/lastmile_qr_scan"}, "lon": -77.025938, "fusion_lat": 0.0}, {"name": "88c86a58df1c5bd15abee945a4300b15", "fusion_lon": 0.0, "lat": 38.934078166666666, "is_reserved": 0, "type": "electric_bike", "bike_id": "88c86a58df1c5bd15abee945a4300b15", "is_disabled": 0, "rental_uris": {"android": "https://dc.lft.to/lastmile_qr_scan", "ios": "https://dc.lft.to/lastmile_qr_scan"}, "lon": -77.07252933333334, "fusion_lat": 0.0}, {"name": "9bc9ea188f3f204cdfd707556d51575f", "fusion_lon": 0.0, "lat": 38.911144666666665, "is_reserved": 0, "type": "electric_scooter", "bike_id": "9bc9ea188f3f204cdfd707556d51575f", "is_disabled": 0, "rental_uris": {"android": "https://dc.lft.to/lastmile_qr_scan", "ios": "https://dc.lft.to/lastmile_qr_scan"}, "lon": -77.03173416666667, "fusion_lat": 0.0}, {"name": "520fabadc59c4062ac9a34942f34518a", "fusion_lon": 0.0, "lat": 38.905428666666666, "is_reserved": 0, "type": "electric_scooter", "bike_id": "520fabadc59c4062ac9a34942f34518a", "is_disabled": 0, "rental_uris": {"android": "https://dc.lft.to/lastmile_qr_scan", "ios": "https://dc.lft.to/lastmile_qr_scan"}, "lon": -77.039855, "fusion_lat": 0.0}, {"name": "e3426c963f9d990d1e9177ab84469f8e", "fusion_lon": 0.0, "lat": 38.901339666666665, "is_reserved": 0, "type": "electric_scooter", "bike_id": "e3426c963f9d990d1e9177ab84469f8e", "is_disabled": 0, "rental_uris": {"android": "https://dc.lft.to/lastmile_qr_scan", "ios": "https://dc.lft.to/lastmile_qr_scan"}, "lon": -77.04328833333334, "fusion_lat": 0.0}, {"name": "16730f0692ef6257aa03eb8f49b2ad53", "fusion_lon": 0.0, "lat": 38.90625716666667, "is_reserved": 0, "type": "electric_bike", "bike_id": "16730f0692ef6257aa03eb8f49b2ad53", "is_disabled": 0, "rental_uris": {"android": "https://dc.lft.to/lastmile_qr_scan", "ios": "https://dc.lft.to/lastmile_qr_scan"}, "lon": -76.98607066666666, "fusion_lat": 0.0}, {"name": "10efeb26b0ee067fe9f59938284d06d4", "fusion_lon": 0.0, "lat": 38.91675883333333, "is_reserved": 0, "type": "electric_scooter", "bike_id": "10efeb26b0ee067fe9f59938284d06d4", "is_disabled": 0, "rental_uris": {"android": "https://dc.lft.to/lastmile_qr_scan", "ios": "https://dc.lft.to/lastmile_qr_scan"}, "lon": -77.02981066666666, "fusion_lat": 0.0}, {"name": "bf4314d8ccc38884d31e93dda1a264b1", "fusion_lon": 0.0, "lat": 38.91248383333333, "is_reserved": 0, "type": "electric_scooter", "bike_id": "bf4314d8ccc38884d31e93dda1a264b1", "is_disabled": 0, "rental_uris": {"android": "https://dc.lft.to/lastmile_qr_scan", "ios": "https://dc.lft.to/lastmile_qr_scan"}, "lon": -77.034158, "fusion_lat": 0.0}, {"name": "f8f98494cfc9e17ae91d509d5de377b8", "fusion_lon": 0.0, "lat": 38.94198083333333, "is_reserved": 0, "type": "electric_scooter", "bike_id": "f8f98494cfc9e17ae91d509d5de377b8", "is_disabled": 0, "rental_uris": {"android": "https://dc.lft.to/lastmile_qr_scan", "ios": "https://dc.lft.to/lastmile_qr_scan"}, "lon": -77.02511583333333, "fusion_lat": 0.0}, {"name": "ecf01ee83e846cc6926c2bad84ab1f42", "fusion_lon": 0.0, "lat": 38.9026785, "is_reserved": 0, "type": "electric_scooter", "bike_id": "ecf01ee83e846cc6926c2bad84ab1f42", "is_disabled": 0, "rental_uris": {"android": "https://dc.lft.to/lastmile_qr_scan", "ios": "https://dc.lft.to/lastmile_qr_scan"}, "lon": -77.04115066666667, "fusion_lat": 0.0}, {"name": "41cc50f284ac78116f2dc2081c4fc435", "fusion_lon": 0.0, "lat": 38.91146583333333, "is_reserved": 0, "type": "electric_scooter", "bike_id": "41cc50f284ac78116f2dc2081c4fc435", "is_disabled": 0, "rental_uris": {"android": "https://dc.lft.to/lastmile_qr_scan", "ios": "https://dc.lft.to/lastmile_qr_scan"}, "lon": -77.023846, "fusion_lat": 0.0}, {"name": "83f59b059dac229b653ee0cc27f252dc", "fusion_lon": 0.0, "lat": 38.919345166666666, "is_reserved": 0, "type": "electric_scooter", "bike_id": "83f59b059dac229b653ee0cc27f252dc", "is_disabled": 0, "rental_uris": {"android": "https://dc.lft.to/lastmile_qr_scan", "ios": "https://dc.lft.to/lastmile_qr_scan"}, "lon": -77.03433516666666, "fusion_lat": 0.0}, {"name": "cf89b521217fe46a2ebe37b4ef4904d2", "fusion_lon": 0.0, "lat": 38.90803733333333, "is_reserved": 0, "type": "electric_scooter", "bike_id": "cf89b521217fe46a2ebe37b4ef4904d2", "is_disabled": 0, "rental_uris": {"android": "https://dc.lft.to/lastmile_qr_scan", "ios": "https://dc.lft.to/lastmile_qr_scan"}, "lon": -77.04293116666666, "fusion_lat": 0.0}, {"name": "dd902c1a8a68b4468c9003b3bc297f5b", "fusion_lon": 0.0, "lat": 38.91375933333333, "is_reserved": 0, "type": "electric_scooter", "bike_id": "dd902c1a8a68b4468c9003b3bc297f5b", "is_disabled": 0, "rental_uris": {"android": "https://dc.lft.to/lastmile_qr_scan", "ios": "https://dc.lft.to/lastmile_qr_scan"}, "lon": -77.01420516666667, "fusion_lat": 0.0}, {"name": "4aba5807bef40f2717abe122bf169c13", "fusion_lon": 0.0, "lat": 38.905477166666664, "is_reserved": 0, "type": "electric_scooter", "bike_id": "4aba5807bef40f2717abe122bf169c13", "is_disabled": 0, "rental_uris": {"android": "https://dc.lft.to/lastmile_qr_scan", "ios": "https://dc.lft.to/lastmile_qr_scan"}, "lon": -77.00584633333334, "fusion_lat": 0.0}, {"name": "e9f063b67fa44a04732fe99a81268906", "fusion_lon": 0.0, "lat": 38.9174055, "is_reserved": 0, "type": "electric_scooter", "bike_id": "e9f063b67fa44a04732fe99a81268906", "is_disabled": 0, "rental_uris": {"android": "https://dc.lft.to/lastmile_qr_scan", "ios": "https://dc.lft.to/lastmile_qr_scan"}, "lon": -77.0364235, "fusion_lat": 0.0}, {"name": "54090da35a40d6df10afdc61d895e403", "fusion_lon": 0.0, "lat": 38.917675, "is_reserved": 0, "type": "electric_scooter", "bike_id": "54090da35a40d6df10afdc61d895e403", "is_disabled": 0, "rental_uris": {"android": "https://dc.lft.to/lastmile_qr_scan", "ios": "https://dc.lft.to/lastmile_qr_scan"}, "lon": -77.04771766666667, "fusion_lat": 0.0}, {"name": "7a30acce26e84b578634d19a48109347", "fusion_lon": 0.0, "lat": 38.865157333333336, "is_reserved": 0, "type": "electric_bike", "bike_id": "7a30acce26e84b578634d19a48109347", "is_disabled": 0, "rental_uris": {"android": "https://dc.lft.to/lastmile_qr_scan", "ios": "https://dc.lft.to/lastmile_qr_scan"}, "lon": -76.97335466666667, "fusion_lat": 0.0}, {"name": "2df0e268b73608e81673189f7b60a16b", "fusion_lon": 0.0, "lat": 38.89714633333333, "is_reserved": 0, "type": "electric_scooter", "bike_id": "2df0e268b73608e81673189f7b60a16b", "is_disabled": 0, "rental_uris": {"android": "https://dc.lft.to/lastmile_qr_scan", "ios": "https://dc.lft.to/lastmile_qr_scan"}, "lon": -77.00782966666667, "fusion_lat": 0.0}, {"name": "cf9dd68e8a1e2bce0037fa304d45933e", "fusion_lon": 0.0, "lat": 38.926633, "is_reserved": 0, "type": "electric_scooter", "bike_id": "cf9dd68e8a1e2bce0037fa304d45933e", "is_disabled": 0, "rental_uris": {"android": "https://dc.lft.to/lastmile_qr_scan", "ios": "https://dc.lft.to/lastmile_qr_scan"}, "lon": -76.99541783333333, "fusion_lat": 0.0}, {"name": "9222ea4b92023ddc5dd8e5118dc8372b", "fusion_lon": 0.0, "lat": 38.9168935, "is_reserved": 0, "type": "electric_scooter", "bike_id": "9222ea4b92023ddc5dd8e5118dc8372b", "is_disabled": 0, "rental_uris": {"android": "https://dc.lft.to/lastmile_qr_scan", "ios": "https://dc.lft.to/lastmile_qr_scan"}, "lon": -77.0312275, "fusion_lat": 0.0}, {"name": "a135548c5daa7948f5d295b6fb336228", "fusion_lon": 0.0, "lat": 38.9215895, "is_reserved": 0, "type": "electric_scooter", "bike_id": "a135548c5daa7948f5d295b6fb336228", "is_disabled": 0, "rental_uris": {"android": "https://dc.lft.to/lastmile_qr_scan", "ios": "https://dc.lft.to/lastmile_qr_scan"}, "lon": -77.03513533333333, "fusion_lat": 0.0}, {"name": "84090c46e188ade6421bd7ea69b1dadd", "fusion_lon": 0.0, "lat": 38.8771975, "is_reserved": 0, "type": "electric_scooter", "bike_id": "84090c46e188ade6421bd7ea69b1dadd", "is_disabled": 0, "rental_uris": {"android": "https://dc.lft.to/lastmile_qr_scan", "ios": "https://dc.lft.to/lastmile_qr_scan"}, "lon": -77.01749033333333, "fusion_lat": 0.0}, {"name": "6e967642876ac0cf60d80dc2fa544fc3", "fusion_lon": 0.0, "lat": 38.904453833333335, "is_reserved": 0, "type": "electric_scooter", "bike_id": "6e967642876ac0cf60d80dc2fa544fc3", "is_disabled": 0, "rental_uris": {"android": "https://dc.lft.to/lastmile_qr_scan", "ios": "https://dc.lft.to/lastmile_qr_scan"}, "lon": -76.99640833333333, "fusion_lat": 0.0}, {"name": "b56ae7ada7069c7912a5e57d01631f7a", "fusion_lon": 0.0, "lat": 38.887438833333334, "is_reserved": 0, "type": "electric_scooter", "bike_id": "b56ae7ada7069c7912a5e57d01631f7a", "is_disabled": 0, "rental_uris": {"android": "https://dc.lft.to/lastmile_qr_scan", "ios": "https://dc.lft.to/lastmile_qr_scan"}, "lon": -77.02732933333333, "fusion_lat": 0.0}, {"name": "4a0b46693a81ab0aa5c0dc92a594e1bc", "fusion_lon": 0.0, "lat": 38.908871, "is_reserved": 0, "type": "electric_scooter", "bike_id": "4a0b46693a81ab0aa5c0dc92a594e1bc", "is_disabled": 0, "rental_uris": {"android": "https://dc.lft.to/lastmile_qr_scan", "ios": "https://dc.lft.to/lastmile_qr_scan"}, "lon": -76.9853655, "fusion_lat": 0.0}, {"name": "0888aee06a432e525331c17757e07afd", "fusion_lon": 0.0, "lat": 38.88747933333333, "is_reserved": 0, "type": "electric_scooter", "bike_id": "0888aee06a432e525331c17757e07afd", "is_disabled": 0, "rental_uris": {"android": "https://dc.lft.to/lastmile_qr_scan", "ios": "https://dc.lft.to/lastmile_qr_scan"}, "lon": -77.02732166666667, "fusion_lat": 0.0}, {"name": "170b252ff14be1850ae1700a5880c7cc", "fusion_lon": 0.0, "lat": 38.935317, "is_reserved": 0, "type": "electric_scooter", "bike_id": "170b252ff14be1850ae1700a5880c7cc", "is_disabled": 0, "rental_uris": {"android": "https://dc.lft.to/lastmile_qr_scan", "ios": "https://dc.lft.to/lastmile_qr_scan"}, "lon": -77.02357433333333, "fusion_lat": 0.0}, {"name": "013dd8b2d63cd8920c322650a8716bf2", "fusion_lon": 0.0, "lat": 38.9211485, "is_reserved": 0, "type": "electric_scooter", "bike_id": "013dd8b2d63cd8920c322650a8716bf2", "is_disabled": 0, "rental_uris": {"android": "https://dc.lft.to/lastmile_qr_scan", "ios": "https://dc.lft.to/lastmile_qr_scan"}, "lon": -77.01698466666667, "fusion_lat": 0.0}, {"name": "384851273ec0b3951aa59b8f1d7e803a", "fusion_lon": 0.0, "lat": 38.903397166666664, "is_reserved": 0, "type": "electric_scooter", "bike_id": "384851273ec0b3951aa59b8f1d7e803a", "is_disabled": 0, "rental_uris": {"android": "https://dc.lft.to/lastmile_qr_scan", "ios": "https://dc.lft.to/lastmile_qr_scan"}, "lon": -76.98508266666667, "fusion_lat": 0.0}, {"name": "d0265578daf6627383c99dfe37507945", "fusion_lon": 0.0, "lat": 38.909656, "is_reserved": 0, "type": "electric_scooter", "bike_id": "d0265578daf6627383c99dfe37507945", "is_disabled": 0, "rental_uris": {"android": "https://dc.lft.to/lastmile_qr_scan", "ios": "https://dc.lft.to/lastmile_qr_scan"}, "lon": -77.039818, "fusion_lat": 0.0}, {"name": "061916b0bfc114fd61ffa275a8d49dd1", "fusion_lon": 0.0, "lat": 38.886758, "is_reserved": 0, "type": "electric_scooter", "bike_id": "061916b0bfc114fd61ffa275a8d49dd1", "is_disabled": 0, "rental_uris": {"android": "https://dc.lft.to/lastmile_qr_scan", "ios": "https://dc.lft.to/lastmile_qr_scan"}, "lon": -76.95458733333334, "fusion_lat": 0.0}, {"name": "981bf230d0a0255a636244b5ba3ee7d2", "fusion_lon": 0.0, "lat": 38.9204105, "is_reserved": 0, "type": "electric_scooter", "bike_id": "981bf230d0a0255a636244b5ba3ee7d2", "is_disabled": 0, "rental_uris": {"android": "https://dc.lft.to/lastmile_qr_scan", "ios": "https://dc.lft.to/lastmile_qr_scan"}, "lon": -77.029876, "fusion_lat": 0.0}, {"name": "b46fd59a255e3010810952baf0960058", "fusion_lon": 0.0, "lat": 38.91551233333333, "is_reserved": 0, "type": "electric_scooter", "bike_id": "b46fd59a255e3010810952baf0960058", "is_disabled": 0, "rental_uris": {"android": "https://dc.lft.to/lastmile_qr_scan", "ios": "https://dc.lft.to/lastmile_qr_scan"}, "lon": -77.02207283333334, "fusion_lat": 0.0}, {"name": "e769b9f2a64ee91d535dc04278fdb435", "fusion_lon": 0.0, "lat": 38.86341566666667, "is_reserved": 0, "type": "electric_scooter", "bike_id": "e769b9f2a64ee91d535dc04278fdb435", "is_disabled": 0, "rental_uris": {"android": "https://dc.lft.to/lastmile_qr_scan", "ios": "https://dc.lft.to/lastmile_qr_scan"}, "lon": -76.98706483333333, "fusion_lat": 0.0}, {"name": "cf778e84693f83e57133df4c31842f7a", "fusion_lon": 0.0, "lat": 38.87635483333333, "is_reserved": 0, "type": "electric_scooter", "bike_id": "cf778e84693f83e57133df4c31842f7a", "is_disabled": 0, "rental_uris": {"android": "https://dc.lft.to/lastmile_qr_scan", "ios": "https://dc.lft.to/lastmile_qr_scan"}, "lon": -77.0045295, "fusion_lat": 0.0}, {"name": "462bfee163b5758ba5729381caa9baad", "fusion_lon": 0.0, "lat": 38.892307333333335, "is_reserved": 0, "type": "electric_scooter", "bike_id": "462bfee163b5758ba5729381caa9baad", "is_disabled": 0, "rental_uris": {"android": "https://dc.lft.to/lastmile_qr_scan", "ios": "https://dc.lft.to/lastmile_qr_scan"}, "lon": -77.0312415, "fusion_lat": 0.0}, {"name": "cd6e46210ec3cbf030d5a87cd876aba2", "fusion_lon": 0.0, "lat": 38.9245205, "is_reserved": 0, "type": "electric_scooter", "bike_id": "cd6e46210ec3cbf030d5a87cd876aba2", "is_disabled": 0, "rental_uris": {"android": "https://dc.lft.to/lastmile_qr_scan", "ios": "https://dc.lft.to/lastmile_qr_scan"}, "lon": -77.03970166666667, "fusion_lat": 0.0}, {"name": "c52ceb951c7738f3bfff4ebf5f76a061", "fusion_lon": 0.0, "lat": 38.90261516666666, "is_reserved": 0, "type": "electric_scooter", "bike_id": "c52ceb951c7738f3bfff4ebf5f76a061", "is_disabled": 0, "rental_uris": {"android": "https://dc.lft.to/lastmile_qr_scan", "ios": "https://dc.lft.to/lastmile_qr_scan"}, "lon": -77.03943916666667, "fusion_lat": 0.0}, {"name": "45eb3e65071257f18aae760e573de69c", "fusion_lon": 0.0, "lat": 38.90835466666667, "is_reserved": 0, "type": "electric_bike", "bike_id": "45eb3e65071257f18aae760e573de69c", "is_disabled": 0, "rental_uris": {"android": "https://dc.lft.to/lastmile_qr_scan", "ios": "https://dc.lft.to/lastmile_qr_scan"}, "lon": -76.9330385, "fusion_lat": 0.0}, {"name": "57a1fc8a88b6728ff6e9c2eaa44ffc51", "fusion_lon": 0.0, "lat": 38.910607166666665, "is_reserved": 0, "type": "electric_scooter", "bike_id": "57a1fc8a88b6728ff6e9c2eaa44ffc51", "is_disabled": 0, "rental_uris": {"android": "https://dc.lft.to/lastmile_qr_scan", "ios": "https://dc.lft.to/lastmile_qr_scan"}, "lon": -77.0383925, "fusion_lat": 0.0}, {"name": "89325e73adc97fc23f0695a92771ad2c", "fusion_lon": 0.0, "lat": 38.892669, "is_reserved": 0, "type": "electric_scooter", "bike_id": "89325e73adc97fc23f0695a92771ad2c", "is_disabled": 0, "rental_uris": {"android": "https://dc.lft.to/lastmile_qr_scan", "ios": "https://dc.lft.to/lastmile_qr_scan"}, "lon": -77.00339283333334, "fusion_lat": 0.0}, {"name": "489cfef76c70f41291493f147d71dc23", "fusion_lon": 0.0, "lat": 38.838259, "is_reserved": 0, "type": "electric_bike", "bike_id": "489cfef76c70f41291493f147d71dc23", "is_disabled": 0, "rental_uris": {"android": "https://dc.lft.to/lastmile_qr_scan", "ios": "https://dc.lft.to/lastmile_qr_scan"}, "lon": -77.07907683333333, "fusion_lat": 0.0}, {"name": "b2768495bda309c83ecb1dac36983063", "fusion_lon": 0.0, "lat": 38.8765665, "is_reserved": 0, "type": "electric_scooter", "bike_id": "b2768495bda309c83ecb1dac36983063", "is_disabled": 0, "rental_uris": {"android": "https://dc.lft.to/lastmile_qr_scan", "ios": "https://dc.lft.to/lastmile_qr_scan"}, "lon": -77.00600766666666, "fusion_lat": 0.0}, {"name": "269cc60660cd19b4dc9aea6b2ac87470", "fusion_lon": 0.0, "lat": 38.90065716666667, "is_reserved": 0, "type": "electric_scooter", "bike_id": "269cc60660cd19b4dc9aea6b2ac87470", "is_disabled": 0, "rental_uris": {"android": "https://dc.lft.to/lastmile_qr_scan", "ios": "https://dc.lft.to/lastmile_qr_scan"}, "lon": -77.0020915, "fusion_lat": 0.0}, {"name": "f3ed00254ba547110350fd8fdfa88810", "fusion_lon": 0.0, "lat": 38.940344333333336, "is_reserved": 0, "type": "electric_scooter", "bike_id": "f3ed00254ba547110350fd8fdfa88810", "is_disabled": 0, "rental_uris": {"android": "https://dc.lft.to/lastmile_qr_scan", "ios": "https://dc.lft.to/lastmile_qr_scan"}, "lon": -77.02911766666666, "fusion_lat": 0.0}, {"name": "3489b772e5177a6367d3ba14784575c3", "fusion_lon": 0.0, "lat": 38.884035833333336, "is_reserved": 0, "type": "electric_scooter", "bike_id": "3489b772e5177a6367d3ba14784575c3", "is_disabled": 0, "rental_uris": {"android": "https://dc.lft.to/lastmile_qr_scan", "ios": "https://dc.lft.to/lastmile_qr_scan"}, "lon": -76.95396266666667, "fusion_lat": 0.0}, {"name": "c5cf955f905e35f10270efcd3d09258f", "fusion_lon": 0.0, "lat": 38.87716266666666, "is_reserved": 0, "type": "electric_scooter", "bike_id": "c5cf955f905e35f10270efcd3d09258f", "is_disabled": 0, "rental_uris": {"android": "https://dc.lft.to/lastmile_qr_scan", "ios": "https://dc.lft.to/lastmile_qr_scan"}, "lon": -77.01761083333334, "fusion_lat": 0.0}, {"name": "3e45698b74e1f47b6bba104f0c724866", "fusion_lon": 0.0, "lat": 38.9006615, "is_reserved": 0, "type": "electric_scooter", "bike_id": "3e45698b74e1f47b6bba104f0c724866", "is_disabled": 0, "rental_uris": {"android": "https://dc.lft.to/lastmile_qr_scan", "ios": "https://dc.lft.to/lastmile_qr_scan"}, "lon": -77.030857, "fusion_lat": 0.0}, {"name": "5a3a03cec0e9ca4cb7f17c5c88ac91e3", "fusion_lon": 0.0, "lat": 38.9244535, "is_reserved": 0, "type": "electric_bike", "bike_id": "5a3a03cec0e9ca4cb7f17c5c88ac91e3", "is_disabled": 0, "rental_uris": {"android": "https://dc.lft.to/lastmile_qr_scan", "ios": "https://dc.lft.to/lastmile_qr_scan"}, "lon": -77.22577333333334, "fusion_lat": 0.0}, {"name": "31b876a1ad13b723b64cba6c8f86c345", "fusion_lon": 0.0, "lat": 38.913203333333335, "is_reserved": 0, "type": "electric_scooter", "bike_id": "31b876a1ad13b723b64cba6c8f86c345", "is_disabled": 0, "rental_uris": {"android": "https://dc.lft.to/lastmile_qr_scan", "ios": "https://dc.lft.to/lastmile_qr_scan"}, "lon": -76.984992, "fusion_lat": 0.0}, {"name": "ed7b057be2fc74c2a5e396c4bab20ff3", "fusion_lon": 0.0, "lat": 38.898754333333336, "is_reserved": 0, "type": "electric_scooter", "bike_id": "ed7b057be2fc74c2a5e396c4bab20ff3", "is_disabled": 0, "rental_uris": {"android": "https://dc.lft.to/lastmile_qr_scan", "ios": "https://dc.lft.to/lastmile_qr_scan"}, "lon": -76.93187916666666, "fusion_lat": 0.0}, {"name": "c911c6d4280ddfc4cea3c45d0abf627f", "fusion_lon": 0.0, "lat": 38.8745275, "is_reserved": 0, "type": "electric_scooter", "bike_id": "c911c6d4280ddfc4cea3c45d0abf627f", "is_disabled": 0, "rental_uris": {"android": "https://dc.lft.to/lastmile_qr_scan", "ios": "https://dc.lft.to/lastmile_qr_scan"}, "lon": -77.00279583333334, "fusion_lat": 0.0}, {"name": "7614e81469f724b2ecdc44114227ee26", "fusion_lon": 0.0, "lat": 38.902117, "is_reserved": 0, "type": "electric_scooter", "bike_id": "7614e81469f724b2ecdc44114227ee26", "is_disabled": 0, "rental_uris": {"android": "https://dc.lft.to/lastmile_qr_scan", "ios": "https://dc.lft.to/lastmile_qr_scan"}, "lon": -77.021483, "fusion_lat": 0.0}, {"name": "dc73e4a1321c80f7b77d848beec378ad", "fusion_lon": 0.0, "lat": 38.90361383333333, "is_reserved": 0, "type": "electric_scooter", "bike_id": "dc73e4a1321c80f7b77d848beec378ad", "is_disabled": 0, "rental_uris": {"android": "https://dc.lft.to/lastmile_qr_scan", "ios": "https://dc.lft.to/lastmile_qr_scan"}, "lon": -77.04194416666667, "fusion_lat": 0.0}, {"name": "76034f6959c495a74e91bdc696beb0f1", "fusion_lon": 0.0, "lat": 38.837945833333336, "is_reserved": 0, "type": "electric_bike", "bike_id": "76034f6959c495a74e91bdc696beb0f1", "is_disabled": 0, "rental_uris": {"android": "https://dc.lft.to/lastmile_qr_scan", "ios": "https://dc.lft.to/lastmile_qr_scan"}, "lon": -76.9973745, "fusion_lat": 0.0}, {"name": "31e8dc026a85ba95f64c107bc809f2cd", "fusion_lon": 0.0, "lat": 38.87056616666667, "is_reserved": 0, "type": "electric_scooter", "bike_id": "31e8dc026a85ba95f64c107bc809f2cd", "is_disabled": 0, "rental_uris": {"android": "https://dc.lft.to/lastmile_qr_scan", "ios": "https://dc.lft.to/lastmile_qr_scan"}, "lon": -76.98079916666667, "fusion_lat": 0.0}, {"name": "bb6b8ec3805bc56be5fac57ae50b6285", "fusion_lon": 0.0, "lat": 38.89249, "is_reserved": 0, "type": "electric_bike", "bike_id": "bb6b8ec3805bc56be5fac57ae50b6285", "is_disabled": 0, "rental_uris": {"android": "https://dc.lft.to/lastmile_qr_scan", "ios": "https://dc.lft.to/lastmile_qr_scan"}, "lon": -76.98540466666667, "fusion_lat": 0.0}, {"name": "cc2fdaae948c3832cc8549b4667e17b7", "fusion_lon": 0.0, "lat": 38.92396566666667, "is_reserved": 0, "type": "electric_scooter", "bike_id": "cc2fdaae948c3832cc8549b4667e17b7", "is_disabled": 0, "rental_uris": {"android": "https://dc.lft.to/lastmile_qr_scan", "ios": "https://dc.lft.to/lastmile_qr_scan"}, "lon": -77.02144016666666, "fusion_lat": 0.0}, {"name": "0115c753979b2b06fd54535be39976c1", "fusion_lon": 0.0, "lat": 38.872779333333334, "is_reserved": 0, "type": "electric_bike", "bike_id": "0115c753979b2b06fd54535be39976c1", "is_disabled": 0, "rental_uris": {"android": "https://dc.lft.to/lastmile_qr_scan", "ios": "https://dc.lft.to/lastmile_qr_scan"}, "lon": -77.23323116666667, "fusion_lat": 0.0}, {"name": "bad52634f72f831503858473695d74bf", "fusion_lon": 0.0, "lat": 38.88057583333333, "is_reserved": 0, "type": "electric_bike", "bike_id": "bad52634f72f831503858473695d74bf", "is_disabled": 0, "rental_uris": {"android": "https://dc.lft.to/lastmile_qr_scan", "ios": "https://dc.lft.to/lastmile_qr_scan"}, "lon": -76.96233066666667, "fusion_lat": 0.0}, {"name": "3cc999d9050859fe753a7b72f8b40cfe", "fusion_lon": 0.0, "lat": 38.885129, "is_reserved": 0, "type": "electric_scooter", "bike_id": "3cc999d9050859fe753a7b72f8b40cfe", "is_disabled": 0, "rental_uris": {"android": "https://dc.lft.to/lastmile_qr_scan", "ios": "https://dc.lft.to/lastmile_qr_scan"}, "lon": -77.00561966666666, "fusion_lat": 0.0}, {"name": "fbfc88a285585d5096fa79fb8a1567d5", "fusion_lon": 0.0, "lat": 38.90597266666666, "is_reserved": 0, "type": "electric_scooter", "bike_id": "fbfc88a285585d5096fa79fb8a1567d5", "is_disabled": 0, "rental_uris": {"android": "https://dc.lft.to/lastmile_qr_scan", "ios": "https://dc.lft.to/lastmile_qr_scan"}, "lon": -77.056826, "fusion_lat": 0.0}, {"name": "a851834fc12f21d1691b7a4ebc87cb41", "fusion_lon": 0.0, "lat": 38.91307066666667, "is_reserved": 0, "type": "electric_scooter", "bike_id": "a851834fc12f21d1691b7a4ebc87cb41", "is_disabled": 0, "rental_uris": {"android": "https://dc.lft.to/lastmile_qr_scan", "ios": "https://dc.lft.to/lastmile_qr_scan"}, "lon": -77.03646366666666, "fusion_lat": 0.0}, {"name": "86405fdb6b0434b9ffe4b1a6040ea435", "fusion_lon": 0.0, "lat": 38.923087833333334, "is_reserved": 0, "type": "electric_scooter", "bike_id": "86405fdb6b0434b9ffe4b1a6040ea435", "is_disabled": 0, "rental_uris": {"android": "https://dc.lft.to/lastmile_qr_scan", "ios": "https://dc.lft.to/lastmile_qr_scan"}, "lon": -77.027581, "fusion_lat": 0.0}, {"name": "cc9718293fb01569cec44ea3cca3cacc", "fusion_lon": 0.0, "lat": 38.91562833333333, "is_reserved": 0, "type": "electric_scooter", "bike_id": "cc9718293fb01569cec44ea3cca3cacc", "is_disabled": 0, "rental_uris": {"android": "https://dc.lft.to/lastmile_qr_scan", "ios": "https://dc.lft.to/lastmile_qr_scan"}, "lon": -77.0402265, "fusion_lat": 0.0}, {"name": "60b6b46abb698ddf2842b12022f4b642", "fusion_lon": 0.0, "lat": 38.942012166666665, "is_reserved": 0, "type": "electric_scooter", "bike_id": "60b6b46abb698ddf2842b12022f4b642", "is_disabled": 0, "rental_uris": {"android": "https://dc.lft.to/lastmile_qr_scan", "ios": "https://dc.lft.to/lastmile_qr_scan"}, "lon": -77.0251095, "fusion_lat": 0.0}, {"name": "6f5476ec3272b9ef9256d6e989d1d027", "fusion_lon": 0.0, "lat": 38.86253983333334, "is_reserved": 0, "type": "electric_scooter", "bike_id": "6f5476ec3272b9ef9256d6e989d1d027", "is_disabled": 0, "rental_uris": {"android": "https://dc.lft.to/lastmile_qr_scan", "ios": "https://dc.lft.to/lastmile_qr_scan"}, "lon": -76.99514133333334, "fusion_lat": 0.0}, {"name": "c161925bb42db5f55eed26dce9c43469", "fusion_lon": 0.0, "lat": 38.89815083333333, "is_reserved": 0, "type": "electric_scooter", "bike_id": "c161925bb42db5f55eed26dce9c43469", "is_disabled": 0, "rental_uris": {"android": "https://dc.lft.to/lastmile_qr_scan", "ios": "https://dc.lft.to/lastmile_qr_scan"}, "lon": -77.033204, "fusion_lat": 0.0}, {"name": "6bfa4c5f8709e47c4060d1ea63dfbbd9", "fusion_lon": 0.0, "lat": 38.9101665, "is_reserved": 0, "type": "electric_bike", "bike_id": "6bfa4c5f8709e47c4060d1ea63dfbbd9", "is_disabled": 0, "rental_uris": {"android": "https://dc.lft.to/lastmile_qr_scan", "ios": "https://dc.lft.to/lastmile_qr_scan"}, "lon": -77.22802166666666, "fusion_lat": 0.0}, {"name": "452635a38cda2f59c80fc2b66929f910", "fusion_lon": 0.0, "lat": 38.914127666666666, "is_reserved": 0, "type": "electric_bike", "bike_id": "452635a38cda2f59c80fc2b66929f910", "is_disabled": 0, "rental_uris": {"android": "https://dc.lft.to/lastmile_qr_scan", "ios": "https://dc.lft.to/lastmile_qr_scan"}, "lon": -77.03817833333333, "fusion_lat": 0.0}, {"name": "311b1865514567154694689216780c2f", "fusion_lon": 0.0, "lat": 38.893222333333334, "is_reserved": 0, "type": "electric_scooter", "bike_id": "311b1865514567154694689216780c2f", "is_disabled": 0, "rental_uris": {"android": "https://dc.lft.to/lastmile_qr_scan", "ios": "https://dc.lft.to/lastmile_qr_scan"}, "lon": -77.048712, "fusion_lat": 0.0}, {"name": "8972aebcfbc7915dc51b2e9cf5e73dcd", "fusion_lon": 0.0, "lat": 38.86210416666667, "is_reserved": 0, "type": "electric_scooter", "bike_id": "8972aebcfbc7915dc51b2e9cf5e73dcd", "is_disabled": 0, "rental_uris": {"android": "https://dc.lft.to/lastmile_qr_scan", "ios": "https://dc.lft.to/lastmile_qr_scan"}, "lon": -76.99468916666666, "fusion_lat": 0.0}, {"name": "ade01c66c97a6148627a53dcd826ec57", "fusion_lon": 0.0, "lat": 38.90024666666667, "is_reserved": 0, "type": "electric_scooter", "bike_id": "ade01c66c97a6148627a53dcd826ec57", "is_disabled": 0, "rental_uris": {"android": "https://dc.lft.to/lastmile_qr_scan", "ios": "https://dc.lft.to/lastmile_qr_scan"}, "lon": -77.0118905, "fusion_lat": 0.0}, {"name": "f0a438c8f192a903b802668b942766d4", "fusion_lon": 0.0, "lat": 38.88728116666667, "is_reserved": 0, "type": "electric_scooter", "bike_id": "f0a438c8f192a903b802668b942766d4", "is_disabled": 0, "rental_uris": {"android": "https://dc.lft.to/lastmile_qr_scan", "ios": "https://dc.lft.to/lastmile_qr_scan"}, "lon": -77.02826083333333, "fusion_lat": 0.0}, {"name": "441a5a7816a0c910d2c6111adcbf39d0", "fusion_lon": 0.0, "lat": 38.956137, "is_reserved": 0, "type": "electric_scooter", "bike_id": "441a5a7816a0c910d2c6111adcbf39d0", "is_disabled": 0, "rental_uris": {"android": "https://dc.lft.to/lastmile_qr_scan", "ios": "https://dc.lft.to/lastmile_qr_scan"}, "lon": -77.02778466666666, "fusion_lat": 0.0}, {"name": "081d12073a87c00ea840968a38bebb51", "fusion_lon": 0.0, "lat": 38.907718333333335, "is_reserved": 0, "type": "electric_scooter", "bike_id": "081d12073a87c00ea840968a38bebb51", "is_disabled": 0, "rental_uris": {"android": "https://dc.lft.to/lastmile_qr_scan", "ios": "https://dc.lft.to/lastmile_qr_scan"}, "lon": -77.0382325, "fusion_lat": 0.0}, {"name": "99add77ee53a31da1b55398656a47076", "fusion_lon": 0.0, "lat": 38.877042333333335, "is_reserved": 0, "type": "electric_scooter", "bike_id": "99add77ee53a31da1b55398656a47076", "is_disabled": 0, "rental_uris": {"android": "https://dc.lft.to/lastmile_qr_scan", "ios": "https://dc.lft.to/lastmile_qr_scan"}, "lon": -77.017605, "fusion_lat": 0.0}, {"name": "ce49809856ba9d4da84d7132df419a35", "fusion_lon": 0.0, "lat": 38.88819383333333, "is_reserved": 0, "type": "electric_scooter", "bike_id": "ce49809856ba9d4da84d7132df419a35", "is_disabled": 0, "rental_uris": {"android": "https://dc.lft.to/lastmile_qr_scan", "ios": "https://dc.lft.to/lastmile_qr_scan"}, "lon": -76.95101333333334, "fusion_lat": 0.0}, {"name": "9c1137080a448cefb685fe3c928eb1e2", "fusion_lon": 0.0, "lat": 38.909379333333334, "is_reserved": 0, "type": "electric_scooter", "bike_id": "9c1137080a448cefb685fe3c928eb1e2", "is_disabled": 0, "rental_uris": {"android": "https://dc.lft.to/lastmile_qr_scan", "ios": "https://dc.lft.to/lastmile_qr_scan"}, "lon": -77.03063233333333, "fusion_lat": 0.0}, {"name": "ebe479bb3b799ff04bffe7a0b619f873", "fusion_lon": 0.0, "lat": 38.907319, "is_reserved": 0, "type": "electric_scooter", "bike_id": "ebe479bb3b799ff04bffe7a0b619f873", "is_disabled": 0, "rental_uris": {"android": "https://dc.lft.to/lastmile_qr_scan", "ios": "https://dc.lft.to/lastmile_qr_scan"}, "lon": -77.0113895, "fusion_lat": 0.0}, {"name": "ffb041d9a22dcba0c41a384954977a4c", "fusion_lon": 0.0, "lat": 38.90936633333333, "is_reserved": 0, "type": "electric_scooter", "bike_id": "ffb041d9a22dcba0c41a384954977a4c", "is_disabled": 0, "rental_uris": {"android": "https://dc.lft.to/lastmile_qr_scan", "ios": "https://dc.lft.to/lastmile_qr_scan"}, "lon": -77.05716116666666, "fusion_lat": 0.0}, {"name": "06b518ffb71aa9033523cae9ce657ab3", "fusion_lon": 0.0, "lat": 38.93361383333333, "is_reserved": 0, "type": "electric_scooter", "bike_id": "06b518ffb71aa9033523cae9ce657ab3", "is_disabled": 0, "rental_uris": {"android": "https://dc.lft.to/lastmile_qr_scan", "ios": "https://dc.lft.to/lastmile_qr_scan"}, "lon": -77.08854666666667, "fusion_lat": 0.0}, {"name": "b0a20806325fac492d99aa1fd7bdddcf", "fusion_lon": 0.0, "lat": 38.94509866666667, "is_reserved": 0, "type": "electric_scooter", "bike_id": "b0a20806325fac492d99aa1fd7bdddcf", "is_disabled": 0, "rental_uris": {"android": "https://dc.lft.to/lastmile_qr_scan", "ios": "https://dc.lft.to/lastmile_qr_scan"}, "lon": -77.03379416666667, "fusion_lat": 0.0},