{"data": {"bikes": [{"fusion_lon": 0.0, "bike_id": "38aba1db8fbb71291dcab61de68b6ef6", "name": "38aba1db8fbb71291dcab61de68b6ef6", "type": "electric_scooter", "lon": -76.9914115, "rental_uris": {"android": "https://dc.lft.to/lastmile_qr_scan", "ios": "https://dc.lft.to/lastmile_qr_scan"}, "lat": 38.88674616666667, "is_reserved": 0, "is_disabled": 0, "fusion_lat": 0.0}, {"fusion_lon": 0.0, "bike_id": "f38440552fcb808601eb592620b06a16", "name": "f38440552fcb808601eb592620b06a16", "type": "electric_scooter", "lon": -76.98457466666666, "rental_uris": {"android": "https://dc.lft.to/lastmile_qr_scan", "ios": "https://dc.lft.to/lastmile_qr_scan"}, "lat": 38.88011783333334, "is_reserved": 0, "is_disabled": 0, "fusion_lat": 0.0}, {"fusion_lon": 0.0, "bike_id": "7c0505e4228368cb5e7e5cbca86cb4ab", "name": "7c0505e4228368cb5e7e5cbca86cb4ab", "type": "electric_scooter", "lon": -77.02598566666667, "rental_uris": {"android": "https://dc.lft.to/lastmile_qr_scan", "ios": "https://dc.lft.to/lastmile_qr_scan"}, "lat": 38.91849116666667, "is_reserved": 0, "is_disabled": 0, "fusion_lat": 0.0}, {"fusion_lon": 0.0, "bike_id": "c8e14f6f3b4b20a061efb9f1a9cbb204", "name": "c8e14f6f3b4b20a061efb9f1a9cbb204", "type": "electric_scooter", "lon": -77.04310033333333, "rental_uris": {"android": "https://dc.lft.to/lastmile_qr_scan", "ios": "https://dc.lft.to/lastmile_qr_scan"}, "lat": 38.91964633333333, "is_reserved": 0, "is_disabled": 0, "fusion_lat": 0.0}, {"fusion_lon": 0.0, "bike_id": "d55f77bbde57c84374e7890d14090999", "name": "d55f77bbde57c84374e7890d14090999", "type": "electric_scooter", "lon": -77.0447885, "rental_uris": {"android": "https://dc.lft.to/lastmile_qr_scan", "ios": "https://dc.lft.to/lastmile_qr_scan"}, "lat": 38.910833833333335, "is_reserved": 0, "is_disabled": 0, "fusion_lat": 0.0}, {"fusion_lon": 0.0, "bike_id": "806f250113368a5cf4833bf4f02e04fa", "name": "806f250113368a5cf4833bf4f02e04fa", "type": "electric_bike", "lon": -77.08436733333333, "rental_uris": {"android": "https://dc.lft.to/lastmile_qr_scan", "ios": "https://dc.lft.to/lastmile_qr_scan"}, "lat": 38.810276333333334, "is_reserved": 0, "is_disabled": 0, "fusion_lat": 0.0}, {"fusion_lon": 0.0, "bike_id": "7b9b83c6a38781299a1f83135dae1c0a", "name": "7b9b83c6a38781299a1f83135dae1c0a", "type": "electric_scooter", "lon": -76.979274, "rental_uris": {"android": "https://dc.lft.to/lastmile_qr_scan", "ios": "https://dc.lft.to/lastmile_qr_scan"}, "lat": 38.90247333333333, "is_reserved": 0, "is_disabled": 0, "fusion_lat": 0.0}, {"fusion_lon": 0.0, "bike_id": "73b512094d528dc14d7ec7ef996d9c84", "name": "73b512094d528dc14d7ec7ef996d9c84", "type": "electric_scooter", "lon": -77.02414183333333, "rental_uris": {"android": "https://dc.lft.to/lastmile_qr_scan", "ios": "https://dc.lft.to/lastmile_qr_scan"}, "lat": 38.957314, "is_reserved": 0, "is_disabled": 0, "fusion_lat": 0.0}, {"fusion_lon": 0.0, "bike_id": "343cb9e9b4f3f1c417355f56774198ff", "name": "343cb9e9b4f3f1c417355f56774198ff", "type": "electric_scooter", "lon": -77.0088525, "rental_uris": {"android": "https://dc.lft.to/lastmile_qr_scan", "ios": "https://dc.lft.to/lastmile_qr_scan"}, "lat": 38.90579816666666, "is_reserved": 0, "is_disabled": 0, "fusion_lat": 0.0}, {"fusion_lon": 0.0, "bike_id": "c96c794f2d5d486b17c160e99c9bf77a", "name": "c96c794f2d5d486b17c160e99c9bf77a", "type": "electric_scooter", "lon": -76.94944466666666, "rental_uris": {"android": "https://dc.lft.to/lastmile_qr_scan", "ios": "https://dc.lft.to/lastmile_qr_scan"}, "lat": 38.89352216666666, "is_reserved": 0, "is_disabled": 0, "fusion_lat": 0.0}, {"fusion_lon": 0.0, "bike_id": "0b09af2370d1c398e88ee90d57881513", "name": "0b09af2370d1c398e88ee90d57881513", "type": "electric_scooter", "lon": -77.02695983333334, "rental_uris": {"android": "https://dc.lft.to/lastmile_qr_scan", "ios": "https://dc.lft.to/lastmile_qr_scan"}, "lat": 38.9083805, "is_reserved": 0, "is_disabled": 0, "fusion_lat": 0.0}, {"fusion_lon": 0.0, "bike_id": "05dbff5549b2fe8d42303396c05398b6", "name": "05dbff5549b2fe8d42303396c05398b6", "type": "electric_bike", "lon": -76.97507566666667, "rental_uris": {"android": "https://dc.lft.to/lastmile_qr_scan", "ios": "https://dc.lft.to/lastmile_qr_scan"}, "lat": 38.919329, "is_reserved": 0, "is_disabled": 0, "fusion_lat": 0.0}, {"fusion_lon": 0.0, "bike_id": "7e8442bd5dd518d7321263bab7bc81f4", "name": "7e8442bd5dd518d7321263bab7bc81f4", "type": "electric_bike", "lon": -76.96695716666666, "rental_uris": {"android": "https://dc.lft.to/lastmile_qr_scan", "ios": "https://dc.lft.to/lastmile_qr_scan"}, "lat": 38.86847916666667, "is_reserved": 0, "is_disabled": 0, "fusion_lat": 0.0}, {"fusion_lon": 0.0, "bike_id": "c805002353776c8faaeb85cf710d21a4", "name": "c805002353776c8faaeb85cf710d21a4", "type": "electric_scooter", "lon": -77.017697, "rental_uris": {"android": "https://dc.lft.to/lastmile_qr_scan", "ios": "https://dc.lft.to/lastmile_qr_scan"}, "lat": 38.877155, "is_reserved": 0, "is_disabled": 0, "fusion_lat": 0.0}, {"fusion_lon": 0.0, "bike_id": "30c298e85386d0204d48a8f5cece4ed0", "name": "30c298e85386d0204d48a8f5cece4ed0", "type": "electric_scooter", "lon": -77.0468515, "rental_uris": {"android": "https://dc.lft.to/lastmile_qr_scan", "ios": "https://dc.lft.to/lastmile_qr_scan"}, "lat": 38.915845, "is_reserved": 0, "is_disabled": 0, "fusion_lat": 0.0}, {"fusion_lon": 0.0, "bike_id": "97f99dc964de433eecf7addb9f669ef6", "name": "97f99dc964de433eecf7addb9f669ef6", "type": "electric_bike", "lon": -77.0498045, "rental_uris": {"android": "https://dc.lft.to/lastmile_qr_scan", "ios": "https://dc.lft.to/lastmile_qr_scan"}, "lat": 38.992458666666664, "is_reserved": 0, "is_disabled": 0, "fusion_lat": 0.0}, {"fusion_lon": 0.0, "bike_id": "de33d564d24b244879427dd0edfb4c65", "name": "de33d564d24b244879427dd0edfb4c65", "type": "electric_scooter", "lon": -77.05596533333333, "rental_uris": {"android": "https://dc.lft.to/lastmile_qr_scan", "ios": "https://dc.lft.to/lastmile_qr_scan"}, "lat": 38.936980166666665, "is_reserved": 0, "is_disabled": 0, "fusion_lat": 0.0}, {"fusion_lon": 0.0, "bike_id": "8255092345181006776628089fc7e4dd", "name": "8255092345181006776628089fc7e4dd", "type": "electric_bike", "lon": -77.19545866666667, "rental_uris": {"android": "https://dc.lft.to/lastmile_qr_scan", "ios": "https://dc.lft.to/lastmile_qr_scan"}, "lat": 39.11506683333333, "is_reserved": 0, "is_disabled": 0, "fusion_lat": 0.0}, {"fusion_lon": 0.0, "bike_id": "e7ff383599318c36e20345562435757a", "name": "e7ff383599318c36e20345562435757a", "type": "electric_scooter", "lon": -77.017735, "rental_uris": {"android": "https://dc.lft.to/lastmile_qr_scan", "ios": "https://dc.lft.to/lastmile_qr_scan"}, "lat": 38.88583, "is_reserved": 0, "is_disabled": 0, "fusion_lat": 0.0}, {"fusion_lon": 0.0, "bike_id": "01c4238142566d7fa5e14ebf7daf0ec1", "name": "01c4238142566d7fa5e14ebf7daf0ec1", "type": "electric_scooter", "lon": -77.00215666666666, "rental_uris": {"android": "https://dc.lft.to/lastmile_qr_scan", "ios": "https://dc.lft.to/lastmile_qr_scan"}, "lat": 38.900195833333335, "is_reserved": 0, "is_disabled": 0, "fusion_lat": 0.0}, {"fusion_lon": 0.0, "bike_id": "60521d071340de8371d6cb47f8c54495", "name": "60521d071340de8371d6cb47f8c54495", "type": "electric_bike", "lon": -77.003232, "rental_uris": {"android": "https://dc.lft.to/lastmile_qr_scan", "ios": "https://dc.lft.to/lastmile_qr_scan"}, "lat": 38.9116925, "is_reserved": 0, "is_disabled": 0, "fusion_lat": 0.0}, {"fusion_lon": 0.0, "bike_id": "fb5ad556ef160912d25b7395fc6cefa9", "name": "fb5ad556ef160912d25b7395fc6cefa9", "type": "electric_scooter", "lon": -77.04040166666667, "rental_uris": {"android": "https://dc.lft.to/lastmile_qr_scan", "ios": "https://dc.lft.to/lastmile_qr_scan"}, "lat": 38.925687833333335, "is_reserved": 0, "is_disabled": 0, "fusion_lat": 0.0}, {"fusion_lon": 0.0, "bike_id": "54e3847dce0c6f3f0474ed525c053c9a", "name": "54e3847dce0c6f3f0474ed525c053c9a", "type": "electric_bike", "lon": -76.999433, "rental_uris": {"android": "https://dc.lft.to/lastmile_qr_scan", "ios": "https://dc.lft.to/lastmile_qr_scan"}, "lat": 38.882098666666664, "is_reserved": 0, "is_disabled": 0, "fusion_lat": 0.0}, {"fusion_lon": 0.0, "bike_id": "d9748f3c2e5dd0376489749f1ce11e46", "name": "d9748f3c2e5dd0376489749f1ce11e46", "type": "electric_scooter", "lon": -76.9482385, "rental_uris": {"android": "https://dc.lft.to/lastmile_qr_scan", "ios": "https://dc.lft.to/lastmile_qr_scan"}, "lat": 38.885136833333334, "is_reserved": 0, "is_disabled": 0, "fusion_lat": 0.0}, {"fusion_lon": 0.0, "bike_id": "948a4cf1eec9419222bf80209579d1f0", "name": "948a4cf1eec9419222bf80209579d1f0", "type": "electric_scooter", "lon": -77.03730866666666, "rental_uris": {"android": "https://dc.lft.to/lastmile_qr_scan", "ios": "https://dc.lft.to/lastmile_qr_scan"}, "lat": 38.909600833333336, "is_reserved": 0, "is_disabled": 0, "fusion_lat": 0.0}, {"fusion_lon": 0.0, "bike_id": "fb2e516aa71ef4e024cd612062b4aa61", "name": "fb2e516aa71ef4e024cd612062b4aa61", "type": "electric_scooter", "lon": -77.01624333333334, "rental_uris": {"android": "https://dc.lft.to/lastmile_qr_scan", "ios": "https://dc.lft.to/lastmile_qr_scan"}, "lat": 38.90175933333333, "is_reserved": 0, "is_disabled": 0, "fusion_lat": 0.0}, {"fusion_lon": 0.0, "bike_id": "9f6755545adb51886cf714d66df4e54b", "name": "9f6755545adb51886cf714d66df4e54b", "type": "electric_scooter", "lon": -77.02681716666666, "rental_uris": {"android": "https://dc.lft.to/lastmile_qr_scan", "ios": "https://dc.lft.to/lastmile_qr_scan"}, "lat": 38.933172666666664, "is_reserved": 0, "is_disabled": 0, "fusion_lat": 0.0}, {"fusion_lon": 0.0, "bike_id": "4fd711d91e0c588e18d3cb0ae4c3d06b", "name": "4fd711d91e0c588e18d3cb0ae4c3d06b", "type": "electric_scooter", "lon": -77.01946383333333, "rental_uris": {"android": "https://dc.lft.to/lastmile_qr_scan", "ios": "https://dc.lft.to/lastmile_qr_scan"}, "lat": 38.922579666666664, "is_reserved": 0, "is_disabled": 0, "fusion_lat": 0.0}, {"fusion_lon": 0.0, "bike_id": "12db4ae1224b391dc01dd427a1ef8451", "name": "12db4ae1224b391dc01dd427a1ef8451", "type": "electric_scooter", "lon": -77.02289733333333, "rental_uris": {"android": "https://dc.lft.to/lastmile_qr_scan", "ios": "https://dc.lft.to/lastmile_qr_scan"}, "lat": 38.9165095, "is_reserved": 0, "is_disabled": 0, "fusion_lat": 0.0}, {"fusion_lon": 0.0, "bike_id": "3842ebc6ed9a8410ecec244f1e55fa1f", "name": "3842ebc6ed9a8410ecec244f1e55fa1f", "type": "electric_scooter", "lon": -77.05439066666666, "rental_uris": {"android": "https://dc.lft.to/lastmile_qr_scan", "ios": "https://dc.lft.to/lastmile_qr_scan"}, "lat": 38.8960635, "is_reserved": 0, "is_disabled": 0, "fusion_lat": 0.0}, {"fusion_lon": 0.0, "bike_id": "b197e48dafaf06147e719a9f298e6266", "name": "b197e48dafaf06147e719a9f298e6266", "type": "electric_bike", "lon": -77.06973616666667, "rental_uris": {"android": "https://dc.lft.to/lastmile_qr_scan", "ios": "https://dc.lft.to/lastmile_qr_scan"}, "lat": 38.9525875, "is_reserved": 0, "is_disabled": 0, "fusion_lat": 0.0}, {"fusion_lon": 0.0, "bike_id": "70938caa97da17c4fc81741b2f47f1d1", "name": "70938caa97da17c4fc81741b2f47f1d1", "type": "electric_scooter", "lon": -77.02768383333333, "rental_uris": {"android": "https://dc.lft.to/lastmile_qr_scan", "ios": "https://dc.lft.to/lastmile_qr_scan"}, "lat": 38.917085, "is_reserved": 0, "is_disabled": 0, "fusion_lat": 0.0}, {"fusion_lon": 0.0, "bike_id": "ee687562b95a4065d0acc88c1763a02e", "name": "ee687562b95a4065d0acc88c1763a02e", "type": "electric_scooter", "lon": -77.04067416666666, "rental_uris": {"android": "https://dc.lft.to/lastmile_qr_scan", "ios": "https://dc.lft.to/lastmile_qr_scan"}, "lat": 38.898302666666666, "is_reserved": 0, "is_disabled": 0, "fusion_lat": 0.0}, {"fusion_lon": 0.0, "bike_id": "b35254a482c07bb13f0ba9342ce1c55e", "name": "b35254a482c07bb13f0ba9342ce1c55e", "type": "electric_scooter", "lon": -77.0081875, "rental_uris": {"android": "https://dc.lft.to/lastmile_qr_scan", "ios": "https://dc.lft.to/lastmile_qr_scan"}, "lat": 38.915612833333334, "is_reserved": 0, "is_disabled": 0, "fusion_lat": 0.0}, {"fusion_lon": 0.0, "bike_id": "31daf666f01c84a7b85b47b5d8f0f071", "name": "31daf666f01c84a7b85b47b5d8f0f071", "type": "electric_scooter", "lon": -77.01784183333334, "rental_uris": {"android": "https://dc.lft.to/lastmile_qr_scan", "ios": "https://dc.lft.to/lastmile_qr_scan"}, "lat": 38.90256483333334, "is_reserved": 0, "is_disabled": 0, "fusion_lat": 0.0}, {"fusion_lon": 0.0, "bike_id": "088f9e216b4d0825d3aefe192cef2e03", "name": "088f9e216b4d0825d3aefe192cef2e03", "type": "electric_scooter", "lon": -77.02004583333333, "rental_uris": {"android": "https://dc.lft.to/lastmile_qr_scan", "ios": "https://dc.lft.to/lastmile_qr_scan"}, "lat": 38.91567116666667, "is_reserved": 0, "is_disabled": 0, "fusion_lat": 0.0}, {"fusion_lon": 0.0, "bike_id": "e706ff8a46e73f5860c90b25eeb48a73", "name": "e706ff8a46e73f5860c90b25eeb48a73", "type": "electric_scooter", "lon": -77.04669383333334, "rental_uris": {"android": "https://dc.lft.to/lastmile_qr_scan", "ios": "https://dc.lft.to/lastmile_qr_scan"}, "lat": 38.907387166666666, "is_reserved": 0, "is_disabled": 0, "fusion_lat": 0.0}, {"fusion_lon": 0.0, "bike_id": "c0024b473c42a4d05713bcb5ef33d9a1", "name": "c0024b473c42a4d05713bcb5ef33d9a1", "type": "electric_scooter", "lon": -76.99795383333333, "rental_uris": {"android": "https://dc.lft.to/lastmile_qr_scan", "ios": "https://dc.lft.to/lastmile_qr_scan"}, "lat": 38.948302166666664, "is_reserved": 0, "is_disabled": 0, "fusion_lat": 0.0}, {"fusion_lon": 0.0, "bike_id": "cb0189f84d649b99e7898ec2f01eab33", "name": "cb0189f84d649b99e7898ec2f01eab33", "type": "electric_scooter", "lon": -77.0048235, "rental_uris": {"android": "https://dc.lft.to/lastmile_qr_scan", "ios": "https://dc.lft.to/lastmile_qr_scan"}, "lat": 38.88044583333333, "is_reserved": 0, "is_disabled": 0, "fusion_lat": 0.0}, {"fusion_lon": 0.0, "bike_id": "8fc041347bde9c56a9c5a97f8faa2cd7", "name": "8fc041347bde9c56a9c5a97f8faa2cd7", "type": "electric_scooter", "lon": -77.061135, "rental_uris": {"android": "https://dc.lft.to/lastmile_qr_scan", "ios": "https://dc.lft.to/lastmile_qr_scan"}, "lat": 38.943648333333336, "is_reserved": 0, "is_disabled": 0, "fusion_lat": 0.0}, {"fusion_lon": 0.0, "bike_id": "86f6eb7dfdeea639f99b8393b4e61fca", "name": "86f6eb7dfdeea639f99b8393b4e61fca", "type": "electric_scooter", "lon": -77.0417215, "rental_uris": {"android": "https://dc.lft.to/lastmile_qr_scan", "ios": "https://dc.lft.to/lastmile_qr_scan"}, "lat": 38.9135375, "is_reserved": 0, "is_disabled": 0, "fusion_lat": 0.0}, {"fusion_lon": 0.0, "bike_id": "c5f4e5b8697a5a1aacf81fdd05d326ff", "name": "c5f4e5b8697a5a1aacf81fdd05d326ff", "type": "electric_scooter", "lon": -77.0349035, "rental_uris": {"android": "https://dc.lft.to/lastmile_qr_scan", "ios": "https://dc.lft.to/lastmile_qr_scan"}, "lat": 38.9214885, "is_reserved": 0, "is_disabled": 0, "fusion_lat": 0.0}, {"fusion_lon": 0.0, "bike_id": "74ebae20a922268fc91569a6b8d5be08", "name": "74ebae20a922268fc91569a6b8d5be08", "type": "electric_scooter", "lon": -77.03046366666666, "rental_uris": {"android": "https://dc.lft.to/lastmile_qr_scan", "ios": "https://dc.lft.to/lastmile_qr_scan"}, "lat": 38.884051, "is_reserved": 0, "is_disabled": 0, "fusion_lat": 0.0}, {"fusion_lon": 0.0, "bike_id": "b6376b58662557a531800feda625e528", "name": "b6376b58662557a531800feda625e528", "type": "electric_scooter", "lon": -77.02028383333334, "rental_uris": {"android": "https://dc.lft.to/lastmile_qr_scan", "ios": "https://dc.lft.to/lastmile_qr_scan"}, "lat": 38.92450783333334, "is_reserved": 0, "is_disabled": 0, "fusion_lat": 0.0}, {"fusion_lon": 0.0, "bike_id": "2b0a2e21a08e14618682e993baecee5d", "name": "2b0a2e21a08e14618682e993baecee5d", "type": "electric_scooter", "lon": -76.99215383333333, "rental_uris": {"android": "https://dc.lft.to/lastmile_qr_scan", "ios": "https://dc.lft.to/lastmile_qr_scan"}, "lat": 38.89514716666667, "is_reserved": 0, "is_disabled": 0, "fusion_lat": 0.0}, {"fusion_lon": 0.0, "bike_id": "4f21edd843bc666c62398c284d2b9bff", "name": "4f21edd843bc666c62398c284d2b9bff", "type": "electric_scooter", "lon": -77.06613083333333, "rental_uris": {"android": "https://dc.lft.to/lastmile_qr_scan", "ios": "https://dc.lft.to/lastmile_qr_scan"}, "lat": 38.90445016666666, "is_reserved": 0, "is_disabled": 0, "fusion_lat": 0.0}, {"fusion_lon": 0.0, "bike_id": "b45da8b80d9127295dedca88417e21bf", "name": "b45da8b80d9127295dedca88417e21bf", "type": "electric_scooter", "lon": -77.02098533333333, "rental_uris": {"android": "https://dc.lft.to/lastmile_qr_scan", "ios": "https://dc.lft.to/lastmile_qr_scan"}, "lat": 38.897397833333336, "is_reserved": 0, "is_disabled": 0, "fusion_lat": 0.0}, {"fusion_lon": 0.0, "bike_id": "b274a3833b4ef236c6362c7ba07041b4", "name": "b274a3833b4ef236c6362c7ba07041b4", "type": "electric_scooter", "lon": -77.005253, "rental_uris": {"android": "https://dc.lft.to/lastmile_qr_scan", "ios": "https://dc.lft.to/lastmile_qr_scan"}, "lat": 38.902517333333336, "is_reserved": 0, "is_disabled": 0, "fusion_lat": 0.0}, {"fusion_lon": 0.0, "bike_id": "8c459079aaac3f78c3c2c032af1102bd", "name": "8c459079aaac3f78c3c2c032af1102bd", "type": "electric_scooter", "lon": -77.01385216666667, "rental_uris": {"android": "https://dc.lft.to/lastmile_qr_scan", "ios": "https://dc.lft.to/lastmile_qr_scan"}, "lat": 38.910091333333334, "is_reserved": 0, "is_disabled": 0, "fusion_lat": 0.0}, {"fusion_lon": 0.0, "bike_id": "16148181f3d2ea5a53d79c98101dd94d", "name": "16148181f3d2ea5a53d79c98101dd94d", "type": "electric_scooter", "lon": -77.02158333333334, "rental_uris": {"android": "https://dc.lft.to/lastmile_qr_scan", "ios": "https://dc.lft.to/lastmile_qr_scan"}, "lat": 38.92603833333333, "is_reserved": 0, "is_disabled": 0, "fusion_lat": 0.0}, {"fusion_lon": 0.0, "bike_id": "3e896df35cc0000db8ede9173aeee633", "name": "3e896df35cc0000db8ede9173aeee633", "type": "electric_scooter", "lon": -77.02181566666667, "rental_uris": {"android": "https://dc.lft.to/lastmile_qr_scan", "ios": "https://dc.lft.to/lastmile_qr_scan"}, "lat": 38.8791915, "is_reserved": 0, "is_disabled": 0, "fusion_lat": 0.0}, {"fusion_lon": 0.0, "bike_id": "ca1727d778872dafdb5945d1ef064604", "name": "ca1727d778872dafdb5945d1ef064604", "type": "electric_scooter", "lon": -77.01560116666667, "rental_uris": {"android": "https://dc.lft.to/lastmile_qr_scan", "ios": "https://dc.lft.to/lastmile_qr_scan"}, "lat": 38.91366633333333, "is_reserved": 0, "is_disabled": 0, "fusion_lat": 0.0}, {"fusion_lon": 0.0, "bike_id": "8a5e7307c410470555795a58b6fe09b2", "name": "8a5e7307c410470555795a58b6fe09b2", "type": "electric_scooter", "lon": -76.9856125, "rental_uris": {"android": "https://dc.lft.to/lastmile_qr_scan", "ios": "https://dc.lft.to/lastmile_qr_scan"}, "lat": 38.89888216666667, "is_reserved": 0, "is_disabled": 0, "fusion_lat": 0.0}, {"fusion_lon": 0.0, "bike_id": "8767c3470394e508b08076e302f039f2", "name": "8767c3470394e508b08076e302f039f2", "type": "electric_scooter", "lon": -77.0105225, "rental_uris": {"android": "https://dc.lft.to/lastmile_qr_scan", "ios": "https://dc.lft.to/lastmile_qr_scan"}, "lat": 38.92985266666667, "is_reserved": 0, "is_disabled": 0, "fusion_lat": 0.0}, {"fusion_lon": 0.0, "bike_id": "a3afc930d5537a516ae4212c19cbb79b", "name": "a3afc930d5537a516ae4212c19cbb79b", "type": "electric_scooter", "lon": -77.01057466666667, "rental_uris": {"android": "https://dc.lft.to/lastmile_qr_scan", "ios": "https://dc.lft.to/lastmile_qr_scan"}, "lat": 38.871492333333336, "is_reserved": 0, "is_disabled": 0, "fusion_lat": 0.0}, {"fusion_lon": 0.0, "bike_id": "ab3f6068d54a18429c71ffe66ae7720c", "name": "ab3f6068d54a18429c71ffe66ae7720c", "type": "electric_scooter", "lon": -77.03644316666667, "rental_uris": {"android": "https://dc.lft.to/lastmile_qr_scan", "ios": "https://dc.lft.to/lastmile_qr_scan"}, "lat": 38.912713333333336, "is_reserved": 0, "is_disabled": 0, "fusion_lat": 0.0}, {"fusion_lon": 0.0, "bike_id": "be084bdba7b4822b90dbdbbef1d7975a", "name": "be084bdba7b4822b90dbdbbef1d7975a", "type": "electric_scooter", "lon": -76.98079266666667, "rental_uris": {"android": "https://dc.lft.to/lastmile_qr_scan", "ios": "https://dc.lft.to/lastmile_qr_scan"}, "lat": 38.936493, "is_reserved": 0, "is_disabled": 0, "fusion_lat": 0.0}, {"fusion_lon": 0.0, "bike_id": "e9294341ee08a8e8bc8d99588ad9b9ee", "name": "e9294341ee08a8e8bc8d99588ad9b9ee", "type": "electric_bike", "lon": -77.00633466666666, "rental_uris": {"android": "https://dc.lft.to/lastmile_qr_scan", "ios": "https://dc.lft.to/lastmile_qr_scan"}, "lat": 38.98365866666666, "is_reserved": 0, "is_disabled": 0, "fusion_lat": 0.0}, {"fusion_lon": 0.0, "bike_id": "829de0c5beb0af77b0e479bc45bc3150", "name": "829de0c5beb0af77b0e479bc45bc3150", "type": "electric_scooter", "lon": -77.041221, "rental_uris": {"android": "https://dc.lft.to/lastmile_qr_scan", "ios": "https://dc.lft.to/lastmile_qr_scan"}, "lat": 38.915563166666665, "is_reserved": 0, "is_disabled": 0, "fusion_lat": 0.0}, {"fusion_lon": 0.0, "bike_id": "bdbf9a604c0d90c9feed267339c93e22", "name": "bdbf9a604c0d90c9feed267339c93e22", "type": "electric_scooter", "lon": -77.0165435, "rental_uris": {"android": "https://dc.lft.to/lastmile_qr_scan", "ios": "https://dc.lft.to/lastmile_qr_scan"}, "lat": 38.88759566666667, "is_reserved": 0, "is_disabled": 0, "fusion_lat": 0.0}, {"fusion_lon": 0.0, "bike_id": "9a352a04fa027624e1552806e32a0e36", "name": "9a352a04fa027624e1552806e32a0e36", "type": "electric_scooter", "lon": -76.99057983333333, "rental_uris": {"android": "https://dc.lft.to/lastmile_qr_scan", "ios": "https://dc.lft.to/lastmile_qr_scan"}, "lat": 38.86359683333333, "is_reserved": 0, "is_disabled": 0, "fusion_lat": 0.0}, {"fusion_lon": 0.0, "bike_id": "5518c1e6e1156a55235f90037725cf8f", "name": "5518c1e6e1156a55235f90037725cf8f", "type": "electric_scooter", "lon": -76.99607466666667, "rental_uris": {"android": "https://dc.lft.to/lastmile_qr_scan", "ios": "https://dc.lft.to/lastmile_qr_scan"}, "lat": 38.9261415, "is_reserved": 0, "is_disabled": 0, "fusion_lat": 0.0}, {"fusion_lon": 0.0, "bike_id": "90e5049003ba72c27bec195e2553ccd0", "name": "90e5049003ba72c27bec195e2553ccd0", "type": "electric_scooter", "lon": -77.02464383333333, "rental_uris": {"android": "https://dc.lft.to/lastmile_qr_scan", "ios": "https://dc.lft.to/lastmile_qr_scan"}, "lat": 38.90851133333334, "is_reserved": 0, "is_disabled": 0, "fusion_lat": 0.0}, {"fusion_lon": 0.0, "bike_id": "fdcd22dad4fe9362a121c1dc36236b12", "name": "fdcd22dad4fe9362a121c1dc36236b12", "type": "electric_scooter", "lon": -76.97977833333333, "rental_uris": {"android": "https://dc.lft.to/lastmile_qr_scan", "ios": "https://dc.lft.to/lastmile_qr_scan"}, "lat": 38.887658333333334, "is_reserved": 0, "is_disabled": 0, "fusion_lat": 0.0}, {"fusion_lon": 0.0, "bike_id": "eea1dfb5310d6f5a29ff9c64283a031b", "name": "eea1dfb5310d6f5a29ff9c64283a031b", "type": "electric_scooter", "lon": -77.06852483333333, "rental_uris": {"android": "https://dc.lft.to/lastmile_qr_scan", "ios": "https://dc.lft.to/lastmile_qr_scan"}, "lat": 38.95208566666667, "is_reserved": 0, "is_disabled": 0, "fusion_lat": 0.0}, {"fusion_lon": 0.0, "bike_id": "31d729f6d13eb384665b35c1470aea98", "name": "31d729f6d13eb384665b35c1470aea98", "type": "electric_scooter", "lon": -77.04390983333333, "rental_uris": {"android": "https://dc.lft.to/lastmile_qr_scan", "ios": "https://dc.lft.to/lastmile_qr_scan"}, "lat": 38.9104535, "is_reserved": 0, "is_disabled": 0, "fusion_lat": 0.0}, {"fusion_lon": 0.0, "bike_id": "f7564551bfcbe7393307e1dbd9f5865e", "name": "f7564551bfcbe7393307e1dbd9f5865e", "type": "electric_scooter", "lon": -77.02696383333334, "rental_uris": {"android": "https://dc.lft.to/lastmile_qr_scan", "ios": "https://dc.lft.to/lastmile_qr_scan"}, "lat": 38.921757, "is_reserved": 0, "is_disabled": 0, "fusion_lat": 0.0}, {"fusion_lon": 0.0, "bike_id": "7db54b0d9a2a25542f3c362e08522bfd", "name": "7db54b0d9a2a25542f3c362e08522bfd", "type": "electric_scooter", "lon": -77.01481933333334, "rental_uris": {"android": "https://dc.lft.to/lastmile_qr_scan", "ios": "https://dc.lft.to/lastmile_qr_scan"}, "lat": 38.87642566666667, "is_reserved": 0, "is_disabled": 0, "fusion_lat": 0.0}, {"fusion_lon": 0.0, "bike_id": "3d6407adc924a98be82408d97310a6cf", "name": "3d6407adc924a98be82408d97310a6cf", "type": "electric_scooter", "lon": -76.947153, "rental_uris": {"android": "https://dc.lft.to/lastmile_qr_scan", "ios": "https://dc.lft.to/lastmile_qr_scan"}, "lat": 38.897058, "is_reserved": 0, "is_disabled": 0, "fusion_lat": 0.0}, {"fusion_lon": 0.0, "bike_id": "6d192f6f4abb7110f149da420c7ae1a7", "name": "6d192f6f4abb7110f149da420c7ae1a7", "type": "electric_scooter", "lon": -77.00224716666666, "rental_uris": {"android": "https://dc.lft.to/lastmile_qr_scan", "ios": "https://dc.lft.to/lastmile_qr_scan"}, "lat": 38.890901166666666, "is_reserved": 0, "is_disabled": 0, "fusion_lat": 0.0}, {"fusion_lon": 0.0, "bike_id": "cfe321290b9f94f8257dc31105045c60", "name": "cfe321290b9f94f8257dc31105045c60", "type": "electric_scooter", "lon": -77.06179816666666, "rental_uris": {"android": "https://dc.lft.to/lastmile_qr_scan", "ios": "https://dc.lft.to/lastmile_qr_scan"}, "lat": 38.94089916666667, "is_reserved": 0, "is_disabled": 0, "fusion_lat": 0.0}, {"fusion_lon": 0.0, "bike_id": "a379add969a8ad33bcc87320be3efb78", "name": "a379add969a8ad33bcc87320be3efb78", "type": "electric_scooter", "lon": -77.02730033333333, "rental_uris": {"android": "https://dc.lft.to/lastmile_qr_scan", "ios": "https://dc.lft.to/lastmile_qr_scan"}, "lat": 38.8963045, "is_reserved": 0, "is_disabled": 0, "fusion_lat": 0.0}, {"fusion_lon": 0.0, "bike_id": "40073d83666236b2b01820bb893292e9", "name": "40073d83666236b2b01820bb893292e9", "type": "electric_scooter", "lon": -77.009685, "rental_uris": {"android": "https://dc.lft.to/lastmile_qr_scan", "ios": "https://dc.lft.to/lastmile_qr_scan"}, "lat": 38.90793016666667, "is_reserved": 0, "is_disabled": 0, "fusion_lat": 0.0}, {"fusion_lon": 0.0, "bike_id": "d2448d1e135cdfc0e907a64d4912e11b", "name": "d2448d1e135cdfc0e907a64d4912e11b", "type": "electric_scooter", "lon": -77.016008, "rental_uris": {"android": "https://dc.lft.to/lastmile_qr_scan", "ios": "https://dc.lft.to/lastmile_qr_scan"}, "lat": 38.899814666666664, "is_reserved": 0, "is_disabled": 0, "fusion_lat": 0.0}, {"fusion_lon": 0.0, "bike_id": "96c59ac7f9a88736f64bed4ed2a26f4a", "name": "96c59ac7f9a88736f64bed4ed2a26f4a", "type": "electric_scooter", "lon": -77.01765016666667, "rental_uris": {"android": "https://dc.lft.to/lastmile_qr_scan", "ios": "https://dc.lft.to/lastmile_qr_scan"}, "lat": 38.902387833333336, "is_reserved": 0, "is_disabled": 0, "fusion_lat": 0.0}, {"fusion_lon": 0.0, "bike_id": "93601d8231d52a6dd1be2301af077e77", "name": "93601d8231d52a6dd1be2301af077e77", "type": "electric_scooter", "lon": -77.03460583333333, "rental_uris": {"android": "https://dc.lft.to/lastmile_qr_scan", "ios": "https://dc.lft.to/lastmile_qr_scan"}, "lat": 38.921591, "is_reserved": 0, "is_disabled": 0, "fusion_lat": 0.0}, {"fusion_lon": 0.0, "bike_id": "7f8e770368e7efcb1d291971b4889352", "name": "7f8e770368e7efcb1d291971b4889352", "type": "electric_scooter", "lon": -77.0439435, "rental_uris": {"android": "https://dc.lft.to/lastmile_qr_scan", "ios": "https://dc.lft.to/lastmile_qr_scan"}, "lat": 38.908860833333335, "is_reserved": 0, "is_disabled": 0, "fusion_lat": 0.0}, {"fusion_lon": 0.0, "bike_id": "2425f51bea734bc323e770c532c6ddd7", "name": "2425f51bea734bc323e770c532c6ddd7", "type": "electric_scooter", "lon": -77.019308, "rental_uris": {"android": "https://dc.lft.to/lastmile_qr_scan", "ios": "https://dc.lft.to/lastmile_qr_scan"}, "lat": 38.94476516666667, "is_reserved": 0, "is_disabled": 0, "fusion_lat": 0.0}, {"fusion_lon": 0.0, "bike_id": "126952a5586dc9e2ce8755fb3fd02bf8", "name": "126952a5586dc9e2ce8755fb3fd02bf8", "type": "electric_scooter", "lon": -76.99465366666666, "rental_uris": {"android": "https://dc.lft.to/lastmile_qr_scan", "ios": "https://dc.lft.to/lastmile_qr_scan"}, "lat": 38.840347333333334, "is_reserved": 0, "is_disabled": 0, "fusion_lat": 0.0}, {"fusion_lon": 0.0, "bike_id": "ed04a2d1dfe8fd5cdfec6971071c8142", "name": "ed04a2d1dfe8fd5cdfec6971071c8142", "type": "electric_scooter", "lon": -77.016308, "rental_uris": {"android": "https://dc.lft.to/lastmile_qr_scan", "ios": "https://dc.lft.to/lastmile_qr_scan"}, "lat": 38.903745, "is_reserved": 0, "is_disabled": 0, "fusion_lat": 0.0}, {"fusion_lon": 0.0, "bike_id": "27353e51324e7a3326ec7ec6567e8fcd", "name": "27353e51324e7a3326ec7ec6567e8fcd", "type": "electric_scooter", "lon": -77.04191666666667, "rental_uris": {"android": "https://dc.lft.to/lastmile_qr_scan", "ios": "https://dc.lft.to/lastmile_qr_scan"}, "lat": 38.92464616666667, "is_reserved": 0, "is_disabled": 0, "fusion_lat": 0.0}, {"fusion_lon": 0.0, "bike_id": "288108f9b1695143ed75eb487c57963b", "name": "288108f9b1695143ed75eb487c57963b", "type": "electric_bike", "lon": -76.98829883333333, "rental_uris": {"android": "https://dc.lft.to/lastmile_qr_scan", "ios": "https://dc.lft.to/lastmile_qr_scan"}, "lat": 38.985621, "is_reserved": 0, "is_disabled": 0, "fusion_lat": 0.0}, {"fusion_lon": 0.0, "bike_id": "d5a0033c09714ad4241a7856b7707c25", "name": "d5a0033c09714ad4241a7856b7707c25", "type": "electric_scooter", "lon": -77.023956, "rental_uris": {"android": "https://dc.lft.to/lastmile_qr_scan", "ios": "https://dc.lft.to/lastmile_qr_scan"}, "lat": 38.95736433333333, "is_reserved": 0, "is_disabled": 0, "fusion_lat": 0.0}, {"fusion_lon": 0.0, "bike_id": "76f468229f5a9d222d26c97ef06173af", "name": "76f468229f5a9d222d26c97ef06173af", "type": "electric_scooter", "lon": -77.04790133333333, "rental_uris": {"android": "https://dc.lft.to/lastmile_qr_scan", "ios": "https://dc.lft.to/lastmile_qr_scan"}, "lat": 38.9079925, "is_reserved": 0, "is_disabled": 0, "fusion_lat": 0.0}, {"fusion_lon": 0.0, "bike_id": "9ff22a354c5ac40ad5b6b585b510ac1a", "name": "9ff22a354c5ac40ad5b6b585b510ac1a", "type": "electric_scooter", "lon": -77.040152, "rental_uris": {"android": "https://dc.lft.to/lastmile_qr_scan", "ios": "https://dc.lft.to/lastmile_qr_scan"}, "lat": 38.917988333333334, "is_reserved": 0, "is_disabled": 0, "fusion_lat": 0.0}, {"fusion_lon": 0.0, "bike_id": "f63aded1b6fb9923655bb52c6ea1f058", "name": "f63aded1b6fb9923655bb52c6ea1f058", "type": "electric_scooter", "lon": -77.0266175, "rental_uris": {"android": "https://dc.lft.to/lastmile_qr_scan", "ios": "https://dc.lft.to/lastmile_qr_scan"}, "lat": 38.979386833333336, "is_reserved": 0, "is_disabled": 0, "fusion_lat": 0.0}, {"fusion_lon": 0.0, "bike_id": "efe054d3ed4f3be83aceb53d781138c8", "name": "efe054d3ed4f3be83aceb53d781138c8", "type": "electric_scooter", "lon": -77.02720166666667, "rental_uris": {"android": "https://dc.lft.to/lastmile_qr_scan", "ios": "https://dc.lft.to/lastmile_qr_scan"}, "lat": 38.934332, "is_reserved": 0, "is_disabled": 0, "fusion_lat": 0.0}, {"fusion_lon": 0.0, "bike_id": "8e3503d3ac273a59de689869500a3205", "name": "8e3503d3ac273a59de689869500a3205", "type": "electric_scooter", "lon": -77.04697266666666, "rental_uris": {"android": "https://dc.lft.to/lastmile_qr_scan", "ios": "https://dc.lft.to/lastmile_qr_scan"}, "lat": 38.8974835, "is_reserved": 0, "is_disabled": 0, "fusion_lat": 0.0}, {"fusion_lon": 0.0, "bike_id": "de9fcae7d5a389d42decf4c39999d463", "name": "de9fcae7d5a389d42decf4c39999d463", "type": "electric_scooter", "lon": -77.02355566666667, "rental_uris": {"android": "https://dc.lft.to/lastmile_qr_scan", "ios": "https://dc.lft.to/lastmile_qr_scan"}, "lat": 38.925017833333335, "is_reserved": 0, "is_disabled": 0, "fusion_lat": 0.0}, {"fusion_lon": 0.0, "bike_id": "1fbc6217d0aa0f403b3bd3901a39f76b", "name": "1fbc6217d0aa0f403b3bd3901a39f76b", "type": "electric_scooter", "lon": -77.002018, "rental_uris": {"android": "https://dc.lft.to/lastmile_qr_scan", "ios": "https://dc.lft.to/lastmile_qr_scan"}, "lat": 38.900034, "is_reserved": 0, "is_disabled": 0, "fusion_lat": 0.0}, {"fusion_lon": 0.0, "bike_id": "454bc9f1cf5809e17efb033b6c1e7e78", "name": "454bc9f1cf5809e17efb033b6c1e7e78", "type": "electric_scooter", "lon": -77.02445833333333, "rental_uris": {"android": "https://dc.lft.to/lastmile_qr_scan", "ios": "https://dc.lft.to/lastmile_qr_scan"}, "lat": 38.92791866666666, "is_reserved": 0, "is_disabled": 0, "fusion_lat": 0.0}, {"fusion_lon": 0.0, "bike_id": "ae5153ffb4bac669b1fd03af0a1d2132", "name": "ae5153ffb4bac669b1fd03af0a1d2132", "type": "electric_scooter", "lon": -77.02163316666666, "rental_uris": {"android": "https://dc.lft.to/lastmile_qr_scan", "ios": "https://dc.lft.to/lastmile_qr_scan"}, "lat": 38.89992133333333, "is_reserved": 0, "is_disabled": 0, "fusion_lat": 0.0}, {"fusion_lon": 0.0, "bike_id": "6797dcd688259981caf1e27af57e7066", "name": "6797dcd688259981caf1e27af57e7066", "type": "electric_scooter", "lon": -77.01397583333333, "rental_uris": {"android": "https://dc.lft.to/lastmile_qr_scan", "ios": "https://dc.lft.to/lastmile_qr_scan"}, "lat": 38.880291166666666, "is_reserved": 0, "is_disabled": 0, "fusion_lat": 0.0}, {"fusion_lon": 0.0, "bike_id": "1deeb3ee278190149d23bc8de03d2c74", "name": "1deeb3ee278190149d23bc8de03d2c74", "type": "electric_scooter", "lon": -77.0507145, "rental_uris": {"android": "https://dc.lft.to/lastmile_qr_scan", "ios": "https://dc.lft.to/lastmile_qr_scan"}, "lat": 38.9007845, "is_reserved": 0, "is_disabled": 0, "fusion_lat": 0.0}, {"fusion_lon": 0.0, "bike_id": "375ecf5c111b097070e964de801943ea", "name": "375ecf5c111b097070e964de801943ea", "type": "electric_scooter", "lon": -77.03100716666667, "rental_uris": {"android": "https://dc.lft.to/lastmile_qr_scan", "ios": "https://dc.lft.to/lastmile_qr_scan"}, "lat": 38.92575033333333, "is_reserved": 0, "is_disabled": 0, "fusion_lat": 0.0}, {"fusion_lon": 0.0, "bike_id": "b7e621c33f56ea6781ba6576930c4e25", "name": "b7e621c33f56ea6781ba6576930c4e25", "type": "electric_bike", "lon": -77.10688133333333, "rental_uris": {"android": "https://dc.lft.to/lastmile_qr_scan", "ios": "https://dc.lft.to/lastmile_qr_scan"}, "lat": 38.935788, "is_reserved": 0, "is_disabled": 0, "fusion_lat": 0.0}, {"fusion_lon": 0.0, "bike_id": "7d985e7ffc39c2ac0b2a5c2858830003", "name": "7d985e7ffc39c2ac0b2a5c2858830003", "type": "electric_scooter", "lon": -77.021049, "rental_uris": {"android": "https://dc.lft.to/lastmile_qr_scan", "ios": "https://dc.lft.to/lastmile_qr_scan"}, "lat": 38.911075, "is_reserved": 0, "is_disabled": 0, "fusion_lat": 0.0}, {"fusion_lon": 0.0, "bike_id": "0fcbc6abfbcd52d96bbe097c44fe871b", "name": "0fcbc6abfbcd52d96bbe097c44fe871b", "type": "electric_bike", "lon": -76.98757533333334, "rental_uris": {"android": "https://dc.lft.to/lastmile_qr_scan", "ios": "https://dc.lft.to/lastmile_qr_scan"}, "lat": 38.85785933333333, "is_reserved": 0, "is_disabled": 0, "fusion_lat": 0.0}, {"fusion_lon": 0.0, "bike_id": "afebc50e0126bc3174180fd33faf9981", "name": "afebc50e0126bc3174180fd33faf9981", "type": "electric_scooter", "lon": -77.00966666666666, "rental_uris": {"android": "https://dc.lft.to/lastmile_qr_scan", "ios": "https://dc.lft.to/lastmile_qr_scan"}, "lat": 38.907874166666666, "is_reserved": 0, "is_disabled": 0, "fusion_lat": 0.0}, {"fusion_lon": 0.0, "bike_id": "c133a1db59dde23e95ea2223ea054682", "name": "c133a1db59dde23e95ea2223ea054682", "type": "electric_scooter", "lon": -77.00072283333333, "rental_uris": {"android": "https://dc.lft.to/lastmile_qr_scan", "ios": "https://dc.lft.to/lastmile_qr_scan"}, "lat": 38.9013985, "is_reserved": 0, "is_disabled": 0, "fusion_lat": 0.0}, {"fusion_lon": 0.0, "bike_id": "87a81b007c969bfe61deaec441ebf3a6", "name": "87a81b007c969bfe61deaec441ebf3a6", "type": "electric_scooter", "lon": -76.97911066666667, "rental_uris": {"android": "https://dc.lft.to/lastmile_qr_scan", "ios": "https://dc.lft.to/lastmile_qr_scan"}, "lat": 38.8943265, "is_reserved": 0, "is_disabled": 0, "fusion_lat": 0.0}, {"fusion_lon": 0.0, "bike_id": "1ea9a9ac04f51d9ba5667b53df45b858", "name": "1ea9a9ac04f51d9ba5667b53df45b858", "type": "electric_scooter", "lon": -77.02364766666666, "rental_uris": {"android": "https://dc.lft.to/lastmile_qr_scan", "ios": "https://dc.lft.to/lastmile_qr_scan"}, "lat": 38.9353375, "is_reserved": 0, "is_disabled": 0, "fusion_lat": 0.0}, {"fusion_lon": 0.0, "bike_id": "cb4ffa1a3f09119edba8ee012f5755da", "name": "cb4ffa1a3f09119edba8ee012f5755da", "type": "electric_scooter", "lon": -77.06359316666666, "rental_uris": {"android": "https://dc.lft.to/lastmile_qr_scan", "ios": "https://dc.lft.to/lastmile_qr_scan"}, "lat": 38.944459, "is_reserved": 0, "is_disabled": 0, "fusion_lat": 0.0}, {"fusion_lon": 0.0, "bike_id": "7ec04dd939f08ceb06a83bd6045875aa", "name": "7ec04dd939f08ceb06a83bd6045875aa", "type": "electric_scooter", "lon": -77.02284516666667, "rental_uris": {"android": "https://dc.lft.to/lastmile_qr_scan", "ios": "https://dc.lft.to/lastmile_qr_scan"}, "lat": 38.908159833333336, "is_reserved": 0, "is_disabled": 0, "fusion_lat": 0.0}, {"fusion_lon": 0.0, "bike_id": "e7eef0e68a019cf389bc23c4c4aa70d1", "name": "e7eef0e68a019cf389bc23c4c4aa70d1", "type": "electric_bike", "lon": -77.12737416666667, "rental_uris": {"android": "https://dc.lft.to/lastmile_qr_scan", "ios": "https://dc.lft.to/lastmile_qr_scan"}, "lat": 38.8956485, "is_reserved": 0, "is_disabled": 0, "fusion_lat": 0.0}, {"fusion_lon": 0.0, "bike_id": "0ebb2629eeb038d12cd84798aa3fb245", "name": "0ebb2629eeb038d12cd84798aa3fb245", "type": "electric_scooter", "lon": -77.015294, "rental_uris": {"android": "https://dc.lft.to/lastmile_qr_scan", "ios": "https://dc.lft.to/lastmile_qr_scan"}, "lat": 38.884844, "is_reserved": 0, "is_disabled": 0, "fusion_lat": 0.0}, {"fusion_lon": 0.0, "bike_id": "6b83f0bbb970d85eccdf609e1c9907a0", "name": "6b83f0bbb970d85eccdf609e1c9907a0", "type": "electric_scooter", "lon": -77.02099666666666, "rental_uris": {"android": "https://dc.lft.to/lastmile_qr_scan", "ios": "https://dc.lft.to/lastmile_qr_scan"}, "lat": 38.89740833333333, "is_reserved": 0, "is_disabled": 0, "fusion_lat": 0.0}, {"fusion_lon": 0.0, "bike_id": "81344383591f4664eb6602e49d32d468", "name": "81344383591f4664eb6602e49d32d468", "type": "electric_scooter", "lon": -77.00750016666667, "rental_uris": {"android": "https://dc.lft.to/lastmile_qr_scan", "ios": "https://dc.lft.to/lastmile_qr_scan"}, "lat": 38.900508333333335, "is_reserved": 0, "is_disabled": 0, "fusion_lat": 0.0}, {"fusion_lon": 0.0, "bike_id": "cad7bee9d2c9d0d3b0e83c9ed5bb03cd", "name": "cad7bee9d2c9d0d3b0e83c9ed5bb03cd", "type": "electric_scooter", "lon": -77.04613216666667, "rental_uris": {"android": "https://dc.lft.to/lastmile_qr_scan", "ios": "https://dc.lft.to/lastmile_qr_scan"}, "lat": 38.899702166666664, "is_reserved": 0, "is_disabled": 0, "fusion_lat": 0.0}, {"fusion_lon": 0.0, "bike_id": "f49ddafd65d6869d0b1c6042b4ec6d28", "name": "f49ddafd65d6869d0b1c6042b4ec6d28", "type": "electric_scooter", "lon": -76.98692583333333, "rental_uris": {"android": "https://dc.lft.to/lastmile_qr_scan", "ios": "https://dc.lft.to/lastmile_qr_scan"}, "lat": 38.855633166666664, "is_reserved": 0, "is_disabled": 0, "fusion_lat": 0.0}, {"fusion_lon": 0.0, "bike_id": "81ae9e68ee9b14a84a009383f1256b40", "name": "81ae9e68ee9b14a84a009383f1256b40", "type": "electric_scooter", "lon": -76.98777, "rental_uris": {"android": "https://dc.lft.to/lastmile_qr_scan", "ios": "https://dc.lft.to/lastmile_qr_scan"}, "lat": 38.9119945, "is_reserved": 0, "is_disabled": 0, "fusion_lat": 0.0}, {"fusion_lon": 0.0, "bike_id": "51f71f991e6d621aee973790c0599d2b", "name": "51f71f991e6d621aee973790c0599d2b", "type": "electric_scooter", "lon": -77.027209, "rental_uris": {"android": "https://dc.lft.to/lastmile_qr_scan", "ios": "https://dc.lft.to/lastmile_qr_scan"}, "lat": 38.92482116666667, "is_reserved": 0, "is_disabled": 0, "fusion_lat": 0.0}, {"fusion_lon": 0.0, "bike_id": "f9e0a835b22705b904ae175d63cc1716", "name": "f9e0a835b22705b904ae175d63cc1716", "type": "electric_scooter", "lon": -77.01821666666666, "rental_uris": {"android": "https://dc.lft.to/lastmile_qr_scan", "ios": "https://dc.lft.to/lastmile_qr_scan"}, "lat": 38.902637666666664, "is_reserved": 0, "is_disabled": 0, "fusion_lat": 0.0}, {"fusion_lon": 0.0, "bike_id": "700d12709cf7f312167c53b64ef3a79f", "name": "700d12709cf7f312167c53b64ef3a79f", "type": "electric_scooter", "lon": -77.0127115, "rental_uris": {"android": "https://dc.lft.to/lastmile_qr_scan", "ios": "https://dc.lft.to/lastmile_qr_scan"}, "lat": 38.8748515, "is_reserved": 0, "is_disabled": 0, "fusion_lat": 0.0}, {"fusion_lon": 0.0, "bike_id": "7d4c905d6c033e391eb5350d4f3c9b3f", "name": "7d4c905d6c033e391eb5350d4f3c9b3f", "type": "electric_scooter", "lon": -76.94120666666667, "rental_uris": {"android": "https://dc.lft.to/lastmile_qr_scan", "ios": "https://dc.lft.to/lastmile_qr_scan"}, "lat": 38.90790466666667, "is_reserved": 0, "is_disabled": 0, "fusion_lat": 0.0}, {"fusion_lon": 0.0, "bike_id": "39b9ef3ee23433ba08133da57d974446", "name": "39b9ef3ee23433ba08133da57d974446", "type": "electric_scooter", "lon": -77.00485233333333, "rental_uris": {"android": "https://dc.lft.to/lastmile_qr_scan", "ios": "https://dc.lft.to/lastmile_qr_scan"}, "lat": 38.92587983333333, "is_reserved": 0, "is_disabled": 0, "fusion_lat": 0.0}, {"fusion_lon": 0.0, "bike_id": "835721c5d277f3e40c6fdc2857a7cb48", "name": "835721c5d277f3e40c6fdc2857a7cb48", "type": "electric_scooter", "lon": -77.024662, "rental_uris": {"android": "https://dc.lft.to/lastmile_qr_scan", "ios": "https://dc.lft.to/lastmile_qr_scan"}, "lat": 38.93765466666667, "is_reserved": 0, "is_disabled": 0, "fusion_lat": 0.0}, {"fusion_lon": 0.0, "bike_id": "2100e93a1293010eee1ef4ff2a9bead3", "name": "2100e93a1293010eee1ef4ff2a9bead3", "type": "electric_scooter", "lon": -77.03863983333333, "rental_uris": {"android": "https://dc.lft.to/lastmile_qr_scan", "ios": "https://dc.lft.to/lastmile_qr_scan"}, "lat": 38.91556666666666, "is_reserved": 0, "is_disabled": 0, "fusion_lat": 0.0}, {"fusion_lon": 0.0, "bike_id": "b052578049b34db0bc15349534caf499", "name": "b052578049b34db0bc15349534caf499", "type": "electric_bike", "lon": -76.9817095, "rental_uris": {"android": "https://dc.lft.to/lastmile_qr_scan", "ios": "https://dc.lft.to/lastmile_qr_scan"}, "lat": 38.959567666666665, "is_reserved": 0, "is_disabled": 0, "fusion_lat": 0.0}, {"fusion_lon": 0.0, "bike_id": "36b6ba3766e19db941f2eed12d5db921", "name": "36b6ba3766e19db941f2eed12d5db921", "type": "electric_scooter", "lon": -76.933562, "rental_uris": {"android": "https://dc.lft.to/lastmile_qr_scan", "ios": "https://dc.lft.to/lastmile_qr_scan"}, "lat": 38.89906766666667, "is_reserved": 0, "is_disabled": 0, "fusion_lat": 0.0}, {"fusion_lon": 0.0, "bike_id": "627e0282d634af39aa9755750b0303d9", "name": "627e0282d634af39aa9755750b0303d9", "type": "electric_scooter", "lon": -77.0120905, "rental_uris": {"android": "https://dc.lft.to/lastmile_qr_scan", "ios": "https://dc.lft.to/lastmile_qr_scan"}, "lat": 38.893279166666666, "is_reserved": 0, "is_disabled": 0, "fusion_lat": 0.0}, {"fusion_lon": 0.0, "bike_id": "aa1d448a52a3fd414af93c278a2e66e8", "name": "aa1d448a52a3fd414af93c278a2e66e8", "type": "electric_scooter", "lon": -77.03648266666667, "rental_uris": {"android": "https://dc.lft.to/lastmile_qr_scan", "ios": "https://dc.lft.to/lastmile_qr_scan"}, "lat": 38.91589833333333, "is_reserved": 0, "is_disabled": 0, "fusion_lat": 0.0}, {"fusion_lon": 0.0, "bike_id": "236d0d49d312da77a2e74b0c0c3e6262", "name": "236d0d49d312da77a2e74b0c0c3e6262", "type": "electric_scooter", "lon": -77.011821, "rental_uris": {"android": "https://dc.lft.to/lastmile_qr_scan", "ios": "https://dc.lft.to/lastmile_qr_scan"}, "lat": 38.906531333333334, "is_reserved": 0, "is_disabled": 0, "fusion_lat": 0.0}, {"fusion_lon": 0.0, "bike_id": "f354353a38a09609d37ac45d9d45119a", "name": "f354353a38a09609d37ac45d9d45119a", "type": "electric_scooter", "lon": -77.01892133333334, "rental_uris": {"android": "https://dc.lft.to/lastmile_qr_scan", "ios": "https://dc.lft.to/lastmile_qr_scan"}, "lat": 38.949290166666664, "is_reserved": 0, "is_disabled": 0, "fusion_lat": 0.0}, {"fusion_lon": 0.0, "bike_id": "2fd4e9dba9368662dd9a178ae1142aea", "name": "2fd4e9dba9368662dd9a178ae1142aea", "type": "electric_scooter", "lon": -77.00202966666667, "rental_uris": {"android": "https://dc.lft.to/lastmile_qr_scan", "ios": "https://dc.lft.to/lastmile_qr_scan"}, "lat": 38.900256, "is_reserved": 0, "is_disabled": 0, "fusion_lat": 0.0}, {"fusion_lon": 0.0, "bike_id": "ec243159539dd77bab357ca4a4081207", "name": "ec243159539dd77bab357ca4a4081207", "type": "electric_scooter", "lon": -77.03541916666667, "rental_uris": {"android": "https://dc.lft.to/lastmile_qr_scan", "ios": "https://dc.lft.to/lastmile_qr_scan"}, "lat": 38.93591283333333, "is_reserved": 0, "is_disabled": 0, "fusion_lat": 0.0}, {"fusion_lon": 0.0, "bike_id": "f19b61b5dfa9414eddacf99e164ac836", "name": "f19b61b5dfa9414eddacf99e164ac836", "type": "electric_scooter", "lon": -76.98454766666667, "rental_uris": {"android": "https://dc.lft.to/lastmile_qr_scan", "ios": "https://dc.lft.to/lastmile_qr_scan"}, "lat": 38.88012766666667, "is_reserved": 0, "is_disabled": 0, "fusion_lat": 0.0}, {"fusion_lon": 0.0, "bike_id": "c969bda3ff781671498b42a62ee70e2f", "name": "c969bda3ff781671498b42a62ee70e2f", "type": "electric_scooter", "lon": -77.0417335, "rental_uris": {"android": "https://dc.lft.to/lastmile_qr_scan", "ios": "https://dc.lft.to/lastmile_qr_scan"}, "lat": 38.910955333333334, "is_reserved": 0, "is_disabled": 0, "fusion_lat": 0.0}, {"fusion_lon": 0.0, "bike_id": "ee301fe68020e2e423b6ba7aa31046a7", "name": "ee301fe68020e2e423b6ba7aa31046a7", "type": "electric_scooter", "lon": -76.99192283333333, "rental_uris": {"android": "https://dc.lft.to/lastmile_qr_scan", "ios": "https://dc.lft.to/lastmile_qr_scan"}, "lat": 38.925899, "is_reserved": 0, "is_disabled": 0, "fusion_lat": 0.0}, {"fusion_lon": 0.0, "bike_id": "4118a573b4946eca441a5f94604b2bc2", "name": "4118a573b4946eca441a5f94604b2bc2", "type": "electric_scooter", "lon": -77.022053, "rental_uris": {"android": "https://dc.lft.to/lastmile_qr_scan", "ios": "https://dc.lft.to/lastmile_qr_scan"}, "lat": 38.90196983333333, "is_reserved": 0, "is_disabled": 0, "fusion_lat": 0.0}, {"fusion_lon": 0.0, "bike_id": "f4fa613addf8fc9847bb2139843a4769", "name": "f4fa613addf8fc9847bb2139843a4769", "type": "electric_scooter", "lon": -77.00195033333334, "rental_uris": {"android": "https://dc.lft.to/lastmile_qr_scan", "ios": "https://dc.lft.to/lastmile_qr_scan"}, "lat": 38.902260166666665, "is_reserved": 0, "is_disabled": 0, "fusion_lat": 0.0}, {"fusion_lon": 0.0, "bike_id": "e8bf2fef00cc97a3301be46d1d1ec44b", "name": "e8bf2fef00cc97a3301be46d1d1ec44b", "type": "electric_scooter", "lon": -77.02230683333333, "rental_uris": {"android": "https://dc.lft.to/lastmile_qr_scan", "ios": "https://dc.lft.to/lastmile_qr_scan"}, "lat": 38.901030666666664, "is_reserved": 0, "is_disabled": 0, "fusion_lat": 0.0}, {"fusion_lon": 0.0, "bike_id": "79f38c9b621c64f67f83e116509bbffe", "name": "79f38c9b621c64f67f83e116509bbffe", "type": "electric_scooter", "lon": -77.029569, "rental_uris": {"android": "https://dc.lft.to/lastmile_qr_scan", "ios": "https://dc.lft.to/lastmile_qr_scan"}, "lat": 38.91181666666667, "is_reserved": 0, "is_disabled": 0, "fusion_lat": 0.0}, {"fusion_lon": 0.0, "bike_id": "c094db64a94ae4fb2ab4ba9e4ce49fb9", "name": "c094db64a94ae4fb2ab4ba9e4ce49fb9", "type": "electric_scooter", "lon": -77.017986, "rental_uris": {"android": "https://dc.lft.to/lastmile_qr_scan", "ios": "https://dc.lft.to/lastmile_qr_scan"}, "lat": 38.941176, "is_reserved": 0, "is_disabled": 0, "fusion_lat": 0.0}, {"fusion_lon": 0.0, "bike_id": "1020d100de676dcbc2459fc445c19607", "name": "1020d100de676dcbc2459fc445c19607", "type": "electric_scooter", "lon": -77.00337566666667, "rental_uris": {"android": "https://dc.lft.to/lastmile_qr_scan", "ios": "https://dc.lft.to/lastmile_qr_scan"}, "lat": 38.90705283333333, "is_reserved": 0, "is_disabled": 0, "fusion_lat": 0.0}, {"fusion_lon": 0.0, "bike_id": "9111f9f7cf9fb6f7518c54725e9e728d", "name": "9111f9f7cf9fb6f7518c54725e9e728d", "type": "electric_scooter", "lon": -77.0402475, "rental_uris": {"android": "https://dc.lft.to/lastmile_qr_scan", "ios": "https://dc.lft.to/lastmile_qr_scan"}, "lat": 38.91299133333333, "is_reserved": 0, "is_disabled": 0, "fusion_lat": 0.0}, {"fusion_lon": 0.0, "bike_id": "88b9468d5cdfbeb944e409a776b84a21", "name": "88b9468d5cdfbeb944e409a776b84a21", "type": "electric_bike", "lon": -77.1002715, "rental_uris": {"android": "https://dc.lft.to/lastmile_qr_scan", "ios": "https://dc.lft.to/lastmile_qr_scan"}, "lat": 38.990646166666664, "is_reserved": 0, "is_disabled": 0, "fusion_lat": 0.0}, {"fusion_lon": 0.0, "bike_id": "1f437a0d7b192ec6128e767a442d9191", "name": "1f437a0d7b192ec6128e767a442d9191", "type": "electric_bike", "lon": -76.87496283333333, "rental_uris": {"android": "https://dc.lft.to/lastmile_qr_scan", "ios": "https://dc.lft.to/lastmile_qr_scan"}, "lat": 38.99089466666667, "is_reserved": 0, "is_disabled": 0, "fusion_lat": 0.0}, {"fusion_lon": 0.0, "bike_id": "857d525810f55ea436f2075da8f1ed2e", "name": "857d525810f55ea436f2075da8f1ed2e", "type": "electric_scooter", "lon": -77.03151533333333, "rental_uris": {"android": "https://dc.lft.to/lastmile_qr_scan", "ios": "https://dc.lft.to/lastmile_qr_scan"}, "lat": 38.927881666666664, "is_reserved": 0, "is_disabled": 0, "fusion_lat": 0.0}, {"fusion_lon": 0.0, "bike_id": "cfe50d5a45765bb699ecc071d6545a42", "name": "cfe50d5a45765bb699ecc071d6545a42", "type": "electric_scooter", "lon": -77.03734616666667, "rental_uris": {"android": "https://dc.lft.to/lastmile_qr_scan", "ios": "https://dc.lft.to/lastmile_qr_scan"}, "lat": 38.93570733333333, "is_reserved": 0, "is_disabled": 0, "fusion_lat": 0.0}, {"fusion_lon": 0.0, "bike_id": "8199902b4f4090bf9ac36a86f9fe84b6", "name": "8199902b4f4090bf9ac36a86f9fe84b6", "type": "electric_scooter", "lon": -77.05919616666667, "rental_uris": {"android": "https://dc.lft.to/lastmile_qr_scan", "ios": "https://dc.lft.to/lastmile_qr_scan"}, "lat": 38.90998916666667, "is_reserved": 0, "is_disabled": 0, "fusion_lat": 0.0}, {"fusion_lon": 0.0, "bike_id": "783fbf8acbb8b4d20a482d1449d6adce", "name": "783fbf8acbb8b4d20a482d1449d6adce", "type": "electric_scooter", "lon": -77.02938383333333, "rental_uris": {"android": "https://dc.lft.to/lastmile_qr_scan", "ios": "https://dc.lft.to/lastmile_qr_scan"}, "lat": 38.914159166666664, "is_reserved": 0, "is_disabled": 0, "fusion_lat": 0.0}, {"fusion_lon": 0.0, "bike_id": "5d95c2a4485d1dddedc362a367b529cc", "name": "5d95c2a4485d1dddedc362a367b529cc", "type": "electric_scooter", "lon": -77.030421, "rental_uris": {"android": "https://dc.lft.to/lastmile_qr_scan", "ios": "https://dc.lft.to/lastmile_qr_scan"}, "lat": 38.884023, "is_reserved": 0, "is_disabled": 0, "fusion_lat": 0.0}, {"fusion_lon": 0.0, "bike_id": "55b47e88de75d66b104e2bf2da51e29e", "name": "55b47e88de75d66b104e2bf2da51e29e", "type": "electric_bike", "lon": -77.04903166666666, "rental_uris": {"android": "https://dc.lft.to/lastmile_qr_scan", "ios": "https://dc.lft.to/lastmile_qr_scan"}, "lat": 38.87491466666667, "is_reserved": 0, "is_disabled": 0, "fusion_lat": 0.0}, {"fusion_lon": 0.0, "bike_id": "0d6cbf2e7fbedbbeced501a341753b49", "name": "0d6cbf2e7fbedbbeced501a341753b49", "type": "electric_scooter", "lon": -77.02805766666667, "rental_uris": {"android": "https://dc.lft.to/lastmile_qr_scan", "ios": "https://dc.lft.to/lastmile_qr_scan"}, "lat": 38.950923833333334, "is_reserved": 0, "is_disabled": 0, "fusion_lat": 0.0}, {"fusion_lon": 0.0, "bike_id": "8777120f2f4280a7f1ec69f9b70a4cfa", "name": "8777120f2f4280a7f1ec69f9b70a4cfa", "type": "electric_scooter", "lon": -77.014128, "rental_uris": {"android": "https://dc.lft.to/lastmile_qr_scan", "ios": "https://dc.lft.to/lastmile_qr_scan"}, "lat": 38.92788133333333, "is_reserved": 0, "is_disabled": 0, "fusion_lat": 0.0}, {"fusion_lon": 0.0, "bike_id": "a3ff4a91494a1cee5484b3855787fff5", "name": "a3ff4a91494a1cee5484b3855787fff5", "type": "electric_scooter", "lon": -77.03389416666667, "rental_uris": {"android": "https://dc.lft.to/lastmile_qr_scan", "ios": "https://dc.lft.to/lastmile_qr_scan"}, "lat": 38.9683375, "is_reserved": 0, "is_disabled": 0, "fusion_lat": 0.0}, {"fusion_lon": 0.0, "bike_id": "626bef679cf647fe8af29e7ef498095f", "name": "626bef679cf647fe8af29e7ef498095f", "type": "electric_scooter", "lon": -77.02198133333333, "rental_uris": {"android": "https://dc.lft.to/lastmile_qr_scan", "ios": "https://dc.lft.to/lastmile_qr_scan"}, "lat": 38.9112415, "is_reserved": 0, "is_disabled": 0, "fusion_lat": 0.0}, {"fusion_lon": 0.0, "bike_id": "74e9275db0440baa94475988d66c3bd3", "name": "74e9275db0440baa94475988d66c3bd3", "type": "electric_scooter", "lon": -76.94773633333334, "rental_uris": {"android": "https://dc.lft.to/lastmile_qr_scan", "ios": "https://dc.lft.to/lastmile_qr_scan"}, "lat": 38.896301666666666, "is_reserved": 0, "is_disabled": 0, "fusion_lat": 0.0}, {"fusion_lon": 0.0, "bike_id": "6cb34906159a485ba38e6392d1ab2a44", "name": "6cb34906159a485ba38e6392d1ab2a44", "type": "electric_scooter", "lon": -76.94943566666667, "rental_uris": {"android": "https://dc.lft.to/lastmile_qr_scan", "ios": "https://dc.lft.to/lastmile_qr_scan"}, "lat": 38.883187, "is_reserved": 0, "is_disabled": 0, "fusion_lat": 0.0}, {"fusion_lon": 0.0, "bike_id": "1afb7ba32aed3e88e5d132ebdfb19638", "name": "1afb7ba32aed3e88e5d132ebdfb19638", "type": "electric_bike", "lon": -77.01237216666667, "rental_uris": {"android": "https://dc.lft.to/lastmile_qr_scan", "ios": "https://dc.lft.to/lastmile_qr_scan"}, "lat": 38.89318133333333, "is_reserved": 0, "is_disabled": 0, "fusion_lat": 0.0}, {"fusion_lon": 0.0, "bike_id": "f0bbe29354e151026b22fa0719dbc3cb", "name": "f0bbe29354e151026b22fa0719dbc3cb", "type": "electric_scooter", "lon": -77.022993, "rental_uris": {"android": "https://dc.lft.to/lastmile_qr_scan", "ios": "https://dc.lft.to/lastmile_qr_scan"}, "lat": 38.9156505, "is_reserved": 0, "is_disabled": 0, "fusion_lat": 0.0}, {"fusion_lon": 0.0, "bike_id": "a4f4aae56db3f6e14d0238d32be5e1ff", "name": "a4f4aae56db3f6e14d0238d32be5e1ff", "type": "electric_scooter", "lon": -77.05593166666667, "rental_uris": {"android": "https://dc.lft.to/lastmile_qr_scan", "ios": "https://dc.lft.to/lastmile_qr_scan"}, "lat": 38.936119, "is_reserved": 0, "is_disabled": 0, "fusion_lat": 0.0}, {"fusion_lon": 0.0, "bike_id": "8a849f9584a43f8145d41c5496536ecb", "name": "8a849f9584a43f8145d41c5496536ecb", "type": "electric_scooter", "lon": -77.00438383333334, "rental_uris": {"android": "https://dc.lft.to/lastmile_qr_scan", "ios": "https://dc.lft.to/lastmile_qr_scan"}, "lat": 38.907227666666664, "is_reserved": 0, "is_disabled": 0, "fusion_lat": 0.0}, {"fusion_lon": 0.0, "bike_id": "120b9f10f88e961d37ec02fb1e868ae8", "name": "120b9f10f88e961d37ec02fb1e868ae8", "type": "electric_scooter", "lon": -77.04158183333334, "rental_uris": {"android": "https://dc.lft.to/lastmile_qr_scan", "ios": "https://dc.lft.to/lastmile_qr_scan"}, "lat": 38.92328533333333, "is_reserved": 0, "is_disabled": 0, "fusion_lat": 0.0}, {"fusion_lon": 0.0, "bike_id": "157216eca1cc51cb4cc2434e50f6b136", "name": "157216eca1cc51cb4cc2434e50f6b136", "type": "electric_scooter", "lon": -77.02296783333334, "rental_uris": {"android": "https://dc.lft.to/lastmile_qr_scan", "ios": "https://dc.lft.to/lastmile_qr_scan"}, "lat": 38.9377205, "is_reserved": 0, "is_disabled": 0, "fusion_lat": 0.0}, {"fusion_lon": 0.0, "bike_id": "bc54a19e6ca6d17ae5602369ae4d41a3", "name": "bc54a19e6ca6d17ae5602369ae4d41a3", "type": "electric_scooter", "lon": -77.09436683333334, "rental_uris": {"android": "https://dc.lft.to/lastmile_qr_scan", "ios": "https://dc.lft.to/lastmile_qr_scan"}, "lat": 38.91778633333333, "is_reserved": 0, "is_disabled": 0, "fusion_lat": 0.0}, {"fusion_lon": 0.0, "bike_id": "0709c4f9f5f9bbc5c985bf92e9d99866", "name": "0709c4f9f5f9bbc5c985bf92e9d99866", "type": "electric_bike", "lon": -76.9884125, "rental_uris": {"android": "https://dc.lft.to/lastmile_qr_scan", "ios": "https://dc.lft.to/lastmile_qr_scan"}, "lat": 38.842777, "is_reserved": 0, "is_disabled": 0, "fusion_lat": 0.0}, {"fusion_lon": 0.0, "bike_id": "7a4c4aa5afdaccc350fba1d8d49ff75a", "name": "7a4c4aa5afdaccc350fba1d8d49ff75a", "type": "electric_scooter", "lon": -76.99643, "rental_uris": {"android": "https://dc.lft.to/lastmile_qr_scan", "ios": "https://dc.lft.to/lastmile_qr_scan"}, "lat": 38.88718566666667, "is_reserved": 0, "is_disabled": 0, "fusion_lat": 0.0}, {"fusion_lon": 0.0, "bike_id": "ef9eca60755cc5639a0fcdaeca0d7420", "name": "ef9eca60755cc5639a0fcdaeca0d7420", "type": "electric_scooter", "lon": -77.01768966666667, "rental_uris": {"android": "https://dc.lft.to/lastmile_qr_scan", "ios": "https://dc.lft.to/lastmile_qr_scan"}, "lat": 38.877178666666666, "is_reserved": 0, "is_disabled": 0, "fusion_lat": 0.0}, {"fusion_lon": 0.0, "bike_id": "beb97debcf5b37d1ca04ad0a6e98d53a", "name": "beb97debcf5b37d1ca04ad0a6e98d53a", "type": "electric_scooter", "lon": -77.04290683333333, "rental_uris": {"android": "https://dc.lft.to/lastmile_qr_scan", "ios": "https://dc.lft.to/lastmile_qr_scan"}, "lat": 38.913323166666665, "is_reserved": 0, "is_disabled": 0, "fusion_lat": 0.0}, {"fusion_lon": 0.0, "bike_id": "7ea482f5b298355448b340565e0cfc2e", "name": "7ea482f5b298355448b340565e0cfc2e", "type": "electric_scooter", "lon": -77.0403, "rental_uris": {"android": "https://dc.lft.to/lastmile_qr_scan", "ios": "https://dc.lft.to/lastmile_qr_scan"}, "lat": 38.90578216666667, "is_reserved": 0, "is_disabled": 0, "fusion_lat": 0.0}, {"fusion_lon": 0.0, "bike_id": "8c756d46fbbcbbcd3182c503366c03de", "name": "8c756d46fbbcbbcd3182c503366c03de", "type": "electric_scooter", "lon": -77.0435155, "rental_uris": {"android": "https://dc.lft.to/lastmile_qr_scan", "ios": "https://dc.lft.to/lastmile_qr_scan"}, "lat": 38.91874833333333, "is_reserved": 0, "is_disabled": 0, "fusion_lat": 0.0}, {"fusion_lon": 0.0, "bike_id": "72fb9aa1073bd845496e59204beea08a", "name": "72fb9aa1073bd845496e59204beea08a", "type": "electric_scooter", "lon": -77.00938033333334, "rental_uris": {"android": "https://dc.lft.to/lastmile_qr_scan", "ios": "https://dc.lft.to/lastmile_qr_scan"}, "lat": 38.876597833333335, "is_reserved": 0, "is_disabled": 0, "fusion_lat": 0.0}, {"fusion_lon": 0.0, "bike_id": "8d8e8e969f2aa6e74d427b56658960cc", "name": "8d8e8e969f2aa6e74d427b56658960cc", "type": "electric_scooter", "lon": -77.00802133333333, "rental_uris": {"android": "https://dc.lft.to/lastmile_qr_scan", "ios": "https://dc.lft.to/lastmile_qr_scan"}, "lat": 38.876547, "is_reserved": 0, "is_disabled": 0, "fusion_lat": 0.0}, {"fusion_lon": 0.0, "bike_id": "ada329f3d53fd8c7deee6059587a29d1", "name": "ada329f3d53fd8c7deee6059587a29d1", "type": "electric_scooter", "lon": -77.07708583333333, "rental_uris": {"android": "https://dc.lft.to/lastmile_qr_scan", "ios": "https://dc.lft.to/lastmile_qr_scan"}, "lat": 38.942903333333334, "is_reserved": 0, "is_disabled": 0, "fusion_lat": 0.0}, {"fusion_lon": 0.0, "bike_id": "8616db392d482b4f0a533c9e1dc0555a", "name": "8616db392d482b4f0a533c9e1dc0555a", "type": "electric_scooter", "lon": -77.01105066666666, "rental_uris": {"android": "https://dc.lft.to/lastmile_qr_scan", "ios": "https://dc.lft.to/lastmile_qr_scan"}, "lat": 38.895992166666666, "is_reserved": 0, "is_disabled": 0, "fusion_lat": 0.0}, {"fusion_lon": 0.0, "bike_id": "55df71c0a0bfd77402ea1b72c55975d2", "name": "55df71c0a0bfd77402ea1b72c55975d2", "type": "electric_scooter", "lon": -77.02098733333334, "rental_uris": {"android": "https://dc.lft.to/lastmile_qr_scan", "ios": "https://dc.lft.to/lastmile_qr_scan"}, "lat": 38.89759183333334, "is_reserved": 0, "is_disabled": 0, "fusion_lat": 0.0}, {"fusion_lon": 0.0, "bike_id": "8a2c7073e973b8fdce70a384ebddc882", "name": "8a2c7073e973b8fdce70a384ebddc882", "type": "electric_scooter", "lon": -77.0415845, "rental_uris": {"android": "https://dc.lft.to/lastmile_qr_scan", "ios": "https://dc.lft.to/lastmile_qr_scan"}, "lat": 38.9147905, "is_reserved": 0, "is_disabled": 0, "fusion_lat": 0.0}, {"fusion_lon": 0.0, "bike_id": "8962f27cd93e81d33a326e7771a400e1", "name": "8962f27cd93e81d33a326e7771a400e1", "type": "electric_scooter", "lon": -77.042419, "rental_uris": {"android": "https://dc.lft.to/lastmile_qr_scan", "ios": "https://dc.lft.to/lastmile_qr_scan"}, "lat": 38.91927333333334, "is_reserved": 0, "is_disabled": 0, "fusion_lat": 0.0}, {"fusion_lon": 0.0, "bike_id": "b8fa40f1df47f64172884c76ee5b95da", "name": "b8fa40f1df47f64172884c76ee5b95da", "type": "electric_scooter", "lon": -77.03177216666667, "rental_uris": {"android": "https://dc.lft.to/lastmile_qr_scan", "ios": "https://dc.lft.to/lastmile_qr_scan"}, "lat": 38.914056333333335, "is_reserved": 0, "is_disabled": 0, "fusion_lat": 0.0}, {"fusion_lon": 0.0, "bike_id": "79cee5e3e71debc26dbfa2f4f1460588", "name": "79cee5e3e71debc26dbfa2f4f1460588", "type": "electric_scooter", "lon": -77.04858783333333, "rental_uris": {"android": "https://dc.lft.to/lastmile_qr_scan", "ios": "https://dc.lft.to/lastmile_qr_scan"}, "lat": 38.90210016666666, "is_reserved": 0, "is_disabled": 0, "fusion_lat": 0.0}, {"fusion_lon": 0.0, "bike_id": "3bd3dc1232f4ef9b18228f404ca09725", "name": "3bd3dc1232f4ef9b18228f404ca09725", "type": "electric_bike", "lon": -76.98658633333334, "rental_uris": {"android": "https://dc.lft.to/lastmile_qr_scan", "ios": "https://dc.lft.to/lastmile_qr_scan"}, "lat": 38.93970983333333, "is_reserved": 0, "is_disabled": 0, "fusion_lat": 0.0}, {"fusion_lon": 0.0, "bike_id": "a371fc9f7245b6e679edeecae456d201", "name": "a371fc9f7245b6e679edeecae456d201", "type": "electric_scooter", "lon": -76.99842233333334, "rental_uris": {"android": "https://dc.lft.to/lastmile_qr_scan", "ios": "https://dc.lft.to/lastmile_qr_scan"}, "lat": 38.9003285, "is_reserved": 0, "is_disabled": 0, "fusion_lat": 0.0}, {"fusion_lon": 0.0, "bike_id": "7fcc0bbd461d9805681dfe063219a5cd", "name": "7fcc0bbd461d9805681dfe063219a5cd", "type": "electric_scooter", "lon": -77.057915, "rental_uris": {"android": "https://dc.lft.to/lastmile_qr_scan", "ios": "https://dc.lft.to/lastmile_qr_scan"}, "lat": 38.934771833333336, "is_reserved": 0, "is_disabled": 0, "fusion_lat": 0.0}, {"fusion_lon": 0.0, "bike_id": "138fb12ea5813c618dd71b974b833c66", "name": "138fb12ea5813c618dd71b974b833c66", "type": "electric_scooter", "lon": -76.96530866666667, "rental_uris": {"android": "https://dc.lft.to/lastmile_qr_scan", "ios": "https://dc.lft.to/lastmile_qr_scan"}, "lat": 38.8748225, "is_reserved": 0, "is_disabled": 0, "fusion_lat": 0.0}, {"fusion_lon": 0.0, "bike_id": "2bed320b53852c59af798aab0fa638e5", "name": "2bed320b53852c59af798aab0fa638e5", "type": "electric_scooter", "lon": -77.02304516666666, "rental_uris": {"android": "https://dc.lft.to/lastmile_qr_scan", "ios": "https://dc.lft.to/lastmile_qr_scan"}, "lat": 38.917857, "is_reserved": 0, "is_disabled": 0, "fusion_lat": 0.0}, {"fusion_lon": 0.0, "bike_id": "70d5831518d76801d7f053e357ba7cec", "name": "70d5831518d76801d7f053e357ba7cec", "type": "electric_bike", "lon": -76.96886083333334, "rental_uris": {"android": "https://dc.lft.to/lastmile_qr_scan", "ios": "https://dc.lft.to/lastmile_qr_scan"}, "lat": 38.84598033333333, "is_reserved": 0, "is_disabled": 0, "fusion_lat": 0.0}, {"fusion_lon": 0.0, "bike_id": "e922a18880ff818d3f429cd3c83b98ac", "name": "e922a18880ff818d3f429cd3c83b98ac", "type": "electric_scooter", "lon": -77.0195715, "rental_uris": {"android": "https://dc.lft.to/lastmile_qr_scan", "ios": "https://dc.lft.to/lastmile_qr_scan"}, "lat": 38.930348333333335, "is_reserved": 0, "is_disabled": 0, "fusion_lat": 0.0}, {"fusion_lon": 0.0, "bike_id": "dbe8644f2b527ad330c4725d3d09bac1", "name": "dbe8644f2b527ad330c4725d3d09bac1", "type": "electric_scooter", "lon": -77.03761216666666, "rental_uris": {"android": "https://dc.lft.to/lastmile_qr_scan", "ios": "https://dc.lft.to/lastmile_qr_scan"}, "lat": 38.92909933333333, "is_reserved": 0, "is_disabled": 0, "fusion_lat": 0.0}, {"fusion_lon": 0.0, "bike_id": "db74bebcb3afb3af3e977d09ecd5989b", "name": "db74bebcb3afb3af3e977d09ecd5989b", "type": "electric_scooter", "lon": -77.03463083333334, "rental_uris": {"android": "https://dc.lft.to/lastmile_qr_scan", "ios": "https://dc.lft.to/lastmile_qr_scan"}, "lat": 38.9171725, "is_reserved": 0, "is_disabled": 0, "fusion_lat": 0.0}, {"fusion_lon": 0.0, "bike_id": "9926c695e7e6e41b72dd5e89f1649554", "name": "9926c695e7e6e41b72dd5e89f1649554", "type": "electric_scooter", "lon": -77.0289425, "rental_uris": {"android": "https://dc.lft.to/lastmile_qr_scan", "ios": "https://dc.lft.to/lastmile_qr_scan"}, "lat": 38.92474383333333, "is_reserved": 0, "is_disabled": 0, "fusion_lat": 0.0}, {"fusion_lon": 0.0, "bike_id": "cd23300e371767a3ddcce28eb3681da4", "name": "cd23300e371767a3ddcce28eb3681da4", "type": "electric_scooter", "lon": -77.03934216666667, "rental_uris": {"android": "https://dc.lft.to/lastmile_qr_scan", "ios": "https://dc.lft.to/lastmile_qr_scan"}, "lat": 38.92495133333333, "is_reserved": 0, "is_disabled": 0, "fusion_lat": 0.0}, {"fusion_lon": 0.0, "bike_id": "25409d35d2607983476cf7db30ca1e61", "name": "25409d35d2607983476cf7db30ca1e61", "type": "electric_scooter", "lon": -77.038309, "rental_uris": {"android": "https://dc.lft.to/lastmile_qr_scan", "ios": "https://dc.lft.to/lastmile_qr_scan"}, "lat": 38.91108333333333, "is_reserved": 0, "is_disabled": 0, "fusion_lat": 0.0}, {"fusion_lon": 0.0, "bike_id": "210a4d5a9ad633bb7381d1a7b8787bba", "name": "210a4d5a9ad633bb7381d1a7b8787bba", "type": "electric_scooter", "lon": -77.016156, "rental_uris": {"android": "https://dc.lft.to/lastmile_qr_scan", "ios": "https://dc.lft.to/lastmile_qr_scan"}, "lat": 38.87875716666667, "is_reserved": 0, "is_disabled": 0, "fusion_lat": 0.0}, {"fusion_lon": 0.0, "bike_id": "c553bcfe2307f1c22a2e97f49c100dcb", "name": "c553bcfe2307f1c22a2e97f49c100dcb", "type": "electric_scooter", "lon": -77.05702266666667, "rental_uris": {"android": "https://dc.lft.to/lastmile_qr_scan", "ios": "https://dc.lft.to/lastmile_qr_scan"}, "lat": 38.9105895, "is_reserved": 0, "is_disabled": 0, "fusion_lat": 0.0}, {"fusion_lon": 0.0, "bike_id": "503cad84ca21aecb4dba0fdafcfe3ede", "name": "503cad84ca21aecb4dba0fdafcfe3ede", "type": "electric_scooter", "lon": -77.0280045, "rental_uris": {"android": "https://dc.lft.to/lastmile_qr_scan", "ios": "https://dc.lft.to/lastmile_qr_scan"}, "lat": 38.8984265, "is_reserved": 0, "is_disabled": 0, "fusion_lat": 0.0}, {"fusion_lon": 0.0, "bike_id": "2614f16ed7ead22202456f2d88d9338e", "name": "2614f16ed7ead22202456f2d88d9338e", "type": "electric_scooter", "lon": -76.99610466666667, "rental_uris": {"android": "https://dc.lft.to/lastmile_qr_scan", "ios": "https://dc.lft.to/lastmile_qr_scan"}, "lat": 38.88035416666666, "is_reserved": 0, "is_disabled": 0, "fusion_lat": 0.0}, {"fusion_lon": 0.0, "bike_id": "1e3ee48c33bd5aee3e02ddf68eecc56b", "name": "1e3ee48c33bd5aee3e02ddf68eecc56b", "type": "electric_scooter", "lon": -77.03859183333333, "rental_uris": {"android": "https://dc.lft.to/lastmile_qr_scan", "ios": "https://dc.lft.to/lastmile_qr_scan"}, "lat": 38.9183495, "is_reserved": 0, "is_disabled": 0, "fusion_lat": 0.0}, {"fusion_lon": 0.0, "bike_id": "1c7c76d9db3a9a867e7e5f592870121a", "name": "1c7c76d9db3a9a867e7e5f592870121a", "type": "electric_scooter", "lon": -77.00049, "rental_uris": {"android": "https://dc.lft.to/lastmile_qr_scan", "ios": "https://dc.lft.to/lastmile_qr_scan"}, "lat": 38.9190075, "is_reserved": 0, "is_disabled": 0, "fusion_lat": 0.0}, {"fusion_lon": 0.0, "bike_id": "bcc28208315ead614a8f474b4c179ad1", "name": "bcc28208315ead614a8f474b4c179ad1", "type": "electric_scooter", "lon": -77.04151166666666, "rental_uris": {"android": "https://dc.lft.to/lastmile_qr_scan", "ios": "https://dc.lft.to/lastmile_qr_scan"}, "lat": 38.917174833333334, "is_reserved": 0, "is_disabled": 0, "fusion_lat": 0.0}, {"fusion_lon": 0.0, "bike_id": "69f5a1638c7e75aae9a36675f00f3615", "name": "69f5a1638c7e75aae9a36675f00f3615", "type": "electric_scooter", "lon": -77.03626816666667, "rental_uris": {"android": "https://dc.lft.to/lastmile_qr_scan", "ios": "https://dc.lft.to/lastmile_qr_scan"}, "lat": 38.92456133333334, "is_reserved": 0, "is_disabled": 0, "fusion_lat": 0.0}, {"fusion_lon": 0.0, "bike_id": "d3163f54142e231da645a23c125bfd87", "name": "d3163f54142e231da645a23c125bfd87", "type": "electric_scooter", "lon": -77.082028, "rental_uris": {"android": "https://dc.lft.to/lastmile_qr_scan", "ios": "https://dc.lft.to/lastmile_qr_scan"}, "lat": 38.935581666666664, "is_reserved": 0, "is_disabled": 0, "fusion_lat": 0.0}, {"fusion_lon": 0.0, "bike_id": "f1af4f8920f1f927e833c20fee2c9e72", "name": "f1af4f8920f1f927e833c20fee2c9e72", "type": "electric_scooter", "lon": -77.03392516666666, "rental_uris": {"android": "https://dc.lft.to/lastmile_qr_scan", "ios": "https://dc.lft.to/lastmile_qr_scan"}, "lat": 38.919159666666665, "is_reserved": 0, "is_disabled": 0, "fusion_lat": 0.0}, {"fusion_lon": 0.0, "bike_id": "46ae1662779164a37a3020bf2afab56e", "name": "46ae1662779164a37a3020bf2afab56e", "type": "electric_scooter", "lon": -77.021018, "rental_uris": {"android": "https://dc.lft.to/lastmile_qr_scan", "ios": "https://dc.lft.to/lastmile_qr_scan"}, "lat": 38.934544333333335, "is_reserved": 0, "is_disabled": 0, "fusion_lat": 0.0}, {"fusion_lon": 0.0, "bike_id": "3142f79a2137bbd627fcaef7fec500b3", "name": "3142f79a2137bbd627fcaef7fec500b3", "type": "electric_scooter", "lon": -77.0019535, "rental_uris": {"android": "https://dc.lft.to/lastmile_qr_scan", "ios": "https://dc.lft.to/lastmile_qr_scan"}, "lat": 38.9147495, "is_reserved": 0, "is_disabled": 0, "fusion_lat": 0.0}, {"fusion_lon": 0.0, "bike_id": "ad9d899dd3102d707b81d58cdce42a07", "name": "ad9d899dd3102d707b81d58cdce42a07", "type": "electric_scooter", "lon": -77.04224916666666, "rental_uris": {"android": "https://dc.lft.to/lastmile_qr_scan", "ios": "https://dc.lft.to/lastmile_qr_scan"}, "lat": 38.9170615, "is_reserved": 0, "is_disabled": 0, "fusion_lat": 0.0}, {"fusion_lon": 0.0, "bike_id": "29ababb27fdc264bceff9d17ede18be8", "name": "29ababb27fdc264bceff9d17ede18be8", "type": "electric_scooter", "lon": -77.024551, "rental_uris": {"android": "https://dc.lft.to/lastmile_qr_scan", "ios": "https://dc.lft.to/lastmile_qr_scan"}, "lat": 38.928908666666665, "is_reserved": 0, "is_disabled": 0, "fusion_lat": 0.0}, {"fusion_lon": 0.0, "bike_id": "5042f03b61355f8d1a8aa2c5438bb671", "name": "5042f03b61355f8d1a8aa2c5438bb671", "type": "electric_scooter", "lon": -77.04190183333333, "rental_uris": {"android": "https://dc.lft.to/lastmile_qr_scan", "ios": "https://dc.lft.to/lastmile_qr_scan"}, "lat": 38.923344166666666, "is_reserved": 0, "is_disabled": 0, "fusion_lat": 0.0}, {"fusion_lon": 0.0, "bike_id": "595b58cea272f7a564317ab9cffd7e50", "name": "595b58cea272f7a564317ab9cffd7e50", "type": "electric_scooter", "lon": -77.02971266666667, "rental_uris": {"android": "https://dc.lft.to/lastmile_qr_scan", "ios": "https://dc.lft.to/lastmile_qr_scan"}, "lat": 38.905410333333336, "is_reserved": 0, "is_disabled": 0, "fusion_lat": 0.0}, {"fusion_lon": 0.0, "bike_id": "538a90684431702918ff6cbb40ea8708", "name": "538a90684431702918ff6cbb40ea8708", "type": "electric_scooter", "lon": -77.00730533333333, "rental_uris": {"android": "https://dc.lft.to/lastmile_qr_scan", "ios": "https://dc.lft.to/lastmile_qr_scan"}, "lat": 38.90379216666667, "is_reserved": 0, "is_disabled": 0, "fusion_lat": 0.0}, {"fusion_lon": 0.0, "bike_id": "96b87f500fd948b76b56311be3ecd119", "name": "96b87f500fd948b76b56311be3ecd119", "type": "electric_scooter", "lon": -77.03641466666667, "rental_uris": {"android": "https://dc.lft.to/lastmile_qr_scan", "ios": "https://dc.lft.to/lastmile_qr_scan"}, "lat": 38.91766116666667, "is_reserved": 0, "is_disabled": 0, "fusion_lat": 0.0}, {"fusion_lon": 0.0, "bike_id": "053d2824082320ec4726574347476a4a", "name": "053d2824082320ec4726574347476a4a", "type": "electric_scooter", "lon": -77.05518216666667, "rental_uris": {"android": "https://dc.lft.to/lastmile_qr_scan", "ios": "https://dc.lft.to/lastmile_qr_scan"}, "lat": 38.944153666666665, "is_reserved": 0, "is_disabled": 0, "fusion_lat": 0.0}, {"fusion_lon": 0.0, "bike_id": "9565fd21d9243d93cb81e8f7b556268b", "name": "9565fd21d9243d93cb81e8f7b556268b", "type": "electric_scooter", "lon": -77.0119315, "rental_uris": {"android": "https://dc.lft.to/lastmile_qr_scan", "ios": "https://dc.lft.to/lastmile_qr_scan"}, "lat": 38.88766183333333, "is_reserved": 0, "is_disabled": 0, "fusion_lat": 0.0}, {"fusion_lon": 0.0, "bike_id": "ef3c58dcc03058bae2aa5df4e72196ee", "name": "ef3c58dcc03058bae2aa5df4e72196ee", "type": "electric_bike", "lon": -76.98383916666667, "rental_uris": {"android": "https://dc.lft.to/lastmile_qr_scan", "ios": "https://dc.lft.to/lastmile_qr_scan"}, "lat": 38.914734, "is_reserved": 0, "is_disabled": 0, "fusion_lat": 0.0}, {"fusion_lon": 0.0, "bike_id": "f2200ec780cf94c11851b8f31648e394", "name": "f2200ec780cf94c11851b8f31648e394", "type": "electric_scooter", "lon": -77.0327865, "rental_uris": {"android": "https://dc.lft.to/lastmile_qr_scan", "ios": "https://dc.lft.to/lastmile_qr_scan"}, "lat": 38.93750383333333, "is_reserved": 0, "is_disabled": 0, "fusion_lat": 0.0}, {"fusion_lon": 0.0, "bike_id": "6fa363a635f9ca9a0c7cc66903e51fa5", "name": "6fa363a635f9ca9a0c7cc66903e51fa5", "type": "electric_scooter", "lon": -76.98914583333334, "rental_uris": {"android": "https://dc.lft.to/lastmile_qr_scan", "ios": "https://dc.lft.to/lastmile_qr_scan"}, "lat": 38.902275833333334, "is_reserved": 0, "is_disabled": 0, "fusion_lat": 0.0}, {"fusion_lon": 0.0, "bike_id": "a594083d4e6ae1a08764bd15862b1fb6", "name": "a594083d4e6ae1a08764bd15862b1fb6", "type": "electric_scooter", "lon": -77.00195016666666, "rental_uris": {"android": "https://dc.lft.to/lastmile_qr_scan", "ios": "https://dc.lft.to/lastmile_qr_scan"}, "lat": 38.900043333333336, "is_reserved": 0, "is_disabled": 0, "fusion_lat": 0.0}, {"fusion_lon": 0.0, "bike_id": "974a6dcbb736d7f80320791239ad3a24", "name": "974a6dcbb736d7f80320791239ad3a24", "type": "electric_scooter", "lon": -77.03180216666667, "rental_uris": {"android": "https://dc.lft.to/lastmile_qr_scan", "ios": "https://dc.lft.to/lastmile_qr_scan"}, "lat": 38.905174833333334, "is_reserved": 0, "is_disabled": 0, "fusion_lat": 0.0}, {"fusion_lon": 0.0, "bike_id": "2f00f5748d330f77eaee1868e788028a", "name": "2f00f5748d330f77eaee1868e788028a", "type": "electric_scooter", "lon": -77.0419315, "rental_uris": {"android": "https://dc.lft.to/lastmile_qr_scan", "ios": "https://dc.lft.to/lastmile_qr_scan"}, "lat": 38.90522033333333, "is_reserved": 0, "is_disabled": 0, "fusion_lat": 0.0}, {"fusion_lon": 0.0, "bike_id": "bfb7895d7d56354f68f75df1ad36edef", "name": "bfb7895d7d56354f68f75df1ad36edef", "type": "electric_scooter", "lon": -77.03149933333333, "rental_uris": {"android": "https://dc.lft.to/lastmile_qr_scan", "ios": "https://dc.lft.to/lastmile_qr_scan"}, "lat": 38.887439, "is_reserved": 0, "is_disabled": 0, "fusion_lat": 0.0}, {"fusion_lon": 0.0, "bike_id": "a697e793750e967db44027a0e96aa5f0", "name": "a697e793750e967db44027a0e96aa5f0", "type": "electric_scooter", "lon": -77.00713416666666, "rental_uris": {"android": "https://dc.lft.to/lastmile_qr_scan", "ios": "https://dc.lft.to/lastmile_qr_scan"}, "lat": 38.8849025, "is_reserved": 0, "is_disabled": 0, "fusion_lat": 0.0}, {"fusion_lon": 0.0, "bike_id": "ed1cdbfa27b9886dc742e2354f4beb03", "name": "ed1cdbfa27b9886dc742e2354f4beb03", "type": "electric_bike", "lon": -77.03985533333334, "rental_uris": {"android": "https://dc.lft.to/lastmile_qr_scan", "ios": "https://dc.lft.to/lastmile_qr_scan"}, "lat": 38.80303116666666, "is_reserved": 0, "is_disabled": 0, "fusion_lat": 0.0}, {"fusion_lon": 0.0, "bike_id": "70c42f46e052195f7412babebd25b0d7", "name": "70c42f46e052195f7412babebd25b0d7", "type": "electric_scooter", "lon": -77.0239675, "rental_uris": {"android": "https://dc.lft.to/lastmile_qr_scan", "ios": "https://dc.lft.to/lastmile_qr_scan"}, "lat": 38.93106933333333, "is_reserved": 0, "is_disabled": 0, "fusion_lat": 0.0}, {"fusion_lon": 0.0, "bike_id": "d895217365d63aee89006c1483d7fc7e", "name": "d895217365d63aee89006c1483d7fc7e", "type": "electric_scooter", "lon": -77.0157445, "rental_uris": {"android": "https://dc.lft.to/lastmile_qr_scan", "ios": "https://dc.lft.to/lastmile_qr_scan"}, "lat": 38.8725875, "is_reserved": 0, "is_disabled": 0, "fusion_lat": 0.0}, {"fusion_lon": 0.0, "bike_id": "aa96d10d477edf19f6cd8864af94443d", "name": "aa96d10d477edf19f6cd8864af94443d", "type": "electric_scooter", "lon": -76.97552066666667, "rental_uris": {"android": "https://dc.lft.to/lastmile_qr_scan", "ios": "https://dc.lft.to/lastmile_qr_scan"}, "lat": 38.902546, "is_reserved": 0, "is_disabled": 0, "fusion_lat": 0.0}, {"fusion_lon": 0.0, "bike_id": "ca977ee48b184e76d000543073388d9e", "name": "ca977ee48b184e76d000543073388d9e", "type": "electric_scooter", "lon": -77.03847116666667, "rental_uris": {"android": "https://dc.lft.to/lastmile_qr_scan", "ios": "https://dc.lft.to/lastmile_qr_scan"}, "lat": 38.91187683333333, "is_reserved": 0, "is_disabled": 0, "fusion_lat": 0.0}, {"fusion_lon": 0.0, "bike_id": "ec3e3e0056400a837948b53dd9eb42ee", "name": "ec3e3e0056400a837948b53dd9eb42ee", "type": "electric_scooter", "lon": -77.04878333333333, "rental_uris": {"android": "https://dc.lft.to/lastmile_qr_scan", "ios": "https://dc.lft.to/lastmile_qr_scan"}, "lat": 38.903625, "is_reserved": 0, "is_disabled": 0, "fusion_lat": 0.0}, {"fusion_lon": 0.0, "bike_id": "095de3118b29faa86079d8441d159877", "name": "095de3118b29faa86079d8441d159877", "type": "electric_scooter", "lon": -77.04179333333333, "rental_uris": {"android": "https://dc.lft.to/lastmile_qr_scan", "ios": "https://dc.lft.to/lastmile_qr_scan"}, "lat": 38.90644066666667, "is_reserved": 0, "is_disabled": 0, "fusion_lat": 0.0}, {"fusion_lon": 0.0, "bike_id": "47c920fbbbe33a7c42b4b1aee83ec80b", "name": "47c920fbbbe33a7c42b4b1aee83ec80b", "type": "electric_scooter", "lon": -77.052673, "rental_uris": {"android": "https://dc.lft.to/lastmile_qr_scan", "ios": "https://dc.lft.to/lastmile_qr_scan"}, "lat": 38.92568716666667, "is_reserved": 0, "is_disabled": 0, "fusion_lat": 0.0}, {"fusion_lon": 0.0, "bike_id": "50abdd2770ac3b0d986468b06ad8f0a5", "name": "50abdd2770ac3b0d986468b06ad8f0a5", "type": "electric_scooter", "lon": -76.975475, "rental_uris": {"android": "https://dc.lft.to/lastmile_qr_scan", "ios": "https://dc.lft.to/lastmile_qr_scan"}, "lat": 38.9141195, "is_reserved": 0, "is_disabled": 0, "fusion_lat": 0.0}, {"fusion_lon": 0.0, "bike_id": "6c4b6b67ecfd70144f94c35e5803ab30", "name": "6c4b6b67ecfd70144f94c35e5803ab30", "type": "electric_scooter", "lon": -77.00162983333334, "rental_uris": {"android": "https://dc.lft.to/lastmile_qr_scan", "ios": "https://dc.lft.to/lastmile_qr_scan"}, "lat": 38.9072085, "is_reserved": 0, "is_disabled": 0, "fusion_lat": 0.0}, {"fusion_lon": 0.0, "bike_id": "6938cbe8c0074c290f0f205021fd73e9", "name": "6938cbe8c0074c290f0f205021fd73e9", "type": "electric_scooter", "lon": -77.0456085, "rental_uris": {"android": "https://dc.lft.to/lastmile_qr_scan", "ios": "https://dc.lft.to/lastmile_qr_scan"}, "lat": 38.92072133333333, "is_reserved": 0, "is_disabled": 0, "fusion_lat": 0.0}, {"fusion_lon": 0.0, "bike_id": "292c8322564bbfc68c10e76cd1f4286f", "name": "292c8322564bbfc68c10e76cd1f4286f", "type": "electric_scooter", "lon": -76.9861305, "rental_uris": {"android": "https://dc.lft.to/lastmile_qr_scan", "ios": "https://dc.lft.to/lastmile_qr_scan"}, "lat": 38.854644666666665, "is_reserved": 0, "is_disabled": 0, "fusion_lat": 0.0}, {"fusion_lon": 0.0, "bike_id": "c43fe620263686d541cc9762193e9e12", "name": "c43fe620263686d541cc9762193e9e12", "type": "electric_bike", "lon": -76.96685816666667, "rental_uris": {"android": "https://dc.lft.to/lastmile_qr_scan", "ios": "https://dc.lft.to/lastmile_qr_scan"}, "lat": 38.95890583333333, "is_reserved": 0, "is_disabled": 0, "fusion_lat": 0.0}, {"fusion_lon": 0.0, "bike_id": "e3edca39b1d889ac7d9f015a6f56d5a4", "name": "e3edca39b1d889ac7d9f015a6f56d5a4", "type": "electric_scooter", "lon": -76.94996983333333, "rental_uris": {"android": "https://dc.lft.to/lastmile_qr_scan", "ios": "https://dc.lft.to/lastmile_qr_scan"}, "lat": 38.893909, "is_reserved": 0, "is_disabled": 0, "fusion_lat": 0.0}, {"fusion_lon": 0.0, "bike_id": "0def07c198162d821b92fe7d1a225428", "name": "0def07c198162d821b92fe7d1a225428", "type": "electric_scooter", "lon": -77.0290575, "rental_uris": {"android": "https://dc.lft.to/lastmile_qr_scan", "ios": "https://dc.lft.to/lastmile_qr_scan"}, "lat": 38.903578833333334, "is_reserved": 0, "is_disabled": 0, "fusion_lat": 0.0}, {"fusion_lon": 0.0, "bike_id": "d4cb4be8c8651c18d2ff251197374a22", "name": "d4cb4be8c8651c18d2ff251197374a22", "type": "electric_scooter", "lon": -76.95756816666666, "rental_uris": {"android": "https://dc.lft.to/lastmile_qr_scan", "ios": "https://dc.lft.to/lastmile_qr_scan"}, "lat": 38.88430566666667, "is_reserved": 0, "is_disabled": 0, "fusion_lat": 0.0}, {"fusion_lon": 0.0, "bike_id": "0447bbb440b055ea4d3e6d88be5bc080", "name": "0447bbb440b055ea4d3e6d88be5bc080", "type": "electric_scooter", "lon": -77.01161883333333, "rental_uris": {"android": "https://dc.lft.to/lastmile_qr_scan", "ios": "https://dc.lft.to/lastmile_qr_scan"}, "lat": 38.871989166666665, "is_reserved": 0, "is_disabled": 0, "fusion_lat": 0.0}, {"fusion_lon": 0.0, "bike_id": "0a30ed22fc9a52217dd9fbceca610e59", "name": "0a30ed22fc9a52217dd9fbceca610e59", "type": "electric_scooter", "lon": -77.03209233333334, "rental_uris": {"android": "https://dc.lft.to/lastmile_qr_scan", "ios": "https://dc.lft.to/lastmile_qr_scan"}, "lat": 38.908976, "is_reserved": 0, "is_disabled": 0, "fusion_lat": 0.0}, {"fusion_lon": 0.0, "bike_id": "d7f2ccf98e7075a425cdbbef677698fc", "name": "d7f2ccf98e7075a425cdbbef677698fc", "type": "electric_scooter", "lon": -77.020405, "rental_uris": {"android": "https://dc.lft.to/lastmile_qr_scan", "ios": "https://dc.lft.to/lastmile_qr_scan"}, "lat": 38.911132, "is_reserved": 0, "is_disabled": 0, "fusion_lat": 0.0}, {"fusion_lon": 0.0, "bike_id": "e12a6d4552e37c8b445d4b7b4c8e0f8a", "name": "e12a6d4552e37c8b445d4b7b4c8e0f8a", "type": "electric_scooter", "lon": -77.04640933333333, "rental_uris": {"android": "https://dc.lft.to/lastmile_qr_scan", "ios": "https://dc.lft.to/lastmile_qr_scan"}, "lat": 38.90619, "is_reserved": 0, "is_disabled": 0, "fusion_lat": 0.0}, {"fusion_lon": 0.0, "bike_id": "de47050234a33e4817174d657b8e3a41", "name": "de47050234a33e4817174d657b8e3a41", "type": "electric_bike", "lon": -77.0804915, "rental_uris": {"android": "https://dc.lft.to/lastmile_qr_scan", "ios": "https://dc.lft.to/lastmile_qr_scan"}, "lat": 38.848431, "is_reserved": 0, "is_disabled": 0, "fusion_lat": 0.0}, {"fusion_lon": 0.0, "bike_id": "4e36eab472195633a4d7399bfe8162eb", "name": "4e36eab472195633a4d7399bfe8162eb", "type": "electric_scooter", "lon": -76.98709483333333, "rental_uris": {"android": "https://dc.lft.to/lastmile_qr_scan", "ios": "https://dc.lft.to/lastmile_qr_scan"}, "lat": 38.90125583333333, "is_reserved": 0, "is_disabled": 0, "fusion_lat": 0.0}, {"fusion_lon": 0.0, "bike_id": "62325722c8b15e38255fc1cd6799ff73", "name": "62325722c8b15e38255fc1cd6799ff73", "type": "electric_scooter", "lon": -77.043746, "rental_uris": {"android": "https://dc.lft.to/lastmile_qr_scan", "ios": "https://dc.lft.to/lastmile_qr_scan"}, "lat": 38.9256915, "is_reserved": 0, "is_disabled": 0, "fusion_lat": 0.0}, {"fusion_lon": 0.0, "bike_id": "bf31fd30b0f4461f7ab2843403cc459d", "name": "bf31fd30b0f4461f7ab2843403cc459d", "type": "electric_bike", "lon": -77.01206916666666, "rental_uris": {"android": "https://dc.lft.to/lastmile_qr_scan", "ios": "https://dc.lft.to/lastmile_qr_scan"}, "lat": 38.870948166666665, "is_reserved": 0, "is_disabled": 0, "fusion_lat": 0.0}, {"fusion_lon": 0.0, "bike_id": "e141d2dc7dc22497ae4466a0b8472321", "name": "e141d2dc7dc22497ae4466a0b8472321", "type": "electric_scooter", "lon": -77.036389, "rental_uris": {"android": "https://dc.lft.to/lastmile_qr_scan", "ios": "https://dc.lft.to/lastmile_qr_scan"}, "lat": 38.924114, "is_reserved": 0, "is_disabled": 0, "fusion_lat": 0.0}, {"fusion_lon": 0.0, "bike_id": "edc2de91f6f72107e6468d017fc56b96", "name": "edc2de91f6f72107e6468d017fc56b96", "type": "electric_bike", "lon": -76.98097566666667, "rental_uris": {"android": "https://dc.lft.to/lastmile_qr_scan", "ios": "https://dc.lft.to/lastmile_qr_scan"}, "lat": 38.953609, "is_reserved": 0, "is_disabled": 0, "fusion_lat": 0.0}, {"fusion_lon": 0.0, "bike_id": "096f26086a0bd77d013f5b62d473ea65", "name": "096f26086a0bd77d013f5b62d473ea65", "type": "electric_scooter", "lon": -77.051899, "rental_uris": {"android": "https://dc.lft.to/lastmile_qr_scan", "ios": "https://dc.lft.to/lastmile_qr_scan"}, "lat": 38.925488, "is_reserved": 0, "is_disabled": 0, "fusion_lat": 0.0}, {"fusion_lon": 0.0, "bike_id": "3ad1a6f8419beeaba1d87cda9ca7210d", "name": "3ad1a6f8419beeaba1d87cda9ca7210d", "type": "electric_scooter", "lon": -77.036618, "rental_uris": {"android": "https://dc.lft.to/lastmile_qr_scan", "ios": "https://dc.lft.to/lastmile_qr_scan"}, "lat": 38.9228375, "is_reserved": 0, "is_disabled": 0, "fusion_lat": 0.0}, {"fusion_lon": 0.0, "bike_id": "5fba1867d8797e5344167f7c3a0de50c", "name": "5fba1867d8797e5344167f7c3a0de50c", "type": "electric_scooter", "lon": -76.99817416666667, "rental_uris": {"android": "https://dc.lft.to/lastmile_qr_scan", "ios": "https://dc.lft.to/lastmile_qr_scan"}, "lat": 38.844335666666666, "is_reserved": 0, "is_disabled": 0, "fusion_lat": 0.0}, {"fusion_lon": 0.0, "bike_id": "8121897b08bece832a1ef92bcb1949a7", "name": "8121897b08bece832a1ef92bcb1949a7", "type": "electric_scooter", "lon": -77.022966, "rental_uris": {"android": "https://dc.lft.to/lastmile_qr_scan", "ios": "https://dc.lft.to/lastmile_qr_scan"}, "lat": 38.92694783333334, "is_reserved": 0, "is_disabled": 0, "fusion_lat": 0.0}, {"fusion_lon": 0.0, "bike_id": "98916c0b4094abffca96d7f22ff52ab1", "name": "98916c0b4094abffca96d7f22ff52ab1", "type": "electric_scooter", "lon": -77.05004916666667, "rental_uris": {"android": "https://dc.lft.to/lastmile_qr_scan", "ios": "https://dc.lft.to/lastmile_qr_scan"}, "lat": 38.90525783333333, "is_reserved": 0, "is_disabled": 0, "fusion_lat": 0.0}, {"fusion_lon": 0.0, "bike_id": "b8b0d3b12ea14baeb428ecd09bd2158f", "name": "b8b0d3b12ea14baeb428ecd09bd2158f", "type": "electric_scooter", "lon": -76.98882983333333, "rental_uris": {"android": "https://dc.lft.to/lastmile_qr_scan", "ios": "https://dc.lft.to/lastmile_qr_scan"}, "lat": 38.906294333333335, "is_reserved": 0, "is_disabled": 0, "fusion_lat": 0.0}, {"fusion_lon": 0.0, "bike_id": "fec66dc0466d8536a7795da0cb6f610b", "name": "fec66dc0466d8536a7795da0cb6f610b", "type": "electric_scooter", "lon": -77.04673116666666, "rental_uris": {"android": "https://dc.lft.to/lastmile_qr_scan", "ios": "https://dc.lft.to/lastmile_qr_scan"}, "lat": 38.91322516666666, "is_reserved": 0, "is_disabled": 0, "fusion_lat": 0.0}, {"fusion_lon": 0.0, "bike_id": "99de246dc9fd5c141c24b4e158aa929a", "name": "99de246dc9fd5c141c24b4e158aa929a", "type": "electric_scooter", "lon": -77.01213633333333, "rental_uris": {"android": "https://dc.lft.to/lastmile_qr_scan", "ios": "https://dc.lft.to/lastmile_qr_scan"}, "lat": 38.91978483333333, "is_reserved": 0, "is_disabled": 0, "fusion_lat": 0.0}, {"fusion_lon": 0.0, "bike_id": "bb41b2f1967b1620d7efc9b973b91533", "name": "bb41b2f1967b1620d7efc9b973b91533", "type": "electric_scooter", "lon": -77.046556, "rental_uris": {"android": "https://dc.lft.to/lastmile_qr_scan", "ios": "https://dc.lft.to/lastmile_qr_scan"}, "lat": 38.89335916666667, "is_reserved": 0, "is_disabled": 0, "fusion_lat": 0.0}, {"fusion_lon": 0.0, "bike_id": "fcec5fed32a65722b69545eda7469a01", "name": "fcec5fed32a65722b69545eda7469a01", "type": "electric_scooter", "lon": -76.9855305, "rental_uris": {"android": "https://dc.lft.to/lastmile_qr_scan", "ios": "https://dc.lft.to/lastmile_qr_scan"}, "lat": 38.904224, "is_reserved": 0, "is_disabled": 0, "fusion_lat": 0.0}, {"fusion_lon": 0.0, "bike_id": "d1c7fc90abc0f38ff153eac5fde68aa8", "name": "d1c7fc90abc0f38ff153eac5fde68aa8", "type": "electric_scooter", "lon": -77.017246, "rental_uris": {"android": "https://dc.lft.to/lastmile_qr_scan", "ios": "https://dc.lft.to/lastmile_qr_scan"}, "lat": 38.90419583333333, "is_reserved": 0, "is_disabled": 0, "fusion_lat": 0.0}, {"fusion_lon": 0.0, "bike_id": "9d7615535014f99f17a7a8527bd3774b", "name": "9d7615535014f99f17a7a8527bd3774b", "type": "electric_scooter", "lon": -77.02982216666666, "rental_uris": {"android": "https://dc.lft.to/lastmile_qr_scan", "ios": "https://dc.lft.to/lastmile_qr_scan"}, "lat": 38.924584333333335, "is_reserved": 0, "is_disabled": 0, "fusion_lat": 0.0}, {"fusion_lon": 0.0, "bike_id": "9e81931aff18d9698255cecc48be0bc7", "name": "9e81931aff18d9698255cecc48be0bc7", "type": "electric_scooter", "lon": -76.93556316666667, "rental_uris": {"android": "https://dc.lft.to/lastmile_qr_scan", "ios": "https://dc.lft.to/lastmile_qr_scan"}, "lat": 38.90156733333333, "is_reserved": 0, "is_disabled": 0, "fusion_lat": 0.0}, {"fusion_lon": 0.0, "bike_id": "dc71171c7cb34cd1669bceed9232c46b", "name": "dc71171c7cb34cd1669bceed9232c46b", "type": "electric_scooter", "lon": -77.03973383333333, "rental_uris": {"android": "https://dc.lft.to/lastmile_qr_scan", "ios": "https://dc.lft.to/lastmile_qr_scan"}, "lat": 38.91191, "is_reserved": 0, "is_disabled": 0, "fusion_lat": 0.0}, {"fusion_lon": 0.0, "bike_id": "5971b38ceb260e27bed78726cc0349fd", "name": "5971b38ceb260e27bed78726cc0349fd", "type": "electric_scooter", "lon": -76.99338116666667, "rental_uris": {"android": "https://dc.lft.to/lastmile_qr_scan", "ios": "https://dc.lft.to/lastmile_qr_scan"}, "lat": 38.83876266666667, "is_reserved": 0, "is_disabled": 0, "fusion_lat": 0.0}, {"fusion_lon": 0.0, "bike_id": "07f2d46a3095f02f5c7138d4445682cd", "name": "07f2d46a3095f02f5c7138d4445682cd", "type": "electric_scooter", "lon": -77.027372, "rental_uris": {"android": "https://dc.lft.to/lastmile_qr_scan", "ios": "https://dc.lft.to/lastmile_qr_scan"}, "lat": 38.924072833333334, "is_reserved": 0, "is_disabled": 0, "fusion_lat": 0.0}, {"fusion_lon": 0.0, "bike_id": "174206ff89227c6040788265fb2bb3dd", "name": "174206ff89227c6040788265fb2bb3dd", "type": "electric_scooter", "lon": -77.015612, "rental_uris": {"android": "https://dc.lft.to/lastmile_qr_scan", "ios": "https://dc.lft.to/lastmile_qr_scan"}, "lat": 38.914015166666665, "is_reserved": 0, "is_disabled": 0, "fusion_lat": 0.0}, {"fusion_lon": 0.0, "bike_id": "061879eaf56e0aa8c982f7f46d3eb13f", "name": "061879eaf56e0aa8c982f7f46d3eb13f", "type": "electric_scooter", "lon": -77.02532833333333, "rental_uris": {"android": "https://dc.lft.to/lastmile_qr_scan", "ios": "https://dc.lft.to/lastmile_qr_scan"}, "lat": 38.948396333333335, "is_reserved": 0, "is_disabled": 0, "fusion_lat": 0.0}, {"fusion_lon": 0.0, "bike_id": "0a9e682cc292b221364f4c53912820ea", "name": "0a9e682cc292b221364f4c53912820ea", "type": "electric_scooter", "lon": -77.03746883333334, "rental_uris": {"android": "https://dc.lft.to/lastmile_qr_scan", "ios": "https://dc.lft.to/lastmile_qr_scan"}, "lat": 38.902394, "is_reserved": 0, "is_disabled": 0, "fusion_lat": 0.0}, {"fusion_lon": 0.0, "bike_id": "362c3a11eebd49c8b6a92368c0cea395", "name": "362c3a11eebd49c8b6a92368c0cea395", "type": "electric_scooter", "lon": -77.03262933333333, "rental_uris": {"android": "https://dc.lft.to/lastmile_qr_scan", "ios": "https://dc.lft.to/lastmile_qr_scan"}, "lat": 38.91924316666667, "is_reserved": 0, "is_disabled": 0, "fusion_lat": 0.0}, {"fusion_lon": 0.0, "bike_id": "a4e7eff08a36c0e6d48fbc11006085ae", "name": "a4e7eff08a36c0e6d48fbc11006085ae", "type": "electric_scooter", "lon": -77.0258465, "rental_uris": {"android": "https://dc.lft.to/lastmile_qr_scan", "ios": "https://dc.lft.to/lastmile_qr_scan"}, "lat": 38.920402833333334, "is_reserved": 0, "is_disabled": 0, "fusion_lat": 0.0}, {"fusion_lon": 0.0, "bike_id": "73ad3ab122ff20f7e8869b60051bcb48", "name": "73ad3ab122ff20f7e8869b60051bcb48", "type": "electric_scooter", "lon": -77.03210383333334, "rental_uris": {"android": "https://dc.lft.to/lastmile_qr_scan", "ios": "https://dc.lft.to/lastmile_qr_scan"}, "lat": 38.913977, "is_reserved": 0, "is_disabled": 0, "fusion_lat": 0.0}, {"fusion_lon": 0.0, "bike_id": "167a7c056f84c05b7fe0ab1dfa33b4f0", "name": "167a7c056f84c05b7fe0ab1dfa33b4f0", "type": "electric_scooter", "lon": -77.00106016666666, "rental_uris": {"android": "https://dc.lft.to/lastmile_qr_scan", "ios": "https://dc.lft.to/lastmile_qr_scan"}, "lat": 38.916284833333336, "is_reserved": 0, "is_disabled": 0, "fusion_lat": 0.0}, {"fusion_lon": 0.0, "bike_id": "6dac97c0c3c5e365fe3e1783ede14c43", "name": "6dac97c0c3c5e365fe3e1783ede14c43", "type": "electric_scooter", "lon": -76.98460533333333, "rental_uris": {"android": "https://dc.lft.to/lastmile_qr_scan", "ios": "https://dc.lft.to/lastmile_qr_scan"}, "lat": 38.89365, "is_reserved": 0, "is_disabled": 0, "fusion_lat": 0.0}, {"fusion_lon": 0.0, "bike_id": "b7e3c6a925ffd955aa894ae61854b31b", "name": "b7e3c6a925ffd955aa894ae61854b31b", "type": "electric_scooter", "lon": -77.05336683333333, "rental_uris": {"android": "https://dc.lft.to/lastmile_qr_scan", "ios": "https://dc.lft.to/lastmile_qr_scan"}, "lat": 38.90233766666667, "is_reserved": 0, "is_disabled": 0, "fusion_lat": 0.0}, {"fusion_lon": 0.0, "bike_id": "572b03e070b84ecfd3c24d4b5ecfc34b", "name": "572b03e070b84ecfd3c24d4b5ecfc34b", "type": "electric_bike", "lon": -76.94771816666666, "rental_uris": {"android": "https://dc.lft.to/lastmile_qr_scan", "ios": "https://dc.lft.to/lastmile_qr_scan"}, "lat": 38.8963475, "is_reserved": 0, "is_disabled": 0, "fusion_lat": 0.0}, {"fusion_lon": 0.0, "bike_id": "7a1c175cb3fd08498c309129a4b87ff1", "name": "7a1c175cb3fd08498c309129a4b87ff1", "type": "electric_scooter", "lon": -77.01898466666667, "rental_uris": {"android": "https://dc.lft.to/lastmile_qr_scan", "ios": "https://dc.lft.to/lastmile_qr_scan"}, "lat": 38.939163, "is_reserved": 0, "is_disabled": 0, "fusion_lat": 0.0}, {"fusion_lon": 0.0, "bike_id": "b9a8d20996768abf4df932ec96ccf0ec", "name": "b9a8d20996768abf4df932ec96ccf0ec", "type": "electric_scooter", "lon": -77.00216433333334, "rental_uris": {"android": "https://dc.lft.to/lastmile_qr_scan", "ios": "https://dc.lft.to/lastmile_qr_scan"}, "lat": 38.902854166666664, "is_reserved": 0, "is_disabled": 0, "fusion_lat": 0.0}, {"fusion_lon": 0.0, "bike_id": "2327e0053714875811fd096c0a1b06c7", "name": "2327e0053714875811fd096c0a1b06c7", "type": "electric_scooter", "lon": -77.04860866666667, "rental_uris": {"android": "https://dc.lft.to/lastmile_qr_scan", "ios": "https://dc.lft.to/lastmile_qr_scan"}, "lat": 38.9058085, "is_reserved": 0, "is_disabled": 0, "fusion_lat": 0.0}, {"fusion_lon": 0.0, "bike_id": "dfada4f62460eedb9f60a98daf830443", "name": "dfada4f62460eedb9f60a98daf830443", "type": "electric_scooter", "lon": -77.03654316666666, "rental_uris": {"android": "https://dc.lft.to/lastmile_qr_scan", "ios": "https://dc.lft.to/lastmile_qr_scan"}, "lat": 38.941788833333334, "is_reserved": 0, "is_disabled": 0, "fusion_lat": 0.0}, {"fusion_lon": 0.0, "bike_id": "06711c87b4af4444b56b4c72a563158f", "name": "06711c87b4af4444b56b4c72a563158f", "type": "electric_scooter", "lon": -77.04374966666667, "rental_uris": {"android": "https://dc.lft.to/lastmile_qr_scan", "ios": "https://dc.lft.to/lastmile_qr_scan"}, "lat": 38.874340833333335, "is_reserved": 0, "is_disabled": 0, "fusion_lat": 0.0}, {"fusion_lon": 0.0, "bike_id": "ffc03fecaa3983cac195b363eb34fbb5", "name": "ffc03fecaa3983cac195b363eb34fbb5", "type": "electric_scooter", "lon": -77.02075183333334, "rental_uris": {"android": "https://dc.lft.to/lastmile_qr_scan", "ios": "https://dc.lft.to/lastmile_qr_scan"}, "lat": 38.94903733333334, "is_reserved": 0, "is_disabled": 0, "fusion_lat": 0.0}, {"fusion_lon": 0.0, "bike_id": "2f6ebae81fd55ad8198e4717f655dad2", "name": "2f6ebae81fd55ad8198e4717f655dad2", "type": "electric_bike", "lon": -77.09158683333334, "rental_uris": {"android": "https://dc.lft.to/lastmile_qr_scan", "ios": "https://dc.lft.to/lastmile_qr_scan"}, "lat": 38.967588166666665, "is_reserved": 0, "is_disabled": 0, "fusion_lat": 0.0}, {"fusion_lon": 0.0, "bike_id": "eddb81ab1d7c955874fe3b36c5891902", "name": "eddb81ab1d7c955874fe3b36c5891902", "type": "electric_scooter", "lon": -76.9969995, "rental_uris": {"android": "https://dc.lft.to/lastmile_qr_scan", "ios": "https://dc.lft.to/lastmile_qr_scan"}, "lat": 38.838678, "is_reserved": 0, "is_disabled": 0, "fusion_lat": 0.0}, {"fusion_lon": 0.0, "bike_id": "a7615849dcd16faffdcf113bfe629c63", "name": "a7615849dcd16faffdcf113bfe629c63", "type": "electric_scooter", "lon": -76.97223233333334, "rental_uris": {"android": "https://dc.lft.to/lastmile_qr_scan", "ios": "https://dc.lft.to/lastmile_qr_scan"}, "lat": 38.85451483333333, "is_reserved": 0, "is_disabled": 0, "fusion_lat": 0.0}, {"fusion_lon": 0.0, "bike_id": "7ac6975adaa7e8817c40271ad153c1c2", "name": "7ac6975adaa7e8817c40271ad153c1c2", "type": "electric_scooter", "lon": -77.04653616666667, "rental_uris": {"android": "https://dc.lft.to/lastmile_qr_scan", "ios": "https://dc.lft.to/lastmile_qr_scan"}, "lat": 38.91481566666667, "is_reserved": 0, "is_disabled": 0, "fusion_lat": 0.0}, {"fusion_lon": 0.0, "bike_id": "13038c9a335e21eb0dbf7ee378564880", "name": "13038c9a335e21eb0dbf7ee378564880", "type": "electric_scooter", "lon": -77.04658166666667, "rental_uris": {"android": "https://dc.lft.to/lastmile_qr_scan", "ios": "https://dc.lft.to/lastmile_qr_scan"}, "lat": 38.89298816666667, "is_reserved": 0, "is_disabled": 0, "fusion_lat": 0.0}, {"fusion_lon": 0.0, "bike_id": "db343866396861c07bbeeb75dccfa980", "name": "db343866396861c07bbeeb75dccfa980", "type": "electric_scooter", "lon": -77.00515333333334, "rental_uris": {"android": "https://dc.lft.to/lastmile_qr_scan", "ios": "https://dc.lft.to/lastmile_qr_scan"}, "lat": 38.874706, "is_reserved": 0, "is_disabled": 0, "fusion_lat": 0.0}, {"fusion_lon": 0.0, "bike_id": "ff9bb6d6a0de558d40d30cbcf7ba92ad", "name": "ff9bb6d6a0de558d40d30cbcf7ba92ad", "type": "electric_scooter", "lon": -77.03728533333333, "rental_uris": {"android": "https://dc.lft.to/lastmile_qr_scan", "ios": "https://dc.lft.to/lastmile_qr_scan"}, "lat": 38.9181365, "is_reserved": 0, "is_disabled": 0, "fusion_lat": 0.0}, {"fusion_lon": 0.0, "bike_id": "7291aab8f2869f34dbeeaecc1bc8ddd0", "name": "7291aab8f2869f34dbeeaecc1bc8ddd0", "type": "electric_scooter", "lon": -77.02356883333333, "rental_uris": {"android": "https://dc.lft.to/lastmile_qr_scan", "ios": "https://dc.lft.to/lastmile_qr_scan"}, "lat": 38.93531866666667, "is_reserved": 0, "is_disabled": 0, "fusion_lat": 0.0}, {"fusion_lon": 0.0, "bike_id": "63023ae5bfe00d7f764036ba86fee49e", "name": "63023ae5bfe00d7f764036ba86fee49e", "type": "electric_scooter", "lon": -77.04581283333333, "rental_uris": {"android": "https://dc.lft.to/lastmile_qr_scan", "ios": "https://dc.lft.to/lastmile_qr_scan"}, "lat": 38.924161833333336, "is_reserved": 0, "is_disabled": 0, "fusion_lat": 0.0}, {"fusion_lon": 0.0, "bike_id": "4a78971ffbbacdceefbeccaeb484625e", "name": "4a78971ffbbacdceefbeccaeb484625e", "type": "electric_bike", "lon": -76.94802066666666, "rental_uris": {"android": "https://dc.lft.to/lastmile_qr_scan", "ios": "https://dc.lft.to/lastmile_qr_scan"}, "lat": 38.861984166666666, "is_reserved": 0, "is_disabled": 0, "fusion_lat": 0.0}, {"fusion_lon": 0.0, "bike_id": "3064515ba3777c4386f919631ba86574", "name": "3064515ba3777c4386f919631ba86574", "type": "electric_scooter", "lon": -77.019977, "rental_uris": {"android": "https://dc.lft.to/lastmile_qr_scan", "ios": "https://dc.lft.to/lastmile_qr_scan"}, "lat": 38.966241333333336, "is_reserved": 0, "is_disabled": 0, "fusion_lat": 0.0}, {"fusion_lon": 0.0, "bike_id": "537750ef6c7cbeadd0ff5c88af773493", "name": "537750ef6c7cbeadd0ff5c88af773493", "type": "electric_bike", "lon": -76.98008583333333, "rental_uris": {"android": "https://dc.lft.to/lastmile_qr_scan", "ios": "https://dc.lft.to/lastmile_qr_scan"}, "lat": 38.85322816666667, "is_reserved": 0, "is_disabled": 0, "fusion_lat": 0.0},