{"data": {"bikes": [{"is_disabled": 0, "fusion_lat": 0.0, "lat": 38.897975333333335, "type": "electric_scooter", "lon": -77.0189765, "is_reserved": 0, "fusion_lon": 0.0, "bike_id": "334bfffef94aea74769293dbbc4942c9", "name": "334bfffef94aea74769293dbbc4942c9", "rental_uris": {"ios": "https://dc.lft.to/lastmile_qr_scan", "android": "https://dc.lft.to/lastmile_qr_scan"}}, {"is_disabled": 0, "fusion_lat": 0.0, "lat": 38.87921, "type": "electric_scooter", "lon": -76.99244, "is_reserved": 0, "fusion_lon": 0.0, "bike_id": "3f80a98a6140c976a530892ab9fc650b", "name": "3f80a98a6140c976a530892ab9fc650b", "rental_uris": {"ios": "https://dc.lft.to/lastmile_qr_scan", "android": "https://dc.lft.to/lastmile_qr_scan"}}, {"is_disabled": 0, "fusion_lat": 0.0, "lat": 38.93796666666667, "type": "electric_scooter", "lon": -77.060009, "is_reserved": 0, "fusion_lon": 0.0, "bike_id": "0a199937f46f36accfa493cb47bd3616", "name": "0a199937f46f36accfa493cb47bd3616", "rental_uris": {"ios": "https://dc.lft.to/lastmile_qr_scan", "android": "https://dc.lft.to/lastmile_qr_scan"}}, {"is_disabled": 0, "fusion_lat": 0.0, "lat": 38.913046333333334, "type": "electric_bike", "lon": -77.08283983333334, "is_reserved": 0, "fusion_lon": 0.0, "bike_id": "1bc74c26b529db342d095aeff4d9c640", "name": "1bc74c26b529db342d095aeff4d9c640", "rental_uris": {"ios": "https://dc.lft.to/lastmile_qr_scan", "android": "https://dc.lft.to/lastmile_qr_scan"}}, {"is_disabled": 0, "fusion_lat": 0.0, "lat": 38.922842, "type": "electric_scooter", "lon": -77.04131166666667, "is_reserved": 0, "fusion_lon": 0.0, "bike_id": "965353cc9fe7af0db3c278fe49c7936d", "name": "965353cc9fe7af0db3c278fe49c7936d", "rental_uris": {"ios": "https://dc.lft.to/lastmile_qr_scan", "android": "https://dc.lft.to/lastmile_qr_scan"}}, {"is_disabled": 0, "fusion_lat": 0.0, "lat": 38.91696183333333, "type": "electric_scooter", "lon": -77.012345, "is_reserved": 0, "fusion_lon": 0.0, "bike_id": "9d4ca6b13c2e8e9b775a325134455785", "name": "9d4ca6b13c2e8e9b775a325134455785", "rental_uris": {"ios": "https://dc.lft.to/lastmile_qr_scan", "android": "https://dc.lft.to/lastmile_qr_scan"}}, {"is_disabled": 0, "fusion_lat": 0.0, "lat": 38.91334716666667, "type": "electric_scooter", "lon": -77.04806566666667, "is_reserved": 0, "fusion_lon": 0.0, "bike_id": "99a3697b218474f6d7a618b210879783", "name": "99a3697b218474f6d7a618b210879783", "rental_uris": {"ios": "https://dc.lft.to/lastmile_qr_scan", "android": "https://dc.lft.to/lastmile_qr_scan"}}, {"is_disabled": 0, "fusion_lat": 0.0, "lat": 38.93367466666667, "type": "electric_scooter", "lon": -77.03438466666667, "is_reserved": 0, "fusion_lon": 0.0, "bike_id": "013ef26544ab2b04b31b237dd51498bd", "name": "013ef26544ab2b04b31b237dd51498bd", "rental_uris": {"ios": "https://dc.lft.to/lastmile_qr_scan", "android": "https://dc.lft.to/lastmile_qr_scan"}}, {"is_disabled": 0, "fusion_lat": 0.0, "lat": 38.92005866666667, "type": "electric_scooter", "lon": -77.02185816666666, "is_reserved": 0, "fusion_lon": 0.0, "bike_id": "135f0b92b85120995927f931745ddba6", "name": "135f0b92b85120995927f931745ddba6", "rental_uris": {"ios": "https://dc.lft.to/lastmile_qr_scan", "android": "https://dc.lft.to/lastmile_qr_scan"}}, {"is_disabled": 0, "fusion_lat": 0.0, "lat": 38.90128133333333, "type": "electric_scooter", "lon": -76.9970925, "is_reserved": 0, "fusion_lon": 0.0, "bike_id": "7672c4dfb04abce479d09e5a88d8f8b0", "name": "7672c4dfb04abce479d09e5a88d8f8b0", "rental_uris": {"ios": "https://dc.lft.to/lastmile_qr_scan", "android": "https://dc.lft.to/lastmile_qr_scan"}}, {"is_disabled": 0, "fusion_lat": 0.0, "lat": 38.91153833333333, "type": "electric_scooter", "lon": -76.98655183333334, "is_reserved": 0, "fusion_lon": 0.0, "bike_id": "4c209ad9ef58c3137950b878e5846474", "name": "4c209ad9ef58c3137950b878e5846474", "rental_uris": {"ios": "https://dc.lft.to/lastmile_qr_scan", "android": "https://dc.lft.to/lastmile_qr_scan"}}, {"is_disabled": 0, "fusion_lat": 0.0, "lat": 38.952810666666664, "type": "electric_scooter", "lon": -77.06863033333333, "is_reserved": 0, "fusion_lon": 0.0, "bike_id": "3a001f4fe0726a487ea84120d1319f36", "name": "3a001f4fe0726a487ea84120d1319f36", "rental_uris": {"ios": "https://dc.lft.to/lastmile_qr_scan", "android": "https://dc.lft.to/lastmile_qr_scan"}}, {"is_disabled": 0, "fusion_lat": 0.0, "lat": 38.9201285, "type": "electric_scooter", "lon": -77.04075433333334, "is_reserved": 0, "fusion_lon": 0.0, "bike_id": "4122c8f80af674f6390443301b9687b3", "name": "4122c8f80af674f6390443301b9687b3", "rental_uris": {"ios": "https://dc.lft.to/lastmile_qr_scan", "android": "https://dc.lft.to/lastmile_qr_scan"}}, {"is_disabled": 0, "fusion_lat": 0.0, "lat": 38.900154666666666, "type": "electric_scooter", "lon": -77.0333555, "is_reserved": 0, "fusion_lon": 0.0, "bike_id": "200b218ccfd7092e9a5ef5c115efcb91", "name": "200b218ccfd7092e9a5ef5c115efcb91", "rental_uris": {"ios": "https://dc.lft.to/lastmile_qr_scan", "android": "https://dc.lft.to/lastmile_qr_scan"}}, {"is_disabled": 0, "fusion_lat": 0.0, "lat": 38.89757516666667, "type": "electric_scooter", "lon": -76.94180166666666, "is_reserved": 0, "fusion_lon": 0.0, "bike_id": "b583106f017440e383ac6eeb48668573", "name": "b583106f017440e383ac6eeb48668573", "rental_uris": {"ios": "https://dc.lft.to/lastmile_qr_scan", "android": "https://dc.lft.to/lastmile_qr_scan"}}, {"is_disabled": 0, "fusion_lat": 0.0, "lat": 38.855173666666666, "type": "electric_bike", "lon": -76.98436683333334, "is_reserved": 0, "fusion_lon": 0.0, "bike_id": "b08cfd2c468adbf9ae6a3d5568d363fa", "name": "b08cfd2c468adbf9ae6a3d5568d363fa", "rental_uris": {"ios": "https://dc.lft.to/lastmile_qr_scan", "android": "https://dc.lft.to/lastmile_qr_scan"}}, {"is_disabled": 0, "fusion_lat": 0.0, "lat": 38.922968166666664, "type": "electric_scooter", "lon": -77.04141333333334, "is_reserved": 0, "fusion_lon": 0.0, "bike_id": "5dbfc83432352e592d4daba7ef0c84b7", "name": "5dbfc83432352e592d4daba7ef0c84b7", "rental_uris": {"ios": "https://dc.lft.to/lastmile_qr_scan", "android": "https://dc.lft.to/lastmile_qr_scan"}}, {"is_disabled": 0, "fusion_lat": 0.0, "lat": 38.9258405, "type": "electric_scooter", "lon": -77.050547, "is_reserved": 0, "fusion_lon": 0.0, "bike_id": "cbdad9bc3d2168e4e97d80c956c39a33", "name": "cbdad9bc3d2168e4e97d80c956c39a33", "rental_uris": {"ios": "https://dc.lft.to/lastmile_qr_scan", "android": "https://dc.lft.to/lastmile_qr_scan"}}, {"is_disabled": 0, "fusion_lat": 0.0, "lat": 38.9054055, "type": "electric_scooter", "lon": -77.04645733333334, "is_reserved": 0, "fusion_lon": 0.0, "bike_id": "97182357934fa88bbc543955517e7bd0", "name": "97182357934fa88bbc543955517e7bd0", "rental_uris": {"ios": "https://dc.lft.to/lastmile_qr_scan", "android": "https://dc.lft.to/lastmile_qr_scan"}}, {"is_disabled": 0, "fusion_lat": 0.0, "lat": 38.9004345, "type": "electric_scooter", "lon": -76.92471383333333, "is_reserved": 0, "fusion_lon": 0.0, "bike_id": "227f48f3a85cd232fc1f484023b888dd", "name": "227f48f3a85cd232fc1f484023b888dd", "rental_uris": {"ios": "https://dc.lft.to/lastmile_qr_scan", "android": "https://dc.lft.to/lastmile_qr_scan"}}, {"is_disabled": 0, "fusion_lat": 0.0, "lat": 38.88428533333333, "type": "electric_scooter", "lon": -76.957561, "is_reserved": 0, "fusion_lon": 0.0, "bike_id": "5fb7c8cc41cb1a6af6453db8d95b9d1b", "name": "5fb7c8cc41cb1a6af6453db8d95b9d1b", "rental_uris": {"ios": "https://dc.lft.to/lastmile_qr_scan", "android": "https://dc.lft.to/lastmile_qr_scan"}}, {"is_disabled": 0, "fusion_lat": 0.0, "lat": 38.90004783333333, "type": "electric_scooter", "lon": -77.04026666666667, "is_reserved": 0, "fusion_lon": 0.0, "bike_id": "59aaa23b99389d46c91e434309c7bae0", "name": "59aaa23b99389d46c91e434309c7bae0", "rental_uris": {"ios": "https://dc.lft.to/lastmile_qr_scan", "android": "https://dc.lft.to/lastmile_qr_scan"}}, {"is_disabled": 0, "fusion_lat": 0.0, "lat": 38.90947666666667, "type": "electric_scooter", "lon": -77.02380666666667, "is_reserved": 0, "fusion_lon": 0.0, "bike_id": "78077e746880820cbb10272ca7963d7b", "name": "78077e746880820cbb10272ca7963d7b", "rental_uris": {"ios": "https://dc.lft.to/lastmile_qr_scan", "android": "https://dc.lft.to/lastmile_qr_scan"}}, {"is_disabled": 0, "fusion_lat": 0.0, "lat": 38.91154383333333, "type": "electric_scooter", "lon": -77.02000716666667, "is_reserved": 0, "fusion_lon": 0.0, "bike_id": "1149f70305e6ba32bf449677c415cff4", "name": "1149f70305e6ba32bf449677c415cff4", "rental_uris": {"ios": "https://dc.lft.to/lastmile_qr_scan", "android": "https://dc.lft.to/lastmile_qr_scan"}}, {"is_disabled": 0, "fusion_lat": 0.0, "lat": 38.85786733333333, "type": "electric_bike", "lon": -77.09959983333333, "is_reserved": 0, "fusion_lon": 0.0, "bike_id": "9bc1f3666619a4e2f27f332a6cf9545d", "name": "9bc1f3666619a4e2f27f332a6cf9545d", "rental_uris": {"ios": "https://dc.lft.to/lastmile_qr_scan", "android": "https://dc.lft.to/lastmile_qr_scan"}}, {"is_disabled": 0, "fusion_lat": 0.0, "lat": 38.9311815, "type": "electric_scooter", "lon": -77.02087233333333, "is_reserved": 0, "fusion_lon": 0.0, "bike_id": "0e2a51fa7e18c1e89863c5a24aaa12a0", "name": "0e2a51fa7e18c1e89863c5a24aaa12a0", "rental_uris": {"ios": "https://dc.lft.to/lastmile_qr_scan", "android": "https://dc.lft.to/lastmile_qr_scan"}}, {"is_disabled": 0, "fusion_lat": 0.0, "lat": 38.8972235, "type": "electric_scooter", "lon": -77.02146133333333, "is_reserved": 0, "fusion_lon": 0.0, "bike_id": "ce1c0b3397e8af9abe8e0dfb79705007", "name": "ce1c0b3397e8af9abe8e0dfb79705007", "rental_uris": {"ios": "https://dc.lft.to/lastmile_qr_scan", "android": "https://dc.lft.to/lastmile_qr_scan"}}, {"is_disabled": 0, "fusion_lat": 0.0, "lat": 38.9166225, "type": "electric_scooter", "lon": -77.0269975, "is_reserved": 0, "fusion_lon": 0.0, "bike_id": "af9a47945185145ec19dca5fc101fde7", "name": "af9a47945185145ec19dca5fc101fde7", "rental_uris": {"ios": "https://dc.lft.to/lastmile_qr_scan", "android": "https://dc.lft.to/lastmile_qr_scan"}}, {"is_disabled": 0, "fusion_lat": 0.0, "lat": 38.90972583333333, "type": "electric_scooter", "lon": -77.03862666666667, "is_reserved": 0, "fusion_lon": 0.0, "bike_id": "3c2304afd2752e3525b61c2f0b4547b1", "name": "3c2304afd2752e3525b61c2f0b4547b1", "rental_uris": {"ios": "https://dc.lft.to/lastmile_qr_scan", "android": "https://dc.lft.to/lastmile_qr_scan"}}, {"is_disabled": 0, "fusion_lat": 0.0, "lat": 38.892173, "type": "electric_scooter", "lon": -77.022197, "is_reserved": 0, "fusion_lon": 0.0, "bike_id": "bec91fb64ffb93d0d6cd90114f789b91", "name": "bec91fb64ffb93d0d6cd90114f789b91", "rental_uris": {"ios": "https://dc.lft.to/lastmile_qr_scan", "android": "https://dc.lft.to/lastmile_qr_scan"}}, {"is_disabled": 0, "fusion_lat": 0.0, "lat": 38.9002015, "type": "electric_scooter", "lon": -76.99860533333333, "is_reserved": 0, "fusion_lon": 0.0, "bike_id": "2eb8ba81e96d82b056d497b5685afeeb", "name": "2eb8ba81e96d82b056d497b5685afeeb", "rental_uris": {"ios": "https://dc.lft.to/lastmile_qr_scan", "android": "https://dc.lft.to/lastmile_qr_scan"}}, {"is_disabled": 0, "fusion_lat": 0.0, "lat": 38.90354083333333, "type": "electric_scooter", "lon": -77.06574733333333, "is_reserved": 0, "fusion_lon": 0.0, "bike_id": "dca61f622ad2a5b12e6b259f19f8c2e2", "name": "dca61f622ad2a5b12e6b259f19f8c2e2", "rental_uris": {"ios": "https://dc.lft.to/lastmile_qr_scan", "android": "https://dc.lft.to/lastmile_qr_scan"}}, {"is_disabled": 0, "fusion_lat": 0.0, "lat": 38.924101666666665, "type": "electric_bike", "lon": -77.20813666666666, "is_reserved": 0, "fusion_lon": 0.0, "bike_id": "0faef3b5b96efff021d54f9ede95117c", "name": "0faef3b5b96efff021d54f9ede95117c", "rental_uris": {"ios": "https://dc.lft.to/lastmile_qr_scan", "android": "https://dc.lft.to/lastmile_qr_scan"}}, {"is_disabled": 0, "fusion_lat": 0.0, "lat": 38.90347883333333, "type": "electric_scooter", "lon": -77.039844, "is_reserved": 0, "fusion_lon": 0.0, "bike_id": "2e29f7515738ab50f8e6b15d104b7bf3", "name": "2e29f7515738ab50f8e6b15d104b7bf3", "rental_uris": {"ios": "https://dc.lft.to/lastmile_qr_scan", "android": "https://dc.lft.to/lastmile_qr_scan"}}, {"is_disabled": 0, "fusion_lat": 0.0, "lat": 38.917726333333334, "type": "electric_scooter", "lon": -77.03440716666667, "is_reserved": 0, "fusion_lon": 0.0, "bike_id": "3d4a2eab68a0211e6942b2da5df8a027", "name": "3d4a2eab68a0211e6942b2da5df8a027", "rental_uris": {"ios": "https://dc.lft.to/lastmile_qr_scan", "android": "https://dc.lft.to/lastmile_qr_scan"}}, {"is_disabled": 0, "fusion_lat": 0.0, "lat": 38.909179333333334, "type": "electric_scooter", "lon": -76.99263083333334, "is_reserved": 0, "fusion_lon": 0.0, "bike_id": "ab23adc0c5170046a73625a51d0f8bfc", "name": "ab23adc0c5170046a73625a51d0f8bfc", "rental_uris": {"ios": "https://dc.lft.to/lastmile_qr_scan", "android": "https://dc.lft.to/lastmile_qr_scan"}}, {"is_disabled": 0, "fusion_lat": 0.0, "lat": 38.917284333333335, "type": "electric_scooter", "lon": -77.03650583333334, "is_reserved": 0, "fusion_lon": 0.0, "bike_id": "85d597cf595e36d17e6d205538b795be", "name": "85d597cf595e36d17e6d205538b795be", "rental_uris": {"ios": "https://dc.lft.to/lastmile_qr_scan", "android": "https://dc.lft.to/lastmile_qr_scan"}}, {"is_disabled": 0, "fusion_lat": 0.0, "lat": 38.91727, "type": "electric_scooter", "lon": -77.036535, "is_reserved": 0, "fusion_lon": 0.0, "bike_id": "ef1413f21474bee334f080bcd8a172b8", "name": "ef1413f21474bee334f080bcd8a172b8", "rental_uris": {"ios": "https://dc.lft.to/lastmile_qr_scan", "android": "https://dc.lft.to/lastmile_qr_scan"}}, {"is_disabled": 0, "fusion_lat": 0.0, "lat": 38.90843266666667, "type": "electric_scooter", "lon": -77.0328835, "is_reserved": 0, "fusion_lon": 0.0, "bike_id": "6ce264e91997110ea0cc8070af0bb3ef", "name": "6ce264e91997110ea0cc8070af0bb3ef", "rental_uris": {"ios": "https://dc.lft.to/lastmile_qr_scan", "android": "https://dc.lft.to/lastmile_qr_scan"}}, {"is_disabled": 0, "fusion_lat": 0.0, "lat": 38.92653516666667, "type": "electric_scooter", "lon": -77.01501333333333, "is_reserved": 0, "fusion_lon": 0.0, "bike_id": "1a186a7f95dd5bec5ef34509d23dac9e", "name": "1a186a7f95dd5bec5ef34509d23dac9e", "rental_uris": {"ios": "https://dc.lft.to/lastmile_qr_scan", "android": "https://dc.lft.to/lastmile_qr_scan"}}, {"is_disabled": 0, "fusion_lat": 0.0, "lat": 38.90140666666667, "type": "electric_scooter", "lon": -77.04181683333333, "is_reserved": 0, "fusion_lon": 0.0, "bike_id": "1cf05f0a6394f238282f96c28df6ace7", "name": "1cf05f0a6394f238282f96c28df6ace7", "rental_uris": {"ios": "https://dc.lft.to/lastmile_qr_scan", "android": "https://dc.lft.to/lastmile_qr_scan"}}, {"is_disabled": 0, "fusion_lat": 0.0, "lat": 38.871573, "type": "electric_scooter", "lon": -77.013511, "is_reserved": 0, "fusion_lon": 0.0, "bike_id": "13b5ec01982c815d4b4989edfc6fb68a", "name": "13b5ec01982c815d4b4989edfc6fb68a", "rental_uris": {"ios": "https://dc.lft.to/lastmile_qr_scan", "android": "https://dc.lft.to/lastmile_qr_scan"}}, {"is_disabled": 0, "fusion_lat": 0.0, "lat": 38.84573266666666, "type": "electric_bike", "lon": -77.0962275, "is_reserved": 0, "fusion_lon": 0.0, "bike_id": "612602e08778361e62279705db961695", "name": "612602e08778361e62279705db961695", "rental_uris": {"ios": "https://dc.lft.to/lastmile_qr_scan", "android": "https://dc.lft.to/lastmile_qr_scan"}}, {"is_disabled": 0, "fusion_lat": 0.0, "lat": 38.908059, "type": "electric_scooter", "lon": -77.03394566666667, "is_reserved": 0, "fusion_lon": 0.0, "bike_id": "b6f49f53539c8236ae0f753158d15505", "name": "b6f49f53539c8236ae0f753158d15505", "rental_uris": {"ios": "https://dc.lft.to/lastmile_qr_scan", "android": "https://dc.lft.to/lastmile_qr_scan"}}, {"is_disabled": 0, "fusion_lat": 0.0, "lat": 38.90946133333333, "type": "electric_scooter", "lon": -77.04655033333333, "is_reserved": 0, "fusion_lon": 0.0, "bike_id": "595665701c9217e99a88aa6b26c20c9f", "name": "595665701c9217e99a88aa6b26c20c9f", "rental_uris": {"ios": "https://dc.lft.to/lastmile_qr_scan", "android": "https://dc.lft.to/lastmile_qr_scan"}}, {"is_disabled": 0, "fusion_lat": 0.0, "lat": 38.9063375, "type": "electric_scooter", "lon": -77.01127316666667, "is_reserved": 0, "fusion_lon": 0.0, "bike_id": "0f6565d87f2aae502361b6f505decc50", "name": "0f6565d87f2aae502361b6f505decc50", "rental_uris": {"ios": "https://dc.lft.to/lastmile_qr_scan", "android": "https://dc.lft.to/lastmile_qr_scan"}}, {"is_disabled": 0, "fusion_lat": 0.0, "lat": 38.904784, "type": "electric_scooter", "lon": -77.05322916666667, "is_reserved": 0, "fusion_lon": 0.0, "bike_id": "9a47be504586319acd815770977dbdff", "name": "9a47be504586319acd815770977dbdff", "rental_uris": {"ios": "https://dc.lft.to/lastmile_qr_scan", "android": "https://dc.lft.to/lastmile_qr_scan"}}, {"is_disabled": 0, "fusion_lat": 0.0, "lat": 38.844241833333335, "type": "electric_scooter", "lon": -76.997745, "is_reserved": 0, "fusion_lon": 0.0, "bike_id": "92b35d05299d370e4928e61d5e99bc5f", "name": "92b35d05299d370e4928e61d5e99bc5f", "rental_uris": {"ios": "https://dc.lft.to/lastmile_qr_scan", "android": "https://dc.lft.to/lastmile_qr_scan"}}, {"is_disabled": 0, "fusion_lat": 0.0, "lat": 38.896143, "type": "electric_scooter", "lon": -77.0450325, "is_reserved": 0, "fusion_lon": 0.0, "bike_id": "f46ced79685d0c72768fe525dceba09a", "name": "f46ced79685d0c72768fe525dceba09a", "rental_uris": {"ios": "https://dc.lft.to/lastmile_qr_scan", "android": "https://dc.lft.to/lastmile_qr_scan"}}, {"is_disabled": 0, "fusion_lat": 0.0, "lat": 38.854366166666665, "type": "electric_bike", "lon": -76.90978766666667, "is_reserved": 0, "fusion_lon": 0.0, "bike_id": "933e729013fe01296aafa7beb946c24c", "name": "933e729013fe01296aafa7beb946c24c", "rental_uris": {"ios": "https://dc.lft.to/lastmile_qr_scan", "android": "https://dc.lft.to/lastmile_qr_scan"}}, {"is_disabled": 0, "fusion_lat": 0.0, "lat": 38.89221783333333, "type": "electric_scooter", "lon": -77.04856983333333, "is_reserved": 0, "fusion_lon": 0.0, "bike_id": "9842242ae0b0831c50f345e76b63e19a", "name": "9842242ae0b0831c50f345e76b63e19a", "rental_uris": {"ios": "https://dc.lft.to/lastmile_qr_scan", "android": "https://dc.lft.to/lastmile_qr_scan"}}, {"is_disabled": 0, "fusion_lat": 0.0, "lat": 38.9111285, "type": "electric_scooter", "lon": -77.03828183333333, "is_reserved": 0, "fusion_lon": 0.0, "bike_id": "c0465526051db1d3507dca1320896d49", "name": "c0465526051db1d3507dca1320896d49", "rental_uris": {"ios": "https://dc.lft.to/lastmile_qr_scan", "android": "https://dc.lft.to/lastmile_qr_scan"}}, {"is_disabled": 0, "fusion_lat": 0.0, "lat": 38.934257333333335, "type": "electric_scooter", "lon": -77.028483, "is_reserved": 0, "fusion_lon": 0.0, "bike_id": "6b6370cc09c4d890c7bc411c2e36c2a5", "name": "6b6370cc09c4d890c7bc411c2e36c2a5", "rental_uris": {"ios": "https://dc.lft.to/lastmile_qr_scan", "android": "https://dc.lft.to/lastmile_qr_scan"}}, {"is_disabled": 0, "fusion_lat": 0.0, "lat": 38.8820565, "type": "electric_scooter", "lon": -76.99936133333334, "is_reserved": 0, "fusion_lon": 0.0, "bike_id": "14b04c68a1741d4aea3937f8c7f677f5", "name": "14b04c68a1741d4aea3937f8c7f677f5", "rental_uris": {"ios": "https://dc.lft.to/lastmile_qr_scan", "android": "https://dc.lft.to/lastmile_qr_scan"}}, {"is_disabled": 0, "fusion_lat": 0.0, "lat": 38.92602466666666, "type": "electric_scooter", "lon": -77.0569145, "is_reserved": 0, "fusion_lon": 0.0, "bike_id": "f5df9e861045bcab6c2de00c84b52e1a", "name": "f5df9e861045bcab6c2de00c84b52e1a", "rental_uris": {"ios": "https://dc.lft.to/lastmile_qr_scan", "android": "https://dc.lft.to/lastmile_qr_scan"}}, {"is_disabled": 0, "fusion_lat": 0.0, "lat": 38.9035515, "type": "electric_scooter", "lon": -77.00334116666667, "is_reserved": 0, "fusion_lon": 0.0, "bike_id": "e6c82d5705ebae64dc2677df2f26b8a8", "name": "e6c82d5705ebae64dc2677df2f26b8a8", "rental_uris": {"ios": "https://dc.lft.to/lastmile_qr_scan", "android": "https://dc.lft.to/lastmile_qr_scan"}}, {"is_disabled": 0, "fusion_lat": 0.0, "lat": 38.91559, "type": "electric_scooter", "lon": -77.009684, "is_reserved": 0, "fusion_lon": 0.0, "bike_id": "55504d6348aa675e9ffb2968ab73f9f7", "name": "55504d6348aa675e9ffb2968ab73f9f7", "rental_uris": {"ios": "https://dc.lft.to/lastmile_qr_scan", "android": "https://dc.lft.to/lastmile_qr_scan"}}, {"is_disabled": 0, "fusion_lat": 0.0, "lat": 38.810503, "type": "electric_bike", "lon": -77.085067, "is_reserved": 0, "fusion_lon": 0.0, "bike_id": "4ac6a7db735c24cadf23bd954ee74e00", "name": "4ac6a7db735c24cadf23bd954ee74e00", "rental_uris": {"ios": "https://dc.lft.to/lastmile_qr_scan", "android": "https://dc.lft.to/lastmile_qr_scan"}}, {"is_disabled": 0, "fusion_lat": 0.0, "lat": 38.886824, "type": "electric_scooter", "lon": -77.00203, "is_reserved": 0, "fusion_lon": 0.0, "bike_id": "32370b7d9634531fee461b5e785b3c52", "name": "32370b7d9634531fee461b5e785b3c52", "rental_uris": {"ios": "https://dc.lft.to/lastmile_qr_scan", "android": "https://dc.lft.to/lastmile_qr_scan"}}, {"is_disabled": 0, "fusion_lat": 0.0, "lat": 38.930598, "type": "electric_scooter", "lon": -77.04178733333333, "is_reserved": 0, "fusion_lon": 0.0, "bike_id": "806812dbdbf517d72e6721c3b8540554", "name": "806812dbdbf517d72e6721c3b8540554", "rental_uris": {"ios": "https://dc.lft.to/lastmile_qr_scan", "android": "https://dc.lft.to/lastmile_qr_scan"}}, {"is_disabled": 0, "fusion_lat": 0.0, "lat": 38.901117166666666, "type": "electric_scooter", "lon": -77.05138633333334, "is_reserved": 0, "fusion_lon": 0.0, "bike_id": "9e5f6119c4ba51ccf1495bc1e50e69c9", "name": "9e5f6119c4ba51ccf1495bc1e50e69c9", "rental_uris": {"ios": "https://dc.lft.to/lastmile_qr_scan", "android": "https://dc.lft.to/lastmile_qr_scan"}}, {"is_disabled": 0, "fusion_lat": 0.0, "lat": 38.920463, "type": "electric_scooter", "lon": -77.03372116666667, "is_reserved": 0, "fusion_lon": 0.0, "bike_id": "2ed80c7b25e3838014445d07e74a29aa", "name": "2ed80c7b25e3838014445d07e74a29aa", "rental_uris": {"ios": "https://dc.lft.to/lastmile_qr_scan", "android": "https://dc.lft.to/lastmile_qr_scan"}}, {"is_disabled": 0, "fusion_lat": 0.0, "lat": 38.920403666666665, "type": "electric_scooter", "lon": -77.04182466666667, "is_reserved": 0, "fusion_lon": 0.0, "bike_id": "8344723dd3c49f229c2e5a94a0ce352c", "name": "8344723dd3c49f229c2e5a94a0ce352c", "rental_uris": {"ios": "https://dc.lft.to/lastmile_qr_scan", "android": "https://dc.lft.to/lastmile_qr_scan"}}, {"is_disabled": 0, "fusion_lat": 0.0, "lat": 38.8747295, "type": "electric_scooter", "lon": -77.00936583333333, "is_reserved": 0, "fusion_lon": 0.0, "bike_id": "4a9af927415b682d64b51adea9f2d36e", "name": "4a9af927415b682d64b51adea9f2d36e", "rental_uris": {"ios": "https://dc.lft.to/lastmile_qr_scan", "android": "https://dc.lft.to/lastmile_qr_scan"}}, {"is_disabled": 0, "fusion_lat": 0.0, "lat": 38.890530166666665, "type": "electric_scooter", "lon": -76.93758983333333, "is_reserved": 0, "fusion_lon": 0.0, "bike_id": "4189c2d429358f83d1c47322b4f49444", "name": "4189c2d429358f83d1c47322b4f49444", "rental_uris": {"ios": "https://dc.lft.to/lastmile_qr_scan", "android": "https://dc.lft.to/lastmile_qr_scan"}}, {"is_disabled": 0, "fusion_lat": 0.0, "lat": 38.899124, "type": "electric_scooter", "lon": -76.93343683333333, "is_reserved": 0, "fusion_lon": 0.0, "bike_id": "c13bd2cd5710dd99dd2b607fab7bbc67", "name": "c13bd2cd5710dd99dd2b607fab7bbc67", "rental_uris": {"ios": "https://dc.lft.to/lastmile_qr_scan", "android": "https://dc.lft.to/lastmile_qr_scan"}}, {"is_disabled": 0, "fusion_lat": 0.0, "lat": 38.9171635, "type": "electric_scooter", "lon": -77.03836766666667, "is_reserved": 0, "fusion_lon": 0.0, "bike_id": "49a7f87d8c75bd06337b759dfa2c023b", "name": "49a7f87d8c75bd06337b759dfa2c023b", "rental_uris": {"ios": "https://dc.lft.to/lastmile_qr_scan", "android": "https://dc.lft.to/lastmile_qr_scan"}}, {"is_disabled": 0, "fusion_lat": 0.0, "lat": 38.90705783333333, "type": "electric_scooter", "lon": -77.03196783333334, "is_reserved": 0, "fusion_lon": 0.0, "bike_id": "3abeb66ca51fcd57508dc0fad98e1c70", "name": "3abeb66ca51fcd57508dc0fad98e1c70", "rental_uris": {"ios": "https://dc.lft.to/lastmile_qr_scan", "android": "https://dc.lft.to/lastmile_qr_scan"}}, {"is_disabled": 0, "fusion_lat": 0.0, "lat": 38.85805516666667, "type": "electric_scooter", "lon": -76.9865215, "is_reserved": 0, "fusion_lon": 0.0, "bike_id": "fe90c844a7255d006911c5da0b88916c", "name": "fe90c844a7255d006911c5da0b88916c", "rental_uris": {"ios": "https://dc.lft.to/lastmile_qr_scan", "android": "https://dc.lft.to/lastmile_qr_scan"}}, {"is_disabled": 0, "fusion_lat": 0.0, "lat": 38.930373, "type": "electric_scooter", "lon": -77.03213466666666, "is_reserved": 0, "fusion_lon": 0.0, "bike_id": "26aa297f2d3106e687ef702cc72ea29c", "name": "26aa297f2d3106e687ef702cc72ea29c", "rental_uris": {"ios": "https://dc.lft.to/lastmile_qr_scan", "android": "https://dc.lft.to/lastmile_qr_scan"}}, {"is_disabled": 0, "fusion_lat": 0.0, "lat": 38.890139833333336, "type": "electric_scooter", "lon": -76.9374285, "is_reserved": 0, "fusion_lon": 0.0, "bike_id": "42c9ed3be92cf9124ca1267bd408b83b", "name": "42c9ed3be92cf9124ca1267bd408b83b", "rental_uris": {"ios": "https://dc.lft.to/lastmile_qr_scan", "android": "https://dc.lft.to/lastmile_qr_scan"}}, {"is_disabled": 0, "fusion_lat": 0.0, "lat": 38.90875883333333, "type": "electric_scooter", "lon": -77.085872, "is_reserved": 0, "fusion_lon": 0.0, "bike_id": "2c4edb9c5d772c0ff77490729c96381c", "name": "2c4edb9c5d772c0ff77490729c96381c", "rental_uris": {"ios": "https://dc.lft.to/lastmile_qr_scan", "android": "https://dc.lft.to/lastmile_qr_scan"}}, {"is_disabled": 0, "fusion_lat": 0.0, "lat": 38.90148933333333, "type": "electric_scooter", "lon": -77.04034183333333, "is_reserved": 0, "fusion_lon": 0.0, "bike_id": "fbf8302087c34adcb59010596223f33f", "name": "fbf8302087c34adcb59010596223f33f", "rental_uris": {"ios": "https://dc.lft.to/lastmile_qr_scan", "android": "https://dc.lft.to/lastmile_qr_scan"}}, {"is_disabled": 0, "fusion_lat": 0.0, "lat": 38.867403, "type": "electric_scooter", "lon": -76.9880775, "is_reserved": 0, "fusion_lon": 0.0, "bike_id": "ab1f9599c3eeaca2f54c9d6f344504fa", "name": "ab1f9599c3eeaca2f54c9d6f344504fa", "rental_uris": {"ios": "https://dc.lft.to/lastmile_qr_scan", "android": "https://dc.lft.to/lastmile_qr_scan"}}, {"is_disabled": 0, "fusion_lat": 0.0, "lat": 38.905668166666665, "type": "electric_scooter", "lon": -77.0345495, "is_reserved": 0, "fusion_lon": 0.0, "bike_id": "1e14122fb0f2817f96b5083a5ca37fba", "name": "1e14122fb0f2817f96b5083a5ca37fba", "rental_uris": {"ios": "https://dc.lft.to/lastmile_qr_scan", "android": "https://dc.lft.to/lastmile_qr_scan"}}, {"is_disabled": 0, "fusion_lat": 0.0, "lat": 38.900356, "type": "electric_scooter", "lon": -77.012216, "is_reserved": 0, "fusion_lon": 0.0, "bike_id": "ea5a7cb030d5f6018d3c35a20e18ea80", "name": "ea5a7cb030d5f6018d3c35a20e18ea80", "rental_uris": {"ios": "https://dc.lft.to/lastmile_qr_scan", "android": "https://dc.lft.to/lastmile_qr_scan"}}, {"is_disabled": 0, "fusion_lat": 0.0, "lat": 38.91682566666667, "type": "electric_scooter", "lon": -77.02201983333333, "is_reserved": 0, "fusion_lon": 0.0, "bike_id": "9ee2e5cf706e4ede71b5489f0389e3e7", "name": "9ee2e5cf706e4ede71b5489f0389e3e7", "rental_uris": {"ios": "https://dc.lft.to/lastmile_qr_scan", "android": "https://dc.lft.to/lastmile_qr_scan"}}, {"is_disabled": 0, "fusion_lat": 0.0, "lat": 38.914675, "type": "electric_scooter", "lon": -77.03188066666667, "is_reserved": 0, "fusion_lon": 0.0, "bike_id": "642e46fc70e96cfe8951f2da04c15dc1", "name": "642e46fc70e96cfe8951f2da04c15dc1", "rental_uris": {"ios": "https://dc.lft.to/lastmile_qr_scan", "android": "https://dc.lft.to/lastmile_qr_scan"}}, {"is_disabled": 0, "fusion_lat": 0.0, "lat": 38.92911733333333, "type": "electric_scooter", "lon": -77.06409283333333, "is_reserved": 0, "fusion_lon": 0.0, "bike_id": "d1169523d859bb77f85b7cefef639a39", "name": "d1169523d859bb77f85b7cefef639a39", "rental_uris": {"ios": "https://dc.lft.to/lastmile_qr_scan", "android": "https://dc.lft.to/lastmile_qr_scan"}}, {"is_disabled": 0, "fusion_lat": 0.0, "lat": 38.89848416666667, "type": "electric_scooter", "lon": -77.0395705, "is_reserved": 0, "fusion_lon": 0.0, "bike_id": "f014dd03a7506745dfaecbfc6cb71df4", "name": "f014dd03a7506745dfaecbfc6cb71df4", "rental_uris": {"ios": "https://dc.lft.to/lastmile_qr_scan", "android": "https://dc.lft.to/lastmile_qr_scan"}}, {"is_disabled": 0, "fusion_lat": 0.0, "lat": 38.917603666666665, "type": "electric_scooter", "lon": -77.03853516666666, "is_reserved": 0, "fusion_lon": 0.0, "bike_id": "eee85c0fda6169449632a8d4b8422ffa", "name": "eee85c0fda6169449632a8d4b8422ffa", "rental_uris": {"ios": "https://dc.lft.to/lastmile_qr_scan", "android": "https://dc.lft.to/lastmile_qr_scan"}}, {"is_disabled": 0, "fusion_lat": 0.0, "lat": 38.896658, "type": "electric_scooter", "lon": -76.9883505, "is_reserved": 0, "fusion_lon": 0.0, "bike_id": "04d34af00034f79237b780da667f6435", "name": "04d34af00034f79237b780da667f6435", "rental_uris": {"ios": "https://dc.lft.to/lastmile_qr_scan", "android": "https://dc.lft.to/lastmile_qr_scan"}}, {"is_disabled": 0, "fusion_lat": 0.0, "lat": 38.905074666666664, "type": "electric_scooter", "lon": -77.06006283333333, "is_reserved": 0, "fusion_lon": 0.0, "bike_id": "98c63ed12bc2c2738b37aacb4917c0d6", "name": "98c63ed12bc2c2738b37aacb4917c0d6", "rental_uris": {"ios": "https://dc.lft.to/lastmile_qr_scan", "android": "https://dc.lft.to/lastmile_qr_scan"}}, {"is_disabled": 0, "fusion_lat": 0.0, "lat": 38.885017166666664, "type": "electric_scooter", "lon": -77.00567283333334, "is_reserved": 0, "fusion_lon": 0.0, "bike_id": "f91b7376c3a770683b23253204d90423", "name": "f91b7376c3a770683b23253204d90423", "rental_uris": {"ios": "https://dc.lft.to/lastmile_qr_scan", "android": "https://dc.lft.to/lastmile_qr_scan"}}, {"is_disabled": 0, "fusion_lat": 0.0, "lat": 38.8662715, "type": "electric_scooter", "lon": -76.9871385, "is_reserved": 0, "fusion_lon": 0.0, "bike_id": "eb4813af8b90f5fd528ededd97af975a", "name": "eb4813af8b90f5fd528ededd97af975a", "rental_uris": {"ios": "https://dc.lft.to/lastmile_qr_scan", "android": "https://dc.lft.to/lastmile_qr_scan"}}, {"is_disabled": 0, "fusion_lat": 0.0, "lat": 38.90566916666667, "type": "electric_scooter", "lon": -77.00592483333334, "is_reserved": 0, "fusion_lon": 0.0, "bike_id": "d5fedec58e8f16bd90d3c4d50c986588", "name": "d5fedec58e8f16bd90d3c4d50c986588", "rental_uris": {"ios": "https://dc.lft.to/lastmile_qr_scan", "android": "https://dc.lft.to/lastmile_qr_scan"}}, {"is_disabled": 0, "fusion_lat": 0.0, "lat": 38.92107216666667, "type": "electric_scooter", "lon": -77.031753, "is_reserved": 0, "fusion_lon": 0.0, "bike_id": "19feda84263553f2921e64c52d62d1c5", "name": "19feda84263553f2921e64c52d62d1c5", "rental_uris": {"ios": "https://dc.lft.to/lastmile_qr_scan", "android": "https://dc.lft.to/lastmile_qr_scan"}}, {"is_disabled": 0, "fusion_lat": 0.0, "lat": 38.9310005, "type": "electric_scooter", "lon": -77.02666483333333, "is_reserved": 0, "fusion_lon": 0.0, "bike_id": "3f06d218a8236b2eec723507a1018586", "name": "3f06d218a8236b2eec723507a1018586", "rental_uris": {"ios": "https://dc.lft.to/lastmile_qr_scan", "android": "https://dc.lft.to/lastmile_qr_scan"}}, {"is_disabled": 0, "fusion_lat": 0.0, "lat": 38.970716, "type": "electric_bike", "lon": -76.936125, "is_reserved": 0, "fusion_lon": 0.0, "bike_id": "f812d44e7d957bd3e9468d1bfdb2fbad", "name": "f812d44e7d957bd3e9468d1bfdb2fbad", "rental_uris": {"ios": "https://dc.lft.to/lastmile_qr_scan", "android": "https://dc.lft.to/lastmile_qr_scan"}}, {"is_disabled": 0, "fusion_lat": 0.0, "lat": 38.8977955, "type": "electric_bike", "lon": -76.90436033333333, "is_reserved": 0, "fusion_lon": 0.0, "bike_id": "66618db9d1d90cff03a214e2ac0d2701", "name": "66618db9d1d90cff03a214e2ac0d2701", "rental_uris": {"ios": "https://dc.lft.to/lastmile_qr_scan", "android": "https://dc.lft.to/lastmile_qr_scan"}}, {"is_disabled": 0, "fusion_lat": 0.0, "lat": 38.8966685, "type": "electric_scooter", "lon": -77.00877066666666, "is_reserved": 0, "fusion_lon": 0.0, "bike_id": "72620711300156793f52aeba70350c46", "name": "72620711300156793f52aeba70350c46", "rental_uris": {"ios": "https://dc.lft.to/lastmile_qr_scan", "android": "https://dc.lft.to/lastmile_qr_scan"}}, {"is_disabled": 0, "fusion_lat": 0.0, "lat": 38.9168175, "type": "electric_scooter", "lon": -77.03191116666666, "is_reserved": 0, "fusion_lon": 0.0, "bike_id": "f887762acd578b25d4fc4cfa1ac01839", "name": "f887762acd578b25d4fc4cfa1ac01839", "rental_uris": {"ios": "https://dc.lft.to/lastmile_qr_scan", "android": "https://dc.lft.to/lastmile_qr_scan"}}, {"is_disabled": 0, "fusion_lat": 0.0, "lat": 38.84273816666666, "type": "electric_bike", "lon": -76.98835683333333, "is_reserved": 0, "fusion_lon": 0.0, "bike_id": "d650173d96039bf040879e0c93ed1eeb", "name": "d650173d96039bf040879e0c93ed1eeb", "rental_uris": {"ios": "https://dc.lft.to/lastmile_qr_scan", "android": "https://dc.lft.to/lastmile_qr_scan"}}, {"is_disabled": 0, "fusion_lat": 0.0, "lat": 38.90333733333333, "type": "electric_scooter", "lon": -76.97591166666666, "is_reserved": 0, "fusion_lon": 0.0, "bike_id": "5a5343637fbecb377dc0cfec10e34617", "name": "5a5343637fbecb377dc0cfec10e34617", "rental_uris": {"ios": "https://dc.lft.to/lastmile_qr_scan", "android": "https://dc.lft.to/lastmile_qr_scan"}}, {"is_disabled": 0, "fusion_lat": 0.0, "lat": 38.898132333333336, "type": "electric_scooter", "lon": -77.03299566666666, "is_reserved": 0, "fusion_lon": 0.0, "bike_id": "d056d26719161d366e16ab04b1354bdb", "name": "d056d26719161d366e16ab04b1354bdb", "rental_uris": {"ios": "https://dc.lft.to/lastmile_qr_scan", "android": "https://dc.lft.to/lastmile_qr_scan"}}, {"is_disabled": 0, "fusion_lat": 0.0, "lat": 38.88125216666667, "type": "electric_scooter", "lon": -77.000952, "is_reserved": 0, "fusion_lon": 0.0, "bike_id": "f695874eb37ca72cbf7b139d8e1dd732", "name": "f695874eb37ca72cbf7b139d8e1dd732", "rental_uris": {"ios": "https://dc.lft.to/lastmile_qr_scan", "android": "https://dc.lft.to/lastmile_qr_scan"}}, {"is_disabled": 0, "fusion_lat": 0.0, "lat": 38.883973833333336, "type": "electric_scooter", "lon": -77.01771616666667, "is_reserved": 0, "fusion_lon": 0.0, "bike_id": "3aaded12b9fd135980c52b07765b9700", "name": "3aaded12b9fd135980c52b07765b9700", "rental_uris": {"ios": "https://dc.lft.to/lastmile_qr_scan", "android": "https://dc.lft.to/lastmile_qr_scan"}}, {"is_disabled": 0, "fusion_lat": 0.0, "lat": 38.92432766666667, "type": "electric_scooter", "lon": -77.051982, "is_reserved": 0, "fusion_lon": 0.0, "bike_id": "f35b5fdfe9c32065ae304ea5cb920e51", "name": "f35b5fdfe9c32065ae304ea5cb920e51", "rental_uris": {"ios": "https://dc.lft.to/lastmile_qr_scan", "android": "https://dc.lft.to/lastmile_qr_scan"}}, {"is_disabled": 0, "fusion_lat": 0.0, "lat": 38.902161, "type": "electric_scooter", "lon": -77.03351133333334, "is_reserved": 0, "fusion_lon": 0.0, "bike_id": "441d18e10aca65f8092a7f4ab05a8381", "name": "441d18e10aca65f8092a7f4ab05a8381", "rental_uris": {"ios": "https://dc.lft.to/lastmile_qr_scan", "android": "https://dc.lft.to/lastmile_qr_scan"}}, {"is_disabled": 0, "fusion_lat": 0.0, "lat": 38.91697116666667, "type": "electric_scooter", "lon": -77.03196716666666, "is_reserved": 0, "fusion_lon": 0.0, "bike_id": "e7b6d6c4d99fa6a4f63ef855afecdf37", "name": "e7b6d6c4d99fa6a4f63ef855afecdf37", "rental_uris": {"ios": "https://dc.lft.to/lastmile_qr_scan", "android": "https://dc.lft.to/lastmile_qr_scan"}}, {"is_disabled": 0, "fusion_lat": 0.0, "lat": 38.95733716666667, "type": "electric_scooter", "lon": -77.02387683333333, "is_reserved": 0, "fusion_lon": 0.0, "bike_id": "bc3effc775d06be596aff61b44d041c3", "name": "bc3effc775d06be596aff61b44d041c3", "rental_uris": {"ios": "https://dc.lft.to/lastmile_qr_scan", "android": "https://dc.lft.to/lastmile_qr_scan"}}, {"is_disabled": 0, "fusion_lat": 0.0, "lat": 38.90049, "type": "electric_scooter", "lon": -77.01713116666667, "is_reserved": 0, "fusion_lon": 0.0, "bike_id": "c00ccba06a6ebef0ec9713ad9ad304b0", "name": "c00ccba06a6ebef0ec9713ad9ad304b0", "rental_uris": {"ios": "https://dc.lft.to/lastmile_qr_scan", "android": "https://dc.lft.to/lastmile_qr_scan"}}, {"is_disabled": 0, "fusion_lat": 0.0, "lat": 38.89812033333333, "type": "electric_scooter", "lon": -77.0333285, "is_reserved": 0, "fusion_lon": 0.0, "bike_id": "9d5bba7a4140d260eef51531b962c657", "name": "9d5bba7a4140d260eef51531b962c657", "rental_uris": {"ios": "https://dc.lft.to/lastmile_qr_scan", "android": "https://dc.lft.to/lastmile_qr_scan"}}, {"is_disabled": 0, "fusion_lat": 0.0, "lat": 38.88589533333333, "type": "electric_scooter", "lon": -77.00060683333334, "is_reserved": 0, "fusion_lon": 0.0, "bike_id": "9c4e58bc48b52917274a0a7ad41e6a50", "name": "9c4e58bc48b52917274a0a7ad41e6a50", "rental_uris": {"ios": "https://dc.lft.to/lastmile_qr_scan", "android": "https://dc.lft.to/lastmile_qr_scan"}}, {"is_disabled": 0, "fusion_lat": 0.0, "lat": 38.912584833333334, "type": "electric_scooter", "lon": -77.04227283333333, "is_reserved": 0, "fusion_lon": 0.0, "bike_id": "8a52bb5cb5f6093f2adc07d808c5c1f1", "name": "8a52bb5cb5f6093f2adc07d808c5c1f1", "rental_uris": {"ios": "https://dc.lft.to/lastmile_qr_scan", "android": "https://dc.lft.to/lastmile_qr_scan"}}, {"is_disabled": 0, "fusion_lat": 0.0, "lat": 38.92192766666667, "type": "electric_scooter", "lon": -76.9946415, "is_reserved": 0, "fusion_lon": 0.0, "bike_id": "acd5a0f43a07dde771c20669748fc38a", "name": "acd5a0f43a07dde771c20669748fc38a", "rental_uris": {"ios": "https://dc.lft.to/lastmile_qr_scan", "android": "https://dc.lft.to/lastmile_qr_scan"}}, {"is_disabled": 0, "fusion_lat": 0.0, "lat": 38.918045666666664, "type": "electric_scooter", "lon": -77.037151, "is_reserved": 0, "fusion_lon": 0.0, "bike_id": "c8f09dcf72e56b1887bffd7e83cb48a7", "name": "c8f09dcf72e56b1887bffd7e83cb48a7", "rental_uris": {"ios": "https://dc.lft.to/lastmile_qr_scan", "android": "https://dc.lft.to/lastmile_qr_scan"}}, {"is_disabled": 0, "fusion_lat": 0.0, "lat": 38.900634333333336, "type": "electric_bike", "lon": -77.044966, "is_reserved": 0, "fusion_lon": 0.0, "bike_id": "e34c9acc5f02dc33506ed781587cded0", "name": "e34c9acc5f02dc33506ed781587cded0", "rental_uris": {"ios": "https://dc.lft.to/lastmile_qr_scan", "android": "https://dc.lft.to/lastmile_qr_scan"}}, {"is_disabled": 0, "fusion_lat": 0.0, "lat": 38.902607, "type": "electric_scooter", "lon": -77.03430116666667, "is_reserved": 0, "fusion_lon": 0.0, "bike_id": "3199a8bbe66345f4326ee45648cf353b", "name": "3199a8bbe66345f4326ee45648cf353b", "rental_uris": {"ios": "https://dc.lft.to/lastmile_qr_scan", "android": "https://dc.lft.to/lastmile_qr_scan"}}, {"is_disabled": 0, "fusion_lat": 0.0, "lat": 38.903704166666664, "type": "electric_scooter", "lon": -77.03494433333333, "is_reserved": 0, "fusion_lon": 0.0, "bike_id": "0b92eda183ff6ed1920845618e718f55", "name": "0b92eda183ff6ed1920845618e718f55", "rental_uris": {"ios": "https://dc.lft.to/lastmile_qr_scan", "android": "https://dc.lft.to/lastmile_qr_scan"}}, {"is_disabled": 0, "fusion_lat": 0.0, "lat": 38.93510966666667, "type": "electric_scooter", "lon": -77.0239945, "is_reserved": 0, "fusion_lon": 0.0, "bike_id": "4b97149e6d57144ee4d138579505bfb0", "name": "4b97149e6d57144ee4d138579505bfb0", "rental_uris": {"ios": "https://dc.lft.to/lastmile_qr_scan", "android": "https://dc.lft.to/lastmile_qr_scan"}}, {"is_disabled": 0, "fusion_lat": 0.0, "lat": 38.920264833333334, "type": "electric_scooter", "lon": -77.02803433333334, "is_reserved": 0, "fusion_lon": 0.0, "bike_id": "551e8713b2e4e05570200127fb8c379e", "name": "551e8713b2e4e05570200127fb8c379e", "rental_uris": {"ios": "https://dc.lft.to/lastmile_qr_scan", "android": "https://dc.lft.to/lastmile_qr_scan"}}, {"is_disabled": 0, "fusion_lat": 0.0, "lat": 38.916849666666664, "type": "electric_scooter", "lon": -77.01198616666667, "is_reserved": 0, "fusion_lon": 0.0, "bike_id": "35b7ad3c2ebf257d644133cf6e35e4ab", "name": "35b7ad3c2ebf257d644133cf6e35e4ab", "rental_uris": {"ios": "https://dc.lft.to/lastmile_qr_scan", "android": "https://dc.lft.to/lastmile_qr_scan"}}, {"is_disabled": 0, "fusion_lat": 0.0, "lat": 38.905873666666665, "type": "electric_scooter", "lon": -76.98615633333333, "is_reserved": 0, "fusion_lon": 0.0, "bike_id": "814c8ba730518a8f9f8fe5b92cac9796", "name": "814c8ba730518a8f9f8fe5b92cac9796", "rental_uris": {"ios": "https://dc.lft.to/lastmile_qr_scan", "android": "https://dc.lft.to/lastmile_qr_scan"}}, {"is_disabled": 0, "fusion_lat": 0.0, "lat": 38.914109333333336, "type": "electric_scooter", "lon": -77.03989283333334, "is_reserved": 0, "fusion_lon": 0.0, "bike_id": "f430682ef45cbc48444611eff11fa657", "name": "f430682ef45cbc48444611eff11fa657", "rental_uris": {"ios": "https://dc.lft.to/lastmile_qr_scan", "android": "https://dc.lft.to/lastmile_qr_scan"}}, {"is_disabled": 0, "fusion_lat": 0.0, "lat": 38.90860416666666, "type": "electric_scooter", "lon": -77.028568, "is_reserved": 0, "fusion_lon": 0.0, "bike_id": "639834fda14fb197d82f141f316a20db", "name": "639834fda14fb197d82f141f316a20db", "rental_uris": {"ios": "https://dc.lft.to/lastmile_qr_scan", "android": "https://dc.lft.to/lastmile_qr_scan"}}, {"is_disabled": 0, "fusion_lat": 0.0, "lat": 38.92849566666666, "type": "electric_scooter", "lon": -77.01387833333334, "is_reserved": 0, "fusion_lon": 0.0, "bike_id": "c014310d35e0c9b7cba432dabb7a6ef0", "name": "c014310d35e0c9b7cba432dabb7a6ef0", "rental_uris": {"ios": "https://dc.lft.to/lastmile_qr_scan", "android": "https://dc.lft.to/lastmile_qr_scan"}}, {"is_disabled": 0, "fusion_lat": 0.0, "lat": 38.89729633333334, "type": "electric_scooter", "lon": -77.04887566666666, "is_reserved": 0, "fusion_lon": 0.0, "bike_id": "94fb532982cbddde1c5aa8581a976811", "name": "94fb532982cbddde1c5aa8581a976811", "rental_uris": {"ios": "https://dc.lft.to/lastmile_qr_scan", "android": "https://dc.lft.to/lastmile_qr_scan"}}, {"is_disabled": 0, "fusion_lat": 0.0, "lat": 38.8801655, "type": "electric_scooter", "lon": -77.0247305, "is_reserved": 0, "fusion_lon": 0.0, "bike_id": "b74a37a5f73c55d8ffaab89a7db20965", "name": "b74a37a5f73c55d8ffaab89a7db20965", "rental_uris": {"ios": "https://dc.lft.to/lastmile_qr_scan", "android": "https://dc.lft.to/lastmile_qr_scan"}}, {"is_disabled": 0, "fusion_lat": 0.0, "lat": 38.911098, "type": "electric_scooter", "lon": -77.04490466666667, "is_reserved": 0, "fusion_lon": 0.0, "bike_id": "96052f06362ab7b2f7b0a7325b2f9ca7", "name": "96052f06362ab7b2f7b0a7325b2f9ca7", "rental_uris": {"ios": "https://dc.lft.to/lastmile_qr_scan", "android": "https://dc.lft.to/lastmile_qr_scan"}}, {"is_disabled": 0, "fusion_lat": 0.0, "lat": 38.90918766666667, "type": "electric_scooter", "lon": -77.08003816666667, "is_reserved": 0, "fusion_lon": 0.0, "bike_id": "790fc96b4db7ef8a189ffa5c3c69bca5", "name": "790fc96b4db7ef8a189ffa5c3c69bca5", "rental_uris": {"ios": "https://dc.lft.to/lastmile_qr_scan", "android": "https://dc.lft.to/lastmile_qr_scan"}}, {"is_disabled": 0, "fusion_lat": 0.0, "lat": 38.89218783333333, "type": "electric_bike", "lon": -77.107768, "is_reserved": 0, "fusion_lon": 0.0, "bike_id": "f1ffea0fcefb79c9507c060981173669", "name": "f1ffea0fcefb79c9507c060981173669", "rental_uris": {"ios": "https://dc.lft.to/lastmile_qr_scan", "android": "https://dc.lft.to/lastmile_qr_scan"}}, {"is_disabled": 0, "fusion_lat": 0.0, "lat": 38.8873975, "type": "electric_scooter", "lon": -77.01529283333333, "is_reserved": 0, "fusion_lon": 0.0, "bike_id": "61b29cac4c5d87fbe4586068bcc5e6ee", "name": "61b29cac4c5d87fbe4586068bcc5e6ee", "rental_uris": {"ios": "https://dc.lft.to/lastmile_qr_scan", "android": "https://dc.lft.to/lastmile_qr_scan"}}, {"is_disabled": 0, "fusion_lat": 0.0, "lat": 38.94180566666667, "type": "electric_scooter", "lon": -77.02485083333333, "is_reserved": 0, "fusion_lon": 0.0, "bike_id": "6a32a1d837bf5ca83ca586b5d9b20246", "name": "6a32a1d837bf5ca83ca586b5d9b20246", "rental_uris": {"ios": "https://dc.lft.to/lastmile_qr_scan", "android": "https://dc.lft.to/lastmile_qr_scan"}}, {"is_disabled": 0, "fusion_lat": 0.0, "lat": 38.90541666666667, "type": "electric_scooter", "lon": -77.021985, "is_reserved": 0, "fusion_lon": 0.0, "bike_id": "6b4e2448c70b61622e6799d2fab5f534", "name": "6b4e2448c70b61622e6799d2fab5f534", "rental_uris": {"ios": "https://dc.lft.to/lastmile_qr_scan", "android": "https://dc.lft.to/lastmile_qr_scan"}}, {"is_disabled": 0, "fusion_lat": 0.0, "lat": 38.923071666666665, "type": "electric_scooter", "lon": -77.03787233333334, "is_reserved": 0, "fusion_lon": 0.0, "bike_id": "04545215f460977d03f9dbd79d15a609", "name": "04545215f460977d03f9dbd79d15a609", "rental_uris": {"ios": "https://dc.lft.to/lastmile_qr_scan", "android": "https://dc.lft.to/lastmile_qr_scan"}}, {"is_disabled": 0, "fusion_lat": 0.0, "lat": 38.920641833333335, "type": "electric_scooter", "lon": -77.0319455, "is_reserved": 0, "fusion_lon": 0.0, "bike_id": "50e4679af60d2e1b6f919c06434ae837", "name": "50e4679af60d2e1b6f919c06434ae837", "rental_uris": {"ios": "https://dc.lft.to/lastmile_qr_scan", "android": "https://dc.lft.to/lastmile_qr_scan"}}, {"is_disabled": 0, "fusion_lat": 0.0, "lat": 38.91045166666667, "type": "electric_scooter", "lon": -77.01509133333333, "is_reserved": 0, "fusion_lon": 0.0, "bike_id": "3e240d0898546c472f9f4cb23e34c19f", "name": "3e240d0898546c472f9f4cb23e34c19f", "rental_uris": {"ios": "https://dc.lft.to/lastmile_qr_scan", "android": "https://dc.lft.to/lastmile_qr_scan"}}, {"is_disabled": 0, "fusion_lat": 0.0, "lat": 38.9166375, "type": "electric_scooter", "lon": -77.03847933333333, "is_reserved": 0, "fusion_lon": 0.0, "bike_id": "cc71fa0d2647a534456eae6063256aea", "name": "cc71fa0d2647a534456eae6063256aea", "rental_uris": {"ios": "https://dc.lft.to/lastmile_qr_scan", "android": "https://dc.lft.to/lastmile_qr_scan"}}, {"is_disabled": 0, "fusion_lat": 0.0, "lat": 38.91112483333333, "type": "electric_scooter", "lon": -77.03837016666667, "is_reserved": 0, "fusion_lon": 0.0, "bike_id": "84277375f656113e779541bff5bd5943", "name": "84277375f656113e779541bff5bd5943", "rental_uris": {"ios": "https://dc.lft.to/lastmile_qr_scan", "android": "https://dc.lft.to/lastmile_qr_scan"}}, {"is_disabled": 0, "fusion_lat": 0.0, "lat": 38.9334365, "type": "electric_scooter", "lon": -77.05859433333333, "is_reserved": 0, "fusion_lon": 0.0, "bike_id": "afb018551967ba97d1ef94a8f855e1cf", "name": "afb018551967ba97d1ef94a8f855e1cf", "rental_uris": {"ios": "https://dc.lft.to/lastmile_qr_scan", "android": "https://dc.lft.to/lastmile_qr_scan"}}, {"is_disabled": 0, "fusion_lat": 0.0, "lat": 38.93160666666667, "type": "electric_scooter", "lon": -77.03624716666667, "is_reserved": 0, "fusion_lon": 0.0, "bike_id": "8022dc9e945e8e1eba17206a2856d431", "name": "8022dc9e945e8e1eba17206a2856d431", "rental_uris": {"ios": "https://dc.lft.to/lastmile_qr_scan", "android": "https://dc.lft.to/lastmile_qr_scan"}}, {"is_disabled": 0, "fusion_lat": 0.0, "lat": 38.912702833333334, "type": "electric_scooter", "lon": -77.03868983333334, "is_reserved": 0, "fusion_lon": 0.0, "bike_id": "e18de9fabaa5421ab133b9489c933af9", "name": "e18de9fabaa5421ab133b9489c933af9", "rental_uris": {"ios": "https://dc.lft.to/lastmile_qr_scan", "android": "https://dc.lft.to/lastmile_qr_scan"}}, {"is_disabled": 0, "fusion_lat": 0.0, "lat": 38.89916, "type": "electric_scooter", "lon": -76.93375833333333, "is_reserved": 0, "fusion_lon": 0.0, "bike_id": "2e60f8179587dbddcbad4127579d8106", "name": "2e60f8179587dbddcbad4127579d8106", "rental_uris": {"ios": "https://dc.lft.to/lastmile_qr_scan", "android": "https://dc.lft.to/lastmile_qr_scan"}}, {"is_disabled": 0, "fusion_lat": 0.0, "lat": 38.928322, "type": "electric_scooter", "lon": -77.03273116666666, "is_reserved": 0, "fusion_lon": 0.0, "bike_id": "49782ce47fab77a26eba2da1c68f0c70", "name": "49782ce47fab77a26eba2da1c68f0c70", "rental_uris": {"ios": "https://dc.lft.to/lastmile_qr_scan", "android": "https://dc.lft.to/lastmile_qr_scan"}}, {"is_disabled": 0, "fusion_lat": 0.0, "lat": 38.8851405, "type": "electric_scooter", "lon": -77.01541166666667, "is_reserved": 0, "fusion_lon": 0.0, "bike_id": "8919c45a30918dd6f852c527394468df", "name": "8919c45a30918dd6f852c527394468df", "rental_uris": {"ios": "https://dc.lft.to/lastmile_qr_scan", "android": "https://dc.lft.to/lastmile_qr_scan"}}, {"is_disabled": 0, "fusion_lat": 0.0, "lat": 38.9031385, "type": "electric_scooter", "lon": -76.97799133333334, "is_reserved": 0, "fusion_lon": 0.0, "bike_id": "e658d90701233ac2f071e69fe9210e46", "name": "e658d90701233ac2f071e69fe9210e46", "rental_uris": {"ios": "https://dc.lft.to/lastmile_qr_scan", "android": "https://dc.lft.to/lastmile_qr_scan"}}, {"is_disabled": 0, "fusion_lat": 0.0, "lat": 38.86711583333334, "type": "electric_bike", "lon": -76.989523, "is_reserved": 0, "fusion_lon": 0.0, "bike_id": "b7531515acee729fafb2be8444427f3e", "name": "b7531515acee729fafb2be8444427f3e", "rental_uris": {"ios": "https://dc.lft.to/lastmile_qr_scan", "android": "https://dc.lft.to/lastmile_qr_scan"}}, {"is_disabled": 0, "fusion_lat": 0.0, "lat": 38.97086983333333, "type": "electric_bike", "lon": -77.0696235, "is_reserved": 0, "fusion_lon": 0.0, "bike_id": "83327b1cd1ad435e3f10a2c644262db2", "name": "83327b1cd1ad435e3f10a2c644262db2", "rental_uris": {"ios": "https://dc.lft.to/lastmile_qr_scan", "android": "https://dc.lft.to/lastmile_qr_scan"}}, {"is_disabled": 0, "fusion_lat": 0.0, "lat": 38.899639666666666, "type": "electric_scooter", "lon": -77.02662383333333, "is_reserved": 0, "fusion_lon": 0.0, "bike_id": "1a7fb504fe6813df3e2677426ef474b0", "name": "1a7fb504fe6813df3e2677426ef474b0", "rental_uris": {"ios": "https://dc.lft.to/lastmile_qr_scan", "android": "https://dc.lft.to/lastmile_qr_scan"}}, {"is_disabled": 0, "fusion_lat": 0.0, "lat": 38.925033, "type": "electric_scooter", "lon": -77.03875916666667, "is_reserved": 0, "fusion_lon": 0.0, "bike_id": "e2bf58b4c13bf1e4e1381da155c5ef63", "name": "e2bf58b4c13bf1e4e1381da155c5ef63", "rental_uris": {"ios": "https://dc.lft.to/lastmile_qr_scan", "android": "https://dc.lft.to/lastmile_qr_scan"}}, {"is_disabled": 0, "fusion_lat": 0.0, "lat": 38.898747, "type": "electric_scooter", "lon": -76.93182983333334, "is_reserved": 0, "fusion_lon": 0.0, "bike_id": "1386db20493133b629910abf64d4d211", "name": "1386db20493133b629910abf64d4d211", "rental_uris": {"ios": "https://dc.lft.to/lastmile_qr_scan", "android": "https://dc.lft.to/lastmile_qr_scan"}}, {"is_disabled": 0, "fusion_lat": 0.0, "lat": 38.9259875, "type": "electric_scooter", "lon": -77.00470666666666, "is_reserved": 0, "fusion_lon": 0.0, "bike_id": "df4423e907d46a5c0234532c8a9fb911", "name": "df4423e907d46a5c0234532c8a9fb911", "rental_uris": {"ios": "https://dc.lft.to/lastmile_qr_scan", "android": "https://dc.lft.to/lastmile_qr_scan"}}, {"is_disabled": 0, "fusion_lat": 0.0, "lat": 38.900387, "type": "electric_scooter", "lon": -77.002161, "is_reserved": 0, "fusion_lon": 0.0, "bike_id": "0c6b08f4e421f3601ea353a3c1e7784c", "name": "0c6b08f4e421f3601ea353a3c1e7784c", "rental_uris": {"ios": "https://dc.lft.to/lastmile_qr_scan", "android": "https://dc.lft.to/lastmile_qr_scan"}}, {"is_disabled": 0, "fusion_lat": 0.0, "lat": 38.93638333333333, "type": "electric_scooter", "lon": -77.03650133333333, "is_reserved": 0, "fusion_lon": 0.0, "bike_id": "5d7236da0ad5901c005c7e2a228a9a97", "name": "5d7236da0ad5901c005c7e2a228a9a97", "rental_uris": {"ios": "https://dc.lft.to/lastmile_qr_scan", "android": "https://dc.lft.to/lastmile_qr_scan"}}, {"is_disabled": 0, "fusion_lat": 0.0, "lat": 38.87839483333333, "type": "electric_scooter", "lon": -77.019587, "is_reserved": 0, "fusion_lon": 0.0, "bike_id": "b459c54f13f21e1446814df85e4ad3c8", "name": "b459c54f13f21e1446814df85e4ad3c8", "rental_uris": {"ios": "https://dc.lft.to/lastmile_qr_scan", "android": "https://dc.lft.to/lastmile_qr_scan"}}, {"is_disabled": 0, "fusion_lat": 0.0, "lat": 38.91300483333333, "type": "electric_scooter", "lon": -77.01963766666667, "is_reserved": 0, "fusion_lon": 0.0, "bike_id": "bce2aaf2e364013491b2b634d72c7f96", "name": "bce2aaf2e364013491b2b634d72c7f96", "rental_uris": {"ios": "https://dc.lft.to/lastmile_qr_scan", "android": "https://dc.lft.to/lastmile_qr_scan"}}, {"is_disabled": 0, "fusion_lat": 0.0, "lat": 38.9168735, "type": "electric_scooter", "lon": -77.04613633333334, "is_reserved": 0, "fusion_lon": 0.0, "bike_id": "7567f89420ab4d2f389a86e1fd742bbb", "name": "7567f89420ab4d2f389a86e1fd742bbb", "rental_uris": {"ios": "https://dc.lft.to/lastmile_qr_scan", "android": "https://dc.lft.to/lastmile_qr_scan"}}, {"is_disabled": 0, "fusion_lat": 0.0, "lat": 38.85972616666667, "type": "electric_scooter", "lon": -76.9912235, "is_reserved": 0, "fusion_lon": 0.0, "bike_id": "ab4b9cf0de6b0125f34d98cf68bf609f", "name": "ab4b9cf0de6b0125f34d98cf68bf609f", "rental_uris": {"ios": "https://dc.lft.to/lastmile_qr_scan", "android": "https://dc.lft.to/lastmile_qr_scan"}}, {"is_disabled": 0, "fusion_lat": 0.0, "lat": 38.9397265, "type": "electric_scooter", "lon": -77.02892166666666, "is_reserved": 0, "fusion_lon": 0.0, "bike_id": "51c7186932836c311cd2bf2794b64b64", "name": "51c7186932836c311cd2bf2794b64b64", "rental_uris": {"ios": "https://dc.lft.to/lastmile_qr_scan", "android": "https://dc.lft.to/lastmile_qr_scan"}}, {"is_disabled": 0, "fusion_lat": 0.0, "lat": 38.92483133333333, "type": "electric_scooter", "lon": -77.0262495, "is_reserved": 0, "fusion_lon": 0.0, "bike_id": "f2c0090008dea9fccac93efc6413a6f3", "name": "f2c0090008dea9fccac93efc6413a6f3", "rental_uris": {"ios": "https://dc.lft.to/lastmile_qr_scan", "android": "https://dc.lft.to/lastmile_qr_scan"}}, {"is_disabled": 0, "fusion_lat": 0.0, "lat": 38.892152, "type": "electric_scooter", "lon": -77.0464715, "is_reserved": 0, "fusion_lon": 0.0, "bike_id": "07ac225ffe2145084bf57b6d65456428", "name": "07ac225ffe2145084bf57b6d65456428", "rental_uris": {"ios": "https://dc.lft.to/lastmile_qr_scan", "android": "https://dc.lft.to/lastmile_qr_scan"}}, {"is_disabled": 0, "fusion_lat": 0.0, "lat": 38.918115666666665, "type": "electric_scooter", "lon": -77.0329015, "is_reserved": 0, "fusion_lon": 0.0, "bike_id": "ee105594a0717eaf63cc6f8e18532bac", "name": "ee105594a0717eaf63cc6f8e18532bac", "rental_uris": {"ios": "https://dc.lft.to/lastmile_qr_scan", "android": "https://dc.lft.to/lastmile_qr_scan"}}, {"is_disabled": 0, "fusion_lat": 0.0, "lat": 38.91235366666667, "type": "electric_bike", "lon": -77.07296166666667, "is_reserved": 0, "fusion_lon": 0.0, "bike_id": "428c531f5e09a081dd73e9900ed045dc", "name": "428c531f5e09a081dd73e9900ed045dc", "rental_uris": {"ios": "https://dc.lft.to/lastmile_qr_scan", "android": "https://dc.lft.to/lastmile_qr_scan"}}, {"is_disabled": 0, "fusion_lat": 0.0, "lat": 38.900602166666665, "type": "electric_scooter", "lon": -77.050403, "is_reserved": 0, "fusion_lon": 0.0, "bike_id": "640acee8c8a1f949ed856356ac0f738f", "name": "640acee8c8a1f949ed856356ac0f738f", "rental_uris": {"ios": "https://dc.lft.to/lastmile_qr_scan", "android": "https://dc.lft.to/lastmile_qr_scan"}}, {"is_disabled": 0, "fusion_lat": 0.0, "lat": 38.91821816666667, "type": "electric_scooter", "lon": -77.038462, "is_reserved": 0, "fusion_lon": 0.0, "bike_id": "f2a872ce4ff4064d6623194251e50ec1", "name": "f2a872ce4ff4064d6623194251e50ec1", "rental_uris": {"ios": "https://dc.lft.to/lastmile_qr_scan", "android": "https://dc.lft.to/lastmile_qr_scan"}}, {"is_disabled": 0, "fusion_lat": 0.0, "lat": 38.90956766666667, "type": "electric_scooter", "lon": -77.04648583333334, "is_reserved": 0, "fusion_lon": 0.0, "bike_id": "3b85df1440d05becbac70f7fd74bac8b", "name": "3b85df1440d05becbac70f7fd74bac8b", "rental_uris": {"ios": "https://dc.lft.to/lastmile_qr_scan", "android": "https://dc.lft.to/lastmile_qr_scan"}}, {"is_disabled": 0, "fusion_lat": 0.0, "lat": 38.904900833333336, "type": "electric_scooter", "lon": -77.06783666666666, "is_reserved": 0, "fusion_lon": 0.0, "bike_id": "9661749db8864525457a510d5fed2f8e", "name": "9661749db8864525457a510d5fed2f8e", "rental_uris": {"ios": "https://dc.lft.to/lastmile_qr_scan", "android": "https://dc.lft.to/lastmile_qr_scan"}}, {"is_disabled": 0, "fusion_lat": 0.0, "lat": 38.90552733333333, "type": "electric_scooter", "lon": -77.0456015, "is_reserved": 0, "fusion_lon": 0.0, "bike_id": "3ec9c89ac313248cfed33e7e3ad83477", "name": "3ec9c89ac313248cfed33e7e3ad83477", "rental_uris": {"ios": "https://dc.lft.to/lastmile_qr_scan", "android": "https://dc.lft.to/lastmile_qr_scan"}}, {"is_disabled": 0, "fusion_lat": 0.0, "lat": 38.902536833333336, "type": "electric_scooter", "lon": -77.04902283333334, "is_reserved": 0, "fusion_lon": 0.0, "bike_id": "e140b775eec5170e8c0abb831e646e2d", "name": "e140b775eec5170e8c0abb831e646e2d", "rental_uris": {"ios": "https://dc.lft.to/lastmile_qr_scan", "android": "https://dc.lft.to/lastmile_qr_scan"}}, {"is_disabled": 0, "fusion_lat": 0.0, "lat": 38.910524, "type": "electric_scooter", "lon": -77.01518133333333, "is_reserved": 0, "fusion_lon": 0.0, "bike_id": "1137993825066129962ce54d6a531b8d", "name": "1137993825066129962ce54d6a531b8d", "rental_uris": {"ios": "https://dc.lft.to/lastmile_qr_scan", "android": "https://dc.lft.to/lastmile_qr_scan"}}, {"is_disabled": 0, "fusion_lat": 0.0, "lat": 38.93357, "type": "electric_scooter", "lon": -77.05725316666667, "is_reserved": 0, "fusion_lon": 0.0, "bike_id": "7aa5cd4e43fa03348db61c685d8a50eb", "name": "7aa5cd4e43fa03348db61c685d8a50eb", "rental_uris": {"ios": "https://dc.lft.to/lastmile_qr_scan", "android": "https://dc.lft.to/lastmile_qr_scan"}}, {"is_disabled": 0, "fusion_lat": 0.0, "lat": 38.885123, "type": "electric_scooter", "lon": -77.0157805, "is_reserved": 0, "fusion_lon": 0.0, "bike_id": "02a1b3b2ee1bcf5dfe85791487dbd9d9", "name": "02a1b3b2ee1bcf5dfe85791487dbd9d9", "rental_uris": {"ios": "https://dc.lft.to/lastmile_qr_scan", "android": "https://dc.lft.to/lastmile_qr_scan"}}, {"is_disabled": 0, "fusion_lat": 0.0, "lat": 38.905169666666666, "type": "electric_scooter", "lon": -77.06646416666666, "is_reserved": 0, "fusion_lon": 0.0, "bike_id": "4eda44a6d92351b2344f8ce12eaea5fd", "name": "4eda44a6d92351b2344f8ce12eaea5fd", "rental_uris": {"ios": "https://dc.lft.to/lastmile_qr_scan", "android": "https://dc.lft.to/lastmile_qr_scan"}}, {"is_disabled": 0, "fusion_lat": 0.0, "lat": 38.87478216666667, "type": "electric_scooter", "lon": -77.00107966666667, "is_reserved": 0, "fusion_lon": 0.0, "bike_id": "66ff72e0bff55cd7fb86b1255207721f", "name": "66ff72e0bff55cd7fb86b1255207721f", "rental_uris": {"ios": "https://dc.lft.to/lastmile_qr_scan", "android": "https://dc.lft.to/lastmile_qr_scan"}}, {"is_disabled": 0, "fusion_lat": 0.0, "lat": 38.956313333333334, "type": "electric_scooter", "lon": -77.03293516666666, "is_reserved": 0, "fusion_lon": 0.0, "bike_id": "70916a732db78bc63e39f223a9e6f54f", "name": "70916a732db78bc63e39f223a9e6f54f", "rental_uris": {"ios": "https://dc.lft.to/lastmile_qr_scan", "android": "https://dc.lft.to/lastmile_qr_scan"}}, {"is_disabled": 0, "fusion_lat": 0.0, "lat": 38.892178333333334, "type": "electric_scooter", "lon": -77.0464435, "is_reserved": 0, "fusion_lon": 0.0, "bike_id": "9f78d0aabe2cb9e80d575b8370fcd864", "name": "9f78d0aabe2cb9e80d575b8370fcd864", "rental_uris": {"ios": "https://dc.lft.to/lastmile_qr_scan", "android": "https://dc.lft.to/lastmile_qr_scan"}}, {"is_disabled": 0, "fusion_lat": 0.0, "lat": 38.87196733333333, "type": "electric_scooter", "lon": -77.00608933333334, "is_reserved": 0, "fusion_lon": 0.0, "bike_id": "17009df3ae24f2f867bd40cdb2ccfe8b", "name": "17009df3ae24f2f867bd40cdb2ccfe8b", "rental_uris": {"ios": "https://dc.lft.to/lastmile_qr_scan", "android": "https://dc.lft.to/lastmile_qr_scan"}}, {"is_disabled": 0, "fusion_lat": 0.0, "lat": 38.92865783333333, "type": "electric_bike", "lon": -77.22214783333334, "is_reserved": 0, "fusion_lon": 0.0, "bike_id": "2a9df379342a9bda973998511e95279d", "name": "2a9df379342a9bda973998511e95279d", "rental_uris": {"ios": "https://dc.lft.to/lastmile_qr_scan", "android": "https://dc.lft.to/lastmile_qr_scan"}}, {"is_disabled": 0, "fusion_lat": 0.0, "lat": 39.0885955, "type": "electric_bike", "lon": -77.1784085, "is_reserved": 0, "fusion_lon": 0.0, "bike_id": "ea3c2ddd3fb750beff0e6f9ed2fa42cc", "name": "ea3c2ddd3fb750beff0e6f9ed2fa42cc", "rental_uris": {"ios": "https://dc.lft.to/lastmile_qr_scan", "android": "https://dc.lft.to/lastmile_qr_scan"}}, {"is_disabled": 0, "fusion_lat": 0.0, "lat": 38.9284315, "type": "electric_bike", "lon": -77.02049433333333, "is_reserved": 0, "fusion_lon": 0.0, "bike_id": "279a88d9c3bfa347aafb553cd15ee82a", "name": "279a88d9c3bfa347aafb553cd15ee82a", "rental_uris": {"ios": "https://dc.lft.to/lastmile_qr_scan", "android": "https://dc.lft.to/lastmile_qr_scan"}}, {"is_disabled": 0, "fusion_lat": 0.0, "lat": 38.9231755, "type": "electric_scooter", "lon": -77.04512866666667, "is_reserved": 0, "fusion_lon": 0.0, "bike_id": "bd77c1bb5f675f78fcddec2ea72d6195", "name": "bd77c1bb5f675f78fcddec2ea72d6195", "rental_uris": {"ios": "https://dc.lft.to/lastmile_qr_scan", "android": "https://dc.lft.to/lastmile_qr_scan"}}, {"is_disabled": 0, "fusion_lat": 0.0, "lat": 38.904964166666666, "type": "electric_scooter", "lon": -77.04320716666666, "is_reserved": 0, "fusion_lon": 0.0, "bike_id": "eb32cbf3aa8af45b574a9f0a83c13ffc", "name": "eb32cbf3aa8af45b574a9f0a83c13ffc", "rental_uris": {"ios": "https://dc.lft.to/lastmile_qr_scan", "android": "https://dc.lft.to/lastmile_qr_scan"}}, {"is_disabled": 0, "fusion_lat": 0.0, "lat": 38.9154585, "type": "electric_scooter", "lon": -77.03835633333334, "is_reserved": 0, "fusion_lon": 0.0, "bike_id": "b2df6693a060a3d4a352a8857baa52f1", "name": "b2df6693a060a3d4a352a8857baa52f1", "rental_uris": {"ios": "https://dc.lft.to/lastmile_qr_scan", "android": "https://dc.lft.to/lastmile_qr_scan"}}, {"is_disabled": 0, "fusion_lat": 0.0, "lat": 38.8996565, "type": "electric_bike", "lon": -77.0549765, "is_reserved": 0, "fusion_lon": 0.0, "bike_id": "5a1db1155a7509fb1451cbcdc2e9a8e6", "name": "5a1db1155a7509fb1451cbcdc2e9a8e6", "rental_uris": {"ios": "https://dc.lft.to/lastmile_qr_scan", "android": "https://dc.lft.to/lastmile_qr_scan"}}, {"is_disabled": 0, "fusion_lat": 0.0, "lat": 38.911085166666666, "type": "electric_scooter", "lon": -77.04818533333334, "is_reserved": 0, "fusion_lon": 0.0, "bike_id": "566ff464750098b473545919cf9dd059", "name": "566ff464750098b473545919cf9dd059", "rental_uris": {"ios": "https://dc.lft.to/lastmile_qr_scan", "android": "https://dc.lft.to/lastmile_qr_scan"}}, {"is_disabled": 0, "fusion_lat": 0.0, "lat": 38.9324205, "type": "electric_scooter", "lon": -77.03864383333334, "is_reserved": 0, "fusion_lon": 0.0, "bike_id": "59fcd2fdc20711c8074262618cdf10c4", "name": "59fcd2fdc20711c8074262618cdf10c4", "rental_uris": {"ios": "https://dc.lft.to/lastmile_qr_scan", "android": "https://dc.lft.to/lastmile_qr_scan"}}, {"is_disabled": 0, "fusion_lat": 0.0, "lat": 38.922102, "type": "electric_scooter", "lon": -77.03285266666667, "is_reserved": 0, "fusion_lon": 0.0, "bike_id": "119a01df70751ca03fb96f36f4ff8e28", "name": "119a01df70751ca03fb96f36f4ff8e28", "rental_uris": {"ios": "https://dc.lft.to/lastmile_qr_scan", "android": "https://dc.lft.to/lastmile_qr_scan"}}, {"is_disabled": 0, "fusion_lat": 0.0, "lat": 38.919238166666666, "type": "electric_scooter", "lon": -77.03181433333333, "is_reserved": 0, "fusion_lon": 0.0, "bike_id": "803db195ca1c1e63d93d831ce3426c2f", "name": "803db195ca1c1e63d93d831ce3426c2f", "rental_uris": {"ios": "https://dc.lft.to/lastmile_qr_scan", "android": "https://dc.lft.to/lastmile_qr_scan"}}, {"is_disabled": 0, "fusion_lat": 0.0, "lat": 38.89818016666667, "type": "electric_bike", "lon": -76.99036633333333, "is_reserved": 0, "fusion_lon": 0.0, "bike_id": "65eff5588c50e60a82101d5fe8361eed", "name": "65eff5588c50e60a82101d5fe8361eed", "rental_uris": {"ios": "https://dc.lft.to/lastmile_qr_scan", "android": "https://dc.lft.to/lastmile_qr_scan"}}, {"is_disabled": 0, "fusion_lat": 0.0, "lat": 38.887238333333336, "type": "electric_scooter", "lon": -77.03208016666666, "is_reserved": 0, "fusion_lon": 0.0, "bike_id": "78d2677f7048a8d7f650708af852010d", "name": "78d2677f7048a8d7f650708af852010d", "rental_uris": {"ios": "https://dc.lft.to/lastmile_qr_scan", "android": "https://dc.lft.to/lastmile_qr_scan"}}, {"is_disabled": 0, "fusion_lat": 0.0, "lat": 38.8841145, "type": "electric_scooter", "lon": -77.03045033333333, "is_reserved": 0, "fusion_lon": 0.0, "bike_id": "3025325a100b8c8e2a01af5e105f29f4", "name": "3025325a100b8c8e2a01af5e105f29f4", "rental_uris": {"ios": "https://dc.lft.to/lastmile_qr_scan", "android": "https://dc.lft.to/lastmile_qr_scan"}}, {"is_disabled": 0, "fusion_lat": 0.0, "lat": 38.929488166666665, "type": "electric_bike", "lon": -77.03768, "is_reserved": 0, "fusion_lon": 0.0, "bike_id": "91ccd09810809bef9af6592c7a2d49d9", "name": "91ccd09810809bef9af6592c7a2d49d9", "rental_uris": {"ios": "https://dc.lft.to/lastmile_qr_scan", "android": "https://dc.lft.to/lastmile_qr_scan"}}, {"is_disabled": 0, "fusion_lat": 0.0, "lat": 38.929460666666664, "type": "electric_bike", "lon": -77.04397216666666, "is_reserved": 0, "fusion_lon": 0.0, "bike_id": "0e3780071381a470102f6b36da9bc6f5", "name": "0e3780071381a470102f6b36da9bc6f5", "rental_uris": {"ios": "https://dc.lft.to/lastmile_qr_scan", "android": "https://dc.lft.to/lastmile_qr_scan"}}, {"is_disabled": 0, "fusion_lat": 0.0, "lat": 38.901557333333336, "type": "electric_scooter", "lon": -76.97625733333334, "is_reserved": 0, "fusion_lon": 0.0, "bike_id": "71b528551dd0641e49ae778e05f8b5e3", "name": "71b528551dd0641e49ae778e05f8b5e3", "rental_uris": {"ios": "https://dc.lft.to/lastmile_qr_scan", "android": "https://dc.lft.to/lastmile_qr_scan"}}, {"is_disabled": 0, "fusion_lat": 0.0, "lat": 38.983654666666666, "type": "electric_scooter", "lon": -77.026446, "is_reserved": 0, "fusion_lon": 0.0, "bike_id": "034fbd422d49def722565774bc5409b5", "name": "034fbd422d49def722565774bc5409b5", "rental_uris": {"ios": "https://dc.lft.to/lastmile_qr_scan", "android": "https://dc.lft.to/lastmile_qr_scan"}}, {"is_disabled": 0, "fusion_lat": 0.0, "lat": 38.94056783333333, "type": "electric_bike", "lon": -76.95383633333333, "is_reserved": 0, "fusion_lon": 0.0, "bike_id": "1f61c85f109addbabd6d2fecaf7aef21", "name": "1f61c85f109addbabd6d2fecaf7aef21", "rental_uris": {"ios": "https://dc.lft.to/lastmile_qr_scan", "android": "https://dc.lft.to/lastmile_qr_scan"}}, {"is_disabled": 0, "fusion_lat": 0.0, "lat": 38.90512583333334, "type": "electric_scooter", "lon": -76.98831416666667, "is_reserved": 0, "fusion_lon": 0.0, "bike_id": "5a353779f1b81d2e9adbf5d5633be411", "name": "5a353779f1b81d2e9adbf5d5633be411", "rental_uris": {"ios": "https://dc.lft.to/lastmile_qr_scan", "android": "https://dc.lft.to/lastmile_qr_scan"}}, {"is_disabled": 0, "fusion_lat": 0.0, "lat": 38.90505233333333, "type": "electric_scooter", "lon": -77.05125083333333, "is_reserved": 0, "fusion_lon": 0.0, "bike_id": "3aa81c7fff6ee92b3bddb19e6c8b0fb4", "name": "3aa81c7fff6ee92b3bddb19e6c8b0fb4", "rental_uris": {"ios": "https://dc.lft.to/lastmile_qr_scan", "android": "https://dc.lft.to/lastmile_qr_scan"}}, {"is_disabled": 0, "fusion_lat": 0.0, "lat": 38.873896, "type": "electric_scooter", "lon": -77.00087066666667, "is_reserved": 0, "fusion_lon": 0.0, "bike_id": "98d702166fcd5892ab08325eeba307dc", "name": "98d702166fcd5892ab08325eeba307dc", "rental_uris": {"ios": "https://dc.lft.to/lastmile_qr_scan", "android": "https://dc.lft.to/lastmile_qr_scan"}}, {"is_disabled": 0, "fusion_lat": 0.0, "lat": 38.9030525, "type": "electric_scooter", "lon": -77.051499, "is_reserved": 0, "fusion_lon": 0.0, "bike_id": "1b7dc7f3598ddb4ca9937a198e7fa55f", "name": "1b7dc7f3598ddb4ca9937a198e7fa55f", "rental_uris": {"ios": "https://dc.lft.to/lastmile_qr_scan", "android": "https://dc.lft.to/lastmile_qr_scan"}}, {"is_disabled": 0, "fusion_lat": 0.0, "lat": 38.91700266666667, "type": "electric_scooter", "lon": -77.02894616666667, "is_reserved": 0, "fusion_lon": 0.0, "bike_id": "021b1efc346360f91aac8f1121bc6210", "name": "021b1efc346360f91aac8f1121bc6210", "rental_uris": {"ios": "https://dc.lft.to/lastmile_qr_scan", "android": "https://dc.lft.to/lastmile_qr_scan"}}, {"is_disabled": 0, "fusion_lat": 0.0, "lat": 38.917637, "type": "electric_scooter", "lon": -77.02298066666667, "is_reserved": 0, "fusion_lon": 0.0, "bike_id": "7f5cf741a293a412146f0c6d602618ab", "name": "7f5cf741a293a412146f0c6d602618ab", "rental_uris": {"ios": "https://dc.lft.to/lastmile_qr_scan", "android": "https://dc.lft.to/lastmile_qr_scan"}}, {"is_disabled": 0, "fusion_lat": 0.0, "lat": 38.904013666666664, "type": "electric_scooter", "lon": -77.0319995, "is_reserved": 0, "fusion_lon": 0.0, "bike_id": "900eea0ed3844ba29ec29f5e78785191", "name": "900eea0ed3844ba29ec29f5e78785191", "rental_uris": {"ios": "https://dc.lft.to/lastmile_qr_scan", "android": "https://dc.lft.to/lastmile_qr_scan"}}, {"is_disabled": 0, "fusion_lat": 0.0, "lat": 38.876292, "type": "electric_scooter", "lon": -76.96518583333334, "is_reserved": 0, "fusion_lon": 0.0, "bike_id": "627b060a70a137b938d933c03ceb3c8e", "name": "627b060a70a137b938d933c03ceb3c8e", "rental_uris": {"ios": "https://dc.lft.to/lastmile_qr_scan", "android": "https://dc.lft.to/lastmile_qr_scan"}}, {"is_disabled": 0, "fusion_lat": 0.0, "lat": 38.90816983333333, "type": "electric_scooter", "lon": -77.043282, "is_reserved": 0, "fusion_lon": 0.0, "bike_id": "93ad1d367d99007c4353780fb21f79d1", "name": "93ad1d367d99007c4353780fb21f79d1", "rental_uris": {"ios": "https://dc.lft.to/lastmile_qr_scan", "android": "https://dc.lft.to/lastmile_qr_scan"}}, {"is_disabled": 0, "fusion_lat": 0.0, "lat": 38.921752833333336, "type": "electric_scooter", "lon": -77.03193916666666, "is_reserved": 0, "fusion_lon": 0.0, "bike_id": "7b6d34606b8220251395401426828229", "name": "7b6d34606b8220251395401426828229", "rental_uris": {"ios": "https://dc.lft.to/lastmile_qr_scan", "android": "https://dc.lft.to/lastmile_qr_scan"}}, {"is_disabled": 0, "fusion_lat": 0.0, "lat": 38.893304666666666, "type": "electric_scooter", "lon": -76.92991683333334, "is_reserved": 0, "fusion_lon": 0.0, "bike_id": "bd244ba191339b29f3b19b7d613110ed", "name": "bd244ba191339b29f3b19b7d613110ed", "rental_uris": {"ios": "https://dc.lft.to/lastmile_qr_scan", "android": "https://dc.lft.to/lastmile_qr_scan"}}, {"is_disabled": 0, "fusion_lat": 0.0, "lat": 38.90610216666666, "type": "electric_scooter", "lon": -77.03947666666667, "is_reserved": 0, "fusion_lon": 0.0, "bike_id": "369d05aa1889d28788a121814a172bee", "name": "369d05aa1889d28788a121814a172bee", "rental_uris": {"ios": "https://dc.lft.to/lastmile_qr_scan", "android": "https://dc.lft.to/lastmile_qr_scan"}}, {"is_disabled": 0, "fusion_lat": 0.0, "lat": 38.9028, "type": "electric_scooter", "lon": -77.03869933333333, "is_reserved": 0, "fusion_lon": 0.0, "bike_id": "4908f10d0abb034237ea5dec16ff056a", "name": "4908f10d0abb034237ea5dec16ff056a", "rental_uris": {"ios": "https://dc.lft.to/lastmile_qr_scan", "android": "https://dc.lft.to/lastmile_qr_scan"}}, {"is_disabled": 0, "fusion_lat": 0.0, "lat": 38.9216985, "type": "electric_scooter", "lon": -77.035439, "is_reserved": 0, "fusion_lon": 0.0, "bike_id": "62d2837df3a22de7f1df28300793b514", "name": "62d2837df3a22de7f1df28300793b514", "rental_uris": {"ios": "https://dc.lft.to/lastmile_qr_scan", "android": "https://dc.lft.to/lastmile_qr_scan"}}, {"is_disabled": 0, "fusion_lat": 0.0, "lat": 38.915441, "type": "electric_scooter", "lon": -77.03837916666667, "is_reserved": 0, "fusion_lon": 0.0, "bike_id": "63217b5366c4a9f4622262790514c706", "name": "63217b5366c4a9f4622262790514c706", "rental_uris": {"ios": "https://dc.lft.to/lastmile_qr_scan", "android": "https://dc.lft.to/lastmile_qr_scan"}}, {"is_disabled": 0, "fusion_lat": 0.0, "lat": 38.924821666666666, "type": "electric_scooter", "lon": -77.027175, "is_reserved": 0, "fusion_lon": 0.0, "bike_id": "1df1ca0316e1022311468b4c02d69ece", "name": "1df1ca0316e1022311468b4c02d69ece", "rental_uris": {"ios": "https://dc.lft.to/lastmile_qr_scan", "android": "https://dc.lft.to/lastmile_qr_scan"}}, {"is_disabled": 0, "fusion_lat": 0.0, "lat": 38.9083685, "type": "electric_scooter", "lon": -77.02689833333334, "is_reserved": 0, "fusion_lon": 0.0, "bike_id": "1f8c21c15e8e62de7a51f93b53cc2995", "name": "1f8c21c15e8e62de7a51f93b53cc2995", "rental_uris": {"ios": "https://dc.lft.to/lastmile_qr_scan", "android": "https://dc.lft.to/lastmile_qr_scan"}}, {"is_disabled": 0, "fusion_lat": 0.0, "lat": 38.920402833333334, "type": "electric_scooter", "lon": -76.97904316666667, "is_reserved": 0, "fusion_lon": 0.0, "bike_id": "122b54cc24739ae0a79ddfa5f264cacd", "name": "122b54cc24739ae0a79ddfa5f264cacd", "rental_uris": {"ios": "https://dc.lft.to/lastmile_qr_scan", "android": "https://dc.lft.to/lastmile_qr_scan"}}, {"is_disabled": 0, "fusion_lat": 0.0, "lat": 38.903269, "type": "electric_scooter", "lon": -77.03783716666666, "is_reserved": 0, "fusion_lon": 0.0, "bike_id": "ad96bdd88c14a8bf492345b9cf9fcf91", "name": "ad96bdd88c14a8bf492345b9cf9fcf91", "rental_uris": {"ios": "https://dc.lft.to/lastmile_qr_scan", "android": "https://dc.lft.to/lastmile_qr_scan"}}, {"is_disabled": 0, "fusion_lat": 0.0, "lat": 38.8947545, "type": "electric_scooter", "lon": -77.02177633333334, "is_reserved": 0, "fusion_lon": 0.0, "bike_id": "57729a31151170af7f0e9bea9b2e224e", "name": "57729a31151170af7f0e9bea9b2e224e", "rental_uris": {"ios": "https://dc.lft.to/lastmile_qr_scan", "android": "https://dc.lft.to/lastmile_qr_scan"}}, {"is_disabled": 0, "fusion_lat": 0.0, "lat": 38.90211333333333, "type": "electric_scooter", "lon": -77.021466, "is_reserved": 0, "fusion_lon": 0.0, "bike_id": "b9f53df0a0cb310c959a506d8b240b39", "name": "b9f53df0a0cb310c959a506d8b240b39", "rental_uris": {"ios": "https://dc.lft.to/lastmile_qr_scan", "android": "https://dc.lft.to/lastmile_qr_scan"}}, {"is_disabled": 0, "fusion_lat": 0.0, "lat": 38.90982366666667, "type": "electric_scooter", "lon": -77.0337405, "is_reserved": 0, "fusion_lon": 0.0, "bike_id": "8970e05f4f416cf63d3df36b1ce0ad9c", "name": "8970e05f4f416cf63d3df36b1ce0ad9c", "rental_uris": {"ios": "https://dc.lft.to/lastmile_qr_scan", "android": "https://dc.lft.to/lastmile_qr_scan"}}, {"is_disabled": 0, "fusion_lat": 0.0, "lat": 38.905191, "type": "electric_scooter", "lon": -77.0477935, "is_reserved": 0, "fusion_lon": 0.0, "bike_id": "753c761254999fe3656edb860359fa15", "name": "753c761254999fe3656edb860359fa15", "rental_uris": {"ios": "https://dc.lft.to/lastmile_qr_scan", "android": "https://dc.lft.to/lastmile_qr_scan"}}, {"is_disabled": 0, "fusion_lat": 0.0, "lat": 38.91409066666667, "type": "electric_scooter", "lon": -77.01836366666667, "is_reserved": 0, "fusion_lon": 0.0, "bike_id": "cf0fab481b8b607cc2e070ef37f8a4a3", "name": "cf0fab481b8b607cc2e070ef37f8a4a3", "rental_uris": {"ios": "https://dc.lft.to/lastmile_qr_scan", "android": "https://dc.lft.to/lastmile_qr_scan"}}, {"is_disabled": 0, "fusion_lat": 0.0, "lat": 38.917406, "type": "electric_scooter", "lon": -77.034587, "is_reserved": 0, "fusion_lon": 0.0, "bike_id": "119483576c8ae43f08c5a3c903ecb73c", "name": "119483576c8ae43f08c5a3c903ecb73c", "rental_uris": {"ios": "https://dc.lft.to/lastmile_qr_scan", "android": "https://dc.lft.to/lastmile_qr_scan"}}, {"is_disabled": 0, "fusion_lat": 0.0, "lat": 38.93143766666667, "type": "electric_scooter", "lon": -77.02980116666667, "is_reserved": 0, "fusion_lon": 0.0, "bike_id": "8e7672084bc1d8c009ff6704d851fd4e", "name": "8e7672084bc1d8c009ff6704d851fd4e", "rental_uris": {"ios": "https://dc.lft.to/lastmile_qr_scan", "android": "https://dc.lft.to/lastmile_qr_scan"}}, {"is_disabled": 0, "fusion_lat": 0.0, "lat": 38.85563466666667, "type": "electric_scooter", "lon": -76.99497433333333, "is_reserved": 0, "fusion_lon": 0.0, "bike_id": "c364eaac294e13bde26eb558320bada4", "name": "c364eaac294e13bde26eb558320bada4", "rental_uris": {"ios": "https://dc.lft.to/lastmile_qr_scan", "android": "https://dc.lft.to/lastmile_qr_scan"}}, {"is_disabled": 0, "fusion_lat": 0.0, "lat": 38.92724333333334, "type": "electric_scooter", "lon": -77.03658533333333, "is_reserved": 0, "fusion_lon": 0.0, "bike_id": "518cbe465d88633660ddb575f46c1bc9", "name": "518cbe465d88633660ddb575f46c1bc9", "rental_uris": {"ios": "https://dc.lft.to/lastmile_qr_scan", "android": "https://dc.lft.to/lastmile_qr_scan"}}, {"is_disabled": 0, "fusion_lat": 0.0, "lat": 38.920094166666665, "type": "electric_scooter", "lon": -77.02188183333334, "is_reserved": 0, "fusion_lon": 0.0, "bike_id": "2add7bc0b353560ca6da178ef4f1663a", "name": "2add7bc0b353560ca6da178ef4f1663a", "rental_uris": {"ios": "https://dc.lft.to/lastmile_qr_scan", "android": "https://dc.lft.to/lastmile_qr_scan"}}, {"is_disabled": 0, "fusion_lat": 0.0, "lat": 38.90568016666667, "type": "electric_scooter", "lon": -77.005857, "is_reserved": 0, "fusion_lon": 0.0, "bike_id": "b508a173aca41530997b3bfbfce31d2b", "name": "b508a173aca41530997b3bfbfce31d2b", "rental_uris": {"ios": "https://dc.lft.to/lastmile_qr_scan", "android": "https://dc.lft.to/lastmile_qr_scan"}}, {"is_disabled": 0, "fusion_lat": 0.0, "lat": 38.9155155, "type": "electric_scooter", "lon": -77.02155, "is_reserved": 0, "fusion_lon": 0.0, "bike_id": "0b41ec4b744faf997af20c88d010cbab", "name": "0b41ec4b744faf997af20c88d010cbab", "rental_uris": {"ios": "https://dc.lft.to/lastmile_qr_scan", "android": "https://dc.lft.to/lastmile_qr_scan"}}, {"is_disabled": 0, "fusion_lat": 0.0, "lat": 38.902849833333335, "type": "electric_scooter", "lon": -77.040235, "is_reserved": 0, "fusion_lon": 0.0, "bike_id": "3db345c62442fad9aa59b0a336ec9680", "name": "3db345c62442fad9aa59b0a336ec9680", "rental_uris": {"ios": "https://dc.lft.to/lastmile_qr_scan", "android": "https://dc.lft.to/lastmile_qr_scan"}}, {"is_disabled": 0, "fusion_lat": 0.0, "lat": 38.92852583333333, "type": "electric_scooter", "lon": -77.01387716666666, "is_reserved": 0, "fusion_lon": 0.0, "bike_id": "f0c1558ce37095f0828c6068b872156d", "name": "f0c1558ce37095f0828c6068b872156d", "rental_uris": {"ios": "https://dc.lft.to/lastmile_qr_scan", "android": "https://dc.lft.to/lastmile_qr_scan"}}, {"is_disabled": 0, "fusion_lat": 0.0, "lat": 38.89220183333333, "type": "electric_scooter", "lon": -77.04194216666667, "is_reserved": 0, "fusion_lon": 0.0, "bike_id": "681aba3fecaa893ac3b53ea2a5b9d80a", "name": "681aba3fecaa893ac3b53ea2a5b9d80a", "rental_uris": {"ios": "https://dc.lft.to/lastmile_qr_scan", "android": "https://dc.lft.to/lastmile_qr_scan"}}, {"is_disabled": 0, "fusion_lat": 0.0, "lat": 38.85319716666667, "type": "electric_bike", "lon": -76.980006, "is_reserved": 0, "fusion_lon": 0.0, "bike_id": "04f2a685afddc380c3279c6ddb6b6f6b", "name": "04f2a685afddc380c3279c6ddb6b6f6b", "rental_uris": {"ios": "https://dc.lft.to/lastmile_qr_scan", "android": "https://dc.lft.to/lastmile_qr_scan"}}, {"is_disabled": 0, "fusion_lat": 0.0, "lat": 38.915548333333334, "type": "electric_scooter", "lon": -77.03033083333334, "is_reserved": 0, "fusion_lon": 0.0, "bike_id": "cc49a01275b5f400f710d5051a2a5573", "name": "cc49a01275b5f400f710d5051a2a5573", "rental_uris": {"ios": "https://dc.lft.to/lastmile_qr_scan", "android": "https://dc.lft.to/lastmile_qr_scan"}}, {"is_disabled": 0, "fusion_lat": 0.0, "lat": 38.90071016666667, "type": "electric_scooter", "lon": -77.03913783333333, "is_reserved": 0, "fusion_lon": 0.0, "bike_id": "42f20352512cc414a93d897d0fc16e4d", "name": "42f20352512cc414a93d897d0fc16e4d", "rental_uris": {"ios": "https://dc.lft.to/lastmile_qr_scan", "android": "https://dc.lft.to/lastmile_qr_scan"}}, {"is_disabled": 0, "fusion_lat": 0.0, "lat": 38.899154833333334, "type": "electric_scooter", "lon": -76.93377166666667, "is_reserved": 0, "fusion_lon": 0.0, "bike_id": "83db7249c8e23b2ee5bd71adca7131c8", "name": "83db7249c8e23b2ee5bd71adca7131c8", "rental_uris": {"ios": "https://dc.lft.to/lastmile_qr_scan", "android": "https://dc.lft.to/lastmile_qr_scan"}}, {"is_disabled": 0, "fusion_lat": 0.0, "lat": 38.8949715, "type": "electric_scooter", "lon": -77.02278883333334, "is_reserved": 0, "fusion_lon": 0.0, "bike_id": "37c5a64d5c639d466ec1e2cfbfaf6621", "name": "37c5a64d5c639d466ec1e2cfbfaf6621", "rental_uris": {"ios": "https://dc.lft.to/lastmile_qr_scan", "android": "https://dc.lft.to/lastmile_qr_scan"}}, {"is_disabled": 0, "fusion_lat": 0.0, "lat": 38.917600666666665, "type": "electric_scooter", "lon": -77.03660366666666, "is_reserved": 0, "fusion_lon": 0.0, "bike_id": "e561dd40907d3cf08b8537e0bd96d2a0", "name": "e561dd40907d3cf08b8537e0bd96d2a0", "rental_uris": {"ios": "https://dc.lft.to/lastmile_qr_scan", "android": "https://dc.lft.to/lastmile_qr_scan"}}, {"is_disabled": 0, "fusion_lat": 0.0, "lat": 38.8708195, "type": "electric_bike", "lon": -77.0121515, "is_reserved": 0, "fusion_lon": 0.0, "bike_id": "b5f410e48b14c458483d8a7c1c53233f", "name": "b5f410e48b14c458483d8a7c1c53233f", "rental_uris": {"ios": "https://dc.lft.to/lastmile_qr_scan", "android": "https://dc.lft.to/lastmile_qr_scan"}}, {"is_disabled": 0, "fusion_lat": 0.0, "lat": 38.92237733333333, "type": "electric_scooter", "lon": -77.03086066666667, "is_reserved": 0, "fusion_lon": 0.0, "bike_id": "d7dbcaa9084e4ba734f36a1ed0cc8b54", "name": "d7dbcaa9084e4ba734f36a1ed0cc8b54", "rental_uris": {"ios": "https://dc.lft.to/lastmile_qr_scan", "android": "https://dc.lft.to/lastmile_qr_scan"}}, {"is_disabled": 0, "fusion_lat": 0.0, "lat": 38.884479666666664, "type": "electric_scooter", "lon": -76.9509195, "is_reserved": 0, "fusion_lon": 0.0, "bike_id": "2a98670ba456b413f01d9a110e475203", "name": "2a98670ba456b413f01d9a110e475203", "rental_uris": {"ios": "https://dc.lft.to/lastmile_qr_scan", "android": "https://dc.lft.to/lastmile_qr_scan"}}, {"is_disabled": 0, "fusion_lat": 0.0, "lat": 38.8967895, "type": "electric_scooter", "lon": -76.99615116666666, "is_reserved": 0, "fusion_lon": 0.0, "bike_id": "923d1ffb1003f254979a38b874a9f54e", "name": "923d1ffb1003f254979a38b874a9f54e", "rental_uris": {"ios": "https://dc.lft.to/lastmile_qr_scan", "android": "https://dc.lft.to/lastmile_qr_scan"}}, {"is_disabled": 0, "fusion_lat": 0.0, "lat": 38.90359483333334, "type": "electric_scooter", "lon": -77.04249016666667, "is_reserved": 0, "fusion_lon": 0.0, "bike_id": "8185a667e60166b6c86265b1373e0af5", "name": "8185a667e60166b6c86265b1373e0af5", "rental_uris": {"ios": "https://dc.lft.to/lastmile_qr_scan", "android": "https://dc.lft.to/lastmile_qr_scan"}}, {"is_disabled": 0, "fusion_lat": 0.0, "lat": 38.898209666666666, "type": "electric_scooter", "lon": -77.05019183333333, "is_reserved": 0, "fusion_lon": 0.0, "bike_id": "d53e96860fbd699fb2cd6d741461d8ed", "name": "d53e96860fbd699fb2cd6d741461d8ed", "rental_uris": {"ios": "https://dc.lft.to/lastmile_qr_scan", "android": "https://dc.lft.to/lastmile_qr_scan"}}, {"is_disabled": 0, "fusion_lat": 0.0, "lat": 38.92202416666667, "type": "electric_scooter", "lon": -77.04016833333333, "is_reserved": 0, "fusion_lon": 0.0, "bike_id": "4c750969d6cf3c6314dc6c96409a68af", "name": "4c750969d6cf3c6314dc6c96409a68af", "rental_uris": {"ios": "https://dc.lft.to/lastmile_qr_scan", "android": "https://dc.lft.to/lastmile_qr_scan"}}, {"is_disabled": 0, "fusion_lat": 0.0, "lat": 38.902163333333334, "type": "electric_bike", "lon": -76.95048716666666, "is_reserved": 0, "fusion_lon": 0.0, "bike_id": "e390c7020693ffcd6867cfdcddb65e48", "name": "e390c7020693ffcd6867cfdcddb65e48", "rental_uris": {"ios": "https://dc.lft.to/lastmile_qr_scan", "android": "https://dc.lft.to/lastmile_qr_scan"}}, {"is_disabled": 0, "fusion_lat": 0.0, "lat": 38.932426, "type": "electric_scooter", "lon": -77.03283416666666, "is_reserved": 0, "fusion_lon": 0.0, "bike_id": "561fd7c5807bf23db0538d043c94836c", "name": "561fd7c5807bf23db0538d043c94836c", "rental_uris": {"ios": "https://dc.lft.to/lastmile_qr_scan", "android": "https://dc.lft.to/lastmile_qr_scan"}}, {"is_disabled": 0, "fusion_lat": 0.0, "lat": 38.931295166666665, "type": "electric_scooter", "lon": -77.05606716666667, "is_reserved": 0, "fusion_lon": 0.0, "bike_id": "36b611f878c553187ace843bf5e1db60", "name": "36b611f878c553187ace843bf5e1db60", "rental_uris": {"ios": "https://dc.lft.to/lastmile_qr_scan", "android": "https://dc.lft.to/lastmile_qr_scan"}}, {"is_disabled": 0, "fusion_lat": 0.0, "lat": 38.861642333333336, "type": "electric_bike", "lon": -76.95063833333333, "is_reserved": 0, "fusion_lon": 0.0, "bike_id": "98986ed9236b9e18e2c3440823f93ec5", "name": "98986ed9236b9e18e2c3440823f93ec5", "rental_uris": {"ios": "https://dc.lft.to/lastmile_qr_scan", "android": "https://dc.lft.to/lastmile_qr_scan"}}, {"is_disabled": 0, "fusion_lat": 0.0, "lat": 38.956469, "type": "electric_bike", "lon": -77.02255566666666, "is_reserved": 0, "fusion_lon": 0.0, "bike_id": "a55f2f9e63a9c002fd6d1606dae1f845", "name": "a55f2f9e63a9c002fd6d1606dae1f845", "rental_uris": {"ios": "https://dc.lft.to/lastmile_qr_scan", "android": "https://dc.lft.to/lastmile_qr_scan"}}, {"is_disabled": 0, "fusion_lat": 0.0, "lat": 38.95400633333333, "type": "electric_scooter", "lon": -77.02743533333333, "is_reserved": 0, "fusion_lon": 0.0, "bike_id": "9eec038aaf5a59ed89e2c204f7af0476", "name": "9eec038aaf5a59ed89e2c204f7af0476", "rental_uris": {"ios": "https://dc.lft.to/lastmile_qr_scan", "android": "https://dc.lft.to/lastmile_qr_scan"}}, {"is_disabled": 0, "fusion_lat": 0.0, "lat": 38.92385483333333, "type": "electric_scooter", "lon": -77.03545233333334, "is_reserved": 0, "fusion_lon": 0.0, "bike_id": "69d2add4a243ff067129564261c67de1", "name": "69d2add4a243ff067129564261c67de1", "rental_uris": {"ios": "https://dc.lft.to/lastmile_qr_scan", "android": "https://dc.lft.to/lastmile_qr_scan"}}, {"is_disabled": 0, "fusion_lat": 0.0, "lat": 38.92844233333334, "type": "electric_scooter", "lon": -77.05431933333334, "is_reserved": 0, "fusion_lon": 0.0, "bike_id": "fa07fb64cba7bf7e1f9d614acb1b936e", "name": "fa07fb64cba7bf7e1f9d614acb1b936e", "rental_uris": {"ios": "https://dc.lft.to/lastmile_qr_scan", "android": "https://dc.lft.to/lastmile_qr_scan"}}, {"is_disabled": 0, "fusion_lat": 0.0, "lat": 38.89612116666667, "type": "electric_scooter", "lon": -77.04794416666667, "is_reserved": 0, "fusion_lon": 0.0, "bike_id": "4737a0552ac022c3ffc6ae1a7be6ee49", "name": "4737a0552ac022c3ffc6ae1a7be6ee49", "rental_uris": {"ios": "https://dc.lft.to/lastmile_qr_scan", "android": "https://dc.lft.to/lastmile_qr_scan"}}, {"is_disabled": 0, "fusion_lat": 0.0, "lat": 38.9232645, "type": "electric_scooter", "lon": -77.04754533333333, "is_reserved": 0, "fusion_lon": 0.0, "bike_id": "26f558cae5d7ee2aa1b1431c890aadf9", "name": "26f558cae5d7ee2aa1b1431c890aadf9", "rental_uris": {"ios": "https://dc.lft.to/lastmile_qr_scan", "android": "https://dc.lft.to/lastmile_qr_scan"}}, {"is_disabled": 0, "fusion_lat": 0.0, "lat": 38.909777, "type": "electric_scooter", "lon": -77.04872916666666, "is_reserved": 0, "fusion_lon": 0.0, "bike_id": "a2d42cfd634c892fc0487abab1818c8f", "name": "a2d42cfd634c892fc0487abab1818c8f", "rental_uris": {"ios": "https://dc.lft.to/lastmile_qr_scan", "android": "https://dc.lft.to/lastmile_qr_scan"}}, {"is_disabled": 0, "fusion_lat": 0.0, "lat": 38.923307, "type": "electric_scooter", "lon": -77.056772, "is_reserved": 0, "fusion_lon": 0.0, "bike_id": "f719a807ee578d496c0ed764b48b4509", "name": "f719a807ee578d496c0ed764b48b4509", "rental_uris": {"ios": "https://dc.lft.to/lastmile_qr_scan", "android": "https://dc.lft.to/lastmile_qr_scan"}}, {"is_disabled": 0, "fusion_lat": 0.0, "lat": 38.92443133333333, "type": "electric_scooter", "lon": -77.041121, "is_reserved": 0, "fusion_lon": 0.0, "bike_id": "e3bbe68c3279ad973e11176e5daf02f5", "name": "e3bbe68c3279ad973e11176e5daf02f5", "rental_uris": {"ios": "https://dc.lft.to/lastmile_qr_scan", "android": "https://dc.lft.to/lastmile_qr_scan"}}, {"is_disabled": 0, "fusion_lat": 0.0, "lat": 38.91707483333333, "type": "electric_scooter", "lon": -77.03125233333333, "is_reserved": 0, "fusion_lon": 0.0, "bike_id": "8e5a6cd742a0ff7e51840f346a40fede", "name": "8e5a6cd742a0ff7e51840f346a40fede", "rental_uris": {"ios": "https://dc.lft.to/lastmile_qr_scan", "android": "https://dc.lft.to/lastmile_qr_scan"}}, {"is_disabled": 0, "fusion_lat": 0.0, "lat": 38.892427, "type": "electric_scooter", "lon": -77.0395225, "is_reserved": 0, "fusion_lon": 0.0, "bike_id": "aa54e9b09a75f3b6f0b4acddb4f102b7", "name": "aa54e9b09a75f3b6f0b4acddb4f102b7", "rental_uris": {"ios": "https://dc.lft.to/lastmile_qr_scan", "android": "https://dc.lft.to/lastmile_qr_scan"}}, {"is_disabled": 0, "fusion_lat": 0.0, "lat": 38.895361, "type": "electric_scooter", "lon": -76.9488955, "is_reserved": 0, "fusion_lon": 0.0, "bike_id": "5413dc13b0ff58c6fdf5aa5ea6032f3f", "name": "5413dc13b0ff58c6fdf5aa5ea6032f3f", "rental_uris": {"ios": "https://dc.lft.to/lastmile_qr_scan", "android": "https://dc.lft.to/lastmile_qr_scan"}}, {"is_disabled": 0, "fusion_lat": 0.0, "lat": 38.89559783333333, "type": "electric_bike", "lon": -77.12728083333333, "is_reserved": 0, "fusion_lon": 0.0, "bike_id": "9fe171daaa480a50bfbdd657720f0403", "name": "9fe171daaa480a50bfbdd657720f0403", "rental_uris": {"ios": "https://dc.lft.to/lastmile_qr_scan", "android": "https://dc.lft.to/lastmile_qr_scan"}}, {"is_disabled": 0, "fusion_lat": 0.0, "lat": 38.905662166666666, "type": "electric_scooter", "lon": -77.03463416666666, "is_reserved": 0, "fusion_lon": 0.0, "bike_id": "0fdeb40316cb5c48ee4cbf12365e0f23", "name": "0fdeb40316cb5c48ee4cbf12365e0f23", "rental_uris": {"ios": "https://dc.lft.to/lastmile_qr_scan", "android": "https://dc.lft.to/lastmile_qr_scan"}}, {"is_disabled": 0, "fusion_lat": 0.0, "lat": 38.91414416666667, "type": "electric_scooter", "lon": -77.0195475, "is_reserved": 0, "fusion_lon": 0.0, "bike_id": "155a192d0f1ecac3dba6e00931ef6fc6", "name": "155a192d0f1ecac3dba6e00931ef6fc6", "rental_uris": {"ios": "https://dc.lft.to/lastmile_qr_scan", "android": "https://dc.lft.to/lastmile_qr_scan"}}, {"is_disabled": 0, "fusion_lat": 0.0, "lat": 38.91736083333333, "type": "electric_scooter", "lon": -77.02112583333333, "is_reserved": 0, "fusion_lon": 0.0, "bike_id": "62fb3fe15aef9fa930ca1602333daeb4", "name": "62fb3fe15aef9fa930ca1602333daeb4", "rental_uris": {"ios": "https://dc.lft.to/lastmile_qr_scan", "android": "https://dc.lft.to/lastmile_qr_scan"}}, {"is_disabled": 0, "fusion_lat": 0.0, "lat": 38.90721283333333, "type": "electric_scooter", "lon": -77.02968733333333, "is_reserved": 0, "fusion_lon": 0.0, "bike_id": "88b1239fa7836472a615227a48fd2ec5", "name": "88b1239fa7836472a615227a48fd2ec5", "rental_uris": {"ios": "https://dc.lft.to/lastmile_qr_scan", "android": "https://dc.lft.to/lastmile_qr_scan"}}, {"is_disabled": 0, "fusion_lat": 0.0, "lat": 38.923108, "type": "electric_scooter", "lon": -77.03949366666667, "is_reserved": 0, "fusion_lon": 0.0, "bike_id": "d9aad8b410898b339ab22fe7b1b63aff", "name": "d9aad8b410898b339ab22fe7b1b63aff", "rental_uris": {"ios": "https://dc.lft.to/lastmile_qr_scan", "android": "https://dc.lft.to/lastmile_qr_scan"}}, {"is_disabled": 0, "fusion_lat": 0.0, "lat": 38.895993, "type": "electric_scooter", "lon": -77.04413583333333, "is_reserved": 0, "fusion_lon": 0.0, "bike_id": "b6ead676c85fb49212eca644657d2319", "name": "b6ead676c85fb49212eca644657d2319", "rental_uris": {"ios": "https://dc.lft.to/lastmile_qr_scan", "android": "https://dc.lft.to/lastmile_qr_scan"}}, {"is_disabled": 0, "fusion_lat": 0.0, "lat": 38.91102016666667, "type": "electric_scooter", "lon": -77.00211233333333, "is_reserved": 0, "fusion_lon": 0.0, "bike_id": "0bf3c7d0af20acf0ca7e00ff15c8e146", "name": "0bf3c7d0af20acf0ca7e00ff15c8e146", "rental_uris": {"ios": "https://dc.lft.to/lastmile_qr_scan", "android": "https://dc.lft.to/lastmile_qr_scan"}}, {"is_disabled": 0, "fusion_lat": 0.0, "lat": 38.903814, "type": "electric_scooter", "lon": -77.04443966666666, "is_reserved": 0, "fusion_lon": 0.0, "bike_id": "3dd485cf26d880609e03c82900dd772c", "name": "3dd485cf26d880609e03c82900dd772c", "rental_uris": {"ios": "https://dc.lft.to/lastmile_qr_scan", "android": "https://dc.lft.to/lastmile_qr_scan"}}, {"is_disabled": 0, "fusion_lat": 0.0, "lat": 38.9024845, "type": "electric_scooter", "lon": -77.01742516666667, "is_reserved": 0, "fusion_lon": 0.0, "bike_id": "d39ba931ab82d7daf2d023fb5c16f07f", "name": "d39ba931ab82d7daf2d023fb5c16f07f", "rental_uris": {"ios": "https://dc.lft.to/lastmile_qr_scan", "android": "https://dc.lft.to/lastmile_qr_scan"}}, {"is_disabled": 0, "fusion_lat": 0.0, "lat": 38.9214985, "type": "electric_scooter", "lon": -77.04213616666667, "is_reserved": 0, "fusion_lon": 0.0, "bike_id": "f1ab7a95caaec7d47e4102646d8d6610", "name": "f1ab7a95caaec7d47e4102646d8d6610", "rental_uris": {"ios": "https://dc.lft.to/lastmile_qr_scan", "android": "https://dc.lft.to/lastmile_qr_scan"}}, {"is_disabled": 0, "fusion_lat": 0.0, "lat": 38.918919833333334, "type": "electric_scooter", "lon": -77.03900366666667, "is_reserved": 0, "fusion_lon": 0.0, "bike_id": "db7b631fd60aed1945968148c5d8c126", "name": "db7b631fd60aed1945968148c5d8c126", "rental_uris": {"ios": "https://dc.lft.to/lastmile_qr_scan", "android": "https://dc.lft.to/lastmile_qr_scan"}}, {"is_disabled": 0, "fusion_lat": 0.0, "lat": 38.9215495, "type": "electric_scooter", "lon": -77.02416166666667, "is_reserved": 0, "fusion_lon": 0.0, "bike_id": "38d78dfd9d7b042c97bb14232d13014d", "name": "38d78dfd9d7b042c97bb14232d13014d", "rental_uris": {"ios": "https://dc.lft.to/lastmile_qr_scan", "android": "https://dc.lft.to/lastmile_qr_scan"}}, {"is_disabled": 0, "fusion_lat": 0.0, "lat": 38.8962735, "type": "electric_scooter", "lon": -76.955816, "is_reserved": 0, "fusion_lon": 0.0, "bike_id": "8306576106fd88b096f427a194f0d446", "name": "8306576106fd88b096f427a194f0d446", "rental_uris": {"ios": "https://dc.lft.to/lastmile_qr_scan", "android": "https://dc.lft.to/lastmile_qr_scan"}}, {"is_disabled": 0, "fusion_lat": 0.0, "lat": 38.918679833333336, "type": "electric_scooter", "lon": -77.02595033333333, "is_reserved": 0, "fusion_lon": 0.0, "bike_id": "b255470acc78c53f834feb475779e38e", "name": "b255470acc78c53f834feb475779e38e", "rental_uris": {"ios": "https://dc.lft.to/lastmile_qr_scan", "android": "https://dc.lft.to/lastmile_qr_scan"}}, {"is_disabled": 0, "fusion_lat": 0.0, "lat": 38.863888333333335, "type": "electric_bike", "lon": -76.98985183333333, "is_reserved": 0, "fusion_lon": 0.0, "bike_id": "ea990227b3406c30495400641dd01f25", "name": "ea990227b3406c30495400641dd01f25", "rental_uris": {"ios": "https://dc.lft.to/lastmile_qr_scan", "android": "https://dc.lft.to/lastmile_qr_scan"}}, {"is_disabled": 0, "fusion_lat": 0.0, "lat": 38.941688166666665, "type": "electric_scooter", "lon": -77.04128, "is_reserved": 0, "fusion_lon": 0.0, "bike_id": "21291a0a05d0a29d5d00b62de4f48862", "name": "21291a0a05d0a29d5d00b62de4f48862", "rental_uris": {"ios": "https://dc.lft.to/lastmile_qr_scan", "android": "https://dc.lft.to/lastmile_qr_scan"}}, {"is_disabled": 0, "fusion_lat": 0.0, "lat": 38.906837, "type": "electric_scooter", "lon": -77.06347733333334, "is_reserved": 0, "fusion_lon": 0.0, "bike_id": "a1270cf5186d470b8850950fcb74818a", "name": "a1270cf5186d470b8850950fcb74818a", "rental_uris": {"ios": "https://dc.lft.to/lastmile_qr_scan", "android": "https://dc.lft.to/lastmile_qr_scan"}}, {"is_disabled": 0, "fusion_lat": 0.0, "lat": 38.9123525, "type": "electric_scooter", "lon": -77.048706, "is_reserved": 0, "fusion_lon": 0.0, "bike_id": "9477c65f40b15c920d8874125613443d", "name": "9477c65f40b15c920d8874125613443d", "rental_uris": {"ios": "https://dc.lft.to/lastmile_qr_scan", "android": "https://dc.lft.to/lastmile_qr_scan"}}, {"is_disabled": 0, "fusion_lat": 0.0, "lat": 38.9330965, "type": "electric_scooter", "lon": -77.03276033333333, "is_reserved": 0, "fusion_lon": 0.0, "bike_id": "48069e962ed2521d0774d48aecd76d39", "name": "48069e962ed2521d0774d48aecd76d39", "rental_uris": {"ios": "https://dc.lft.to/lastmile_qr_scan", "android": "https://dc.lft.to/lastmile_qr_scan"}}, {"is_disabled": 0, "fusion_lat": 0.0, "lat": 38.99819866666667, "type": "electric_bike", "lon": -76.88372916666667, "is_reserved": 0, "fusion_lon": 0.0, "bike_id": "49b14e0a17c0a02d0aab1cd32c3f48ed", "name": "49b14e0a17c0a02d0aab1cd32c3f48ed", "rental_uris": {"ios": "https://dc.lft.to/lastmile_qr_scan", "android": "https://dc.lft.to/lastmile_qr_scan"}}, {"is_disabled": 0, "fusion_lat": 0.0, "lat": 38.90425616666667, "type": "electric_scooter", "lon": -77.011043, "is_reserved": 0, "fusion_lon": 0.0, "bike_id": "262c0a2dcf69bbf71f55e6c21f01a2d9", "name": "262c0a2dcf69bbf71f55e6c21f01a2d9", "rental_uris": {"ios": "https://dc.lft.to/lastmile_qr_scan", "android": "https://dc.lft.to/lastmile_qr_scan"}}, {"is_disabled": 0, "fusion_lat": 0.0, "lat": 38.92550716666667, "type": "electric_scooter", "lon": -77.05298, "is_reserved": 0, "fusion_lon": 0.0, "bike_id": "c44f0b4758d60a5fb0476fec9189cda4", "name": "c44f0b4758d60a5fb0476fec9189cda4", "rental_uris": {"ios": "https://dc.lft.to/lastmile_qr_scan", "android": "https://dc.lft.to/lastmile_qr_scan"}}, {"is_disabled": 0, "fusion_lat": 0.0, "lat": 38.96501283333333, "type": "electric_bike", "lon": -77.02809033333334, "is_reserved": 0, "fusion_lon": 0.0, "bike_id": "3a809540c3080b4aa65aff76a38e7003", "name": "3a809540c3080b4aa65aff76a38e7003", "rental_uris": {"ios": "https://dc.lft.to/lastmile_qr_scan", "android": "https://dc.lft.to/lastmile_qr_scan"}}, {"is_disabled": 0, "fusion_lat": 0.0, "lat": 38.90344266666666, "type": "electric_scooter", "lon": -76.9755755, "is_reserved": 0, "fusion_lon": 0.0, "bike_id": "b25b07af13a312cd25e9ee674ed0a61a", "name": "b25b07af13a312cd25e9ee674ed0a61a", "rental_uris": {"ios": "https://dc.lft.to/lastmile_qr_scan", "android": "https://dc.lft.to/lastmile_qr_scan"}}, {"is_disabled": 0, "fusion_lat": 0.0, "lat": 38.9519565, "type": "electric_bike", "lon": -76.96723566666667, "is_reserved": 0, "fusion_lon": 0.0, "bike_id": "8fd0e4242f63aba909871202957b0ec8", "name": "8fd0e4242f63aba909871202957b0ec8", "rental_uris": {"ios": "https://dc.lft.to/lastmile_qr_scan", "android": "https://dc.lft.to/lastmile_qr_scan"}}, {"is_disabled": 0, "fusion_lat": 0.0, "lat": 38.9134635, "type": "electric_scooter", "lon": -77.03004233333333, "is_reserved": 0, "fusion_lon": 0.0, "bike_id": "2925b8c263b19165e1a12ac581655c0c", "name": "2925b8c263b19165e1a12ac581655c0c", "rental_uris": {"ios": "https://dc.lft.to/lastmile_qr_scan", "android": "https://dc.lft.to/lastmile_qr_scan"}}, {"is_disabled": 0, "fusion_lat": 0.0, "lat": 38.8749045, "type": "electric_scooter", "lon": -77.00168383333333, "is_reserved": 0, "fusion_lon": 0.0, "bike_id": "d237af26c8b88ca50d79223a059dace2", "name": "d237af26c8b88ca50d79223a059dace2", "rental_uris": {"ios": "https://dc.lft.to/lastmile_qr_scan", "android": "https://dc.lft.to/lastmile_qr_scan"}}, {"is_disabled": 0, "fusion_lat": 0.0, "lat": 38.911109, "type": "electric_scooter", "lon": -77.03834766666667, "is_reserved": 0, "fusion_lon": 0.0, "bike_id": "830840a66149d466ee80d6dd7105540c", "name": "830840a66149d466ee80d6dd7105540c", "rental_uris": {"ios": "https://dc.lft.to/lastmile_qr_scan", "android": "https://dc.lft.to/lastmile_qr_scan"}}, {"is_disabled": 0, "fusion_lat": 0.0, "lat": 38.912504166666665, "type": "electric_scooter", "lon": -77.03176116666667, "is_reserved": 0, "fusion_lon": 0.0, "bike_id": "4d6099c870bcce67e6f51b984d958542", "name": "4d6099c870bcce67e6f51b984d958542", "rental_uris": {"ios": "https://dc.lft.to/lastmile_qr_scan", "android": "https://dc.lft.to/lastmile_qr_scan"}}, {"is_disabled": 0, "fusion_lat": 0.0, "lat": 38.9233335, "type": "electric_scooter", "lon": -77.03784516666667, "is_reserved": 0, "fusion_lon": 0.0, "bike_id": "3337c2644a87a90cc16040e86e24c27b", "name": "3337c2644a87a90cc16040e86e24c27b", "rental_uris": {"ios": "https://dc.lft.to/lastmile_qr_scan", "android": "https://dc.lft.to/lastmile_qr_scan"}}, {"is_disabled": 0, "fusion_lat": 0.0, "lat": 38.914563333333334, "type": "electric_scooter", "lon": -77.03650466666667, "is_reserved": 0, "fusion_lon": 0.0, "bike_id": "3d30fb8994d4ca7d682cbe68361d897e", "name": "3d30fb8994d4ca7d682cbe68361d897e", "rental_uris": {"ios": "https://dc.lft.to/lastmile_qr_scan", "android": "https://dc.lft.to/lastmile_qr_scan"}},