{"data": {"bikes": [{"rental_uris": {"ios": "https://dc.lft.to/lastmile_qr_scan", "android": "https://dc.lft.to/lastmile_qr_scan"}, "lon": -76.988362, "type": "electric_scooter", "fusion_lat": 0.0, "lat": 38.894596, "name": "1986ddaf41995ee33f24bb8ca1f68a49", "fusion_lon": 0.0, "bike_id": "1986ddaf41995ee33f24bb8ca1f68a49", "is_disabled": 0, "is_reserved": 0}, {"rental_uris": {"ios": "https://dc.lft.to/lastmile_qr_scan", "android": "https://dc.lft.to/lastmile_qr_scan"}, "lon": -77.02320683333333, "type": "electric_scooter", "fusion_lat": 0.0, "lat": 38.91840583333333, "name": "7945873505bf5221dfe5d5ce0d8b77d4", "fusion_lon": 0.0, "bike_id": "7945873505bf5221dfe5d5ce0d8b77d4", "is_disabled": 0, "is_reserved": 0}, {"rental_uris": {"ios": "https://dc.lft.to/lastmile_qr_scan", "android": "https://dc.lft.to/lastmile_qr_scan"}, "lon": -77.01700116666666, "type": "electric_scooter", "fusion_lat": 0.0, "lat": 38.92008933333334, "name": "e919b54ad315ceba353c333481002091", "fusion_lon": 0.0, "bike_id": "e919b54ad315ceba353c333481002091", "is_disabled": 0, "is_reserved": 0}, {"rental_uris": {"ios": "https://dc.lft.to/lastmile_qr_scan", "android": "https://dc.lft.to/lastmile_qr_scan"}, "lon": -77.031317, "type": "electric_scooter", "fusion_lat": 0.0, "lat": 38.923672833333335, "name": "b230e1cf7694ae42e83e59eb7bd1f1d8", "fusion_lon": 0.0, "bike_id": "b230e1cf7694ae42e83e59eb7bd1f1d8", "is_disabled": 0, "is_reserved": 0}, {"rental_uris": {"ios": "https://dc.lft.to/lastmile_qr_scan", "android": "https://dc.lft.to/lastmile_qr_scan"}, "lon": -77.02649816666667, "type": "electric_scooter", "fusion_lat": 0.0, "lat": 38.938637666666665, "name": "7af37e81616761bddc42575014a5ae63", "fusion_lon": 0.0, "bike_id": "7af37e81616761bddc42575014a5ae63", "is_disabled": 0, "is_reserved": 0}, {"rental_uris": {"ios": "https://dc.lft.to/lastmile_qr_scan", "android": "https://dc.lft.to/lastmile_qr_scan"}, "lon": -77.01320433333333, "type": "electric_scooter", "fusion_lat": 0.0, "lat": 38.9004995, "name": "9662b33fef790d59b6dd8b00d1f76848", "fusion_lon": 0.0, "bike_id": "9662b33fef790d59b6dd8b00d1f76848", "is_disabled": 0, "is_reserved": 0}, {"rental_uris": {"ios": "https://dc.lft.to/lastmile_qr_scan", "android": "https://dc.lft.to/lastmile_qr_scan"}, "lon": -77.02493616666666, "type": "electric_scooter", "fusion_lat": 0.0, "lat": 38.9180415, "name": "ec5db52125a134708f9c94a10872799a", "fusion_lon": 0.0, "bike_id": "ec5db52125a134708f9c94a10872799a", "is_disabled": 0, "is_reserved": 0}, {"rental_uris": {"ios": "https://dc.lft.to/lastmile_qr_scan", "android": "https://dc.lft.to/lastmile_qr_scan"}, "lon": -77.04096766666666, "type": "electric_scooter", "fusion_lat": 0.0, "lat": 38.917686333333336, "name": "39b94781fda2b468893ff5a1a5a3e0ff", "fusion_lon": 0.0, "bike_id": "39b94781fda2b468893ff5a1a5a3e0ff", "is_disabled": 0, "is_reserved": 0}, {"rental_uris": {"ios": "https://dc.lft.to/lastmile_qr_scan", "android": "https://dc.lft.to/lastmile_qr_scan"}, "lon": -77.03264583333333, "type": "electric_scooter", "fusion_lat": 0.0, "lat": 38.930055833333334, "name": "253563632c8fe81813ef970bcdba8c36", "fusion_lon": 0.0, "bike_id": "253563632c8fe81813ef970bcdba8c36", "is_disabled": 0, "is_reserved": 0}, {"rental_uris": {"ios": "https://dc.lft.to/lastmile_qr_scan", "android": "https://dc.lft.to/lastmile_qr_scan"}, "lon": -77.03380333333334, "type": "electric_scooter", "fusion_lat": 0.0, "lat": 38.921583166666665, "name": "406977522a130b9dad168515c474e527", "fusion_lon": 0.0, "bike_id": "406977522a130b9dad168515c474e527", "is_disabled": 0, "is_reserved": 0}, {"rental_uris": {"ios": "https://dc.lft.to/lastmile_qr_scan", "android": "https://dc.lft.to/lastmile_qr_scan"}, "lon": -77.04240533333333, "type": "electric_scooter", "fusion_lat": 0.0, "lat": 38.90789733333333, "name": "fc218be1d9116e2f17514d87b565fb21", "fusion_lon": 0.0, "bike_id": "fc218be1d9116e2f17514d87b565fb21", "is_disabled": 0, "is_reserved": 0}, {"rental_uris": {"ios": "https://dc.lft.to/lastmile_qr_scan", "android": "https://dc.lft.to/lastmile_qr_scan"}, "lon": -77.02096766666666, "type": "electric_scooter", "fusion_lat": 0.0, "lat": 38.887344666666664, "name": "6379b24478b0fa91361ff94002bf2f76", "fusion_lon": 0.0, "bike_id": "6379b24478b0fa91361ff94002bf2f76", "is_disabled": 0, "is_reserved": 0}, {"rental_uris": {"ios": "https://dc.lft.to/lastmile_qr_scan", "android": "https://dc.lft.to/lastmile_qr_scan"}, "lon": -77.0675505, "type": "electric_bike", "fusion_lat": 0.0, "lat": 38.915551, "name": "42353fd55d05c014b49d82450537cfb1", "fusion_lon": 0.0, "bike_id": "42353fd55d05c014b49d82450537cfb1", "is_disabled": 0, "is_reserved": 0}, {"rental_uris": {"ios": "https://dc.lft.to/lastmile_qr_scan", "android": "https://dc.lft.to/lastmile_qr_scan"}, "lon": -77.06383783333334, "type": "electric_scooter", "fusion_lat": 0.0, "lat": 38.905138666666666, "name": "a78a48b7f081b565feec0ca28456468e", "fusion_lon": 0.0, "bike_id": "a78a48b7f081b565feec0ca28456468e", "is_disabled": 0, "is_reserved": 0}, {"rental_uris": {"ios": "https://dc.lft.to/lastmile_qr_scan", "android": "https://dc.lft.to/lastmile_qr_scan"}, "lon": -76.95416616666667, "type": "electric_scooter", "fusion_lat": 0.0, "lat": 38.88999483333333, "name": "c83e85d591fc0aba62ac8ff5500e5c99", "fusion_lon": 0.0, "bike_id": "c83e85d591fc0aba62ac8ff5500e5c99", "is_disabled": 0, "is_reserved": 0}, {"rental_uris": {"ios": "https://dc.lft.to/lastmile_qr_scan", "android": "https://dc.lft.to/lastmile_qr_scan"}, "lon": -77.023575, "type": "electric_scooter", "fusion_lat": 0.0, "lat": 38.93158066666667, "name": "42fcb405f083b36b1f42293ac354d3ab", "fusion_lon": 0.0, "bike_id": "42fcb405f083b36b1f42293ac354d3ab", "is_disabled": 0, "is_reserved": 0}, {"rental_uris": {"ios": "https://dc.lft.to/lastmile_qr_scan", "android": "https://dc.lft.to/lastmile_qr_scan"}, "lon": -77.069181, "type": "electric_bike", "fusion_lat": 0.0, "lat": 38.909790666666666, "name": "ab927fe89f1f0eaa7bd3e555e6474623", "fusion_lon": 0.0, "bike_id": "ab927fe89f1f0eaa7bd3e555e6474623", "is_disabled": 0, "is_reserved": 0}, {"rental_uris": {"ios": "https://dc.lft.to/lastmile_qr_scan", "android": "https://dc.lft.to/lastmile_qr_scan"}, "lon": -77.028981, "type": "electric_scooter", "fusion_lat": 0.0, "lat": 38.90460916666667, "name": "e258c769656b29f7b93df6097a3e2c25", "fusion_lon": 0.0, "bike_id": "e258c769656b29f7b93df6097a3e2c25", "is_disabled": 0, "is_reserved": 0}, {"rental_uris": {"ios": "https://dc.lft.to/lastmile_qr_scan", "android": "https://dc.lft.to/lastmile_qr_scan"}, "lon": -77.03669233333333, "type": "electric_scooter", "fusion_lat": 0.0, "lat": 38.907794, "name": "6dc4ce392284849d24dc2b5905d1f5e4", "fusion_lon": 0.0, "bike_id": "6dc4ce392284849d24dc2b5905d1f5e4", "is_disabled": 0, "is_reserved": 0}, {"rental_uris": {"ios": "https://dc.lft.to/lastmile_qr_scan", "android": "https://dc.lft.to/lastmile_qr_scan"}, "lon": -77.02423, "type": "electric_scooter", "fusion_lat": 0.0, "lat": 38.905942833333334, "name": "60f112a9ed4a48cafbd85728433d4836", "fusion_lon": 0.0, "bike_id": "60f112a9ed4a48cafbd85728433d4836", "is_disabled": 0, "is_reserved": 0}, {"rental_uris": {"ios": "https://dc.lft.to/lastmile_qr_scan", "android": "https://dc.lft.to/lastmile_qr_scan"}, "lon": -77.0059945, "type": "electric_scooter", "fusion_lat": 0.0, "lat": 38.9058315, "name": "95337e5a54bc66d8a8c5c2370430bc68", "fusion_lon": 0.0, "bike_id": "95337e5a54bc66d8a8c5c2370430bc68", "is_disabled": 0, "is_reserved": 0}, {"rental_uris": {"ios": "https://dc.lft.to/lastmile_qr_scan", "android": "https://dc.lft.to/lastmile_qr_scan"}, "lon": -76.98838533333333, "type": "electric_scooter", "fusion_lat": 0.0, "lat": 38.892899666666665, "name": "73b841d9b8e3b066a1f85f9ecdbf6c5b", "fusion_lon": 0.0, "bike_id": "73b841d9b8e3b066a1f85f9ecdbf6c5b", "is_disabled": 0, "is_reserved": 0}, {"rental_uris": {"ios": "https://dc.lft.to/lastmile_qr_scan", "android": "https://dc.lft.to/lastmile_qr_scan"}, "lon": -76.99724216666667, "type": "electric_scooter", "fusion_lat": 0.0, "lat": 38.90023466666667, "name": "c82dd31a4a65413a2ff0ffd03bcf6d5f", "fusion_lon": 0.0, "bike_id": "c82dd31a4a65413a2ff0ffd03bcf6d5f", "is_disabled": 0, "is_reserved": 0}, {"rental_uris": {"ios": "https://dc.lft.to/lastmile_qr_scan", "android": "https://dc.lft.to/lastmile_qr_scan"}, "lon": -77.1070895, "type": "electric_bike", "fusion_lat": 0.0, "lat": 38.855599, "name": "fb0f6ceec547731e37bce9a9368ba1d7", "fusion_lon": 0.0, "bike_id": "fb0f6ceec547731e37bce9a9368ba1d7", "is_disabled": 0, "is_reserved": 0}, {"rental_uris": {"ios": "https://dc.lft.to/lastmile_qr_scan", "android": "https://dc.lft.to/lastmile_qr_scan"}, "lon": -77.0084535, "type": "electric_bike", "fusion_lat": 0.0, "lat": 38.9492215, "name": "9de62fa97187b86eb9748476bd4df4b8", "fusion_lon": 0.0, "bike_id": "9de62fa97187b86eb9748476bd4df4b8", "is_disabled": 0, "is_reserved": 0}, {"rental_uris": {"ios": "https://dc.lft.to/lastmile_qr_scan", "android": "https://dc.lft.to/lastmile_qr_scan"}, "lon": -77.01364166666667, "type": "electric_scooter", "fusion_lat": 0.0, "lat": 38.86363266666667, "name": "b4ccabd06bec8b8169c62963443b54e7", "fusion_lon": 0.0, "bike_id": "b4ccabd06bec8b8169c62963443b54e7", "is_disabled": 0, "is_reserved": 0}, {"rental_uris": {"ios": "https://dc.lft.to/lastmile_qr_scan", "android": "https://dc.lft.to/lastmile_qr_scan"}, "lon": -77.0211755, "type": "electric_scooter", "fusion_lat": 0.0, "lat": 38.91414983333333, "name": "fbb928204b2310981aa005d5ad28d97d", "fusion_lon": 0.0, "bike_id": "fbb928204b2310981aa005d5ad28d97d", "is_disabled": 0, "is_reserved": 0}, {"rental_uris": {"ios": "https://dc.lft.to/lastmile_qr_scan", "android": "https://dc.lft.to/lastmile_qr_scan"}, "lon": -77.1412165, "type": "electric_bike", "fusion_lat": 0.0, "lat": 38.816029666666665, "name": "24b4d31c50b5fbfd8f095be974541bfe", "fusion_lon": 0.0, "bike_id": "24b4d31c50b5fbfd8f095be974541bfe", "is_disabled": 0, "is_reserved": 0}, {"rental_uris": {"ios": "https://dc.lft.to/lastmile_qr_scan", "android": "https://dc.lft.to/lastmile_qr_scan"}, "lon": -77.03786033333333, "type": "electric_scooter", "fusion_lat": 0.0, "lat": 38.95492183333333, "name": "efd55ecf9c00ee22696ccf99d2d8502e", "fusion_lon": 0.0, "bike_id": "efd55ecf9c00ee22696ccf99d2d8502e", "is_disabled": 0, "is_reserved": 0}, {"rental_uris": {"ios": "https://dc.lft.to/lastmile_qr_scan", "android": "https://dc.lft.to/lastmile_qr_scan"}, "lon": -77.03386166666667, "type": "electric_scooter", "fusion_lat": 0.0, "lat": 38.9190705, "name": "f4f851278dde824309351fc7af5a8026", "fusion_lon": 0.0, "bike_id": "f4f851278dde824309351fc7af5a8026", "is_disabled": 0, "is_reserved": 0}, {"rental_uris": {"ios": "https://dc.lft.to/lastmile_qr_scan", "android": "https://dc.lft.to/lastmile_qr_scan"}, "lon": -77.04505166666667, "type": "electric_scooter", "fusion_lat": 0.0, "lat": 38.90951666666667, "name": "b3662fcfb7d810cafe1489481105efb1", "fusion_lon": 0.0, "bike_id": "b3662fcfb7d810cafe1489481105efb1", "is_disabled": 0, "is_reserved": 0}, {"rental_uris": {"ios": "https://dc.lft.to/lastmile_qr_scan", "android": "https://dc.lft.to/lastmile_qr_scan"}, "lon": -76.99521466666667, "type": "electric_scooter", "fusion_lat": 0.0, "lat": 38.862551333333336, "name": "e230438b2be0bb355ce2437c0dade804", "fusion_lon": 0.0, "bike_id": "e230438b2be0bb355ce2437c0dade804", "is_disabled": 0, "is_reserved": 0}, {"rental_uris": {"ios": "https://dc.lft.to/lastmile_qr_scan", "android": "https://dc.lft.to/lastmile_qr_scan"}, "lon": -77.0208755, "type": "electric_scooter", "fusion_lat": 0.0, "lat": 38.886570666666664, "name": "0c77021c87892edfc15230bbc55c11be", "fusion_lon": 0.0, "bike_id": "0c77021c87892edfc15230bbc55c11be", "is_disabled": 0, "is_reserved": 0}, {"rental_uris": {"ios": "https://dc.lft.to/lastmile_qr_scan", "android": "https://dc.lft.to/lastmile_qr_scan"}, "lon": -77.00577783333334, "type": "electric_scooter", "fusion_lat": 0.0, "lat": 38.8741715, "name": "e62eac844eb454cc4ccffb4f87a63071", "fusion_lon": 0.0, "bike_id": "e62eac844eb454cc4ccffb4f87a63071", "is_disabled": 0, "is_reserved": 0}, {"rental_uris": {"ios": "https://dc.lft.to/lastmile_qr_scan", "android": "https://dc.lft.to/lastmile_qr_scan"}, "lon": -77.023075, "type": "electric_scooter", "fusion_lat": 0.0, "lat": 38.91804833333333, "name": "9550a9639419614af7e1dd2af1dac73e", "fusion_lon": 0.0, "bike_id": "9550a9639419614af7e1dd2af1dac73e", "is_disabled": 0, "is_reserved": 0}, {"rental_uris": {"ios": "https://dc.lft.to/lastmile_qr_scan", "android": "https://dc.lft.to/lastmile_qr_scan"}, "lon": -77.03276333333334, "type": "electric_scooter", "fusion_lat": 0.0, "lat": 38.919266666666665, "name": "28fa8b31a5c4490a927922310dc28a01", "fusion_lon": 0.0, "bike_id": "28fa8b31a5c4490a927922310dc28a01", "is_disabled": 0, "is_reserved": 0}, {"rental_uris": {"ios": "https://dc.lft.to/lastmile_qr_scan", "android": "https://dc.lft.to/lastmile_qr_scan"}, "lon": -77.010694, "type": "electric_scooter", "fusion_lat": 0.0, "lat": 38.894874333333334, "name": "31cad5a347ea48cf52e2bf87356e01da", "fusion_lon": 0.0, "bike_id": "31cad5a347ea48cf52e2bf87356e01da", "is_disabled": 0, "is_reserved": 0}, {"rental_uris": {"ios": "https://dc.lft.to/lastmile_qr_scan", "android": "https://dc.lft.to/lastmile_qr_scan"}, "lon": -76.9788065, "type": "electric_scooter", "fusion_lat": 0.0, "lat": 38.885097333333334, "name": "67b9306d08d68dfeebb05961ec69fc0b", "fusion_lon": 0.0, "bike_id": "67b9306d08d68dfeebb05961ec69fc0b", "is_disabled": 0, "is_reserved": 0}, {"rental_uris": {"ios": "https://dc.lft.to/lastmile_qr_scan", "android": "https://dc.lft.to/lastmile_qr_scan"}, "lon": -77.02093283333333, "type": "electric_scooter", "fusion_lat": 0.0, "lat": 38.8942895, "name": "7cbfe536373c9c37c76a0df951cb47ba", "fusion_lon": 0.0, "bike_id": "7cbfe536373c9c37c76a0df951cb47ba", "is_disabled": 0, "is_reserved": 0}, {"rental_uris": {"ios": "https://dc.lft.to/lastmile_qr_scan", "android": "https://dc.lft.to/lastmile_qr_scan"}, "lon": -77.06259166666666, "type": "electric_scooter", "fusion_lat": 0.0, "lat": 38.90353666666667, "name": "13313aff41ee709f5addf9fb31abb8b1", "fusion_lon": 0.0, "bike_id": "13313aff41ee709f5addf9fb31abb8b1", "is_disabled": 0, "is_reserved": 0}, {"rental_uris": {"ios": "https://dc.lft.to/lastmile_qr_scan", "android": "https://dc.lft.to/lastmile_qr_scan"}, "lon": -77.00579866666666, "type": "electric_scooter", "fusion_lat": 0.0, "lat": 38.8769195, "name": "d5873ed890264446eb0cf0b3c86447ed", "fusion_lon": 0.0, "bike_id": "d5873ed890264446eb0cf0b3c86447ed", "is_disabled": 0, "is_reserved": 0}, {"rental_uris": {"ios": "https://dc.lft.to/lastmile_qr_scan", "android": "https://dc.lft.to/lastmile_qr_scan"}, "lon": -77.03680016666667, "type": "electric_scooter", "fusion_lat": 0.0, "lat": 38.905700333333336, "name": "4e51c3e368aecee5fe20fd68d4632ce8", "fusion_lon": 0.0, "bike_id": "4e51c3e368aecee5fe20fd68d4632ce8", "is_disabled": 0, "is_reserved": 0}, {"rental_uris": {"ios": "https://dc.lft.to/lastmile_qr_scan", "android": "https://dc.lft.to/lastmile_qr_scan"}, "lon": -76.98510283333333, "type": "electric_scooter", "fusion_lat": 0.0, "lat": 38.906073166666665, "name": "d8dea565aa3aae9f36538c15343a7f0d", "fusion_lon": 0.0, "bike_id": "d8dea565aa3aae9f36538c15343a7f0d", "is_disabled": 0, "is_reserved": 0}, {"rental_uris": {"ios": "https://dc.lft.to/lastmile_qr_scan", "android": "https://dc.lft.to/lastmile_qr_scan"}, "lon": -77.0404475, "type": "electric_scooter", "fusion_lat": 0.0, "lat": 38.9026735, "name": "c8f79dd3723609e51ec3b0ec984972c9", "fusion_lon": 0.0, "bike_id": "c8f79dd3723609e51ec3b0ec984972c9", "is_disabled": 0, "is_reserved": 0}, {"rental_uris": {"ios": "https://dc.lft.to/lastmile_qr_scan", "android": "https://dc.lft.to/lastmile_qr_scan"}, "lon": -76.99962516666666, "type": "electric_scooter", "fusion_lat": 0.0, "lat": 38.90920933333334, "name": "d4972f26a168687959a29dce42d18184", "fusion_lon": 0.0, "bike_id": "d4972f26a168687959a29dce42d18184", "is_disabled": 0, "is_reserved": 0}, {"rental_uris": {"ios": "https://dc.lft.to/lastmile_qr_scan", "android": "https://dc.lft.to/lastmile_qr_scan"}, "lon": -77.04166666666667, "type": "electric_scooter", "fusion_lat": 0.0, "lat": 38.919374166666664, "name": "cfb93c894587ecf1094d1ad0d50be842", "fusion_lon": 0.0, "bike_id": "cfb93c894587ecf1094d1ad0d50be842", "is_disabled": 0, "is_reserved": 0}, {"rental_uris": {"ios": "https://dc.lft.to/lastmile_qr_scan", "android": "https://dc.lft.to/lastmile_qr_scan"}, "lon": -77.09159716666667, "type": "electric_bike", "fusion_lat": 0.0, "lat": 38.967581, "name": "b2dff6f459c6a3e3b912cc8d1a711720", "fusion_lon": 0.0, "bike_id": "b2dff6f459c6a3e3b912cc8d1a711720", "is_disabled": 0, "is_reserved": 0}, {"rental_uris": {"ios": "https://dc.lft.to/lastmile_qr_scan", "android": "https://dc.lft.to/lastmile_qr_scan"}, "lon": -77.021189, "type": "electric_bike", "fusion_lat": 0.0, "lat": 38.936946, "name": "389a224b74d9dd01235c9856d31ca2cc", "fusion_lon": 0.0, "bike_id": "389a224b74d9dd01235c9856d31ca2cc", "is_disabled": 0, "is_reserved": 0}, {"rental_uris": {"ios": "https://dc.lft.to/lastmile_qr_scan", "android": "https://dc.lft.to/lastmile_qr_scan"}, "lon": -77.04548033333333, "type": "electric_scooter", "fusion_lat": 0.0, "lat": 38.913135, "name": "ff6c2ddfed06865583427b3114474345", "fusion_lon": 0.0, "bike_id": "ff6c2ddfed06865583427b3114474345", "is_disabled": 0, "is_reserved": 0}, {"rental_uris": {"ios": "https://dc.lft.to/lastmile_qr_scan", "android": "https://dc.lft.to/lastmile_qr_scan"}, "lon": -77.04169266666666, "type": "electric_scooter", "fusion_lat": 0.0, "lat": 38.9185425, "name": "6644f9786ff65d9c1e048ba65e0ba12f", "fusion_lon": 0.0, "bike_id": "6644f9786ff65d9c1e048ba65e0ba12f", "is_disabled": 0, "is_reserved": 0}, {"rental_uris": {"ios": "https://dc.lft.to/lastmile_qr_scan", "android": "https://dc.lft.to/lastmile_qr_scan"}, "lon": -77.0416745, "type": "electric_scooter", "fusion_lat": 0.0, "lat": 38.919796166666664, "name": "53d0b1755f062a0402bc03214f1e8227", "fusion_lon": 0.0, "bike_id": "53d0b1755f062a0402bc03214f1e8227", "is_disabled": 0, "is_reserved": 0}, {"rental_uris": {"ios": "https://dc.lft.to/lastmile_qr_scan", "android": "https://dc.lft.to/lastmile_qr_scan"}, "lon": -77.03852116666667, "type": "electric_scooter", "fusion_lat": 0.0, "lat": 38.9101665, "name": "1c47cbc6bd6c2a7bac7c08e0e01c6f47", "fusion_lon": 0.0, "bike_id": "1c47cbc6bd6c2a7bac7c08e0e01c6f47", "is_disabled": 0, "is_reserved": 0}, {"rental_uris": {"ios": "https://dc.lft.to/lastmile_qr_scan", "android": "https://dc.lft.to/lastmile_qr_scan"}, "lon": -77.02318216666667, "type": "electric_scooter", "fusion_lat": 0.0, "lat": 38.8833035, "name": "46762ae5922ff5f86991fb7a45d54388", "fusion_lon": 0.0, "bike_id": "46762ae5922ff5f86991fb7a45d54388", "is_disabled": 0, "is_reserved": 0}, {"rental_uris": {"ios": "https://dc.lft.to/lastmile_qr_scan", "android": "https://dc.lft.to/lastmile_qr_scan"}, "lon": -77.13092233333333, "type": "electric_bike", "fusion_lat": 0.0, "lat": 38.8615765, "name": "7a79c94eb48589ae152c1ca4a3b8d611", "fusion_lon": 0.0, "bike_id": "7a79c94eb48589ae152c1ca4a3b8d611", "is_disabled": 0, "is_reserved": 0}, {"rental_uris": {"ios": "https://dc.lft.to/lastmile_qr_scan", "android": "https://dc.lft.to/lastmile_qr_scan"}, "lon": -77.02148583333333, "type": "electric_scooter", "fusion_lat": 0.0, "lat": 38.90967366666667, "name": "eb8bc5ac633bee5b7807c2292b8834b8", "fusion_lon": 0.0, "bike_id": "eb8bc5ac633bee5b7807c2292b8834b8", "is_disabled": 0, "is_reserved": 0}, {"rental_uris": {"ios": "https://dc.lft.to/lastmile_qr_scan", "android": "https://dc.lft.to/lastmile_qr_scan"}, "lon": -77.034039, "type": "electric_bike", "fusion_lat": 0.0, "lat": 38.90043416666666, "name": "af7120faedc96a8e4729ce3e7996939f", "fusion_lon": 0.0, "bike_id": "af7120faedc96a8e4729ce3e7996939f", "is_disabled": 0, "is_reserved": 0}, {"rental_uris": {"ios": "https://dc.lft.to/lastmile_qr_scan", "android": "https://dc.lft.to/lastmile_qr_scan"}, "lon": -77.0356235, "type": "electric_scooter", "fusion_lat": 0.0, "lat": 38.908559333333336, "name": "65eab5b8f0b6f95c77aaab1531fab701", "fusion_lon": 0.0, "bike_id": "65eab5b8f0b6f95c77aaab1531fab701", "is_disabled": 0, "is_reserved": 0}, {"rental_uris": {"ios": "https://dc.lft.to/lastmile_qr_scan", "android": "https://dc.lft.to/lastmile_qr_scan"}, "lon": -77.03197233333333, "type": "electric_scooter", "fusion_lat": 0.0, "lat": 38.92672966666667, "name": "7abc6d0a5f491613f27c69b4729d87ce", "fusion_lon": 0.0, "bike_id": "7abc6d0a5f491613f27c69b4729d87ce", "is_disabled": 0, "is_reserved": 0}, {"rental_uris": {"ios": "https://dc.lft.to/lastmile_qr_scan", "android": "https://dc.lft.to/lastmile_qr_scan"}, "lon": -77.0405475, "type": "electric_scooter", "fusion_lat": 0.0, "lat": 38.9271315, "name": "36af4f5ccc488779d8992a0821f1c0f2", "fusion_lon": 0.0, "bike_id": "36af4f5ccc488779d8992a0821f1c0f2", "is_disabled": 0, "is_reserved": 0}, {"rental_uris": {"ios": "https://dc.lft.to/lastmile_qr_scan", "android": "https://dc.lft.to/lastmile_qr_scan"}, "lon": -77.098653, "type": "electric_bike", "fusion_lat": 0.0, "lat": 38.85366583333333, "name": "5a403f76083abbb0326c1e20b01d5911", "fusion_lon": 0.0, "bike_id": "5a403f76083abbb0326c1e20b01d5911", "is_disabled": 0, "is_reserved": 0}, {"rental_uris": {"ios": "https://dc.lft.to/lastmile_qr_scan", "android": "https://dc.lft.to/lastmile_qr_scan"}, "lon": -77.09962583333333, "type": "electric_bike", "fusion_lat": 0.0, "lat": 38.85784816666666, "name": "95efa7c82f609baede8e928f7e6fb39d", "fusion_lon": 0.0, "bike_id": "95efa7c82f609baede8e928f7e6fb39d", "is_disabled": 0, "is_reserved": 0}, {"rental_uris": {"ios": "https://dc.lft.to/lastmile_qr_scan", "android": "https://dc.lft.to/lastmile_qr_scan"}, "lon": -77.02792566666666, "type": "electric_scooter", "fusion_lat": 0.0, "lat": 38.929672333333336, "name": "afa1e4753bbef45894d0a92bf5037dd2", "fusion_lon": 0.0, "bike_id": "afa1e4753bbef45894d0a92bf5037dd2", "is_disabled": 0, "is_reserved": 0}, {"rental_uris": {"ios": "https://dc.lft.to/lastmile_qr_scan", "android": "https://dc.lft.to/lastmile_qr_scan"}, "lon": -77.06838166666667, "type": "electric_scooter", "fusion_lat": 0.0, "lat": 38.91727916666667, "name": "ade4658e72505549845fafef672ecf1d", "fusion_lon": 0.0, "bike_id": "ade4658e72505549845fafef672ecf1d", "is_disabled": 0, "is_reserved": 0}, {"rental_uris": {"ios": "https://dc.lft.to/lastmile_qr_scan", "android": "https://dc.lft.to/lastmile_qr_scan"}, "lon": -77.02397433333333, "type": "electric_scooter", "fusion_lat": 0.0, "lat": 38.90967583333333, "name": "c405313bc6e5c5601d4af0d54eb7116e", "fusion_lon": 0.0, "bike_id": "c405313bc6e5c5601d4af0d54eb7116e", "is_disabled": 0, "is_reserved": 0}, {"rental_uris": {"ios": "https://dc.lft.to/lastmile_qr_scan", "android": "https://dc.lft.to/lastmile_qr_scan"}, "lon": -77.0161745, "type": "electric_scooter", "fusion_lat": 0.0, "lat": 38.87869533333333, "name": "e6bd67129bc8b0132715337bb3648869", "fusion_lon": 0.0, "bike_id": "e6bd67129bc8b0132715337bb3648869", "is_disabled": 0, "is_reserved": 0}, {"rental_uris": {"ios": "https://dc.lft.to/lastmile_qr_scan", "android": "https://dc.lft.to/lastmile_qr_scan"}, "lon": -77.0450045, "type": "electric_scooter", "fusion_lat": 0.0, "lat": 38.905680833333335, "name": "c13e19e7fd58df72c8b23638597d689d", "fusion_lon": 0.0, "bike_id": "c13e19e7fd58df72c8b23638597d689d", "is_disabled": 0, "is_reserved": 0}, {"rental_uris": {"ios": "https://dc.lft.to/lastmile_qr_scan", "android": "https://dc.lft.to/lastmile_qr_scan"}, "lon": -77.04563716666667, "type": "electric_scooter", "fusion_lat": 0.0, "lat": 38.90858216666667, "name": "693008bd1eed9403bb1577013f171697", "fusion_lon": 0.0, "bike_id": "693008bd1eed9403bb1577013f171697", "is_disabled": 0, "is_reserved": 0}, {"rental_uris": {"ios": "https://dc.lft.to/lastmile_qr_scan", "android": "https://dc.lft.to/lastmile_qr_scan"}, "lon": -77.05349783333334, "type": "electric_scooter", "fusion_lat": 0.0, "lat": 38.90251166666667, "name": "4b779a1939706f67140962f42d26792d", "fusion_lon": 0.0, "bike_id": "4b779a1939706f67140962f42d26792d", "is_disabled": 0, "is_reserved": 0}, {"rental_uris": {"ios": "https://dc.lft.to/lastmile_qr_scan", "android": "https://dc.lft.to/lastmile_qr_scan"}, "lon": -76.93098216666667, "type": "electric_scooter", "fusion_lat": 0.0, "lat": 38.9013915, "name": "6524f71a44d7e658d9d56984f77cb3d6", "fusion_lon": 0.0, "bike_id": "6524f71a44d7e658d9d56984f77cb3d6", "is_disabled": 0, "is_reserved": 0}, {"rental_uris": {"ios": "https://dc.lft.to/lastmile_qr_scan", "android": "https://dc.lft.to/lastmile_qr_scan"}, "lon": -77.0461725, "type": "electric_scooter", "fusion_lat": 0.0, "lat": 38.90656633333333, "name": "8a880d5d9efe997d3b9045f6184ac0ba", "fusion_lon": 0.0, "bike_id": "8a880d5d9efe997d3b9045f6184ac0ba", "is_disabled": 0, "is_reserved": 0}, {"rental_uris": {"ios": "https://dc.lft.to/lastmile_qr_scan", "android": "https://dc.lft.to/lastmile_qr_scan"}, "lon": -77.046438, "type": "electric_bike", "fusion_lat": 0.0, "lat": 38.852070166666664, "name": "b0bb88d76091d25ab0c6ed88de147795", "fusion_lon": 0.0, "bike_id": "b0bb88d76091d25ab0c6ed88de147795", "is_disabled": 0, "is_reserved": 0}, {"rental_uris": {"ios": "https://dc.lft.to/lastmile_qr_scan", "android": "https://dc.lft.to/lastmile_qr_scan"}, "lon": -77.05859233333334, "type": "electric_scooter", "fusion_lat": 0.0, "lat": 38.93608783333333, "name": "45e91c01692fb22436cb9dda262dc785", "fusion_lon": 0.0, "bike_id": "45e91c01692fb22436cb9dda262dc785", "is_disabled": 0, "is_reserved": 0}, {"rental_uris": {"ios": "https://dc.lft.to/lastmile_qr_scan", "android": "https://dc.lft.to/lastmile_qr_scan"}, "lon": -77.0307935, "type": "electric_scooter", "fusion_lat": 0.0, "lat": 38.899840833333336, "name": "ea3f85880670ab666ef5d6931ef6a3a2", "fusion_lon": 0.0, "bike_id": "ea3f85880670ab666ef5d6931ef6a3a2", "is_disabled": 0, "is_reserved": 0}, {"rental_uris": {"ios": "https://dc.lft.to/lastmile_qr_scan", "android": "https://dc.lft.to/lastmile_qr_scan"}, "lon": -77.04667833333333, "type": "electric_scooter", "fusion_lat": 0.0, "lat": 38.9051555, "name": "32bf1e1db1f4785dc8aa8e4ecc62cf0f", "fusion_lon": 0.0, "bike_id": "32bf1e1db1f4785dc8aa8e4ecc62cf0f", "is_disabled": 0, "is_reserved": 0}, {"rental_uris": {"ios": "https://dc.lft.to/lastmile_qr_scan", "android": "https://dc.lft.to/lastmile_qr_scan"}, "lon": -77.02443716666667, "type": "electric_scooter", "fusion_lat": 0.0, "lat": 38.91839066666667, "name": "058cb94012178976b96d5bd90bdae2ec", "fusion_lon": 0.0, "bike_id": "058cb94012178976b96d5bd90bdae2ec", "is_disabled": 0, "is_reserved": 0}, {"rental_uris": {"ios": "https://dc.lft.to/lastmile_qr_scan", "android": "https://dc.lft.to/lastmile_qr_scan"}, "lon": -77.01295683333333, "type": "electric_bike", "fusion_lat": 0.0, "lat": 39.00371533333333, "name": "a6011888f7eff73c5184a2b368a5c510", "fusion_lon": 0.0, "bike_id": "a6011888f7eff73c5184a2b368a5c510", "is_disabled": 0, "is_reserved": 0}, {"rental_uris": {"ios": "https://dc.lft.to/lastmile_qr_scan", "android": "https://dc.lft.to/lastmile_qr_scan"}, "lon": -76.93245333333333, "type": "electric_scooter", "fusion_lat": 0.0, "lat": 38.894058, "name": "54398718a1526e596f9076375306c359", "fusion_lon": 0.0, "bike_id": "54398718a1526e596f9076375306c359", "is_disabled": 0, "is_reserved": 0}, {"rental_uris": {"ios": "https://dc.lft.to/lastmile_qr_scan", "android": "https://dc.lft.to/lastmile_qr_scan"}, "lon": -77.055205, "type": "electric_scooter", "fusion_lat": 0.0, "lat": 38.89725416666667, "name": "4442eb0b2a77d9bb9d8b3282bd1913d0", "fusion_lon": 0.0, "bike_id": "4442eb0b2a77d9bb9d8b3282bd1913d0", "is_disabled": 0, "is_reserved": 0}, {"rental_uris": {"ios": "https://dc.lft.to/lastmile_qr_scan", "android": "https://dc.lft.to/lastmile_qr_scan"}, "lon": -77.05522066666667, "type": "electric_scooter", "fusion_lat": 0.0, "lat": 38.8971735, "name": "95b6a3764f633174e24da5f4718b471d", "fusion_lon": 0.0, "bike_id": "95b6a3764f633174e24da5f4718b471d", "is_disabled": 0, "is_reserved": 0}, {"rental_uris": {"ios": "https://dc.lft.to/lastmile_qr_scan", "android": "https://dc.lft.to/lastmile_qr_scan"}, "lon": -76.9906445, "type": "electric_scooter", "fusion_lat": 0.0, "lat": 38.863457333333336, "name": "0f8c54cfdcc8ec98513c47abfe3957a7", "fusion_lon": 0.0, "bike_id": "0f8c54cfdcc8ec98513c47abfe3957a7", "is_disabled": 0, "is_reserved": 0}, {"rental_uris": {"ios": "https://dc.lft.to/lastmile_qr_scan", "android": "https://dc.lft.to/lastmile_qr_scan"}, "lon": -77.03179083333333, "type": "electric_scooter", "fusion_lat": 0.0, "lat": 38.897505, "name": "3d51c2360794d3b40af79560892fdef7", "fusion_lon": 0.0, "bike_id": "3d51c2360794d3b40af79560892fdef7", "is_disabled": 0, "is_reserved": 0}, {"rental_uris": {"ios": "https://dc.lft.to/lastmile_qr_scan", "android": "https://dc.lft.to/lastmile_qr_scan"}, "lon": -77.0482415, "type": "electric_scooter", "fusion_lat": 0.0, "lat": 38.90798916666667, "name": "72468aedf7707b23e80db0994d0fd6fe", "fusion_lon": 0.0, "bike_id": "72468aedf7707b23e80db0994d0fd6fe", "is_disabled": 0, "is_reserved": 0}, {"rental_uris": {"ios": "https://dc.lft.to/lastmile_qr_scan", "android": "https://dc.lft.to/lastmile_qr_scan"}, "lon": -77.032021, "type": "electric_scooter", "fusion_lat": 0.0, "lat": 38.91003366666666, "name": "5c0f1a2f4c09a02c65381bb9fbcca076", "fusion_lon": 0.0, "bike_id": "5c0f1a2f4c09a02c65381bb9fbcca076", "is_disabled": 0, "is_reserved": 0}, {"rental_uris": {"ios": "https://dc.lft.to/lastmile_qr_scan", "android": "https://dc.lft.to/lastmile_qr_scan"}, "lon": -76.9994985, "type": "electric_bike", "fusion_lat": 0.0, "lat": 38.923362166666664, "name": "e8f22d08e304142f17e41decf09f6904", "fusion_lon": 0.0, "bike_id": "e8f22d08e304142f17e41decf09f6904", "is_disabled": 0, "is_reserved": 0}, {"rental_uris": {"ios": "https://dc.lft.to/lastmile_qr_scan", "android": "https://dc.lft.to/lastmile_qr_scan"}, "lon": -77.0660985, "type": "electric_scooter", "fusion_lat": 0.0, "lat": 38.905196833333335, "name": "60276d5c12b92a5d94d460f69f18e1c9", "fusion_lon": 0.0, "bike_id": "60276d5c12b92a5d94d460f69f18e1c9", "is_disabled": 0, "is_reserved": 0}, {"rental_uris": {"ios": "https://dc.lft.to/lastmile_qr_scan", "android": "https://dc.lft.to/lastmile_qr_scan"}, "lon": -77.0369645, "type": "electric_scooter", "fusion_lat": 0.0, "lat": 38.927516, "name": "7cc6e5a4cd0668457372867f083893d1", "fusion_lon": 0.0, "bike_id": "7cc6e5a4cd0668457372867f083893d1", "is_disabled": 0, "is_reserved": 0}, {"rental_uris": {"ios": "https://dc.lft.to/lastmile_qr_scan", "android": "https://dc.lft.to/lastmile_qr_scan"}, "lon": -76.99764883333333, "type": "electric_scooter", "fusion_lat": 0.0, "lat": 38.92181566666667, "name": "012019b5d01d90b1b6d438be489870f4", "fusion_lon": 0.0, "bike_id": "012019b5d01d90b1b6d438be489870f4", "is_disabled": 0, "is_reserved": 0}, {"rental_uris": {"ios": "https://dc.lft.to/lastmile_qr_scan", "android": "https://dc.lft.to/lastmile_qr_scan"}, "lon": -77.0153125, "type": "electric_scooter", "fusion_lat": 0.0, "lat": 38.872647, "name": "af3b764b1ccb9e1718b28ad681a01a10", "fusion_lon": 0.0, "bike_id": "af3b764b1ccb9e1718b28ad681a01a10", "is_disabled": 0, "is_reserved": 0}, {"rental_uris": {"ios": "https://dc.lft.to/lastmile_qr_scan", "android": "https://dc.lft.to/lastmile_qr_scan"}, "lon": -77.04990633333334, "type": "electric_scooter", "fusion_lat": 0.0, "lat": 38.8960835, "name": "248d7c45949d8278604c49c4e4961056", "fusion_lon": 0.0, "bike_id": "248d7c45949d8278604c49c4e4961056", "is_disabled": 0, "is_reserved": 0}, {"rental_uris": {"ios": "https://dc.lft.to/lastmile_qr_scan", "android": "https://dc.lft.to/lastmile_qr_scan"}, "lon": -77.0332365, "type": "electric_scooter", "fusion_lat": 0.0, "lat": 38.928745666666664, "name": "65597c1fa71e0d5359ac4dd4bcfb4136", "fusion_lon": 0.0, "bike_id": "65597c1fa71e0d5359ac4dd4bcfb4136", "is_disabled": 0, "is_reserved": 0}, {"rental_uris": {"ios": "https://dc.lft.to/lastmile_qr_scan", "android": "https://dc.lft.to/lastmile_qr_scan"}, "lon": -76.997746, "type": "electric_scooter", "fusion_lat": 0.0, "lat": 38.844250833333334, "name": "af1da91f7993273d9b5ea2f01d061f8e", "fusion_lon": 0.0, "bike_id": "af1da91f7993273d9b5ea2f01d061f8e", "is_disabled": 0, "is_reserved": 0}, {"rental_uris": {"ios": "https://dc.lft.to/lastmile_qr_scan", "android": "https://dc.lft.to/lastmile_qr_scan"}, "lon": -77.03515766666666, "type": "electric_scooter", "fusion_lat": 0.0, "lat": 38.9220245, "name": "3cafc0640fbc246dd6a28e1f855cd718", "fusion_lon": 0.0, "bike_id": "3cafc0640fbc246dd6a28e1f855cd718", "is_disabled": 0, "is_reserved": 0}, {"rental_uris": {"ios": "https://dc.lft.to/lastmile_qr_scan", "android": "https://dc.lft.to/lastmile_qr_scan"}, "lon": -77.02958983333333, "type": "electric_scooter", "fusion_lat": 0.0, "lat": 38.91673333333333, "name": "131b996079c4bacabde2eaa41ddbf8c6", "fusion_lon": 0.0, "bike_id": "131b996079c4bacabde2eaa41ddbf8c6", "is_disabled": 0, "is_reserved": 0}, {"rental_uris": {"ios": "https://dc.lft.to/lastmile_qr_scan", "android": "https://dc.lft.to/lastmile_qr_scan"}, "lon": -76.9479555, "type": "electric_scooter", "fusion_lat": 0.0, "lat": 38.8963225, "name": "771515cdc2c47a5da4bfa43a03e15b28", "fusion_lon": 0.0, "bike_id": "771515cdc2c47a5da4bfa43a03e15b28", "is_disabled": 0, "is_reserved": 0}, {"rental_uris": {"ios": "https://dc.lft.to/lastmile_qr_scan", "android": "https://dc.lft.to/lastmile_qr_scan"}, "lon": -77.02973366666667, "type": "electric_scooter", "fusion_lat": 0.0, "lat": 38.962283166666666, "name": "dc31dc9fde370560e874966c689186da", "fusion_lon": 0.0, "bike_id": "dc31dc9fde370560e874966c689186da", "is_disabled": 0, "is_reserved": 0}, {"rental_uris": {"ios": "https://dc.lft.to/lastmile_qr_scan", "android": "https://dc.lft.to/lastmile_qr_scan"}, "lon": -77.008743, "type": "electric_scooter", "fusion_lat": 0.0, "lat": 38.913931, "name": "12a4a1f35fe7da15acc002ae3b1c3efe", "fusion_lon": 0.0, "bike_id": "12a4a1f35fe7da15acc002ae3b1c3efe", "is_disabled": 0, "is_reserved": 0}, {"rental_uris": {"ios": "https://dc.lft.to/lastmile_qr_scan", "android": "https://dc.lft.to/lastmile_qr_scan"}, "lon": -77.0013655, "type": "electric_scooter", "fusion_lat": 0.0, "lat": 38.90406883333333, "name": "626ba05d82359bf2d933896d4fa84ccc", "fusion_lon": 0.0, "bike_id": "626ba05d82359bf2d933896d4fa84ccc", "is_disabled": 0, "is_reserved": 0}, {"rental_uris": {"ios": "https://dc.lft.to/lastmile_qr_scan", "android": "https://dc.lft.to/lastmile_qr_scan"}, "lon": -77.01618816666667, "type": "electric_scooter", "fusion_lat": 0.0, "lat": 38.88738133333333, "name": "18bfe992b8cc7a516c2257b575cf5141", "fusion_lon": 0.0, "bike_id": "18bfe992b8cc7a516c2257b575cf5141", "is_disabled": 0, "is_reserved": 0}, {"rental_uris": {"ios": "https://dc.lft.to/lastmile_qr_scan", "android": "https://dc.lft.to/lastmile_qr_scan"}, "lon": -77.103393, "type": "electric_bike", "fusion_lat": 0.0, "lat": 38.852237, "name": "6cd5d644bb75664f16317a089d2ca695", "fusion_lon": 0.0, "bike_id": "6cd5d644bb75664f16317a089d2ca695", "is_disabled": 0, "is_reserved": 0}, {"rental_uris": {"ios": "https://dc.lft.to/lastmile_qr_scan", "android": "https://dc.lft.to/lastmile_qr_scan"}, "lon": -77.15266533333333, "type": "electric_bike", "fusion_lat": 0.0, "lat": 39.10562983333333, "name": "4766e971c3f4749512ed13ce2b1983c1", "fusion_lon": 0.0, "bike_id": "4766e971c3f4749512ed13ce2b1983c1", "is_disabled": 0, "is_reserved": 0}, {"rental_uris": {"ios": "https://dc.lft.to/lastmile_qr_scan", "android": "https://dc.lft.to/lastmile_qr_scan"}, "lon": -77.02499983333334, "type": "electric_scooter", "fusion_lat": 0.0, "lat": 38.88034483333333, "name": "09d94fcc034523c33f49901e60abb15a", "fusion_lon": 0.0, "bike_id": "09d94fcc034523c33f49901e60abb15a", "is_disabled": 0, "is_reserved": 0}, {"rental_uris": {"ios": "https://dc.lft.to/lastmile_qr_scan", "android": "https://dc.lft.to/lastmile_qr_scan"}, "lon": -76.9832915, "type": "electric_scooter", "fusion_lat": 0.0, "lat": 38.86173683333333, "name": "baebc55ee5d837cab07a71e6712397d0", "fusion_lon": 0.0, "bike_id": "baebc55ee5d837cab07a71e6712397d0", "is_disabled": 0, "is_reserved": 0}, {"rental_uris": {"ios": "https://dc.lft.to/lastmile_qr_scan", "android": "https://dc.lft.to/lastmile_qr_scan"}, "lon": -76.99620983333334, "type": "electric_scooter", "fusion_lat": 0.0, "lat": 38.88441866666667, "name": "234810c64ca167283ce2078f0ac6eaab", "fusion_lon": 0.0, "bike_id": "234810c64ca167283ce2078f0ac6eaab", "is_disabled": 0, "is_reserved": 0}, {"rental_uris": {"ios": "https://dc.lft.to/lastmile_qr_scan", "android": "https://dc.lft.to/lastmile_qr_scan"}, "lon": -76.96505233333333, "type": "electric_scooter", "fusion_lat": 0.0, "lat": 38.8764955, "name": "a4619fc64e7895bc512b4598cde8c4ec", "fusion_lon": 0.0, "bike_id": "a4619fc64e7895bc512b4598cde8c4ec", "is_disabled": 0, "is_reserved": 0}, {"rental_uris": {"ios": "https://dc.lft.to/lastmile_qr_scan", "android": "https://dc.lft.to/lastmile_qr_scan"}, "lon": -77.0390755, "type": "electric_scooter", "fusion_lat": 0.0, "lat": 38.92201466666667, "name": "79fd9af0f6435fcdf04225a5b0604be8", "fusion_lon": 0.0, "bike_id": "79fd9af0f6435fcdf04225a5b0604be8", "is_disabled": 0, "is_reserved": 0}, {"rental_uris": {"ios": "https://dc.lft.to/lastmile_qr_scan", "android": "https://dc.lft.to/lastmile_qr_scan"}, "lon": -77.0220755, "type": "electric_scooter", "fusion_lat": 0.0, "lat": 38.89699183333333, "name": "0785e3819098e19c5d53ca3f000ce974", "fusion_lon": 0.0, "bike_id": "0785e3819098e19c5d53ca3f000ce974", "is_disabled": 0, "is_reserved": 0}, {"rental_uris": {"ios": "https://dc.lft.to/lastmile_qr_scan", "android": "https://dc.lft.to/lastmile_qr_scan"}, "lon": -77.01079383333334, "type": "electric_scooter", "fusion_lat": 0.0, "lat": 38.894923166666665, "name": "80a6e40d4b5e17031e2f70953e02dc35", "fusion_lon": 0.0, "bike_id": "80a6e40d4b5e17031e2f70953e02dc35", "is_disabled": 0, "is_reserved": 0}, {"rental_uris": {"ios": "https://dc.lft.to/lastmile_qr_scan", "android": "https://dc.lft.to/lastmile_qr_scan"}, "lon": -76.93795566666667, "type": "electric_scooter", "fusion_lat": 0.0, "lat": 38.8909215, "name": "7635f85a49865ef5b8310482a4af2cf2", "fusion_lon": 0.0, "bike_id": "7635f85a49865ef5b8310482a4af2cf2", "is_disabled": 0, "is_reserved": 0}, {"rental_uris": {"ios": "https://dc.lft.to/lastmile_qr_scan", "android": "https://dc.lft.to/lastmile_qr_scan"}, "lon": -77.03829383333333, "type": "electric_scooter", "fusion_lat": 0.0, "lat": 38.92179633333333, "name": "ecadda6750d6bec13888e1f1ad0e6087", "fusion_lon": 0.0, "bike_id": "ecadda6750d6bec13888e1f1ad0e6087", "is_disabled": 0, "is_reserved": 0}, {"rental_uris": {"ios": "https://dc.lft.to/lastmile_qr_scan", "android": "https://dc.lft.to/lastmile_qr_scan"}, "lon": -76.95754866666667, "type": "electric_scooter", "fusion_lat": 0.0, "lat": 38.884315666666666, "name": "36a76b5d4591fc3e2aab70639c546062", "fusion_lon": 0.0, "bike_id": "36a76b5d4591fc3e2aab70639c546062", "is_disabled": 0, "is_reserved": 0}, {"rental_uris": {"ios": "https://dc.lft.to/lastmile_qr_scan", "android": "https://dc.lft.to/lastmile_qr_scan"}, "lon": -76.93170516666666, "type": "electric_scooter", "fusion_lat": 0.0, "lat": 38.89878733333333, "name": "5422895556b877e77524202dd20e38da", "fusion_lon": 0.0, "bike_id": "5422895556b877e77524202dd20e38da", "is_disabled": 0, "is_reserved": 0}, {"rental_uris": {"ios": "https://dc.lft.to/lastmile_qr_scan", "android": "https://dc.lft.to/lastmile_qr_scan"}, "lon": -76.92710266666667, "type": "electric_scooter", "fusion_lat": 0.0, "lat": 38.88768983333333, "name": "4bf76e0fce1a9f703dd83e0f236025ff", "fusion_lon": 0.0, "bike_id": "4bf76e0fce1a9f703dd83e0f236025ff", "is_disabled": 0, "is_reserved": 0}, {"rental_uris": {"ios": "https://dc.lft.to/lastmile_qr_scan", "android": "https://dc.lft.to/lastmile_qr_scan"}, "lon": -77.045549, "type": "electric_scooter", "fusion_lat": 0.0, "lat": 38.912674333333335, "name": "95feb204dfc913523b18fa6fdf38213b", "fusion_lon": 0.0, "bike_id": "95feb204dfc913523b18fa6fdf38213b", "is_disabled": 0, "is_reserved": 0}, {"rental_uris": {"ios": "https://dc.lft.to/lastmile_qr_scan", "android": "https://dc.lft.to/lastmile_qr_scan"}, "lon": -77.03263833333334, "type": "electric_scooter", "fusion_lat": 0.0, "lat": 38.92880616666667, "name": "7d776d3727f5dafad9a191afcc29f126", "fusion_lon": 0.0, "bike_id": "7d776d3727f5dafad9a191afcc29f126", "is_disabled": 0, "is_reserved": 0}, {"rental_uris": {"ios": "https://dc.lft.to/lastmile_qr_scan", "android": "https://dc.lft.to/lastmile_qr_scan"}, "lon": -77.03325466666666, "type": "electric_scooter", "fusion_lat": 0.0, "lat": 38.896317, "name": "dead68adcccae61327c9640459284b93", "fusion_lon": 0.0, "bike_id": "dead68adcccae61327c9640459284b93", "is_disabled": 0, "is_reserved": 0}, {"rental_uris": {"ios": "https://dc.lft.to/lastmile_qr_scan", "android": "https://dc.lft.to/lastmile_qr_scan"}, "lon": -77.0239315, "type": "electric_scooter", "fusion_lat": 0.0, "lat": 38.91667733333333, "name": "54ccd3be50eaed0a3de2e7df6b0df9a5", "fusion_lon": 0.0, "bike_id": "54ccd3be50eaed0a3de2e7df6b0df9a5", "is_disabled": 0, "is_reserved": 0}, {"rental_uris": {"ios": "https://dc.lft.to/lastmile_qr_scan", "android": "https://dc.lft.to/lastmile_qr_scan"}, "lon": -77.00891333333334, "type": "electric_scooter", "fusion_lat": 0.0, "lat": 38.912291833333335, "name": "bfcc33276c86011c9134ea139ab9e6f0", "fusion_lon": 0.0, "bike_id": "bfcc33276c86011c9134ea139ab9e6f0", "is_disabled": 0, "is_reserved": 0}, {"rental_uris": {"ios": "https://dc.lft.to/lastmile_qr_scan", "android": "https://dc.lft.to/lastmile_qr_scan"}, "lon": -77.072118, "type": "electric_scooter", "fusion_lat": 0.0, "lat": 38.934679333333335, "name": "9374da3d8498f609ac8b636263c25d48", "fusion_lon": 0.0, "bike_id": "9374da3d8498f609ac8b636263c25d48", "is_disabled": 0, "is_reserved": 0}, {"rental_uris": {"ios": "https://dc.lft.to/lastmile_qr_scan", "android": "https://dc.lft.to/lastmile_qr_scan"}, "lon": -77.026126, "type": "electric_scooter", "fusion_lat": 0.0, "lat": 38.91674866666666, "name": "7d3a3484962145a1adcc03bf50f9a5f1", "fusion_lon": 0.0, "bike_id": "7d3a3484962145a1adcc03bf50f9a5f1", "is_disabled": 0, "is_reserved": 0}, {"rental_uris": {"ios": "https://dc.lft.to/lastmile_qr_scan", "android": "https://dc.lft.to/lastmile_qr_scan"}, "lon": -77.01758933333333, "type": "electric_scooter", "fusion_lat": 0.0, "lat": 38.88591133333333, "name": "973437dbc0b178942de2e1580950c8da", "fusion_lon": 0.0, "bike_id": "973437dbc0b178942de2e1580950c8da", "is_disabled": 0, "is_reserved": 0}, {"rental_uris": {"ios": "https://dc.lft.to/lastmile_qr_scan", "android": "https://dc.lft.to/lastmile_qr_scan"}, "lon": -77.05384833333333, "type": "electric_scooter", "fusion_lat": 0.0, "lat": 38.927954, "name": "d4dcbd9d661f6d7cf3d9c89dfe396069", "fusion_lon": 0.0, "bike_id": "d4dcbd9d661f6d7cf3d9c89dfe396069", "is_disabled": 0, "is_reserved": 0}, {"rental_uris": {"ios": "https://dc.lft.to/lastmile_qr_scan", "android": "https://dc.lft.to/lastmile_qr_scan"}, "lon": -77.05909466666667, "type": "electric_scooter", "fusion_lat": 0.0, "lat": 38.904506833333336, "name": "5487c6a5a6eaf3335548fb4e2c420dbf", "fusion_lon": 0.0, "bike_id": "5487c6a5a6eaf3335548fb4e2c420dbf", "is_disabled": 0, "is_reserved": 0}, {"rental_uris": {"ios": "https://dc.lft.to/lastmile_qr_scan", "android": "https://dc.lft.to/lastmile_qr_scan"}, "lon": -76.992462, "type": "electric_bike", "fusion_lat": 0.0, "lat": 38.925473833333335, "name": "73080cf25bd6ce13a79f456546ba8cfe", "fusion_lon": 0.0, "bike_id": "73080cf25bd6ce13a79f456546ba8cfe", "is_disabled": 0, "is_reserved": 0}, {"rental_uris": {"ios": "https://dc.lft.to/lastmile_qr_scan", "android": "https://dc.lft.to/lastmile_qr_scan"}, "lon": -76.98021983333334, "type": "electric_scooter", "fusion_lat": 0.0, "lat": 38.887712, "name": "8e212cd69c889bbd68bd905dee8d5fcf", "fusion_lon": 0.0, "bike_id": "8e212cd69c889bbd68bd905dee8d5fcf", "is_disabled": 0, "is_reserved": 0}, {"rental_uris": {"ios": "https://dc.lft.to/lastmile_qr_scan", "android": "https://dc.lft.to/lastmile_qr_scan"}, "lon": -77.02340733333334, "type": "electric_bike", "fusion_lat": 0.0, "lat": 38.94489466666667, "name": "201da8454a9a541327de6b843f663154", "fusion_lon": 0.0, "bike_id": "201da8454a9a541327de6b843f663154", "is_disabled": 0, "is_reserved": 0}, {"rental_uris": {"ios": "https://dc.lft.to/lastmile_qr_scan", "android": "https://dc.lft.to/lastmile_qr_scan"}, "lon": -77.02523166666667, "type": "electric_scooter", "fusion_lat": 0.0, "lat": 38.94298283333333, "name": "3bd8c3680006005778c77a060f2e17b5", "fusion_lon": 0.0, "bike_id": "3bd8c3680006005778c77a060f2e17b5", "is_disabled": 0, "is_reserved": 0}, {"rental_uris": {"ios": "https://dc.lft.to/lastmile_qr_scan", "android": "https://dc.lft.to/lastmile_qr_scan"}, "lon": -77.00336533333333, "type": "electric_scooter", "fusion_lat": 0.0, "lat": 38.9070365, "name": "f905c24d006adf4487f93b1ed12db12f", "fusion_lon": 0.0, "bike_id": "f905c24d006adf4487f93b1ed12db12f", "is_disabled": 0, "is_reserved": 0}, {"rental_uris": {"ios": "https://dc.lft.to/lastmile_qr_scan", "android": "https://dc.lft.to/lastmile_qr_scan"}, "lon": -77.02642383333334, "type": "electric_scooter", "fusion_lat": 0.0, "lat": 38.93034433333333, "name": "1b3f4cb0a19639986b38a0db3b1ff48d", "fusion_lon": 0.0, "bike_id": "1b3f4cb0a19639986b38a0db3b1ff48d", "is_disabled": 0, "is_reserved": 0}, {"rental_uris": {"ios": "https://dc.lft.to/lastmile_qr_scan", "android": "https://dc.lft.to/lastmile_qr_scan"}, "lon": -77.04041383333333, "type": "electric_scooter", "fusion_lat": 0.0, "lat": 38.9246885, "name": "afa678ad1166828b3fc3bea7bbf7aaa8", "fusion_lon": 0.0, "bike_id": "afa678ad1166828b3fc3bea7bbf7aaa8", "is_disabled": 0, "is_reserved": 0}, {"rental_uris": {"ios": "https://dc.lft.to/lastmile_qr_scan", "android": "https://dc.lft.to/lastmile_qr_scan"}, "lon": -77.0723885, "type": "electric_scooter", "fusion_lat": 0.0, "lat": 38.93375066666667, "name": "9b02b887a4ff420a6962f5b01dd48299", "fusion_lon": 0.0, "bike_id": "9b02b887a4ff420a6962f5b01dd48299", "is_disabled": 0, "is_reserved": 0}, {"rental_uris": {"ios": "https://dc.lft.to/lastmile_qr_scan", "android": "https://dc.lft.to/lastmile_qr_scan"}, "lon": -77.02571566666667, "type": "electric_scooter", "fusion_lat": 0.0, "lat": 38.89581066666667, "name": "cca0edc8a2ae378f435b5d5a6ea07f46", "fusion_lon": 0.0, "bike_id": "cca0edc8a2ae378f435b5d5a6ea07f46", "is_disabled": 0, "is_reserved": 0}, {"rental_uris": {"ios": "https://dc.lft.to/lastmile_qr_scan", "android": "https://dc.lft.to/lastmile_qr_scan"}, "lon": -77.00716816666667, "type": "electric_scooter", "fusion_lat": 0.0, "lat": 38.913444166666665, "name": "2d149dab87d534400151d47da259c0b7", "fusion_lon": 0.0, "bike_id": "2d149dab87d534400151d47da259c0b7", "is_disabled": 0, "is_reserved": 0}, {"rental_uris": {"ios": "https://dc.lft.to/lastmile_qr_scan", "android": "https://dc.lft.to/lastmile_qr_scan"}, "lon": -77.05281466666666, "type": "electric_scooter", "fusion_lat": 0.0, "lat": 38.91013866666667, "name": "af4e4b924208e6b9dbfa36c8cf930964", "fusion_lon": 0.0, "bike_id": "af4e4b924208e6b9dbfa36c8cf930964", "is_disabled": 0, "is_reserved": 0}, {"rental_uris": {"ios": "https://dc.lft.to/lastmile_qr_scan", "android": "https://dc.lft.to/lastmile_qr_scan"}, "lon": -76.93956233333333, "type": "electric_scooter", "fusion_lat": 0.0, "lat": 38.8940895, "name": "dd009376407eaf4f9b93ab9299c45d33", "fusion_lon": 0.0, "bike_id": "dd009376407eaf4f9b93ab9299c45d33", "is_disabled": 0, "is_reserved": 0}, {"rental_uris": {"ios": "https://dc.lft.to/lastmile_qr_scan", "android": "https://dc.lft.to/lastmile_qr_scan"}, "lon": -77.01592916666667, "type": "electric_scooter", "fusion_lat": 0.0, "lat": 38.896156500000004, "name": "3f72423e069dbe14117e537cc0a0e869", "fusion_lon": 0.0, "bike_id": "3f72423e069dbe14117e537cc0a0e869", "is_disabled": 0, "is_reserved": 0}, {"rental_uris": {"ios": "https://dc.lft.to/lastmile_qr_scan", "android": "https://dc.lft.to/lastmile_qr_scan"}, "lon": -77.002826, "type": "electric_scooter", "fusion_lat": 0.0, "lat": 38.9089435, "name": "cd2fe59c4b935faa5bbfd7ab6007e679", "fusion_lon": 0.0, "bike_id": "cd2fe59c4b935faa5bbfd7ab6007e679", "is_disabled": 0, "is_reserved": 0}, {"rental_uris": {"ios": "https://dc.lft.to/lastmile_qr_scan", "android": "https://dc.lft.to/lastmile_qr_scan"}, "lon": -77.02704683333333, "type": "electric_scooter", "fusion_lat": 0.0, "lat": 38.91799, "name": "b5670dc384cc234414bac8ae651d1e97", "fusion_lon": 0.0, "bike_id": "b5670dc384cc234414bac8ae651d1e97", "is_disabled": 0, "is_reserved": 0}, {"rental_uris": {"ios": "https://dc.lft.to/lastmile_qr_scan", "android": "https://dc.lft.to/lastmile_qr_scan"}, "lon": -77.0792875, "type": "electric_scooter", "fusion_lat": 0.0, "lat": 38.948721, "name": "a272ec44c847c5b4654301b19cececd5", "fusion_lon": 0.0, "bike_id": "a272ec44c847c5b4654301b19cececd5", "is_disabled": 0, "is_reserved": 0}, {"rental_uris": {"ios": "https://dc.lft.to/lastmile_qr_scan", "android": "https://dc.lft.to/lastmile_qr_scan"}, "lon": -76.92994666666667, "type": "electric_bike", "fusion_lat": 0.0, "lat": 38.88792683333333, "name": "55a3b0a00e8813a9c542925b6d457360", "fusion_lon": 0.0, "bike_id": "55a3b0a00e8813a9c542925b6d457360", "is_disabled": 0, "is_reserved": 0}, {"rental_uris": {"ios": "https://dc.lft.to/lastmile_qr_scan", "android": "https://dc.lft.to/lastmile_qr_scan"}, "lon": -77.04925166666666, "type": "electric_scooter", "fusion_lat": 0.0, "lat": 38.89605666666667, "name": "6ac80f5995a0993383c19fcf5bf167ab", "fusion_lon": 0.0, "bike_id": "6ac80f5995a0993383c19fcf5bf167ab", "is_disabled": 0, "is_reserved": 0}, {"rental_uris": {"ios": "https://dc.lft.to/lastmile_qr_scan", "android": "https://dc.lft.to/lastmile_qr_scan"}, "lon": -77.02583783333333, "type": "electric_scooter", "fusion_lat": 0.0, "lat": 38.899611666666665, "name": "f0ed481ebe3cb4e302bf2690700524b0", "fusion_lon": 0.0, "bike_id": "f0ed481ebe3cb4e302bf2690700524b0", "is_disabled": 0, "is_reserved": 0}, {"rental_uris": {"ios": "https://dc.lft.to/lastmile_qr_scan", "android": "https://dc.lft.to/lastmile_qr_scan"}, "lon": -76.990167, "type": "electric_scooter", "fusion_lat": 0.0, "lat": 38.858735, "name": "7085be778e8191214c1ebae40e0714d9", "fusion_lon": 0.0, "bike_id": "7085be778e8191214c1ebae40e0714d9", "is_disabled": 0, "is_reserved": 0}, {"rental_uris": {"ios": "https://dc.lft.to/lastmile_qr_scan", "android": "https://dc.lft.to/lastmile_qr_scan"}, "lon": -77.18286383333333, "type": "electric_bike", "fusion_lat": 0.0, "lat": 38.883425, "name": "9fff0c78c998ef2e148175fbeeddb450", "fusion_lon": 0.0, "bike_id": "9fff0c78c998ef2e148175fbeeddb450", "is_disabled": 0, "is_reserved": 0}, {"rental_uris": {"ios": "https://dc.lft.to/lastmile_qr_scan", "android": "https://dc.lft.to/lastmile_qr_scan"}, "lon": -76.9500095, "type": "electric_scooter", "fusion_lat": 0.0, "lat": 38.893736833333335, "name": "ac150ec872c7d4e71af0aa15d34953cf", "fusion_lon": 0.0, "bike_id": "ac150ec872c7d4e71af0aa15d34953cf", "is_disabled": 0, "is_reserved": 0}, {"rental_uris": {"ios": "https://dc.lft.to/lastmile_qr_scan", "android": "https://dc.lft.to/lastmile_qr_scan"}, "lon": -77.05902366666666, "type": "electric_scooter", "fusion_lat": 0.0, "lat": 38.936042666666665, "name": "b044da625e6096c9e7b4bb192cfa2621", "fusion_lon": 0.0, "bike_id": "b044da625e6096c9e7b4bb192cfa2621", "is_disabled": 0, "is_reserved": 0}, {"rental_uris": {"ios": "https://dc.lft.to/lastmile_qr_scan", "android": "https://dc.lft.to/lastmile_qr_scan"}, "lon": -77.0826495, "type": "electric_scooter", "fusion_lat": 0.0, "lat": 38.930332, "name": "30c594e6f8cf63d98c49a1dc4702c112", "fusion_lon": 0.0, "bike_id": "30c594e6f8cf63d98c49a1dc4702c112", "is_disabled": 0, "is_reserved": 0}, {"rental_uris": {"ios": "https://dc.lft.to/lastmile_qr_scan", "android": "https://dc.lft.to/lastmile_qr_scan"}, "lon": -77.03299766666666, "type": "electric_scooter", "fusion_lat": 0.0, "lat": 38.90123616666666, "name": "952e17633647f4090dd9f84b7191033f", "fusion_lon": 0.0, "bike_id": "952e17633647f4090dd9f84b7191033f", "is_disabled": 0, "is_reserved": 0}, {"rental_uris": {"ios": "https://dc.lft.to/lastmile_qr_scan", "android": "https://dc.lft.to/lastmile_qr_scan"}, "lon": -77.0331835, "type": "electric_scooter", "fusion_lat": 0.0, "lat": 38.9014365, "name": "2584169d0163dd12b1eba61c81d98544", "fusion_lon": 0.0, "bike_id": "2584169d0163dd12b1eba61c81d98544", "is_disabled": 0, "is_reserved": 0}, {"rental_uris": {"ios": "https://dc.lft.to/lastmile_qr_scan", "android": "https://dc.lft.to/lastmile_qr_scan"}, "lon": -77.04493333333333, "type": "electric_scooter", "fusion_lat": 0.0, "lat": 38.90651783333333, "name": "5db00a9fd5a670a32fc4e69eb81c84b6", "fusion_lon": 0.0, "bike_id": "5db00a9fd5a670a32fc4e69eb81c84b6", "is_disabled": 0, "is_reserved": 0}, {"rental_uris": {"ios": "https://dc.lft.to/lastmile_qr_scan", "android": "https://dc.lft.to/lastmile_qr_scan"}, "lon": -77.05706483333333, "type": "electric_scooter", "fusion_lat": 0.0, "lat": 38.905382833333334, "name": "020fba4ec195daa1269adc63e886efa8", "fusion_lon": 0.0, "bike_id": "020fba4ec195daa1269adc63e886efa8", "is_disabled": 0, "is_reserved": 0}, {"rental_uris": {"ios": "https://dc.lft.to/lastmile_qr_scan", "android": "https://dc.lft.to/lastmile_qr_scan"}, "lon": -76.97825616666667, "type": "electric_scooter", "fusion_lat": 0.0, "lat": 38.895142, "name": "dadaea1e2289091ce6fb65e4125f10df", "fusion_lon": 0.0, "bike_id": "dadaea1e2289091ce6fb65e4125f10df", "is_disabled": 0, "is_reserved": 0}, {"rental_uris": {"ios": "https://dc.lft.to/lastmile_qr_scan", "android": "https://dc.lft.to/lastmile_qr_scan"}, "lon": -77.05030116666667, "type": "electric_scooter", "fusion_lat": 0.0, "lat": 38.90074166666667, "name": "83888b7d25e5021cde9d8f41be4e86c0", "fusion_lon": 0.0, "bike_id": "83888b7d25e5021cde9d8f41be4e86c0", "is_disabled": 0, "is_reserved": 0}, {"rental_uris": {"ios": "https://dc.lft.to/lastmile_qr_scan", "android": "https://dc.lft.to/lastmile_qr_scan"}, "lon": -77.01747166666667, "type": "electric_scooter", "fusion_lat": 0.0, "lat": 38.905538, "name": "7693fc1eae11bc3a5a6af6bfdf2d6329", "fusion_lon": 0.0, "bike_id": "7693fc1eae11bc3a5a6af6bfdf2d6329", "is_disabled": 0, "is_reserved": 0}, {"rental_uris": {"ios": "https://dc.lft.to/lastmile_qr_scan", "android": "https://dc.lft.to/lastmile_qr_scan"}, "lon": -77.01659583333333, "type": "electric_scooter", "fusion_lat": 0.0, "lat": 38.913919, "name": "618dcff779a12d847e16ce51ab62a8ba", "fusion_lon": 0.0, "bike_id": "618dcff779a12d847e16ce51ab62a8ba", "is_disabled": 0, "is_reserved": 0}, {"rental_uris": {"ios": "https://dc.lft.to/lastmile_qr_scan", "android": "https://dc.lft.to/lastmile_qr_scan"}, "lon": -77.0143285, "type": "electric_scooter", "fusion_lat": 0.0, "lat": 38.92982033333333, "name": "badf1b32bd7771adf2704be2014e3973", "fusion_lon": 0.0, "bike_id": "badf1b32bd7771adf2704be2014e3973", "is_disabled": 0, "is_reserved": 0}, {"rental_uris": {"ios": "https://dc.lft.to/lastmile_qr_scan", "android": "https://dc.lft.to/lastmile_qr_scan"}, "lon": -77.0261225, "type": "electric_scooter", "fusion_lat": 0.0, "lat": 38.9170275, "name": "718ef80728fcc7c6b3672f8f85d5159f", "fusion_lon": 0.0, "bike_id": "718ef80728fcc7c6b3672f8f85d5159f", "is_disabled": 0, "is_reserved": 0}, {"rental_uris": {"ios": "https://dc.lft.to/lastmile_qr_scan", "android": "https://dc.lft.to/lastmile_qr_scan"}, "lon": -77.03849183333334, "type": "electric_scooter", "fusion_lat": 0.0, "lat": 38.903831, "name": "398cf186ab1ab42353c94e6c45e0f2ab", "fusion_lon": 0.0, "bike_id": "398cf186ab1ab42353c94e6c45e0f2ab", "is_disabled": 0, "is_reserved": 0}, {"rental_uris": {"ios": "https://dc.lft.to/lastmile_qr_scan", "android": "https://dc.lft.to/lastmile_qr_scan"}, "lon": -77.032508, "type": "electric_scooter", "fusion_lat": 0.0, "lat": 38.9059145, "name": "ce74b598b2e3ab93ad55418946efa250", "fusion_lon": 0.0, "bike_id": "ce74b598b2e3ab93ad55418946efa250", "is_disabled": 0, "is_reserved": 0}, {"rental_uris": {"ios": "https://dc.lft.to/lastmile_qr_scan", "android": "https://dc.lft.to/lastmile_qr_scan"}, "lon": -77.01502116666667, "type": "electric_scooter", "fusion_lat": 0.0, "lat": 38.87207016666667, "name": "6253058fec48b09cb13df35fbe95aa41", "fusion_lon": 0.0, "bike_id": "6253058fec48b09cb13df35fbe95aa41", "is_disabled": 0, "is_reserved": 0}, {"rental_uris": {"ios": "https://dc.lft.to/lastmile_qr_scan", "android": "https://dc.lft.to/lastmile_qr_scan"}, "lon": -77.001306, "type": "electric_bike", "fusion_lat": 0.0, "lat": 38.95871666666667, "name": "8413f50bec8b0ab90c4d8ca7b788d891", "fusion_lon": 0.0, "bike_id": "8413f50bec8b0ab90c4d8ca7b788d891", "is_disabled": 0, "is_reserved": 0}, {"rental_uris": {"ios": "https://dc.lft.to/lastmile_qr_scan", "android": "https://dc.lft.to/lastmile_qr_scan"}, "lon": -77.05563266666667, "type": "electric_scooter", "fusion_lat": 0.0, "lat": 38.898534166666664, "name": "8609b5d1b0912523c25d7795b38ae22a", "fusion_lon": 0.0, "bike_id": "8609b5d1b0912523c25d7795b38ae22a", "is_disabled": 0, "is_reserved": 0}, {"rental_uris": {"ios": "https://dc.lft.to/lastmile_qr_scan", "android": "https://dc.lft.to/lastmile_qr_scan"}, "lon": -77.0020375, "type": "electric_scooter", "fusion_lat": 0.0, "lat": 38.8997515, "name": "e6f02559c03c7def24e9d578f4618fe9", "fusion_lon": 0.0, "bike_id": "e6f02559c03c7def24e9d578f4618fe9", "is_disabled": 0, "is_reserved": 0}, {"rental_uris": {"ios": "https://dc.lft.to/lastmile_qr_scan", "android": "https://dc.lft.to/lastmile_qr_scan"}, "lon": -77.12498766666667, "type": "electric_bike", "fusion_lat": 0.0, "lat": 39.024196, "name": "471cb428b1bb38675149f5f18de46a64", "fusion_lon": 0.0, "bike_id": "471cb428b1bb38675149f5f18de46a64", "is_disabled": 0, "is_reserved": 0}, {"rental_uris": {"ios": "https://dc.lft.to/lastmile_qr_scan", "android": "https://dc.lft.to/lastmile_qr_scan"}, "lon": -77.0198215, "type": "electric_bike", "fusion_lat": 0.0, "lat": 38.96475233333334, "name": "48a4b6a8ad535948e94ee988633cc158", "fusion_lon": 0.0, "bike_id": "48a4b6a8ad535948e94ee988633cc158", "is_disabled": 0, "is_reserved": 0}, {"rental_uris": {"ios": "https://dc.lft.to/lastmile_qr_scan", "android": "https://dc.lft.to/lastmile_qr_scan"}, "lon": -77.05495733333333, "type": "electric_scooter", "fusion_lat": 0.0, "lat": 38.92971433333334, "name": "dd0c2fb1893b91aec8d129fe8051d9ea", "fusion_lon": 0.0, "bike_id": "dd0c2fb1893b91aec8d129fe8051d9ea", "is_disabled": 0, "is_reserved": 0}, {"rental_uris": {"ios": "https://dc.lft.to/lastmile_qr_scan", "android": "https://dc.lft.to/lastmile_qr_scan"}, "lon": -77.03075166666666, "type": "electric_scooter", "fusion_lat": 0.0, "lat": 38.90754183333333, "name": "e7331147a00c9562e42b29df45bc080b", "fusion_lon": 0.0, "bike_id": "e7331147a00c9562e42b29df45bc080b", "is_disabled": 0, "is_reserved": 0}, {"rental_uris": {"ios": "https://dc.lft.to/lastmile_qr_scan", "android": "https://dc.lft.to/lastmile_qr_scan"}, "lon": -77.04014266666667, "type": "electric_scooter", "fusion_lat": 0.0, "lat": 38.91799433333333, "name": "aef09963d03c2721a1fcd3667b60f3ca", "fusion_lon": 0.0, "bike_id": "aef09963d03c2721a1fcd3667b60f3ca", "is_disabled": 0, "is_reserved": 0}, {"rental_uris": {"ios": "https://dc.lft.to/lastmile_qr_scan", "android": "https://dc.lft.to/lastmile_qr_scan"}, "lon": -77.0322315, "type": "electric_scooter", "fusion_lat": 0.0, "lat": 38.91408283333333, "name": "45f0e81bc83688c5fe7c5c077bc6bdd3", "fusion_lon": 0.0, "bike_id": "45f0e81bc83688c5fe7c5c077bc6bdd3", "is_disabled": 0, "is_reserved": 0}, {"rental_uris": {"ios": "https://dc.lft.to/lastmile_qr_scan", "android": "https://dc.lft.to/lastmile_qr_scan"}, "lon": -76.957575, "type": "electric_scooter", "fusion_lat": 0.0, "lat": 38.88433366666667, "name": "3501ee42548d24b84c0fd870c0c53b87", "fusion_lon": 0.0, "bike_id": "3501ee42548d24b84c0fd870c0c53b87", "is_disabled": 0, "is_reserved": 0}, {"rental_uris": {"ios": "https://dc.lft.to/lastmile_qr_scan", "android": "https://dc.lft.to/lastmile_qr_scan"}, "lon": -77.06800066666666, "type": "electric_scooter", "fusion_lat": 0.0, "lat": 38.91564283333334, "name": "afc064d22df80fba327167f7ef2b1bf5", "fusion_lon": 0.0, "bike_id": "afc064d22df80fba327167f7ef2b1bf5", "is_disabled": 0, "is_reserved": 0}, {"rental_uris": {"ios": "https://dc.lft.to/lastmile_qr_scan", "android": "https://dc.lft.to/lastmile_qr_scan"}, "lon": -77.043366, "type": "electric_scooter", "fusion_lat": 0.0, "lat": 38.8966525, "name": "5696d82c440342730f3d5bcf851569e5", "fusion_lon": 0.0, "bike_id": "5696d82c440342730f3d5bcf851569e5", "is_disabled": 0, "is_reserved": 0}, {"rental_uris": {"ios": "https://dc.lft.to/lastmile_qr_scan", "android": "https://dc.lft.to/lastmile_qr_scan"}, "lon": -77.04664383333333, "type": "electric_scooter", "fusion_lat": 0.0, "lat": 38.893338, "name": "6b0da5af471fd8e3ecc72ab62bf57827", "fusion_lon": 0.0, "bike_id": "6b0da5af471fd8e3ecc72ab62bf57827", "is_disabled": 0, "is_reserved": 0}, {"rental_uris": {"ios": "https://dc.lft.to/lastmile_qr_scan", "android": "https://dc.lft.to/lastmile_qr_scan"}, "lon": -76.93175933333333, "type": "electric_scooter", "fusion_lat": 0.0, "lat": 38.8988285, "name": "0a67f08588bac5593075c4ee81504309", "fusion_lon": 0.0, "bike_id": "0a67f08588bac5593075c4ee81504309", "is_disabled": 0, "is_reserved": 0}, {"rental_uris": {"ios": "https://dc.lft.to/lastmile_qr_scan", "android": "https://dc.lft.to/lastmile_qr_scan"}, "lon": -77.12011716666666, "type": "electric_bike", "fusion_lat": 0.0, "lat": 38.855068833333334, "name": "e604d5f5a4954d8cbf91f77cf269fbc7", "fusion_lon": 0.0, "bike_id": "e604d5f5a4954d8cbf91f77cf269fbc7", "is_disabled": 0, "is_reserved": 0}, {"rental_uris": {"ios": "https://dc.lft.to/lastmile_qr_scan", "android": "https://dc.lft.to/lastmile_qr_scan"}, "lon": -77.00063766666666, "type": "electric_scooter", "fusion_lat": 0.0, "lat": 38.9057845, "name": "8d544538c1c3b1226ad84c1c2ab0c2b1", "fusion_lon": 0.0, "bike_id": "8d544538c1c3b1226ad84c1c2ab0c2b1", "is_disabled": 0, "is_reserved": 0}, {"rental_uris": {"ios": "https://dc.lft.to/lastmile_qr_scan", "android": "https://dc.lft.to/lastmile_qr_scan"}, "lon": -77.037651, "type": "electric_scooter", "fusion_lat": 0.0, "lat": 38.9288185, "name": "651ed6f55a69988d8318dab15c4b40c0", "fusion_lon": 0.0, "bike_id": "651ed6f55a69988d8318dab15c4b40c0", "is_disabled": 0, "is_reserved": 0}, {"rental_uris": {"ios": "https://dc.lft.to/lastmile_qr_scan", "android": "https://dc.lft.to/lastmile_qr_scan"}, "lon": -77.02611216666666, "type": "electric_scooter", "fusion_lat": 0.0, "lat": 38.9170945, "name": "59be6d7f464e30e9e6d48046e4033ae6", "fusion_lon": 0.0, "bike_id": "59be6d7f464e30e9e6d48046e4033ae6", "is_disabled": 0, "is_reserved": 0}, {"rental_uris": {"ios": "https://dc.lft.to/lastmile_qr_scan", "android": "https://dc.lft.to/lastmile_qr_scan"}, "lon": -77.026939, "type": "electric_bike", "fusion_lat": 0.0, "lat": 38.90686566666667, "name": "b270e80e14e6ef45923efbfd634a3051", "fusion_lon": 0.0, "bike_id": "b270e80e14e6ef45923efbfd634a3051", "is_disabled": 0, "is_reserved": 0}, {"rental_uris": {"ios": "https://dc.lft.to/lastmile_qr_scan", "android": "https://dc.lft.to/lastmile_qr_scan"}, "lon": -77.05935366666667, "type": "electric_scooter", "fusion_lat": 0.0, "lat": 38.909444, "name": "fadaf27f0599918c9bf4e79eddc781a0", "fusion_lon": 0.0, "bike_id": "fadaf27f0599918c9bf4e79eddc781a0", "is_disabled": 0, "is_reserved": 0}, {"rental_uris": {"ios": "https://dc.lft.to/lastmile_qr_scan", "android": "https://dc.lft.to/lastmile_qr_scan"}, "lon": -76.99552516666667, "type": "electric_scooter", "fusion_lat": 0.0, "lat": 38.862316, "name": "084137b780dc3039164e65c2ed81476d", "fusion_lon": 0.0, "bike_id": "084137b780dc3039164e65c2ed81476d", "is_disabled": 0, "is_reserved": 0}, {"rental_uris": {"ios": "https://dc.lft.to/lastmile_qr_scan", "android": "https://dc.lft.to/lastmile_qr_scan"}, "lon": -77.04295633333334, "type": "electric_scooter", "fusion_lat": 0.0, "lat": 38.90658916666667, "name": "68e2fab7d423b70b33ba827a768af2a1", "fusion_lon": 0.0, "bike_id": "68e2fab7d423b70b33ba827a768af2a1", "is_disabled": 0, "is_reserved": 0}, {"rental_uris": {"ios": "https://dc.lft.to/lastmile_qr_scan", "android": "https://dc.lft.to/lastmile_qr_scan"}, "lon": -77.03208183333334, "type": "electric_scooter", "fusion_lat": 0.0, "lat": 38.91455233333333, "name": "280b1c9e31aeae49c5b26f53e5bba928", "fusion_lon": 0.0, "bike_id": "280b1c9e31aeae49c5b26f53e5bba928", "is_disabled": 0, "is_reserved": 0}, {"rental_uris": {"ios": "https://dc.lft.to/lastmile_qr_scan", "android": "https://dc.lft.to/lastmile_qr_scan"}, "lon": -77.01988883333334, "type": "electric_scooter", "fusion_lat": 0.0, "lat": 38.9377365, "name": "d8b49ce3567a4fe87011c8f0c56b1198", "fusion_lon": 0.0, "bike_id": "d8b49ce3567a4fe87011c8f0c56b1198", "is_disabled": 0, "is_reserved": 0}, {"rental_uris": {"ios": "https://dc.lft.to/lastmile_qr_scan", "android": "https://dc.lft.to/lastmile_qr_scan"}, "lon": -76.9831005, "type": "electric_scooter", "fusion_lat": 0.0, "lat": 38.89963916666667, "name": "2ba048cb442131db1d0bc1c06287c565", "fusion_lon": 0.0, "bike_id": "2ba048cb442131db1d0bc1c06287c565", "is_disabled": 0, "is_reserved": 0}, {"rental_uris": {"ios": "https://dc.lft.to/lastmile_qr_scan", "android": "https://dc.lft.to/lastmile_qr_scan"}, "lon": -77.031448, "type": "electric_scooter", "fusion_lat": 0.0, "lat": 38.91267066666666, "name": "0cf07a1de97bcf70d32ef6f65290bf38", "fusion_lon": 0.0, "bike_id": "0cf07a1de97bcf70d32ef6f65290bf38", "is_disabled": 0, "is_reserved": 0}, {"rental_uris": {"ios": "https://dc.lft.to/lastmile_qr_scan", "android": "https://dc.lft.to/lastmile_qr_scan"}, "lon": -77.06467566666667, "type": "electric_scooter", "fusion_lat": 0.0, "lat": 38.90502016666667, "name": "4446f6e4b9ac5547d52c4db5448b6ffc", "fusion_lon": 0.0, "bike_id": "4446f6e4b9ac5547d52c4db5448b6ffc", "is_disabled": 0, "is_reserved": 0}, {"rental_uris": {"ios": "https://dc.lft.to/lastmile_qr_scan", "android": "https://dc.lft.to/lastmile_qr_scan"}, "lon": -77.01017133333333, "type": "electric_scooter", "fusion_lat": 0.0, "lat": 38.918009833333336, "name": "6e25498df62ea3a9335b68368d5a5056", "fusion_lon": 0.0, "bike_id": "6e25498df62ea3a9335b68368d5a5056", "is_disabled": 0, "is_reserved": 0}, {"rental_uris": {"ios": "https://dc.lft.to/lastmile_qr_scan", "android": "https://dc.lft.to/lastmile_qr_scan"}, "lon": -76.98990566666667, "type": "electric_scooter", "fusion_lat": 0.0, "lat": 38.903862833333335, "name": "146522dc5e9391cf25f827e833d9c89b", "fusion_lon": 0.0, "bike_id": "146522dc5e9391cf25f827e833d9c89b", "is_disabled": 0, "is_reserved": 0}, {"rental_uris": {"ios": "https://dc.lft.to/lastmile_qr_scan", "android": "https://dc.lft.to/lastmile_qr_scan"}, "lon": -77.00559133333333, "type": "electric_scooter", "fusion_lat": 0.0, "lat": 38.87172066666667, "name": "45fad4575d3038da6d10a65be170a459", "fusion_lon": 0.0, "bike_id": "45fad4575d3038da6d10a65be170a459", "is_disabled": 0, "is_reserved": 0}, {"rental_uris": {"ios": "https://dc.lft.to/lastmile_qr_scan", "android": "https://dc.lft.to/lastmile_qr_scan"}, "lon": -77.04369183333333, "type": "electric_scooter", "fusion_lat": 0.0, "lat": 38.920904666666665, "name": "6fae619b39e2b769fd75d2386cc88759", "fusion_lon": 0.0, "bike_id": "6fae619b39e2b769fd75d2386cc88759", "is_disabled": 0, "is_reserved": 0}, {"rental_uris": {"ios": "https://dc.lft.to/lastmile_qr_scan", "android": "https://dc.lft.to/lastmile_qr_scan"}, "lon": -77.04007433333334, "type": "electric_scooter", "fusion_lat": 0.0, "lat": 38.91817916666667, "name": "97cf612681552d0ea0aa202a67042e51", "fusion_lon": 0.0, "bike_id": "97cf612681552d0ea0aa202a67042e51", "is_disabled": 0, "is_reserved": 0}, {"rental_uris": {"ios": "https://dc.lft.to/lastmile_qr_scan", "android": "https://dc.lft.to/lastmile_qr_scan"}, "lon": -77.04709933333334, "type": "electric_scooter", "fusion_lat": 0.0, "lat": 38.897241, "name": "be54accd7250a1e7b09c6c48c205d162", "fusion_lon": 0.0, "bike_id": "be54accd7250a1e7b09c6c48c205d162", "is_disabled": 0, "is_reserved": 0}, {"rental_uris": {"ios": "https://dc.lft.to/lastmile_qr_scan", "android": "https://dc.lft.to/lastmile_qr_scan"}, "lon": -76.99151883333333, "type": "electric_scooter", "fusion_lat": 0.0, "lat": 38.893418, "name": "f31e1378acd05a3944ebcbef9a4a530d", "fusion_lon": 0.0, "bike_id": "f31e1378acd05a3944ebcbef9a4a530d", "is_disabled": 0, "is_reserved": 0}, {"rental_uris": {"ios": "https://dc.lft.to/lastmile_qr_scan", "android": "https://dc.lft.to/lastmile_qr_scan"}, "lon": -77.10965816666666, "type": "electric_bike", "fusion_lat": 0.0, "lat": 38.8130455, "name": "65b73501d1703357e49311f292018741", "fusion_lon": 0.0, "bike_id": "65b73501d1703357e49311f292018741", "is_disabled": 0, "is_reserved": 0}, {"rental_uris": {"ios": "https://dc.lft.to/lastmile_qr_scan", "android": "https://dc.lft.to/lastmile_qr_scan"}, "lon": -76.9733085, "type": "electric_scooter", "fusion_lat": 0.0, "lat": 38.904819333333336, "name": "b5c477603f07ae48aece49a823978432", "fusion_lon": 0.0, "bike_id": "b5c477603f07ae48aece49a823978432", "is_disabled": 0, "is_reserved": 0}, {"rental_uris": {"ios": "https://dc.lft.to/lastmile_qr_scan", "android": "https://dc.lft.to/lastmile_qr_scan"}, "lon": -77.05800633333334, "type": "electric_scooter", "fusion_lat": 0.0, "lat": 38.902907666666664, "name": "d3747a40b51d9a0fb3d5a571a4db67e7", "fusion_lon": 0.0, "bike_id": "d3747a40b51d9a0fb3d5a571a4db67e7", "is_disabled": 0, "is_reserved": 0}, {"rental_uris": {"ios": "https://dc.lft.to/lastmile_qr_scan", "android": "https://dc.lft.to/lastmile_qr_scan"}, "lon": -77.02530016666667, "type": "electric_scooter", "fusion_lat": 0.0, "lat": 38.92086366666667, "name": "002ef8067e5649e5515b23b224f447f2", "fusion_lon": 0.0, "bike_id": "002ef8067e5649e5515b23b224f447f2", "is_disabled": 0, "is_reserved": 0}, {"rental_uris": {"ios": "https://dc.lft.to/lastmile_qr_scan", "android": "https://dc.lft.to/lastmile_qr_scan"}, "lon": -77.02228816666667, "type": "electric_scooter", "fusion_lat": 0.0, "lat": 38.914184666666664, "name": "e4abc926bc196e503ec4584837368e2e", "fusion_lon": 0.0, "bike_id": "e4abc926bc196e503ec4584837368e2e", "is_disabled": 0, "is_reserved": 0}, {"rental_uris": {"ios": "https://dc.lft.to/lastmile_qr_scan", "android": "https://dc.lft.to/lastmile_qr_scan"}, "lon": -77.03370566666666, "type": "electric_scooter", "fusion_lat": 0.0, "lat": 38.914199333333336, "name": "a95784746704a8dac2029f82f11e68b2", "fusion_lon": 0.0, "bike_id": "a95784746704a8dac2029f82f11e68b2", "is_disabled": 0, "is_reserved": 0}, {"rental_uris": {"ios": "https://dc.lft.to/lastmile_qr_scan", "android": "https://dc.lft.to/lastmile_qr_scan"}, "lon": -77.04442783333333, "type": "electric_scooter", "fusion_lat": 0.0, "lat": 38.91860366666667, "name": "892cfa2bb0835806f475710c2d52f986", "fusion_lon": 0.0, "bike_id": "892cfa2bb0835806f475710c2d52f986", "is_disabled": 0, "is_reserved": 0}, {"rental_uris": {"ios": "https://dc.lft.to/lastmile_qr_scan", "android": "https://dc.lft.to/lastmile_qr_scan"}, "lon": -77.0105, "type": "electric_scooter", "fusion_lat": 0.0, "lat": 38.87928983333333, "name": "1312b116cb768b6da79c52cea38db34e", "fusion_lon": 0.0, "bike_id": "1312b116cb768b6da79c52cea38db34e", "is_disabled": 0, "is_reserved": 0}, {"rental_uris": {"ios": "https://dc.lft.to/lastmile_qr_scan", "android": "https://dc.lft.to/lastmile_qr_scan"}, "lon": -76.96630883333333, "type": "electric_bike", "fusion_lat": 0.0, "lat": 38.9419525, "name": "4a669aab052ce91fe9a2d5d7f3e22214", "fusion_lon": 0.0, "bike_id": "4a669aab052ce91fe9a2d5d7f3e22214", "is_disabled": 0, "is_reserved": 0}, {"rental_uris": {"ios": "https://dc.lft.to/lastmile_qr_scan", "android": "https://dc.lft.to/lastmile_qr_scan"}, "lon": -77.03011216666667, "type": "electric_scooter", "fusion_lat": 0.0, "lat": 38.904981166666666, "name": "5e29d2ffcd9298ffa5b4f2e02d8b3fc8", "fusion_lon": 0.0, "bike_id": "5e29d2ffcd9298ffa5b4f2e02d8b3fc8", "is_disabled": 0, "is_reserved": 0}, {"rental_uris": {"ios": "https://dc.lft.to/lastmile_qr_scan", "android": "https://dc.lft.to/lastmile_qr_scan"}, "lon": -77.02098833333334, "type": "electric_scooter", "fusion_lat": 0.0, "lat": 38.91312216666667, "name": "0e1875eaeee2195bbb1ac8d8a7faf25e", "fusion_lon": 0.0, "bike_id": "0e1875eaeee2195bbb1ac8d8a7faf25e", "is_disabled": 0, "is_reserved": 0}, {"rental_uris": {"ios": "https://dc.lft.to/lastmile_qr_scan", "android": "https://dc.lft.to/lastmile_qr_scan"}, "lon": -77.00198633333333, "type": "electric_bike", "fusion_lat": 0.0, "lat": 38.90552383333333, "name": "1143f8e5b0218d502b1fe81540f5e9f3", "fusion_lon": 0.0, "bike_id": "1143f8e5b0218d502b1fe81540f5e9f3", "is_disabled": 0, "is_reserved": 0}, {"rental_uris": {"ios": "https://dc.lft.to/lastmile_qr_scan", "android": "https://dc.lft.to/lastmile_qr_scan"}, "lon": -77.0230145, "type": "electric_scooter", "fusion_lat": 0.0, "lat": 38.9329745, "name": "b428dbec8e0010bc410f452c3a3527fa", "fusion_lon": 0.0, "bike_id": "b428dbec8e0010bc410f452c3a3527fa", "is_disabled": 0, "is_reserved": 0}, {"rental_uris": {"ios": "https://dc.lft.to/lastmile_qr_scan", "android": "https://dc.lft.to/lastmile_qr_scan"}, "lon": -76.93803683333333, "type": "electric_scooter", "fusion_lat": 0.0, "lat": 38.88234383333333, "name": "4095f17202747aab8c418daea9bd0e65", "fusion_lon": 0.0, "bike_id": "4095f17202747aab8c418daea9bd0e65", "is_disabled": 0, "is_reserved": 0}, {"rental_uris": {"ios": "https://dc.lft.to/lastmile_qr_scan", "android": "https://dc.lft.to/lastmile_qr_scan"}, "lon": -77.00980666666666, "type": "electric_scooter", "fusion_lat": 0.0, "lat": 38.914857, "name": "f9adaec944d6aa0ad01c9ab25379f571", "fusion_lon": 0.0, "bike_id": "f9adaec944d6aa0ad01c9ab25379f571", "is_disabled": 0, "is_reserved": 0}, {"rental_uris": {"ios": "https://dc.lft.to/lastmile_qr_scan", "android": "https://dc.lft.to/lastmile_qr_scan"}, "lon": -77.02802766666667, "type": "electric_scooter", "fusion_lat": 0.0, "lat": 38.917619, "name": "03b33465f4ea94e7d177c97d57121963", "fusion_lon": 0.0, "bike_id": "03b33465f4ea94e7d177c97d57121963", "is_disabled": 0, "is_reserved": 0}, {"rental_uris": {"ios": "https://dc.lft.to/lastmile_qr_scan", "android": "https://dc.lft.to/lastmile_qr_scan"}, "lon": -77.02697366666666, "type": "electric_scooter", "fusion_lat": 0.0, "lat": 38.9497905, "name": "31e9539f98dc283e7623db2570e1f4ba", "fusion_lon": 0.0, "bike_id": "31e9539f98dc283e7623db2570e1f4ba", "is_disabled": 0, "is_reserved": 0}, {"rental_uris": {"ios": "https://dc.lft.to/lastmile_qr_scan", "android": "https://dc.lft.to/lastmile_qr_scan"}, "lon": -77.026925, "type": "electric_scooter", "fusion_lat": 0.0, "lat": 38.91896333333333, "name": "09fdfda5a65b1f098f69a4219a7f167c", "fusion_lon": 0.0, "bike_id": "09fdfda5a65b1f098f69a4219a7f167c", "is_disabled": 0, "is_reserved": 0}, {"rental_uris": {"ios": "https://dc.lft.to/lastmile_qr_scan", "android": "https://dc.lft.to/lastmile_qr_scan"}, "lon": -76.9951665, "type": "electric_scooter", "fusion_lat": 0.0, "lat": 38.862580666666666, "name": "efeec0492c9cca989746311967c77dcf", "fusion_lon": 0.0, "bike_id": "efeec0492c9cca989746311967c77dcf", "is_disabled": 0, "is_reserved": 0}, {"rental_uris": {"ios": "https://dc.lft.to/lastmile_qr_scan", "android": "https://dc.lft.to/lastmile_qr_scan"}, "lon": -77.0501715, "type": "electric_scooter", "fusion_lat": 0.0, "lat": 38.92369633333333, "name": "877d875b3d6f0a659af63b5a82334fe0", "fusion_lon": 0.0, "bike_id": "877d875b3d6f0a659af63b5a82334fe0", "is_disabled": 0, "is_reserved": 0}, {"rental_uris": {"ios": "https://dc.lft.to/lastmile_qr_scan", "android": "https://dc.lft.to/lastmile_qr_scan"}, "lon": -77.037636, "type": "electric_scooter", "fusion_lat": 0.0, "lat": 38.928870833333335, "name": "4836262c1b0d6b96af8e18992e2bdda2", "fusion_lon": 0.0, "bike_id": "4836262c1b0d6b96af8e18992e2bdda2", "is_disabled": 0, "is_reserved": 0}, {"rental_uris": {"ios": "https://dc.lft.to/lastmile_qr_scan", "android": "https://dc.lft.to/lastmile_qr_scan"}, "lon": -77.04655933333333, "type": "electric_scooter", "fusion_lat": 0.0, "lat": 38.8924825, "name": "e21861c7f2bebb8b967f855e5a7d1b26", "fusion_lon": 0.0, "bike_id": "e21861c7f2bebb8b967f855e5a7d1b26", "is_disabled": 0, "is_reserved": 0}, {"rental_uris": {"ios": "https://dc.lft.to/lastmile_qr_scan", "android": "https://dc.lft.to/lastmile_qr_scan"}, "lon": -77.00609516666667, "type": "electric_scooter", "fusion_lat": 0.0, "lat": 38.903799, "name": "1ad7bde9ab24ca02a5f40bb4b86c241d", "fusion_lon": 0.0, "bike_id": "1ad7bde9ab24ca02a5f40bb4b86c241d", "is_disabled": 0, "is_reserved": 0}, {"rental_uris": {"ios": "https://dc.lft.to/lastmile_qr_scan", "android": "https://dc.lft.to/lastmile_qr_scan"}, "lon": -77.0143985, "type": "electric_scooter", "fusion_lat": 0.0, "lat": 38.92988283333333, "name": "dd4ee956dd142ca2c159b2d9901f8776", "fusion_lon": 0.0, "bike_id": "dd4ee956dd142ca2c159b2d9901f8776", "is_disabled": 0, "is_reserved": 0}, {"rental_uris": {"ios": "https://dc.lft.to/lastmile_qr_scan", "android": "https://dc.lft.to/lastmile_qr_scan"}, "lon": -77.03660733333334, "type": "electric_scooter", "fusion_lat": 0.0, "lat": 38.91718733333333, "name": "9a60c77386dfa1397156d7ce14b50604", "fusion_lon": 0.0, "bike_id": "9a60c77386dfa1397156d7ce14b50604", "is_disabled": 0, "is_reserved": 0}, {"rental_uris": {"ios": "https://dc.lft.to/lastmile_qr_scan", "android": "https://dc.lft.to/lastmile_qr_scan"}, "lon": -77.01293883333334, "type": "electric_scooter", "fusion_lat": 0.0, "lat": 38.95640083333333, "name": "18526afd38b8e76d6d9e99c7f321a90b", "fusion_lon": 0.0, "bike_id": "18526afd38b8e76d6d9e99c7f321a90b", "is_disabled": 0, "is_reserved": 0}, {"rental_uris": {"ios": "https://dc.lft.to/lastmile_qr_scan", "android": "https://dc.lft.to/lastmile_qr_scan"}, "lon": -77.02288033333333, "type": "electric_scooter", "fusion_lat": 0.0, "lat": 38.911008833333334, "name": "bf19a572cb133d881b12c90c47614765", "fusion_lon": 0.0, "bike_id": "bf19a572cb133d881b12c90c47614765", "is_disabled": 0, "is_reserved": 0}, {"rental_uris": {"ios": "https://dc.lft.to/lastmile_qr_scan", "android": "https://dc.lft.to/lastmile_qr_scan"}, "lon": -77.04870383333333, "type": "electric_scooter", "fusion_lat": 0.0, "lat": 38.89226033333333, "name": "e19134e27925a3244453167b343af2d3", "fusion_lon": 0.0, "bike_id": "e19134e27925a3244453167b343af2d3", "is_disabled": 0, "is_reserved": 0}, {"rental_uris": {"ios": "https://dc.lft.to/lastmile_qr_scan", "android": "https://dc.lft.to/lastmile_qr_scan"}, "lon": -76.98248483333333, "type": "electric_scooter", "fusion_lat": 0.0, "lat": 38.908644833333334, "name": "0b493c91b7c038944f449e4a23ab3add", "fusion_lon": 0.0, "bike_id": "0b493c91b7c038944f449e4a23ab3add", "is_disabled": 0, "is_reserved": 0}, {"rental_uris": {"ios": "https://dc.lft.to/lastmile_qr_scan", "android": "https://dc.lft.to/lastmile_qr_scan"}, "lon": -77.0097545, "type": "electric_scooter", "fusion_lat": 0.0, "lat": 38.91916583333333, "name": "1ad9580aaa51cd257bda2a3333de7c2c", "fusion_lon": 0.0, "bike_id": "1ad9580aaa51cd257bda2a3333de7c2c", "is_disabled": 0, "is_reserved": 0}, {"rental_uris": {"ios": "https://dc.lft.to/lastmile_qr_scan", "android": "https://dc.lft.to/lastmile_qr_scan"}, "lon": -77.0314095, "type": "electric_scooter", "fusion_lat": 0.0, "lat": 38.912626, "name": "0a872f7dbb8a198e4a0ddae44471a1ad", "fusion_lon": 0.0, "bike_id": "0a872f7dbb8a198e4a0ddae44471a1ad", "is_disabled": 0, "is_reserved": 0}, {"rental_uris": {"ios": "https://dc.lft.to/lastmile_qr_scan", "android": "https://dc.lft.to/lastmile_qr_scan"}, "lon": -77.031991, "type": "electric_scooter", "fusion_lat": 0.0, "lat": 38.91314216666667, "name": "16ca42577e987a8458898afd4b2fb1cf", "fusion_lon": 0.0, "bike_id": "16ca42577e987a8458898afd4b2fb1cf", "is_disabled": 0, "is_reserved": 0}, {"rental_uris": {"ios": "https://dc.lft.to/lastmile_qr_scan", "android": "https://dc.lft.to/lastmile_qr_scan"}, "lon": -76.90957733333333, "type": "electric_bike", "fusion_lat": 0.0, "lat": 38.8542885, "name": "b368f395067fa43f8c9a8b91e4c7fecd", "fusion_lon": 0.0, "bike_id": "b368f395067fa43f8c9a8b91e4c7fecd", "is_disabled": 0, "is_reserved": 0}, {"rental_uris": {"ios": "https://dc.lft.to/lastmile_qr_scan", "android": "https://dc.lft.to/lastmile_qr_scan"}, "lon": -76.94888333333333, "type": "electric_scooter", "fusion_lat": 0.0, "lat": 38.895293833333334, "name": "3296f8ecf9ed85d5939078cc52a7776d", "fusion_lon": 0.0, "bike_id": "3296f8ecf9ed85d5939078cc52a7776d", "is_disabled": 0, "is_reserved": 0}, {"rental_uris": {"ios": "https://dc.lft.to/lastmile_qr_scan", "android": "https://dc.lft.to/lastmile_qr_scan"}, "lon": -77.04688216666666, "type": "electric_scooter", "fusion_lat": 0.0, "lat": 38.901073, "name": "ecba77e2ce6039ac59de4c14e359a8a7", "fusion_lon": 0.0, "bike_id": "ecba77e2ce6039ac59de4c14e359a8a7", "is_disabled": 0, "is_reserved": 0}, {"rental_uris": {"ios": "https://dc.lft.to/lastmile_qr_scan", "android": "https://dc.lft.to/lastmile_qr_scan"}, "lon": -76.98179583333334, "type": "electric_scooter", "fusion_lat": 0.0, "lat": 38.895680666666664, "name": "1f5168d4613e6ffcda6d2f2b84119ae5", "fusion_lon": 0.0, "bike_id": "1f5168d4613e6ffcda6d2f2b84119ae5", "is_disabled": 0, "is_reserved": 0}, {"rental_uris": {"ios": "https://dc.lft.to/lastmile_qr_scan", "android": "https://dc.lft.to/lastmile_qr_scan"}, "lon": -77.029581, "type": "electric_scooter", "fusion_lat": 0.0, "lat": 38.915808, "name": "96ec35325557bf0796e1389dd4508a54", "fusion_lon": 0.0, "bike_id": "96ec35325557bf0796e1389dd4508a54", "is_disabled": 0, "is_reserved": 0}, {"rental_uris": {"ios": "https://dc.lft.to/lastmile_qr_scan", "android": "https://dc.lft.to/lastmile_qr_scan"}, "lon": -77.04096683333333, "type": "electric_scooter", "fusion_lat": 0.0, "lat": 38.91772266666667, "name": "9720603de92c320e6520ab90ba38a66f", "fusion_lon": 0.0, "bike_id": "9720603de92c320e6520ab90ba38a66f", "is_disabled": 0, "is_reserved": 0}, {"rental_uris": {"ios": "https://dc.lft.to/lastmile_qr_scan", "android": "https://dc.lft.to/lastmile_qr_scan"}, "lon": -77.02178833333333, "type": "electric_scooter", "fusion_lat": 0.0, "lat": 38.93944033333333, "name": "e6b763b7ce3cf89577b7e51bd34650d5", "fusion_lon": 0.0, "bike_id": "e6b763b7ce3cf89577b7e51bd34650d5", "is_disabled": 0, "is_reserved": 0}, {"rental_uris": {"ios": "https://dc.lft.to/lastmile_qr_scan", "android": "https://dc.lft.to/lastmile_qr_scan"}, "lon": -76.99178633333334, "type": "electric_scooter", "fusion_lat": 0.0, "lat": 38.904523166666664, "name": "8f0d9b7115b9a2fde71f9908ad985bfd", "fusion_lon": 0.0, "bike_id": "8f0d9b7115b9a2fde71f9908ad985bfd", "is_disabled": 0, "is_reserved": 0}, {"rental_uris": {"ios": "https://dc.lft.to/lastmile_qr_scan", "android": "https://dc.lft.to/lastmile_qr_scan"}, "lon": -76.9994195, "type": "electric_scooter", "fusion_lat": 0.0, "lat": 38.8428665, "name": "a6debba855179e424ccee0ce565ee7be", "fusion_lon": 0.0, "bike_id": "a6debba855179e424ccee0ce565ee7be", "is_disabled": 0, "is_reserved": 0}, {"rental_uris": {"ios": "https://dc.lft.to/lastmile_qr_scan", "android": "https://dc.lft.to/lastmile_qr_scan"}, "lon": -77.03354916666666, "type": "electric_scooter", "fusion_lat": 0.0, "lat": 38.89233633333333, "name": "798dc504d114f4f6a2dbd91f9d728bbf", "fusion_lon": 0.0, "bike_id": "798dc504d114f4f6a2dbd91f9d728bbf", "is_disabled": 0, "is_reserved": 0}, {"rental_uris": {"ios": "https://dc.lft.to/lastmile_qr_scan", "android": "https://dc.lft.to/lastmile_qr_scan"}, "lon": -76.90820883333333, "type": "electric_bike", "fusion_lat": 0.0, "lat": 39.0026, "name": "903f0481323c376b7788ab0540c3a1ce", "fusion_lon": 0.0, "bike_id": "903f0481323c376b7788ab0540c3a1ce", "is_disabled": 0, "is_reserved": 0}, {"rental_uris": {"ios": "https://dc.lft.to/lastmile_qr_scan", "android": "https://dc.lft.to/lastmile_qr_scan"}, "lon": -77.11223333333334, "type": "electric_bike", "fusion_lat": 0.0, "lat": 38.82867233333333, "name": "0987fa16244d8c8db04ea7a6820aff86", "fusion_lon": 0.0, "bike_id": "0987fa16244d8c8db04ea7a6820aff86", "is_disabled": 0, "is_reserved": 0}, {"rental_uris": {"ios": "https://dc.lft.to/lastmile_qr_scan", "android": "https://dc.lft.to/lastmile_qr_scan"}, "lon": -77.02481533333334, "type": "electric_scooter", "fusion_lat": 0.0, "lat": 38.93752033333333, "name": "9b8fb2982457c5778524e1b5bfebc527", "fusion_lon": 0.0, "bike_id": "9b8fb2982457c5778524e1b5bfebc527", "is_disabled": 0, "is_reserved": 0}, {"rental_uris": {"ios": "https://dc.lft.to/lastmile_qr_scan", "android": "https://dc.lft.to/lastmile_qr_scan"}, "lon": -77.0239585, "type": "electric_scooter", "fusion_lat": 0.0, "lat": 38.9157155, "name": "0107338e091bfb910aabaad6c2a29745", "fusion_lon": 0.0, "bike_id": "0107338e091bfb910aabaad6c2a29745", "is_disabled": 0, "is_reserved": 0}, {"rental_uris": {"ios": "https://dc.lft.to/lastmile_qr_scan", "android": "https://dc.lft.to/lastmile_qr_scan"}, "lon": -77.01746416666667, "type": "electric_scooter", "fusion_lat": 0.0, "lat": 38.877075833333336, "name": "d47aa8f21fd7b94f931b5415f0a42a82", "fusion_lon": 0.0, "bike_id": "d47aa8f21fd7b94f931b5415f0a42a82", "is_disabled": 0, "is_reserved": 0}, {"rental_uris": {"ios": "https://dc.lft.to/lastmile_qr_scan", "android": "https://dc.lft.to/lastmile_qr_scan"}, "lon": -76.946313, "type": "electric_scooter", "fusion_lat": 0.0, "lat": 38.89839, "name": "53e07c9af7dbd9b72a1892cd3a06c537", "fusion_lon": 0.0, "bike_id": "53e07c9af7dbd9b72a1892cd3a06c537", "is_disabled": 0, "is_reserved": 0}, {"rental_uris": {"ios": "https://dc.lft.to/lastmile_qr_scan", "android": "https://dc.lft.to/lastmile_qr_scan"}, "lon": -77.03225216666667, "type": "electric_scooter", "fusion_lat": 0.0, "lat": 38.91402933333333, "name": "2e7c451077c3283e5c7ab33f96760ce5", "fusion_lon": 0.0, "bike_id": "2e7c451077c3283e5c7ab33f96760ce5", "is_disabled": 0, "is_reserved": 0}, {"rental_uris": {"ios": "https://dc.lft.to/lastmile_qr_scan", "android": "https://dc.lft.to/lastmile_qr_scan"}, "lon": -77.03219216666666, "type": "electric_scooter", "fusion_lat": 0.0, "lat": 38.91196083333333, "name": "4cb1b3c341bfb6177894b7a1484c697d", "fusion_lon": 0.0, "bike_id": "4cb1b3c341bfb6177894b7a1484c697d", "is_disabled": 0, "is_reserved": 0}, {"rental_uris": {"ios": "https://dc.lft.to/lastmile_qr_scan", "android": "https://dc.lft.to/lastmile_qr_scan"}, "lon": -77.0093855, "type": "electric_scooter", "fusion_lat": 0.0, "lat": 38.87367533333333, "name": "88d7fe84ae9472551f078ba52ca657a1", "fusion_lon": 0.0, "bike_id": "88d7fe84ae9472551f078ba52ca657a1", "is_disabled": 0, "is_reserved": 0}, {"rental_uris": {"ios": "https://dc.lft.to/lastmile_qr_scan", "android": "https://dc.lft.to/lastmile_qr_scan"}, "lon": -77.03216183333333, "type": "electric_scooter", "fusion_lat": 0.0, "lat": 38.9168755, "name": "606bdfd7ef5035ae498c559bac898bf8", "fusion_lon": 0.0, "bike_id": "606bdfd7ef5035ae498c559bac898bf8", "is_disabled": 0, "is_reserved": 0}, {"rental_uris": {"ios": "https://dc.lft.to/lastmile_qr_scan", "android": "https://dc.lft.to/lastmile_qr_scan"}, "lon": -76.98347933333334, "type": "electric_scooter", "fusion_lat": 0.0, "lat": 38.91526116666667, "name": "095d398ddd3928fb1fac4de728ff79e9", "fusion_lon": 0.0, "bike_id": "095d398ddd3928fb1fac4de728ff79e9", "is_disabled": 0, "is_reserved": 0}, {"rental_uris": {"ios": "https://dc.lft.to/lastmile_qr_scan", "android": "https://dc.lft.to/lastmile_qr_scan"}, "lon": -77.0218735, "type": "electric_scooter", "fusion_lat": 0.0, "lat": 38.884122166666664, "name": "061f821a7b97cec064fe60fb0c79574c", "fusion_lon": 0.0, "bike_id": "061f821a7b97cec064fe60fb0c79574c", "is_disabled": 0, "is_reserved": 0}, {"rental_uris": {"ios": "https://dc.lft.to/lastmile_qr_scan", "android": "https://dc.lft.to/lastmile_qr_scan"}, "lon": -77.0235085, "type": "electric_scooter", "fusion_lat": 0.0, "lat": 38.9155445, "name": "096631384cc5dfd6f66330a33f08b25b", "fusion_lon": 0.0, "bike_id": "096631384cc5dfd6f66330a33f08b25b", "is_disabled": 0, "is_reserved": 0}, {"rental_uris": {"ios": "https://dc.lft.to/lastmile_qr_scan", "android": "https://dc.lft.to/lastmile_qr_scan"}, "lon": -77.00249933333333, "type": "electric_scooter", "fusion_lat": 0.0, "lat": 38.91916833333333, "name": "d0f472e31c0181681b8a21ff0097db29", "fusion_lon": 0.0, "bike_id": "d0f472e31c0181681b8a21ff0097db29", "is_disabled": 0, "is_reserved": 0}, {"rental_uris": {"ios": "https://dc.lft.to/lastmile_qr_scan", "android": "https://dc.lft.to/lastmile_qr_scan"}, "lon": -77.03078183333334, "type": "electric_scooter", "fusion_lat": 0.0, "lat": 38.905616, "name": "7cf68c2287e0e877178b4ac5d0af115b", "fusion_lon": 0.0, "bike_id": "7cf68c2287e0e877178b4ac5d0af115b", "is_disabled": 0, "is_reserved": 0}, {"rental_uris": {"ios": "https://dc.lft.to/lastmile_qr_scan", "android": "https://dc.lft.to/lastmile_qr_scan"}, "lon": -77.010754, "type": "electric_bike", "fusion_lat": 0.0, "lat": 38.956505666666665, "name": "6dfe4d723e5d00c6d4f7782e4eddbaef", "fusion_lon": 0.0, "bike_id": "6dfe4d723e5d00c6d4f7782e4eddbaef", "is_disabled": 0, "is_reserved": 0}, {"rental_uris": {"ios": "https://dc.lft.to/lastmile_qr_scan", "android": "https://dc.lft.to/lastmile_qr_scan"}, "lon": -77.04838566666666, "type": "electric_scooter", "fusion_lat": 0.0, "lat": 38.90966483333333, "name": "62dbffd954ac9323e0a2effb004db003", "fusion_lon": 0.0, "bike_id": "62dbffd954ac9323e0a2effb004db003", "is_disabled": 0, "is_reserved": 0}, {"rental_uris": {"ios": "https://dc.lft.to/lastmile_qr_scan", "android": "https://dc.lft.to/lastmile_qr_scan"}, "lon": -77.037988, "type": "electric_scooter", "fusion_lat": 0.0, "lat": 38.92617, "name": "c47552ebdb6bdb0ac6744f91553d7783", "fusion_lon": 0.0, "bike_id": "c47552ebdb6bdb0ac6744f91553d7783", "is_disabled": 0, "is_reserved": 0}, {"rental_uris": {"ios": "https://dc.lft.to/lastmile_qr_scan", "android": "https://dc.lft.to/lastmile_qr_scan"}, "lon": -77.055687, "type": "electric_scooter", "fusion_lat": 0.0, "lat": 38.9303565, "name": "8b72de1d96bee329e468bb90197f1d95", "fusion_lon": 0.0, "bike_id": "8b72de1d96bee329e468bb90197f1d95", "is_disabled": 0, "is_reserved": 0}, {"rental_uris": {"ios": "https://dc.lft.to/lastmile_qr_scan", "android": "https://dc.lft.to/lastmile_qr_scan"}, "lon": -77.04177583333333, "type": "electric_scooter", "fusion_lat": 0.0, "lat": 38.91230483333333, "name": "330d6416df570c48d786c4eb3e36fcbf", "fusion_lon": 0.0, "bike_id": "330d6416df570c48d786c4eb3e36fcbf", "is_disabled": 0, "is_reserved": 0}, {"rental_uris": {"ios": "https://dc.lft.to/lastmile_qr_scan", "android": "https://dc.lft.to/lastmile_qr_scan"}, "lon": -77.0025945, "type": "electric_scooter", "fusion_lat": 0.0, "lat": 38.898944166666666, "name": "bf218d4b83005bbd18f91ac938acaea8", "fusion_lon": 0.0, "bike_id": "bf218d4b83005bbd18f91ac938acaea8", "is_disabled": 0, "is_reserved": 0}, {"rental_uris": {"ios": "https://dc.lft.to/lastmile_qr_scan", "android": "https://dc.lft.to/lastmile_qr_scan"}, "lon": -77.03843183333333, "type": "electric_scooter", "fusion_lat": 0.0, "lat": 38.915604333333334, "name": "8b4815315b8a3683d4b4b51a197da880", "fusion_lon": 0.0, "bike_id": "8b4815315b8a3683d4b4b51a197da880", "is_disabled": 0, "is_reserved": 0}, {"rental_uris": {"ios": "https://dc.lft.to/lastmile_qr_scan", "android": "https://dc.lft.to/lastmile_qr_scan"}, "lon": -77.034057, "type": "electric_scooter", "fusion_lat": 0.0, "lat": 38.906014, "name": "e5f4cf1b22f709d36ec6a86da4b11ae4", "fusion_lon": 0.0, "bike_id": "e5f4cf1b22f709d36ec6a86da4b11ae4", "is_disabled": 0, "is_reserved": 0}, {"rental_uris": {"ios": "https://dc.lft.to/lastmile_qr_scan", "android": "https://dc.lft.to/lastmile_qr_scan"}, "lon": -77.0729315, "type": "electric_scooter", "fusion_lat": 0.0, "lat": 38.96054516666667, "name": "61420ac91962c503bdfe05d440c91a57", "fusion_lon": 0.0, "bike_id": "61420ac91962c503bdfe05d440c91a57", "is_disabled": 0, "is_reserved": 0}, {"rental_uris": {"ios": "https://dc.lft.to/lastmile_qr_scan", "android": "https://dc.lft.to/lastmile_qr_scan"}, "lon": -77.01979916666667, "type": "electric_scooter", "fusion_lat": 0.0, "lat": 38.877495, "name": "40980198c1e7642968dcfea7e41883dd", "fusion_lon": 0.0, "bike_id": "40980198c1e7642968dcfea7e41883dd", "is_disabled": 0, "is_reserved": 0}, {"rental_uris": {"ios": "https://dc.lft.to/lastmile_qr_scan", "android": "https://dc.lft.to/lastmile_qr_scan"}, "lon": -77.01878783333333, "type": "electric_scooter", "fusion_lat": 0.0, "lat": 38.91736233333334, "name": "e942fff4f2619374e92df75c1d24e542", "fusion_lon": 0.0, "bike_id": "e942fff4f2619374e92df75c1d24e542", "is_disabled": 0, "is_reserved": 0}, {"rental_uris": {"ios": "https://dc.lft.to/lastmile_qr_scan", "android": "https://dc.lft.to/lastmile_qr_scan"}, "lon": -77.05212533333334, "type": "electric_scooter", "fusion_lat": 0.0, "lat": 38.924327166666664, "name": "c94b95abbf3311103ea9d754cc96f8c3", "fusion_lon": 0.0, "bike_id": "c94b95abbf3311103ea9d754cc96f8c3", "is_disabled": 0, "is_reserved": 0}, {"rental_uris": {"ios": "https://dc.lft.to/lastmile_qr_scan", "android": "https://dc.lft.to/lastmile_qr_scan"}, "lon": -76.99842833333334, "type": "electric_scooter", "fusion_lat": 0.0, "lat": 38.894851333333335, "name": "c922215b8b2093da07f33f34b605e581", "fusion_lon": 0.0, "bike_id": "c922215b8b2093da07f33f34b605e581", "is_disabled": 0, "is_reserved": 0}, {"rental_uris": {"ios": "https://dc.lft.to/lastmile_qr_scan", "android": "https://dc.lft.to/lastmile_qr_scan"}, "lon": -77.00759683333334, "type": "electric_scooter", "fusion_lat": 0.0, "lat": 38.897231833333336, "name": "a60dd72af995b1b86c7163058a394114", "fusion_lon": 0.0, "bike_id": "a60dd72af995b1b86c7163058a394114", "is_disabled": 0, "is_reserved": 0}, {"rental_uris": {"ios": "https://dc.lft.to/lastmile_qr_scan", "android": "https://dc.lft.to/lastmile_qr_scan"}, "lon": -77.0326055, "type": "electric_scooter", "fusion_lat": 0.0, "lat": 38.9352045, "name": "91b6a17fc361b1afb526cada2f5d17b2", "fusion_lon": 0.0, "bike_id": "91b6a17fc361b1afb526cada2f5d17b2", "is_disabled": 0, "is_reserved": 0}, {"rental_uris": {"ios": "https://dc.lft.to/lastmile_qr_scan", "android": "https://dc.lft.to/lastmile_qr_scan"}, "lon": -77.02493516666667, "type": "electric_scooter", "fusion_lat": 0.0, "lat": 38.8973415, "name": "a69885386849a80e4b7ef51aff1c4a23", "fusion_lon": 0.0, "bike_id": "a69885386849a80e4b7ef51aff1c4a23", "is_disabled": 0, "is_reserved": 0}, {"rental_uris": {"ios": "https://dc.lft.to/lastmile_qr_scan", "android": "https://dc.lft.to/lastmile_qr_scan"}, "lon": -77.1068675, "type": "electric_bike", "fusion_lat": 0.0, "lat": 38.935794333333334, "name": "da4fc8c9adefff1f5deb99d980214cc8", "fusion_lon": 0.0, "bike_id": "da4fc8c9adefff1f5deb99d980214cc8", "is_disabled": 0, "is_reserved": 0}, {"rental_uris": {"ios": "https://dc.lft.to/lastmile_qr_scan", "android": "https://dc.lft.to/lastmile_qr_scan"}, "lon": -77.06642833333333, "type": "electric_bike", "fusion_lat": 0.0, "lat": 38.82045333333333, "name": "fb1a03f53a6cfbef9ca3fb966de9c89d", "fusion_lon": 0.0, "bike_id": "fb1a03f53a6cfbef9ca3fb966de9c89d", "is_disabled": 0, "is_reserved": 0}, {"rental_uris": {"ios": "https://dc.lft.to/lastmile_qr_scan", "android": "https://dc.lft.to/lastmile_qr_scan"}, "lon": -77.03225933333333, "type": "electric_scooter", "fusion_lat": 0.0, "lat": 38.91823216666667, "name": "155d6a939685f7d7ecce0eef35a64b5d", "fusion_lon": 0.0, "bike_id": "155d6a939685f7d7ecce0eef35a64b5d", "is_disabled": 0, "is_reserved": 0}, {"rental_uris": {"ios": "https://dc.lft.to/lastmile_qr_scan", "android": "https://dc.lft.to/lastmile_qr_scan"}, "lon": -77.046566, "type": "electric_scooter", "fusion_lat": 0.0, "lat": 38.893342833333335, "name": "4c3f8d1d3452cdae1ce4186c5121648e", "fusion_lon": 0.0, "bike_id": "4c3f8d1d3452cdae1ce4186c5121648e", "is_disabled": 0, "is_reserved": 0}, {"rental_uris": {"ios": "https://dc.lft.to/lastmile_qr_scan", "android": "https://dc.lft.to/lastmile_qr_scan"}, "lon": -77.06598416666667, "type": "electric_scooter", "fusion_lat": 0.0, "lat": 38.9051675, "name": "cef895943a8e06005019999721686ed2", "fusion_lon": 0.0, "bike_id": "cef895943a8e06005019999721686ed2", "is_disabled": 0, "is_reserved": 0}, {"rental_uris": {"ios": "https://dc.lft.to/lastmile_qr_scan", "android": "https://dc.lft.to/lastmile_qr_scan"}, "lon": -77.04664983333333, "type": "electric_scooter", "fusion_lat": 0.0, "lat": 38.91477583333333, "name": "938444cae2518bdc4921952433f2022f", "fusion_lon": 0.0, "bike_id": "938444cae2518bdc4921952433f2022f", "is_disabled": 0, "is_reserved": 0}, {"rental_uris": {"ios": "https://dc.lft.to/lastmile_qr_scan", "android": "https://dc.lft.to/lastmile_qr_scan"}, "lon": -77.042544, "type": "electric_scooter", "fusion_lat": 0.0, "lat": 38.9027365, "name": "0e7e8a866580fa4c8e7afe216a7452ef", "fusion_lon": 0.0, "bike_id": "0e7e8a866580fa4c8e7afe216a7452ef", "is_disabled": 0, "is_reserved": 0}, {"rental_uris": {"ios": "https://dc.lft.to/lastmile_qr_scan", "android": "https://dc.lft.to/lastmile_qr_scan"}, "lon": -76.948774, "type": "electric_scooter", "fusion_lat": 0.0, "lat": 38.894997833333335, "name": "b82ca51b0e4149df8132f219c995bbad", "fusion_lon": 0.0, "bike_id": "b82ca51b0e4149df8132f219c995bbad", "is_disabled": 0, "is_reserved": 0}, {"rental_uris": {"ios": "https://dc.lft.to/lastmile_qr_scan", "android": "https://dc.lft.to/lastmile_qr_scan"}, "lon": -77.03703183333333, "type": "electric_bike", "fusion_lat": 0.0, "lat": 38.935547, "name": "4007e20ab0c313a36de53685b4ee7195", "fusion_lon": 0.0, "bike_id": "4007e20ab0c313a36de53685b4ee7195", "is_disabled": 0, "is_reserved": 0}, {"rental_uris": {"ios": "https://dc.lft.to/lastmile_qr_scan", "android": "https://dc.lft.to/lastmile_qr_scan"}, "lon": -77.0394945, "type": "electric_scooter", "fusion_lat": 0.0, "lat": 38.899748833333334, "name": "e59536737bb1a0b7729985357b40b028", "fusion_lon": 0.0, "bike_id": "e59536737bb1a0b7729985357b40b028", "is_disabled": 0, "is_reserved": 0}, {"rental_uris": {"ios": "https://dc.lft.to/lastmile_qr_scan", "android": "https://dc.lft.to/lastmile_qr_scan"}, "lon": -76.9849685, "type": "electric_scooter", "fusion_lat": 0.0, "lat": 38.860444, "name": "bbaa87b177908935657fab90293a7958", "fusion_lon": 0.0, "bike_id": "bbaa87b177908935657fab90293a7958", "is_disabled": 0, "is_reserved": 0}, {"rental_uris": {"ios": "https://dc.lft.to/lastmile_qr_scan", "android": "https://dc.lft.to/lastmile_qr_scan"}, "lon": -76.99519433333333, "type": "electric_scooter", "fusion_lat": 0.0, "lat": 38.84464833333333, "name": "051aaa71e736b0d558a1a4e4d7186a70", "fusion_lon": 0.0, "bike_id": "051aaa71e736b0d558a1a4e4d7186a70", "is_disabled": 0, "is_reserved": 0}, {"rental_uris": {"ios": "https://dc.lft.to/lastmile_qr_scan", "android": "https://dc.lft.to/lastmile_qr_scan"}, "lon": -77.051848, "type": "electric_scooter", "fusion_lat": 0.0, "lat": 38.924132, "name": "9cdecc370c248a4fc33a6d37aeed87cd", "fusion_lon": 0.0, "bike_id": "9cdecc370c248a4fc33a6d37aeed87cd", "is_disabled": 0, "is_reserved": 0}, {"rental_uris": {"ios": "https://dc.lft.to/lastmile_qr_scan", "android": "https://dc.lft.to/lastmile_qr_scan"}, "lon": -77.02833233333334, "type": "electric_scooter", "fusion_lat": 0.0, "lat": 38.895247166666664, "name": "65a524772a9ea257a21077e7ce08fc3a", "fusion_lon": 0.0, "bike_id": "65a524772a9ea257a21077e7ce08fc3a", "is_disabled": 0, "is_reserved": 0}, {"rental_uris": {"ios": "https://dc.lft.to/lastmile_qr_scan", "android": "https://dc.lft.to/lastmile_qr_scan"}, "lon": -76.97891916666667, "type": "electric_scooter", "fusion_lat": 0.0, "lat": 38.904228, "name": "11ba6f6aaf2c1f5c8f8361f6e3ab7adb", "fusion_lon": 0.0, "bike_id": "11ba6f6aaf2c1f5c8f8361f6e3ab7adb", "is_disabled": 0, "is_reserved": 0}, {"rental_uris": {"ios": "https://dc.lft.to/lastmile_qr_scan", "android": "https://dc.lft.to/lastmile_qr_scan"}, "lon": -76.9953215, "type": "electric_scooter", "fusion_lat": 0.0, "lat": 38.92664366666666, "name": "820e3ff4fc1cea3c963b4f8029ef21ce", "fusion_lon": 0.0, "bike_id": "820e3ff4fc1cea3c963b4f8029ef21ce", "is_disabled": 0, "is_reserved": 0}, {"rental_uris": {"ios": "https://dc.lft.to/lastmile_qr_scan", "android": "https://dc.lft.to/lastmile_qr_scan"},