{"data": {"bikes": [{"lat": 38.901446, "lon": -77.01906833333334, "is_disabled": 0, "fusion_lon": 0.0, "is_reserved": 0, "name": "df7a8be492a186a36147ca0a2fcef814", "type": "electric_scooter", "bike_id": "df7a8be492a186a36147ca0a2fcef814", "rental_uris": {"ios": "https://dc.lft.to/lastmile_qr_scan", "android": "https://dc.lft.to/lastmile_qr_scan"}, "fusion_lat": 0.0}, {"lat": 38.892318833333334, "lon": -77.025758, "is_disabled": 0, "fusion_lon": 0.0, "is_reserved": 0, "name": "99a3a724d227798fff00307e6f3db613", "type": "electric_scooter", "bike_id": "99a3a724d227798fff00307e6f3db613", "rental_uris": {"ios": "https://dc.lft.to/lastmile_qr_scan", "android": "https://dc.lft.to/lastmile_qr_scan"}, "fusion_lat": 0.0}, {"lat": 38.91100266666667, "lon": -77.031796, "is_disabled": 0, "fusion_lon": 0.0, "is_reserved": 0, "name": "e62a27f7194680d5cd4325e3eedb9edb", "type": "electric_scooter", "bike_id": "e62a27f7194680d5cd4325e3eedb9edb", "rental_uris": {"ios": "https://dc.lft.to/lastmile_qr_scan", "android": "https://dc.lft.to/lastmile_qr_scan"}, "fusion_lat": 0.0}, {"lat": 38.90475466666667, "lon": -77.03464433333333, "is_disabled": 0, "fusion_lon": 0.0, "is_reserved": 0, "name": "f1e7b14805d2c0b63de6e741630c90b9", "type": "electric_scooter", "bike_id": "f1e7b14805d2c0b63de6e741630c90b9", "rental_uris": {"ios": "https://dc.lft.to/lastmile_qr_scan", "android": "https://dc.lft.to/lastmile_qr_scan"}, "fusion_lat": 0.0}, {"lat": 38.89550416666667, "lon": -76.94943116666667, "is_disabled": 0, "fusion_lon": 0.0, "is_reserved": 0, "name": "bfdc678868d96354167efb11ef74fa7c", "type": "electric_scooter", "bike_id": "bfdc678868d96354167efb11ef74fa7c", "rental_uris": {"ios": "https://dc.lft.to/lastmile_qr_scan", "android": "https://dc.lft.to/lastmile_qr_scan"}, "fusion_lat": 0.0}, {"lat": 38.9247015, "lon": -77.05235266666666, "is_disabled": 0, "fusion_lon": 0.0, "is_reserved": 0, "name": "afb2cc3c535b01aef737a5140ea1d711", "type": "electric_scooter", "bike_id": "afb2cc3c535b01aef737a5140ea1d711", "rental_uris": {"ios": "https://dc.lft.to/lastmile_qr_scan", "android": "https://dc.lft.to/lastmile_qr_scan"}, "fusion_lat": 0.0}, {"lat": 38.807612666666664, "lon": -77.129821, "is_disabled": 0, "fusion_lon": 0.0, "is_reserved": 0, "name": "45108594ca7ce62dd8c683ddc47e40ef", "type": "electric_bike", "bike_id": "45108594ca7ce62dd8c683ddc47e40ef", "rental_uris": {"ios": "https://dc.lft.to/lastmile_qr_scan", "android": "https://dc.lft.to/lastmile_qr_scan"}, "fusion_lat": 0.0}, {"lat": 38.8955605, "lon": -76.94873466666667, "is_disabled": 0, "fusion_lon": 0.0, "is_reserved": 0, "name": "43c2b5c1571c0be2100c546f5aa66ba2", "type": "electric_scooter", "bike_id": "43c2b5c1571c0be2100c546f5aa66ba2", "rental_uris": {"ios": "https://dc.lft.to/lastmile_qr_scan", "android": "https://dc.lft.to/lastmile_qr_scan"}, "fusion_lat": 0.0}, {"lat": 38.896161166666666, "lon": -77.02126066666666, "is_disabled": 0, "fusion_lon": 0.0, "is_reserved": 0, "name": "85477ac37b3c6277323519832f34d41b", "type": "electric_scooter", "bike_id": "85477ac37b3c6277323519832f34d41b", "rental_uris": {"ios": "https://dc.lft.to/lastmile_qr_scan", "android": "https://dc.lft.to/lastmile_qr_scan"}, "fusion_lat": 0.0}, {"lat": 38.8982775, "lon": -76.94648, "is_disabled": 0, "fusion_lon": 0.0, "is_reserved": 0, "name": "da513d36dde5efe0fbe83ef808fa79c9", "type": "electric_scooter", "bike_id": "da513d36dde5efe0fbe83ef808fa79c9", "rental_uris": {"ios": "https://dc.lft.to/lastmile_qr_scan", "android": "https://dc.lft.to/lastmile_qr_scan"}, "fusion_lat": 0.0}, {"lat": 38.9006645, "lon": -76.92750633333333, "is_disabled": 0, "fusion_lon": 0.0, "is_reserved": 0, "name": "1e63bb98137885a0615b7a4abd8aa505", "type": "electric_scooter", "bike_id": "1e63bb98137885a0615b7a4abd8aa505", "rental_uris": {"ios": "https://dc.lft.to/lastmile_qr_scan", "android": "https://dc.lft.to/lastmile_qr_scan"}, "fusion_lat": 0.0}, {"lat": 38.8967805, "lon": -77.05117283333334, "is_disabled": 0, "fusion_lon": 0.0, "is_reserved": 0, "name": "5e5d6b16da6d120109b5140162a4b5e5", "type": "electric_scooter", "bike_id": "5e5d6b16da6d120109b5140162a4b5e5", "rental_uris": {"ios": "https://dc.lft.to/lastmile_qr_scan", "android": "https://dc.lft.to/lastmile_qr_scan"}, "fusion_lat": 0.0}, {"lat": 38.90823683333333, "lon": -77.04337633333333, "is_disabled": 0, "fusion_lon": 0.0, "is_reserved": 0, "name": "1c69bb09b88d86e4344ed94b5f315725", "type": "electric_scooter", "bike_id": "1c69bb09b88d86e4344ed94b5f315725", "rental_uris": {"ios": "https://dc.lft.to/lastmile_qr_scan", "android": "https://dc.lft.to/lastmile_qr_scan"}, "fusion_lat": 0.0}, {"lat": 38.892227, "lon": -77.04196983333334, "is_disabled": 0, "fusion_lon": 0.0, "is_reserved": 0, "name": "4c5f421358e385fb0cd4d3ae74fcb362", "type": "electric_scooter", "bike_id": "4c5f421358e385fb0cd4d3ae74fcb362", "rental_uris": {"ios": "https://dc.lft.to/lastmile_qr_scan", "android": "https://dc.lft.to/lastmile_qr_scan"}, "fusion_lat": 0.0}, {"lat": 38.90410716666667, "lon": -77.02942633333333, "is_disabled": 0, "fusion_lon": 0.0, "is_reserved": 0, "name": "3d8dc9fb67315a788d81cedfc56119ca", "type": "electric_scooter", "bike_id": "3d8dc9fb67315a788d81cedfc56119ca", "rental_uris": {"ios": "https://dc.lft.to/lastmile_qr_scan", "android": "https://dc.lft.to/lastmile_qr_scan"}, "fusion_lat": 0.0}, {"lat": 38.878265, "lon": -77.02232283333333, "is_disabled": 0, "fusion_lon": 0.0, "is_reserved": 0, "name": "8c7a2359e5f728d3ffab074c0dbde3a9", "type": "electric_scooter", "bike_id": "8c7a2359e5f728d3ffab074c0dbde3a9", "rental_uris": {"ios": "https://dc.lft.to/lastmile_qr_scan", "android": "https://dc.lft.to/lastmile_qr_scan"}, "fusion_lat": 0.0}, {"lat": 38.881781333333336, "lon": -76.99253933333334, "is_disabled": 0, "fusion_lon": 0.0, "is_reserved": 0, "name": "1da01deb9f2769c498c6a1d9066ef662", "type": "electric_scooter", "bike_id": "1da01deb9f2769c498c6a1d9066ef662", "rental_uris": {"ios": "https://dc.lft.to/lastmile_qr_scan", "android": "https://dc.lft.to/lastmile_qr_scan"}, "fusion_lat": 0.0}, {"lat": 38.904191833333336, "lon": -77.01994683333334, "is_disabled": 0, "fusion_lon": 0.0, "is_reserved": 0, "name": "cf743efa70bdafa17f363babaf7216dc", "type": "electric_scooter", "bike_id": "cf743efa70bdafa17f363babaf7216dc", "rental_uris": {"ios": "https://dc.lft.to/lastmile_qr_scan", "android": "https://dc.lft.to/lastmile_qr_scan"}, "fusion_lat": 0.0}, {"lat": 38.902346333333334, "lon": -77.04699383333333, "is_disabled": 0, "fusion_lon": 0.0, "is_reserved": 0, "name": "88a1498f1eecec3ef7663b3ce4cfffc9", "type": "electric_scooter", "bike_id": "88a1498f1eecec3ef7663b3ce4cfffc9", "rental_uris": {"ios": "https://dc.lft.to/lastmile_qr_scan", "android": "https://dc.lft.to/lastmile_qr_scan"}, "fusion_lat": 0.0}, {"lat": 38.928711166666666, "lon": -77.03452383333334, "is_disabled": 0, "fusion_lon": 0.0, "is_reserved": 0, "name": "5f89accd6f5ede9ac152447fd8054518", "type": "electric_scooter", "bike_id": "5f89accd6f5ede9ac152447fd8054518", "rental_uris": {"ios": "https://dc.lft.to/lastmile_qr_scan", "android": "https://dc.lft.to/lastmile_qr_scan"}, "fusion_lat": 0.0}, {"lat": 38.9111585, "lon": -77.04538233333334, "is_disabled": 0, "fusion_lon": 0.0, "is_reserved": 0, "name": "4ed9ba4a218e024e10a59c8bc7f30824", "type": "electric_scooter", "bike_id": "4ed9ba4a218e024e10a59c8bc7f30824", "rental_uris": {"ios": "https://dc.lft.to/lastmile_qr_scan", "android": "https://dc.lft.to/lastmile_qr_scan"}, "fusion_lat": 0.0}, {"lat": 38.9201675, "lon": -77.02058183333334, "is_disabled": 0, "fusion_lon": 0.0, "is_reserved": 0, "name": "af12c99420d356c1e682fd7244d99f2a", "type": "electric_scooter", "bike_id": "af12c99420d356c1e682fd7244d99f2a", "rental_uris": {"ios": "https://dc.lft.to/lastmile_qr_scan", "android": "https://dc.lft.to/lastmile_qr_scan"}, "fusion_lat": 0.0}, {"lat": 38.898302, "lon": -77.00738666666666, "is_disabled": 0, "fusion_lon": 0.0, "is_reserved": 0, "name": "61677ebfd0278a84cbb6c326fea8ca4f", "type": "electric_scooter", "bike_id": "61677ebfd0278a84cbb6c326fea8ca4f", "rental_uris": {"ios": "https://dc.lft.to/lastmile_qr_scan", "android": "https://dc.lft.to/lastmile_qr_scan"}, "fusion_lat": 0.0}, {"lat": 38.89697616666667, "lon": -76.96303466666667, "is_disabled": 0, "fusion_lon": 0.0, "is_reserved": 0, "name": "fefeb1ac1d9972deb73623a3aaada054", "type": "electric_bike", "bike_id": "fefeb1ac1d9972deb73623a3aaada054", "rental_uris": {"ios": "https://dc.lft.to/lastmile_qr_scan", "android": "https://dc.lft.to/lastmile_qr_scan"}, "fusion_lat": 0.0}, {"lat": 38.9180055, "lon": -77.024872, "is_disabled": 0, "fusion_lon": 0.0, "is_reserved": 0, "name": "af3df8c521119fea588a51910c21865b", "type": "electric_scooter", "bike_id": "af3df8c521119fea588a51910c21865b", "rental_uris": {"ios": "https://dc.lft.to/lastmile_qr_scan", "android": "https://dc.lft.to/lastmile_qr_scan"}, "fusion_lat": 0.0}, {"lat": 38.92318433333333, "lon": -77.03971933333334, "is_disabled": 0, "fusion_lon": 0.0, "is_reserved": 0, "name": "cccf5f9db5feeee393511db31a45c227", "type": "electric_scooter", "bike_id": "cccf5f9db5feeee393511db31a45c227", "rental_uris": {"ios": "https://dc.lft.to/lastmile_qr_scan", "android": "https://dc.lft.to/lastmile_qr_scan"}, "fusion_lat": 0.0}, {"lat": 38.897233666666665, "lon": -77.04591483333333, "is_disabled": 0, "fusion_lon": 0.0, "is_reserved": 0, "name": "d93c7b3572e0d3f320d1b4971c07f008", "type": "electric_scooter", "bike_id": "d93c7b3572e0d3f320d1b4971c07f008", "rental_uris": {"ios": "https://dc.lft.to/lastmile_qr_scan", "android": "https://dc.lft.to/lastmile_qr_scan"}, "fusion_lat": 0.0}, {"lat": 38.90988483333334, "lon": -77.03177016666666, "is_disabled": 0, "fusion_lon": 0.0, "is_reserved": 0, "name": "3c4fa8a2de38edafc537195623a8bcb9", "type": "electric_scooter", "bike_id": "3c4fa8a2de38edafc537195623a8bcb9", "rental_uris": {"ios": "https://dc.lft.to/lastmile_qr_scan", "android": "https://dc.lft.to/lastmile_qr_scan"}, "fusion_lat": 0.0}, {"lat": 38.908474166666664, "lon": -77.012537, "is_disabled": 0, "fusion_lon": 0.0, "is_reserved": 0, "name": "b03e8eecd1f69b40d463c1a64c6df6c4", "type": "electric_scooter", "bike_id": "b03e8eecd1f69b40d463c1a64c6df6c4", "rental_uris": {"ios": "https://dc.lft.to/lastmile_qr_scan", "android": "https://dc.lft.to/lastmile_qr_scan"}, "fusion_lat": 0.0}, {"lat": 38.88752816666667, "lon": -76.996042, "is_disabled": 0, "fusion_lon": 0.0, "is_reserved": 0, "name": "48ffc3657e8338d97c1f63806aafd23b", "type": "electric_scooter", "bike_id": "48ffc3657e8338d97c1f63806aafd23b", "rental_uris": {"ios": "https://dc.lft.to/lastmile_qr_scan", "android": "https://dc.lft.to/lastmile_qr_scan"}, "fusion_lat": 0.0}, {"lat": 38.908067, "lon": -77.02527133333334, "is_disabled": 0, "fusion_lon": 0.0, "is_reserved": 0, "name": "1f5b6fdb566f6ffe3869b4ab3732eb6d", "type": "electric_scooter", "bike_id": "1f5b6fdb566f6ffe3869b4ab3732eb6d", "rental_uris": {"ios": "https://dc.lft.to/lastmile_qr_scan", "android": "https://dc.lft.to/lastmile_qr_scan"}, "fusion_lat": 0.0}, {"lat": 38.889367666666665, "lon": -76.993685, "is_disabled": 0, "fusion_lon": 0.0, "is_reserved": 0, "name": "0ac24f33dfca2de40aecd310abf54545", "type": "electric_scooter", "bike_id": "0ac24f33dfca2de40aecd310abf54545", "rental_uris": {"ios": "https://dc.lft.to/lastmile_qr_scan", "android": "https://dc.lft.to/lastmile_qr_scan"}, "fusion_lat": 0.0}, {"lat": 38.9037155, "lon": -77.03162366666666, "is_disabled": 0, "fusion_lon": 0.0, "is_reserved": 0, "name": "996d970b793c5f8e0c2f391ec37a1c24", "type": "electric_scooter", "bike_id": "996d970b793c5f8e0c2f391ec37a1c24", "rental_uris": {"ios": "https://dc.lft.to/lastmile_qr_scan", "android": "https://dc.lft.to/lastmile_qr_scan"}, "fusion_lat": 0.0}, {"lat": 38.90713933333333, "lon": -77.07603833333333, "is_disabled": 0, "fusion_lon": 0.0, "is_reserved": 0, "name": "531c12303b9f9aee50372257b9fb3180", "type": "electric_scooter", "bike_id": "531c12303b9f9aee50372257b9fb3180", "rental_uris": {"ios": "https://dc.lft.to/lastmile_qr_scan", "android": "https://dc.lft.to/lastmile_qr_scan"}, "fusion_lat": 0.0}, {"lat": 38.923871166666665, "lon": -77.036507, "is_disabled": 0, "fusion_lon": 0.0, "is_reserved": 0, "name": "f54f865c970a2520dd617c1eaf35dc89", "type": "electric_scooter", "bike_id": "f54f865c970a2520dd617c1eaf35dc89", "rental_uris": {"ios": "https://dc.lft.to/lastmile_qr_scan", "android": "https://dc.lft.to/lastmile_qr_scan"}, "fusion_lat": 0.0}, {"lat": 38.89875133333334, "lon": -76.93189633333333, "is_disabled": 0, "fusion_lon": 0.0, "is_reserved": 0, "name": "3cc245cb2780f62acc3932212c595d7a", "type": "electric_scooter", "bike_id": "3cc245cb2780f62acc3932212c595d7a", "rental_uris": {"ios": "https://dc.lft.to/lastmile_qr_scan", "android": "https://dc.lft.to/lastmile_qr_scan"}, "fusion_lat": 0.0}, {"lat": 38.898535333333335, "lon": -77.01356566666666, "is_disabled": 0, "fusion_lon": 0.0, "is_reserved": 0, "name": "f1e44ce99beabd2165143f11fec366e6", "type": "electric_scooter", "bike_id": "f1e44ce99beabd2165143f11fec366e6", "rental_uris": {"ios": "https://dc.lft.to/lastmile_qr_scan", "android": "https://dc.lft.to/lastmile_qr_scan"}, "fusion_lat": 0.0}, {"lat": 38.847593, "lon": -76.99500016666667, "is_disabled": 0, "fusion_lon": 0.0, "is_reserved": 0, "name": "c5de38d105329ee94c16e59bf8abe1c0", "type": "electric_scooter", "bike_id": "c5de38d105329ee94c16e59bf8abe1c0", "rental_uris": {"ios": "https://dc.lft.to/lastmile_qr_scan", "android": "https://dc.lft.to/lastmile_qr_scan"}, "fusion_lat": 0.0}, {"lat": 38.9037495, "lon": -77.05021566666667, "is_disabled": 0, "fusion_lon": 0.0, "is_reserved": 0, "name": "f233a557fba971db2df636ef1cfcd670", "type": "electric_scooter", "bike_id": "f233a557fba971db2df636ef1cfcd670", "rental_uris": {"ios": "https://dc.lft.to/lastmile_qr_scan", "android": "https://dc.lft.to/lastmile_qr_scan"}, "fusion_lat": 0.0}, {"lat": 38.92446, "lon": -76.98988916666667, "is_disabled": 0, "fusion_lon": 0.0, "is_reserved": 0, "name": "7723b81cfc464d8b8277e22a55a51a3e", "type": "electric_scooter", "bike_id": "7723b81cfc464d8b8277e22a55a51a3e", "rental_uris": {"ios": "https://dc.lft.to/lastmile_qr_scan", "android": "https://dc.lft.to/lastmile_qr_scan"}, "fusion_lat": 0.0}, {"lat": 38.8959745, "lon": -77.0219445, "is_disabled": 0, "fusion_lon": 0.0, "is_reserved": 0, "name": "ba184872986f77c439f9d513f0809114", "type": "electric_scooter", "bike_id": "ba184872986f77c439f9d513f0809114", "rental_uris": {"ios": "https://dc.lft.to/lastmile_qr_scan", "android": "https://dc.lft.to/lastmile_qr_scan"}, "fusion_lat": 0.0}, {"lat": 38.928951166666664, "lon": -77.03270783333333, "is_disabled": 0, "fusion_lon": 0.0, "is_reserved": 0, "name": "c179f221a45bd55f63665a19566938c5", "type": "electric_scooter", "bike_id": "c179f221a45bd55f63665a19566938c5", "rental_uris": {"ios": "https://dc.lft.to/lastmile_qr_scan", "android": "https://dc.lft.to/lastmile_qr_scan"}, "fusion_lat": 0.0}, {"lat": 38.94804333333333, "lon": -76.95968133333334, "is_disabled": 0, "fusion_lon": 0.0, "is_reserved": 0, "name": "fb045e41782d3e810c7e3fa1b1d7cb35", "type": "electric_bike", "bike_id": "fb045e41782d3e810c7e3fa1b1d7cb35", "rental_uris": {"ios": "https://dc.lft.to/lastmile_qr_scan", "android": "https://dc.lft.to/lastmile_qr_scan"}, "fusion_lat": 0.0}, {"lat": 38.92394766666666, "lon": -77.05060133333333, "is_disabled": 0, "fusion_lon": 0.0, "is_reserved": 0, "name": "a7d16b8cbf0677da6f47befc5fea155a", "type": "electric_scooter", "bike_id": "a7d16b8cbf0677da6f47befc5fea155a", "rental_uris": {"ios": "https://dc.lft.to/lastmile_qr_scan", "android": "https://dc.lft.to/lastmile_qr_scan"}, "fusion_lat": 0.0}, {"lat": 38.9119245, "lon": -77.0067535, "is_disabled": 0, "fusion_lon": 0.0, "is_reserved": 0, "name": "9320ab9be2aebde3fb09869aa73ec9a1", "type": "electric_scooter", "bike_id": "9320ab9be2aebde3fb09869aa73ec9a1", "rental_uris": {"ios": "https://dc.lft.to/lastmile_qr_scan", "android": "https://dc.lft.to/lastmile_qr_scan"}, "fusion_lat": 0.0}, {"lat": 38.90536216666667, "lon": -77.04991916666667, "is_disabled": 0, "fusion_lon": 0.0, "is_reserved": 0, "name": "46111ad84412cc81b452b47d81018dd2", "type": "electric_scooter", "bike_id": "46111ad84412cc81b452b47d81018dd2", "rental_uris": {"ios": "https://dc.lft.to/lastmile_qr_scan", "android": "https://dc.lft.to/lastmile_qr_scan"}, "fusion_lat": 0.0}, {"lat": 38.9304415, "lon": -77.0730145, "is_disabled": 0, "fusion_lon": 0.0, "is_reserved": 0, "name": "4985c7682d345f6da8395b261ab83434", "type": "electric_scooter", "bike_id": "4985c7682d345f6da8395b261ab83434", "rental_uris": {"ios": "https://dc.lft.to/lastmile_qr_scan", "android": "https://dc.lft.to/lastmile_qr_scan"}, "fusion_lat": 0.0}, {"lat": 38.905781, "lon": -77.002781, "is_disabled": 0, "fusion_lon": 0.0, "is_reserved": 0, "name": "e6cb6c8f206b827989f05b4af30dad27", "type": "electric_scooter", "bike_id": "e6cb6c8f206b827989f05b4af30dad27", "rental_uris": {"ios": "https://dc.lft.to/lastmile_qr_scan", "android": "https://dc.lft.to/lastmile_qr_scan"}, "fusion_lat": 0.0}, {"lat": 38.89685383333333, "lon": -77.0433185, "is_disabled": 0, "fusion_lon": 0.0, "is_reserved": 0, "name": "ebe26d9bd82589a26ac08b17c4850b92", "type": "electric_scooter", "bike_id": "ebe26d9bd82589a26ac08b17c4850b92", "rental_uris": {"ios": "https://dc.lft.to/lastmile_qr_scan", "android": "https://dc.lft.to/lastmile_qr_scan"}, "fusion_lat": 0.0}, {"lat": 38.9253415, "lon": -77.04130966666666, "is_disabled": 0, "fusion_lon": 0.0, "is_reserved": 0, "name": "f5f93523360755b7d1d3bdc1715c71ff", "type": "electric_scooter", "bike_id": "f5f93523360755b7d1d3bdc1715c71ff", "rental_uris": {"ios": "https://dc.lft.to/lastmile_qr_scan", "android": "https://dc.lft.to/lastmile_qr_scan"}, "fusion_lat": 0.0}, {"lat": 38.904247166666664, "lon": -77.0435595, "is_disabled": 0, "fusion_lon": 0.0, "is_reserved": 0, "name": "d611d3090edd47fb5f0a354ca6c22777", "type": "electric_scooter", "bike_id": "d611d3090edd47fb5f0a354ca6c22777", "rental_uris": {"ios": "https://dc.lft.to/lastmile_qr_scan", "android": "https://dc.lft.to/lastmile_qr_scan"}, "fusion_lat": 0.0}, {"lat": 38.9233985, "lon": -77.05177566666667, "is_disabled": 0, "fusion_lon": 0.0, "is_reserved": 0, "name": "8699daaf374e990bccba698841aa352f", "type": "electric_scooter", "bike_id": "8699daaf374e990bccba698841aa352f", "rental_uris": {"ios": "https://dc.lft.to/lastmile_qr_scan", "android": "https://dc.lft.to/lastmile_qr_scan"}, "fusion_lat": 0.0}, {"lat": 38.892199833333336, "lon": -77.02757916666667, "is_disabled": 0, "fusion_lon": 0.0, "is_reserved": 0, "name": "eb18de2838257213b26fbe0e00a29be0", "type": "electric_scooter", "bike_id": "eb18de2838257213b26fbe0e00a29be0", "rental_uris": {"ios": "https://dc.lft.to/lastmile_qr_scan", "android": "https://dc.lft.to/lastmile_qr_scan"}, "fusion_lat": 0.0}, {"lat": 38.9014635, "lon": -77.04422266666667, "is_disabled": 0, "fusion_lon": 0.0, "is_reserved": 0, "name": "6508ab6d64db69f366848b4a80d8e102", "type": "electric_scooter", "bike_id": "6508ab6d64db69f366848b4a80d8e102", "rental_uris": {"ios": "https://dc.lft.to/lastmile_qr_scan", "android": "https://dc.lft.to/lastmile_qr_scan"}, "fusion_lat": 0.0}, {"lat": 38.93732083333333, "lon": -77.02444783333333, "is_disabled": 0, "fusion_lon": 0.0, "is_reserved": 0, "name": "b6aeee5a6f054719e0f5ad76ec0da3dc", "type": "electric_scooter", "bike_id": "b6aeee5a6f054719e0f5ad76ec0da3dc", "rental_uris": {"ios": "https://dc.lft.to/lastmile_qr_scan", "android": "https://dc.lft.to/lastmile_qr_scan"}, "fusion_lat": 0.0}, {"lat": 38.910044166666665, "lon": -77.0401005, "is_disabled": 0, "fusion_lon": 0.0, "is_reserved": 0, "name": "81c890c92fc2fef665be1ca1a2a8084c", "type": "electric_scooter", "bike_id": "81c890c92fc2fef665be1ca1a2a8084c", "rental_uris": {"ios": "https://dc.lft.to/lastmile_qr_scan", "android": "https://dc.lft.to/lastmile_qr_scan"}, "fusion_lat": 0.0}, {"lat": 38.91480116666666, "lon": -77.04608833333333, "is_disabled": 0, "fusion_lon": 0.0, "is_reserved": 0, "name": "b9d406057ade2ec46c33f91d1bfe9317", "type": "electric_scooter", "bike_id": "b9d406057ade2ec46c33f91d1bfe9317", "rental_uris": {"ios": "https://dc.lft.to/lastmile_qr_scan", "android": "https://dc.lft.to/lastmile_qr_scan"}, "fusion_lat": 0.0}, {"lat": 38.939113166666665, "lon": -77.02473, "is_disabled": 0, "fusion_lon": 0.0, "is_reserved": 0, "name": "cbfb28b63feaa5a26dfde75726c44e7d", "type": "electric_scooter", "bike_id": "cbfb28b63feaa5a26dfde75726c44e7d", "rental_uris": {"ios": "https://dc.lft.to/lastmile_qr_scan", "android": "https://dc.lft.to/lastmile_qr_scan"}, "fusion_lat": 0.0}, {"lat": 38.8965045, "lon": -77.00924516666667, "is_disabled": 0, "fusion_lon": 0.0, "is_reserved": 0, "name": "b084478aa5c12113a39ac3d45c13dc3c", "type": "electric_scooter", "bike_id": "b084478aa5c12113a39ac3d45c13dc3c", "rental_uris": {"ios": "https://dc.lft.to/lastmile_qr_scan", "android": "https://dc.lft.to/lastmile_qr_scan"}, "fusion_lat": 0.0}, {"lat": 38.907740833333335, "lon": -77.071623, "is_disabled": 0, "fusion_lon": 0.0, "is_reserved": 0, "name": "f33e2d566b4ce0cf4cb1c310bb749e15", "type": "electric_scooter", "bike_id": "f33e2d566b4ce0cf4cb1c310bb749e15", "rental_uris": {"ios": "https://dc.lft.to/lastmile_qr_scan", "android": "https://dc.lft.to/lastmile_qr_scan"}, "fusion_lat": 0.0}, {"lat": 38.9012745, "lon": -77.016485, "is_disabled": 0, "fusion_lon": 0.0, "is_reserved": 0, "name": "621e7426d4863e31a0ed75fbc241d4e8", "type": "electric_scooter", "bike_id": "621e7426d4863e31a0ed75fbc241d4e8", "rental_uris": {"ios": "https://dc.lft.to/lastmile_qr_scan", "android": "https://dc.lft.to/lastmile_qr_scan"}, "fusion_lat": 0.0}, {"lat": 38.90079933333333, "lon": -77.0437955, "is_disabled": 0, "fusion_lon": 0.0, "is_reserved": 0, "name": "f84f4ffe2a3899c8ce4e49acc5e26571", "type": "electric_scooter", "bike_id": "f84f4ffe2a3899c8ce4e49acc5e26571", "rental_uris": {"ios": "https://dc.lft.to/lastmile_qr_scan", "android": "https://dc.lft.to/lastmile_qr_scan"}, "fusion_lat": 0.0}, {"lat": 38.91606516666667, "lon": -77.0228555, "is_disabled": 0, "fusion_lon": 0.0, "is_reserved": 0, "name": "2282c233a3ceae4b607f071d034e317e", "type": "electric_scooter", "bike_id": "2282c233a3ceae4b607f071d034e317e", "rental_uris": {"ios": "https://dc.lft.to/lastmile_qr_scan", "android": "https://dc.lft.to/lastmile_qr_scan"}, "fusion_lat": 0.0}, {"lat": 38.89737933333333, "lon": -77.0552605, "is_disabled": 0, "fusion_lon": 0.0, "is_reserved": 0, "name": "0acad08cc71c896986f3bcbb41b863c5", "type": "electric_scooter", "bike_id": "0acad08cc71c896986f3bcbb41b863c5", "rental_uris": {"ios": "https://dc.lft.to/lastmile_qr_scan", "android": "https://dc.lft.to/lastmile_qr_scan"}, "fusion_lat": 0.0}, {"lat": 38.92886133333333, "lon": -77.03265933333333, "is_disabled": 0, "fusion_lon": 0.0, "is_reserved": 0, "name": "1e371904b1a3636b8c3aa50277d12814", "type": "electric_scooter", "bike_id": "1e371904b1a3636b8c3aa50277d12814", "rental_uris": {"ios": "https://dc.lft.to/lastmile_qr_scan", "android": "https://dc.lft.to/lastmile_qr_scan"}, "fusion_lat": 0.0}, {"lat": 38.8947125, "lon": -77.02244766666666, "is_disabled": 0, "fusion_lon": 0.0, "is_reserved": 0, "name": "eae2114dc5682cedb8292871ae08c99b", "type": "electric_scooter", "bike_id": "eae2114dc5682cedb8292871ae08c99b", "rental_uris": {"ios": "https://dc.lft.to/lastmile_qr_scan", "android": "https://dc.lft.to/lastmile_qr_scan"}, "fusion_lat": 0.0}, {"lat": 38.90736866666667, "lon": -77.00377516666667, "is_disabled": 0, "fusion_lon": 0.0, "is_reserved": 0, "name": "57c1d630ee49050d3404d03e7f1abf4c", "type": "electric_scooter", "bike_id": "57c1d630ee49050d3404d03e7f1abf4c", "rental_uris": {"ios": "https://dc.lft.to/lastmile_qr_scan", "android": "https://dc.lft.to/lastmile_qr_scan"}, "fusion_lat": 0.0}, {"lat": 38.884315666666666, "lon": -76.95755116666666, "is_disabled": 0, "fusion_lon": 0.0, "is_reserved": 0, "name": "fb5946059a2f63ff1d5d968eb83985e5", "type": "electric_scooter", "bike_id": "fb5946059a2f63ff1d5d968eb83985e5", "rental_uris": {"ios": "https://dc.lft.to/lastmile_qr_scan", "android": "https://dc.lft.to/lastmile_qr_scan"}, "fusion_lat": 0.0}, {"lat": 38.88729133333333, "lon": -76.98358483333334, "is_disabled": 0, "fusion_lon": 0.0, "is_reserved": 0, "name": "489e227e151739d224558da08d4f4f95", "type": "electric_scooter", "bike_id": "489e227e151739d224558da08d4f4f95", "rental_uris": {"ios": "https://dc.lft.to/lastmile_qr_scan", "android": "https://dc.lft.to/lastmile_qr_scan"}, "fusion_lat": 0.0}, {"lat": 38.90395683333333, "lon": -77.050725, "is_disabled": 0, "fusion_lon": 0.0, "is_reserved": 0, "name": "80decfffd9b3de09c8af0eadc526b088", "type": "electric_scooter", "bike_id": "80decfffd9b3de09c8af0eadc526b088", "rental_uris": {"ios": "https://dc.lft.to/lastmile_qr_scan", "android": "https://dc.lft.to/lastmile_qr_scan"}, "fusion_lat": 0.0}, {"lat": 38.91291583333334, "lon": -77.03665, "is_disabled": 0, "fusion_lon": 0.0, "is_reserved": 0, "name": "a77a39ab4e774e8ac734b8e39483f99d", "type": "electric_scooter", "bike_id": "a77a39ab4e774e8ac734b8e39483f99d", "rental_uris": {"ios": "https://dc.lft.to/lastmile_qr_scan", "android": "https://dc.lft.to/lastmile_qr_scan"}, "fusion_lat": 0.0}, {"lat": 38.94292733333333, "lon": -77.021676, "is_disabled": 0, "fusion_lon": 0.0, "is_reserved": 0, "name": "4b910ac1993bea35dbb911fbcdefe376", "type": "electric_scooter", "bike_id": "4b910ac1993bea35dbb911fbcdefe376", "rental_uris": {"ios": "https://dc.lft.to/lastmile_qr_scan", "android": "https://dc.lft.to/lastmile_qr_scan"}, "fusion_lat": 0.0}, {"lat": 38.938783, "lon": -77.02483016666666, "is_disabled": 0, "fusion_lon": 0.0, "is_reserved": 0, "name": "d444caf62ef02271d775474408e424a2", "type": "electric_scooter", "bike_id": "d444caf62ef02271d775474408e424a2", "rental_uris": {"ios": "https://dc.lft.to/lastmile_qr_scan", "android": "https://dc.lft.to/lastmile_qr_scan"}, "fusion_lat": 0.0}, {"lat": 38.919024, "lon": -77.02048316666666, "is_disabled": 0, "fusion_lon": 0.0, "is_reserved": 0, "name": "d3df4a6a31fcf1cf833e299daa522f4c", "type": "electric_scooter", "bike_id": "d3df4a6a31fcf1cf833e299daa522f4c", "rental_uris": {"ios": "https://dc.lft.to/lastmile_qr_scan", "android": "https://dc.lft.to/lastmile_qr_scan"}, "fusion_lat": 0.0}, {"lat": 38.8876745, "lon": -77.02839066666667, "is_disabled": 0, "fusion_lon": 0.0, "is_reserved": 0, "name": "3a0c3769e9ba9091964fb2360a01bb78", "type": "electric_scooter", "bike_id": "3a0c3769e9ba9091964fb2360a01bb78", "rental_uris": {"ios": "https://dc.lft.to/lastmile_qr_scan", "android": "https://dc.lft.to/lastmile_qr_scan"}, "fusion_lat": 0.0}, {"lat": 38.892253833333335, "lon": -77.03213383333333, "is_disabled": 0, "fusion_lon": 0.0, "is_reserved": 0, "name": "af511f326140c18e7cbd7d52a549400f", "type": "electric_scooter", "bike_id": "af511f326140c18e7cbd7d52a549400f", "rental_uris": {"ios": "https://dc.lft.to/lastmile_qr_scan", "android": "https://dc.lft.to/lastmile_qr_scan"}, "fusion_lat": 0.0}, {"lat": 38.8975035, "lon": -77.04338566666667, "is_disabled": 0, "fusion_lon": 0.0, "is_reserved": 0, "name": "f0deb9705a03cdb7ea9af007e083bc9e", "type": "electric_scooter", "bike_id": "f0deb9705a03cdb7ea9af007e083bc9e", "rental_uris": {"ios": "https://dc.lft.to/lastmile_qr_scan", "android": "https://dc.lft.to/lastmile_qr_scan"}, "fusion_lat": 0.0}, {"lat": 38.90731866666667, "lon": -77.00058066666666, "is_disabled": 0, "fusion_lon": 0.0, "is_reserved": 0, "name": "e247db0a2e977528e7993c139564454e", "type": "electric_scooter", "bike_id": "e247db0a2e977528e7993c139564454e", "rental_uris": {"ios": "https://dc.lft.to/lastmile_qr_scan", "android": "https://dc.lft.to/lastmile_qr_scan"}, "fusion_lat": 0.0}, {"lat": 38.956852166666664, "lon": -77.0223035, "is_disabled": 0, "fusion_lon": 0.0, "is_reserved": 0, "name": "be59d99072ee3b1a2a87f1e1187f31b8", "type": "electric_bike", "bike_id": "be59d99072ee3b1a2a87f1e1187f31b8", "rental_uris": {"ios": "https://dc.lft.to/lastmile_qr_scan", "android": "https://dc.lft.to/lastmile_qr_scan"}, "fusion_lat": 0.0}, {"lat": 38.871873, "lon": -77.00638216666667, "is_disabled": 0, "fusion_lon": 0.0, "is_reserved": 0, "name": "f7ff3017d819186a756843e85a8563de", "type": "electric_scooter", "bike_id": "f7ff3017d819186a756843e85a8563de", "rental_uris": {"ios": "https://dc.lft.to/lastmile_qr_scan", "android": "https://dc.lft.to/lastmile_qr_scan"}, "fusion_lat": 0.0}, {"lat": 38.892218666666665, "lon": -77.04465566666667, "is_disabled": 0, "fusion_lon": 0.0, "is_reserved": 0, "name": "e5efd1eb70e0c594bb14a8b4ea3503f2", "type": "electric_scooter", "bike_id": "e5efd1eb70e0c594bb14a8b4ea3503f2", "rental_uris": {"ios": "https://dc.lft.to/lastmile_qr_scan", "android": "https://dc.lft.to/lastmile_qr_scan"}, "fusion_lat": 0.0}, {"lat": 38.90572266666667, "lon": -77.04110916666667, "is_disabled": 0, "fusion_lon": 0.0, "is_reserved": 0, "name": "a88fbf7558ff5b1a9249631f8a0047e9", "type": "electric_scooter", "bike_id": "a88fbf7558ff5b1a9249631f8a0047e9", "rental_uris": {"ios": "https://dc.lft.to/lastmile_qr_scan", "android": "https://dc.lft.to/lastmile_qr_scan"}, "fusion_lat": 0.0}, {"lat": 38.90076716666667, "lon": -77.04678, "is_disabled": 0, "fusion_lon": 0.0, "is_reserved": 0, "name": "13c696c14fcca1c80f8c4d578cca64f7", "type": "electric_scooter", "bike_id": "13c696c14fcca1c80f8c4d578cca64f7", "rental_uris": {"ios": "https://dc.lft.to/lastmile_qr_scan", "android": "https://dc.lft.to/lastmile_qr_scan"}, "fusion_lat": 0.0}, {"lat": 38.907760333333336, "lon": -77.035163, "is_disabled": 0, "fusion_lon": 0.0, "is_reserved": 0, "name": "15b8a667b533322c415ae5a49b880415", "type": "electric_scooter", "bike_id": "15b8a667b533322c415ae5a49b880415", "rental_uris": {"ios": "https://dc.lft.to/lastmile_qr_scan", "android": "https://dc.lft.to/lastmile_qr_scan"}, "fusion_lat": 0.0}, {"lat": 38.915657, "lon": -77.0035355, "is_disabled": 0, "fusion_lon": 0.0, "is_reserved": 0, "name": "23ecbf762411da44417948cc4b31bae2", "type": "electric_scooter", "bike_id": "23ecbf762411da44417948cc4b31bae2", "rental_uris": {"ios": "https://dc.lft.to/lastmile_qr_scan", "android": "https://dc.lft.to/lastmile_qr_scan"}, "fusion_lat": 0.0}, {"lat": 38.844113166666666, "lon": -77.07813183333333, "is_disabled": 0, "fusion_lon": 0.0, "is_reserved": 0, "name": "2b372dcd87f24e6ec28ac27cae8dc89a", "type": "electric_bike", "bike_id": "2b372dcd87f24e6ec28ac27cae8dc89a", "rental_uris": {"ios": "https://dc.lft.to/lastmile_qr_scan", "android": "https://dc.lft.to/lastmile_qr_scan"}, "fusion_lat": 0.0}, {"lat": 38.90309516666667, "lon": -77.01619216666667, "is_disabled": 0, "fusion_lon": 0.0, "is_reserved": 0, "name": "76cc75b1706333a149c0ed8732557b78", "type": "electric_scooter", "bike_id": "76cc75b1706333a149c0ed8732557b78", "rental_uris": {"ios": "https://dc.lft.to/lastmile_qr_scan", "android": "https://dc.lft.to/lastmile_qr_scan"}, "fusion_lat": 0.0}, {"lat": 38.93565483333333, "lon": -77.08766433333334, "is_disabled": 0, "fusion_lon": 0.0, "is_reserved": 0, "name": "764a3cfe9e44c892429d5586185bbe39", "type": "electric_scooter", "bike_id": "764a3cfe9e44c892429d5586185bbe39", "rental_uris": {"ios": "https://dc.lft.to/lastmile_qr_scan", "android": "https://dc.lft.to/lastmile_qr_scan"}, "fusion_lat": 0.0}, {"lat": 38.91436516666667, "lon": -77.01706, "is_disabled": 0, "fusion_lon": 0.0, "is_reserved": 0, "name": "9c25fe8857551ff68f9a66409fdb2088", "type": "electric_scooter", "bike_id": "9c25fe8857551ff68f9a66409fdb2088", "rental_uris": {"ios": "https://dc.lft.to/lastmile_qr_scan", "android": "https://dc.lft.to/lastmile_qr_scan"}, "fusion_lat": 0.0}, {"lat": 38.922836, "lon": -77.036596, "is_disabled": 0, "fusion_lon": 0.0, "is_reserved": 0, "name": "b545ea9109f7a882ef0806692407e762", "type": "electric_scooter", "bike_id": "b545ea9109f7a882ef0806692407e762", "rental_uris": {"ios": "https://dc.lft.to/lastmile_qr_scan", "android": "https://dc.lft.to/lastmile_qr_scan"}, "fusion_lat": 0.0}, {"lat": 38.916268333333335, "lon": -77.040136, "is_disabled": 0, "fusion_lon": 0.0, "is_reserved": 0, "name": "182068a15ce5f9df8938fea1fd9d7f1d", "type": "electric_scooter", "bike_id": "182068a15ce5f9df8938fea1fd9d7f1d", "rental_uris": {"ios": "https://dc.lft.to/lastmile_qr_scan", "android": "https://dc.lft.to/lastmile_qr_scan"}, "fusion_lat": 0.0}, {"lat": 38.909630166666666, "lon": -77.044385, "is_disabled": 0, "fusion_lon": 0.0, "is_reserved": 0, "name": "613998ffbcf72a6500bce25de6a2542d", "type": "electric_scooter", "bike_id": "613998ffbcf72a6500bce25de6a2542d", "rental_uris": {"ios": "https://dc.lft.to/lastmile_qr_scan", "android": "https://dc.lft.to/lastmile_qr_scan"}, "fusion_lat": 0.0}, {"lat": 38.90724216666667, "lon": -77.04329416666667, "is_disabled": 0, "fusion_lon": 0.0, "is_reserved": 0, "name": "8d2f4d9c807bba5b435c19d1c1e2ea26", "type": "electric_scooter", "bike_id": "8d2f4d9c807bba5b435c19d1c1e2ea26", "rental_uris": {"ios": "https://dc.lft.to/lastmile_qr_scan", "android": "https://dc.lft.to/lastmile_qr_scan"}, "fusion_lat": 0.0}, {"lat": 38.901259333333336, "lon": -77.04673183333334, "is_disabled": 0, "fusion_lon": 0.0, "is_reserved": 0, "name": "08f49b89d94f06eea8a54acf813e0d19", "type": "electric_scooter", "bike_id": "08f49b89d94f06eea8a54acf813e0d19", "rental_uris": {"ios": "https://dc.lft.to/lastmile_qr_scan", "android": "https://dc.lft.to/lastmile_qr_scan"}, "fusion_lat": 0.0}, {"lat": 38.91705066666667, "lon": -77.03334316666667, "is_disabled": 0, "fusion_lon": 0.0, "is_reserved": 0, "name": "b7005c440f0246595829dad57e4a5f17", "type": "electric_scooter", "bike_id": "b7005c440f0246595829dad57e4a5f17", "rental_uris": {"ios": "https://dc.lft.to/lastmile_qr_scan", "android": "https://dc.lft.to/lastmile_qr_scan"}, "fusion_lat": 0.0}, {"lat": 38.92263966666667, "lon": -77.03687283333333, "is_disabled": 0, "fusion_lon": 0.0, "is_reserved": 0, "name": "4b3d5c288609a6423de93f50d01c3f2d", "type": "electric_scooter", "bike_id": "4b3d5c288609a6423de93f50d01c3f2d", "rental_uris": {"ios": "https://dc.lft.to/lastmile_qr_scan", "android": "https://dc.lft.to/lastmile_qr_scan"}, "fusion_lat": 0.0}, {"lat": 38.93707333333333, "lon": -77.0351625, "is_disabled": 0, "fusion_lon": 0.0, "is_reserved": 0, "name": "3686d83338e051eee383216b13231207", "type": "electric_scooter", "bike_id": "3686d83338e051eee383216b13231207", "rental_uris": {"ios": "https://dc.lft.to/lastmile_qr_scan", "android": "https://dc.lft.to/lastmile_qr_scan"}, "fusion_lat": 0.0}, {"lat": 38.96373883333333, "lon": -76.94518583333334, "is_disabled": 0, "fusion_lon": 0.0, "is_reserved": 0, "name": "645779ca508531d17c516a87d17bf4a6", "type": "electric_bike", "bike_id": "645779ca508531d17c516a87d17bf4a6", "rental_uris": {"ios": "https://dc.lft.to/lastmile_qr_scan", "android": "https://dc.lft.to/lastmile_qr_scan"}, "fusion_lat": 0.0}, {"lat": 38.90575583333333, "lon": -77.03817516666666, "is_disabled": 0, "fusion_lon": 0.0, "is_reserved": 0, "name": "24ee1e78abc1d43f8c0707654f779666", "type": "electric_scooter", "bike_id": "24ee1e78abc1d43f8c0707654f779666", "rental_uris": {"ios": "https://dc.lft.to/lastmile_qr_scan", "android": "https://dc.lft.to/lastmile_qr_scan"}, "fusion_lat": 0.0}, {"lat": 38.925548, "lon": -77.05261866666666, "is_disabled": 0, "fusion_lon": 0.0, "is_reserved": 0, "name": "f09738e5b3ab0cd1a1be56c2ac60a5b6", "type": "electric_scooter", "bike_id": "f09738e5b3ab0cd1a1be56c2ac60a5b6", "rental_uris": {"ios": "https://dc.lft.to/lastmile_qr_scan", "android": "https://dc.lft.to/lastmile_qr_scan"}, "fusion_lat": 0.0}, {"lat": 38.924604333333335, "lon": -77.02155683333334, "is_disabled": 0, "fusion_lon": 0.0, "is_reserved": 0, "name": "e7b3e07c08cec543ec30986b27088d11", "type": "electric_scooter", "bike_id": "e7b3e07c08cec543ec30986b27088d11", "rental_uris": {"ios": "https://dc.lft.to/lastmile_qr_scan", "android": "https://dc.lft.to/lastmile_qr_scan"}, "fusion_lat": 0.0}, {"lat": 38.89578733333333, "lon": -76.98319266666667, "is_disabled": 0, "fusion_lon": 0.0, "is_reserved": 0, "name": "e9070d540a8b5056e9205f9dda5cf2fb", "type": "electric_scooter", "bike_id": "e9070d540a8b5056e9205f9dda5cf2fb", "rental_uris": {"ios": "https://dc.lft.to/lastmile_qr_scan", "android": "https://dc.lft.to/lastmile_qr_scan"}, "fusion_lat": 0.0}, {"lat": 38.88389133333333, "lon": -76.985595, "is_disabled": 0, "fusion_lon": 0.0, "is_reserved": 0, "name": "1b44cb65851f757379304fcb2807b803", "type": "electric_scooter", "bike_id": "1b44cb65851f757379304fcb2807b803", "rental_uris": {"ios": "https://dc.lft.to/lastmile_qr_scan", "android": "https://dc.lft.to/lastmile_qr_scan"}, "fusion_lat": 0.0}, {"lat": 38.918003166666665, "lon": -77.0248725, "is_disabled": 0, "fusion_lon": 0.0, "is_reserved": 0, "name": "bc1027cf268a63fc9a6f70733e55bdb0", "type": "electric_scooter", "bike_id": "bc1027cf268a63fc9a6f70733e55bdb0", "rental_uris": {"ios": "https://dc.lft.to/lastmile_qr_scan", "android": "https://dc.lft.to/lastmile_qr_scan"}, "fusion_lat": 0.0}, {"lat": 38.956724, "lon": -77.0135725, "is_disabled": 0, "fusion_lon": 0.0, "is_reserved": 0, "name": "2c35ddb1b4998e0432b2fe9e52365e62", "type": "electric_scooter", "bike_id": "2c35ddb1b4998e0432b2fe9e52365e62", "rental_uris": {"ios": "https://dc.lft.to/lastmile_qr_scan", "android": "https://dc.lft.to/lastmile_qr_scan"}, "fusion_lat": 0.0}, {"lat": 38.922418666666665, "lon": -77.07311866666667, "is_disabled": 0, "fusion_lon": 0.0, "is_reserved": 0, "name": "1ce9464ea3eb227e0283ecfcf18f2cdb", "type": "electric_scooter", "bike_id": "1ce9464ea3eb227e0283ecfcf18f2cdb", "rental_uris": {"ios": "https://dc.lft.to/lastmile_qr_scan", "android": "https://dc.lft.to/lastmile_qr_scan"}, "fusion_lat": 0.0}, {"lat": 38.9026185, "lon": -77.0164095, "is_disabled": 0, "fusion_lon": 0.0, "is_reserved": 0, "name": "7b3b48297156feb5cac2988c80cfc3ba", "type": "electric_scooter", "bike_id": "7b3b48297156feb5cac2988c80cfc3ba", "rental_uris": {"ios": "https://dc.lft.to/lastmile_qr_scan", "android": "https://dc.lft.to/lastmile_qr_scan"}, "fusion_lat": 0.0}, {"lat": 38.900419166666666, "lon": -77.02203283333333, "is_disabled": 0, "fusion_lon": 0.0, "is_reserved": 0, "name": "30aaff3c62d7fc6e63ba01b362b995da", "type": "electric_scooter", "bike_id": "30aaff3c62d7fc6e63ba01b362b995da", "rental_uris": {"ios": "https://dc.lft.to/lastmile_qr_scan", "android": "https://dc.lft.to/lastmile_qr_scan"}, "fusion_lat": 0.0}, {"lat": 38.88393933333333, "lon": -77.025612, "is_disabled": 0, "fusion_lon": 0.0, "is_reserved": 0, "name": "993fb2d2353d6c7c7b3a3175a2cf30d0", "type": "electric_scooter", "bike_id": "993fb2d2353d6c7c7b3a3175a2cf30d0", "rental_uris": {"ios": "https://dc.lft.to/lastmile_qr_scan", "android": "https://dc.lft.to/lastmile_qr_scan"}, "fusion_lat": 0.0}, {"lat": 38.91796933333333, "lon": -77.02708483333333, "is_disabled": 0, "fusion_lon": 0.0, "is_reserved": 0, "name": "f8dfdf666d371bb6abcd1df57f631fc6", "type": "electric_scooter", "bike_id": "f8dfdf666d371bb6abcd1df57f631fc6", "rental_uris": {"ios": "https://dc.lft.to/lastmile_qr_scan", "android": "https://dc.lft.to/lastmile_qr_scan"}, "fusion_lat": 0.0}, {"lat": 38.88728033333334, "lon": -77.02382083333333, "is_disabled": 0, "fusion_lon": 0.0, "is_reserved": 0, "name": "2efad9969b34971565ddbde983e0834a", "type": "electric_scooter", "bike_id": "2efad9969b34971565ddbde983e0834a", "rental_uris": {"ios": "https://dc.lft.to/lastmile_qr_scan", "android": "https://dc.lft.to/lastmile_qr_scan"}, "fusion_lat": 0.0}, {"lat": 38.924555833333336, "lon": -77.021585, "is_disabled": 0, "fusion_lon": 0.0, "is_reserved": 0, "name": "135ad4e9886781d7668bce2e5e397ad9", "type": "electric_scooter", "bike_id": "135ad4e9886781d7668bce2e5e397ad9", "rental_uris": {"ios": "https://dc.lft.to/lastmile_qr_scan", "android": "https://dc.lft.to/lastmile_qr_scan"}, "fusion_lat": 0.0}, {"lat": 38.92765983333334, "lon": -77.03248766666667, "is_disabled": 0, "fusion_lon": 0.0, "is_reserved": 0, "name": "8fedb4dd45db6f988009489da5116197", "type": "electric_scooter", "bike_id": "8fedb4dd45db6f988009489da5116197", "rental_uris": {"ios": "https://dc.lft.to/lastmile_qr_scan", "android": "https://dc.lft.to/lastmile_qr_scan"}, "fusion_lat": 0.0}, {"lat": 38.956548166666664, "lon": -77.0196635, "is_disabled": 0, "fusion_lon": 0.0, "is_reserved": 0, "name": "fd1ea213de2e6b3b7e721d6ec166035d", "type": "electric_scooter", "bike_id": "fd1ea213de2e6b3b7e721d6ec166035d", "rental_uris": {"ios": "https://dc.lft.to/lastmile_qr_scan", "android": "https://dc.lft.to/lastmile_qr_scan"}, "fusion_lat": 0.0}, {"lat": 38.93061616666667, "lon": -77.03818416666667, "is_disabled": 0, "fusion_lon": 0.0, "is_reserved": 0, "name": "0a8969a6e33cd3b70bb94f6e7e501917", "type": "electric_scooter", "bike_id": "0a8969a6e33cd3b70bb94f6e7e501917", "rental_uris": {"ios": "https://dc.lft.to/lastmile_qr_scan", "android": "https://dc.lft.to/lastmile_qr_scan"}, "fusion_lat": 0.0}, {"lat": 38.9105105, "lon": -77.043451, "is_disabled": 0, "fusion_lon": 0.0, "is_reserved": 0, "name": "fd0e0f2729dd1c15c2a98e8b601ba649", "type": "electric_scooter", "bike_id": "fd0e0f2729dd1c15c2a98e8b601ba649", "rental_uris": {"ios": "https://dc.lft.to/lastmile_qr_scan", "android": "https://dc.lft.to/lastmile_qr_scan"}, "fusion_lat": 0.0}, {"lat": 38.897644, "lon": -77.05454883333333, "is_disabled": 0, "fusion_lon": 0.0, "is_reserved": 0, "name": "8075cee2a62a9e819046ac1253f6c67a", "type": "electric_scooter", "bike_id": "8075cee2a62a9e819046ac1253f6c67a", "rental_uris": {"ios": "https://dc.lft.to/lastmile_qr_scan", "android": "https://dc.lft.to/lastmile_qr_scan"}, "fusion_lat": 0.0}, {"lat": 38.896070333333334, "lon": -77.00927366666667, "is_disabled": 0, "fusion_lon": 0.0, "is_reserved": 0, "name": "d0f92168ff36b2f12df2170cc2740cfb", "type": "electric_scooter", "bike_id": "d0f92168ff36b2f12df2170cc2740cfb", "rental_uris": {"ios": "https://dc.lft.to/lastmile_qr_scan", "android": "https://dc.lft.to/lastmile_qr_scan"}, "fusion_lat": 0.0}, {"lat": 38.89220016666667, "lon": -77.027731, "is_disabled": 0, "fusion_lon": 0.0, "is_reserved": 0, "name": "5b9b65c347bf73ecca6e3709f410a686", "type": "electric_scooter", "bike_id": "5b9b65c347bf73ecca6e3709f410a686", "rental_uris": {"ios": "https://dc.lft.to/lastmile_qr_scan", "android": "https://dc.lft.to/lastmile_qr_scan"}, "fusion_lat": 0.0}, {"lat": 38.90174316666667, "lon": -77.02480916666667, "is_disabled": 0, "fusion_lon": 0.0, "is_reserved": 0, "name": "c1ee64fde5da8af55016a3063c97664c", "type": "electric_scooter", "bike_id": "c1ee64fde5da8af55016a3063c97664c", "rental_uris": {"ios": "https://dc.lft.to/lastmile_qr_scan", "android": "https://dc.lft.to/lastmile_qr_scan"}, "fusion_lat": 0.0}, {"lat": 38.8982215, "lon": -77.05033016666667, "is_disabled": 0, "fusion_lon": 0.0, "is_reserved": 0, "name": "a73451c950885349995a7593d7d554d6", "type": "electric_scooter", "bike_id": "a73451c950885349995a7593d7d554d6", "rental_uris": {"ios": "https://dc.lft.to/lastmile_qr_scan", "android": "https://dc.lft.to/lastmile_qr_scan"}, "fusion_lat": 0.0}, {"lat": 38.92442166666667, "lon": -77.022402, "is_disabled": 0, "fusion_lon": 0.0, "is_reserved": 0, "name": "8eca109077d6e155fa0efab4e70b31b9", "type": "electric_scooter", "bike_id": "8eca109077d6e155fa0efab4e70b31b9", "rental_uris": {"ios": "https://dc.lft.to/lastmile_qr_scan", "android": "https://dc.lft.to/lastmile_qr_scan"}, "fusion_lat": 0.0}, {"lat": 38.901719666666665, "lon": -77.00344583333333, "is_disabled": 0, "fusion_lon": 0.0, "is_reserved": 0, "name": "4505f476e3aa84dcbfacb87b7f88c6dc", "type": "electric_bike", "bike_id": "4505f476e3aa84dcbfacb87b7f88c6dc", "rental_uris": {"ios": "https://dc.lft.to/lastmile_qr_scan", "android": "https://dc.lft.to/lastmile_qr_scan"}, "fusion_lat": 0.0}, {"lat": 38.9229925, "lon": -77.042691, "is_disabled": 0, "fusion_lon": 0.0, "is_reserved": 0, "name": "4111aca60c0aa40d0fb2cb228821298a", "type": "electric_scooter", "bike_id": "4111aca60c0aa40d0fb2cb228821298a", "rental_uris": {"ios": "https://dc.lft.to/lastmile_qr_scan", "android": "https://dc.lft.to/lastmile_qr_scan"}, "fusion_lat": 0.0}, {"lat": 38.93003933333333, "lon": -77.03274783333333, "is_disabled": 0, "fusion_lon": 0.0, "is_reserved": 0, "name": "4560da5eacb80cc01220a1e9dca86559", "type": "electric_scooter", "bike_id": "4560da5eacb80cc01220a1e9dca86559", "rental_uris": {"ios": "https://dc.lft.to/lastmile_qr_scan", "android": "https://dc.lft.to/lastmile_qr_scan"}, "fusion_lat": 0.0}, {"lat": 38.92773566666666, "lon": -77.02776016666667, "is_disabled": 0, "fusion_lon": 0.0, "is_reserved": 0, "name": "9411df3064feb8565b144c1849aba508", "type": "electric_scooter", "bike_id": "9411df3064feb8565b144c1849aba508", "rental_uris": {"ios": "https://dc.lft.to/lastmile_qr_scan", "android": "https://dc.lft.to/lastmile_qr_scan"}, "fusion_lat": 0.0}, {"lat": 38.923666833333336, "lon": -77.04418983333333, "is_disabled": 0, "fusion_lon": 0.0, "is_reserved": 0, "name": "632a4bd851583d52981f8c9009ee7156", "type": "electric_scooter", "bike_id": "632a4bd851583d52981f8c9009ee7156", "rental_uris": {"ios": "https://dc.lft.to/lastmile_qr_scan", "android": "https://dc.lft.to/lastmile_qr_scan"}, "fusion_lat": 0.0}, {"lat": 38.89221966666667, "lon": -77.03168533333333, "is_disabled": 0, "fusion_lon": 0.0, "is_reserved": 0, "name": "69102d2873274a5a65a518e912ae4133", "type": "electric_scooter", "bike_id": "69102d2873274a5a65a518e912ae4133", "rental_uris": {"ios": "https://dc.lft.to/lastmile_qr_scan", "android": "https://dc.lft.to/lastmile_qr_scan"}, "fusion_lat": 0.0}, {"lat": 38.915250666666665, "lon": -77.01423566666666, "is_disabled": 0, "fusion_lon": 0.0, "is_reserved": 0, "name": "b05028a8b830b5abc0a3253cb59ead91", "type": "electric_scooter", "bike_id": "b05028a8b830b5abc0a3253cb59ead91", "rental_uris": {"ios": "https://dc.lft.to/lastmile_qr_scan", "android": "https://dc.lft.to/lastmile_qr_scan"}, "fusion_lat": 0.0}, {"lat": 38.91734233333333, "lon": -77.041759, "is_disabled": 0, "fusion_lon": 0.0, "is_reserved": 0, "name": "3355292acf02c5d1316af04a0cac43eb", "type": "electric_scooter", "bike_id": "3355292acf02c5d1316af04a0cac43eb", "rental_uris": {"ios": "https://dc.lft.to/lastmile_qr_scan", "android": "https://dc.lft.to/lastmile_qr_scan"}, "fusion_lat": 0.0}, {"lat": 38.902513166666665, "lon": -77.03745733333334, "is_disabled": 0, "fusion_lon": 0.0, "is_reserved": 0, "name": "bddc1f8482a4e30342834309b9cfd627", "type": "electric_scooter", "bike_id": "bddc1f8482a4e30342834309b9cfd627", "rental_uris": {"ios": "https://dc.lft.to/lastmile_qr_scan", "android": "https://dc.lft.to/lastmile_qr_scan"}, "fusion_lat": 0.0}, {"lat": 38.91024016666667, "lon": -76.99726716666666, "is_disabled": 0, "fusion_lon": 0.0, "is_reserved": 0, "name": "34a17ecbaa7b5c867807e2ce562f7216", "type": "electric_scooter", "bike_id": "34a17ecbaa7b5c867807e2ce562f7216", "rental_uris": {"ios": "https://dc.lft.to/lastmile_qr_scan", "android": "https://dc.lft.to/lastmile_qr_scan"}, "fusion_lat": 0.0}, {"lat": 38.91553416666667, "lon": -77.03255233333333, "is_disabled": 0, "fusion_lon": 0.0, "is_reserved": 0, "name": "cd1de673a147a5ef565a2eb558a7f1b2", "type": "electric_scooter", "bike_id": "cd1de673a147a5ef565a2eb558a7f1b2", "rental_uris": {"ios": "https://dc.lft.to/lastmile_qr_scan", "android": "https://dc.lft.to/lastmile_qr_scan"}, "fusion_lat": 0.0}, {"lat": 38.9245425, "lon": -77.05195566666667, "is_disabled": 0, "fusion_lon": 0.0, "is_reserved": 0, "name": "eb7ce3e66fa661440f86168e448b1d11", "type": "electric_scooter", "bike_id": "eb7ce3e66fa661440f86168e448b1d11", "rental_uris": {"ios": "https://dc.lft.to/lastmile_qr_scan", "android": "https://dc.lft.to/lastmile_qr_scan"}, "fusion_lat": 0.0}, {"lat": 38.908618, "lon": -76.99159233333333, "is_disabled": 0, "fusion_lon": 0.0, "is_reserved": 0, "name": "8f3157431085e6454c4f55d659432432", "type": "electric_scooter", "bike_id": "8f3157431085e6454c4f55d659432432", "rental_uris": {"ios": "https://dc.lft.to/lastmile_qr_scan", "android": "https://dc.lft.to/lastmile_qr_scan"}, "fusion_lat": 0.0}, {"lat": 38.93823166666667, "lon": -76.98922933333333, "is_disabled": 0, "fusion_lon": 0.0, "is_reserved": 0, "name": "242d6b5f7a330f2aa745a44b761c870b", "type": "electric_scooter", "bike_id": "242d6b5f7a330f2aa745a44b761c870b", "rental_uris": {"ios": "https://dc.lft.to/lastmile_qr_scan", "android": "https://dc.lft.to/lastmile_qr_scan"}, "fusion_lat": 0.0}, {"lat": 39.014844333333336, "lon": -77.09947416666667, "is_disabled": 0, "fusion_lon": 0.0, "is_reserved": 0, "name": "724b2d9e619f5e9757fd247358817900", "type": "electric_bike", "bike_id": "724b2d9e619f5e9757fd247358817900", "rental_uris": {"ios": "https://dc.lft.to/lastmile_qr_scan", "android": "https://dc.lft.to/lastmile_qr_scan"}, "fusion_lat": 0.0}, {"lat": 38.90217066666666, "lon": -77.02253833333333, "is_disabled": 0, "fusion_lon": 0.0, "is_reserved": 0, "name": "10016b02d014fff185dab7ab679239a6", "type": "electric_scooter", "bike_id": "10016b02d014fff185dab7ab679239a6", "rental_uris": {"ios": "https://dc.lft.to/lastmile_qr_scan", "android": "https://dc.lft.to/lastmile_qr_scan"}, "fusion_lat": 0.0}, {"lat": 38.9162915, "lon": -77.01577983333334, "is_disabled": 0, "fusion_lon": 0.0, "is_reserved": 0, "name": "e9b3477349a462911557d8a0c1b4235c", "type": "electric_scooter", "bike_id": "e9b3477349a462911557d8a0c1b4235c", "rental_uris": {"ios": "https://dc.lft.to/lastmile_qr_scan", "android": "https://dc.lft.to/lastmile_qr_scan"}, "fusion_lat": 0.0}, {"lat": 38.899182833333334, "lon": -76.93377, "is_disabled": 0, "fusion_lon": 0.0, "is_reserved": 0, "name": "13a73c58c38058fe47def7a3407c3153", "type": "electric_scooter", "bike_id": "13a73c58c38058fe47def7a3407c3153", "rental_uris": {"ios": "https://dc.lft.to/lastmile_qr_scan", "android": "https://dc.lft.to/lastmile_qr_scan"}, "fusion_lat": 0.0}, {"lat": 38.921009, "lon": -77.04702866666666, "is_disabled": 0, "fusion_lon": 0.0, "is_reserved": 0, "name": "e2d95d301a698d57d317104342173590", "type": "electric_scooter", "bike_id": "e2d95d301a698d57d317104342173590", "rental_uris": {"ios": "https://dc.lft.to/lastmile_qr_scan", "android": "https://dc.lft.to/lastmile_qr_scan"}, "fusion_lat": 0.0}, {"lat": 38.878142, "lon": -77.00545666666666, "is_disabled": 0, "fusion_lon": 0.0, "is_reserved": 0, "name": "93035b477b8904b11a7a0356788f338b", "type": "electric_scooter", "bike_id": "93035b477b8904b11a7a0356788f338b", "rental_uris": {"ios": "https://dc.lft.to/lastmile_qr_scan", "android": "https://dc.lft.to/lastmile_qr_scan"}, "fusion_lat": 0.0}, {"lat": 38.87496566666667, "lon": -76.99970766666667, "is_disabled": 0, "fusion_lon": 0.0, "is_reserved": 0, "name": "b09aad45b0018c915c5660318f6c952f", "type": "electric_scooter", "bike_id": "b09aad45b0018c915c5660318f6c952f", "rental_uris": {"ios": "https://dc.lft.to/lastmile_qr_scan", "android": "https://dc.lft.to/lastmile_qr_scan"}, "fusion_lat": 0.0}, {"lat": 38.906039666666665, "lon": -77.06289733333334, "is_disabled": 0, "fusion_lon": 0.0, "is_reserved": 0, "name": "8c6c386b9cc5cfc797c4252f465f10f2", "type": "electric_scooter", "bike_id": "8c6c386b9cc5cfc797c4252f465f10f2", "rental_uris": {"ios": "https://dc.lft.to/lastmile_qr_scan", "android": "https://dc.lft.to/lastmile_qr_scan"}, "fusion_lat": 0.0}, {"lat": 38.91990333333333, "lon": -77.025388, "is_disabled": 0, "fusion_lon": 0.0, "is_reserved": 0, "name": "c08f7e2daa6adb18206b9c9bbaf1a649", "type": "electric_scooter", "bike_id": "c08f7e2daa6adb18206b9c9bbaf1a649", "rental_uris": {"ios": "https://dc.lft.to/lastmile_qr_scan", "android": "https://dc.lft.to/lastmile_qr_scan"}, "fusion_lat": 0.0}, {"lat": 38.904843666666665, "lon": -77.019784, "is_disabled": 0, "fusion_lon": 0.0, "is_reserved": 0, "name": "52ff1cb644e0a841c4bb14a77f1e3f1d", "type": "electric_scooter", "bike_id": "52ff1cb644e0a841c4bb14a77f1e3f1d", "rental_uris": {"ios": "https://dc.lft.to/lastmile_qr_scan", "android": "https://dc.lft.to/lastmile_qr_scan"}, "fusion_lat": 0.0}, {"lat": 38.8851975, "lon": -77.01128266666667, "is_disabled": 0, "fusion_lon": 0.0, "is_reserved": 0, "name": "58cc673eb466036ebdef0dcd9f141526", "type": "electric_scooter", "bike_id": "58cc673eb466036ebdef0dcd9f141526", "rental_uris": {"ios": "https://dc.lft.to/lastmile_qr_scan", "android": "https://dc.lft.to/lastmile_qr_scan"}, "fusion_lat": 0.0}, {"lat": 38.94403766666667, "lon": -77.03905766666666, "is_disabled": 0, "fusion_lon": 0.0, "is_reserved": 0, "name": "dd82739da002116d1d23e708d06fae12", "type": "electric_scooter", "bike_id": "dd82739da002116d1d23e708d06fae12", "rental_uris": {"ios": "https://dc.lft.to/lastmile_qr_scan", "android": "https://dc.lft.to/lastmile_qr_scan"}, "fusion_lat": 0.0}, {"lat": 38.83578216666667, "lon": -77.00119383333333, "is_disabled": 0, "fusion_lon": 0.0, "is_reserved": 0, "name": "df6289dc3d8efa85ee6fe702f5b203b6", "type": "electric_bike", "bike_id": "df6289dc3d8efa85ee6fe702f5b203b6", "rental_uris": {"ios": "https://dc.lft.to/lastmile_qr_scan", "android": "https://dc.lft.to/lastmile_qr_scan"}, "fusion_lat": 0.0}, {"lat": 38.9141215, "lon": -77.01074033333333, "is_disabled": 0, "fusion_lon": 0.0, "is_reserved": 0, "name": "1fbf6f152779144842f8aa0be90e90a0", "type": "electric_scooter", "bike_id": "1fbf6f152779144842f8aa0be90e90a0", "rental_uris": {"ios": "https://dc.lft.to/lastmile_qr_scan", "android": "https://dc.lft.to/lastmile_qr_scan"}, "fusion_lat": 0.0}, {"lat": 38.902672833333334, "lon": -77.03473883333334, "is_disabled": 0, "fusion_lon": 0.0, "is_reserved": 0, "name": "394e2a700fa190de8542f6b9f50be8f4", "type": "electric_scooter", "bike_id": "394e2a700fa190de8542f6b9f50be8f4", "rental_uris": {"ios": "https://dc.lft.to/lastmile_qr_scan", "android": "https://dc.lft.to/lastmile_qr_scan"}, "fusion_lat": 0.0}, {"lat": 38.902685166666664, "lon": -77.02007966666666, "is_disabled": 0, "fusion_lon": 0.0, "is_reserved": 0, "name": "cf37f5e28504cd035d21d99dd63e4d12", "type": "electric_scooter", "bike_id": "cf37f5e28504cd035d21d99dd63e4d12", "rental_uris": {"ios": "https://dc.lft.to/lastmile_qr_scan", "android": "https://dc.lft.to/lastmile_qr_scan"}, "fusion_lat": 0.0}, {"lat": 38.89240266666667, "lon": -77.0278925, "is_disabled": 0, "fusion_lon": 0.0, "is_reserved": 0, "name": "c46c5963f9647804459d67e0432c06c4", "type": "electric_scooter", "bike_id": "c46c5963f9647804459d67e0432c06c4", "rental_uris": {"ios": "https://dc.lft.to/lastmile_qr_scan", "android": "https://dc.lft.to/lastmile_qr_scan"}, "fusion_lat": 0.0}, {"lat": 38.89739766666667, "lon": -77.027564, "is_disabled": 0, "fusion_lon": 0.0, "is_reserved": 0, "name": "d4c47cc1c437f754195850a08e43ba6c", "type": "electric_scooter", "bike_id": "d4c47cc1c437f754195850a08e43ba6c", "rental_uris": {"ios": "https://dc.lft.to/lastmile_qr_scan", "android": "https://dc.lft.to/lastmile_qr_scan"}, "fusion_lat": 0.0}, {"lat": 38.90972883333333, "lon": -77.03947833333334, "is_disabled": 0, "fusion_lon": 0.0, "is_reserved": 0, "name": "640121c496b96bd65583bafd477d61cc", "type": "electric_scooter", "bike_id": "640121c496b96bd65583bafd477d61cc", "rental_uris": {"ios": "https://dc.lft.to/lastmile_qr_scan", "android": "https://dc.lft.to/lastmile_qr_scan"}, "fusion_lat": 0.0}, {"lat": 38.93041216666667, "lon": -77.03352166666667, "is_disabled": 0, "fusion_lon": 0.0, "is_reserved": 0, "name": "30008eb3cac561e30dc209c2f0351a2d", "type": "electric_scooter", "bike_id": "30008eb3cac561e30dc209c2f0351a2d", "rental_uris": {"ios": "https://dc.lft.to/lastmile_qr_scan", "android": "https://dc.lft.to/lastmile_qr_scan"}, "fusion_lat": 0.0}, {"lat": 38.948493, "lon": -77.023598, "is_disabled": 0, "fusion_lon": 0.0, "is_reserved": 0, "name": "b8a6b8d386c5b5ab3f58fad137c4c959", "type": "electric_scooter", "bike_id": "b8a6b8d386c5b5ab3f58fad137c4c959", "rental_uris": {"ios": "https://dc.lft.to/lastmile_qr_scan", "android": "https://dc.lft.to/lastmile_qr_scan"}, "fusion_lat": 0.0}, {"lat": 38.910223333333334, "lon": -77.02381283333334, "is_disabled": 0, "fusion_lon": 0.0, "is_reserved": 0, "name": "679ebb2ed01d29607eadee4deb2bb8b3", "type": "electric_scooter", "bike_id": "679ebb2ed01d29607eadee4deb2bb8b3", "rental_uris": {"ios": "https://dc.lft.to/lastmile_qr_scan", "android": "https://dc.lft.to/lastmile_qr_scan"}, "fusion_lat": 0.0}, {"lat": 38.91126416666667, "lon": -77.03196783333334, "is_disabled": 0, "fusion_lon": 0.0, "is_reserved": 0, "name": "5a88441613dc39506996d913120c7a8d", "type": "electric_scooter", "bike_id": "5a88441613dc39506996d913120c7a8d", "rental_uris": {"ios": "https://dc.lft.to/lastmile_qr_scan", "android": "https://dc.lft.to/lastmile_qr_scan"}, "fusion_lat": 0.0}, {"lat": 38.8633035, "lon": -76.98720433333334, "is_disabled": 0, "fusion_lon": 0.0, "is_reserved": 0, "name": "da770b7462d001ac0f3d06ab607f7c43", "type": "electric_bike", "bike_id": "da770b7462d001ac0f3d06ab607f7c43", "rental_uris": {"ios": "https://dc.lft.to/lastmile_qr_scan", "android": "https://dc.lft.to/lastmile_qr_scan"}, "fusion_lat": 0.0}, {"lat": 38.895448333333334, "lon": -76.98338333333334, "is_disabled": 0, "fusion_lon": 0.0, "is_reserved": 0, "name": "3d9637bbf0367850196eba9e2914b962", "type": "electric_scooter", "bike_id": "3d9637bbf0367850196eba9e2914b962", "rental_uris": {"ios": "https://dc.lft.to/lastmile_qr_scan", "android": "https://dc.lft.to/lastmile_qr_scan"}, "fusion_lat": 0.0}, {"lat": 38.92706666666667, "lon": -77.0535675, "is_disabled": 0, "fusion_lon": 0.0, "is_reserved": 0, "name": "f3f30f85214bf4d908e4d81a6271e963", "type": "electric_scooter", "bike_id": "f3f30f85214bf4d908e4d81a6271e963", "rental_uris": {"ios": "https://dc.lft.to/lastmile_qr_scan", "android": "https://dc.lft.to/lastmile_qr_scan"}, "fusion_lat": 0.0}, {"lat": 38.90222933333333, "lon": -77.017416, "is_disabled": 0, "fusion_lon": 0.0, "is_reserved": 0, "name": "2ade4a6f820036482553b74777448ce4", "type": "electric_scooter", "bike_id": "2ade4a6f820036482553b74777448ce4", "rental_uris": {"ios": "https://dc.lft.to/lastmile_qr_scan", "android": "https://dc.lft.to/lastmile_qr_scan"}, "fusion_lat": 0.0}, {"lat": 38.9047125, "lon": -77.0660465, "is_disabled": 0, "fusion_lon": 0.0, "is_reserved": 0, "name": "80a9f3a239a2d4e46bfe816909f9d345", "type": "electric_scooter", "bike_id": "80a9f3a239a2d4e46bfe816909f9d345", "rental_uris": {"ios": "https://dc.lft.to/lastmile_qr_scan", "android": "https://dc.lft.to/lastmile_qr_scan"}, "fusion_lat": 0.0}, {"lat": 38.90234183333333, "lon": -77.04607033333333, "is_disabled": 0, "fusion_lon": 0.0, "is_reserved": 0, "name": "212a064144dc4b8bfe8dd5c854184710", "type": "electric_scooter", "bike_id": "212a064144dc4b8bfe8dd5c854184710", "rental_uris": {"ios": "https://dc.lft.to/lastmile_qr_scan", "android": "https://dc.lft.to/lastmile_qr_scan"}, "fusion_lat": 0.0}, {"lat": 38.838622666666666, "lon": -76.99705283333333, "is_disabled": 0, "fusion_lon": 0.0, "is_reserved": 0, "name": "26a877f9df715095505c0e24237c569a", "type": "electric_bike", "bike_id": "26a877f9df715095505c0e24237c569a", "rental_uris": {"ios": "https://dc.lft.to/lastmile_qr_scan", "android": "https://dc.lft.to/lastmile_qr_scan"}, "fusion_lat": 0.0}, {"lat": 38.98786166666667, "lon": -77.140973, "is_disabled": 0, "fusion_lon": 0.0, "is_reserved": 0, "name": "5a7e186ce4ec06e2d4f47ea319139333", "type": "electric_bike", "bike_id": "5a7e186ce4ec06e2d4f47ea319139333", "rental_uris": {"ios": "https://dc.lft.to/lastmile_qr_scan", "android": "https://dc.lft.to/lastmile_qr_scan"}, "fusion_lat": 0.0}, {"lat": 38.93443283333333, "lon": -77.02972466666667, "is_disabled": 0, "fusion_lon": 0.0, "is_reserved": 0, "name": "d258d701127346aa8dfa7638958a6c07", "type": "electric_scooter", "bike_id": "d258d701127346aa8dfa7638958a6c07", "rental_uris": {"ios": "https://dc.lft.to/lastmile_qr_scan", "android": "https://dc.lft.to/lastmile_qr_scan"}, "fusion_lat": 0.0}, {"lat": 38.884949166666665, "lon": -77.01586283333333, "is_disabled": 0, "fusion_lon": 0.0, "is_reserved": 0, "name": "c4b3f812a8125f7c7485fc2bd23e0232", "type": "electric_scooter", "bike_id": "c4b3f812a8125f7c7485fc2bd23e0232", "rental_uris": {"ios": "https://dc.lft.to/lastmile_qr_scan", "android": "https://dc.lft.to/lastmile_qr_scan"}, "fusion_lat": 0.0}, {"lat": 38.89811916666667, "lon": -77.01549733333333, "is_disabled": 0, "fusion_lon": 0.0, "is_reserved": 0, "name": "3674a319db10b4421aebda013412a928", "type": "electric_scooter", "bike_id": "3674a319db10b4421aebda013412a928", "rental_uris": {"ios": "https://dc.lft.to/lastmile_qr_scan", "android": "https://dc.lft.to/lastmile_qr_scan"}, "fusion_lat": 0.0}, {"lat": 38.87374466666667, "lon": -77.00127116666667, "is_disabled": 0, "fusion_lon": 0.0, "is_reserved": 0, "name": "0e8a6c3f582fa60cd0a253d3eab44cb0", "type": "electric_scooter", "bike_id": "0e8a6c3f582fa60cd0a253d3eab44cb0", "rental_uris": {"ios": "https://dc.lft.to/lastmile_qr_scan", "android": "https://dc.lft.to/lastmile_qr_scan"}, "fusion_lat": 0.0}, {"lat": 38.90022283333333, "lon": -77.01186583333333, "is_disabled": 0, "fusion_lon": 0.0, "is_reserved": 0, "name": "dd79eab1f54ad78cd23f1312552acae1", "type": "electric_scooter", "bike_id": "dd79eab1f54ad78cd23f1312552acae1", "rental_uris": {"ios": "https://dc.lft.to/lastmile_qr_scan", "android": "https://dc.lft.to/lastmile_qr_scan"}, "fusion_lat": 0.0}, {"lat": 38.9362655, "lon": -77.05878116666666, "is_disabled": 0, "fusion_lon": 0.0, "is_reserved": 0, "name": "37867990e26ccce3b286cf9806578d2d", "type": "electric_scooter", "bike_id": "37867990e26ccce3b286cf9806578d2d", "rental_uris": {"ios": "https://dc.lft.to/lastmile_qr_scan", "android": "https://dc.lft.to/lastmile_qr_scan"}, "fusion_lat": 0.0}, {"lat": 38.92900366666667, "lon": -77.02740116666666, "is_disabled": 0, "fusion_lon": 0.0, "is_reserved": 0, "name": "e5218233d43fb8ce4a90b74d1df2bd63", "type": "electric_scooter", "bike_id": "e5218233d43fb8ce4a90b74d1df2bd63", "rental_uris": {"ios": "https://dc.lft.to/lastmile_qr_scan", "android": "https://dc.lft.to/lastmile_qr_scan"}, "fusion_lat": 0.0}, {"lat": 38.9057795, "lon": -77.00323183333333, "is_disabled": 0, "fusion_lon": 0.0, "is_reserved": 0, "name": "f76f5ed5357d22d2b4e70c8ec9726723", "type": "electric_scooter", "bike_id": "f76f5ed5357d22d2b4e70c8ec9726723", "rental_uris": {"ios": "https://dc.lft.to/lastmile_qr_scan", "android": "https://dc.lft.to/lastmile_qr_scan"}, "fusion_lat": 0.0}, {"lat": 38.956732333333335, "lon": -77.01357816666666, "is_disabled": 0, "fusion_lon": 0.0, "is_reserved": 0, "name": "5376771fc408baedfb300c9f08d54f83", "type": "electric_scooter", "bike_id": "5376771fc408baedfb300c9f08d54f83", "rental_uris": {"ios": "https://dc.lft.to/lastmile_qr_scan", "android": "https://dc.lft.to/lastmile_qr_scan"}, "fusion_lat": 0.0}, {"lat": 38.9125155, "lon": -77.01974083333333, "is_disabled": 0, "fusion_lon": 0.0, "is_reserved": 0, "name": "500169889ed4e0966aaed47b4867418b", "type": "electric_scooter", "bike_id": "500169889ed4e0966aaed47b4867418b", "rental_uris": {"ios": "https://dc.lft.to/lastmile_qr_scan", "android": "https://dc.lft.to/lastmile_qr_scan"}, "fusion_lat": 0.0}, {"lat": 38.901370166666666, "lon": -77.03506333333333, "is_disabled": 0, "fusion_lon": 0.0, "is_reserved": 0, "name": "eeccaaed7dbce7073b910a006646c511", "type": "electric_scooter", "bike_id": "eeccaaed7dbce7073b910a006646c511", "rental_uris": {"ios": "https://dc.lft.to/lastmile_qr_scan", "android": "https://dc.lft.to/lastmile_qr_scan"}, "fusion_lat": 0.0}, {"lat": 38.90899783333333, "lon": -77.04389166666667, "is_disabled": 0, "fusion_lon": 0.0, "is_reserved": 0, "name": "f2593d845bef11a36182006d15e97a35", "type": "electric_scooter", "bike_id": "f2593d845bef11a36182006d15e97a35", "rental_uris": {"ios": "https://dc.lft.to/lastmile_qr_scan", "android": "https://dc.lft.to/lastmile_qr_scan"}, "fusion_lat": 0.0}, {"lat": 38.95596233333333, "lon": -77.03366083333333, "is_disabled": 0, "fusion_lon": 0.0, "is_reserved": 0, "name": "5d960ab349b8785a8961f254b13819a1", "type": "electric_scooter", "bike_id": "5d960ab349b8785a8961f254b13819a1", "rental_uris": {"ios": "https://dc.lft.to/lastmile_qr_scan", "android": "https://dc.lft.to/lastmile_qr_scan"}, "fusion_lat": 0.0}, {"lat": 38.896119, "lon": -77.023331, "is_disabled": 0, "fusion_lon": 0.0, "is_reserved": 0, "name": "96eed12582cab3beabff24f4665bc2ab", "type": "electric_scooter", "bike_id": "96eed12582cab3beabff24f4665bc2ab", "rental_uris": {"ios": "https://dc.lft.to/lastmile_qr_scan", "android": "https://dc.lft.to/lastmile_qr_scan"}, "fusion_lat": 0.0}, {"lat": 38.912945, "lon": -77.02174583333333, "is_disabled": 0, "fusion_lon": 0.0, "is_reserved": 0, "name": "8e71f80e975062989a592f9a7594fcd1", "type": "electric_scooter", "bike_id": "8e71f80e975062989a592f9a7594fcd1", "rental_uris": {"ios": "https://dc.lft.to/lastmile_qr_scan", "android": "https://dc.lft.to/lastmile_qr_scan"}, "fusion_lat": 0.0}, {"lat": 38.8779595, "lon": -77.00122766666667, "is_disabled": 0, "fusion_lon": 0.0, "is_reserved": 0, "name": "c5744ebdd5fdabc7bd132b9195cd0c32", "type": "electric_scooter", "bike_id": "c5744ebdd5fdabc7bd132b9195cd0c32", "rental_uris": {"ios": "https://dc.lft.to/lastmile_qr_scan", "android": "https://dc.lft.to/lastmile_qr_scan"}, "fusion_lat": 0.0}, {"lat": 38.87665116666667, "lon": -77.00309416666667, "is_disabled": 0, "fusion_lon": 0.0, "is_reserved": 0, "name": "03513b01ed380cb0eed2e7116d534736", "type": "electric_scooter", "bike_id": "03513b01ed380cb0eed2e7116d534736", "rental_uris": {"ios": "https://dc.lft.to/lastmile_qr_scan", "android": "https://dc.lft.to/lastmile_qr_scan"}, "fusion_lat": 0.0}, {"lat": 38.92107766666667, "lon": -77.23677066666667, "is_disabled": 0, "fusion_lon": 0.0, "is_reserved": 0, "name": "5427659df985f5f11b7afbd21ec98b4a", "type": "electric_bike", "bike_id": "5427659df985f5f11b7afbd21ec98b4a", "rental_uris": {"ios": "https://dc.lft.to/lastmile_qr_scan", "android": "https://dc.lft.to/lastmile_qr_scan"}, "fusion_lat": 0.0}, {"lat": 38.91264133333333, "lon": -77.04461166666667, "is_disabled": 0, "fusion_lon": 0.0, "is_reserved": 0, "name": "c34beeed80b06ef46e48b41df00023a4", "type": "electric_scooter", "bike_id": "c34beeed80b06ef46e48b41df00023a4", "rental_uris": {"ios": "https://dc.lft.to/lastmile_qr_scan", "android": "https://dc.lft.to/lastmile_qr_scan"}, "fusion_lat": 0.0}, {"lat": 38.94231683333334, "lon": -77.038679, "is_disabled": 0, "fusion_lon": 0.0, "is_reserved": 0, "name": "9765a7fbdeb3aa92088e4afcae4cfd65", "type": "electric_scooter", "bike_id": "9765a7fbdeb3aa92088e4afcae4cfd65", "rental_uris": {"ios": "https://dc.lft.to/lastmile_qr_scan", "android": "https://dc.lft.to/lastmile_qr_scan"}, "fusion_lat": 0.0}, {"lat": 38.91676066666667, "lon": -77.01575533333333, "is_disabled": 0, "fusion_lon": 0.0, "is_reserved": 0, "name": "3a244241c313ee3783d8d22d3353bbc0", "type": "electric_scooter", "bike_id": "3a244241c313ee3783d8d22d3353bbc0", "rental_uris": {"ios": "https://dc.lft.to/lastmile_qr_scan", "android": "https://dc.lft.to/lastmile_qr_scan"}, "fusion_lat": 0.0}, {"lat": 38.892259, "lon": -77.04900983333333, "is_disabled": 0, "fusion_lon": 0.0, "is_reserved": 0, "name": "ff7536eadb93f471976fde94f29f5e1a", "type": "electric_scooter", "bike_id": "ff7536eadb93f471976fde94f29f5e1a", "rental_uris": {"ios": "https://dc.lft.to/lastmile_qr_scan", "android": "https://dc.lft.to/lastmile_qr_scan"}, "fusion_lat": 0.0}, {"lat": 38.9001615, "lon": -76.99868666666667, "is_disabled": 0, "fusion_lon": 0.0, "is_reserved": 0, "name": "f0ea50c3d541339711303bd76867138a", "type": "electric_scooter", "bike_id": "f0ea50c3d541339711303bd76867138a", "rental_uris": {"ios": "https://dc.lft.to/lastmile_qr_scan", "android": "https://dc.lft.to/lastmile_qr_scan"}, "fusion_lat": 0.0}, {"lat": 38.938398666666664, "lon": -77.0337865, "is_disabled": 0, "fusion_lon": 0.0, "is_reserved": 0, "name": "324a5857674cbb203e28a9bf5a8399b0", "type": "electric_scooter", "bike_id": "324a5857674cbb203e28a9bf5a8399b0", "rental_uris": {"ios": "https://dc.lft.to/lastmile_qr_scan", "android": "https://dc.lft.to/lastmile_qr_scan"}, "fusion_lat": 0.0}, {"lat": 38.924847, "lon": -77.0226765, "is_disabled": 0, "fusion_lon": 0.0, "is_reserved": 0, "name": "5c4b134f487ca08c687ec34b5fc5c49d", "type": "electric_scooter", "bike_id": "5c4b134f487ca08c687ec34b5fc5c49d", "rental_uris": {"ios": "https://dc.lft.to/lastmile_qr_scan", "android": "https://dc.lft.to/lastmile_qr_scan"}, "fusion_lat": 0.0}, {"lat": 38.90152633333334, "lon": -77.02587483333333, "is_disabled": 0, "fusion_lon": 0.0, "is_reserved": 0, "name": "c7368f0e27169cab21fc99bfc0756f33", "type": "electric_scooter", "bike_id": "c7368f0e27169cab21fc99bfc0756f33", "rental_uris": {"ios": "https://dc.lft.to/lastmile_qr_scan", "android": "https://dc.lft.to/lastmile_qr_scan"}, "fusion_lat": 0.0}, {"lat": 38.91797583333334, "lon": -77.0401425, "is_disabled": 0, "fusion_lon": 0.0, "is_reserved": 0, "name": "861fc30066a26069664a79d2106fe451", "type": "electric_scooter", "bike_id": "861fc30066a26069664a79d2106fe451", "rental_uris": {"ios": "https://dc.lft.to/lastmile_qr_scan", "android": "https://dc.lft.to/lastmile_qr_scan"}, "fusion_lat": 0.0}, {"lat": 38.927545333333335, "lon": -77.03276733333334, "is_disabled": 0, "fusion_lon": 0.0, "is_reserved": 0, "name": "7a5366724b35189fe31567af3b7ff7d7", "type": "electric_scooter", "bike_id": "7a5366724b35189fe31567af3b7ff7d7", "rental_uris": {"ios": "https://dc.lft.to/lastmile_qr_scan", "android": "https://dc.lft.to/lastmile_qr_scan"}, "fusion_lat": 0.0}, {"lat": 38.90342583333333, "lon": -77.02944933333333, "is_disabled": 0, "fusion_lon": 0.0, "is_reserved": 0, "name": "962bbcb2b987a0314bd1df997bc1f257", "type": "electric_scooter", "bike_id": "962bbcb2b987a0314bd1df997bc1f257", "rental_uris": {"ios": "https://dc.lft.to/lastmile_qr_scan", "android": "https://dc.lft.to/lastmile_qr_scan"}, "fusion_lat": 0.0}, {"lat": 38.896556, "lon": -77.050258, "is_disabled": 0, "fusion_lon": 0.0, "is_reserved": 0, "name": "860abd6c013321f71927ccfb5df77c5f", "type": "electric_scooter", "bike_id": "860abd6c013321f71927ccfb5df77c5f", "rental_uris": {"ios": "https://dc.lft.to/lastmile_qr_scan", "android": "https://dc.lft.to/lastmile_qr_scan"}, "fusion_lat": 0.0}, {"lat": 38.924384833333335, "lon": -77.05203066666667, "is_disabled": 0, "fusion_lon": 0.0, "is_reserved": 0, "name": "eafd25cc4dfc04face6028532c702898", "type": "electric_scooter", "bike_id": "eafd25cc4dfc04face6028532c702898", "rental_uris": {"ios": "https://dc.lft.to/lastmile_qr_scan", "android": "https://dc.lft.to/lastmile_qr_scan"}, "fusion_lat": 0.0}, {"lat": 38.919577833333335, "lon": -77.01782816666666, "is_disabled": 0, "fusion_lon": 0.0, "is_reserved": 0, "name": "47300581248a7d1fc169634a9119cde9", "type": "electric_scooter", "bike_id": "47300581248a7d1fc169634a9119cde9", "rental_uris": {"ios": "https://dc.lft.to/lastmile_qr_scan", "android": "https://dc.lft.to/lastmile_qr_scan"}, "fusion_lat": 0.0}, {"lat": 38.9277865, "lon": -77.02701733333333, "is_disabled": 0, "fusion_lon": 0.0, "is_reserved": 0, "name": "e17defe028fd00f96130d71c3c835c0e", "type": "electric_scooter", "bike_id": "e17defe028fd00f96130d71c3c835c0e", "rental_uris": {"ios": "https://dc.lft.to/lastmile_qr_scan", "android": "https://dc.lft.to/lastmile_qr_scan"}, "fusion_lat": 0.0}, {"lat": 38.89609133333333, "lon": -77.00927183333333, "is_disabled": 0, "fusion_lon": 0.0, "is_reserved": 0, "name": "c7d1978ac584ead5e8bbce1ba31bbb5a", "type": "electric_scooter", "bike_id": "c7d1978ac584ead5e8bbce1ba31bbb5a", "rental_uris": {"ios": "https://dc.lft.to/lastmile_qr_scan", "android": "https://dc.lft.to/lastmile_qr_scan"}, "fusion_lat": 0.0}, {"lat": 38.9208345, "lon": -76.99467466666667, "is_disabled": 0, "fusion_lon": 0.0, "is_reserved": 0, "name": "2ad508fce62a94e50301622a0a118417", "type": "electric_scooter", "bike_id": "2ad508fce62a94e50301622a0a118417", "rental_uris": {"ios": "https://dc.lft.to/lastmile_qr_scan", "android": "https://dc.lft.to/lastmile_qr_scan"}, "fusion_lat": 0.0}, {"lat": 38.9093545, "lon": -77.04483033333334, "is_disabled": 0, "fusion_lon": 0.0, "is_reserved": 0, "name": "5594a316e42749686a816fedd138f359", "type": "electric_scooter", "bike_id": "5594a316e42749686a816fedd138f359", "rental_uris": {"ios": "https://dc.lft.to/lastmile_qr_scan", "android": "https://dc.lft.to/lastmile_qr_scan"}, "fusion_lat": 0.0}, {"lat": 38.919276333333336, "lon": -77.03418433333333, "is_disabled": 0, "fusion_lon": 0.0, "is_reserved": 0, "name": "c564fe39086b98742dd95dc72d390020", "type": "electric_scooter", "bike_id": "c564fe39086b98742dd95dc72d390020", "rental_uris": {"ios": "https://dc.lft.to/lastmile_qr_scan", "android": "https://dc.lft.to/lastmile_qr_scan"}, "fusion_lat": 0.0}, {"lat": 38.91416433333333, "lon": -77.02095216666666, "is_disabled": 0, "fusion_lon": 0.0, "is_reserved": 0, "name": "17c7ac404670c3b3ea8bb8969b88f165", "type": "electric_scooter", "bike_id": "17c7ac404670c3b3ea8bb8969b88f165", "rental_uris": {"ios": "https://dc.lft.to/lastmile_qr_scan", "android": "https://dc.lft.to/lastmile_qr_scan"}, "fusion_lat": 0.0}, {"lat": 38.915533333333336, "lon": -77.00586966666667, "is_disabled": 0, "fusion_lon": 0.0, "is_reserved": 0, "name": "cb0d2b91f3b808ea396b2b94d569864e", "type": "electric_scooter", "bike_id": "cb0d2b91f3b808ea396b2b94d569864e", "rental_uris": {"ios": "https://dc.lft.to/lastmile_qr_scan", "android": "https://dc.lft.to/lastmile_qr_scan"}, "fusion_lat": 0.0}, {"lat": 38.905979, "lon": -77.04043916666667, "is_disabled": 0, "fusion_lon": 0.0, "is_reserved": 0, "name": "eb6d11330a66acc3d5acc1a0f77b7d37", "type": "electric_scooter", "bike_id": "eb6d11330a66acc3d5acc1a0f77b7d37", "rental_uris": {"ios": "https://dc.lft.to/lastmile_qr_scan", "android": "https://dc.lft.to/lastmile_qr_scan"}, "fusion_lat": 0.0}, {"lat": 38.897948, "lon": -77.01196833333333, "is_disabled": 0, "fusion_lon": 0.0, "is_reserved": 0, "name": "1bab0f7c0f14dc610f8fbd9a12a33378", "type": "electric_scooter", "bike_id": "1bab0f7c0f14dc610f8fbd9a12a33378", "rental_uris": {"ios": "https://dc.lft.to/lastmile_qr_scan", "android": "https://dc.lft.to/lastmile_qr_scan"}, "fusion_lat": 0.0}, {"lat": 38.893532666666665, "lon": -76.98655283333333, "is_disabled": 0, "fusion_lon": 0.0, "is_reserved": 0, "name": "8590932a9867778abb07a418abc4d3a1", "type": "electric_scooter", "bike_id": "8590932a9867778abb07a418abc4d3a1", "rental_uris": {"ios": "https://dc.lft.to/lastmile_qr_scan", "android": "https://dc.lft.to/lastmile_qr_scan"}, "fusion_lat": 0.0}, {"lat": 38.917235833333336, "lon": -77.02699433333333, "is_disabled": 0, "fusion_lon": 0.0, "is_reserved": 0, "name": "2b72b67680f5fdc5d4f3418e7460dbe4", "type": "electric_scooter", "bike_id": "2b72b67680f5fdc5d4f3418e7460dbe4", "rental_uris": {"ios": "https://dc.lft.to/lastmile_qr_scan", "android": "https://dc.lft.to/lastmile_qr_scan"}, "fusion_lat": 0.0}, {"lat": 38.906632, "lon": -77.02689183333334, "is_disabled": 0, "fusion_lon": 0.0, "is_reserved": 0, "name": "1b677668f0069e051a4c5ba2935bb2e8", "type": "electric_scooter", "bike_id": "1b677668f0069e051a4c5ba2935bb2e8", "rental_uris": {"ios": "https://dc.lft.to/lastmile_qr_scan", "android": "https://dc.lft.to/lastmile_qr_scan"}, "fusion_lat": 0.0}, {"lat": 38.8959485, "lon": -77.00607516666666, "is_disabled": 0, "fusion_lon": 0.0, "is_reserved": 0, "name": "0e13a4561abb4128431e6b9957e5466a", "type": "electric_scooter", "bike_id": "0e13a4561abb4128431e6b9957e5466a", "rental_uris": {"ios": "https://dc.lft.to/lastmile_qr_scan", "android": "https://dc.lft.to/lastmile_qr_scan"}, "fusion_lat": 0.0}, {"lat": 38.9580125, "lon": -77.0151215, "is_disabled": 0, "fusion_lon": 0.0, "is_reserved": 0, "name": "a1cb9b2addd1d05a743cd9717e1cd404", "type": "electric_scooter", "bike_id": "a1cb9b2addd1d05a743cd9717e1cd404", "rental_uris": {"ios": "https://dc.lft.to/lastmile_qr_scan", "android": "https://dc.lft.to/lastmile_qr_scan"}, "fusion_lat": 0.0}, {"lat": 38.92172466666667, "lon": -77.03820316666666, "is_disabled": 0, "fusion_lon": 0.0, "is_reserved": 0, "name": "c0c3fbb46f309282c4817064fe4e1d92", "type": "electric_scooter", "bike_id": "c0c3fbb46f309282c4817064fe4e1d92", "rental_uris": {"ios": "https://dc.lft.to/lastmile_qr_scan", "android": "https://dc.lft.to/lastmile_qr_scan"}, "fusion_lat": 0.0}, {"lat": 38.89828966666666, "lon": -76.94650083333333, "is_disabled": 0, "fusion_lon": 0.0, "is_reserved": 0, "name": "633cedf1528688202a0d76381f4a617e", "type": "electric_scooter", "bike_id": "633cedf1528688202a0d76381f4a617e", "rental_uris": {"ios": "https://dc.lft.to/lastmile_qr_scan", "android": "https://dc.lft.to/lastmile_qr_scan"}, "fusion_lat": 0.0}, {"lat": 38.92611683333333, "lon": -77.0216175, "is_disabled": 0, "fusion_lon": 0.0, "is_reserved": 0, "name": "bb8c42b3eb40a760f899da4d91b5cd3c", "type": "electric_scooter", "bike_id": "bb8c42b3eb40a760f899da4d91b5cd3c", "rental_uris": {"ios": "https://dc.lft.to/lastmile_qr_scan", "android": "https://dc.lft.to/lastmile_qr_scan"}, "fusion_lat": 0.0}, {"lat": 38.900172, "lon": -76.99310983333334, "is_disabled": 0, "fusion_lon": 0.0, "is_reserved": 0, "name": "447cbb447d0d1bc437df719ae59a2325", "type": "electric_scooter", "bike_id": "447cbb447d0d1bc437df719ae59a2325", "rental_uris": {"ios": "https://dc.lft.to/lastmile_qr_scan", "android": "https://dc.lft.to/lastmile_qr_scan"}, "fusion_lat": 0.0}, {"lat": 38.91630716666667, "lon": -77.050705, "is_disabled": 0, "fusion_lon": 0.0, "is_reserved": 0, "name": "3506ef81f89903592a5530586655d8e5", "type": "electric_scooter", "bike_id": "3506ef81f89903592a5530586655d8e5", "rental_uris": {"ios": "https://dc.lft.to/lastmile_qr_scan", "android": "https://dc.lft.to/lastmile_qr_scan"}, "fusion_lat": 0.0}, {"lat": 38.909461666666665, "lon": -77.030567, "is_disabled": 0, "fusion_lon": 0.0, "is_reserved": 0, "name": "40265e73592575cdb8cb328445f91b4d", "type": "electric_scooter", "bike_id": "40265e73592575cdb8cb328445f91b4d", "rental_uris": {"ios": "https://dc.lft.to/lastmile_qr_scan", "android": "https://dc.lft.to/lastmile_qr_scan"}, "fusion_lat": 0.0}, {"lat": 38.91692, "lon": -77.0259745, "is_disabled": 0, "fusion_lon": 0.0, "is_reserved": 0, "name": "199944b724f6c365601e64737703ca32", "type": "electric_scooter", "bike_id": "199944b724f6c365601e64737703ca32", "rental_uris": {"ios": "https://dc.lft.to/lastmile_qr_scan", "android": "https://dc.lft.to/lastmile_qr_scan"}, "fusion_lat": 0.0}, {"lat": 38.905085166666666, "lon": -77.047788, "is_disabled": 0, "fusion_lon": 0.0, "is_reserved": 0, "name": "0c1fbf7d5c6f11b6ad8307a59e6bbf80", "type": "electric_scooter", "bike_id": "0c1fbf7d5c6f11b6ad8307a59e6bbf80", "rental_uris": {"ios": "https://dc.lft.to/lastmile_qr_scan", "android": "https://dc.lft.to/lastmile_qr_scan"}, "fusion_lat": 0.0}, {"lat": 38.90865683333333, "lon": -77.045327, "is_disabled": 0, "fusion_lon": 0.0, "is_reserved": 0, "name": "080421f3a3a3d334431edfa86b3e74ee", "type": "electric_scooter", "bike_id": "080421f3a3a3d334431edfa86b3e74ee", "rental_uris": {"ios": "https://dc.lft.to/lastmile_qr_scan", "android": "https://dc.lft.to/lastmile_qr_scan"}, "fusion_lat": 0.0}, {"lat": 38.90020083333334, "lon": -77.03931, "is_disabled": 0, "fusion_lon": 0.0, "is_reserved": 0, "name": "803db22d236c15968d81d5a2cb85341b", "type": "electric_scooter", "bike_id": "803db22d236c15968d81d5a2cb85341b", "rental_uris": {"ios": "https://dc.lft.to/lastmile_qr_scan", "android": "https://dc.lft.to/lastmile_qr_scan"}, "fusion_lat": 0.0}, {"lat": 38.921391666666665, "lon": -77.01833933333333, "is_disabled": 0, "fusion_lon": 0.0, "is_reserved": 0, "name": "b80dec13e6ff11614ae3e6717939916a", "type": "electric_scooter", "bike_id": "b80dec13e6ff11614ae3e6717939916a", "rental_uris": {"ios": "https://dc.lft.to/lastmile_qr_scan", "android": "https://dc.lft.to/lastmile_qr_scan"}, "fusion_lat": 0.0}, {"lat": 38.901370666666665, "lon": -77.01346066666666, "is_disabled": 0, "fusion_lon": 0.0, "is_reserved": 0, "name": "73ad0c82c679a8025e91e549acc46ca6", "type": "electric_scooter", "bike_id": "73ad0c82c679a8025e91e549acc46ca6", "rental_uris": {"ios": "https://dc.lft.to/lastmile_qr_scan", "android": "https://dc.lft.to/lastmile_qr_scan"}, "fusion_lat": 0.0}, {"lat": 38.914041, "lon": -77.02834133333333, "is_disabled": 0, "fusion_lon": 0.0, "is_reserved": 0, "name": "dc00af19b0e8f5455f0387cf0847f3c5", "type": "electric_scooter", "bike_id": "dc00af19b0e8f5455f0387cf0847f3c5", "rental_uris": {"ios": "https://dc.lft.to/lastmile_qr_scan", "android": "https://dc.lft.to/lastmile_qr_scan"}, "fusion_lat": 0.0}, {"lat": 38.9105785, "lon": -77.0528645, "is_disabled": 0, "fusion_lon": 0.0, "is_reserved": 0, "name": "f43180dd1254ba4dd6333a02e8c73567", "type": "electric_scooter", "bike_id": "f43180dd1254ba4dd6333a02e8c73567", "rental_uris": {"ios": "https://dc.lft.to/lastmile_qr_scan", "android": "https://dc.lft.to/lastmile_qr_scan"}, "fusion_lat": 0.0}, {"lat": 38.9155835, "lon": -77.01014016666667, "is_disabled": 0, "fusion_lon": 0.0, "is_reserved": 0, "name": "17e30b7cc570eb7aab83f8e7913b9379", "type": "electric_scooter", "bike_id": "17e30b7cc570eb7aab83f8e7913b9379", "rental_uris": {"ios": "https://dc.lft.to/lastmile_qr_scan", "android": "https://dc.lft.to/lastmile_qr_scan"}, "fusion_lat": 0.0}, {"lat": 38.89886766666667, "lon": -76.931758, "is_disabled": 0, "fusion_lon": 0.0, "is_reserved": 0, "name": "1ed653d167acf937850cd9007b50f921", "type": "electric_scooter", "bike_id": "1ed653d167acf937850cd9007b50f921", "rental_uris": {"ios": "https://dc.lft.to/lastmile_qr_scan", "android": "https://dc.lft.to/lastmile_qr_scan"}, "fusion_lat": 0.0}, {"lat": 38.944522166666665, "lon": -77.028003, "is_disabled": 0, "fusion_lon": 0.0, "is_reserved": 0, "name": "04551250a3bbf272f67e5ba812ada91f", "type": "electric_scooter", "bike_id": "04551250a3bbf272f67e5ba812ada91f", "rental_uris": {"ios": "https://dc.lft.to/lastmile_qr_scan", "android": "https://dc.lft.to/lastmile_qr_scan"}, "fusion_lat": 0.0}, {"lat": 38.93279116666667, "lon": -76.98435883333333, "is_disabled": 0, "fusion_lon": 0.0, "is_reserved": 0, "name": "a6041957cb5fa8c964204fdfeb5348f7", "type": "electric_scooter", "bike_id": "a6041957cb5fa8c964204fdfeb5348f7", "rental_uris": {"ios": "https://dc.lft.to/lastmile_qr_scan", "android": "https://dc.lft.to/lastmile_qr_scan"}, "fusion_lat": 0.0}, {"lat": 38.897982999999996, "lon": -77.02224966666667, "is_disabled": 0, "fusion_lon": 0.0, "is_reserved": 0, "name": "70f2e56bfd68ebe27009b3274502a422", "type": "electric_scooter", "bike_id": "70f2e56bfd68ebe27009b3274502a422", "rental_uris": {"ios": "https://dc.lft.to/lastmile_qr_scan", "android": "https://dc.lft.to/lastmile_qr_scan"}, "fusion_lat": 0.0}, {"lat": 38.91632216666667, "lon": -77.03164866666667, "is_disabled": 0, "fusion_lon": 0.0, "is_reserved": 0, "name": "451a697793452544a726dfc2930894bb", "type": "electric_scooter", "bike_id": "451a697793452544a726dfc2930894bb", "rental_uris": {"ios": "https://dc.lft.to/lastmile_qr_scan", "android": "https://dc.lft.to/lastmile_qr_scan"}, "fusion_lat": 0.0}, {"lat": 38.902805, "lon": -77.03469166666666, "is_disabled": 0, "fusion_lon": 0.0, "is_reserved": 0, "name": "2a509fed9cf7970b9de4440daa64f455", "type": "electric_scooter", "bike_id": "2a509fed9cf7970b9de4440daa64f455", "rental_uris": {"ios": "https://dc.lft.to/lastmile_qr_scan", "android": "https://dc.lft.to/lastmile_qr_scan"}, "fusion_lat": 0.0}, {"lat": 38.919964, "lon": -77.02366933333333, "is_disabled": 0, "fusion_lon": 0.0, "is_reserved": 0, "name": "521be12bb7bffd064e0c7845a7c7c3e0", "type": "electric_scooter", "bike_id": "521be12bb7bffd064e0c7845a7c7c3e0", "rental_uris": {"ios": "https://dc.lft.to/lastmile_qr_scan", "android": "https://dc.lft.to/lastmile_qr_scan"}, "fusion_lat": 0.0}, {"lat": 38.92760166666667, "lon": -77.0525425, "is_disabled": 0, "fusion_lon": 0.0, "is_reserved": 0, "name": "a21ef3aec8511f9e904339ac2ddb60ff", "type": "electric_scooter", "bike_id": "a21ef3aec8511f9e904339ac2ddb60ff", "rental_uris": {"ios": "https://dc.lft.to/lastmile_qr_scan", "android": "https://dc.lft.to/lastmile_qr_scan"}, "fusion_lat": 0.0}, {"lat": 38.93081166666666, "lon": -76.99610716666666, "is_disabled": 0, "fusion_lon": 0.0, "is_reserved": 0, "name": "b08e496076a72505b83cc91546da0fb6", "type": "electric_scooter", "bike_id": "b08e496076a72505b83cc91546da0fb6", "rental_uris": {"ios": "https://dc.lft.to/lastmile_qr_scan", "android": "https://dc.lft.to/lastmile_qr_scan"}, "fusion_lat": 0.0}, {"lat": 38.914075, "lon": -77.04568, "is_disabled": 0, "fusion_lon": 0.0, "is_reserved": 0, "name": "daffb0c951965d054f30eac42802ac7c", "type": "electric_scooter", "bike_id": "daffb0c951965d054f30eac42802ac7c", "rental_uris": {"ios": "https://dc.lft.to/lastmile_qr_scan", "android": "https://dc.lft.to/lastmile_qr_scan"}, "fusion_lat": 0.0}, {"lat": 38.900683666666666, "lon": -77.04894316666666, "is_disabled": 0, "fusion_lon": 0.0, "is_reserved": 0, "name": "a8cb495aed304890b40347eafa23ff54", "type": "electric_scooter", "bike_id": "a8cb495aed304890b40347eafa23ff54", "rental_uris": {"ios": "https://dc.lft.to/lastmile_qr_scan", "android": "https://dc.lft.to/lastmile_qr_scan"}, "fusion_lat": 0.0}, {"lat": 38.93100183333333, "lon": -77.0123155, "is_disabled": 0, "fusion_lon": 0.0, "is_reserved": 0, "name": "9b6d275a7df1296597b887dcfa776173", "type": "electric_scooter", "bike_id": "9b6d275a7df1296597b887dcfa776173", "rental_uris": {"ios": "https://dc.lft.to/lastmile_qr_scan", "android": "https://dc.lft.to/lastmile_qr_scan"}, "fusion_lat": 0.0}, {"lat": 38.887309, "lon": -76.983556, "is_disabled": 0, "fusion_lon": 0.0, "is_reserved": 0, "name": "699c8261c7292dd1bbfe3b2234f71fc9", "type": "electric_scooter", "bike_id": "699c8261c7292dd1bbfe3b2234f71fc9", "rental_uris": {"ios": "https://dc.lft.to/lastmile_qr_scan", "android": "https://dc.lft.to/lastmile_qr_scan"}, "fusion_lat": 0.0}, {"lat": 38.87967666666667, "lon": -76.91614083333333, "is_disabled": 0, "fusion_lon": 0.0, "is_reserved": 0, "name": "a0adf2c2423cb6229cb7efd8794df9ea", "type": "electric_bike", "bike_id": "a0adf2c2423cb6229cb7efd8794df9ea", "rental_uris": {"ios": "https://dc.lft.to/lastmile_qr_scan", "android": "https://dc.lft.to/lastmile_qr_scan"}, "fusion_lat": 0.0}, {"lat": 38.904134666666664, "lon": -77.0256435, "is_disabled": 0, "fusion_lon": 0.0, "is_reserved": 0, "name": "d5730d701493de245b686263b62aa89a", "type": "electric_scooter", "bike_id": "d5730d701493de245b686263b62aa89a", "rental_uris": {"ios": "https://dc.lft.to/lastmile_qr_scan", "android": "https://dc.lft.to/lastmile_qr_scan"}, "fusion_lat": 0.0}, {"lat": 38.974979, "lon": -77.0166725, "is_disabled": 0, "fusion_lon": 0.0, "is_reserved": 0, "name": "b65d2ab4db508647533dd512aebde8a2", "type": "electric_scooter", "bike_id": "b65d2ab4db508647533dd512aebde8a2", "rental_uris": {"ios": "https://dc.lft.to/lastmile_qr_scan", "android": "https://dc.lft.to/lastmile_qr_scan"}, "fusion_lat": 0.0}, {"lat": 38.94183916666667, "lon": -77.02492933333333, "is_disabled": 0, "fusion_lon": 0.0, "is_reserved": 0, "name": "66fb093ae297c9d97ff5a4aab7f63126", "type": "electric_scooter", "bike_id": "66fb093ae297c9d97ff5a4aab7f63126", "rental_uris": {"ios": "https://dc.lft.to/lastmile_qr_scan", "android": "https://dc.lft.to/lastmile_qr_scan"}, "fusion_lat": 0.0}, {"lat": 38.93060466666667, "lon": -77.038185, "is_disabled": 0, "fusion_lon": 0.0, "is_reserved": 0, "name": "e307098d5e021872f8e6cc36533f1bce", "type": "electric_scooter", "bike_id": "e307098d5e021872f8e6cc36533f1bce", "rental_uris": {"ios": "https://dc.lft.to/lastmile_qr_scan", "android": "https://dc.lft.to/lastmile_qr_scan"}, "fusion_lat": 0.0}, {"lat": 38.89776716666667, "lon": -76.991526, "is_disabled": 0, "fusion_lon": 0.0, "is_reserved": 0, "name": "58d1bb38e492d3c95d0200d60443cff7", "type": "electric_scooter", "bike_id": "58d1bb38e492d3c95d0200d60443cff7", "rental_uris": {"ios": "https://dc.lft.to/lastmile_qr_scan", "android": "https://dc.lft.to/lastmile_qr_scan"}, "fusion_lat": 0.0}, {"lat": 38.887426833333336, "lon": -77.030702, "is_disabled": 0, "fusion_lon": 0.0, "is_reserved": 0, "name": "6bafae3e7b1fdda6acfe1f5ba27c0336", "type": "electric_scooter", "bike_id": "6bafae3e7b1fdda6acfe1f5ba27c0336", "rental_uris": {"ios": "https://dc.lft.to/lastmile_qr_scan", "android": "https://dc.lft.to/lastmile_qr_scan"}, "fusion_lat": 0.0}, {"lat": 38.87545266666667, "lon": -77.00536266666667, "is_disabled": 0, "fusion_lon": 0.0, "is_reserved": 0, "name": "1d185163ffa0eb826f2bf175d9097adb", "type": "electric_scooter", "bike_id": "1d185163ffa0eb826f2bf175d9097adb", "rental_uris": {"ios": "https://dc.lft.to/lastmile_qr_scan", "android": "https://dc.lft.to/lastmile_qr_scan"}, "fusion_lat": 0.0}, {"lat": 38.90788933333333, "lon": -77.03756716666666, "is_disabled": 0, "fusion_lon": 0.0, "is_reserved": 0, "name": "a3e6591b2fb4abbfd1a02a8ff7a4299d", "type": "electric_scooter", "bike_id": "a3e6591b2fb4abbfd1a02a8ff7a4299d", "rental_uris": {"ios": "https://dc.lft.to/lastmile_qr_scan", "android": "https://dc.lft.to/lastmile_qr_scan"}, "fusion_lat": 0.0}, {"lat": 38.89352616666667, "lon": -77.00337566666667, "is_disabled": 0, "fusion_lon": 0.0, "is_reserved": 0, "name": "c6536cae54405da9663a0e86b9dd5a1f", "type": "electric_scooter", "bike_id": "c6536cae54405da9663a0e86b9dd5a1f", "rental_uris": {"ios": "https://dc.lft.to/lastmile_qr_scan", "android": "https://dc.lft.to/lastmile_qr_scan"}, "fusion_lat": 0.0}, {"lat": 38.94336883333333, "lon": -76.983182, "is_disabled": 0, "fusion_lon": 0.0, "is_reserved": 0, "name": "0c22a1a64e1ec761ba2ed7e4f07a0a48", "type": "electric_scooter", "bike_id": "0c22a1a64e1ec761ba2ed7e4f07a0a48", "rental_uris": {"ios": "https://dc.lft.to/lastmile_qr_scan", "android": "https://dc.lft.to/lastmile_qr_scan"}, "fusion_lat": 0.0}, {"lat": 38.908146, "lon": -77.034303, "is_disabled": 0, "fusion_lon": 0.0, "is_reserved": 0, "name": "8876222296e8a6f2f9ccc250a43ba32f", "type": "electric_scooter", "bike_id": "8876222296e8a6f2f9ccc250a43ba32f", "rental_uris": {"ios": "https://dc.lft.to/lastmile_qr_scan", "android": "https://dc.lft.to/lastmile_qr_scan"}, "fusion_lat": 0.0}, {"lat": 38.923436333333335, "lon": -77.05177416666666, "is_disabled": 0, "fusion_lon": 0.0, "is_reserved": 0, "name": "fa0726f657c3bbae87d405d77727e93d", "type": "electric_scooter", "bike_id": "fa0726f657c3bbae87d405d77727e93d", "rental_uris": {"ios": "https://dc.lft.to/lastmile_qr_scan", "android": "https://dc.lft.to/lastmile_qr_scan"}, "fusion_lat": 0.0}, {"lat": 38.86752516666667, "lon": -76.94530833333333, "is_disabled": 0, "fusion_lon": 0.0, "is_reserved": 0, "name": "1211e5344e7902f6f8536121b78e64e0", "type": "electric_bike", "bike_id": "1211e5344e7902f6f8536121b78e64e0", "rental_uris": {"ios": "https://dc.lft.to/lastmile_qr_scan", "android": "https://dc.lft.to/lastmile_qr_scan"}, "fusion_lat": 0.0}, {"lat": 38.96609866666667, "lon": -77.027458, "is_disabled": 0, "fusion_lon": 0.0, "is_reserved": 0, "name": "e2f4a398d4f1c98f4ff015d188ec8ec7", "type": "electric_scooter", "bike_id": "e2f4a398d4f1c98f4ff015d188ec8ec7", "rental_uris": {"ios": "https://dc.lft.to/lastmile_qr_scan", "android": "https://dc.lft.to/lastmile_qr_scan"}, "fusion_lat": 0.0}, {"lat": 38.922597333333336, "lon": -77.0528455, "is_disabled": 0, "fusion_lon": 0.0, "is_reserved": 0, "name": "bedff09e4096f28bc158e259396b0686", "type": "electric_scooter", "bike_id": "bedff09e4096f28bc158e259396b0686", "rental_uris": {"ios": "https://dc.lft.to/lastmile_qr_scan", "android": "https://dc.lft.to/lastmile_qr_scan"}, "fusion_lat": 0.0}, {"lat": 38.960478333333334, "lon": -76.9399455, "is_disabled": 0, "fusion_lon": 0.0, "is_reserved": 0, "name": "398a4b1a46cbf69afb1a9b63c8084ffc", "type": "electric_bike", "bike_id": "398a4b1a46cbf69afb1a9b63c8084ffc", "rental_uris": {"ios": "https://dc.lft.to/lastmile_qr_scan", "android": "https://dc.lft.to/lastmile_qr_scan"}, "fusion_lat": 0.0}, {"lat": 38.906462166666664, "lon": -77.0143495, "is_disabled": 0, "fusion_lon": 0.0, "is_reserved": 0, "name": "83c055623fd448fae95a79bb3f919cb5", "type": "electric_scooter", "bike_id": "83c055623fd448fae95a79bb3f919cb5", "rental_uris": {"ios": "https://dc.lft.to/lastmile_qr_scan", "android": "https://dc.lft.to/lastmile_qr_scan"}, "fusion_lat": 0.0}, {"lat": 38.89558266666667, "lon": -77.0467205, "is_disabled": 0, "fusion_lon": 0.0, "is_reserved": 0, "name": "6c1124eeaaf5c97ad1d1611b3d6245b9", "type": "electric_scooter", "bike_id": "6c1124eeaaf5c97ad1d1611b3d6245b9", "rental_uris": {"ios": "https://dc.lft.to/lastmile_qr_scan", "android": "https://dc.lft.to/lastmile_qr_scan"}, "fusion_lat": 0.0}, {"lat": 38.91730783333333, "lon": -77.03617283333334, "is_disabled": 0, "fusion_lon": 0.0, "is_reserved": 0, "name": "61a1b9da79b16a56ef1958932d8e4f5b", "type": "electric_scooter", "bike_id": "61a1b9da79b16a56ef1958932d8e4f5b", "rental_uris": {"ios": "https://dc.lft.to/lastmile_qr_scan", "android": "https://dc.lft.to/lastmile_qr_scan"}, "fusion_lat": 0.0}, {"lat": 38.9185925, "lon": -77.044586, "is_disabled": 0, "fusion_lon": 0.0, "is_reserved": 0, "name": "7f853070dd98f62691c4c4ce4dd549b4", "type": "electric_scooter", "bike_id": "7f853070dd98f62691c4c4ce4dd549b4", "rental_uris": {"ios": "https://dc.lft.to/lastmile_qr_scan", "android": "https://dc.lft.to/lastmile_qr_scan"}, "fusion_lat": 0.0}, {"lat": 38.912806833333335, "lon": -77.04505966666666, "is_disabled": 0, "fusion_lon": 0.0, "is_reserved": 0, "name": "baadfafa65f29a4ef9dfb6477c9aec2b", "type": "electric_scooter", "bike_id": "baadfafa65f29a4ef9dfb6477c9aec2b", "rental_uris": {"ios": "https://dc.lft.to/lastmile_qr_scan", "android": "https://dc.lft.to/lastmile_qr_scan"}, "fusion_lat": 0.0}, {"lat": 38.899263166666664, "lon": -77.04997516666667, "is_disabled": 0, "fusion_lon": 0.0, "is_reserved": 0, "name": "141583f4fe091761141cf3e6e0dde50a", "type": "electric_scooter", "bike_id": "141583f4fe091761141cf3e6e0dde50a", "rental_uris": {"ios": "https://dc.lft.to/lastmile_qr_scan", "android": "https://dc.lft.to/lastmile_qr_scan"}, "fusion_lat": 0.0}, {"lat": 38.898145666666665, "lon": -77.01547116666667, "is_disabled": 0, "fusion_lon": 0.0, "is_reserved": 0, "name": "e019c4ca1c7671dd20b16a78fa063055", "type": "electric_scooter", "bike_id": "e019c4ca1c7671dd20b16a78fa063055", "rental_uris": {"ios": "https://dc.lft.to/lastmile_qr_scan", "android": "https://dc.lft.to/lastmile_qr_scan"}, "fusion_lat": 0.0}, {"lat": 38.887148, "lon": -77.02827616666667, "is_disabled": 0, "fusion_lon": 0.0, "is_reserved": 0, "name": "e6b093f25848464d31118b75905812f9", "type": "electric_scooter", "bike_id": "e6b093f25848464d31118b75905812f9", "rental_uris": {"ios": "https://dc.lft.to/lastmile_qr_scan", "android": "https://dc.lft.to/lastmile_qr_scan"}, "fusion_lat": 0.0}, {"lat": 38.88630883333333, "lon": -76.9258035, "is_disabled": 0, "fusion_lon": 0.0, "is_reserved": 0, "name": "62e0b6c0dec08ef41e9bdf63e5415e2a", "type": "electric_scooter", "bike_id": "62e0b6c0dec08ef41e9bdf63e5415e2a", "rental_uris": {"ios": "https://dc.lft.to/lastmile_qr_scan", "android": "https://dc.lft.to/lastmile_qr_scan"}, "fusion_lat": 0.0}, {"lat": 38.905666833333335, "lon": -77.0628165, "is_disabled": 0, "fusion_lon": 0.0, "is_reserved": 0, "name": "4d8fe7b1bf278076fd2fd791b5492dd5", "type": "electric_scooter", "bike_id": "4d8fe7b1bf278076fd2fd791b5492dd5", "rental_uris": {"ios": "https://dc.lft.to/lastmile_qr_scan", "android": "https://dc.lft.to/lastmile_qr_scan"}, "fusion_lat": 0.0}, {"lat": 38.909471333333336, "lon": -77.0269715, "is_disabled": 0, "fusion_lon": 0.0, "is_reserved": 0, "name": "fc47c6cae40fb220581eba89c30726bc", "type": "electric_scooter", "bike_id": "fc47c6cae40fb220581eba89c30726bc", "rental_uris": {"ios": "https://dc.lft.to/lastmile_qr_scan", "android": "https://dc.lft.to/lastmile_qr_scan"}, "fusion_lat": 0.0}, {"lat": 38.911258833333335, "lon": -77.03186566666666, "is_disabled": 0, "fusion_lon": 0.0, "is_reserved": 0, "name": "436ea721939db836abda12626b2557eb", "type": "electric_scooter", "bike_id": "436ea721939db836abda12626b2557eb", "rental_uris": {"ios": "https://dc.lft.to/lastmile_qr_scan", "android": "https://dc.lft.to/lastmile_qr_scan"}, "fusion_lat": 0.0}, {"lat": 38.878687, "lon": -76.96260366666667, "is_disabled": 0, "fusion_lon": 0.0, "is_reserved": 0, "name": "520f1beea46c2956cd0597143585dcc4", "type": "electric_scooter", "bike_id": "520f1beea46c2956cd0597143585dcc4", "rental_uris": {"ios": "https://dc.lft.to/lastmile_qr_scan", "android": "https://dc.lft.to/lastmile_qr_scan"}, "fusion_lat": 0.0}, {"lat": 38.903866666666666, "lon": -77.03625766666667, "is_disabled": 0, "fusion_lon": 0.0, "is_reserved": 0, "name": "020a0500b070da0f1e84d50a517b1206", "type": "electric_scooter", "bike_id": "020a0500b070da0f1e84d50a517b1206", "rental_uris": {"ios": "https://dc.lft.to/lastmile_qr_scan", "android": "https://dc.lft.to/lastmile_qr_scan"}, "fusion_lat": 0.0}, {"lat": 38.93173783333334, "lon": -77.03667783333333, "is_disabled": 0, "fusion_lon": 0.0, "is_reserved": 0, "name": "c0924030e01235b1c0cb116fee845cd8", "type": "electric_scooter", "bike_id": "c0924030e01235b1c0cb116fee845cd8", "rental_uris": {"ios": "https://dc.lft.to/lastmile_qr_scan", "android": "https://dc.lft.to/lastmile_qr_scan"}, "fusion_lat": 0.0}, {"lat": 38.906284666666664, "lon": -77.05142183333334, "is_disabled": 0, "fusion_lon": 0.0, "is_reserved": 0, "name": "d7fcc679f96ecb653be2f11566da8466", "type": "electric_scooter", "bike_id": "d7fcc679f96ecb653be2f11566da8466", "rental_uris": {"ios": "https://dc.lft.to/lastmile_qr_scan", "android": "https://dc.lft.to/lastmile_qr_scan"}, "fusion_lat": 0.0}, {"lat": 38.9073225, "lon": -77.043369, "is_disabled": 0, "fusion_lon": 0.0, "is_reserved": 0, "name": "9919be32b33d8a7decfe8f5a3cf3aac2", "type": "electric_scooter", "bike_id": "9919be32b33d8a7decfe8f5a3cf3aac2", "rental_uris": {"ios": "https://dc.lft.to/lastmile_qr_scan", "android": "https://dc.lft.to/lastmile_qr_scan"}, "fusion_lat": 0.0}, {"lat": 38.91743833333334, "lon": -77.0693815, "is_disabled": 0, "fusion_lon": 0.0, "is_reserved": 0, "name": "b5da287893029479a2fefbb86ab14f28", "type": "electric_scooter", "bike_id": "b5da287893029479a2fefbb86ab14f28", "rental_uris": {"ios": "https://dc.lft.to/lastmile_qr_scan", "android": "https://dc.lft.to/lastmile_qr_scan"}, "fusion_lat": 0.0}, {"lat": 38.87394116666667, "lon": -77.00027833333333, "is_disabled": 0, "fusion_lon": 0.0, "is_reserved": 0, "name": "14c4ac177f28d6ac2967b9d9f59ca9e9", "type": "electric_scooter", "bike_id": "14c4ac177f28d6ac2967b9d9f59ca9e9", "rental_uris": {"ios": "https://dc.lft.to/lastmile_qr_scan", "android": "https://dc.lft.to/lastmile_qr_scan"}, "fusion_lat": 0.0}, {"lat": 38.918166, "lon": -77.03554866666667, "is_disabled": 0, "fusion_lon": 0.0, "is_reserved": 0, "name": "ce08ffeef6e7d82f25c7a65fb5b200bb", "type": "electric_scooter", "bike_id": "ce08ffeef6e7d82f25c7a65fb5b200bb", "rental_uris": {"ios": "https://dc.lft.to/lastmile_qr_scan", "android": "https://dc.lft.to/lastmile_qr_scan"}, "fusion_lat": 0.0}, {"lat": 38.87501116666667, "lon": -77.00171766666666, "is_disabled": 0, "fusion_lon": 0.0, "is_reserved": 0, "name": "2a8cd6223b9df4a250b033eb1286f0b2", "type": "electric_scooter", "bike_id": "2a8cd6223b9df4a250b033eb1286f0b2", "rental_uris": {"ios": "https://dc.lft.to/lastmile_qr_scan", "android": "https://dc.lft.to/lastmile_qr_scan"}, "fusion_lat": 0.0}, {"lat": 38.915738, "lon": -77.021833, "is_disabled": 0, "fusion_lon": 0.0, "is_reserved": 0, "name": "236e55913cdff7d811adbed091c6885e", "type": "electric_scooter", "bike_id": "236e55913cdff7d811adbed091c6885e", "rental_uris": {"ios": "https://dc.lft.to/lastmile_qr_scan", "android": "https://dc.lft.to/lastmile_qr_scan"}, "fusion_lat": 0.0}, {"lat": 38.909466, "lon": -77.03440116666667, "is_disabled": 0, "fusion_lon": 0.0, "is_reserved": 0, "name": "7c465f677176eb56cfb9f1288e587a8a", "type": "electric_scooter", "bike_id": "7c465f677176eb56cfb9f1288e587a8a", "rental_uris": {"ios": "https://dc.lft.to/lastmile_qr_scan", "android": "https://dc.lft.to/lastmile_qr_scan"}, "fusion_lat": 0.0}, {"lat": 38.90029883333333, "lon": -76.9918865, "is_disabled": 0, "fusion_lon": 0.0, "is_reserved": 0, "name": "9d0699ae758042ceee19a22f7aefab30", "type": "electric_scooter", "bike_id": "9d0699ae758042ceee19a22f7aefab30", "rental_uris": {"ios": "https://dc.lft.to/lastmile_qr_scan", "android": "https://dc.lft.to/lastmile_qr_scan"}, "fusion_lat": 0.0},